{"last_updated":1729364866,"ttl":60,"version":"2.2","data":{"bikes":[{"bike_id":"2058f8ef-42f7-4c3f-9cb7-b8ae43c1e352","system_id":"levelo_inurba_marseille","lat":43.31115,"lon":5.37776,"is_reserved":false,"is_disabled":false,"rental_uris":{"android":"levelo://app?vid=2058f8ef-42f7-4c3f-9cb7-b8ae43c1e352","ios":"levelo://app?vid=2058f8ef-42f7-4c3f-9cb7-b8ae43c1e352"},"vehicle_type_id":"4","last_reported":1729364866,"current_range_meters":38000,"station_id":"ce4bgt92rcd13ifvqcg0","pricing_plan_id":"cebpf4jnsgd1na2vs0mg"},{"bike_id":"e0c1c190-f593-46fe-bb79-778451e7242d","system_id":"levelo_inurba_marseille","lat":43.32341,"lon":5.40624,"is_reserved":false,"is_disabled":false,"rental_uris":{"android":"levelo://app?vid=e0c1c190-f593-46fe-bb79-778451e7242d","ios":"levelo://app?vid=e0c1c190-f593-46fe-bb79-778451e7242d"},"vehicle_type_id":"4","last_reported":1729364866,"current_range_meters":23200,"station_id":"ce4bhq92rcd13ifvqhjg","pricing_plan_id":"cebpf4jnsgd1na2vs0mg"},{"bike_id":"e0879c3f-10eb-4d3b-8053-605cb1c6310c","system_id":"levelo_inurba_marseille","lat":43.26059,"lon":5.39392,"is_reserved":false,"is_disabled":false,"rental_uris":{"android":"levelo://app?vid=e0879c3f-10eb-4d3b-8053-605cb1c6310c","ios":"levelo://app?vid=e0879c3f-10eb-4d3b-8053-605cb1c6310c"},"vehicle_type_id":"4","last_reported":1729364866,"current_range_meters":25200,"station_id":"ce4bhh92rcd13ifvqfj0","pricing_plan_id":"cebpf4jnsgd1na2vs0mg"},{"bike_id":"36cbb4c0-d84d-4422-b38f-bdbfb7eaacde","system_id":"levelo_inurba_marseille","lat":43.31364,"lon":5.38496,"is_reserved":false,"is_disabled":false,"rental_uris":{"android":"levelo://app?vid=36cbb4c0-d84d-4422-b38f-bdbfb7eaacde","ios":"levelo://app?vid=36cbb4c0-d84d-4422-b38f-bdbfb7eaacde"},"vehicle_type_id":"4","last_reported":1729364866,"current_range_meters":23200,"station_id":"ce4bgt92rcd13ifvqcf0","pricing_plan_id":"cebpf4jnsgd1na2vs0mg"},{"bike_id":"6b6ebed7-839f-4495-a0bc-05e67997ccb4","system_id":"levelo_inurba_marseille","lat":43.2998,"lon":5.37169,"is_reserved":false,"is_disabled":false,"rental_uris":{"android":"levelo://app?vid=6b6ebed7-839f-4495-a0bc-05e67997ccb4","ios":"levelo://app?vid=6b6ebed7-839f-4495-a0bc-05e67997ccb4"},"vehicle_type_id":"4","last_reported":1729364866,"current_range_meters":38800,"station_id":"ce4bgr92rcd13ifvqc7g","pricing_plan_id":"cebpf4jnsgd1na2vs0mg"},{"bike_id":"a8d2cfa4-d275-47c6-84f3-c214a2d8d7b4","system_id":"levelo_inurba_marseille","lat":43.31488,"lon":5.37307,"is_reserved":false,"is_disabled":false,"rental_uris":{"android":"levelo://app?vid=a8d2cfa4-d275-47c6-84f3-c214a2d8d7b4","ios":"levelo://app?vid=a8d2cfa4-d275-47c6-84f3-c214a2d8d7b4"},"vehicle_type_id":"4","last_reported":1729364866,"current_range_meters":38800,"station_id":"ce4bgt12rcd13ifvqcd0","pricing_plan_id":"cebpf4jnsgd1na2vs0mg"},{"bike_id":"28725b73-d7fe-4862-97ae-230d0eddb948","system_id":"levelo_inurba_marseille","lat":43.31503,"lon":5.3731,"is_reserved":false,"is_disabled":false,"rental_uris":{"android":"levelo://app?vid=28725b73-d7fe-4862-97ae-230d0eddb948","ios":"levelo://app?vid=28725b73-d7fe-4862-97ae-230d0eddb948"},"vehicle_type_id":"4","last_reported":1729364866,"current_range_meters":30000,"station_id":"ce4bgt12rcd13ifvqcd0","pricing_plan_id":"cebpf4jnsgd1na2vs0mg"},{"bike_id":"474ccd54-d884-4c48-ac27-1f7190ae4438","system_id":"levelo_inurba_marseille","lat":43.33723,"lon":5.39199,"is_reserved":false,"is_disabled":false,"rental_uris":{"android":"levelo://app?vid=474ccd54-d884-4c48-ac27-1f7190ae4438","ios":"levelo://app?vid=474ccd54-d884-4c48-ac27-1f7190ae4438"},"vehicle_type_id":"4","last_reported":1729364866,"current_range_meters":10800,"station_id":"ce4bhr92rcd13ifvqhsg","pricing_plan_id":"cebpf4jnsgd1na2vs0mg"},{"bike_id":"760c49f5-20fe-4a12-800f-11e8602a9326","system_id":"levelo_inurba_marseille","lat":43.30952,"lon":5.39036,"is_reserved":false,"is_disabled":false,"rental_uris":{"android":"levelo://app?vid=760c49f5-20fe-4a12-800f-11e8602a9326","ios":"levelo://app?vid=760c49f5-20fe-4a12-800f-11e8602a9326"},"vehicle_type_id":"4","last_reported":1729364866,"current_range_meters":27200,"station_id":"ce4bgup2rcd13ifvqco0","pricing_plan_id":"cebpf4jnsgd1na2vs0mg"},{"bike_id":"f10e023b-d9ed-435e-a6cc-014449985f7f","system_id":"levelo_inurba_marseille","lat":43.307953,"lon":5.376376,"is_reserved":false,"is_disabled":false,"rental_uris":{"android":"levelo://app?vid=f10e023b-d9ed-435e-a6cc-014449985f7f","ios":"levelo://app?vid=f10e023b-d9ed-435e-a6cc-014449985f7f"},"vehicle_type_id":"4","last_reported":1729364866,"current_range_meters":4000,"station_id":"ce4bgv92rcd13ifvqcq0","pricing_plan_id":"cebpf4jnsgd1na2vs0mg"},{"bike_id":"41b5d485-a052-4a6b-9c40-a992eb7e5bec","system_id":"levelo_inurba_marseille","lat":43.28035,"lon":5.36948,"is_reserved":false,"is_disabled":false,"rental_uris":{"android":"levelo://app?vid=41b5d485-a052-4a6b-9c40-a992eb7e5bec","ios":"levelo://app?vid=41b5d485-a052-4a6b-9c40-a992eb7e5bec"},"vehicle_type_id":"4","last_reported":1729364866,"current_range_meters":8000,"station_id":"ce4bha12rcd13ifvqef0","pricing_plan_id":"cebpf4jnsgd1na2vs0mg"},{"bike_id":"9076ac2c-b296-421e-ba17-5165ca432cce","system_id":"levelo_inurba_marseille","lat":43.28077,"lon":5.39662,"is_reserved":false,"is_disabled":false,"rental_uris":{"android":"levelo://app?vid=9076ac2c-b296-421e-ba17-5165ca432cce","ios":"levelo://app?vid=9076ac2c-b296-421e-ba17-5165ca432cce"},"vehicle_type_id":"4","last_reported":1729364866,"current_range_meters":38400,"station_id":"ce4bho12rcd13ifvqh2g","pricing_plan_id":"cebpf4jnsgd1na2vs0mg"},{"bike_id":"9ffe44ee-d68d-4e9c-8d56-bb0a488748b7","system_id":"levelo_inurba_marseille","lat":43.29095,"lon":5.38123,"is_reserved":false,"is_disabled":false,"rental_uris":{"android":"levelo://app?vid=9ffe44ee-d68d-4e9c-8d56-bb0a488748b7","ios":"levelo://app?vid=9ffe44ee-d68d-4e9c-8d56-bb0a488748b7"},"vehicle_type_id":"4","last_reported":1729364866,"current_range_meters":4000,"station_id":"ce4bh512rcd13ifvqe2g","pricing_plan_id":"cebpf4jnsgd1na2vs0mg"},{"bike_id":"fbbe0d06-164f-4ea4-953c-b309077bc14e","system_id":"levelo_inurba_marseille","lat":43.32542,"lon":5.41432,"is_reserved":false,"is_disabled":false,"rental_uris":{"android":"levelo://app?vid=fbbe0d06-164f-4ea4-953c-b309077bc14e","ios":"levelo://app?vid=fbbe0d06-164f-4ea4-953c-b309077bc14e"},"vehicle_type_id":"4","last_reported":1729364866,"current_range_meters":7200,"station_id":"ce4bhq12rcd13ifvqhhg","pricing_plan_id":"cebpf4jnsgd1na2vs0mg"},{"bike_id":"fc6e513b-da81-4d34-a427-493e42edd768","system_id":"levelo_inurba_marseille","lat":43.29539,"lon":5.39244,"is_reserved":false,"is_disabled":false,"rental_uris":{"android":"levelo://app?vid=fc6e513b-da81-4d34-a427-493e42edd768","ios":"levelo://app?vid=fc6e513b-da81-4d34-a427-493e42edd768"},"vehicle_type_id":"4","last_reported":1729364866,"current_range_meters":20400,"station_id":"","pricing_plan_id":"cebpf4jnsgd1na2vs0mg"},{"bike_id":"2201e775-c6f3-4f4a-b99c-2d6f6bde2da7","system_id":"levelo_inurba_marseille","lat":43.288507,"lon":5.358447,"is_reserved":false,"is_disabled":false,"rental_uris":{"android":"levelo://app?vid=2201e775-c6f3-4f4a-b99c-2d6f6bde2da7","ios":"levelo://app?vid=2201e775-c6f3-4f4a-b99c-2d6f6bde2da7"},"vehicle_type_id":"4","last_reported":1729364866,"current_range_meters":6400,"station_id":"ce4bhb12rcd13ifvqem0","pricing_plan_id":"cebpf4jnsgd1na2vs0mg"},{"bike_id":"ecb85f99-17b9-4bf1-829c-0f61a2cf1ee6","system_id":"levelo_inurba_marseille","lat":43.279766,"lon":5.416788,"is_reserved":false,"is_disabled":false,"rental_uris":{"android":"levelo://app?vid=ecb85f99-17b9-4bf1-829c-0f61a2cf1ee6","ios":"levelo://app?vid=ecb85f99-17b9-4bf1-829c-0f61a2cf1ee6"},"vehicle_type_id":"4","last_reported":1729364866,"current_range_meters":12000,"station_id":"ce4bho12rcd13ifvqh1g","pricing_plan_id":"cebpf4jnsgd1na2vs0mg"},{"bike_id":"d0201ef7-288d-41c0-a113-a9447266d47b","system_id":"levelo_inurba_marseille","lat":43.30887,"lon":5.39654,"is_reserved":false,"is_disabled":false,"rental_uris":{"android":"levelo://app?vid=d0201ef7-288d-41c0-a113-a9447266d47b","ios":"levelo://app?vid=d0201ef7-288d-41c0-a113-a9447266d47b"},"vehicle_type_id":"4","last_reported":1729364866,"current_range_meters":4000,"station_id":"ce4bh012rcd13ifvqcv0","pricing_plan_id":"cebpf4jnsgd1na2vs0mg"},{"bike_id":"57dd0012-e7c2-43e3-90a1-087125ac63fa","system_id":"levelo_inurba_marseille","lat":43.33753,"lon":5.37454,"is_reserved":false,"is_disabled":false,"rental_uris":{"android":"levelo://app?vid=57dd0012-e7c2-43e3-90a1-087125ac63fa","ios":"levelo://app?vid=57dd0012-e7c2-43e3-90a1-087125ac63fa"},"vehicle_type_id":"4","last_reported":1729364866,"current_range_meters":38400,"station_id":"","pricing_plan_id":"cebpf4jnsgd1na2vs0mg"},{"bike_id":"e05bf8cc-1098-4d1f-abc4-e65a1f6d6475","system_id":"levelo_inurba_marseille","lat":43.27068,"lon":5.42292,"is_reserved":false,"is_disabled":false,"rental_uris":{"android":"levelo://app?vid=e05bf8cc-1098-4d1f-abc4-e65a1f6d6475","ios":"levelo://app?vid=e05bf8cc-1098-4d1f-abc4-e65a1f6d6475"},"vehicle_type_id":"4","last_reported":1729364866,"current_range_meters":23200,"station_id":"ce4bhk92rcd13ifvqgb0","pricing_plan_id":"cebpf4jnsgd1na2vs0mg"},{"bike_id":"580fd143-444b-4424-b5bb-4b9e450f75b5","system_id":"levelo_inurba_marseille","lat":43.27939,"lon":5.41049,"is_reserved":false,"is_disabled":false,"rental_uris":{"android":"levelo://app?vid=580fd143-444b-4424-b5bb-4b9e450f75b5","ios":"levelo://app?vid=580fd143-444b-4424-b5bb-4b9e450f75b5"},"vehicle_type_id":"4","last_reported":1729364866,"current_range_meters":33600,"station_id":"ce4bhnp2rcd13ifvqh0g","pricing_plan_id":"cebpf4jnsgd1na2vs0mg"},{"bike_id":"d246c3c5-e1f0-46fd-8918-ea22c4a257a9","system_id":"levelo_inurba_marseille","lat":43.278037,"lon":5.407065,"is_reserved":false,"is_disabled":false,"rental_uris":{"android":"levelo://app?vid=d246c3c5-e1f0-46fd-8918-ea22c4a257a9","ios":"levelo://app?vid=d246c3c5-e1f0-46fd-8918-ea22c4a257a9"},"vehicle_type_id":"4","last_reported":1729364866,"current_range_meters":14000,"station_id":"ce4bhg92rcd13ifvqf90","pricing_plan_id":"cebpf4jnsgd1na2vs0mg"},{"bike_id":"228e369e-c282-4594-bb9c-3f55e96624ce","system_id":"levelo_inurba_marseille","lat":43.27498,"lon":5.42453,"is_reserved":false,"is_disabled":false,"rental_uris":{"android":"levelo://app?vid=228e369e-c282-4594-bb9c-3f55e96624ce","ios":"levelo://app?vid=228e369e-c282-4594-bb9c-3f55e96624ce"},"vehicle_type_id":"4","last_reported":1729364866,"current_range_meters":22400,"station_id":"ce4bhn92rcd13ifvqgrg","pricing_plan_id":"cebpf4jnsgd1na2vs0mg"},{"bike_id":"23d9e636-ad20-4a20-bcb0-8f0dbce3c0b6","system_id":"levelo_inurba_marseille","lat":43.31354,"lon":5.36727,"is_reserved":false,"is_disabled":false,"rental_uris":{"android":"levelo://app?vid=23d9e636-ad20-4a20-bcb0-8f0dbce3c0b6","ios":"levelo://app?vid=23d9e636-ad20-4a20-bcb0-8f0dbce3c0b6"},"vehicle_type_id":"4","last_reported":1729364866,"current_range_meters":38000,"station_id":"ce4bgr92rcd13ifvqc6g","pricing_plan_id":"cebpf4jnsgd1na2vs0mg"},{"bike_id":"4fda521a-641a-43cc-8a54-118471fcf101","system_id":"levelo_inurba_marseille","lat":43.29154,"lon":5.37161,"is_reserved":false,"is_disabled":false,"rental_uris":{"android":"levelo://app?vid=4fda521a-641a-43cc-8a54-118471fcf101","ios":"levelo://app?vid=4fda521a-641a-43cc-8a54-118471fcf101"},"vehicle_type_id":"4","last_reported":1729364866,"current_range_meters":32000,"station_id":"ce4bha92rcd13ifvqeh0","pricing_plan_id":"cebpf4jnsgd1na2vs0mg"},{"bike_id":"110bebee-67f9-4910-8041-a26632454ed0","system_id":"levelo_inurba_marseille","lat":43.30096,"lon":5.39075,"is_reserved":false,"is_disabled":false,"rental_uris":{"android":"levelo://app?vid=110bebee-67f9-4910-8041-a26632454ed0","ios":"levelo://app?vid=110bebee-67f9-4910-8041-a26632454ed0"},"vehicle_type_id":"4","last_reported":1729364866,"current_range_meters":33200,"station_id":"ce4bh192rcd13ifvqdb0","pricing_plan_id":"cebpf4jnsgd1na2vs0mg"},{"bike_id":"ae16721c-86b2-415e-9ceb-03b0c408666d","system_id":"levelo_inurba_marseille","lat":43.29426,"lon":5.38632,"is_reserved":false,"is_disabled":false,"rental_uris":{"android":"levelo://app?vid=ae16721c-86b2-415e-9ceb-03b0c408666d","ios":"levelo://app?vid=ae16721c-86b2-415e-9ceb-03b0c408666d"},"vehicle_type_id":"4","last_reported":1729364866,"current_range_meters":38800,"station_id":"ce4bh2h2rcd13ifvqdh0","pricing_plan_id":"cebpf4jnsgd1na2vs0mg"},{"bike_id":"f808e58c-6470-42a6-a14b-f93c40958b5d","system_id":"levelo_inurba_marseille","lat":43.25503,"lon":5.37653,"is_reserved":false,"is_disabled":false,"rental_uris":{"android":"levelo://app?vid=f808e58c-6470-42a6-a14b-f93c40958b5d","ios":"levelo://app?vid=f808e58c-6470-42a6-a14b-f93c40958b5d"},"vehicle_type_id":"4","last_reported":1729364866,"current_range_meters":21600,"station_id":"ce4bhh12rcd13ifvqff0","pricing_plan_id":"cebpf4jnsgd1na2vs0mg"},{"bike_id":"319e285c-82b5-439b-a7b4-0550bf15a6bf","system_id":"levelo_inurba_marseille","lat":43.24995,"lon":5.38937,"is_reserved":false,"is_disabled":false,"rental_uris":{"android":"levelo://app?vid=319e285c-82b5-439b-a7b4-0550bf15a6bf","ios":"levelo://app?vid=319e285c-82b5-439b-a7b4-0550bf15a6bf"},"vehicle_type_id":"4","last_reported":1729364866,"current_range_meters":26000,"station_id":"ce4bhgp2rcd13ifvqfd0","pricing_plan_id":"cebpf4jnsgd1na2vs0mg"},{"bike_id":"dc685923-4a33-4fe2-87cd-d3d6be1f4a42","system_id":"levelo_inurba_marseille","lat":43.28152,"lon":5.4265,"is_reserved":false,"is_disabled":false,"rental_uris":{"android":"levelo://app?vid=dc685923-4a33-4fe2-87cd-d3d6be1f4a42","ios":"levelo://app?vid=dc685923-4a33-4fe2-87cd-d3d6be1f4a42"},"vehicle_type_id":"4","last_reported":1729364866,"current_range_meters":38800,"station_id":"ce4bhnh2rcd13ifvqgug","pricing_plan_id":"cebpf4jnsgd1na2vs0mg"},{"bike_id":"f2e4781e-e4e0-444d-9b93-e4df9960fb6a","system_id":"levelo_inurba_marseille","lat":43.29053,"lon":5.35912,"is_reserved":false,"is_disabled":false,"rental_uris":{"android":"levelo://app?vid=f2e4781e-e4e0-444d-9b93-e4df9960fb6a","ios":"levelo://app?vid=f2e4781e-e4e0-444d-9b93-e4df9960fb6a"},"vehicle_type_id":"4","last_reported":1729364866,"current_range_meters":4400,"station_id":"ce4bha92rcd13ifvqeg0","pricing_plan_id":"cebpf4jnsgd1na2vs0mg"},{"bike_id":"d0fbfc9a-64a8-4985-a106-0c11828172a1","system_id":"levelo_inurba_marseille","lat":43.32105,"lon":5.36778,"is_reserved":false,"is_disabled":false,"rental_uris":{"android":"levelo://app?vid=d0fbfc9a-64a8-4985-a106-0c11828172a1","ios":"levelo://app?vid=d0fbfc9a-64a8-4985-a106-0c11828172a1"},"vehicle_type_id":"4","last_reported":1729364866,"current_range_meters":38800,"station_id":"ce4bhrh2rcd13ifvqhug","pricing_plan_id":"cebpf4jnsgd1na2vs0mg"},{"bike_id":"9056a16e-faf6-4cce-8e36-d088562694a2","system_id":"levelo_inurba_marseille","lat":43.29878,"lon":5.38906,"is_reserved":false,"is_disabled":false,"rental_uris":{"android":"levelo://app?vid=9056a16e-faf6-4cce-8e36-d088562694a2","ios":"levelo://app?vid=9056a16e-faf6-4cce-8e36-d088562694a2"},"vehicle_type_id":"4","last_reported":1729364866,"current_range_meters":2800,"station_id":"ce4bh392rcd13ifvqdl0","pricing_plan_id":"cebpf4jnsgd1na2vs0mg"},{"bike_id":"de206718-1487-4450-8315-833bcef54f97","system_id":"levelo_inurba_marseille","lat":43.32484,"lon":5.36569,"is_reserved":false,"is_disabled":false,"rental_uris":{"android":"levelo://app?vid=de206718-1487-4450-8315-833bcef54f97","ios":"levelo://app?vid=de206718-1487-4450-8315-833bcef54f97"},"vehicle_type_id":"4","last_reported":1729364866,"current_range_meters":38800,"station_id":"ce4bhs12rcd13ifvqhvg","pricing_plan_id":"cebpf4jnsgd1na2vs0mg"},{"bike_id":"e9370aaf-852b-4ddb-b814-2342e3b98ec4","system_id":"levelo_inurba_marseille","lat":43.29026,"lon":5.3864,"is_reserved":false,"is_disabled":false,"rental_uris":{"android":"levelo://app?vid=e9370aaf-852b-4ddb-b814-2342e3b98ec4","ios":"levelo://app?vid=e9370aaf-852b-4ddb-b814-2342e3b98ec4"},"vehicle_type_id":"4","last_reported":1729364866,"current_range_meters":38800,"station_id":"ce4bh4p2rcd13ifvqe0g","pricing_plan_id":"cebpf4jnsgd1na2vs0mg"},{"bike_id":"27697a0e-d270-4322-8267-52236ebf4b6b","system_id":"levelo_inurba_marseille","lat":43.29794,"lon":5.3934,"is_reserved":false,"is_disabled":false,"rental_uris":{"android":"levelo://app?vid=27697a0e-d270-4322-8267-52236ebf4b6b","ios":"levelo://app?vid=27697a0e-d270-4322-8267-52236ebf4b6b"},"vehicle_type_id":"4","last_reported":1729364866,"current_range_meters":14000,"station_id":"chh1huq6cuj3fo74tm60","pricing_plan_id":"cebpf4jnsgd1na2vs0mg"},{"bike_id":"80765d0b-64ec-43c9-ba98-526a7b1f5042","system_id":"levelo_inurba_marseille","lat":43.30252,"lon":5.4005,"is_reserved":false,"is_disabled":false,"rental_uris":{"android":"levelo://app?vid=80765d0b-64ec-43c9-ba98-526a7b1f5042","ios":"levelo://app?vid=80765d0b-64ec-43c9-ba98-526a7b1f5042"},"vehicle_type_id":"4","last_reported":1729364866,"current_range_meters":37600,"station_id":"ce4bgvh2rcd13ifvqcs0","pricing_plan_id":"cebpf4jnsgd1na2vs0mg"},{"bike_id":"b870a4dc-c939-4ac9-838b-39e328c80614","system_id":"levelo_inurba_marseille","lat":43.30596,"lon":5.39358,"is_reserved":false,"is_disabled":false,"rental_uris":{"android":"levelo://app?vid=b870a4dc-c939-4ac9-838b-39e328c80614","ios":"levelo://app?vid=b870a4dc-c939-4ac9-838b-39e328c80614"},"vehicle_type_id":"4","last_reported":1729364866,"current_range_meters":11200,"station_id":"ce4bh0p2rcd13ifvqd80","pricing_plan_id":"cebpf4jnsgd1na2vs0mg"},{"bike_id":"79fc3256-8e5b-4a24-b905-f6575b6c059e","system_id":"levelo_inurba_marseille","lat":43.2512,"lon":5.40315,"is_reserved":false,"is_disabled":false,"rental_uris":{"android":"levelo://app?vid=79fc3256-8e5b-4a24-b905-f6575b6c059e","ios":"levelo://app?vid=79fc3256-8e5b-4a24-b905-f6575b6c059e"},"vehicle_type_id":"4","last_reported":1729364866,"current_range_meters":38000,"station_id":"ce4bhlh2rcd13ifvqgig","pricing_plan_id":"cebpf4jnsgd1na2vs0mg"},{"bike_id":"ff9ec1b9-fba8-4b0c-9058-c74c868e0b84","system_id":"levelo_inurba_marseille","lat":43.29884,"lon":5.38914,"is_reserved":false,"is_disabled":false,"rental_uris":{"android":"levelo://app?vid=ff9ec1b9-fba8-4b0c-9058-c74c868e0b84","ios":"levelo://app?vid=ff9ec1b9-fba8-4b0c-9058-c74c868e0b84"},"vehicle_type_id":"4","last_reported":1729364866,"current_range_meters":3200,"station_id":"ce4bh392rcd13ifvqdl0","pricing_plan_id":"cebpf4jnsgd1na2vs0mg"},{"bike_id":"1a768092-f971-4c37-b49e-c65c28a1347b","system_id":"levelo_inurba_marseille","lat":43.29875,"lon":5.39734,"is_reserved":false,"is_disabled":false,"rental_uris":{"android":"levelo://app?vid=1a768092-f971-4c37-b49e-c65c28a1347b","ios":"levelo://app?vid=1a768092-f971-4c37-b49e-c65c28a1347b"},"vehicle_type_id":"4","last_reported":1729364866,"current_range_meters":38800,"station_id":"ce4bh0h2rcd13ifvqd50","pricing_plan_id":"cebpf4jnsgd1na2vs0mg"},{"bike_id":"aeb7c657-6946-46ea-9502-ec0480a64b43","system_id":"levelo_inurba_marseille","lat":43.32488,"lon":5.36569,"is_reserved":false,"is_disabled":false,"rental_uris":{"android":"levelo://app?vid=aeb7c657-6946-46ea-9502-ec0480a64b43","ios":"levelo://app?vid=aeb7c657-6946-46ea-9502-ec0480a64b43"},"vehicle_type_id":"4","last_reported":1729364866,"current_range_meters":14000,"station_id":"ce4bhs12rcd13ifvqhvg","pricing_plan_id":"cebpf4jnsgd1na2vs0mg"},{"bike_id":"fe2c5efc-0fec-40ae-8c77-00fb773d9638","system_id":"levelo_inurba_marseille","lat":43.29195,"lon":5.39324,"is_reserved":false,"is_disabled":false,"rental_uris":{"android":"levelo://app?vid=fe2c5efc-0fec-40ae-8c77-00fb773d9638","ios":"levelo://app?vid=fe2c5efc-0fec-40ae-8c77-00fb773d9638"},"vehicle_type_id":"4","last_reported":1729364866,"current_range_meters":16400,"station_id":"ce4bh192rcd13ifvqdd0","pricing_plan_id":"cebpf4jnsgd1na2vs0mg"},{"bike_id":"08769619-3f21-4bc0-bfc2-be3c72fea16d","system_id":"levelo_inurba_marseille","lat":43.29424,"lon":5.38628,"is_reserved":false,"is_disabled":false,"rental_uris":{"android":"levelo://app?vid=08769619-3f21-4bc0-bfc2-be3c72fea16d","ios":"levelo://app?vid=08769619-3f21-4bc0-bfc2-be3c72fea16d"},"vehicle_type_id":"4","last_reported":1729364866,"current_range_meters":6400,"station_id":"ce4bh2h2rcd13ifvqdh0","pricing_plan_id":"cebpf4jnsgd1na2vs0mg"},{"bike_id":"21cfe73d-eb60-4204-915d-a2f2fd4f4ee5","system_id":"levelo_inurba_marseille","lat":43.29518,"lon":5.39416,"is_reserved":false,"is_disabled":false,"rental_uris":{"android":"levelo://app?vid=21cfe73d-eb60-4204-915d-a2f2fd4f4ee5","ios":"levelo://app?vid=21cfe73d-eb60-4204-915d-a2f2fd4f4ee5"},"vehicle_type_id":"4","last_reported":1729364866,"current_range_meters":32400,"station_id":"ce4bh292rcd13ifvqdf0","pricing_plan_id":"cebpf4jnsgd1na2vs0mg"},{"bike_id":"df0764bb-73ac-46d7-903f-a26945b45d7c","system_id":"levelo_inurba_marseille","lat":43.24622,"lon":5.41608,"is_reserved":false,"is_disabled":false,"rental_uris":{"android":"levelo://app?vid=df0764bb-73ac-46d7-903f-a26945b45d7c","ios":"levelo://app?vid=df0764bb-73ac-46d7-903f-a26945b45d7c"},"vehicle_type_id":"4","last_reported":1729364866,"current_range_meters":27600,"station_id":"","pricing_plan_id":"cebpf4jnsgd1na2vs0mg"},{"bike_id":"766da900-471d-42f5-8cfa-8db494f945d7","system_id":"levelo_inurba_marseille","lat":43.28912,"lon":5.46058,"is_reserved":false,"is_disabled":false,"rental_uris":{"android":"levelo://app?vid=766da900-471d-42f5-8cfa-8db494f945d7","ios":"levelo://app?vid=766da900-471d-42f5-8cfa-8db494f945d7"},"vehicle_type_id":"4","last_reported":1729364866,"current_range_meters":28000,"station_id":"","pricing_plan_id":"cebpf4jnsgd1na2vs0mg"},{"bike_id":"e700e4d8-85f6-44d8-80b4-4749efe0ea4f","system_id":"levelo_inurba_marseille","lat":43.29198,"lon":5.393312,"is_reserved":false,"is_disabled":false,"rental_uris":{"android":"levelo://app?vid=e700e4d8-85f6-44d8-80b4-4749efe0ea4f","ios":"levelo://app?vid=e700e4d8-85f6-44d8-80b4-4749efe0ea4f"},"vehicle_type_id":"4","last_reported":1729364866,"current_range_meters":10800,"station_id":"ce4bh192rcd13ifvqdd0","pricing_plan_id":"cebpf4jnsgd1na2vs0mg"},{"bike_id":"d31870b8-1a00-47d0-af7b-91ff70d437e0","system_id":"levelo_inurba_marseille","lat":43.24809,"lon":5.37459,"is_reserved":false,"is_disabled":false,"rental_uris":{"android":"levelo://app?vid=d31870b8-1a00-47d0-af7b-91ff70d437e0","ios":"levelo://app?vid=d31870b8-1a00-47d0-af7b-91ff70d437e0"},"vehicle_type_id":"4","last_reported":1729364866,"current_range_meters":6000,"station_id":"ce4bhgh2rcd13ifvqfb0","pricing_plan_id":"cebpf4jnsgd1na2vs0mg"},{"bike_id":"e94d3181-8352-416f-a49b-b5f4ccd77bcf","system_id":"levelo_inurba_marseille","lat":43.24809,"lon":5.37457,"is_reserved":false,"is_disabled":false,"rental_uris":{"android":"levelo://app?vid=e94d3181-8352-416f-a49b-b5f4ccd77bcf","ios":"levelo://app?vid=e94d3181-8352-416f-a49b-b5f4ccd77bcf"},"vehicle_type_id":"4","last_reported":1729364866,"current_range_meters":25200,"station_id":"ce4bhgh2rcd13ifvqfb0","pricing_plan_id":"cebpf4jnsgd1na2vs0mg"},{"bike_id":"3ed84b13-74d5-4667-8f30-b3bb91c76561","system_id":"levelo_inurba_marseille","lat":43.28102,"lon":5.3784,"is_reserved":false,"is_disabled":false,"rental_uris":{"android":"levelo://app?vid=3ed84b13-74d5-4667-8f30-b3bb91c76561","ios":"levelo://app?vid=3ed84b13-74d5-4667-8f30-b3bb91c76561"},"vehicle_type_id":"4","last_reported":1729364866,"current_range_meters":10000,"station_id":"ce4bha12rcd13ifvqee0","pricing_plan_id":"cebpf4jnsgd1na2vs0mg"},{"bike_id":"0239e896-9754-478d-bfef-977cfc68cd96","system_id":"levelo_inurba_marseille","lat":43.29024,"lon":5.38641,"is_reserved":false,"is_disabled":false,"rental_uris":{"android":"levelo://app?vid=0239e896-9754-478d-bfef-977cfc68cd96","ios":"levelo://app?vid=0239e896-9754-478d-bfef-977cfc68cd96"},"vehicle_type_id":"4","last_reported":1729364866,"current_range_meters":38800,"station_id":"ce4bh4p2rcd13ifvqe0g","pricing_plan_id":"cebpf4jnsgd1na2vs0mg"},{"bike_id":"fe66503f-646e-4ad9-8c91-a0694377ae75","system_id":"levelo_inurba_marseille","lat":43.28033,"lon":5.36959,"is_reserved":false,"is_disabled":false,"rental_uris":{"android":"levelo://app?vid=fe66503f-646e-4ad9-8c91-a0694377ae75","ios":"levelo://app?vid=fe66503f-646e-4ad9-8c91-a0694377ae75"},"vehicle_type_id":"4","last_reported":1729364866,"current_range_meters":20800,"station_id":"ce4bha12rcd13ifvqef0","pricing_plan_id":"cebpf4jnsgd1na2vs0mg"},{"bike_id":"725408fd-f191-4840-b9a1-c73737af192a","system_id":"levelo_inurba_marseille","lat":43.29372,"lon":5.37843,"is_reserved":false,"is_disabled":false,"rental_uris":{"android":"levelo://app?vid=725408fd-f191-4840-b9a1-c73737af192a","ios":"levelo://app?vid=725408fd-f191-4840-b9a1-c73737af192a"},"vehicle_type_id":"4","last_reported":1729364866,"current_range_meters":16000,"station_id":"ce4bgjh2rcd13ifvqbf0","pricing_plan_id":"cebpf4jnsgd1na2vs0mg"},{"bike_id":"10a655ef-1674-477b-8bf3-b81062b57371","system_id":"levelo_inurba_marseille","lat":43.30134,"lon":5.39837,"is_reserved":false,"is_disabled":false,"rental_uris":{"android":"levelo://app?vid=10a655ef-1674-477b-8bf3-b81062b57371","ios":"levelo://app?vid=10a655ef-1674-477b-8bf3-b81062b57371"},"vehicle_type_id":"4","last_reported":1729364866,"current_range_meters":19600,"station_id":"ce4bh0h2rcd13ifvqd40","pricing_plan_id":"cebpf4jnsgd1na2vs0mg"},{"bike_id":"7712e18d-b7dd-4e22-b2bd-65489eb0054f","system_id":"levelo_inurba_marseille","lat":43.24071,"lon":5.37764,"is_reserved":false,"is_disabled":false,"rental_uris":{"android":"levelo://app?vid=7712e18d-b7dd-4e22-b2bd-65489eb0054f","ios":"levelo://app?vid=7712e18d-b7dd-4e22-b2bd-65489eb0054f"},"vehicle_type_id":"4","last_reported":1729364866,"current_range_meters":3200,"station_id":"ce4bhnp2rcd13ifvqgvg","pricing_plan_id":"cebpf4jnsgd1na2vs0mg"},{"bike_id":"b9cb22c7-965c-4a00-b135-6db2b2768363","system_id":"levelo_inurba_marseille","lat":43.29203,"lon":5.3932,"is_reserved":false,"is_disabled":false,"rental_uris":{"android":"levelo://app?vid=b9cb22c7-965c-4a00-b135-6db2b2768363","ios":"levelo://app?vid=b9cb22c7-965c-4a00-b135-6db2b2768363"},"vehicle_type_id":"4","last_reported":1729364866,"current_range_meters":18800,"station_id":"ce4bh192rcd13ifvqdd0","pricing_plan_id":"cebpf4jnsgd1na2vs0mg"},{"bike_id":"46fb0839-a2fc-48f3-988a-c0bec4f0a4d5","system_id":"levelo_inurba_marseille","lat":43.29272,"lon":5.38447,"is_reserved":false,"is_disabled":false,"rental_uris":{"android":"levelo://app?vid=46fb0839-a2fc-48f3-988a-c0bec4f0a4d5","ios":"levelo://app?vid=46fb0839-a2fc-48f3-988a-c0bec4f0a4d5"},"vehicle_type_id":"4","last_reported":1729364866,"current_range_meters":8800,"station_id":"","pricing_plan_id":"cebpf4jnsgd1na2vs0mg"},{"bike_id":"9c97e000-26be-436f-85f4-5fd1ffa581c3","system_id":"levelo_inurba_marseille","lat":43.28466,"lon":5.35893,"is_reserved":false,"is_disabled":false,"rental_uris":{"android":"levelo://app?vid=9c97e000-26be-436f-85f4-5fd1ffa581c3","ios":"levelo://app?vid=9c97e000-26be-436f-85f4-5fd1ffa581c3"},"vehicle_type_id":"4","last_reported":1729364866,"current_range_meters":5600,"station_id":"ce4bhah2rcd13ifvqei0","pricing_plan_id":"cebpf4jnsgd1na2vs0mg"},{"bike_id":"6e706dcb-6e41-41b6-a172-73765c66fdaa","system_id":"levelo_inurba_marseille","lat":43.26239,"lon":5.37591,"is_reserved":false,"is_disabled":false,"rental_uris":{"android":"levelo://app?vid=6e706dcb-6e41-41b6-a172-73765c66fdaa","ios":"levelo://app?vid=6e706dcb-6e41-41b6-a172-73765c66fdaa"},"vehicle_type_id":"4","last_reported":1729364866,"current_range_meters":36800,"station_id":"ce4bhhp2rcd13ifvqfm0","pricing_plan_id":"cebpf4jnsgd1na2vs0mg"},{"bike_id":"fd2c87f6-c38a-484a-833a-eff3c4b010a6","system_id":"levelo_inurba_marseille","lat":43.29294,"lon":5.37456,"is_reserved":false,"is_disabled":false,"rental_uris":{"android":"levelo://app?vid=fd2c87f6-c38a-484a-833a-eff3c4b010a6","ios":"levelo://app?vid=fd2c87f6-c38a-484a-833a-eff3c4b010a6"},"vehicle_type_id":"4","last_reported":1729364866,"current_range_meters":38800,"station_id":"ce4bgi12rcd13ifvqb70","pricing_plan_id":"cebpf4jnsgd1na2vs0mg"},{"bike_id":"522bb5dc-efc4-45ac-a026-aafe838b2839","system_id":"levelo_inurba_marseille","lat":43.29776,"lon":5.37095,"is_reserved":false,"is_disabled":false,"rental_uris":{"android":"levelo://app?vid=522bb5dc-efc4-45ac-a026-aafe838b2839","ios":"levelo://app?vid=522bb5dc-efc4-45ac-a026-aafe838b2839"},"vehicle_type_id":"4","last_reported":1729364866,"current_range_meters":38800,"station_id":"ce4bgop2rcd13ifvqc1g","pricing_plan_id":"cebpf4jnsgd1na2vs0mg"},{"bike_id":"925cebb6-25ba-4bff-aaa6-58cf9e792659","system_id":"levelo_inurba_marseille","lat":43.32658,"lon":5.40998,"is_reserved":false,"is_disabled":false,"rental_uris":{"android":"levelo://app?vid=925cebb6-25ba-4bff-aaa6-58cf9e792659","ios":"levelo://app?vid=925cebb6-25ba-4bff-aaa6-58cf9e792659"},"vehicle_type_id":"4","last_reported":1729364866,"current_range_meters":9600,"station_id":"ce4bhpp2rcd13ifvqhgg","pricing_plan_id":"cebpf4jnsgd1na2vs0mg"},{"bike_id":"7772d39f-5e28-445c-af91-069b0cf63793","system_id":"levelo_inurba_marseille","lat":43.33765,"lon":5.37438,"is_reserved":false,"is_disabled":false,"rental_uris":{"android":"levelo://app?vid=7772d39f-5e28-445c-af91-069b0cf63793","ios":"levelo://app?vid=7772d39f-5e28-445c-af91-069b0cf63793"},"vehicle_type_id":"4","last_reported":1729364866,"current_range_meters":8000,"station_id":"","pricing_plan_id":"cebpf4jnsgd1na2vs0mg"},{"bike_id":"733eb2c5-00ab-4d49-8038-dfb888b12557","system_id":"levelo_inurba_marseille","lat":43.31997,"lon":5.38174,"is_reserved":false,"is_disabled":false,"rental_uris":{"android":"levelo://app?vid=733eb2c5-00ab-4d49-8038-dfb888b12557","ios":"levelo://app?vid=733eb2c5-00ab-4d49-8038-dfb888b12557"},"vehicle_type_id":"4","last_reported":1729364866,"current_range_meters":37600,"station_id":"ce4bhr12rcd13ifvqhpg","pricing_plan_id":"cebpf4jnsgd1na2vs0mg"},{"bike_id":"3213665e-989c-4d22-9f5a-31c8522597dd","system_id":"levelo_inurba_marseille","lat":43.296,"lon":5.36142,"is_reserved":false,"is_disabled":false,"rental_uris":{"android":"levelo://app?vid=3213665e-989c-4d22-9f5a-31c8522597dd","ios":"levelo://app?vid=3213665e-989c-4d22-9f5a-31c8522597dd"},"vehicle_type_id":"4","last_reported":1729364866,"current_range_meters":18000,"station_id":"","pricing_plan_id":"cebpf4jnsgd1na2vs0mg"},{"bike_id":"1825369d-1a81-41e7-b27f-fd3a07a61887","system_id":"levelo_inurba_marseille","lat":43.23965,"lon":5.36636,"is_reserved":false,"is_disabled":false,"rental_uris":{"android":"levelo://app?vid=1825369d-1a81-41e7-b27f-fd3a07a61887","ios":"levelo://app?vid=1825369d-1a81-41e7-b27f-fd3a07a61887"},"vehicle_type_id":"4","last_reported":1729364866,"current_range_meters":19200,"station_id":"ce4bhi12rcd13ifvqfp0","pricing_plan_id":"cebpf4jnsgd1na2vs0mg"},{"bike_id":"3f3c663d-a6fd-4091-8533-6c09ca965902","system_id":"levelo_inurba_marseille","lat":43.3119,"lon":5.37715,"is_reserved":false,"is_disabled":false,"rental_uris":{"android":"levelo://app?vid=3f3c663d-a6fd-4091-8533-6c09ca965902","ios":"levelo://app?vid=3f3c663d-a6fd-4091-8533-6c09ca965902"},"vehicle_type_id":"4","last_reported":1729364866,"current_range_meters":18800,"station_id":"","pricing_plan_id":"cebpf4jnsgd1na2vs0mg"},{"bike_id":"d8850303-19c1-4f00-892e-e4cbe4558e2b","system_id":"levelo_inurba_marseille","lat":43.24806,"lon":5.37458,"is_reserved":false,"is_disabled":false,"rental_uris":{"android":"levelo://app?vid=d8850303-19c1-4f00-892e-e4cbe4558e2b","ios":"levelo://app?vid=d8850303-19c1-4f00-892e-e4cbe4558e2b"},"vehicle_type_id":"4","last_reported":1729364866,"current_range_meters":9200,"station_id":"ce4bhgh2rcd13ifvqfb0","pricing_plan_id":"cebpf4jnsgd1na2vs0mg"},{"bike_id":"e52f4bd0-e5a9-408a-8759-62d9fa617a1c","system_id":"levelo_inurba_marseille","lat":43.30208,"lon":5.3947,"is_reserved":false,"is_disabled":false,"rental_uris":{"android":"levelo://app?vid=e52f4bd0-e5a9-408a-8759-62d9fa617a1c","ios":"levelo://app?vid=e52f4bd0-e5a9-408a-8759-62d9fa617a1c"},"vehicle_type_id":"4","last_reported":1729364866,"current_range_meters":26800,"station_id":"ce4bh0p2rcd13ifvqd70","pricing_plan_id":"cebpf4jnsgd1na2vs0mg"},{"bike_id":"f940e11a-e3bc-4296-a9c3-b89a50dac0cd","system_id":"levelo_inurba_marseille","lat":43.27615,"lon":5.36107,"is_reserved":false,"is_disabled":false,"rental_uris":{"android":"levelo://app?vid=f940e11a-e3bc-4296-a9c3-b89a50dac0cd","ios":"levelo://app?vid=f940e11a-e3bc-4296-a9c3-b89a50dac0cd"},"vehicle_type_id":"4","last_reported":1729364866,"current_range_meters":1200,"station_id":"ce4bgj92rcd13ifvqbe0","pricing_plan_id":"cebpf4jnsgd1na2vs0mg"},{"bike_id":"5dd719ab-a213-4094-b2e1-609f6924f39b","system_id":"levelo_inurba_marseille","lat":43.31992,"lon":5.38163,"is_reserved":false,"is_disabled":false,"rental_uris":{"android":"levelo://app?vid=5dd719ab-a213-4094-b2e1-609f6924f39b","ios":"levelo://app?vid=5dd719ab-a213-4094-b2e1-609f6924f39b"},"vehicle_type_id":"4","last_reported":1729364866,"current_range_meters":20800,"station_id":"ce4bhr12rcd13ifvqhpg","pricing_plan_id":"cebpf4jnsgd1na2vs0mg"},{"bike_id":"b4cbf3a7-2ec6-48ec-b584-a6e01dc01e3d","system_id":"levelo_inurba_marseille","lat":43.26954,"lon":5.38639,"is_reserved":false,"is_disabled":false,"rental_uris":{"android":"levelo://app?vid=b4cbf3a7-2ec6-48ec-b584-a6e01dc01e3d","ios":"levelo://app?vid=b4cbf3a7-2ec6-48ec-b584-a6e01dc01e3d"},"vehicle_type_id":"4","last_reported":1729364866,"current_range_meters":14000,"station_id":"ce4bhh92rcd13ifvqfh0","pricing_plan_id":"cebpf4jnsgd1na2vs0mg"},{"bike_id":"546d5904-c47c-4dcd-b670-28a8c2c38b06","system_id":"levelo_inurba_marseille","lat":43.26062,"lon":5.39397,"is_reserved":false,"is_disabled":false,"rental_uris":{"android":"levelo://app?vid=546d5904-c47c-4dcd-b670-28a8c2c38b06","ios":"levelo://app?vid=546d5904-c47c-4dcd-b670-28a8c2c38b06"},"vehicle_type_id":"4","last_reported":1729364866,"current_range_meters":16000,"station_id":"ce4bhh92rcd13ifvqfj0","pricing_plan_id":"cebpf4jnsgd1na2vs0mg"},{"bike_id":"31469a1e-4c4d-4cd2-b056-9c107fc836cc","system_id":"levelo_inurba_marseille","lat":43.2814,"lon":5.40199,"is_reserved":false,"is_disabled":false,"rental_uris":{"android":"levelo://app?vid=31469a1e-4c4d-4cd2-b056-9c107fc836cc","ios":"levelo://app?vid=31469a1e-4c4d-4cd2-b056-9c107fc836cc"},"vehicle_type_id":"4","last_reported":1729364866,"current_range_meters":7200,"station_id":"","pricing_plan_id":"cebpf4jnsgd1na2vs0mg"},{"bike_id":"01f0a21f-3999-4038-8aaf-0f3a293ae117","system_id":"levelo_inurba_marseille","lat":43.29263,"lon":5.38441,"is_reserved":false,"is_disabled":false,"rental_uris":{"android":"levelo://app?vid=01f0a21f-3999-4038-8aaf-0f3a293ae117","ios":"levelo://app?vid=01f0a21f-3999-4038-8aaf-0f3a293ae117"},"vehicle_type_id":"4","last_reported":1729364866,"current_range_meters":34800,"station_id":"","pricing_plan_id":"cebpf4jnsgd1na2vs0mg"},{"bike_id":"762bfc3f-79a8-4ff0-bf57-249a981ea78e","system_id":"levelo_inurba_marseille","lat":43.31221,"lon":5.36872,"is_reserved":false,"is_disabled":false,"rental_uris":{"android":"levelo://app?vid=762bfc3f-79a8-4ff0-bf57-249a981ea78e","ios":"levelo://app?vid=762bfc3f-79a8-4ff0-bf57-249a981ea78e"},"vehicle_type_id":"4","last_reported":1729364866,"current_range_meters":17200,"station_id":"ce4bgl92rcd13ifvqbq0","pricing_plan_id":"cebpf4jnsgd1na2vs0mg"},{"bike_id":"fdc72bbc-b0d9-46d9-a6bb-3f21668ce0c4","system_id":"levelo_inurba_marseille","lat":43.29424,"lon":5.38625,"is_reserved":false,"is_disabled":false,"rental_uris":{"android":"levelo://app?vid=fdc72bbc-b0d9-46d9-a6bb-3f21668ce0c4","ios":"levelo://app?vid=fdc72bbc-b0d9-46d9-a6bb-3f21668ce0c4"},"vehicle_type_id":"4","last_reported":1729364866,"current_range_meters":38800,"station_id":"ce4bh2h2rcd13ifvqdh0","pricing_plan_id":"cebpf4jnsgd1na2vs0mg"},{"bike_id":"5b28be2f-cc82-4704-8fab-d09bc8dbc62e","system_id":"levelo_inurba_marseille","lat":43.24858,"lon":5.38857,"is_reserved":false,"is_disabled":false,"rental_uris":{"android":"levelo://app?vid=5b28be2f-cc82-4704-8fab-d09bc8dbc62e","ios":"levelo://app?vid=5b28be2f-cc82-4704-8fab-d09bc8dbc62e"},"vehicle_type_id":"4","last_reported":1729364866,"current_range_meters":17600,"station_id":"","pricing_plan_id":"cebpf4jnsgd1na2vs0mg"},{"bike_id":"35075742-e63d-40a7-ab1e-226b8a2ce7a0","system_id":"levelo_inurba_marseille","lat":43.31729,"lon":5.42395,"is_reserved":false,"is_disabled":false,"rental_uris":{"android":"levelo://app?vid=35075742-e63d-40a7-ab1e-226b8a2ce7a0","ios":"levelo://app?vid=35075742-e63d-40a7-ab1e-226b8a2ce7a0"},"vehicle_type_id":"4","last_reported":1729364866,"current_range_meters":21600,"station_id":"ce4bhp92rcd13ifvqhbg","pricing_plan_id":"cebpf4jnsgd1na2vs0mg"},{"bike_id":"fc56ab9b-311f-4973-a41f-2d86b7fda071","system_id":"levelo_inurba_marseille","lat":43.29276,"lon":5.36846,"is_reserved":false,"is_disabled":false,"rental_uris":{"android":"levelo://app?vid=fc56ab9b-311f-4973-a41f-2d86b7fda071","ios":"levelo://app?vid=fc56ab9b-311f-4973-a41f-2d86b7fda071"},"vehicle_type_id":"4","last_reported":1729364866,"current_range_meters":16400,"station_id":"ce4bhbp2rcd13ifvqesg","pricing_plan_id":"cebpf4jnsgd1na2vs0mg"},{"bike_id":"a50da574-03c5-475b-b6c5-e3885a5b2ef0","system_id":"levelo_inurba_marseille","lat":43.28152,"lon":5.42635,"is_reserved":false,"is_disabled":false,"rental_uris":{"android":"levelo://app?vid=a50da574-03c5-475b-b6c5-e3885a5b2ef0","ios":"levelo://app?vid=a50da574-03c5-475b-b6c5-e3885a5b2ef0"},"vehicle_type_id":"4","last_reported":1729364866,"current_range_meters":22400,"station_id":"ce4bhnh2rcd13ifvqgug","pricing_plan_id":"cebpf4jnsgd1na2vs0mg"},{"bike_id":"fac9a3a2-2dd0-4efd-afd6-73cc4f4edd9a","system_id":"levelo_inurba_marseille","lat":43.24809,"lon":5.37459,"is_reserved":false,"is_disabled":false,"rental_uris":{"android":"levelo://app?vid=fac9a3a2-2dd0-4efd-afd6-73cc4f4edd9a","ios":"levelo://app?vid=fac9a3a2-2dd0-4efd-afd6-73cc4f4edd9a"},"vehicle_type_id":"4","last_reported":1729364866,"current_range_meters":38800,"station_id":"ce4bhgh2rcd13ifvqfb0","pricing_plan_id":"cebpf4jnsgd1na2vs0mg"},{"bike_id":"79085ea7-873c-45f1-b488-6429934b8b77","system_id":"levelo_inurba_marseille","lat":43.29265,"lon":5.38443,"is_reserved":false,"is_disabled":false,"rental_uris":{"android":"levelo://app?vid=79085ea7-873c-45f1-b488-6429934b8b77","ios":"levelo://app?vid=79085ea7-873c-45f1-b488-6429934b8b77"},"vehicle_type_id":"4","last_reported":1729364866,"current_range_meters":35200,"station_id":"","pricing_plan_id":"cebpf4jnsgd1na2vs0mg"},{"bike_id":"196af1e3-d208-4e03-97b1-0ee523a27b6d","system_id":"levelo_inurba_marseille","lat":43.24814,"lon":5.37463,"is_reserved":false,"is_disabled":false,"rental_uris":{"android":"levelo://app?vid=196af1e3-d208-4e03-97b1-0ee523a27b6d","ios":"levelo://app?vid=196af1e3-d208-4e03-97b1-0ee523a27b6d"},"vehicle_type_id":"4","last_reported":1729364866,"current_range_meters":29600,"station_id":"ce4bhgh2rcd13ifvqfb0","pricing_plan_id":"cebpf4jnsgd1na2vs0mg"},{"bike_id":"975a1620-0a6d-4c4e-a1d9-1cac007aef6d","system_id":"levelo_inurba_marseille","lat":43.253845,"lon":5.421036,"is_reserved":false,"is_disabled":false,"rental_uris":{"android":"levelo://app?vid=975a1620-0a6d-4c4e-a1d9-1cac007aef6d","ios":"levelo://app?vid=975a1620-0a6d-4c4e-a1d9-1cac007aef6d"},"vehicle_type_id":"4","last_reported":1729364866,"current_range_meters":5600,"station_id":"ce4bhmp2rcd13ifvqgog","pricing_plan_id":"cebpf4jnsgd1na2vs0mg"},{"bike_id":"7c0bb2a2-31fd-41e4-9868-848a825d862d","system_id":"levelo_inurba_marseille","lat":43.24386,"lon":5.37057,"is_reserved":false,"is_disabled":false,"rental_uris":{"android":"levelo://app?vid=7c0bb2a2-31fd-41e4-9868-848a825d862d","ios":"levelo://app?vid=7c0bb2a2-31fd-41e4-9868-848a825d862d"},"vehicle_type_id":"4","last_reported":1729364866,"current_range_meters":5600,"station_id":"ce4bhhh2rcd13ifvqfk0","pricing_plan_id":"cebpf4jnsgd1na2vs0mg"},{"bike_id":"ceb1603d-2c49-4a2f-971f-80e7a3348d6a","system_id":"levelo_inurba_marseille","lat":43.33024,"lon":5.39043,"is_reserved":false,"is_disabled":false,"rental_uris":{"android":"levelo://app?vid=ceb1603d-2c49-4a2f-971f-80e7a3348d6a","ios":"levelo://app?vid=ceb1603d-2c49-4a2f-971f-80e7a3348d6a"},"vehicle_type_id":"4","last_reported":1729364866,"current_range_meters":8000,"station_id":"ce4bhr92rcd13ifvqhrg","pricing_plan_id":"cebpf4jnsgd1na2vs0mg"},{"bike_id":"5e5129c7-f4fd-443c-a1fe-98f8d3b8c5f5","system_id":"levelo_inurba_marseille","lat":43.284393,"lon":5.391938,"is_reserved":false,"is_disabled":false,"rental_uris":{"android":"levelo://app?vid=5e5129c7-f4fd-443c-a1fe-98f8d3b8c5f5","ios":"levelo://app?vid=5e5129c7-f4fd-443c-a1fe-98f8d3b8c5f5"},"vehicle_type_id":"4","last_reported":1729364866,"current_range_meters":39200,"station_id":"ce4bhoh2rcd13ifvqh5g","pricing_plan_id":"cebpf4jnsgd1na2vs0mg"},{"bike_id":"c34e2acb-3afe-4aa1-8cdb-c481d100b683","system_id":"levelo_inurba_marseille","lat":43.32485,"lon":5.36571,"is_reserved":false,"is_disabled":false,"rental_uris":{"android":"levelo://app?vid=c34e2acb-3afe-4aa1-8cdb-c481d100b683","ios":"levelo://app?vid=c34e2acb-3afe-4aa1-8cdb-c481d100b683"},"vehicle_type_id":"4","last_reported":1729364866,"current_range_meters":22800,"station_id":"ce4bhs12rcd13ifvqhvg","pricing_plan_id":"cebpf4jnsgd1na2vs0mg"},{"bike_id":"19e0c7ba-a3f7-43e2-aca8-366f22e4e87d","system_id":"levelo_inurba_marseille","lat":43.3372,"lon":5.3919,"is_reserved":false,"is_disabled":false,"rental_uris":{"android":"levelo://app?vid=19e0c7ba-a3f7-43e2-aca8-366f22e4e87d","ios":"levelo://app?vid=19e0c7ba-a3f7-43e2-aca8-366f22e4e87d"},"vehicle_type_id":"4","last_reported":1729364866,"current_range_meters":36400,"station_id":"ce4bhr92rcd13ifvqhsg","pricing_plan_id":"cebpf4jnsgd1na2vs0mg"},{"bike_id":"d9745bea-cad6-4584-b13f-317f10c94d7a","system_id":"levelo_inurba_marseille","lat":43.28153,"lon":5.42646,"is_reserved":false,"is_disabled":false,"rental_uris":{"android":"levelo://app?vid=d9745bea-cad6-4584-b13f-317f10c94d7a","ios":"levelo://app?vid=d9745bea-cad6-4584-b13f-317f10c94d7a"},"vehicle_type_id":"4","last_reported":1729364866,"current_range_meters":9600,"station_id":"ce4bhnh2rcd13ifvqgug","pricing_plan_id":"cebpf4jnsgd1na2vs0mg"},{"bike_id":"c7565c02-61d8-4bde-a69a-e0a8af75cfc7","system_id":"levelo_inurba_marseille","lat":43.29554,"lon":5.37533,"is_reserved":false,"is_disabled":false,"rental_uris":{"android":"levelo://app?vid=c7565c02-61d8-4bde-a69a-e0a8af75cfc7","ios":"levelo://app?vid=c7565c02-61d8-4bde-a69a-e0a8af75cfc7"},"vehicle_type_id":"4","last_reported":1729364866,"current_range_meters":38800,"station_id":"ce4bgh92rcd13ifvqb50","pricing_plan_id":"cebpf4jnsgd1na2vs0mg"},{"bike_id":"5059e569-7ddb-4663-a8ee-d33f63f5dfbe","system_id":"levelo_inurba_marseille","lat":43.29809,"lon":5.40412,"is_reserved":false,"is_disabled":false,"rental_uris":{"android":"levelo://app?vid=5059e569-7ddb-4663-a8ee-d33f63f5dfbe","ios":"levelo://app?vid=5059e569-7ddb-4663-a8ee-d33f63f5dfbe"},"vehicle_type_id":"4","last_reported":1729364866,"current_range_meters":37600,"station_id":"ce4bh112rcd13ifvqd90","pricing_plan_id":"cebpf4jnsgd1na2vs0mg"},{"bike_id":"ea42efaa-461f-4eb2-98c1-6f9b50257954","system_id":"levelo_inurba_marseille","lat":43.29803,"lon":5.38091,"is_reserved":false,"is_disabled":false,"rental_uris":{"android":"levelo://app?vid=ea42efaa-461f-4eb2-98c1-6f9b50257954","ios":"levelo://app?vid=ea42efaa-461f-4eb2-98c1-6f9b50257954"},"vehicle_type_id":"4","last_reported":1729364866,"current_range_meters":17600,"station_id":"ce4bgip2rcd13ifvqbb0","pricing_plan_id":"cebpf4jnsgd1na2vs0mg"},{"bike_id":"6f1e76a1-2ad8-46bc-ba08-012ecce25e8a","system_id":"levelo_inurba_marseille","lat":43.30783,"lon":5.37647,"is_reserved":false,"is_disabled":false,"rental_uris":{"android":"levelo://app?vid=6f1e76a1-2ad8-46bc-ba08-012ecce25e8a","ios":"levelo://app?vid=6f1e76a1-2ad8-46bc-ba08-012ecce25e8a"},"vehicle_type_id":"4","last_reported":1729364866,"current_range_meters":21600,"station_id":"ce4bgv92rcd13ifvqcq0","pricing_plan_id":"cebpf4jnsgd1na2vs0mg"},{"bike_id":"be33f5f4-1673-4ad1-b8b5-0dd5395e3e9c","system_id":"levelo_inurba_marseille","lat":43.31366,"lon":5.38493,"is_reserved":false,"is_disabled":false,"rental_uris":{"android":"levelo://app?vid=be33f5f4-1673-4ad1-b8b5-0dd5395e3e9c","ios":"levelo://app?vid=be33f5f4-1673-4ad1-b8b5-0dd5395e3e9c"},"vehicle_type_id":"4","last_reported":1729364866,"current_range_meters":9600,"station_id":"ce4bgt92rcd13ifvqcf0","pricing_plan_id":"cebpf4jnsgd1na2vs0mg"},{"bike_id":"37f3f53b-aa01-4c10-9f43-b35a12c56496","system_id":"levelo_inurba_marseille","lat":43.29272,"lon":5.36844,"is_reserved":false,"is_disabled":false,"rental_uris":{"android":"levelo://app?vid=37f3f53b-aa01-4c10-9f43-b35a12c56496","ios":"levelo://app?vid=37f3f53b-aa01-4c10-9f43-b35a12c56496"},"vehicle_type_id":"4","last_reported":1729364866,"current_range_meters":38800,"station_id":"ce4bhbp2rcd13ifvqesg","pricing_plan_id":"cebpf4jnsgd1na2vs0mg"},{"bike_id":"979c9729-008f-48db-b338-59c5cff0384e","system_id":"levelo_inurba_marseille","lat":43.31358,"lon":5.36724,"is_reserved":false,"is_disabled":false,"rental_uris":{"android":"levelo://app?vid=979c9729-008f-48db-b338-59c5cff0384e","ios":"levelo://app?vid=979c9729-008f-48db-b338-59c5cff0384e"},"vehicle_type_id":"4","last_reported":1729364866,"current_range_meters":38000,"station_id":"ce4bgr92rcd13ifvqc6g","pricing_plan_id":"cebpf4jnsgd1na2vs0mg"},{"bike_id":"fab72885-c1f9-4374-8e57-c96125602922","system_id":"levelo_inurba_marseille","lat":43.29531,"lon":5.38546,"is_reserved":false,"is_disabled":false,"rental_uris":{"android":"levelo://app?vid=fab72885-c1f9-4374-8e57-c96125602922","ios":"levelo://app?vid=fab72885-c1f9-4374-8e57-c96125602922"},"vehicle_type_id":"4","last_reported":1729364866,"current_range_meters":5600,"station_id":"ce4bgih2rcd13ifvqba0","pricing_plan_id":"cebpf4jnsgd1na2vs0mg"},{"bike_id":"47221fd4-5fb7-44c5-ab59-03237e1756b7","system_id":"levelo_inurba_marseille","lat":43.27813,"lon":5.40714,"is_reserved":false,"is_disabled":false,"rental_uris":{"android":"levelo://app?vid=47221fd4-5fb7-44c5-ab59-03237e1756b7","ios":"levelo://app?vid=47221fd4-5fb7-44c5-ab59-03237e1756b7"},"vehicle_type_id":"4","last_reported":1729364866,"current_range_meters":3600,"station_id":"ce4bhnh2rcd13ifvqgtg","pricing_plan_id":"cebpf4jnsgd1na2vs0mg"},{"bike_id":"9650045a-46c3-482e-abfc-0472e93b157c","system_id":"levelo_inurba_marseille","lat":43.29784,"lon":5.38122,"is_reserved":false,"is_disabled":false,"rental_uris":{"android":"levelo://app?vid=9650045a-46c3-482e-abfc-0472e93b157c","ios":"levelo://app?vid=9650045a-46c3-482e-abfc-0472e93b157c"},"vehicle_type_id":"4","last_reported":1729364866,"current_range_meters":3200,"station_id":"ce4bgip2rcd13ifvqbb0","pricing_plan_id":"cebpf4jnsgd1na2vs0mg"},{"bike_id":"3edaaaaf-14c7-47b1-8427-b70c806aed89","system_id":"levelo_inurba_marseille","lat":43.2997,"lon":5.38496,"is_reserved":false,"is_disabled":false,"rental_uris":{"android":"levelo://app?vid=3edaaaaf-14c7-47b1-8427-b70c806aed89","ios":"levelo://app?vid=3edaaaaf-14c7-47b1-8427-b70c806aed89"},"vehicle_type_id":"4","last_reported":1729364866,"current_range_meters":2800,"station_id":"ce4bgj92rcd13ifvqbd0","pricing_plan_id":"cebpf4jnsgd1na2vs0mg"},{"bike_id":"59368387-3c9c-486a-9429-7bddec97dc84","system_id":"levelo_inurba_marseille","lat":43.301271,"lon":5.398693,"is_reserved":false,"is_disabled":false,"rental_uris":{"android":"levelo://app?vid=59368387-3c9c-486a-9429-7bddec97dc84","ios":"levelo://app?vid=59368387-3c9c-486a-9429-7bddec97dc84"},"vehicle_type_id":"4","last_reported":1729364866,"current_range_meters":7200,"station_id":"ce4bh0h2rcd13ifvqd40","pricing_plan_id":"cebpf4jnsgd1na2vs0mg"},{"bike_id":"15d640ac-1331-40ec-99fb-e366453d6696","system_id":"levelo_inurba_marseille","lat":43.33024,"lon":5.39042,"is_reserved":false,"is_disabled":false,"rental_uris":{"android":"levelo://app?vid=15d640ac-1331-40ec-99fb-e366453d6696","ios":"levelo://app?vid=15d640ac-1331-40ec-99fb-e366453d6696"},"vehicle_type_id":"4","last_reported":1729364866,"current_range_meters":26800,"station_id":"ce4bhr92rcd13ifvqhrg","pricing_plan_id":"cebpf4jnsgd1na2vs0mg"},{"bike_id":"838b20cb-5333-475e-8bc3-1a69f1a918c9","system_id":"levelo_inurba_marseille","lat":43.30423,"lon":5.38889,"is_reserved":false,"is_disabled":false,"rental_uris":{"android":"levelo://app?vid=838b20cb-5333-475e-8bc3-1a69f1a918c9","ios":"levelo://app?vid=838b20cb-5333-475e-8bc3-1a69f1a918c9"},"vehicle_type_id":"4","last_reported":1729364866,"current_range_meters":6800,"station_id":"ce4bgk12rcd13ifvqbi0","pricing_plan_id":"cebpf4jnsgd1na2vs0mg"},{"bike_id":"13150624-9a81-4783-86f9-f747dfbbbc2d","system_id":"levelo_inurba_marseille","lat":43.29895,"lon":5.397641,"is_reserved":false,"is_disabled":false,"rental_uris":{"android":"levelo://app?vid=13150624-9a81-4783-86f9-f747dfbbbc2d","ios":"levelo://app?vid=13150624-9a81-4783-86f9-f747dfbbbc2d"},"vehicle_type_id":"4","last_reported":1729364866,"current_range_meters":15200,"station_id":"ce4bh0h2rcd13ifvqd50","pricing_plan_id":"cebpf4jnsgd1na2vs0mg"},{"bike_id":"9622e9b6-7680-4d8c-b64b-6ec8e8b4f930","system_id":"levelo_inurba_marseille","lat":43.29268,"lon":5.38438,"is_reserved":false,"is_disabled":false,"rental_uris":{"android":"levelo://app?vid=9622e9b6-7680-4d8c-b64b-6ec8e8b4f930","ios":"levelo://app?vid=9622e9b6-7680-4d8c-b64b-6ec8e8b4f930"},"vehicle_type_id":"4","last_reported":1729364866,"current_range_meters":29600,"station_id":"","pricing_plan_id":"cebpf4jnsgd1na2vs0mg"},{"bike_id":"a7aea0df-c7ce-439f-813a-b71c43ca758f","system_id":"levelo_inurba_marseille","lat":43.28042,"lon":5.36947,"is_reserved":false,"is_disabled":false,"rental_uris":{"android":"levelo://app?vid=a7aea0df-c7ce-439f-813a-b71c43ca758f","ios":"levelo://app?vid=a7aea0df-c7ce-439f-813a-b71c43ca758f"},"vehicle_type_id":"4","last_reported":1729364866,"current_range_meters":25600,"station_id":"ce4bha12rcd13ifvqef0","pricing_plan_id":"cebpf4jnsgd1na2vs0mg"},{"bike_id":"f3b18d4c-688e-4e02-9104-7f1d559134af","system_id":"levelo_inurba_marseille","lat":43.32113,"lon":5.36772,"is_reserved":false,"is_disabled":false,"rental_uris":{"android":"levelo://app?vid=f3b18d4c-688e-4e02-9104-7f1d559134af","ios":"levelo://app?vid=f3b18d4c-688e-4e02-9104-7f1d559134af"},"vehicle_type_id":"4","last_reported":1729364866,"current_range_meters":38800,"station_id":"ce4bhrh2rcd13ifvqhug","pricing_plan_id":"cebpf4jnsgd1na2vs0mg"},{"bike_id":"58b2a8af-3923-4035-8218-400aa216954a","system_id":"levelo_inurba_marseille","lat":43.25719,"lon":5.41117,"is_reserved":false,"is_disabled":false,"rental_uris":{"android":"levelo://app?vid=58b2a8af-3923-4035-8218-400aa216954a","ios":"levelo://app?vid=58b2a8af-3923-4035-8218-400aa216954a"},"vehicle_type_id":"4","last_reported":1729364866,"current_range_meters":14400,"station_id":"ce4bhkp2rcd13ifvqgd0","pricing_plan_id":"cebpf4jnsgd1na2vs0mg"},{"bike_id":"fc9b3fc1-600b-416a-b916-9cf37562dae6","system_id":"levelo_inurba_marseille","lat":43.31324,"lon":5.39689,"is_reserved":false,"is_disabled":false,"rental_uris":{"android":"levelo://app?vid=fc9b3fc1-600b-416a-b916-9cf37562dae6","ios":"levelo://app?vid=fc9b3fc1-600b-416a-b916-9cf37562dae6"},"vehicle_type_id":"4","last_reported":1729364866,"current_range_meters":10800,"station_id":"ce4bgvp2rcd13ifvqcu0","pricing_plan_id":"cebpf4jnsgd1na2vs0mg"},{"bike_id":"8a61b0d3-96ba-49fc-af75-dd8176297036","system_id":"levelo_inurba_marseille","lat":43.23958,"lon":5.36637,"is_reserved":false,"is_disabled":false,"rental_uris":{"android":"levelo://app?vid=8a61b0d3-96ba-49fc-af75-dd8176297036","ios":"levelo://app?vid=8a61b0d3-96ba-49fc-af75-dd8176297036"},"vehicle_type_id":"4","last_reported":1729364866,"current_range_meters":14000,"station_id":"ce4bhi12rcd13ifvqfp0","pricing_plan_id":"cebpf4jnsgd1na2vs0mg"},{"bike_id":"37225b9f-1690-43f7-ba84-6163d08e1f83","system_id":"levelo_inurba_marseille","lat":43.29526,"lon":5.3854,"is_reserved":false,"is_disabled":false,"rental_uris":{"android":"levelo://app?vid=37225b9f-1690-43f7-ba84-6163d08e1f83","ios":"levelo://app?vid=37225b9f-1690-43f7-ba84-6163d08e1f83"},"vehicle_type_id":"4","last_reported":1729364866,"current_range_meters":38800,"station_id":"ce4bgih2rcd13ifvqba0","pricing_plan_id":"cebpf4jnsgd1na2vs0mg"},{"bike_id":"ce62bc4d-769a-4131-a933-366b8ab299e3","system_id":"levelo_inurba_marseille","lat":43.26682,"lon":5.38272,"is_reserved":false,"is_disabled":false,"rental_uris":{"android":"levelo://app?vid=ce62bc4d-769a-4131-a933-366b8ab299e3","ios":"levelo://app?vid=ce62bc4d-769a-4131-a933-366b8ab299e3"},"vehicle_type_id":"4","last_reported":1729364866,"current_range_meters":30800,"station_id":"ce4bhg92rcd13ifvqf90","pricing_plan_id":"cebpf4jnsgd1na2vs0mg"},{"bike_id":"b655f0e5-9f54-4337-9f8f-e40c329da075","system_id":"levelo_inurba_marseille","lat":43.29324,"lon":5.37516,"is_reserved":false,"is_disabled":false,"rental_uris":{"android":"levelo://app?vid=b655f0e5-9f54-4337-9f8f-e40c329da075","ios":"levelo://app?vid=b655f0e5-9f54-4337-9f8f-e40c329da075"},"vehicle_type_id":"4","last_reported":1729364866,"current_range_meters":6000,"station_id":"","pricing_plan_id":"cebpf4jnsgd1na2vs0mg"},{"bike_id":"d07800f1-1987-40b9-b8d4-335f0789cf62","system_id":"levelo_inurba_marseille","lat":43.29974,"lon":5.38492,"is_reserved":false,"is_disabled":false,"rental_uris":{"android":"levelo://app?vid=d07800f1-1987-40b9-b8d4-335f0789cf62","ios":"levelo://app?vid=d07800f1-1987-40b9-b8d4-335f0789cf62"},"vehicle_type_id":"4","last_reported":1729364866,"current_range_meters":7200,"station_id":"ce4bgj92rcd13ifvqbd0","pricing_plan_id":"cebpf4jnsgd1na2vs0mg"},{"bike_id":"fad33ffa-1ffa-4787-b5e5-d1212cfb244c","system_id":"levelo_inurba_marseille","lat":43.295441,"lon":5.392607,"is_reserved":false,"is_disabled":false,"rental_uris":{"android":"levelo://app?vid=fad33ffa-1ffa-4787-b5e5-d1212cfb244c","ios":"levelo://app?vid=fad33ffa-1ffa-4787-b5e5-d1212cfb244c"},"vehicle_type_id":"4","last_reported":1729364866,"current_range_meters":33600,"station_id":"ce4bh3p2rcd13ifvqdp0","pricing_plan_id":"cebpf4jnsgd1na2vs0mg"},{"bike_id":"85ff732c-0e52-4d15-a845-1cd26976a270","system_id":"levelo_inurba_marseille","lat":43.300915,"lon":5.390824,"is_reserved":false,"is_disabled":false,"rental_uris":{"android":"levelo://app?vid=85ff732c-0e52-4d15-a845-1cd26976a270","ios":"levelo://app?vid=85ff732c-0e52-4d15-a845-1cd26976a270"},"vehicle_type_id":"4","last_reported":1729364866,"current_range_meters":17600,"station_id":"ce4bh192rcd13ifvqdb0","pricing_plan_id":"cebpf4jnsgd1na2vs0mg"},{"bike_id":"af535390-de99-40e1-84d5-eaeb21b58e36","system_id":"levelo_inurba_marseille","lat":43.29867,"lon":5.39741,"is_reserved":false,"is_disabled":false,"rental_uris":{"android":"levelo://app?vid=af535390-de99-40e1-84d5-eaeb21b58e36","ios":"levelo://app?vid=af535390-de99-40e1-84d5-eaeb21b58e36"},"vehicle_type_id":"4","last_reported":1729364866,"current_range_meters":9200,"station_id":"ce4bh0h2rcd13ifvqd50","pricing_plan_id":"cebpf4jnsgd1na2vs0mg"},{"bike_id":"c580c244-5ca9-402d-9527-d6c7e58ea2ca","system_id":"levelo_inurba_marseille","lat":43.31218,"lon":5.36848,"is_reserved":false,"is_disabled":false,"rental_uris":{"android":"levelo://app?vid=c580c244-5ca9-402d-9527-d6c7e58ea2ca","ios":"levelo://app?vid=c580c244-5ca9-402d-9527-d6c7e58ea2ca"},"vehicle_type_id":"4","last_reported":1729364866,"current_range_meters":38800,"station_id":"ce4bgl92rcd13ifvqbq0","pricing_plan_id":"cebpf4jnsgd1na2vs0mg"},{"bike_id":"49b278fa-7ba3-49ad-963c-f5eff8426cf1","system_id":"levelo_inurba_marseille","lat":43.29879,"lon":5.39749,"is_reserved":false,"is_disabled":false,"rental_uris":{"android":"levelo://app?vid=49b278fa-7ba3-49ad-963c-f5eff8426cf1","ios":"levelo://app?vid=49b278fa-7ba3-49ad-963c-f5eff8426cf1"},"vehicle_type_id":"4","last_reported":1729364866,"current_range_meters":22400,"station_id":"ce4bh0h2rcd13ifvqd50","pricing_plan_id":"cebpf4jnsgd1na2vs0mg"},{"bike_id":"7215db1d-df9e-40cc-93a9-b7a6f580cf04","system_id":"levelo_inurba_marseille","lat":43.29971,"lon":5.37177,"is_reserved":false,"is_disabled":false,"rental_uris":{"android":"levelo://app?vid=7215db1d-df9e-40cc-93a9-b7a6f580cf04","ios":"levelo://app?vid=7215db1d-df9e-40cc-93a9-b7a6f580cf04"},"vehicle_type_id":"4","last_reported":1729364866,"current_range_meters":38800,"station_id":"ce4bgr92rcd13ifvqc7g","pricing_plan_id":"cebpf4jnsgd1na2vs0mg"},{"bike_id":"eb12d995-ae10-4987-8d8b-5740e53e56a0","system_id":"levelo_inurba_marseille","lat":43.29195,"lon":5.35801,"is_reserved":false,"is_disabled":false,"rental_uris":{"android":"levelo://app?vid=eb12d995-ae10-4987-8d8b-5740e53e56a0","ios":"levelo://app?vid=eb12d995-ae10-4987-8d8b-5740e53e56a0"},"vehicle_type_id":"4","last_reported":1729364866,"current_range_meters":38000,"station_id":"ce4bhb12rcd13ifvqel0","pricing_plan_id":"cebpf4jnsgd1na2vs0mg"},{"bike_id":"bdaf4cca-3144-4b46-87aa-d2e662c78d1a","system_id":"levelo_inurba_marseille","lat":43.30881,"lon":5.39632,"is_reserved":false,"is_disabled":false,"rental_uris":{"android":"levelo://app?vid=bdaf4cca-3144-4b46-87aa-d2e662c78d1a","ios":"levelo://app?vid=bdaf4cca-3144-4b46-87aa-d2e662c78d1a"},"vehicle_type_id":"4","last_reported":1729364866,"current_range_meters":24000,"station_id":"ce4bh012rcd13ifvqcv0","pricing_plan_id":"cebpf4jnsgd1na2vs0mg"},{"bike_id":"6e50242a-bdfc-4caf-a7a9-e11a1e52520a","system_id":"levelo_inurba_marseille","lat":43.29263,"lon":5.38444,"is_reserved":false,"is_disabled":false,"rental_uris":{"android":"levelo://app?vid=6e50242a-bdfc-4caf-a7a9-e11a1e52520a","ios":"levelo://app?vid=6e50242a-bdfc-4caf-a7a9-e11a1e52520a"},"vehicle_type_id":"4","last_reported":1729364866,"current_range_meters":38800,"station_id":"","pricing_plan_id":"cebpf4jnsgd1na2vs0mg"},{"bike_id":"80575a01-0b3b-42b5-94c0-5e403b176dad","system_id":"levelo_inurba_marseille","lat":43.30588,"lon":5.39355,"is_reserved":false,"is_disabled":false,"rental_uris":{"android":"levelo://app?vid=80575a01-0b3b-42b5-94c0-5e403b176dad","ios":"levelo://app?vid=80575a01-0b3b-42b5-94c0-5e403b176dad"},"vehicle_type_id":"4","last_reported":1729364866,"current_range_meters":30000,"station_id":"ce4bh0p2rcd13ifvqd80","pricing_plan_id":"cebpf4jnsgd1na2vs0mg"},{"bike_id":"e49b450a-64be-4054-ad72-9ed9f0c34482","system_id":"levelo_inurba_marseille","lat":43.291626,"lon":5.371585,"is_reserved":false,"is_disabled":false,"rental_uris":{"android":"levelo://app?vid=e49b450a-64be-4054-ad72-9ed9f0c34482","ios":"levelo://app?vid=e49b450a-64be-4054-ad72-9ed9f0c34482"},"vehicle_type_id":"4","last_reported":1729364866,"current_range_meters":36800,"station_id":"ce4bha92rcd13ifvqeh0","pricing_plan_id":"cebpf4jnsgd1na2vs0mg"},{"bike_id":"3c807220-758f-40c8-b4f1-96669d1b8d8b","system_id":"levelo_inurba_marseille","lat":43.23194,"lon":5.35555,"is_reserved":false,"is_disabled":false,"rental_uris":{"android":"levelo://app?vid=3c807220-758f-40c8-b4f1-96669d1b8d8b","ios":"levelo://app?vid=3c807220-758f-40c8-b4f1-96669d1b8d8b"},"vehicle_type_id":"4","last_reported":1729364866,"current_range_meters":6800,"station_id":"ce4bhu92rcd13ifvqi70","pricing_plan_id":"cebpf4jnsgd1na2vs0mg"},{"bike_id":"00966f37-cbf6-4bb2-9ac9-c42167109b86","system_id":"levelo_inurba_marseille","lat":43.2942,"lon":5.38613,"is_reserved":false,"is_disabled":false,"rental_uris":{"android":"levelo://app?vid=00966f37-cbf6-4bb2-9ac9-c42167109b86","ios":"levelo://app?vid=00966f37-cbf6-4bb2-9ac9-c42167109b86"},"vehicle_type_id":"4","last_reported":1729364866,"current_range_meters":38800,"station_id":"ce4bh2h2rcd13ifvqdh0","pricing_plan_id":"cebpf4jnsgd1na2vs0mg"},{"bike_id":"21d5f2d6-d39d-4fbd-bf25-ef5c5dbad715","system_id":"levelo_inurba_marseille","lat":43.29784,"lon":5.40409,"is_reserved":false,"is_disabled":false,"rental_uris":{"android":"levelo://app?vid=21d5f2d6-d39d-4fbd-bf25-ef5c5dbad715","ios":"levelo://app?vid=21d5f2d6-d39d-4fbd-bf25-ef5c5dbad715"},"vehicle_type_id":"4","last_reported":1729364866,"current_range_meters":10800,"station_id":"ce4bh112rcd13ifvqd90","pricing_plan_id":"cebpf4jnsgd1na2vs0mg"},{"bike_id":"c11b0555-b997-4036-8536-79587f1a9f2e","system_id":"levelo_inurba_marseille","lat":43.27669,"lon":5.38905,"is_reserved":false,"is_disabled":false,"rental_uris":{"android":"levelo://app?vid=c11b0555-b997-4036-8536-79587f1a9f2e","ios":"levelo://app?vid=c11b0555-b997-4036-8536-79587f1a9f2e"},"vehicle_type_id":"4","last_reported":1729364866,"current_range_meters":36800,"station_id":"ce4bhi12rcd13ifvqfo0","pricing_plan_id":"cebpf4jnsgd1na2vs0mg"},{"bike_id":"b5c40a57-fde0-4b3a-8522-4717ef7108e9","system_id":"levelo_inurba_marseille","lat":43.31066,"lon":5.40087,"is_reserved":false,"is_disabled":false,"rental_uris":{"android":"levelo://app?vid=b5c40a57-fde0-4b3a-8522-4717ef7108e9","ios":"levelo://app?vid=b5c40a57-fde0-4b3a-8522-4717ef7108e9"},"vehicle_type_id":"4","last_reported":1729364866,"current_range_meters":6800,"station_id":"","pricing_plan_id":"cebpf4jnsgd1na2vs0mg"},{"bike_id":"3b30aa0d-56cf-49ee-9f2d-906572b38809","system_id":"levelo_inurba_marseille","lat":43.25726,"lon":5.41108,"is_reserved":false,"is_disabled":false,"rental_uris":{"android":"levelo://app?vid=3b30aa0d-56cf-49ee-9f2d-906572b38809","ios":"levelo://app?vid=3b30aa0d-56cf-49ee-9f2d-906572b38809"},"vehicle_type_id":"4","last_reported":1729364866,"current_range_meters":3200,"station_id":"ce4bhkp2rcd13ifvqgd0","pricing_plan_id":"cebpf4jnsgd1na2vs0mg"},{"bike_id":"7665ffce-57b0-4387-8b76-3996a09d2e42","system_id":"levelo_inurba_marseille","lat":43.3088,"lon":5.39634,"is_reserved":false,"is_disabled":false,"rental_uris":{"android":"levelo://app?vid=7665ffce-57b0-4387-8b76-3996a09d2e42","ios":"levelo://app?vid=7665ffce-57b0-4387-8b76-3996a09d2e42"},"vehicle_type_id":"4","last_reported":1729364866,"current_range_meters":36800,"station_id":"ce4bh012rcd13ifvqcv0","pricing_plan_id":"cebpf4jnsgd1na2vs0mg"},{"bike_id":"cb72f9ca-047a-4b32-9d47-05e4d9e0fd16","system_id":"levelo_inurba_marseille","lat":43.29783,"lon":5.37108,"is_reserved":false,"is_disabled":false,"rental_uris":{"android":"levelo://app?vid=cb72f9ca-047a-4b32-9d47-05e4d9e0fd16","ios":"levelo://app?vid=cb72f9ca-047a-4b32-9d47-05e4d9e0fd16"},"vehicle_type_id":"4","last_reported":1729364866,"current_range_meters":32400,"station_id":"ce4bgop2rcd13ifvqc1g","pricing_plan_id":"cebpf4jnsgd1na2vs0mg"},{"bike_id":"973ed72c-b5a5-4d11-b0b5-0e5d432ccd29","system_id":"levelo_inurba_marseille","lat":43.29538,"lon":5.38537,"is_reserved":false,"is_disabled":false,"rental_uris":{"android":"levelo://app?vid=973ed72c-b5a5-4d11-b0b5-0e5d432ccd29","ios":"levelo://app?vid=973ed72c-b5a5-4d11-b0b5-0e5d432ccd29"},"vehicle_type_id":"4","last_reported":1729364866,"current_range_meters":19600,"station_id":"ce4bgih2rcd13ifvqba0","pricing_plan_id":"cebpf4jnsgd1na2vs0mg"},{"bike_id":"bad0f267-5617-4822-b9eb-eb9806dacf53","system_id":"levelo_inurba_marseille","lat":43.305237,"lon":5.36704,"is_reserved":false,"is_disabled":false,"rental_uris":{"android":"levelo://app?vid=bad0f267-5617-4822-b9eb-eb9806dacf53","ios":"levelo://app?vid=bad0f267-5617-4822-b9eb-eb9806dacf53"},"vehicle_type_id":"4","last_reported":1729364866,"current_range_meters":24800,"station_id":"ce4bgn92rcd13ifvqbvg","pricing_plan_id":"cebpf4jnsgd1na2vs0mg"},{"bike_id":"4b98f2d4-a3b5-4c77-b14a-757e150b6aed","system_id":"levelo_inurba_marseille","lat":43.29782,"lon":5.37108,"is_reserved":false,"is_disabled":false,"rental_uris":{"android":"levelo://app?vid=4b98f2d4-a3b5-4c77-b14a-757e150b6aed","ios":"levelo://app?vid=4b98f2d4-a3b5-4c77-b14a-757e150b6aed"},"vehicle_type_id":"4","last_reported":1729364866,"current_range_meters":7200,"station_id":"ce4bgop2rcd13ifvqc1g","pricing_plan_id":"cebpf4jnsgd1na2vs0mg"},{"bike_id":"ce490ac1-f782-4cb3-9260-9bd85b337aac","system_id":"levelo_inurba_marseille","lat":43.28152,"lon":5.42649,"is_reserved":false,"is_disabled":false,"rental_uris":{"android":"levelo://app?vid=ce490ac1-f782-4cb3-9260-9bd85b337aac","ios":"levelo://app?vid=ce490ac1-f782-4cb3-9260-9bd85b337aac"},"vehicle_type_id":"4","last_reported":1729364866,"current_range_meters":18800,"station_id":"ce4bhnh2rcd13ifvqgug","pricing_plan_id":"cebpf4jnsgd1na2vs0mg"},{"bike_id":"231f2917-217a-441b-8b54-429090a7dfab","system_id":"levelo_inurba_marseille","lat":43.29623,"lon":5.40594,"is_reserved":false,"is_disabled":false,"rental_uris":{"android":"levelo://app?vid=231f2917-217a-441b-8b54-429090a7dfab","ios":"levelo://app?vid=231f2917-217a-441b-8b54-429090a7dfab"},"vehicle_type_id":"4","last_reported":1729364866,"current_range_meters":38400,"station_id":"ce4bh0h2rcd13ifvqd60","pricing_plan_id":"cebpf4jnsgd1na2vs0mg"},{"bike_id":"cbcfccfd-a876-448a-9e85-487da1c426f2","system_id":"levelo_inurba_marseille","lat":43.29268,"lon":5.38441,"is_reserved":false,"is_disabled":false,"rental_uris":{"android":"levelo://app?vid=cbcfccfd-a876-448a-9e85-487da1c426f2","ios":"levelo://app?vid=cbcfccfd-a876-448a-9e85-487da1c426f2"},"vehicle_type_id":"4","last_reported":1729364866,"current_range_meters":8000,"station_id":"","pricing_plan_id":"cebpf4jnsgd1na2vs0mg"},{"bike_id":"9620eaae-7a61-4bf6-b999-914a5b30031b","system_id":"levelo_inurba_marseille","lat":43.29574,"lon":5.37529,"is_reserved":false,"is_disabled":false,"rental_uris":{"android":"levelo://app?vid=9620eaae-7a61-4bf6-b999-914a5b30031b","ios":"levelo://app?vid=9620eaae-7a61-4bf6-b999-914a5b30031b"},"vehicle_type_id":"4","last_reported":1729364866,"current_range_meters":38800,"station_id":"ce4bgh92rcd13ifvqb50","pricing_plan_id":"cebpf4jnsgd1na2vs0mg"},{"bike_id":"4f32a4a4-2158-46ae-b7e2-591a84cebe55","system_id":"levelo_inurba_marseille","lat":43.28487,"lon":5.3857,"is_reserved":false,"is_disabled":false,"rental_uris":{"android":"levelo://app?vid=4f32a4a4-2158-46ae-b7e2-591a84cebe55","ios":"levelo://app?vid=4f32a4a4-2158-46ae-b7e2-591a84cebe55"},"vehicle_type_id":"4","last_reported":1729364866,"current_range_meters":22800,"station_id":"ce4bh8p2rcd13ifvqeb0","pricing_plan_id":"cebpf4jnsgd1na2vs0mg"},{"bike_id":"d4af87b5-8c1f-4338-81b3-ded6e7a363d4","system_id":"levelo_inurba_marseille","lat":43.32476,"lon":5.36564,"is_reserved":false,"is_disabled":false,"rental_uris":{"android":"levelo://app?vid=d4af87b5-8c1f-4338-81b3-ded6e7a363d4","ios":"levelo://app?vid=d4af87b5-8c1f-4338-81b3-ded6e7a363d4"},"vehicle_type_id":"4","last_reported":1729364866,"current_range_meters":32000,"station_id":"ce4bhs12rcd13ifvqhvg","pricing_plan_id":"cebpf4jnsgd1na2vs0mg"},{"bike_id":"1f84caf2-f116-4ab9-8264-fe2b1516bbba","system_id":"levelo_inurba_marseille","lat":43.32338,"lon":5.40627,"is_reserved":false,"is_disabled":false,"rental_uris":{"android":"levelo://app?vid=1f84caf2-f116-4ab9-8264-fe2b1516bbba","ios":"levelo://app?vid=1f84caf2-f116-4ab9-8264-fe2b1516bbba"},"vehicle_type_id":"4","last_reported":1729364866,"current_range_meters":5600,"station_id":"ce4bhq92rcd13ifvqhjg","pricing_plan_id":"cebpf4jnsgd1na2vs0mg"},{"bike_id":"e2bf94b4-f297-440b-b837-41dbf0441ee5","system_id":"levelo_inurba_marseille","lat":43.27425,"lon":5.39416,"is_reserved":false,"is_disabled":false,"rental_uris":{"android":"levelo://app?vid=e2bf94b4-f297-440b-b837-41dbf0441ee5","ios":"levelo://app?vid=e2bf94b4-f297-440b-b837-41dbf0441ee5"},"vehicle_type_id":"4","last_reported":1729364866,"current_range_meters":38000,"station_id":"ce4bhdp2rcd13ifvqf20","pricing_plan_id":"cebpf4jnsgd1na2vs0mg"},{"bike_id":"bcfd1545-30fa-4090-9831-53199649a20b","system_id":"levelo_inurba_marseille","lat":43.25,"lon":5.38936,"is_reserved":false,"is_disabled":false,"rental_uris":{"android":"levelo://app?vid=bcfd1545-30fa-4090-9831-53199649a20b","ios":"levelo://app?vid=bcfd1545-30fa-4090-9831-53199649a20b"},"vehicle_type_id":"4","last_reported":1729364866,"current_range_meters":19600,"station_id":"ce4bhgp2rcd13ifvqfd0","pricing_plan_id":"cebpf4jnsgd1na2vs0mg"},{"bike_id":"636a7083-32bd-48d9-a27a-7a6ebb70df79","system_id":"levelo_inurba_marseille","lat":43.28033,"lon":5.36948,"is_reserved":false,"is_disabled":false,"rental_uris":{"android":"levelo://app?vid=636a7083-32bd-48d9-a27a-7a6ebb70df79","ios":"levelo://app?vid=636a7083-32bd-48d9-a27a-7a6ebb70df79"},"vehicle_type_id":"4","last_reported":1729364866,"current_range_meters":5600,"station_id":"ce4bha12rcd13ifvqef0","pricing_plan_id":"cebpf4jnsgd1na2vs0mg"},{"bike_id":"1552818d-bb04-446f-b297-f3c89463bcd9","system_id":"levelo_inurba_marseille","lat":43.29293,"lon":5.37459,"is_reserved":false,"is_disabled":false,"rental_uris":{"android":"levelo://app?vid=1552818d-bb04-446f-b297-f3c89463bcd9","ios":"levelo://app?vid=1552818d-bb04-446f-b297-f3c89463bcd9"},"vehicle_type_id":"4","last_reported":1729364866,"current_range_meters":38800,"station_id":"ce4bgi12rcd13ifvqb70","pricing_plan_id":"cebpf4jnsgd1na2vs0mg"},{"bike_id":"1f3509ba-e381-4ec6-be89-215d547f5abf","system_id":"levelo_inurba_marseille","lat":43.25001,"lon":5.38925,"is_reserved":false,"is_disabled":false,"rental_uris":{"android":"levelo://app?vid=1f3509ba-e381-4ec6-be89-215d547f5abf","ios":"levelo://app?vid=1f3509ba-e381-4ec6-be89-215d547f5abf"},"vehicle_type_id":"4","last_reported":1729364866,"current_range_meters":28000,"station_id":"ce4bhgp2rcd13ifvqfd0","pricing_plan_id":"cebpf4jnsgd1na2vs0mg"},{"bike_id":"6dbffe47-3589-424f-9f96-d0b5a1cc34fe","system_id":"levelo_inurba_marseille","lat":43.30882,"lon":5.3964,"is_reserved":false,"is_disabled":false,"rental_uris":{"android":"levelo://app?vid=6dbffe47-3589-424f-9f96-d0b5a1cc34fe","ios":"levelo://app?vid=6dbffe47-3589-424f-9f96-d0b5a1cc34fe"},"vehicle_type_id":"4","last_reported":1729364866,"current_range_meters":14000,"station_id":"ce4bh012rcd13ifvqcv0","pricing_plan_id":"cebpf4jnsgd1na2vs0mg"},{"bike_id":"341f15c3-7f9f-49be-af56-f1cc512d378a","system_id":"levelo_inurba_marseille","lat":43.29964,"lon":5.38499,"is_reserved":false,"is_disabled":false,"rental_uris":{"android":"levelo://app?vid=341f15c3-7f9f-49be-af56-f1cc512d378a","ios":"levelo://app?vid=341f15c3-7f9f-49be-af56-f1cc512d378a"},"vehicle_type_id":"4","last_reported":1729364866,"current_range_meters":36800,"station_id":"ce4bgj92rcd13ifvqbd0","pricing_plan_id":"cebpf4jnsgd1na2vs0mg"},{"bike_id":"06279c99-9500-4e74-8477-7de6c2cc44c5","system_id":"levelo_inurba_marseille","lat":43.29591,"lon":5.38101,"is_reserved":false,"is_disabled":false,"rental_uris":{"android":"levelo://app?vid=06279c99-9500-4e74-8477-7de6c2cc44c5","ios":"levelo://app?vid=06279c99-9500-4e74-8477-7de6c2cc44c5"},"vehicle_type_id":"4","last_reported":1729364866,"current_range_meters":38400,"station_id":"ce4bgl12rcd13ifvqbo0","pricing_plan_id":"cebpf4jnsgd1na2vs0mg"},{"bike_id":"9ff5b7ec-e752-4102-a441-9f5a74472039","system_id":"levelo_inurba_marseille","lat":43.25726,"lon":5.41113,"is_reserved":false,"is_disabled":false,"rental_uris":{"android":"levelo://app?vid=9ff5b7ec-e752-4102-a441-9f5a74472039","ios":"levelo://app?vid=9ff5b7ec-e752-4102-a441-9f5a74472039"},"vehicle_type_id":"4","last_reported":1729364866,"current_range_meters":6800,"station_id":"ce4bhkp2rcd13ifvqgd0","pricing_plan_id":"cebpf4jnsgd1na2vs0mg"},{"bike_id":"a4e97031-6216-4f8a-9a4e-3bdcce9711c8","system_id":"levelo_inurba_marseille","lat":43.31892,"lon":5.40734,"is_reserved":false,"is_disabled":false,"rental_uris":{"android":"levelo://app?vid=a4e97031-6216-4f8a-9a4e-3bdcce9711c8","ios":"levelo://app?vid=a4e97031-6216-4f8a-9a4e-3bdcce9711c8"},"vehicle_type_id":"4","last_reported":1729364866,"current_range_meters":22000,"station_id":"ce4bhq12rcd13ifvqhig","pricing_plan_id":"cebpf4jnsgd1na2vs0mg"},{"bike_id":"b4470363-8e23-4f02-a75e-beb39a6eaf32","system_id":"levelo_inurba_marseille","lat":43.2396,"lon":5.36636,"is_reserved":false,"is_disabled":false,"rental_uris":{"android":"levelo://app?vid=b4470363-8e23-4f02-a75e-beb39a6eaf32","ios":"levelo://app?vid=b4470363-8e23-4f02-a75e-beb39a6eaf32"},"vehicle_type_id":"4","last_reported":1729364866,"current_range_meters":3200,"station_id":"ce4bhi12rcd13ifvqfp0","pricing_plan_id":"cebpf4jnsgd1na2vs0mg"},{"bike_id":"f18653be-7146-4061-b087-90fa24f5a49d","system_id":"levelo_inurba_marseille","lat":43.24072,"lon":5.37764,"is_reserved":false,"is_disabled":false,"rental_uris":{"android":"levelo://app?vid=f18653be-7146-4061-b087-90fa24f5a49d","ios":"levelo://app?vid=f18653be-7146-4061-b087-90fa24f5a49d"},"vehicle_type_id":"4","last_reported":1729364866,"current_range_meters":16400,"station_id":"ce4bhnp2rcd13ifvqgvg","pricing_plan_id":"cebpf4jnsgd1na2vs0mg"},{"bike_id":"5bcd7823-88bf-45f2-8fc5-f9a2da4f8e32","system_id":"levelo_inurba_marseille","lat":43.31225,"lon":5.36867,"is_reserved":false,"is_disabled":false,"rental_uris":{"android":"levelo://app?vid=5bcd7823-88bf-45f2-8fc5-f9a2da4f8e32","ios":"levelo://app?vid=5bcd7823-88bf-45f2-8fc5-f9a2da4f8e32"},"vehicle_type_id":"4","last_reported":1729364866,"current_range_meters":6800,"station_id":"ce4bgl92rcd13ifvqbq0","pricing_plan_id":"cebpf4jnsgd1na2vs0mg"},{"bike_id":"f576ab3e-9fcc-455c-af41-3aede202bc75","system_id":"levelo_inurba_marseille","lat":43.29535,"lon":5.38547,"is_reserved":false,"is_disabled":false,"rental_uris":{"android":"levelo://app?vid=f576ab3e-9fcc-455c-af41-3aede202bc75","ios":"levelo://app?vid=f576ab3e-9fcc-455c-af41-3aede202bc75"},"vehicle_type_id":"4","last_reported":1729364866,"current_range_meters":8400,"station_id":"ce4bgih2rcd13ifvqba0","pricing_plan_id":"cebpf4jnsgd1na2vs0mg"},{"bike_id":"607adf2f-3d64-40ba-b7c2-8f70455ce438","system_id":"levelo_inurba_marseille","lat":43.3048,"lon":5.37893,"is_reserved":false,"is_disabled":false,"rental_uris":{"android":"levelo://app?vid=607adf2f-3d64-40ba-b7c2-8f70455ce438","ios":"levelo://app?vid=607adf2f-3d64-40ba-b7c2-8f70455ce438"},"vehicle_type_id":"4","last_reported":1729364866,"current_range_meters":12400,"station_id":"ce4bgup2rcd13ifvqcn0","pricing_plan_id":"cebpf4jnsgd1na2vs0mg"},{"bike_id":"023fd4ad-0b97-4192-b5e1-73d82911bd9a","system_id":"levelo_inurba_marseille","lat":43.25082,"lon":5.3952,"is_reserved":false,"is_disabled":false,"rental_uris":{"android":"levelo://app?vid=023fd4ad-0b97-4192-b5e1-73d82911bd9a","ios":"levelo://app?vid=023fd4ad-0b97-4192-b5e1-73d82911bd9a"},"vehicle_type_id":"4","last_reported":1729364866,"current_range_meters":38800,"station_id":"ce4bhm12rcd13ifvqgkg","pricing_plan_id":"cebpf4jnsgd1na2vs0mg"},{"bike_id":"c2c48699-409d-49e5-863f-9f618bf215e4","system_id":"levelo_inurba_marseille","lat":43.29298,"lon":5.37456,"is_reserved":false,"is_disabled":false,"rental_uris":{"android":"levelo://app?vid=c2c48699-409d-49e5-863f-9f618bf215e4","ios":"levelo://app?vid=c2c48699-409d-49e5-863f-9f618bf215e4"},"vehicle_type_id":"4","last_reported":1729364866,"current_range_meters":38800,"station_id":"ce4bgi12rcd13ifvqb70","pricing_plan_id":"cebpf4jnsgd1na2vs0mg"},{"bike_id":"b0fe3af0-e96a-4fbd-a0c4-c5d5c15d8818","system_id":"levelo_inurba_marseille","lat":43.29268,"lon":5.38433,"is_reserved":false,"is_disabled":false,"rental_uris":{"android":"levelo://app?vid=b0fe3af0-e96a-4fbd-a0c4-c5d5c15d8818","ios":"levelo://app?vid=b0fe3af0-e96a-4fbd-a0c4-c5d5c15d8818"},"vehicle_type_id":"4","last_reported":1729364866,"current_range_meters":4400,"station_id":"","pricing_plan_id":"cebpf4jnsgd1na2vs0mg"},{"bike_id":"e1364b66-7d02-42a6-b8e9-7adf35acffc0","system_id":"levelo_inurba_marseille","lat":43.296275,"lon":5.404697,"is_reserved":false,"is_disabled":false,"rental_uris":{"android":"levelo://app?vid=e1364b66-7d02-42a6-b8e9-7adf35acffc0","ios":"levelo://app?vid=e1364b66-7d02-42a6-b8e9-7adf35acffc0"},"vehicle_type_id":"4","last_reported":1729364866,"current_range_meters":37600,"station_id":"ce4bh0h2rcd13ifvqd60","pricing_plan_id":"cebpf4jnsgd1na2vs0mg"},{"bike_id":"92989e3e-37c8-4b6d-970e-22e72e334b87","system_id":"levelo_inurba_marseille","lat":43.24068,"lon":5.37765,"is_reserved":false,"is_disabled":false,"rental_uris":{"android":"levelo://app?vid=92989e3e-37c8-4b6d-970e-22e72e334b87","ios":"levelo://app?vid=92989e3e-37c8-4b6d-970e-22e72e334b87"},"vehicle_type_id":"4","last_reported":1729364866,"current_range_meters":10000,"station_id":"ce4bhnp2rcd13ifvqgvg","pricing_plan_id":"cebpf4jnsgd1na2vs0mg"},{"bike_id":"afc9a212-8d03-4d24-a1da-75c0a2c66a4d","system_id":"levelo_inurba_marseille","lat":43.30538,"lon":5.38421,"is_reserved":false,"is_disabled":false,"rental_uris":{"android":"levelo://app?vid=afc9a212-8d03-4d24-a1da-75c0a2c66a4d","ios":"levelo://app?vid=afc9a212-8d03-4d24-a1da-75c0a2c66a4d"},"vehicle_type_id":"4","last_reported":1729364866,"current_range_meters":33200,"station_id":"ce4bgg92rcd13ifvqb30","pricing_plan_id":"cebpf4jnsgd1na2vs0mg"},{"bike_id":"c61834e5-ab0c-4e12-b32f-eb9d3c1af5fe","system_id":"levelo_inurba_marseille","lat":43.23967,"lon":5.36616,"is_reserved":false,"is_disabled":false,"rental_uris":{"android":"levelo://app?vid=c61834e5-ab0c-4e12-b32f-eb9d3c1af5fe","ios":"levelo://app?vid=c61834e5-ab0c-4e12-b32f-eb9d3c1af5fe"},"vehicle_type_id":"4","last_reported":1729364866,"current_range_meters":19600,"station_id":"ce4bhi12rcd13ifvqfp0","pricing_plan_id":"cebpf4jnsgd1na2vs0mg"},{"bike_id":"112ccf32-a549-4f90-9658-55fddfb974a2","system_id":"levelo_inurba_marseille","lat":43.296028,"lon":5.377004,"is_reserved":false,"is_disabled":false,"rental_uris":{"android":"levelo://app?vid=112ccf32-a549-4f90-9658-55fddfb974a2","ios":"levelo://app?vid=112ccf32-a549-4f90-9658-55fddfb974a2"},"vehicle_type_id":"4","last_reported":1729364866,"current_range_meters":38000,"station_id":"ce4bgh92rcd13ifvqb50","pricing_plan_id":"cebpf4jnsgd1na2vs0mg"},{"bike_id":"bd238c75-d55a-43d9-bcaf-f1f8c0840803","system_id":"levelo_inurba_marseille","lat":43.29271,"lon":5.38442,"is_reserved":false,"is_disabled":false,"rental_uris":{"android":"levelo://app?vid=bd238c75-d55a-43d9-bcaf-f1f8c0840803","ios":"levelo://app?vid=bd238c75-d55a-43d9-bcaf-f1f8c0840803"},"vehicle_type_id":"4","last_reported":1729364866,"current_range_meters":18800,"station_id":"","pricing_plan_id":"cebpf4jnsgd1na2vs0mg"},{"bike_id":"a8fcaddb-2163-4e59-80bf-3e59361ba310","system_id":"levelo_inurba_marseille","lat":43.276184,"lon":5.361154,"is_reserved":false,"is_disabled":false,"rental_uris":{"android":"levelo://app?vid=a8fcaddb-2163-4e59-80bf-3e59361ba310","ios":"levelo://app?vid=a8fcaddb-2163-4e59-80bf-3e59361ba310"},"vehicle_type_id":"4","last_reported":1729364866,"current_range_meters":19600,"station_id":"ce4bgj92rcd13ifvqbe0","pricing_plan_id":"cebpf4jnsgd1na2vs0mg"},{"bike_id":"0a86d650-12ef-40a3-ad39-a324cd03719b","system_id":"levelo_inurba_marseille","lat":43.25499,"lon":5.37651,"is_reserved":false,"is_disabled":false,"rental_uris":{"android":"levelo://app?vid=0a86d650-12ef-40a3-ad39-a324cd03719b","ios":"levelo://app?vid=0a86d650-12ef-40a3-ad39-a324cd03719b"},"vehicle_type_id":"4","last_reported":1729364866,"current_range_meters":38800,"station_id":"ce4bhh12rcd13ifvqff0","pricing_plan_id":"cebpf4jnsgd1na2vs0mg"},{"bike_id":"cf0c0464-9fb3-4ccc-b339-7747e18af14a","system_id":"levelo_inurba_marseille","lat":43.29563,"lon":5.37512,"is_reserved":false,"is_disabled":false,"rental_uris":{"android":"levelo://app?vid=cf0c0464-9fb3-4ccc-b339-7747e18af14a","ios":"levelo://app?vid=cf0c0464-9fb3-4ccc-b339-7747e18af14a"},"vehicle_type_id":"4","last_reported":1729364866,"current_range_meters":20000,"station_id":"ce4bgh92rcd13ifvqb50","pricing_plan_id":"cebpf4jnsgd1na2vs0mg"},{"bike_id":"065b87ca-b4a3-4800-b247-0f13e517cfcb","system_id":"levelo_inurba_marseille","lat":43.31337,"lon":5.36716,"is_reserved":false,"is_disabled":false,"rental_uris":{"android":"levelo://app?vid=065b87ca-b4a3-4800-b247-0f13e517cfcb","ios":"levelo://app?vid=065b87ca-b4a3-4800-b247-0f13e517cfcb"},"vehicle_type_id":"4","last_reported":1729364866,"current_range_meters":7200,"station_id":"ce4bgr92rcd13ifvqc6g","pricing_plan_id":"cebpf4jnsgd1na2vs0mg"},{"bike_id":"bf9cd796-8916-40ab-b1ac-dd6245e36db2","system_id":"levelo_inurba_marseille","lat":43.24805,"lon":5.37455,"is_reserved":false,"is_disabled":false,"rental_uris":{"android":"levelo://app?vid=bf9cd796-8916-40ab-b1ac-dd6245e36db2","ios":"levelo://app?vid=bf9cd796-8916-40ab-b1ac-dd6245e36db2"},"vehicle_type_id":"4","last_reported":1729364866,"current_range_meters":8400,"station_id":"ce4bhgh2rcd13ifvqfb0","pricing_plan_id":"cebpf4jnsgd1na2vs0mg"},{"bike_id":"74fdfb54-1930-4756-a0b8-9d0566e42c09","system_id":"levelo_inurba_marseille","lat":43.32107,"lon":5.36772,"is_reserved":false,"is_disabled":false,"rental_uris":{"android":"levelo://app?vid=74fdfb54-1930-4756-a0b8-9d0566e42c09","ios":"levelo://app?vid=74fdfb54-1930-4756-a0b8-9d0566e42c09"},"vehicle_type_id":"4","last_reported":1729364866,"current_range_meters":29600,"station_id":"ce4bhrh2rcd13ifvqhug","pricing_plan_id":"cebpf4jnsgd1na2vs0mg"},{"bike_id":"17a8c153-0fcb-412f-89c6-d890706c3d6b","system_id":"levelo_inurba_marseille","lat":43.27375,"lon":5.36257,"is_reserved":false,"is_disabled":false,"rental_uris":{"android":"levelo://app?vid=17a8c153-0fcb-412f-89c6-d890706c3d6b","ios":"levelo://app?vid=17a8c153-0fcb-412f-89c6-d890706c3d6b"},"vehicle_type_id":"4","last_reported":1729364866,"current_range_meters":8400,"station_id":"ce4bhbh2rcd13ifvqeo0","pricing_plan_id":"cebpf4jnsgd1na2vs0mg"},{"bike_id":"2e0f290d-7f26-490e-a919-0b1092bb3062","system_id":"levelo_inurba_marseille","lat":43.28848,"lon":5.37147,"is_reserved":false,"is_disabled":false,"rental_uris":{"android":"levelo://app?vid=2e0f290d-7f26-490e-a919-0b1092bb3062","ios":"levelo://app?vid=2e0f290d-7f26-490e-a919-0b1092bb3062"},"vehicle_type_id":"4","last_reported":1729364866,"current_range_meters":6000,"station_id":"","pricing_plan_id":"cebpf4jnsgd1na2vs0mg"},{"bike_id":"373022c6-0c5e-4ab5-a096-0f5e1d5769b4","system_id":"levelo_inurba_marseille","lat":43.25202,"lon":5.37345,"is_reserved":false,"is_disabled":false,"rental_uris":{"android":"levelo://app?vid=373022c6-0c5e-4ab5-a096-0f5e1d5769b4","ios":"levelo://app?vid=373022c6-0c5e-4ab5-a096-0f5e1d5769b4"},"vehicle_type_id":"4","last_reported":1729364866,"current_range_meters":7200,"station_id":"","pricing_plan_id":"cebpf4jnsgd1na2vs0mg"},{"bike_id":"c0caa875-610b-4891-a1ef-e9cf6939ea99","system_id":"levelo_inurba_marseille","lat":43.31354,"lon":5.36722,"is_reserved":false,"is_disabled":false,"rental_uris":{"android":"levelo://app?vid=c0caa875-610b-4891-a1ef-e9cf6939ea99","ios":"levelo://app?vid=c0caa875-610b-4891-a1ef-e9cf6939ea99"},"vehicle_type_id":"4","last_reported":1729364866,"current_range_meters":38800,"station_id":"ce4bgr92rcd13ifvqc6g","pricing_plan_id":"cebpf4jnsgd1na2vs0mg"},{"bike_id":"996b68ea-a3b8-48c9-9cf2-f66df1d63882","system_id":"levelo_inurba_marseille","lat":43.23202,"lon":5.35554,"is_reserved":false,"is_disabled":false,"rental_uris":{"android":"levelo://app?vid=996b68ea-a3b8-48c9-9cf2-f66df1d63882","ios":"levelo://app?vid=996b68ea-a3b8-48c9-9cf2-f66df1d63882"},"vehicle_type_id":"4","last_reported":1729364866,"current_range_meters":16800,"station_id":"ce4bhu92rcd13ifvqi70","pricing_plan_id":"cebpf4jnsgd1na2vs0mg"},{"bike_id":"c886eff0-7997-401a-b8a1-129aa3b86853","system_id":"levelo_inurba_marseille","lat":43.33609,"lon":5.41042,"is_reserved":false,"is_disabled":false,"rental_uris":{"android":"levelo://app?vid=c886eff0-7997-401a-b8a1-129aa3b86853","ios":"levelo://app?vid=c886eff0-7997-401a-b8a1-129aa3b86853"},"vehicle_type_id":"4","last_reported":1729364866,"current_range_meters":16400,"station_id":"ce4bhqh2rcd13ifvqhmg","pricing_plan_id":"cebpf4jnsgd1na2vs0mg"},{"bike_id":"3a186089-f4a5-4f34-bbf7-8a5b34711c85","system_id":"levelo_inurba_marseille","lat":43.2942,"lon":5.38625,"is_reserved":false,"is_disabled":false,"rental_uris":{"android":"levelo://app?vid=3a186089-f4a5-4f34-bbf7-8a5b34711c85","ios":"levelo://app?vid=3a186089-f4a5-4f34-bbf7-8a5b34711c85"},"vehicle_type_id":"4","last_reported":1729364866,"current_range_meters":38800,"station_id":"ce4bh2h2rcd13ifvqdh0","pricing_plan_id":"cebpf4jnsgd1na2vs0mg"},{"bike_id":"7c9d38ea-fe9f-4e12-ad56-2bcf7b33ec11","system_id":"levelo_inurba_marseille","lat":43.28443,"lon":5.39181,"is_reserved":false,"is_disabled":false,"rental_uris":{"android":"levelo://app?vid=7c9d38ea-fe9f-4e12-ad56-2bcf7b33ec11","ios":"levelo://app?vid=7c9d38ea-fe9f-4e12-ad56-2bcf7b33ec11"},"vehicle_type_id":"4","last_reported":1729364866,"current_range_meters":24400,"station_id":"ce4bhoh2rcd13ifvqh5g","pricing_plan_id":"cebpf4jnsgd1na2vs0mg"},{"bike_id":"474d5c64-4154-4ae7-b02e-9a105d79c6fa","system_id":"levelo_inurba_marseille","lat":43.23967,"lon":5.3662,"is_reserved":false,"is_disabled":false,"rental_uris":{"android":"levelo://app?vid=474d5c64-4154-4ae7-b02e-9a105d79c6fa","ios":"levelo://app?vid=474d5c64-4154-4ae7-b02e-9a105d79c6fa"},"vehicle_type_id":"4","last_reported":1729364866,"current_range_meters":16400,"station_id":"ce4bhi12rcd13ifvqfp0","pricing_plan_id":"cebpf4jnsgd1na2vs0mg"},{"bike_id":"816d778e-8f0a-46ad-9887-325468adb109","system_id":"levelo_inurba_marseille","lat":43.30878,"lon":5.3964,"is_reserved":false,"is_disabled":false,"rental_uris":{"android":"levelo://app?vid=816d778e-8f0a-46ad-9887-325468adb109","ios":"levelo://app?vid=816d778e-8f0a-46ad-9887-325468adb109"},"vehicle_type_id":"4","last_reported":1729364866,"current_range_meters":22800,"station_id":"ce4bh012rcd13ifvqcv0","pricing_plan_id":"cebpf4jnsgd1na2vs0mg"},{"bike_id":"feb3305a-5056-4aa6-99ba-13c8b0501ff2","system_id":"levelo_inurba_marseille","lat":43.29963,"lon":5.38493,"is_reserved":false,"is_disabled":false,"rental_uris":{"android":"levelo://app?vid=feb3305a-5056-4aa6-99ba-13c8b0501ff2","ios":"levelo://app?vid=feb3305a-5056-4aa6-99ba-13c8b0501ff2"},"vehicle_type_id":"4","last_reported":1729364866,"current_range_meters":11200,"station_id":"ce4bgj92rcd13ifvqbd0","pricing_plan_id":"cebpf4jnsgd1na2vs0mg"},{"bike_id":"4636b40c-2ab1-4032-b17d-2367515e246b","system_id":"levelo_inurba_marseille","lat":43.28727,"lon":5.36079,"is_reserved":false,"is_disabled":false,"rental_uris":{"android":"levelo://app?vid=4636b40c-2ab1-4032-b17d-2367515e246b","ios":"levelo://app?vid=4636b40c-2ab1-4032-b17d-2367515e246b"},"vehicle_type_id":"4","last_reported":1729364866,"current_range_meters":4000,"station_id":"cki0cbj6b192h4jlfktg","pricing_plan_id":"cebpf4jnsgd1na2vs0mg"},{"bike_id":"5faf4b55-60d6-4457-8fa9-a3c103cb86d8","system_id":"levelo_inurba_marseille","lat":43.27312,"lon":5.39081,"is_reserved":false,"is_disabled":false,"rental_uris":{"android":"levelo://app?vid=5faf4b55-60d6-4457-8fa9-a3c103cb86d8","ios":"levelo://app?vid=5faf4b55-60d6-4457-8fa9-a3c103cb86d8"},"vehicle_type_id":"4","last_reported":1729364866,"current_range_meters":30800,"station_id":"ce4bhgp2rcd13ifvqfe0","pricing_plan_id":"cebpf4jnsgd1na2vs0mg"},{"bike_id":"cf8bfc6c-eae3-443f-b86f-69e936da0d62","system_id":"levelo_inurba_marseille","lat":43.31711,"lon":5.43703,"is_reserved":false,"is_disabled":false,"rental_uris":{"android":"levelo://app?vid=cf8bfc6c-eae3-443f-b86f-69e936da0d62","ios":"levelo://app?vid=cf8bfc6c-eae3-443f-b86f-69e936da0d62"},"vehicle_type_id":"4","last_reported":1729364866,"current_range_meters":33600,"station_id":"ce4bhp92rcd13ifvqhcg","pricing_plan_id":"cebpf4jnsgd1na2vs0mg"},{"bike_id":"640c5a9a-fa7a-4cb2-95d1-5526413d3030","system_id":"levelo_inurba_marseille","lat":43.31896,"lon":5.40743,"is_reserved":false,"is_disabled":false,"rental_uris":{"android":"levelo://app?vid=640c5a9a-fa7a-4cb2-95d1-5526413d3030","ios":"levelo://app?vid=640c5a9a-fa7a-4cb2-95d1-5526413d3030"},"vehicle_type_id":"4","last_reported":1729364866,"current_range_meters":28800,"station_id":"ce4bhq12rcd13ifvqhig","pricing_plan_id":"cebpf4jnsgd1na2vs0mg"},{"bike_id":"3c63acc5-e1f7-42b2-9526-3daa93ac094f","system_id":"levelo_inurba_marseille","lat":43.24388,"lon":5.37058,"is_reserved":false,"is_disabled":false,"rental_uris":{"android":"levelo://app?vid=3c63acc5-e1f7-42b2-9526-3daa93ac094f","ios":"levelo://app?vid=3c63acc5-e1f7-42b2-9526-3daa93ac094f"},"vehicle_type_id":"4","last_reported":1729364866,"current_range_meters":23200,"station_id":"ce4bhhh2rcd13ifvqfk0","pricing_plan_id":"cebpf4jnsgd1na2vs0mg"},{"bike_id":"07aa2d0f-5f5e-41ea-9e8c-d47062a2d959","system_id":"levelo_inurba_marseille","lat":43.29264,"lon":5.38444,"is_reserved":false,"is_disabled":false,"rental_uris":{"android":"levelo://app?vid=07aa2d0f-5f5e-41ea-9e8c-d47062a2d959","ios":"levelo://app?vid=07aa2d0f-5f5e-41ea-9e8c-d47062a2d959"},"vehicle_type_id":"4","last_reported":1729364866,"current_range_meters":9200,"station_id":"","pricing_plan_id":"cebpf4jnsgd1na2vs0mg"},{"bike_id":"e9a6d85d-70e2-402b-90eb-502b3aedbdb3","system_id":"levelo_inurba_marseille","lat":43.29183,"lon":5.37946,"is_reserved":false,"is_disabled":false,"rental_uris":{"android":"levelo://app?vid=e9a6d85d-70e2-402b-90eb-502b3aedbdb3","ios":"levelo://app?vid=e9a6d85d-70e2-402b-90eb-502b3aedbdb3"},"vehicle_type_id":"4","last_reported":1729364866,"current_range_meters":12800,"station_id":"","pricing_plan_id":"cebpf4jnsgd1na2vs0mg"},{"bike_id":"bfb4e869-5c67-4d44-9404-b121f42ad2a4","system_id":"levelo_inurba_marseille","lat":43.29553,"lon":5.42294,"is_reserved":false,"is_disabled":false,"rental_uris":{"android":"levelo://app?vid=bfb4e869-5c67-4d44-9404-b121f42ad2a4","ios":"levelo://app?vid=bfb4e869-5c67-4d44-9404-b121f42ad2a4"},"vehicle_type_id":"4","last_reported":1729364866,"current_range_meters":27600,"station_id":"ce4bhph2rcd13ifvqhdg","pricing_plan_id":"cebpf4jnsgd1na2vs0mg"},{"bike_id":"a6ad588f-bb43-4b74-a64e-7a252b4d9d01","system_id":"levelo_inurba_marseille","lat":43.3013,"lon":5.39881,"is_reserved":false,"is_disabled":false,"rental_uris":{"android":"levelo://app?vid=a6ad588f-bb43-4b74-a64e-7a252b4d9d01","ios":"levelo://app?vid=a6ad588f-bb43-4b74-a64e-7a252b4d9d01"},"vehicle_type_id":"4","last_reported":1729364866,"current_range_meters":23200,"station_id":"ce4bh0h2rcd13ifvqd40","pricing_plan_id":"cebpf4jnsgd1na2vs0mg"},{"bike_id":"b2d9d5f5-c022-4e21-91b7-4d5d66c65713","system_id":"levelo_inurba_marseille","lat":43.32104,"lon":5.36771,"is_reserved":false,"is_disabled":false,"rental_uris":{"android":"levelo://app?vid=b2d9d5f5-c022-4e21-91b7-4d5d66c65713","ios":"levelo://app?vid=b2d9d5f5-c022-4e21-91b7-4d5d66c65713"},"vehicle_type_id":"4","last_reported":1729364866,"current_range_meters":39200,"station_id":"","pricing_plan_id":"cebpf4jnsgd1na2vs0mg"},{"bike_id":"f1897a86-cc42-4578-ab8c-4b7edb749bb2","system_id":"levelo_inurba_marseille","lat":43.2762,"lon":5.36113,"is_reserved":false,"is_disabled":false,"rental_uris":{"android":"levelo://app?vid=f1897a86-cc42-4578-ab8c-4b7edb749bb2","ios":"levelo://app?vid=f1897a86-cc42-4578-ab8c-4b7edb749bb2"},"vehicle_type_id":"4","last_reported":1729364866,"current_range_meters":3600,"station_id":"ce4bgj92rcd13ifvqbe0","pricing_plan_id":"cebpf4jnsgd1na2vs0mg"},{"bike_id":"b1a010c3-f928-4fe3-b36e-10afef0a3592","system_id":"levelo_inurba_marseille","lat":43.28859,"lon":5.39321,"is_reserved":false,"is_disabled":false,"rental_uris":{"android":"levelo://app?vid=b1a010c3-f928-4fe3-b36e-10afef0a3592","ios":"levelo://app?vid=b1a010c3-f928-4fe3-b36e-10afef0a3592"},"vehicle_type_id":"4","last_reported":1729364866,"current_range_meters":38800,"station_id":"ce4bh2p2rcd13ifvqdi0","pricing_plan_id":"cebpf4jnsgd1na2vs0mg"},{"bike_id":"535b44b7-3125-4f91-b54e-f06c5e8c2bb5","system_id":"levelo_inurba_marseille","lat":43.32484,"lon":5.36584,"is_reserved":false,"is_disabled":false,"rental_uris":{"android":"levelo://app?vid=535b44b7-3125-4f91-b54e-f06c5e8c2bb5","ios":"levelo://app?vid=535b44b7-3125-4f91-b54e-f06c5e8c2bb5"},"vehicle_type_id":"4","last_reported":1729364866,"current_range_meters":38800,"station_id":"ce4bhs12rcd13ifvqhvg","pricing_plan_id":"cebpf4jnsgd1na2vs0mg"},{"bike_id":"6ed4917e-b506-4be3-959b-b947661c75db","system_id":"levelo_inurba_marseille","lat":43.28485,"lon":5.38571,"is_reserved":false,"is_disabled":false,"rental_uris":{"android":"levelo://app?vid=6ed4917e-b506-4be3-959b-b947661c75db","ios":"levelo://app?vid=6ed4917e-b506-4be3-959b-b947661c75db"},"vehicle_type_id":"4","last_reported":1729364866,"current_range_meters":6800,"station_id":"ce4bh8p2rcd13ifvqeb0","pricing_plan_id":"cebpf4jnsgd1na2vs0mg"},{"bike_id":"0c70e9cf-3804-4f86-9c7b-04da69fe5f0a","system_id":"levelo_inurba_marseille","lat":43.3133,"lon":5.39698,"is_reserved":false,"is_disabled":false,"rental_uris":{"android":"levelo://app?vid=0c70e9cf-3804-4f86-9c7b-04da69fe5f0a","ios":"levelo://app?vid=0c70e9cf-3804-4f86-9c7b-04da69fe5f0a"},"vehicle_type_id":"4","last_reported":1729364866,"current_range_meters":18000,"station_id":"ce4bgvp2rcd13ifvqcu0","pricing_plan_id":"cebpf4jnsgd1na2vs0mg"},{"bike_id":"31e50451-9a26-4d5b-b8a7-0e106cf94f1a","system_id":"levelo_inurba_marseille","lat":43.28572,"lon":5.39496,"is_reserved":false,"is_disabled":false,"rental_uris":{"android":"levelo://app?vid=31e50451-9a26-4d5b-b8a7-0e106cf94f1a","ios":"levelo://app?vid=31e50451-9a26-4d5b-b8a7-0e106cf94f1a"},"vehicle_type_id":"4","last_reported":1729364866,"current_range_meters":38000,"station_id":"ce4bh292rcd13ifvqdg0","pricing_plan_id":"cebpf4jnsgd1na2vs0mg"},{"bike_id":"60e1dbec-cd76-4199-b682-57d8c9691bcf","system_id":"levelo_inurba_marseille","lat":43.24996,"lon":5.38926,"is_reserved":false,"is_disabled":false,"rental_uris":{"android":"levelo://app?vid=60e1dbec-cd76-4199-b682-57d8c9691bcf","ios":"levelo://app?vid=60e1dbec-cd76-4199-b682-57d8c9691bcf"},"vehicle_type_id":"4","last_reported":1729364866,"current_range_meters":3200,"station_id":"ce4bhgp2rcd13ifvqfd0","pricing_plan_id":"cebpf4jnsgd1na2vs0mg"},{"bike_id":"ca032e63-a192-4166-989f-0762a5c6be83","system_id":"levelo_inurba_marseille","lat":43.29178,"lon":5.39334,"is_reserved":false,"is_disabled":false,"rental_uris":{"android":"levelo://app?vid=ca032e63-a192-4166-989f-0762a5c6be83","ios":"levelo://app?vid=ca032e63-a192-4166-989f-0762a5c6be83"},"vehicle_type_id":"4","last_reported":1729364866,"current_range_meters":21600,"station_id":"ce4bh192rcd13ifvqdd0","pricing_plan_id":"cebpf4jnsgd1na2vs0mg"},{"bike_id":"0bca1da3-d653-469d-b8f5-c2661e84a9f5","system_id":"levelo_inurba_marseille","lat":43.29533,"lon":5.38546,"is_reserved":false,"is_disabled":false,"rental_uris":{"android":"levelo://app?vid=0bca1da3-d653-469d-b8f5-c2661e84a9f5","ios":"levelo://app?vid=0bca1da3-d653-469d-b8f5-c2661e84a9f5"},"vehicle_type_id":"4","last_reported":1729364866,"current_range_meters":38800,"station_id":"ce4bgih2rcd13ifvqba0","pricing_plan_id":"cebpf4jnsgd1na2vs0mg"},{"bike_id":"239b6e4d-0545-467e-8037-5e69f0143c10","system_id":"levelo_inurba_marseille","lat":43.23962,"lon":5.36633,"is_reserved":false,"is_disabled":false,"rental_uris":{"android":"levelo://app?vid=239b6e4d-0545-467e-8037-5e69f0143c10","ios":"levelo://app?vid=239b6e4d-0545-467e-8037-5e69f0143c10"},"vehicle_type_id":"4","last_reported":1729364866,"current_range_meters":22000,"station_id":"ce4bhi12rcd13ifvqfp0","pricing_plan_id":"cebpf4jnsgd1na2vs0mg"},{"bike_id":"d4d01aca-eb1f-4caf-9408-938b859836dd","system_id":"levelo_inurba_marseille","lat":43.27498,"lon":5.42449,"is_reserved":false,"is_disabled":false,"rental_uris":{"android":"levelo://app?vid=d4d01aca-eb1f-4caf-9408-938b859836dd","ios":"levelo://app?vid=d4d01aca-eb1f-4caf-9408-938b859836dd"},"vehicle_type_id":"4","last_reported":1729364866,"current_range_meters":24400,"station_id":"ce4bhn92rcd13ifvqgrg","pricing_plan_id":"cebpf4jnsgd1na2vs0mg"},{"bike_id":"793cb425-3002-4e1c-8ac2-ecdc04162341","system_id":"levelo_inurba_marseille","lat":43.314664,"lon":5.373124,"is_reserved":false,"is_disabled":false,"rental_uris":{"android":"levelo://app?vid=793cb425-3002-4e1c-8ac2-ecdc04162341","ios":"levelo://app?vid=793cb425-3002-4e1c-8ac2-ecdc04162341"},"vehicle_type_id":"4","last_reported":1729364866,"current_range_meters":38800,"station_id":"ce4bgt12rcd13ifvqcd0","pricing_plan_id":"cebpf4jnsgd1na2vs0mg"},{"bike_id":"e81afa6c-b5bf-4a55-81a9-cf8a95d311ec","system_id":"levelo_inurba_marseille","lat":43.28697,"lon":5.37385,"is_reserved":false,"is_disabled":false,"rental_uris":{"android":"levelo://app?vid=e81afa6c-b5bf-4a55-81a9-cf8a95d311ec","ios":"levelo://app?vid=e81afa6c-b5bf-4a55-81a9-cf8a95d311ec"},"vehicle_type_id":"4","last_reported":1729364866,"current_range_meters":4000,"station_id":"ce4bh3p2rcd13ifvqdq0","pricing_plan_id":"cebpf4jnsgd1na2vs0mg"},{"bike_id":"c90b3b94-d3f9-4eae-85bc-1f703b970ba9","system_id":"levelo_inurba_marseille","lat":43.29976,"lon":5.37173,"is_reserved":false,"is_disabled":false,"rental_uris":{"android":"levelo://app?vid=c90b3b94-d3f9-4eae-85bc-1f703b970ba9","ios":"levelo://app?vid=c90b3b94-d3f9-4eae-85bc-1f703b970ba9"},"vehicle_type_id":"4","last_reported":1729364866,"current_range_meters":37600,"station_id":"ce4bgr92rcd13ifvqc7g","pricing_plan_id":"cebpf4jnsgd1na2vs0mg"},{"bike_id":"00f518e8-e848-4bd8-ba98-67d53eeeb673","system_id":"levelo_inurba_marseille","lat":43.23963,"lon":5.36632,"is_reserved":false,"is_disabled":false,"rental_uris":{"android":"levelo://app?vid=00f518e8-e848-4bd8-ba98-67d53eeeb673","ios":"levelo://app?vid=00f518e8-e848-4bd8-ba98-67d53eeeb673"},"vehicle_type_id":"4","last_reported":1729364866,"current_range_meters":15200,"station_id":"ce4bhi12rcd13ifvqfp0","pricing_plan_id":"cebpf4jnsgd1na2vs0mg"},{"bike_id":"25cbf445-a10e-49ad-8c4c-1d0c8dcb9c3e","system_id":"levelo_inurba_marseille","lat":43.303314,"lon":5.401068,"is_reserved":false,"is_disabled":false,"rental_uris":{"android":"levelo://app?vid=25cbf445-a10e-49ad-8c4c-1d0c8dcb9c3e","ios":"levelo://app?vid=25cbf445-a10e-49ad-8c4c-1d0c8dcb9c3e"},"vehicle_type_id":"4","last_reported":1729364866,"current_range_meters":36000,"station_id":"","pricing_plan_id":"cebpf4jnsgd1na2vs0mg"},{"bike_id":"3eb4b758-61e6-48c6-8cc2-14fa30a4a9ed","system_id":"levelo_inurba_marseille","lat":43.28734,"lon":5.37381,"is_reserved":false,"is_disabled":false,"rental_uris":{"android":"levelo://app?vid=3eb4b758-61e6-48c6-8cc2-14fa30a4a9ed","ios":"levelo://app?vid=3eb4b758-61e6-48c6-8cc2-14fa30a4a9ed"},"vehicle_type_id":"4","last_reported":1729364866,"current_range_meters":26000,"station_id":"ce4bh3p2rcd13ifvqdq0","pricing_plan_id":"cebpf4jnsgd1na2vs0mg"},{"bike_id":"77f08788-c14f-49ef-b02e-3e6b9cbe6889","system_id":"levelo_inurba_marseille","lat":43.2953,"lon":5.3854,"is_reserved":false,"is_disabled":false,"rental_uris":{"android":"levelo://app?vid=77f08788-c14f-49ef-b02e-3e6b9cbe6889","ios":"levelo://app?vid=77f08788-c14f-49ef-b02e-3e6b9cbe6889"},"vehicle_type_id":"4","last_reported":1729364866,"current_range_meters":38800,"station_id":"ce4bgih2rcd13ifvqba0","pricing_plan_id":"cebpf4jnsgd1na2vs0mg"},{"bike_id":"f4250f7d-0f3c-419a-819e-af10e7b8867a","system_id":"levelo_inurba_marseille","lat":43.30308,"lon":5.39206,"is_reserved":false,"is_disabled":false,"rental_uris":{"android":"levelo://app?vid=f4250f7d-0f3c-419a-819e-af10e7b8867a","ios":"levelo://app?vid=f4250f7d-0f3c-419a-819e-af10e7b8867a"},"vehicle_type_id":"4","last_reported":1729364866,"current_range_meters":30800,"station_id":"ce4bgkh2rcd13ifvqbk0","pricing_plan_id":"cebpf4jnsgd1na2vs0mg"},{"bike_id":"16a9766b-5fe0-4808-aa1f-f0b2e79ec656","system_id":"levelo_inurba_marseille","lat":43.29965,"lon":5.38501,"is_reserved":false,"is_disabled":false,"rental_uris":{"android":"levelo://app?vid=16a9766b-5fe0-4808-aa1f-f0b2e79ec656","ios":"levelo://app?vid=16a9766b-5fe0-4808-aa1f-f0b2e79ec656"},"vehicle_type_id":"4","last_reported":1729364866,"current_range_meters":12400,"station_id":"ce4bgj92rcd13ifvqbd0","pricing_plan_id":"cebpf4jnsgd1na2vs0mg"},{"bike_id":"72175085-df70-4164-8681-402bbc841b6e","system_id":"levelo_inurba_marseille","lat":43.29312,"lon":5.37172,"is_reserved":false,"is_disabled":false,"rental_uris":{"android":"levelo://app?vid=72175085-df70-4164-8681-402bbc841b6e","ios":"levelo://app?vid=72175085-df70-4164-8681-402bbc841b6e"},"vehicle_type_id":"4","last_reported":1729364866,"current_range_meters":400,"station_id":"ce4bgh92rcd13ifvqb40","pricing_plan_id":"cebpf4jnsgd1na2vs0mg"},{"bike_id":"f896b993-3889-4b4f-87ba-d70854cea1ed","system_id":"levelo_inurba_marseille","lat":43.28105,"lon":5.37837,"is_reserved":false,"is_disabled":false,"rental_uris":{"android":"levelo://app?vid=f896b993-3889-4b4f-87ba-d70854cea1ed","ios":"levelo://app?vid=f896b993-3889-4b4f-87ba-d70854cea1ed"},"vehicle_type_id":"4","last_reported":1729364866,"current_range_meters":800,"station_id":"ce4bha12rcd13ifvqee0","pricing_plan_id":"cebpf4jnsgd1na2vs0mg"},{"bike_id":"5cd4d85f-baeb-4b92-855b-9105512ec32a","system_id":"levelo_inurba_marseille","lat":43.249986,"lon":5.389294,"is_reserved":false,"is_disabled":false,"rental_uris":{"android":"levelo://app?vid=5cd4d85f-baeb-4b92-855b-9105512ec32a","ios":"levelo://app?vid=5cd4d85f-baeb-4b92-855b-9105512ec32a"},