{"last_updated":1726564151,"ttl":30,"version":"2.2","data":{"bikes":[{"bike_id":"4dae9236-ecc4-4097-86b5-07cbb0554035","system_id":"levelo_inurba_marseille","lat":43.31376,"lon":5.3674,"is_reserved":false,"is_disabled":false,"rental_uris":{"android":"levelo://app?vid=4dae9236-ecc4-4097-86b5-07cbb0554035","ios":"levelo://app?vid=4dae9236-ecc4-4097-86b5-07cbb0554035"},"vehicle_type_id":"4","last_reported":1726564151,"current_range_meters":39200,"station_id":"ce4bgr92rcd13ifvqc6g","pricing_plan_id":"cebpf4jnsgd1na2vs0mg"},{"bike_id":"eb6e54ba-6556-4a1a-91b4-dada35567cbf","system_id":"levelo_inurba_marseille","lat":43.2994,"lon":5.36545,"is_reserved":false,"is_disabled":false,"rental_uris":{"android":"levelo://app?vid=eb6e54ba-6556-4a1a-91b4-dada35567cbf","ios":"levelo://app?vid=eb6e54ba-6556-4a1a-91b4-dada35567cbf"},"vehicle_type_id":"4","last_reported":1726564151,"current_range_meters":26000,"station_id":"ce4bgm92rcd13ifvqbr0","pricing_plan_id":"cebpf4jnsgd1na2vs0mg"},{"bike_id":"00680850-50d0-4792-883e-8a72362dcd4a","system_id":"levelo_inurba_marseille","lat":43.27488,"lon":5.42455,"is_reserved":false,"is_disabled":false,"rental_uris":{"android":"levelo://app?vid=00680850-50d0-4792-883e-8a72362dcd4a","ios":"levelo://app?vid=00680850-50d0-4792-883e-8a72362dcd4a"},"vehicle_type_id":"4","last_reported":1726564151,"current_range_meters":36400,"station_id":"ce4bhn92rcd13ifvqgrg","pricing_plan_id":"cebpf4jnsgd1na2vs0mg"},{"bike_id":"9d80d423-6bb3-493c-9cb5-3d322829f416","system_id":"levelo_inurba_marseille","lat":43.313324,"lon":5.367443,"is_reserved":false,"is_disabled":false,"rental_uris":{"android":"levelo://app?vid=9d80d423-6bb3-493c-9cb5-3d322829f416","ios":"levelo://app?vid=9d80d423-6bb3-493c-9cb5-3d322829f416"},"vehicle_type_id":"4","last_reported":1726564151,"current_range_meters":17600,"station_id":"ce4bhs12rcd13ifvqhvg","pricing_plan_id":"cebpf4jnsgd1na2vs0mg"},{"bike_id":"cf5b0f72-4e3e-4b93-9c28-7947369b5199","system_id":"levelo_inurba_marseille","lat":43.33713,"lon":5.39186,"is_reserved":false,"is_disabled":false,"rental_uris":{"android":"levelo://app?vid=cf5b0f72-4e3e-4b93-9c28-7947369b5199","ios":"levelo://app?vid=cf5b0f72-4e3e-4b93-9c28-7947369b5199"},"vehicle_type_id":"4","last_reported":1726564151,"current_range_meters":30000,"station_id":"ce4bhr92rcd13ifvqhsg","pricing_plan_id":"cebpf4jnsgd1na2vs0mg"},{"bike_id":"e58e4e10-994d-474f-afcc-7b41ddc63dfe","system_id":"levelo_inurba_marseille","lat":43.28151,"lon":5.42642,"is_reserved":false,"is_disabled":false,"rental_uris":{"android":"levelo://app?vid=e58e4e10-994d-474f-afcc-7b41ddc63dfe","ios":"levelo://app?vid=e58e4e10-994d-474f-afcc-7b41ddc63dfe"},"vehicle_type_id":"4","last_reported":1726564151,"current_range_meters":38400,"station_id":"ce4bhnh2rcd13ifvqgug","pricing_plan_id":"cebpf4jnsgd1na2vs0mg"},{"bike_id":"43176770-eaee-4996-86c7-d408161e4ce6","system_id":"levelo_inurba_marseille","lat":43.29899,"lon":5.4366,"is_reserved":false,"is_disabled":false,"rental_uris":{"android":"levelo://app?vid=43176770-eaee-4996-86c7-d408161e4ce6","ios":"levelo://app?vid=43176770-eaee-4996-86c7-d408161e4ce6"},"vehicle_type_id":"4","last_reported":1726564151,"current_range_meters":6800,"station_id":"ce4bhpp2rcd13ifvqhfg","pricing_plan_id":"cebpf4jnsgd1na2vs0mg"},{"bike_id":"44424f09-133d-4ff3-8c34-8bb853d2401b","system_id":"levelo_inurba_marseille","lat":43.29847,"lon":5.36292,"is_reserved":false,"is_disabled":false,"rental_uris":{"android":"levelo://app?vid=44424f09-133d-4ff3-8c34-8bb853d2401b","ios":"levelo://app?vid=44424f09-133d-4ff3-8c34-8bb853d2401b"},"vehicle_type_id":"4","last_reported":1726564151,"current_range_meters":13600,"station_id":"ce4bgpp2rcd13ifvqc3g","pricing_plan_id":"cebpf4jnsgd1na2vs0mg"},{"bike_id":"da8dfebf-51a4-4965-9924-00ef88b2dd02","system_id":"levelo_inurba_marseille","lat":43.3254,"lon":5.41429,"is_reserved":false,"is_disabled":false,"rental_uris":{"android":"levelo://app?vid=da8dfebf-51a4-4965-9924-00ef88b2dd02","ios":"levelo://app?vid=da8dfebf-51a4-4965-9924-00ef88b2dd02"},"vehicle_type_id":"4","last_reported":1726564151,"current_range_meters":35600,"station_id":"ce4bhq12rcd13ifvqhhg","pricing_plan_id":"cebpf4jnsgd1na2vs0mg"},{"bike_id":"687ffc61-ed4c-4ca8-9b44-7950dd971550","system_id":"levelo_inurba_marseille","lat":43.24082,"lon":5.37754,"is_reserved":false,"is_disabled":false,"rental_uris":{"android":"levelo://app?vid=687ffc61-ed4c-4ca8-9b44-7950dd971550","ios":"levelo://app?vid=687ffc61-ed4c-4ca8-9b44-7950dd971550"},"vehicle_type_id":"4","last_reported":1726564151,"current_range_meters":31200,"station_id":"ce4bhnp2rcd13ifvqgvg","pricing_plan_id":"cebpf4jnsgd1na2vs0mg"},{"bike_id":"f5a29380-cd03-404f-8592-a3ed16b49da6","system_id":"levelo_inurba_marseille","lat":43.27492,"lon":5.42456,"is_reserved":false,"is_disabled":false,"rental_uris":{"android":"levelo://app?vid=f5a29380-cd03-404f-8592-a3ed16b49da6","ios":"levelo://app?vid=f5a29380-cd03-404f-8592-a3ed16b49da6"},"vehicle_type_id":"4","last_reported":1726564151,"current_range_meters":36000,"station_id":"ce4bhn92rcd13ifvqgrg","pricing_plan_id":"cebpf4jnsgd1na2vs0mg"},{"bike_id":"73e35758-9d49-4744-bb20-f16d5c1ccca8","system_id":"levelo_inurba_marseille","lat":43.30361,"lon":5.4188,"is_reserved":false,"is_disabled":false,"rental_uris":{"android":"levelo://app?vid=73e35758-9d49-4744-bb20-f16d5c1ccca8","ios":"levelo://app?vid=73e35758-9d49-4744-bb20-f16d5c1ccca8"},"vehicle_type_id":"4","last_reported":1726564151,"current_range_meters":38800,"station_id":"ce4bhop2rcd13ifvqh7g","pricing_plan_id":"cebpf4jnsgd1na2vs0mg"},{"bike_id":"78bb8105-1204-46e3-8061-05ce7a881826","system_id":"levelo_inurba_marseille","lat":43.31365,"lon":5.36716,"is_reserved":false,"is_disabled":false,"rental_uris":{"android":"levelo://app?vid=78bb8105-1204-46e3-8061-05ce7a881826","ios":"levelo://app?vid=78bb8105-1204-46e3-8061-05ce7a881826"},"vehicle_type_id":"4","last_reported":1726564151,"current_range_meters":10000,"station_id":"ce4bgr92rcd13ifvqc6g","pricing_plan_id":"cebpf4jnsgd1na2vs0mg"},{"bike_id":"13ec4916-f0ea-4897-8afc-596425b42c42","system_id":"levelo_inurba_marseille","lat":43.23188,"lon":5.35559,"is_reserved":false,"is_disabled":false,"rental_uris":{"android":"levelo://app?vid=13ec4916-f0ea-4897-8afc-596425b42c42","ios":"levelo://app?vid=13ec4916-f0ea-4897-8afc-596425b42c42"},"vehicle_type_id":"4","last_reported":1726564151,"current_range_meters":10000,"station_id":"ce4bhu92rcd13ifvqi70","pricing_plan_id":"cebpf4jnsgd1na2vs0mg"},{"bike_id":"e92289e0-b00e-420d-bbc9-625c76009d60","system_id":"levelo_inurba_marseille","lat":43.28154,"lon":5.42644,"is_reserved":false,"is_disabled":false,"rental_uris":{"android":"levelo://app?vid=e92289e0-b00e-420d-bbc9-625c76009d60","ios":"levelo://app?vid=e92289e0-b00e-420d-bbc9-625c76009d60"},"vehicle_type_id":"4","last_reported":1726564151,"current_range_meters":38000,"station_id":"ce4bhnh2rcd13ifvqgug","pricing_plan_id":"cebpf4jnsgd1na2vs0mg"},{"bike_id":"9d243943-f186-4f8f-b775-710d28fca1e0","system_id":"levelo_inurba_marseille","lat":43.32538,"lon":5.41442,"is_reserved":false,"is_disabled":false,"rental_uris":{"android":"levelo://app?vid=9d243943-f186-4f8f-b775-710d28fca1e0","ios":"levelo://app?vid=9d243943-f186-4f8f-b775-710d28fca1e0"},"vehicle_type_id":"4","last_reported":1726564151,"current_range_meters":33600,"station_id":"ce4bhq12rcd13ifvqhhg","pricing_plan_id":"cebpf4jnsgd1na2vs0mg"},{"bike_id":"e9775e14-f56e-4d3d-841e-e82a160f742a","system_id":"levelo_inurba_marseille","lat":43.3055,"lon":5.36534,"is_reserved":false,"is_disabled":false,"rental_uris":{"android":"levelo://app?vid=e9775e14-f56e-4d3d-841e-e82a160f742a","ios":"levelo://app?vid=e9775e14-f56e-4d3d-841e-e82a160f742a"},"vehicle_type_id":"4","last_reported":1726564151,"current_range_meters":33600,"station_id":"ce4bgs12rcd13ifvqcag","pricing_plan_id":"cebpf4jnsgd1na2vs0mg"},{"bike_id":"b6c63c96-bb07-4744-b2b1-9b60ef810e56","system_id":"levelo_inurba_marseille","lat":43.24651,"lon":5.38892,"is_reserved":false,"is_disabled":false,"rental_uris":{"android":"levelo://app?vid=b6c63c96-bb07-4744-b2b1-9b60ef810e56","ios":"levelo://app?vid=b6c63c96-bb07-4744-b2b1-9b60ef810e56"},"vehicle_type_id":"4","last_reported":1726564151,"current_range_meters":28800,"station_id":"ce4bhg12rcd13ifvqf60","pricing_plan_id":"cebpf4jnsgd1na2vs0mg"},{"bike_id":"c142123f-476f-488f-b9a7-8d5b908217c3","system_id":"levelo_inurba_marseille","lat":43.337444,"lon":5.374475,"is_reserved":false,"is_disabled":false,"rental_uris":{"android":"levelo://app?vid=c142123f-476f-488f-b9a7-8d5b908217c3","ios":"levelo://app?vid=c142123f-476f-488f-b9a7-8d5b908217c3"},"vehicle_type_id":"4","last_reported":1726564151,"current_range_meters":36000,"station_id":"","pricing_plan_id":"cebpf4jnsgd1na2vs0mg"},{"bike_id":"ebbcefaf-20d5-462a-9932-6512ad59f94f","system_id":"levelo_inurba_marseille","lat":43.29846,"lon":5.36274,"is_reserved":false,"is_disabled":false,"rental_uris":{"android":"levelo://app?vid=ebbcefaf-20d5-462a-9932-6512ad59f94f","ios":"levelo://app?vid=ebbcefaf-20d5-462a-9932-6512ad59f94f"},"vehicle_type_id":"4","last_reported":1726564151,"current_range_meters":20400,"station_id":"ce4bgpp2rcd13ifvqc3g","pricing_plan_id":"cebpf4jnsgd1na2vs0mg"},{"bike_id":"7f99a383-b858-438e-9c9c-f49b4416b4d1","system_id":"levelo_inurba_marseille","lat":43.31345,"lon":5.36737,"is_reserved":false,"is_disabled":false,"rental_uris":{"android":"levelo://app?vid=7f99a383-b858-438e-9c9c-f49b4416b4d1","ios":"levelo://app?vid=7f99a383-b858-438e-9c9c-f49b4416b4d1"},"vehicle_type_id":"4","last_reported":1726564151,"current_range_meters":24000,"station_id":"ce4bgr92rcd13ifvqc6g","pricing_plan_id":"cebpf4jnsgd1na2vs0mg"},{"bike_id":"f7ba75b6-9e74-43ff-abae-9f7d376ca3c4","system_id":"levelo_inurba_marseille","lat":43.32535,"lon":5.41435,"is_reserved":false,"is_disabled":false,"rental_uris":{"android":"levelo://app?vid=f7ba75b6-9e74-43ff-abae-9f7d376ca3c4","ios":"levelo://app?vid=f7ba75b6-9e74-43ff-abae-9f7d376ca3c4"},"vehicle_type_id":"4","last_reported":1726564151,"current_range_meters":38400,"station_id":"ce4bhq12rcd13ifvqhhg","pricing_plan_id":"cebpf4jnsgd1na2vs0mg"},{"bike_id":"d2d186e6-a364-4f4a-8275-6e166876e5d7","system_id":"levelo_inurba_marseille","lat":43.32543,"lon":5.41452,"is_reserved":false,"is_disabled":false,"rental_uris":{"android":"levelo://app?vid=d2d186e6-a364-4f4a-8275-6e166876e5d7","ios":"levelo://app?vid=d2d186e6-a364-4f4a-8275-6e166876e5d7"},"vehicle_type_id":"4","last_reported":1726564151,"current_range_meters":22000,"station_id":"ce4bhq12rcd13ifvqhhg","pricing_plan_id":"cebpf4jnsgd1na2vs0mg"},{"bike_id":"dbd298e0-a382-4414-92ca-00d7d938bcff","system_id":"levelo_inurba_marseille","lat":43.23199,"lon":5.35552,"is_reserved":false,"is_disabled":false,"rental_uris":{"android":"levelo://app?vid=dbd298e0-a382-4414-92ca-00d7d938bcff","ios":"levelo://app?vid=dbd298e0-a382-4414-92ca-00d7d938bcff"},"vehicle_type_id":"4","last_reported":1726564151,"current_range_meters":37600,"station_id":"ce4bhu92rcd13ifvqi70","pricing_plan_id":"cebpf4jnsgd1na2vs0mg"},{"bike_id":"cf701991-e09b-41df-8572-038e299c99ce","system_id":"levelo_inurba_marseille","lat":43.30925,"lon":5.40144,"is_reserved":false,"is_disabled":false,"rental_uris":{"android":"levelo://app?vid=cf701991-e09b-41df-8572-038e299c99ce","ios":"levelo://app?vid=cf701991-e09b-41df-8572-038e299c99ce"},"vehicle_type_id":"4","last_reported":1726564151,"current_range_meters":14000,"station_id":"ce4bgvp2rcd13ifvqct0","pricing_plan_id":"cebpf4jnsgd1na2vs0mg"},{"bike_id":"97584628-6ca9-4eff-83a5-5e93afaf8376","system_id":"levelo_inurba_marseille","lat":43.31501,"lon":5.37307,"is_reserved":false,"is_disabled":false,"rental_uris":{"android":"levelo://app?vid=97584628-6ca9-4eff-83a5-5e93afaf8376","ios":"levelo://app?vid=97584628-6ca9-4eff-83a5-5e93afaf8376"},"vehicle_type_id":"4","last_reported":1726564151,"current_range_meters":38800,"station_id":"ce4bgt12rcd13ifvqcd0","pricing_plan_id":"cebpf4jnsgd1na2vs0mg"},{"bike_id":"6fba4958-f94f-47ce-8849-67a1a7acd095","system_id":"levelo_inurba_marseille","lat":43.29843,"lon":5.36267,"is_reserved":false,"is_disabled":false,"rental_uris":{"android":"levelo://app?vid=6fba4958-f94f-47ce-8849-67a1a7acd095","ios":"levelo://app?vid=6fba4958-f94f-47ce-8849-67a1a7acd095"},"vehicle_type_id":"4","last_reported":1726564151,"current_range_meters":18800,"station_id":"ce4bgpp2rcd13ifvqc3g","pricing_plan_id":"cebpf4jnsgd1na2vs0mg"},{"bike_id":"8911eb2d-7b08-435f-8143-91d9c6dfff38","system_id":"levelo_inurba_marseille","lat":43.25937,"lon":5.40913,"is_reserved":false,"is_disabled":false,"rental_uris":{"android":"levelo://app?vid=8911eb2d-7b08-435f-8143-91d9c6dfff38","ios":"levelo://app?vid=8911eb2d-7b08-435f-8143-91d9c6dfff38"},"vehicle_type_id":"4","last_reported":1726564151,"current_range_meters":16800,"station_id":"ce4bhm92rcd13ifvqglg","pricing_plan_id":"cebpf4jnsgd1na2vs0mg"},{"bike_id":"d75e86d4-1d99-453f-b31b-6f37e177d16e","system_id":"levelo_inurba_marseille","lat":43.29982,"lon":5.37187,"is_reserved":false,"is_disabled":false,"rental_uris":{"android":"levelo://app?vid=d75e86d4-1d99-453f-b31b-6f37e177d16e","ios":"levelo://app?vid=d75e86d4-1d99-453f-b31b-6f37e177d16e"},"vehicle_type_id":"4","last_reported":1726564151,"current_range_meters":24400,"station_id":"ce4bgr92rcd13ifvqc7g","pricing_plan_id":"cebpf4jnsgd1na2vs0mg"},{"bike_id":"dc0e8642-f4f3-411c-ac96-84bd636032e0","system_id":"levelo_inurba_marseille","lat":43.26783,"lon":5.39383,"is_reserved":false,"is_disabled":false,"rental_uris":{"android":"levelo://app?vid=dc0e8642-f4f3-411c-ac96-84bd636032e0","ios":"levelo://app?vid=dc0e8642-f4f3-411c-ac96-84bd636032e0"},"vehicle_type_id":"4","last_reported":1726564151,"current_range_meters":38800,"station_id":"","pricing_plan_id":"cebpf4jnsgd1na2vs0mg"},{"bike_id":"194cccc5-5357-4df7-88e5-11103da88c1f","system_id":"levelo_inurba_marseille","lat":43.28442,"lon":5.39201,"is_reserved":false,"is_disabled":false,"rental_uris":{"android":"levelo://app?vid=194cccc5-5357-4df7-88e5-11103da88c1f","ios":"levelo://app?vid=194cccc5-5357-4df7-88e5-11103da88c1f"},"vehicle_type_id":"4","last_reported":1726564151,"current_range_meters":9600,"station_id":"ce4bhoh2rcd13ifvqh5g","pricing_plan_id":"cebpf4jnsgd1na2vs0mg"},{"bike_id":"ad75300b-e1aa-4856-af3e-e086c02f5b29","system_id":"levelo_inurba_marseille","lat":43.30531,"lon":5.36557,"is_reserved":false,"is_disabled":false,"rental_uris":{"android":"levelo://app?vid=ad75300b-e1aa-4856-af3e-e086c02f5b29","ios":"levelo://app?vid=ad75300b-e1aa-4856-af3e-e086c02f5b29"},"vehicle_type_id":"4","last_reported":1726564151,"current_range_meters":14000,"station_id":"ce4bgs12rcd13ifvqcag","pricing_plan_id":"cebpf4jnsgd1na2vs0mg"},{"bike_id":"2a5808e5-1612-4dc1-a62b-b9c71459256c","system_id":"levelo_inurba_marseille","lat":43.34094,"lon":5.39103,"is_reserved":false,"is_disabled":false,"rental_uris":{"android":"levelo://app?vid=2a5808e5-1612-4dc1-a62b-b9c71459256c","ios":"levelo://app?vid=2a5808e5-1612-4dc1-a62b-b9c71459256c"},"vehicle_type_id":"4","last_reported":1726564151,"current_range_meters":12000,"station_id":"","pricing_plan_id":"cebpf4jnsgd1na2vs0mg"},{"bike_id":"2f4843a9-3b03-4ac6-b9dc-c9653e7f0663","system_id":"levelo_inurba_marseille","lat":43.301849,"lon":5.366159,"is_reserved":false,"is_disabled":false,"rental_uris":{"android":"levelo://app?vid=2f4843a9-3b03-4ac6-b9dc-c9653e7f0663","ios":"levelo://app?vid=2f4843a9-3b03-4ac6-b9dc-c9653e7f0663"},"vehicle_type_id":"4","last_reported":1726564151,"current_range_meters":28800,"station_id":"ce4bgrh2rcd13ifvqc8g","pricing_plan_id":"cebpf4jnsgd1na2vs0mg"},{"bike_id":"e75bdf37-6017-4dd9-8183-f2edc970ca06","system_id":"levelo_inurba_marseille","lat":43.23201,"lon":5.35557,"is_reserved":false,"is_disabled":false,"rental_uris":{"android":"levelo://app?vid=e75bdf37-6017-4dd9-8183-f2edc970ca06","ios":"levelo://app?vid=e75bdf37-6017-4dd9-8183-f2edc970ca06"},"vehicle_type_id":"4","last_reported":1726564151,"current_range_meters":30800,"station_id":"ce4bhu92rcd13ifvqi70","pricing_plan_id":"cebpf4jnsgd1na2vs0mg"},{"bike_id":"ce8ced7e-9c71-4c55-bcf2-a8ee0d1a6cd0","system_id":"levelo_inurba_marseille","lat":43.27076,"lon":5.42276,"is_reserved":false,"is_disabled":false,"rental_uris":{"android":"levelo://app?vid=ce8ced7e-9c71-4c55-bcf2-a8ee0d1a6cd0","ios":"levelo://app?vid=ce8ced7e-9c71-4c55-bcf2-a8ee0d1a6cd0"},"vehicle_type_id":"4","last_reported":1726564151,"current_range_meters":36800,"station_id":"ce4bhk92rcd13ifvqgb0","pricing_plan_id":"cebpf4jnsgd1na2vs0mg"},{"bike_id":"854ef71a-b0ce-4b7e-853e-bc9e44a683bb","system_id":"levelo_inurba_marseille","lat":43.25936,"lon":5.40913,"is_reserved":false,"is_disabled":false,"rental_uris":{"android":"levelo://app?vid=854ef71a-b0ce-4b7e-853e-bc9e44a683bb","ios":"levelo://app?vid=854ef71a-b0ce-4b7e-853e-bc9e44a683bb"},"vehicle_type_id":"4","last_reported":1726564151,"current_range_meters":10800,"station_id":"ce4bhm92rcd13ifvqglg","pricing_plan_id":"cebpf4jnsgd1na2vs0mg"},{"bike_id":"10f25ac3-5270-4f51-8c70-a3ac580b26a8","system_id":"levelo_inurba_marseille","lat":43.26199,"lon":5.3793,"is_reserved":false,"is_disabled":false,"rental_uris":{"android":"levelo://app?vid=10f25ac3-5270-4f51-8c70-a3ac580b26a8","ios":"levelo://app?vid=10f25ac3-5270-4f51-8c70-a3ac580b26a8"},"vehicle_type_id":"4","last_reported":1726564151,"current_range_meters":40000,"station_id":"ce4bhjp2rcd13ifvqg90","pricing_plan_id":"cebpf4jnsgd1na2vs0mg"},{"bike_id":"c52e4848-dd66-46b8-a132-9836b7620028","system_id":"levelo_inurba_marseille","lat":43.25933,"lon":5.40911,"is_reserved":false,"is_disabled":false,"rental_uris":{"android":"levelo://app?vid=c52e4848-dd66-46b8-a132-9836b7620028","ios":"levelo://app?vid=c52e4848-dd66-46b8-a132-9836b7620028"},"vehicle_type_id":"4","last_reported":1726564151,"current_range_meters":19200,"station_id":"ce4bhm92rcd13ifvqglg","pricing_plan_id":"cebpf4jnsgd1na2vs0mg"},{"bike_id":"26ba68ce-9abf-45c1-9160-ad0d48c72a28","system_id":"levelo_inurba_marseille","lat":43.3055,"lon":5.36536,"is_reserved":false,"is_disabled":false,"rental_uris":{"android":"levelo://app?vid=26ba68ce-9abf-45c1-9160-ad0d48c72a28","ios":"levelo://app?vid=26ba68ce-9abf-45c1-9160-ad0d48c72a28"},"vehicle_type_id":"4","last_reported":1726564151,"current_range_meters":35600,"station_id":"ce4bgs12rcd13ifvqcag","pricing_plan_id":"cebpf4jnsgd1na2vs0mg"},{"bike_id":"d39abb17-e3b9-4c2a-9c60-c191dfee0118","system_id":"levelo_inurba_marseille","lat":43.29098,"lon":5.36952,"is_reserved":false,"is_disabled":false,"rental_uris":{"android":"levelo://app?vid=d39abb17-e3b9-4c2a-9c60-c191dfee0118","ios":"levelo://app?vid=d39abb17-e3b9-4c2a-9c60-c191dfee0118"},"vehicle_type_id":"4","last_reported":1726564151,"current_range_meters":28400,"station_id":"","pricing_plan_id":"cebpf4jnsgd1na2vs0mg"},{"bike_id":"56cb02f7-5108-4355-8842-ad6962e4717f","system_id":"levelo_inurba_marseille","lat":43.29841,"lon":5.36271,"is_reserved":false,"is_disabled":false,"rental_uris":{"android":"levelo://app?vid=56cb02f7-5108-4355-8842-ad6962e4717f","ios":"levelo://app?vid=56cb02f7-5108-4355-8842-ad6962e4717f"},"vehicle_type_id":"4","last_reported":1726564151,"current_range_meters":22800,"station_id":"ce4bgpp2rcd13ifvqc3g","pricing_plan_id":"cebpf4jnsgd1na2vs0mg"},{"bike_id":"67b7d6fd-68e0-4974-9720-e2f4b2c8e265","system_id":"levelo_inurba_marseille","lat":43.24993,"lon":5.38937,"is_reserved":false,"is_disabled":false,"rental_uris":{"android":"levelo://app?vid=67b7d6fd-68e0-4974-9720-e2f4b2c8e265","ios":"levelo://app?vid=67b7d6fd-68e0-4974-9720-e2f4b2c8e265"},"vehicle_type_id":"4","last_reported":1726564151,"current_range_meters":12800,"station_id":"ce4bhgp2rcd13ifvqfd0","pricing_plan_id":"cebpf4jnsgd1na2vs0mg"},{"bike_id":"bad9e710-7ce0-48c4-b66d-1c47c52b95d4","system_id":"levelo_inurba_marseille","lat":43.23968,"lon":5.36632,"is_reserved":false,"is_disabled":false,"rental_uris":{"android":"levelo://app?vid=bad9e710-7ce0-48c4-b66d-1c47c52b95d4","ios":"levelo://app?vid=bad9e710-7ce0-48c4-b66d-1c47c52b95d4"},"vehicle_type_id":"4","last_reported":1726564151,"current_range_meters":9200,"station_id":"ce4bhi12rcd13ifvqfp0","pricing_plan_id":"cebpf4jnsgd1na2vs0mg"},{"bike_id":"3fe87b82-dda3-4c17-9a46-a862dce92604","system_id":"levelo_inurba_marseille","lat":43.24994,"lon":5.3893,"is_reserved":false,"is_disabled":false,"rental_uris":{"android":"levelo://app?vid=3fe87b82-dda3-4c17-9a46-a862dce92604","ios":"levelo://app?vid=3fe87b82-dda3-4c17-9a46-a862dce92604"},"vehicle_type_id":"4","last_reported":1726564151,"current_range_meters":32400,"station_id":"ce4bhgp2rcd13ifvqfd0","pricing_plan_id":"cebpf4jnsgd1na2vs0mg"},{"bike_id":"6fcb671c-f04a-47fc-8948-e59988d81a5e","system_id":"levelo_inurba_marseille","lat":43.24078,"lon":5.37756,"is_reserved":false,"is_disabled":false,"rental_uris":{"android":"levelo://app?vid=6fcb671c-f04a-47fc-8948-e59988d81a5e","ios":"levelo://app?vid=6fcb671c-f04a-47fc-8948-e59988d81a5e"},"vehicle_type_id":"4","last_reported":1726564151,"current_range_meters":36800,"station_id":"ce4bhnp2rcd13ifvqgvg","pricing_plan_id":"cebpf4jnsgd1na2vs0mg"},{"bike_id":"091de19b-0a61-4581-94e4-10ff7820407b","system_id":"levelo_inurba_marseille","lat":43.309526,"lon":5.390459,"is_reserved":false,"is_disabled":false,"rental_uris":{"android":"levelo://app?vid=091de19b-0a61-4581-94e4-10ff7820407b","ios":"levelo://app?vid=091de19b-0a61-4581-94e4-10ff7820407b"},"vehicle_type_id":"4","last_reported":1726564151,"current_range_meters":28800,"station_id":"ce4bgr92rcd13ifvqc7g","pricing_plan_id":"cebpf4jnsgd1na2vs0mg"},{"bike_id":"927827c8-fd28-400f-8fed-abf684981054","system_id":"levelo_inurba_marseille","lat":43.29264,"lon":5.38456,"is_reserved":false,"is_disabled":false,"rental_uris":{"android":"levelo://app?vid=927827c8-fd28-400f-8fed-abf684981054","ios":"levelo://app?vid=927827c8-fd28-400f-8fed-abf684981054"},"vehicle_type_id":"4","last_reported":1726564151,"current_range_meters":39200,"station_id":"ce4bh692rcd13ifvqea0","pricing_plan_id":"cebpf4jnsgd1na2vs0mg"},{"bike_id":"882e327a-d92c-4bd6-b42d-19c69c8b050c","system_id":"levelo_inurba_marseille","lat":43.30536,"lon":5.36696,"is_reserved":false,"is_disabled":false,"rental_uris":{"android":"levelo://app?vid=882e327a-d92c-4bd6-b42d-19c69c8b050c","ios":"levelo://app?vid=882e327a-d92c-4bd6-b42d-19c69c8b050c"},"vehicle_type_id":"4","last_reported":1726564151,"current_range_meters":38400,"station_id":"ce4bgrp2rcd13ifvqc9g","pricing_plan_id":"cebpf4jnsgd1na2vs0mg"},{"bike_id":"c64ce81c-efb7-4e4f-a72e-062617e35471","system_id":"levelo_inurba_marseille","lat":43.28611,"lon":5.37062,"is_reserved":false,"is_disabled":false,"rental_uris":{"android":"levelo://app?vid=c64ce81c-efb7-4e4f-a72e-062617e35471","ios":"levelo://app?vid=c64ce81c-efb7-4e4f-a72e-062617e35471"},"vehicle_type_id":"4","last_reported":1726564151,"current_range_meters":16800,"station_id":"ce4bht12rcd13ifvqi60","pricing_plan_id":"cebpf4jnsgd1na2vs0mg"},{"bike_id":"47236eaf-dd77-40b6-a59b-bd6b06896c48","system_id":"levelo_inurba_marseille","lat":43.2649,"lon":5.39539,"is_reserved":false,"is_disabled":false,"rental_uris":{"android":"levelo://app?vid=47236eaf-dd77-40b6-a59b-bd6b06896c48","ios":"levelo://app?vid=47236eaf-dd77-40b6-a59b-bd6b06896c48"},"vehicle_type_id":"4","last_reported":1726564151,"current_range_meters":32800,"station_id":"ce4bhi12rcd13ifvqfq0","pricing_plan_id":"cebpf4jnsgd1na2vs0mg"},{"bike_id":"f409a27c-3291-4d9b-ac57-9e74e75d80d1","system_id":"levelo_inurba_marseille","lat":43.32365,"lon":5.38892,"is_reserved":false,"is_disabled":false,"rental_uris":{"android":"levelo://app?vid=f409a27c-3291-4d9b-ac57-9e74e75d80d1","ios":"levelo://app?vid=f409a27c-3291-4d9b-ac57-9e74e75d80d1"},"vehicle_type_id":"4","last_reported":1726564151,"current_range_meters":16000,"station_id":"ce4bhqp2rcd13ifvqhog","pricing_plan_id":"cebpf4jnsgd1na2vs0mg"},{"bike_id":"56e6b080-c2bc-4b18-bb88-714f0e1a6c6f","system_id":"levelo_inurba_marseille","lat":43.29918,"lon":5.37475,"is_reserved":false,"is_disabled":false,"rental_uris":{"android":"levelo://app?vid=56e6b080-c2bc-4b18-bb88-714f0e1a6c6f","ios":"levelo://app?vid=56e6b080-c2bc-4b18-bb88-714f0e1a6c6f"},"vehicle_type_id":"4","last_reported":1726564151,"current_range_meters":39200,"station_id":"ce4bgjh2rcd13ifvqbg0","pricing_plan_id":"cebpf4jnsgd1na2vs0mg"},{"bike_id":"e2411f7b-eeb7-4469-921e-195ed607de33","system_id":"levelo_inurba_marseille","lat":43.30557,"lon":5.36533,"is_reserved":false,"is_disabled":false,"rental_uris":{"android":"levelo://app?vid=e2411f7b-eeb7-4469-921e-195ed607de33","ios":"levelo://app?vid=e2411f7b-eeb7-4469-921e-195ed607de33"},"vehicle_type_id":"4","last_reported":1726564151,"current_range_meters":33600,"station_id":"ce4bgs12rcd13ifvqcag","pricing_plan_id":"cebpf4jnsgd1na2vs0mg"},{"bike_id":"4232e9d2-5cc7-4941-99f6-12282f5a71a2","system_id":"levelo_inurba_marseille","lat":43.27495,"lon":5.4245,"is_reserved":false,"is_disabled":false,"rental_uris":{"android":"levelo://app?vid=4232e9d2-5cc7-4941-99f6-12282f5a71a2","ios":"levelo://app?vid=4232e9d2-5cc7-4941-99f6-12282f5a71a2"},"vehicle_type_id":"4","last_reported":1726564151,"current_range_meters":27600,"station_id":"ce4bhn92rcd13ifvqgrg","pricing_plan_id":"cebpf4jnsgd1na2vs0mg"},{"bike_id":"30ce5f9d-e14d-4ee7-b9f8-22f7215e3c5f","system_id":"levelo_inurba_marseille","lat":43.23152,"lon":5.43723,"is_reserved":false,"is_disabled":false,"rental_uris":{"android":"levelo://app?vid=30ce5f9d-e14d-4ee7-b9f8-22f7215e3c5f","ios":"levelo://app?vid=30ce5f9d-e14d-4ee7-b9f8-22f7215e3c5f"},"vehicle_type_id":"4","last_reported":1726564151,"current_range_meters":23200,"station_id":"ce4bhmp2rcd13ifvqgog","pricing_plan_id":"cebpf4jnsgd1na2vs0mg"},{"bike_id":"5e483875-b1c3-4999-9273-bc72af1b866f","system_id":"levelo_inurba_marseille","lat":43.31173,"lon":5.38721,"is_reserved":false,"is_disabled":false,"rental_uris":{"android":"levelo://app?vid=5e483875-b1c3-4999-9273-bc72af1b866f","ios":"levelo://app?vid=5e483875-b1c3-4999-9273-bc72af1b866f"},"vehicle_type_id":"4","last_reported":1726564151,"current_range_meters":28800,"station_id":"ce4bgv12rcd13ifvqcp0","pricing_plan_id":"cebpf4jnsgd1na2vs0mg"},{"bike_id":"cd1d4c55-2cbb-4b85-a1be-a7235ca53de6","system_id":"levelo_inurba_marseille","lat":43.32483,"lon":5.3657,"is_reserved":false,"is_disabled":false,"rental_uris":{"android":"levelo://app?vid=cd1d4c55-2cbb-4b85-a1be-a7235ca53de6","ios":"levelo://app?vid=cd1d4c55-2cbb-4b85-a1be-a7235ca53de6"},"vehicle_type_id":"4","last_reported":1726564151,"current_range_meters":25200,"station_id":"ce4bhs12rcd13ifvqhvg","pricing_plan_id":"cebpf4jnsgd1na2vs0mg"},{"bike_id":"3f24c429-da4d-4cc4-a3c1-ca38f3b23db4","system_id":"levelo_inurba_marseille","lat":43.28264,"lon":5.35068,"is_reserved":false,"is_disabled":false,"rental_uris":{"android":"levelo://app?vid=3f24c429-da4d-4cc4-a3c1-ca38f3b23db4","ios":"levelo://app?vid=3f24c429-da4d-4cc4-a3c1-ca38f3b23db4"},"vehicle_type_id":"4","last_reported":1726564151,"current_range_meters":26000,"station_id":"ce4bhbp2rcd13ifvqerg","pricing_plan_id":"cebpf4jnsgd1na2vs0mg"},{"bike_id":"c7f93bf2-2b30-4c5c-aa72-447b3f4a28ea","system_id":"levelo_inurba_marseille","lat":43.29896,"lon":5.43664,"is_reserved":false,"is_disabled":false,"rental_uris":{"android":"levelo://app?vid=c7f93bf2-2b30-4c5c-aa72-447b3f4a28ea","ios":"levelo://app?vid=c7f93bf2-2b30-4c5c-aa72-447b3f4a28ea"},"vehicle_type_id":"4","last_reported":1726564151,"current_range_meters":9600,"station_id":"ce4bhpp2rcd13ifvqhfg","pricing_plan_id":"cebpf4jnsgd1na2vs0mg"},{"bike_id":"b6b6413d-bb25-4a75-9e5d-a1b93b386b18","system_id":"levelo_inurba_marseille","lat":43.29536,"lon":5.38545,"is_reserved":false,"is_disabled":false,"rental_uris":{"android":"levelo://app?vid=b6b6413d-bb25-4a75-9e5d-a1b93b386b18","ios":"levelo://app?vid=b6b6413d-bb25-4a75-9e5d-a1b93b386b18"},"vehicle_type_id":"4","last_reported":1726564151,"current_range_meters":33600,"station_id":"ce4bgih2rcd13ifvqba0","pricing_plan_id":"cebpf4jnsgd1na2vs0mg"},{"bike_id":"b8e41107-ee2e-425b-9ce6-c4df440ebaec","system_id":"levelo_inurba_marseille","lat":43.30153,"lon":5.37417,"is_reserved":false,"is_disabled":false,"rental_uris":{"android":"levelo://app?vid=b8e41107-ee2e-425b-9ce6-c4df440ebaec","ios":"levelo://app?vid=b8e41107-ee2e-425b-9ce6-c4df440ebaec"},"vehicle_type_id":"4","last_reported":1726564151,"current_range_meters":36400,"station_id":"ce4bgs92rcd13ifvqcc0","pricing_plan_id":"cebpf4jnsgd1na2vs0mg"},{"bike_id":"22a588b1-cfec-4a63-9499-3cf933091fed","system_id":"levelo_inurba_marseille","lat":43.30546,"lon":5.36719,"is_reserved":false,"is_disabled":false,"rental_uris":{"android":"levelo://app?vid=22a588b1-cfec-4a63-9499-3cf933091fed","ios":"levelo://app?vid=22a588b1-cfec-4a63-9499-3cf933091fed"},"vehicle_type_id":"4","last_reported":1726564151,"current_range_meters":39200,"station_id":"ce4bgrp2rcd13ifvqc9g","pricing_plan_id":"cebpf4jnsgd1na2vs0mg"},{"bike_id":"42dfd8c5-763c-4745-a98f-0e8d2453349a","system_id":"levelo_inurba_marseille","lat":43.31354,"lon":5.38494,"is_reserved":false,"is_disabled":false,"rental_uris":{"android":"levelo://app?vid=42dfd8c5-763c-4745-a98f-0e8d2453349a","ios":"levelo://app?vid=42dfd8c5-763c-4745-a98f-0e8d2453349a"},"vehicle_type_id":"4","last_reported":1726564151,"current_range_meters":22400,"station_id":"ce4bgt92rcd13ifvqcf0","pricing_plan_id":"cebpf4jnsgd1na2vs0mg"},{"bike_id":"e7677adc-dbdd-4186-892d-adb49463ab48","system_id":"levelo_inurba_marseille","lat":43.3375,"lon":5.37439,"is_reserved":false,"is_disabled":false,"rental_uris":{"android":"levelo://app?vid=e7677adc-dbdd-4186-892d-adb49463ab48","ios":"levelo://app?vid=e7677adc-dbdd-4186-892d-adb49463ab48"},"vehicle_type_id":"4","last_reported":1726564151,"current_range_meters":18000,"station_id":"","pricing_plan_id":"cebpf4jnsgd1na2vs0mg"},{"bike_id":"128ec406-53f9-4071-b496-4e5020ff87f3","system_id":"levelo_inurba_marseille","lat":43.25935,"lon":5.40911,"is_reserved":false,"is_disabled":false,"rental_uris":{"android":"levelo://app?vid=128ec406-53f9-4071-b496-4e5020ff87f3","ios":"levelo://app?vid=128ec406-53f9-4071-b496-4e5020ff87f3"},"vehicle_type_id":"4","last_reported":1726564151,"current_range_meters":9200,"station_id":"ce4bhm92rcd13ifvqglg","pricing_plan_id":"cebpf4jnsgd1na2vs0mg"},{"bike_id":"9aa1a99f-a63b-480e-955f-bb461fb4380e","system_id":"levelo_inurba_marseille","lat":43.25937,"lon":5.40912,"is_reserved":false,"is_disabled":false,"rental_uris":{"android":"levelo://app?vid=9aa1a99f-a63b-480e-955f-bb461fb4380e","ios":"levelo://app?vid=9aa1a99f-a63b-480e-955f-bb461fb4380e"},"vehicle_type_id":"4","last_reported":1726564151,"current_range_meters":12400,"station_id":"ce4bhm92rcd13ifvqglg","pricing_plan_id":"cebpf4jnsgd1na2vs0mg"},{"bike_id":"53313a0f-0ff9-4a1a-bc65-ab4aa9b534f5","system_id":"levelo_inurba_marseille","lat":43.25938,"lon":5.40908,"is_reserved":false,"is_disabled":false,"rental_uris":{"android":"levelo://app?vid=53313a0f-0ff9-4a1a-bc65-ab4aa9b534f5","ios":"levelo://app?vid=53313a0f-0ff9-4a1a-bc65-ab4aa9b534f5"},"vehicle_type_id":"4","last_reported":1726564151,"current_range_meters":25200,"station_id":"ce4bhm92rcd13ifvqglg","pricing_plan_id":"cebpf4jnsgd1na2vs0mg"},{"bike_id":"c5b4ea53-0c2a-4563-888a-5f9879af2834","system_id":"levelo_inurba_marseille","lat":43.30211,"lon":5.39477,"is_reserved":false,"is_disabled":false,"rental_uris":{"android":"levelo://app?vid=c5b4ea53-0c2a-4563-888a-5f9879af2834","ios":"levelo://app?vid=c5b4ea53-0c2a-4563-888a-5f9879af2834"},"vehicle_type_id":"4","last_reported":1726564151,"current_range_meters":36800,"station_id":"ce4bh0p2rcd13ifvqd70","pricing_plan_id":"cebpf4jnsgd1na2vs0mg"},{"bike_id":"5546aaa1-3eba-48e0-b83d-fd958582f918","system_id":"levelo_inurba_marseille","lat":43.29369,"lon":5.37825,"is_reserved":false,"is_disabled":false,"rental_uris":{"android":"levelo://app?vid=5546aaa1-3eba-48e0-b83d-fd958582f918","ios":"levelo://app?vid=5546aaa1-3eba-48e0-b83d-fd958582f918"},"vehicle_type_id":"4","last_reported":1726564151,"current_range_meters":8800,"station_id":"ce4bgjh2rcd13ifvqbf0","pricing_plan_id":"cebpf4jnsgd1na2vs0mg"},{"bike_id":"4902515c-7223-4d4f-932c-33bb69936249","system_id":"levelo_inurba_marseille","lat":43.28265,"lon":5.35075,"is_reserved":false,"is_disabled":false,"rental_uris":{"android":"levelo://app?vid=4902515c-7223-4d4f-932c-33bb69936249","ios":"levelo://app?vid=4902515c-7223-4d4f-932c-33bb69936249"},"vehicle_type_id":"4","last_reported":1726564151,"current_range_meters":7200,"station_id":"ce4bhbp2rcd13ifvqerg","pricing_plan_id":"cebpf4jnsgd1na2vs0mg"},{"bike_id":"e6e348ac-5fd1-4dc2-8897-e797d2b67797","system_id":"levelo_inurba_marseille","lat":43.29523,"lon":5.37515,"is_reserved":false,"is_disabled":false,"rental_uris":{"android":"levelo://app?vid=e6e348ac-5fd1-4dc2-8897-e797d2b67797","ios":"levelo://app?vid=e6e348ac-5fd1-4dc2-8897-e797d2b67797"},"vehicle_type_id":"4","last_reported":1726564151,"current_range_meters":30000,"station_id":"ce4bgkp2rcd13ifvqbmg","pricing_plan_id":"cebpf4jnsgd1na2vs0mg"},{"bike_id":"d73890a7-d19c-45cf-adfc-02c10d8f1398","system_id":"levelo_inurba_marseille","lat":43.286743,"lon":5.386663,"is_reserved":false,"is_disabled":false,"rental_uris":{"android":"levelo://app?vid=d73890a7-d19c-45cf-adfc-02c10d8f1398","ios":"levelo://app?vid=d73890a7-d19c-45cf-adfc-02c10d8f1398"},"vehicle_type_id":"4","last_reported":1726564151,"current_range_meters":11200,"station_id":"ce4bh492rcd13ifvqdug","pricing_plan_id":"cebpf4jnsgd1na2vs0mg"},{"bike_id":"0b5743fb-c432-4a8b-af61-02f37e691302","system_id":"levelo_inurba_marseille","lat":43.26559,"lon":5.39014,"is_reserved":false,"is_disabled":false,"rental_uris":{"android":"levelo://app?vid=0b5743fb-c432-4a8b-af61-02f37e691302","ios":"levelo://app?vid=0b5743fb-c432-4a8b-af61-02f37e691302"},"vehicle_type_id":"4","last_reported":1726564151,"current_range_meters":37600,"station_id":"ce4bhe12rcd13ifvqf30","pricing_plan_id":"cebpf4jnsgd1na2vs0mg"},{"bike_id":"dcea6b60-212e-4bca-ac64-90fb40c808dd","system_id":"levelo_inurba_marseille","lat":43.29961,"lon":5.41317,"is_reserved":false,"is_disabled":false,"rental_uris":{"android":"levelo://app?vid=dcea6b60-212e-4bca-ac64-90fb40c808dd","ios":"levelo://app?vid=dcea6b60-212e-4bca-ac64-90fb40c808dd"},"vehicle_type_id":"4","last_reported":1726564151,"current_range_meters":36000,"station_id":"ce4bhp12rcd13ifvqh9g","pricing_plan_id":"cebpf4jnsgd1na2vs0mg"},{"bike_id":"fdb2b13a-11cd-42ca-8a52-92bcabd171a0","system_id":"levelo_inurba_marseille","lat":43.30477,"lon":5.37897,"is_reserved":false,"is_disabled":false,"rental_uris":{"android":"levelo://app?vid=fdb2b13a-11cd-42ca-8a52-92bcabd171a0","ios":"levelo://app?vid=fdb2b13a-11cd-42ca-8a52-92bcabd171a0"},"vehicle_type_id":"4","last_reported":1726564151,"current_range_meters":39200,"station_id":"ce4bgup2rcd13ifvqcn0","pricing_plan_id":"cebpf4jnsgd1na2vs0mg"},{"bike_id":"5936897b-09e0-41f1-ad33-59a732d9543c","system_id":"levelo_inurba_marseille","lat":43.307966,"lon":5.381528,"is_reserved":false,"is_disabled":false,"rental_uris":{"android":"levelo://app?vid=5936897b-09e0-41f1-ad33-59a732d9543c","ios":"levelo://app?vid=5936897b-09e0-41f1-ad33-59a732d9543c"},"vehicle_type_id":"4","last_reported":1726564151,"current_range_meters":24400,"station_id":"ce4bgt12rcd13ifvqce0","pricing_plan_id":"cebpf4jnsgd1na2vs0mg"},{"bike_id":"fff088d6-5bf0-4957-8149-65e833cfcc42","system_id":"levelo_inurba_marseille","lat":43.31266,"lon":5.40162,"is_reserved":false,"is_disabled":false,"rental_uris":{"android":"levelo://app?vid=fff088d6-5bf0-4957-8149-65e833cfcc42","ios":"levelo://app?vid=fff088d6-5bf0-4957-8149-65e833cfcc42"},"vehicle_type_id":"4","last_reported":1726564151,"current_range_meters":35600,"station_id":"ce4bh092rcd13ifvqd30","pricing_plan_id":"cebpf4jnsgd1na2vs0mg"},{"bike_id":"a31ee62a-3edf-478f-8ccd-737da4b0f142","system_id":"levelo_inurba_marseille","lat":43.29007,"lon":5.35626,"is_reserved":false,"is_disabled":false,"rental_uris":{"android":"levelo://app?vid=a31ee62a-3edf-478f-8ccd-737da4b0f142","ios":"levelo://app?vid=a31ee62a-3edf-478f-8ccd-737da4b0f142"},"vehicle_type_id":"4","last_reported":1726564151,"current_range_meters":30800,"station_id":"ce4bhb92rcd13ifvqen0","pricing_plan_id":"cebpf4jnsgd1na2vs0mg"},{"bike_id":"8cb592d9-f82f-4171-894f-8d7ffa6525e5","system_id":"levelo_inurba_marseille","lat":43.23202,"lon":5.35543,"is_reserved":false,"is_disabled":false,"rental_uris":{"android":"levelo://app?vid=8cb592d9-f82f-4171-894f-8d7ffa6525e5","ios":"levelo://app?vid=8cb592d9-f82f-4171-894f-8d7ffa6525e5"},"vehicle_type_id":"4","last_reported":1726564151,"current_range_meters":20400,"station_id":"ce4bhu92rcd13ifvqi70","pricing_plan_id":"cebpf4jnsgd1na2vs0mg"},{"bike_id":"285e7841-204a-4b8e-8658-4da9bd95684e","system_id":"levelo_inurba_marseille","lat":43.32482,"lon":5.36568,"is_reserved":false,"is_disabled":false,"rental_uris":{"android":"levelo://app?vid=285e7841-204a-4b8e-8658-4da9bd95684e","ios":"levelo://app?vid=285e7841-204a-4b8e-8658-4da9bd95684e"},"vehicle_type_id":"4","last_reported":1726564151,"current_range_meters":28000,"station_id":"ce4bhs12rcd13ifvqhvg","pricing_plan_id":"cebpf4jnsgd1na2vs0mg"},{"bike_id":"c86dcdfd-64b5-46b3-855d-e82d2b8604e3","system_id":"levelo_inurba_marseille","lat":43.32532,"lon":5.41435,"is_reserved":false,"is_disabled":false,"rental_uris":{"android":"levelo://app?vid=c86dcdfd-64b5-46b3-855d-e82d2b8604e3","ios":"levelo://app?vid=c86dcdfd-64b5-46b3-855d-e82d2b8604e3"},"vehicle_type_id":"4","last_reported":1726564151,"current_range_meters":4400,"station_id":"ce4bhq12rcd13ifvqhhg","pricing_plan_id":"cebpf4jnsgd1na2vs0mg"},{"bike_id":"20a4a91d-8541-4958-9b2e-4e75165c8a2a","system_id":"levelo_inurba_marseille","lat":43.30799,"lon":5.43518,"is_reserved":false,"is_disabled":false,"rental_uris":{"android":"levelo://app?vid=20a4a91d-8541-4958-9b2e-4e75165c8a2a","ios":"levelo://app?vid=20a4a91d-8541-4958-9b2e-4e75165c8a2a"},"vehicle_type_id":"4","last_reported":1726564151,"current_range_meters":15200,"station_id":"ce4bhph2rcd13ifvqheg","pricing_plan_id":"cebpf4jnsgd1na2vs0mg"},{"bike_id":"1d90678c-39fc-420b-985d-38a956cfeb16","system_id":"levelo_inurba_marseille","lat":43.291687,"lon":5.371534,"is_reserved":false,"is_disabled":false,"rental_uris":{"android":"levelo://app?vid=1d90678c-39fc-420b-985d-38a956cfeb16","ios":"levelo://app?vid=1d90678c-39fc-420b-985d-38a956cfeb16"},"vehicle_type_id":"4","last_reported":1726564151,"current_range_meters":34000,"station_id":"ce4bho92rcd13ifvqh4g","pricing_plan_id":"cebpf4jnsgd1na2vs0mg"},{"bike_id":"853bd8c8-b011-45fe-ba2e-1bdc33230ee6","system_id":"levelo_inurba_marseille","lat":43.2897,"lon":5.37843,"is_reserved":false,"is_disabled":false,"rental_uris":{"android":"levelo://app?vid=853bd8c8-b011-45fe-ba2e-1bdc33230ee6","ios":"levelo://app?vid=853bd8c8-b011-45fe-ba2e-1bdc33230ee6"},"vehicle_type_id":"4","last_reported":1726564151,"current_range_meters":34000,"station_id":"ce4bh9p2rcd13ifvqed0","pricing_plan_id":"cebpf4jnsgd1na2vs0mg"},{"bike_id":"c3bcca86-6294-4639-9d07-9722d40f464e","system_id":"levelo_inurba_marseille","lat":43.29901,"lon":5.43669,"is_reserved":false,"is_disabled":false,"rental_uris":{"android":"levelo://app?vid=c3bcca86-6294-4639-9d07-9722d40f464e","ios":"levelo://app?vid=c3bcca86-6294-4639-9d07-9722d40f464e"},"vehicle_type_id":"4","last_reported":1726564151,"current_range_meters":36400,"station_id":"ce4bhpp2rcd13ifvqhfg","pricing_plan_id":"cebpf4jnsgd1na2vs0mg"},{"bike_id":"b8575011-8302-48a4-8af4-a59ce79d4a2f","system_id":"levelo_inurba_marseille","lat":43.3108,"lon":5.42436,"is_reserved":false,"is_disabled":false,"rental_uris":{"android":"levelo://app?vid=b8575011-8302-48a4-8af4-a59ce79d4a2f","ios":"levelo://app?vid=b8575011-8302-48a4-8af4-a59ce79d4a2f"},"vehicle_type_id":"4","last_reported":1726564151,"current_range_meters":32400,"station_id":"ce4bhp92rcd13ifvqhag","pricing_plan_id":"cebpf4jnsgd1na2vs0mg"},{"bike_id":"b39ec713-0a94-4833-b686-96b8ba55cf5a","system_id":"levelo_inurba_marseille","lat":43.30125,"lon":5.39871,"is_reserved":false,"is_disabled":false,"rental_uris":{"android":"levelo://app?vid=b39ec713-0a94-4833-b686-96b8ba55cf5a","ios":"levelo://app?vid=b39ec713-0a94-4833-b686-96b8ba55cf5a"},"vehicle_type_id":"4","last_reported":1726564151,"current_range_meters":37600,"station_id":"ce4bh0h2rcd13ifvqd40","pricing_plan_id":"cebpf4jnsgd1na2vs0mg"},{"bike_id":"cd01429b-75bd-4cd2-b070-bbc3cec7343d","system_id":"levelo_inurba_marseille","lat":43.2408,"lon":5.37754,"is_reserved":false,"is_disabled":false,"rental_uris":{"android":"levelo://app?vid=cd01429b-75bd-4cd2-b070-bbc3cec7343d","ios":"levelo://app?vid=cd01429b-75bd-4cd2-b070-bbc3cec7343d"},"vehicle_type_id":"4","last_reported":1726564151,"current_range_meters":27200,"station_id":"ce4bhnp2rcd13ifvqgvg","pricing_plan_id":"cebpf4jnsgd1na2vs0mg"},{"bike_id":"8a14e327-f1ba-4fa7-932f-68c0a0975b98","system_id":"levelo_inurba_marseille","lat":43.33615,"lon":5.4103,"is_reserved":false,"is_disabled":false,"rental_uris":{"android":"levelo://app?vid=8a14e327-f1ba-4fa7-932f-68c0a0975b98","ios":"levelo://app?vid=8a14e327-f1ba-4fa7-932f-68c0a0975b98"},"vehicle_type_id":"4","last_reported":1726564151,"current_range_meters":39200,"station_id":"ce4bhqh2rcd13ifvqhmg","pricing_plan_id":"cebpf4jnsgd1na2vs0mg"},{"bike_id":"947e8763-2c0b-456d-8eb4-e149edd0b197","system_id":"levelo_inurba_marseille","lat":43.25495,"lon":5.37652,"is_reserved":false,"is_disabled":false,"rental_uris":{"android":"levelo://app?vid=947e8763-2c0b-456d-8eb4-e149edd0b197","ios":"levelo://app?vid=947e8763-2c0b-456d-8eb4-e149edd0b197"},"vehicle_type_id":"4","last_reported":1726564151,"current_range_meters":10000,"station_id":"ce4bhh12rcd13ifvqff0","pricing_plan_id":"cebpf4jnsgd1na2vs0mg"},{"bike_id":"c38cc822-8a7c-4c1b-af0a-acaa151e2dad","system_id":"levelo_inurba_marseille","lat":43.33734,"lon":5.39179,"is_reserved":false,"is_disabled":false,"rental_uris":{"android":"levelo://app?vid=c38cc822-8a7c-4c1b-af0a-acaa151e2dad","ios":"levelo://app?vid=c38cc822-8a7c-4c1b-af0a-acaa151e2dad"},"vehicle_type_id":"4","last_reported":1726564151,"current_range_meters":39200,"station_id":"ce4bhr92rcd13ifvqhsg","pricing_plan_id":"cebpf4jnsgd1na2vs0mg"},{"bike_id":"b1db6496-7d7b-4acc-a88c-e5406d38e100","system_id":"levelo_inurba_marseille","lat":43.23194,"lon":5.35557,"is_reserved":false,"is_disabled":false,"rental_uris":{"android":"levelo://app?vid=b1db6496-7d7b-4acc-a88c-e5406d38e100","ios":"levelo://app?vid=b1db6496-7d7b-4acc-a88c-e5406d38e100"},"vehicle_type_id":"4","last_reported":1726564151,"current_range_meters":28000,"station_id":"ce4bhu92rcd13ifvqi70","pricing_plan_id":"cebpf4jnsgd1na2vs0mg"},{"bike_id":"f6f0e2c8-673d-48b4-abc3-e59aaeafdfd6","system_id":"levelo_inurba_marseille","lat":43.27492,"lon":5.42459,"is_reserved":false,"is_disabled":false,"rental_uris":{"android":"levelo://app?vid=f6f0e2c8-673d-48b4-abc3-e59aaeafdfd6","ios":"levelo://app?vid=f6f0e2c8-673d-48b4-abc3-e59aaeafdfd6"},"vehicle_type_id":"4","last_reported":1726564151,"current_range_meters":28400,"station_id":"ce4bhn92rcd13ifvqgrg","pricing_plan_id":"cebpf4jnsgd1na2vs0mg"},{"bike_id":"8889a729-b5b7-4ae6-b186-27232401112f","system_id":"levelo_inurba_marseille","lat":43.28417,"lon":5.35005,"is_reserved":false,"is_disabled":false,"rental_uris":{"android":"levelo://app?vid=8889a729-b5b7-4ae6-b186-27232401112f","ios":"levelo://app?vid=8889a729-b5b7-4ae6-b186-27232401112f"},"vehicle_type_id":"4","last_reported":1726564151,"current_range_meters":34800,"station_id":"ce4bhbh2rcd13ifvqepg","pricing_plan_id":"cebpf4jnsgd1na2vs0mg"},{"bike_id":"c69cdd71-b25b-4600-bcd7-4a8738c494ae","system_id":"levelo_inurba_marseille","lat":43.30187,"lon":5.36623,"is_reserved":false,"is_disabled":false,"rental_uris":{"android":"levelo://app?vid=c69cdd71-b25b-4600-bcd7-4a8738c494ae","ios":"levelo://app?vid=c69cdd71-b25b-4600-bcd7-4a8738c494ae"},"vehicle_type_id":"4","last_reported":1726564151,"current_range_meters":39200,"station_id":"ce4bgrh2rcd13ifvqc8g","pricing_plan_id":"cebpf4jnsgd1na2vs0mg"},{"bike_id":"733e4865-3357-4a1f-819b-4a724885d4e3","system_id":"levelo_inurba_marseille","lat":43.26924,"lon":5.38638,"is_reserved":false,"is_disabled":false,"rental_uris":{"android":"levelo://app?vid=733e4865-3357-4a1f-819b-4a724885d4e3","ios":"levelo://app?vid=733e4865-3357-4a1f-819b-4a724885d4e3"},"vehicle_type_id":"4","last_reported":1726564151,"current_range_meters":33200,"station_id":"ce4bhh92rcd13ifvqfh0","pricing_plan_id":"cebpf4jnsgd1na2vs0mg"},{"bike_id":"5cf4c2f1-f092-4550-b8cf-369099ebc3bc","system_id":"levelo_inurba_marseille","lat":43.24564,"lon":5.41556,"is_reserved":false,"is_disabled":false,"rental_uris":{"android":"levelo://app?vid=5cf4c2f1-f092-4550-b8cf-369099ebc3bc","ios":"levelo://app?vid=5cf4c2f1-f092-4550-b8cf-369099ebc3bc"},"vehicle_type_id":"4","last_reported":1726564151,"current_range_meters":3200,"station_id":"ce4bhlh2rcd13ifvqgig","pricing_plan_id":"cebpf4jnsgd1na2vs0mg"},{"bike_id":"46617874-6777-4620-8f96-2d9ffa2549bc","system_id":"levelo_inurba_marseille","lat":43.27492,"lon":5.42465,"is_reserved":false,"is_disabled":false,"rental_uris":{"android":"levelo://app?vid=46617874-6777-4620-8f96-2d9ffa2549bc","ios":"levelo://app?vid=46617874-6777-4620-8f96-2d9ffa2549bc"},"vehicle_type_id":"4","last_reported":1726564151,"current_range_meters":3600,"station_id":"ce4bhn92rcd13ifvqgrg","pricing_plan_id":"cebpf4jnsgd1na2vs0mg"},{"bike_id":"acfa855b-c47d-42e8-8790-c6fbf14ff7ee","system_id":"levelo_inurba_marseille","lat":43.30542,"lon":5.3671,"is_reserved":false,"is_disabled":false,"rental_uris":{"android":"levelo://app?vid=acfa855b-c47d-42e8-8790-c6fbf14ff7ee","ios":"levelo://app?vid=acfa855b-c47d-42e8-8790-c6fbf14ff7ee"},"vehicle_type_id":"4","last_reported":1726564151,"current_range_meters":29600,"station_id":"ce4bgrp2rcd13ifvqc9g","pricing_plan_id":"cebpf4jnsgd1na2vs0mg"},{"bike_id":"cc3b8af5-922b-47a4-9520-14c9cfb481c6","system_id":"levelo_inurba_marseille","lat":43.27495,"lon":5.4245,"is_reserved":false,"is_disabled":false,"rental_uris":{"android":"levelo://app?vid=cc3b8af5-922b-47a4-9520-14c9cfb481c6","ios":"levelo://app?vid=cc3b8af5-922b-47a4-9520-14c9cfb481c6"},"vehicle_type_id":"4","last_reported":1726564151,"current_range_meters":8800,"station_id":"ce4bhn92rcd13ifvqgrg","pricing_plan_id":"cebpf4jnsgd1na2vs0mg"},{"bike_id":"3b681a69-ea2d-4b25-80f1-b35c7e2f3ed7","system_id":"levelo_inurba_marseille","lat":43.26938,"lon":5.38922,"is_reserved":false,"is_disabled":false,"rental_uris":{"android":"levelo://app?vid=3b681a69-ea2d-4b25-80f1-b35c7e2f3ed7","ios":"levelo://app?vid=3b681a69-ea2d-4b25-80f1-b35c7e2f3ed7"},"vehicle_type_id":"4","last_reported":1726564151,"current_range_meters":20400,"station_id":"ce4bhhh2rcd13ifvqfl0","pricing_plan_id":"cebpf4jnsgd1na2vs0mg"},{"bike_id":"ddf99b27-3e92-4378-a94f-4b714d1d7b4f","system_id":"levelo_inurba_marseille","lat":43.27311,"lon":5.3907,"is_reserved":false,"is_disabled":false,"rental_uris":{"android":"levelo://app?vid=ddf99b27-3e92-4378-a94f-4b714d1d7b4f","ios":"levelo://app?vid=ddf99b27-3e92-4378-a94f-4b714d1d7b4f"},"vehicle_type_id":"4","last_reported":1726564151,"current_range_meters":30400,"station_id":"ce4bhgp2rcd13ifvqfe0","pricing_plan_id":"cebpf4jnsgd1na2vs0mg"},{"bike_id":"e2438ff3-00ea-412a-aad6-9bc3b2b95cc1","system_id":"levelo_inurba_marseille","lat":43.28927,"lon":5.38398,"is_reserved":false,"is_disabled":false,"rental_uris":{"android":"levelo://app?vid=e2438ff3-00ea-412a-aad6-9bc3b2b95cc1","ios":"levelo://app?vid=e2438ff3-00ea-412a-aad6-9bc3b2b95cc1"},"vehicle_type_id":"4","last_reported":1726564151,"current_range_meters":12000,"station_id":"ce4bh612rcd13ifvqe6g","pricing_plan_id":"cebpf4jnsgd1na2vs0mg"},{"bike_id":"e2f0f583-e5e5-478a-81df-8acaeabd8f51","system_id":"levelo_inurba_marseille","lat":43.282703,"lon":5.38139,"is_reserved":false,"is_disabled":false,"rental_uris":{"android":"levelo://app?vid=e2f0f583-e5e5-478a-81df-8acaeabd8f51","ios":"levelo://app?vid=e2f0f583-e5e5-478a-81df-8acaeabd8f51"},"vehicle_type_id":"4","last_reported":1726564151,"current_range_meters":4000,"station_id":"ce4bhh92rcd13ifvqfi0","pricing_plan_id":"cebpf4jnsgd1na2vs0mg"},{"bike_id":"b645ac77-0d58-4fa9-8ad3-947af8bdb1d9","system_id":"levelo_inurba_marseille","lat":43.29906,"lon":5.43663,"is_reserved":false,"is_disabled":false,"rental_uris":{"android":"levelo://app?vid=b645ac77-0d58-4fa9-8ad3-947af8bdb1d9","ios":"levelo://app?vid=b645ac77-0d58-4fa9-8ad3-947af8bdb1d9"},"vehicle_type_id":"4","last_reported":1726564151,"current_range_meters":25600,"station_id":"ce4bhpp2rcd13ifvqhfg","pricing_plan_id":"cebpf4jnsgd1na2vs0mg"},{"bike_id":"df96d80b-b7b5-4b8d-925a-216c8131fb9e","system_id":"levelo_inurba_marseille","lat":43.31369,"lon":5.367,"is_reserved":false,"is_disabled":false,"rental_uris":{"android":"levelo://app?vid=df96d80b-b7b5-4b8d-925a-216c8131fb9e","ios":"levelo://app?vid=df96d80b-b7b5-4b8d-925a-216c8131fb9e"},"vehicle_type_id":"4","last_reported":1726564151,"current_range_meters":23200,"station_id":"ce4bgr92rcd13ifvqc6g","pricing_plan_id":"cebpf4jnsgd1na2vs0mg"},{"bike_id":"5a739494-db4e-4abc-840a-8bae3f8311de","system_id":"levelo_inurba_marseille","lat":43.26201,"lon":5.37929,"is_reserved":false,"is_disabled":false,"rental_uris":{"android":"levelo://app?vid=5a739494-db4e-4abc-840a-8bae3f8311de","ios":"levelo://app?vid=5a739494-db4e-4abc-840a-8bae3f8311de"},"vehicle_type_id":"4","last_reported":1726564151,"current_range_meters":34000,"station_id":"ce4bhjp2rcd13ifvqg90","pricing_plan_id":"cebpf4jnsgd1na2vs0mg"},{"bike_id":"1d53a508-0946-4ef0-9d31-e3d5f444a352","system_id":"levelo_inurba_marseille","lat":43.24089,"lon":5.37735,"is_reserved":false,"is_disabled":false,"rental_uris":{"android":"levelo://app?vid=1d53a508-0946-4ef0-9d31-e3d5f444a352","ios":"levelo://app?vid=1d53a508-0946-4ef0-9d31-e3d5f444a352"},"vehicle_type_id":"4","last_reported":1726564151,"current_range_meters":38000,"station_id":"ce4bhnp2rcd13ifvqgvg","pricing_plan_id":"cebpf4jnsgd1na2vs0mg"},{"bike_id":"d07510fb-c4f4-4c85-81e3-a462d20e3255","system_id":"levelo_inurba_marseille","lat":43.23152,"lon":5.43712,"is_reserved":false,"is_disabled":false,"rental_uris":{"android":"levelo://app?vid=d07510fb-c4f4-4c85-81e3-a462d20e3255","ios":"levelo://app?vid=d07510fb-c4f4-4c85-81e3-a462d20e3255"},"vehicle_type_id":"4","last_reported":1726564151,"current_range_meters":30000,"station_id":"ce4bhmp2rcd13ifvqgog","pricing_plan_id":"cebpf4jnsgd1na2vs0mg"},{"bike_id":"7abc2a25-404a-4f70-a7c0-c89315b5c4bc","system_id":"levelo_inurba_marseille","lat":43.31026,"lon":5.4034,"is_reserved":false,"is_disabled":false,"rental_uris":{"android":"levelo://app?vid=7abc2a25-404a-4f70-a7c0-c89315b5c4bc","ios":"levelo://app?vid=7abc2a25-404a-4f70-a7c0-c89315b5c4bc"},"vehicle_type_id":"4","last_reported":1726564151,"current_range_meters":22800,"station_id":"","pricing_plan_id":"cebpf4jnsgd1na2vs0mg"},{"bike_id":"408c5749-702c-43ea-9058-5bebe1ea2111","system_id":"levelo_inurba_marseille","lat":43.27485,"lon":5.42472,"is_reserved":false,"is_disabled":false,"rental_uris":{"android":"levelo://app?vid=408c5749-702c-43ea-9058-5bebe1ea2111","ios":"levelo://app?vid=408c5749-702c-43ea-9058-5bebe1ea2111"},"vehicle_type_id":"4","last_reported":1726564151,"current_range_meters":16400,"station_id":"ce4bhn92rcd13ifvqgrg","pricing_plan_id":"cebpf4jnsgd1na2vs0mg"},{"bike_id":"677498c9-746b-4650-9a8e-2c7479635944","system_id":"levelo_inurba_marseille","lat":43.33026,"lon":5.39046,"is_reserved":false,"is_disabled":false,"rental_uris":{"android":"levelo://app?vid=677498c9-746b-4650-9a8e-2c7479635944","ios":"levelo://app?vid=677498c9-746b-4650-9a8e-2c7479635944"},"vehicle_type_id":"4","last_reported":1726564151,"current_range_meters":23200,"station_id":"ce4bhr92rcd13ifvqhrg","pricing_plan_id":"cebpf4jnsgd1na2vs0mg"},{"bike_id":"3e1ba422-0a27-4960-8964-7240782efb66","system_id":"levelo_inurba_marseille","lat":43.295285,"lon":5.393998,"is_reserved":false,"is_disabled":false,"rental_uris":{"android":"levelo://app?vid=3e1ba422-0a27-4960-8964-7240782efb66","ios":"levelo://app?vid=3e1ba422-0a27-4960-8964-7240782efb66"},"vehicle_type_id":"4","last_reported":1726564151,"current_range_meters":15200,"station_id":"ce4bh292rcd13ifvqdf0","pricing_plan_id":"cebpf4jnsgd1na2vs0mg"},{"bike_id":"8ad1dd61-51a6-4b68-afa7-87ebac0fe573","system_id":"levelo_inurba_marseille","lat":43.30466,"lon":5.37892,"is_reserved":false,"is_disabled":false,"rental_uris":{"android":"levelo://app?vid=8ad1dd61-51a6-4b68-afa7-87ebac0fe573","ios":"levelo://app?vid=8ad1dd61-51a6-4b68-afa7-87ebac0fe573"},"vehicle_type_id":"4","last_reported":1726564151,"current_range_meters":26000,"station_id":"ce4bgup2rcd13ifvqcn0","pricing_plan_id":"cebpf4jnsgd1na2vs0mg"},{"bike_id":"a8b06f03-e77e-43b9-af99-245bbe75fa5e","system_id":"levelo_inurba_marseille","lat":43.31359,"lon":5.36707,"is_reserved":false,"is_disabled":false,"rental_uris":{"android":"levelo://app?vid=a8b06f03-e77e-43b9-af99-245bbe75fa5e","ios":"levelo://app?vid=a8b06f03-e77e-43b9-af99-245bbe75fa5e"},"vehicle_type_id":"4","last_reported":1726564151,"current_range_meters":9200,"station_id":"ce4bgr92rcd13ifvqc6g","pricing_plan_id":"cebpf4jnsgd1na2vs0mg"},{"bike_id":"0c1d2588-57dc-43c1-8cbe-386d34782f4c","system_id":"levelo_inurba_marseille","lat":43.287231,"lon":5.380712,"is_reserved":false,"is_disabled":false,"rental_uris":{"android":"levelo://app?vid=0c1d2588-57dc-43c1-8cbe-386d34782f4c","ios":"levelo://app?vid=0c1d2588-57dc-43c1-8cbe-386d34782f4c"},"vehicle_type_id":"4","last_reported":1726564151,"current_range_meters":32400,"station_id":"ce4bh9p2rcd13ifvqec0","pricing_plan_id":"cebpf4jnsgd1na2vs0mg"},{"bike_id":"7ba5a0d3-87f5-4dbc-8dc8-0d67d795da41","system_id":"levelo_inurba_marseille","lat":43.30908,"lon":5.36859,"is_reserved":false,"is_disabled":false,"rental_uris":{"android":"levelo://app?vid=7ba5a0d3-87f5-4dbc-8dc8-0d67d795da41","ios":"levelo://app?vid=7ba5a0d3-87f5-4dbc-8dc8-0d67d795da41"},"vehicle_type_id":"4","last_reported":1726564151,"current_range_meters":39200,"station_id":"ce4bgn92rcd13ifvqbvg","pricing_plan_id":"cebpf4jnsgd1na2vs0mg"},{"bike_id":"f677fe34-b65c-4087-a410-81e807a14d0f","system_id":"levelo_inurba_marseille","lat":43.28155,"lon":5.42644,"is_reserved":false,"is_disabled":false,"rental_uris":{"android":"levelo://app?vid=f677fe34-b65c-4087-a410-81e807a14d0f","ios":"levelo://app?vid=f677fe34-b65c-4087-a410-81e807a14d0f"},"vehicle_type_id":"4","last_reported":1726564151,"current_range_meters":19200,"station_id":"ce4bhnh2rcd13ifvqgug","pricing_plan_id":"cebpf4jnsgd1na2vs0mg"},{"bike_id":"3f818c64-e2ef-4900-87ec-893fbbb20e36","system_id":"levelo_inurba_marseille","lat":43.29539,"lon":5.375,"is_reserved":false,"is_disabled":false,"rental_uris":{"android":"levelo://app?vid=3f818c64-e2ef-4900-87ec-893fbbb20e36","ios":"levelo://app?vid=3f818c64-e2ef-4900-87ec-893fbbb20e36"},"vehicle_type_id":"4","last_reported":1726564151,"current_range_meters":15200,"station_id":"ce4bgkp2rcd13ifvqbmg","pricing_plan_id":"cebpf4jnsgd1na2vs0mg"},{"bike_id":"15392aa0-90a1-41d4-a66d-995d88d0aa75","system_id":"levelo_inurba_marseille","lat":43.24667,"lon":5.38167,"is_reserved":false,"is_disabled":false,"rental_uris":{"android":"levelo://app?vid=15392aa0-90a1-41d4-a66d-995d88d0aa75","ios":"levelo://app?vid=15392aa0-90a1-41d4-a66d-995d88d0aa75"},"vehicle_type_id":"4","last_reported":1726564151,"current_range_meters":36000,"station_id":"ce4bhih2rcd13ifvqfr0","pricing_plan_id":"cebpf4jnsgd1na2vs0mg"},{"bike_id":"bdab53d1-6c0d-4e22-ae92-62ac99d9be2f","system_id":"levelo_inurba_marseille","lat":43.31229,"lon":5.3688,"is_reserved":false,"is_disabled":false,"rental_uris":{"android":"levelo://app?vid=bdab53d1-6c0d-4e22-ae92-62ac99d9be2f","ios":"levelo://app?vid=bdab53d1-6c0d-4e22-ae92-62ac99d9be2f"},"vehicle_type_id":"4","last_reported":1726564151,"current_range_meters":31200,"station_id":"ce4bgl92rcd13ifvqbq0","pricing_plan_id":"cebpf4jnsgd1na2vs0mg"},{"bike_id":"42e69e52-b7a7-40fb-bd16-0fa373448277","system_id":"levelo_inurba_marseille","lat":43.30506,"lon":5.37856,"is_reserved":false,"is_disabled":false,"rental_uris":{"android":"levelo://app?vid=42e69e52-b7a7-40fb-bd16-0fa373448277","ios":"levelo://app?vid=42e69e52-b7a7-40fb-bd16-0fa373448277"},"vehicle_type_id":"4","last_reported":1726564151,"current_range_meters":32000,"station_id":"ce4bgup2rcd13ifvqcn0","pricing_plan_id":"cebpf4jnsgd1na2vs0mg"},{"bike_id":"b4148530-ebdb-4fd3-a840-6ebd85f44bf4","system_id":"levelo_inurba_marseille","lat":43.31698,"lon":5.40457,"is_reserved":false,"is_disabled":false,"rental_uris":{"android":"levelo://app?vid=b4148530-ebdb-4fd3-a840-6ebd85f44bf4","ios":"levelo://app?vid=b4148530-ebdb-4fd3-a840-6ebd85f44bf4"},"vehicle_type_id":"4","last_reported":1726564151,"current_range_meters":12400,"station_id":"ce4bh012rcd13ifvqd00","pricing_plan_id":"cebpf4jnsgd1na2vs0mg"},{"bike_id":"1b4b0920-5098-492d-8f45-9d74a5f1adcd","system_id":"levelo_inurba_marseille","lat":43.25442,"lon":5.40143,"is_reserved":false,"is_disabled":false,"rental_uris":{"android":"levelo://app?vid=1b4b0920-5098-492d-8f45-9d74a5f1adcd","ios":"levelo://app?vid=1b4b0920-5098-492d-8f45-9d74a5f1adcd"},"vehicle_type_id":"4","last_reported":1726564151,"current_range_meters":39200,"station_id":"","pricing_plan_id":"cebpf4jnsgd1na2vs0mg"},{"bike_id":"249431ce-1671-486d-ac50-b617448622dc","system_id":"levelo_inurba_marseille","lat":43.29577,"lon":5.36744,"is_reserved":false,"is_disabled":false,"rental_uris":{"android":"levelo://app?vid=249431ce-1671-486d-ac50-b617448622dc","ios":"levelo://app?vid=249431ce-1671-486d-ac50-b617448622dc"},"vehicle_type_id":"4","last_reported":1726564151,"current_range_meters":38000,"station_id":"ce4bgph2rcd13ifvqc2g","pricing_plan_id":"cebpf4jnsgd1na2vs0mg"},{"bike_id":"727b738e-5ff1-4b16-b445-dfb625aedec2","system_id":"levelo_inurba_marseille","lat":43.3032,"lon":5.36913,"is_reserved":false,"is_disabled":false,"rental_uris":{"android":"levelo://app?vid=727b738e-5ff1-4b16-b445-dfb625aedec2","ios":"levelo://app?vid=727b738e-5ff1-4b16-b445-dfb625aedec2"},"vehicle_type_id":"4","last_reported":1726564151,"current_range_meters":24000,"station_id":"ce4bgqh2rcd13ifvqc5g","pricing_plan_id":"cebpf4jnsgd1na2vs0mg"},{"bike_id":"3922951e-43d7-4bc9-aec7-840bda5fa9c4","system_id":"levelo_inurba_marseille","lat":43.320924,"lon":5.41545,"is_reserved":false,"is_disabled":false,"rental_uris":{"android":"levelo://app?vid=3922951e-43d7-4bc9-aec7-840bda5fa9c4","ios":"levelo://app?vid=3922951e-43d7-4bc9-aec7-840bda5fa9c4"},"vehicle_type_id":"4","last_reported":1726564151,"current_range_meters":36400,"station_id":"ce4bhq92rcd13ifvqhkg","pricing_plan_id":"cebpf4jnsgd1na2vs0mg"},{"bike_id":"073a444c-c6b0-4ef1-8b45-d76d94e84e90","system_id":"levelo_inurba_marseille","lat":43.24999,"lon":5.38936,"is_reserved":false,"is_disabled":false,"rental_uris":{"android":"levelo://app?vid=073a444c-c6b0-4ef1-8b45-d76d94e84e90","ios":"levelo://app?vid=073a444c-c6b0-4ef1-8b45-d76d94e84e90"},"vehicle_type_id":"4","last_reported":1726564151,"current_range_meters":36000,"station_id":"ce4bhgp2rcd13ifvqfd0","pricing_plan_id":"cebpf4jnsgd1na2vs0mg"},{"bike_id":"99684f50-b398-427b-a4e9-7ca0a0382c79","system_id":"levelo_inurba_marseille","lat":43.23222,"lon":5.35566,"is_reserved":false,"is_disabled":false,"rental_uris":{"android":"levelo://app?vid=99684f50-b398-427b-a4e9-7ca0a0382c79","ios":"levelo://app?vid=99684f50-b398-427b-a4e9-7ca0a0382c79"},"vehicle_type_id":"4","last_reported":1726564151,"current_range_meters":39200,"station_id":"ce4bhu92rcd13ifvqi70","pricing_plan_id":"cebpf4jnsgd1na2vs0mg"},{"bike_id":"ebef2083-d54c-43a1-b23d-c9c8bde40d72","system_id":"levelo_inurba_marseille","lat":43.30183,"lon":5.36613,"is_reserved":false,"is_disabled":false,"rental_uris":{"android":"levelo://app?vid=ebef2083-d54c-43a1-b23d-c9c8bde40d72","ios":"levelo://app?vid=ebef2083-d54c-43a1-b23d-c9c8bde40d72"},"vehicle_type_id":"4","last_reported":1726564151,"current_range_meters":26800,"station_id":"ce4bgrh2rcd13ifvqc8g","pricing_plan_id":"cebpf4jnsgd1na2vs0mg"},{"bike_id":"02bd8689-0238-47bb-87ac-e97a932ff382","system_id":"levelo_inurba_marseille","lat":43.2582,"lon":5.39439,"is_reserved":false,"is_disabled":false,"rental_uris":{"android":"levelo://app?vid=02bd8689-0238-47bb-87ac-e97a932ff382","ios":"levelo://app?vid=02bd8689-0238-47bb-87ac-e97a932ff382"},"vehicle_type_id":"4","last_reported":1726564151,"current_range_meters":38000,"station_id":"ce4bhip2rcd13ifvqft0","pricing_plan_id":"cebpf4jnsgd1na2vs0mg"},{"bike_id":"34195e9b-fc36-4b98-a05c-c2c2aad12108","system_id":"levelo_inurba_marseille","lat":43.24088,"lon":5.37757,"is_reserved":false,"is_disabled":false,"rental_uris":{"android":"levelo://app?vid=34195e9b-fc36-4b98-a05c-c2c2aad12108","ios":"levelo://app?vid=34195e9b-fc36-4b98-a05c-c2c2aad12108"},"vehicle_type_id":"4","last_reported":1726564151,"current_range_meters":27200,"station_id":"ce4bhnp2rcd13ifvqgvg","pricing_plan_id":"cebpf4jnsgd1na2vs0mg"},{"bike_id":"fcf97093-637c-4342-854a-02e456b30eed","system_id":"levelo_inurba_marseille","lat":43.31496,"lon":5.37305,"is_reserved":false,"is_disabled":false,"rental_uris":{"android":"levelo://app?vid=fcf97093-637c-4342-854a-02e456b30eed","ios":"levelo://app?vid=fcf97093-637c-4342-854a-02e456b30eed"},"vehicle_type_id":"4","last_reported":1726564151,"current_range_meters":38800,"station_id":"ce4bgt12rcd13ifvqcd0","pricing_plan_id":"cebpf4jnsgd1na2vs0mg"},{"bike_id":"076cf992-8c22-415a-a085-3f6988740dcb","system_id":"levelo_inurba_marseille","lat":43.337444,"lon":5.374475,"is_reserved":false,"is_disabled":false,"rental_uris":{"android":"levelo://app?vid=076cf992-8c22-415a-a085-3f6988740dcb","ios":"levelo://app?vid=076cf992-8c22-415a-a085-3f6988740dcb"},"vehicle_type_id":"4","last_reported":1726564151,"current_range_meters":38000,"station_id":"ce4bh0h2rcd13ifvqd50","pricing_plan_id":"cebpf4jnsgd1na2vs0mg"},{"bike_id":"02024611-646a-4180-b53c-eee37ec4a066","system_id":"levelo_inurba_marseille","lat":43.26948,"lon":5.38637,"is_reserved":false,"is_disabled":false,"rental_uris":{"android":"levelo://app?vid=02024611-646a-4180-b53c-eee37ec4a066","ios":"levelo://app?vid=02024611-646a-4180-b53c-eee37ec4a066"},"vehicle_type_id":"4","last_reported":1726564151,"current_range_meters":32800,"station_id":"ce4bhh92rcd13ifvqfh0","pricing_plan_id":"cebpf4jnsgd1na2vs0mg"},{"bike_id":"4bf182d1-03a1-4590-ab4d-2ac21ab51967","system_id":"levelo_inurba_marseille","lat":43.23191,"lon":5.35553,"is_reserved":false,"is_disabled":false,"rental_uris":{"android":"levelo://app?vid=4bf182d1-03a1-4590-ab4d-2ac21ab51967","ios":"levelo://app?vid=4bf182d1-03a1-4590-ab4d-2ac21ab51967"},"vehicle_type_id":"4","last_reported":1726564151,"current_range_meters":4400,"station_id":"ce4bhu92rcd13ifvqi70","pricing_plan_id":"cebpf4jnsgd1na2vs0mg"},{"bike_id":"1f7ea298-0a8f-45f3-91e9-828f941c647c","system_id":"levelo_inurba_marseille","lat":43.30807,"lon":5.38154,"is_reserved":false,"is_disabled":false,"rental_uris":{"android":"levelo://app?vid=1f7ea298-0a8f-45f3-91e9-828f941c647c","ios":"levelo://app?vid=1f7ea298-0a8f-45f3-91e9-828f941c647c"},"vehicle_type_id":"4","last_reported":1726564151,"current_range_meters":38800,"station_id":"ce4bgt12rcd13ifvqce0","pricing_plan_id":"cebpf4jnsgd1na2vs0mg"},{"bike_id":"ec24746d-0767-4ffd-8d33-a56962578137","system_id":"levelo_inurba_marseille","lat":43.26956,"lon":5.38628,"is_reserved":false,"is_disabled":false,"rental_uris":{"android":"levelo://app?vid=ec24746d-0767-4ffd-8d33-a56962578137","ios":"levelo://app?vid=ec24746d-0767-4ffd-8d33-a56962578137"},"vehicle_type_id":"4","last_reported":1726564151,"current_range_meters":27600,"station_id":"ce4bhh92rcd13ifvqfh0","pricing_plan_id":"cebpf4jnsgd1na2vs0mg"},{"bike_id":"d2c54274-6e2d-402a-82da-79b56d9c38e9","system_id":"levelo_inurba_marseille","lat":43.2408,"lon":5.3776,"is_reserved":false,"is_disabled":false,"rental_uris":{"android":"levelo://app?vid=d2c54274-6e2d-402a-82da-79b56d9c38e9","ios":"levelo://app?vid=d2c54274-6e2d-402a-82da-79b56d9c38e9"},"vehicle_type_id":"4","last_reported":1726564151,"current_range_meters":24800,"station_id":"ce4bhnp2rcd13ifvqgvg","pricing_plan_id":"cebpf4jnsgd1na2vs0mg"},{"bike_id":"ad722464-32b1-4125-bf35-54f1e4aed3dd","system_id":"levelo_inurba_marseille","lat":43.24076,"lon":5.37759,"is_reserved":false,"is_disabled":false,"rental_uris":{"android":"levelo://app?vid=ad722464-32b1-4125-bf35-54f1e4aed3dd","ios":"levelo://app?vid=ad722464-32b1-4125-bf35-54f1e4aed3dd"},"vehicle_type_id":"4","last_reported":1726564151,"current_range_meters":6400,"station_id":"ce4bhnp2rcd13ifvqgvg","pricing_plan_id":"cebpf4jnsgd1na2vs0mg"},{"bike_id":"e2760e15-1677-40ec-98bc-2409bd1cec8e","system_id":"levelo_inurba_marseille","lat":43.303101,"lon":5.368937,"is_reserved":false,"is_disabled":false,"rental_uris":{"android":"levelo://app?vid=e2760e15-1677-40ec-98bc-2409bd1cec8e","ios":"levelo://app?vid=e2760e15-1677-40ec-98bc-2409bd1cec8e"},"vehicle_type_id":"4","last_reported":1726564151,"current_range_meters":36800,"station_id":"ce4bgqh2rcd13ifvqc5g","pricing_plan_id":"cebpf4jnsgd1na2vs0mg"},{"bike_id":"9b3676f6-40b8-4626-a24e-9f6938d7c399","system_id":"levelo_inurba_marseille","lat":43.285727,"lon":5.394923,"is_reserved":false,"is_disabled":false,"rental_uris":{"android":"levelo://app?vid=9b3676f6-40b8-4626-a24e-9f6938d7c399","ios":"levelo://app?vid=9b3676f6-40b8-4626-a24e-9f6938d7c399"},"vehicle_type_id":"4","last_reported":1726564151,"current_range_meters":33200,"station_id":"ce4bh292rcd13ifvqdg0","pricing_plan_id":"cebpf4jnsgd1na2vs0mg"},{"bike_id":"fed25c85-b3e7-4093-a992-a9eacb54e345","system_id":"levelo_inurba_marseille","lat":43.23205,"lon":5.35547,"is_reserved":false,"is_disabled":false,"rental_uris":{"android":"levelo://app?vid=fed25c85-b3e7-4093-a992-a9eacb54e345","ios":"levelo://app?vid=fed25c85-b3e7-4093-a992-a9eacb54e345"},"vehicle_type_id":"4","last_reported":1726564151,"current_range_meters":38000,"station_id":"ce4bhu92rcd13ifvqi70","pricing_plan_id":"cebpf4jnsgd1na2vs0mg"},{"bike_id":"9e4e20d6-8ea7-42ce-a7e0-8af6b729a9c0","system_id":"levelo_inurba_marseille","lat":43.305359,"lon":5.384321,"is_reserved":false,"is_disabled":false,"rental_uris":{"android":"levelo://app?vid=9e4e20d6-8ea7-42ce-a7e0-8af6b729a9c0","ios":"levelo://app?vid=9e4e20d6-8ea7-42ce-a7e0-8af6b729a9c0"},"vehicle_type_id":"4","last_reported":1726564151,"current_range_meters":39200,"station_id":"ce4bgg92rcd13ifvqb30","pricing_plan_id":"cebpf4jnsgd1na2vs0mg"},{"bike_id":"57481d6e-7a93-4a46-89e0-ed7c2221bd90","system_id":"levelo_inurba_marseille","lat":43.30474,"lon":5.37905,"is_reserved":false,"is_disabled":false,"rental_uris":{"android":"levelo://app?vid=57481d6e-7a93-4a46-89e0-ed7c2221bd90","ios":"levelo://app?vid=57481d6e-7a93-4a46-89e0-ed7c2221bd90"},"vehicle_type_id":"4","last_reported":1726564151,"current_range_meters":26800,"station_id":"ce4bgup2rcd13ifvqcn0","pricing_plan_id":"cebpf4jnsgd1na2vs0mg"},{"bike_id":"53865519-22f0-434a-aba0-6d1705b45be1","system_id":"levelo_inurba_marseille","lat":43.2895,"lon":5.3641,"is_reserved":false,"is_disabled":false,"rental_uris":{"android":"levelo://app?vid=53865519-22f0-434a-aba0-6d1705b45be1","ios":"levelo://app?vid=53865519-22f0-434a-aba0-6d1705b45be1"},"vehicle_type_id":"4","last_reported":1726564151,"current_range_meters":33600,"station_id":"ce4bhc92rcd13ifvqetg","pricing_plan_id":"cebpf4jnsgd1na2vs0mg"},{"bike_id":"ff429acc-ec75-4994-a841-cfe907851975","system_id":"levelo_inurba_marseille","lat":43.30476,"lon":5.37908,"is_reserved":false,"is_disabled":false,"rental_uris":{"android":"levelo://app?vid=ff429acc-ec75-4994-a841-cfe907851975","ios":"levelo://app?vid=ff429acc-ec75-4994-a841-cfe907851975"},"vehicle_type_id":"4","last_reported":1726564151,"current_range_meters":34800,"station_id":"ce4bgup2rcd13ifvqcn0","pricing_plan_id":"cebpf4jnsgd1na2vs0mg"},{"bike_id":"78a3ec1d-6d1a-40e0-b1af-c51943538984","system_id":"levelo_inurba_marseille","lat":43.32467,"lon":5.36549,"is_reserved":false,"is_disabled":false,"rental_uris":{"android":"levelo://app?vid=78a3ec1d-6d1a-40e0-b1af-c51943538984","ios":"levelo://app?vid=78a3ec1d-6d1a-40e0-b1af-c51943538984"},"vehicle_type_id":"4","last_reported":1726564151,"current_range_meters":8400,"station_id":"ce4bhs12rcd13ifvqhvg","pricing_plan_id":"cebpf4jnsgd1na2vs0mg"},{"bike_id":"6ad2fe94-195b-4d58-9ac6-d3a9675a4c80","system_id":"levelo_inurba_marseille","lat":43.23067,"lon":5.35491,"is_reserved":false,"is_disabled":false,"rental_uris":{"android":"levelo://app?vid=6ad2fe94-195b-4d58-9ac6-d3a9675a4c80","ios":"levelo://app?vid=6ad2fe94-195b-4d58-9ac6-d3a9675a4c80"},"vehicle_type_id":"4","last_reported":1726564151,"current_range_meters":11200,"station_id":"cpo3342slgdg3j2ifvpg","pricing_plan_id":"cebpf4jnsgd1na2vs0mg"},{"bike_id":"6dd17a2f-59bb-4453-859d-2c09ab795824","system_id":"levelo_inurba_marseille","lat":43.3302,"lon":5.39049,"is_reserved":false,"is_disabled":false,"rental_uris":{"android":"levelo://app?vid=6dd17a2f-59bb-4453-859d-2c09ab795824","ios":"levelo://app?vid=6dd17a2f-59bb-4453-859d-2c09ab795824"},"vehicle_type_id":"4","last_reported":1726564151,"current_range_meters":32000,"station_id":"ce4bhr92rcd13ifvqhrg","pricing_plan_id":"cebpf4jnsgd1na2vs0mg"},{"bike_id":"d131c331-6952-49d2-a84c-c308b6cf3938","system_id":"levelo_inurba_marseille","lat":43.26495,"lon":5.39547,"is_reserved":false,"is_disabled":false,"rental_uris":{"android":"levelo://app?vid=d131c331-6952-49d2-a84c-c308b6cf3938","ios":"levelo://app?vid=d131c331-6952-49d2-a84c-c308b6cf3938"},"vehicle_type_id":"4","last_reported":1726564151,"current_range_meters":22400,"station_id":"ce4bhi12rcd13ifvqfq0","pricing_plan_id":"cebpf4jnsgd1na2vs0mg"},{"bike_id":"c2ecb147-8ee1-4803-aa1c-5a9b13d8ea1c","system_id":"levelo_inurba_marseille","lat":43.23153,"lon":5.43711,"is_reserved":false,"is_disabled":false,"rental_uris":{"android":"levelo://app?vid=c2ecb147-8ee1-4803-aa1c-5a9b13d8ea1c","ios":"levelo://app?vid=c2ecb147-8ee1-4803-aa1c-5a9b13d8ea1c"},"vehicle_type_id":"4","last_reported":1726564151,"current_range_meters":38800,"station_id":"ce4bhmp2rcd13ifvqgog","pricing_plan_id":"cebpf4jnsgd1na2vs0mg"},{"bike_id":"8ac17af3-1087-4030-8684-fc752197666e","system_id":"levelo_inurba_marseille","lat":43.32368,"lon":5.3888,"is_reserved":false,"is_disabled":false,"rental_uris":{"android":"levelo://app?vid=8ac17af3-1087-4030-8684-fc752197666e","ios":"levelo://app?vid=8ac17af3-1087-4030-8684-fc752197666e"},"vehicle_type_id":"4","last_reported":1726564151,"current_range_meters":18800,"station_id":"ce4bhqp2rcd13ifvqhog","pricing_plan_id":"cebpf4jnsgd1na2vs0mg"},{"bike_id":"d483c157-ebd8-48a9-9c7d-bed55e708af4","system_id":"levelo_inurba_marseille","lat":43.273193,"lon":5.390967,"is_reserved":false,"is_disabled":false,"rental_uris":{"android":"levelo://app?vid=d483c157-ebd8-48a9-9c7d-bed55e708af4","ios":"levelo://app?vid=d483c157-ebd8-48a9-9c7d-bed55e708af4"},"vehicle_type_id":"4","last_reported":1726564151,"current_range_meters":36800,"station_id":"ce4bhgp2rcd13ifvqfe0","pricing_plan_id":"cebpf4jnsgd1na2vs0mg"},{"bike_id":"a0da9788-6ad0-4bd2-9978-72c1654ca4ea","system_id":"levelo_inurba_marseille","lat":43.32368,"lon":5.38884,"is_reserved":false,"is_disabled":false,"rental_uris":{"android":"levelo://app?vid=a0da9788-6ad0-4bd2-9978-72c1654ca4ea","ios":"levelo://app?vid=a0da9788-6ad0-4bd2-9978-72c1654ca4ea"},"vehicle_type_id":"4","last_reported":1726564151,"current_range_meters":16400,"station_id":"ce4bhqp2rcd13ifvqhog","pricing_plan_id":"cebpf4jnsgd1na2vs0mg"},{"bike_id":"f11293b9-5944-418c-9cea-2087ec8521d3","system_id":"levelo_inurba_marseille","lat":43.31226,"lon":5.36873,"is_reserved":false,"is_disabled":false,"rental_uris":{"android":"levelo://app?vid=f11293b9-5944-418c-9cea-2087ec8521d3","ios":"levelo://app?vid=f11293b9-5944-418c-9cea-2087ec8521d3"},"vehicle_type_id":"4","last_reported":1726564151,"current_range_meters":16000,"station_id":"ce4bgl92rcd13ifvqbq0","pricing_plan_id":"cebpf4jnsgd1na2vs0mg"},{"bike_id":"40121876-28b6-431b-a991-f95aee497258","system_id":"levelo_inurba_marseille","lat":43.30464,"lon":5.37881,"is_reserved":false,"is_disabled":false,"rental_uris":{"android":"levelo://app?vid=40121876-28b6-431b-a991-f95aee497258","ios":"levelo://app?vid=40121876-28b6-431b-a991-f95aee497258"},"vehicle_type_id":"4","last_reported":1726564151,"current_range_meters":22400,"station_id":"ce4bgup2rcd13ifvqcn0","pricing_plan_id":"cebpf4jnsgd1na2vs0mg"},{"bike_id":"72d12a51-b235-4137-bc44-61ae7d3fa079","system_id":"levelo_inurba_marseille","lat":43.307921,"lon":5.376667,"is_reserved":false,"is_disabled":false,"rental_uris":{"android":"levelo://app?vid=72d12a51-b235-4137-bc44-61ae7d3fa079","ios":"levelo://app?vid=72d12a51-b235-4137-bc44-61ae7d3fa079"},"vehicle_type_id":"4","last_reported":1726564151,"current_range_meters":39200,"station_id":"ce4bgh92rcd13ifvqb50","pricing_plan_id":"cebpf4jnsgd1na2vs0mg"},{"bike_id":"ee2a6f6f-8fd5-4be5-b404-f76250f2e4dc","system_id":"levelo_inurba_marseille","lat":43.27496,"lon":5.42457,"is_reserved":false,"is_disabled":false,"rental_uris":{"android":"levelo://app?vid=ee2a6f6f-8fd5-4be5-b404-f76250f2e4dc","ios":"levelo://app?vid=ee2a6f6f-8fd5-4be5-b404-f76250f2e4dc"},"vehicle_type_id":"4","last_reported":1726564151,"current_range_meters":38800,"station_id":"ce4bhn92rcd13ifvqgrg","pricing_plan_id":"cebpf4jnsgd1na2vs0mg"},{"bike_id":"5fcce6cb-4cdf-428a-a03a-e73e25b2b70b","system_id":"levelo_inurba_marseille","lat":43.24178,"lon":5.39736,"is_reserved":false,"is_disabled":false,"rental_uris":{"android":"levelo://app?vid=5fcce6cb-4cdf-428a-a03a-e73e25b2b70b","ios":"levelo://app?vid=5fcce6cb-4cdf-428a-a03a-e73e25b2b70b"},"vehicle_type_id":"4","last_reported":1726564151,"current_range_meters":28000,"station_id":"ce4bhn12rcd13ifvqgpg","pricing_plan_id":"cebpf4jnsgd1na2vs0mg"},{"bike_id":"b78b4c01-d79b-4b1f-ab88-6a71f0f4d2fb","system_id":"levelo_inurba_marseille","lat":43.2749,"lon":5.42457,"is_reserved":false,"is_disabled":false,"rental_uris":{"android":"levelo://app?vid=b78b4c01-d79b-4b1f-ab88-6a71f0f4d2fb","ios":"levelo://app?vid=b78b4c01-d79b-4b1f-ab88-6a71f0f4d2fb"},"vehicle_type_id":"4","last_reported":1726564151,"current_range_meters":30000,"station_id":"ce4bhn92rcd13ifvqgrg","pricing_plan_id":"cebpf4jnsgd1na2vs0mg"},{"bike_id":"6588fdea-4e2f-421b-8e16-5049896a76f9","system_id":"levelo_inurba_marseille","lat":43.29277,"lon":5.36843,"is_reserved":false,"is_disabled":false,"rental_uris":{"android":"levelo://app?vid=6588fdea-4e2f-421b-8e16-5049896a76f9","ios":"levelo://app?vid=6588fdea-4e2f-421b-8e16-5049896a76f9"},"vehicle_type_id":"4","last_reported":1726564151,"current_range_meters":38400,"station_id":"ce4bhbp2rcd13ifvqesg","pricing_plan_id":"cebpf4jnsgd1na2vs0mg"},{"bike_id":"730869a1-7360-46bd-9f58-1129468a5c54","system_id":"levelo_inurba_marseille","lat":43.32504,"lon":5.41479,"is_reserved":false,"is_disabled":false,"rental_uris":{"android":"levelo://app?vid=730869a1-7360-46bd-9f58-1129468a5c54","ios":"levelo://app?vid=730869a1-7360-46bd-9f58-1129468a5c54"},"vehicle_type_id":"4","last_reported":1726564151,"current_range_meters":24400,"station_id":"ce4bhq12rcd13ifvqhhg","pricing_plan_id":"cebpf4jnsgd1na2vs0mg"},{"bike_id":"4116b19f-3bd6-44e6-a4e0-283059e35145","system_id":"levelo_inurba_marseille","lat":43.24072,"lon":5.37758,"is_reserved":false,"is_disabled":false,"rental_uris":{"android":"levelo://app?vid=4116b19f-3bd6-44e6-a4e0-283059e35145","ios":"levelo://app?vid=4116b19f-3bd6-44e6-a4e0-283059e35145"},"vehicle_type_id":"4","last_reported":1726564151,"current_range_meters":27600,"station_id":"ce4bhnp2rcd13ifvqgvg","pricing_plan_id":"cebpf4jnsgd1na2vs0mg"},{"bike_id":"0d830da1-088f-410f-befa-e68ac04cbdf5","system_id":"levelo_inurba_marseille","lat":43.24077,"lon":5.37761,"is_reserved":false,"is_disabled":false,"rental_uris":{"android":"levelo://app?vid=0d830da1-088f-410f-befa-e68ac04cbdf5","ios":"levelo://app?vid=0d830da1-088f-410f-befa-e68ac04cbdf5"},"vehicle_type_id":"4","last_reported":1726564151,"current_range_meters":30800,"station_id":"ce4bhnp2rcd13ifvqgvg","pricing_plan_id":"cebpf4jnsgd1na2vs0mg"},{"bike_id":"e0c03d4f-bbdd-4440-9ce8-8cc2c9d8e998","system_id":"levelo_inurba_marseille","lat":43.337444,"lon":5.374475,"is_reserved":false,"is_disabled":false,"rental_uris":{"android":"levelo://app?vid=e0c03d4f-bbdd-4440-9ce8-8cc2c9d8e998","ios":"levelo://app?vid=e0c03d4f-bbdd-4440-9ce8-8cc2c9d8e998"},"vehicle_type_id":"4","last_reported":1726564151,"current_range_meters":34000,"station_id":"","pricing_plan_id":"cebpf4jnsgd1na2vs0mg"},{"bike_id":"65eecb51-7024-4f30-af20-d65f809bce2b","system_id":"levelo_inurba_marseille","lat":43.31468,"lon":5.38407,"is_reserved":false,"is_disabled":false,"rental_uris":{"android":"levelo://app?vid=65eecb51-7024-4f30-af20-d65f809bce2b","ios":"levelo://app?vid=65eecb51-7024-4f30-af20-d65f809bce2b"},"vehicle_type_id":"4","last_reported":1726564151,"current_range_meters":8800,"station_id":"ce4bgvp2rcd13ifvqcu0","pricing_plan_id":"cebpf4jnsgd1na2vs0mg"},{"bike_id":"cda656ba-ce26-41e3-a0cb-0a9b24ca0b8b","system_id":"levelo_inurba_marseille","lat":43.28266,"lon":5.35068,"is_reserved":false,"is_disabled":false,"rental_uris":{"android":"levelo://app?vid=cda656ba-ce26-41e3-a0cb-0a9b24ca0b8b","ios":"levelo://app?vid=cda656ba-ce26-41e3-a0cb-0a9b24ca0b8b"},"vehicle_type_id":"4","last_reported":1726564151,"current_range_meters":38800,"station_id":"ce4bhbp2rcd13ifvqerg","pricing_plan_id":"cebpf4jnsgd1na2vs0mg"},{"bike_id":"c034b2d4-b5bc-412f-bc1e-4b54e7a2ef44","system_id":"levelo_inurba_marseille","lat":43.27485,"lon":5.4247,"is_reserved":false,"is_disabled":false,"rental_uris":{"android":"levelo://app?vid=c034b2d4-b5bc-412f-bc1e-4b54e7a2ef44","ios":"levelo://app?vid=c034b2d4-b5bc-412f-bc1e-4b54e7a2ef44"},"vehicle_type_id":"4","last_reported":1726564151,"current_range_meters":38000,"station_id":"ce4bhn92rcd13ifvqgrg","pricing_plan_id":"cebpf4jnsgd1na2vs0mg"},{"bike_id":"d8293786-ff47-40af-84f9-ae9e3d3625cf","system_id":"levelo_inurba_marseille","lat":43.28489,"lon":5.38567,"is_reserved":false,"is_disabled":false,"rental_uris":{"android":"levelo://app?vid=d8293786-ff47-40af-84f9-ae9e3d3625cf","ios":"levelo://app?vid=d8293786-ff47-40af-84f9-ae9e3d3625cf"},"vehicle_type_id":"4","last_reported":1726564151,"current_range_meters":36800,"station_id":"ce4bh8p2rcd13ifvqeb0","pricing_plan_id":"cebpf4jnsgd1na2vs0mg"},{"bike_id":"714bd286-0914-421a-ac78-a8aec3d8de06","system_id":"levelo_inurba_marseille","lat":43.31715,"lon":5.43713,"is_reserved":false,"is_disabled":false,"rental_uris":{"android":"levelo://app?vid=714bd286-0914-421a-ac78-a8aec3d8de06","ios":"levelo://app?vid=714bd286-0914-421a-ac78-a8aec3d8de06"},"vehicle_type_id":"4","last_reported":1726564151,"current_range_meters":5600,"station_id":"ce4bhp92rcd13ifvqhcg","pricing_plan_id":"cebpf4jnsgd1na2vs0mg"},{"bike_id":"9e6acc5e-94a7-4e9f-94a9-f4362cac3b04","system_id":"levelo_inurba_marseille","lat":43.30909,"lon":5.36859,"is_reserved":false,"is_disabled":false,"rental_uris":{"android":"levelo://app?vid=9e6acc5e-94a7-4e9f-94a9-f4362cac3b04","ios":"levelo://app?vid=9e6acc5e-94a7-4e9f-94a9-f4362cac3b04"},"vehicle_type_id":"4","last_reported":1726564151,"current_range_meters":38800,"station_id":"ce4bgn92rcd13ifvqbvg","pricing_plan_id":"cebpf4jnsgd1na2vs0mg"},{"bike_id":"f5c0e1e2-2d50-430f-b096-cc74d6ddc37d","system_id":"levelo_inurba_marseille","lat":43.27494,"lon":5.4245,"is_reserved":false,"is_disabled":false,"rental_uris":{"android":"levelo://app?vid=f5c0e1e2-2d50-430f-b096-cc74d6ddc37d","ios":"levelo://app?vid=f5c0e1e2-2d50-430f-b096-cc74d6ddc37d"},"vehicle_type_id":"4","last_reported":1726564151,"current_range_meters":39200,"station_id":"ce4bhn92rcd13ifvqgrg","pricing_plan_id":"cebpf4jnsgd1na2vs0mg"},{"bike_id":"23dd0c20-fce0-40ea-aaa2-cab4c3dedbd9","system_id":"levelo_inurba_marseille","lat":43.23155,"lon":5.43724,"is_reserved":false,"is_disabled":false,"rental_uris":{"android":"levelo://app?vid=23dd0c20-fce0-40ea-aaa2-cab4c3dedbd9","ios":"levelo://app?vid=23dd0c20-fce0-40ea-aaa2-cab4c3dedbd9"},"vehicle_type_id":"4","last_reported":1726564151,"current_range_meters":10000,"station_id":"ce4bhmp2rcd13ifvqgog","pricing_plan_id":"cebpf4jnsgd1na2vs0mg"},{"bike_id":"4d47fd35-f1ea-40e7-ad44-3da2fd66b9c0","system_id":"levelo_inurba_marseille","lat":43.27486,"lon":5.4245,"is_reserved":false,"is_disabled":false,"rental_uris":{"android":"levelo://app?vid=4d47fd35-f1ea-40e7-ad44-3da2fd66b9c0","ios":"levelo://app?vid=4d47fd35-f1ea-40e7-ad44-3da2fd66b9c0"},"vehicle_type_id":"4","last_reported":1726564151,"current_range_meters":19600,"station_id":"ce4bhn92rcd13ifvqgrg","pricing_plan_id":"cebpf4jnsgd1na2vs0mg"},{"bike_id":"1a72562e-4a87-4b67-a557-27799b4d5715","system_id":"levelo_inurba_marseille","lat":43.30914,"lon":5.36862,"is_reserved":false,"is_disabled":false,"rental_uris":{"android":"levelo://app?vid=1a72562e-4a87-4b67-a557-27799b4d5715","ios":"levelo://app?vid=1a72562e-4a87-4b67-a557-27799b4d5715"},"vehicle_type_id":"4","last_reported":1726564151,"current_range_meters":25600,"station_id":"ce4bgn92rcd13ifvqbvg","pricing_plan_id":"cebpf4jnsgd1na2vs0mg"},{"bike_id":"fb389055-f66c-4e32-b271-86411d587f5d","system_id":"levelo_inurba_marseille","lat":43.30318,"lon":5.36904,"is_reserved":false,"is_disabled":false,"rental_uris":{"android":"levelo://app?vid=fb389055-f66c-4e32-b271-86411d587f5d","ios":"levelo://app?vid=fb389055-f66c-4e32-b271-86411d587f5d"},"vehicle_type_id":"4","last_reported":1726564151,"current_range_meters":38800,"station_id":"ce4bgqh2rcd13ifvqc5g","pricing_plan_id":"cebpf4jnsgd1na2vs0mg"},{"bike_id":"811d12b6-62df-45b0-8a39-5b260fd2bf96","system_id":"levelo_inurba_marseille","lat":43.24082,"lon":5.37754,"is_reserved":false,"is_disabled":false,"rental_uris":{"android":"levelo://app?vid=811d12b6-62df-45b0-8a39-5b260fd2bf96","ios":"levelo://app?vid=811d12b6-62df-45b0-8a39-5b260fd2bf96"},"vehicle_type_id":"4","last_reported":1726564151,"current_range_meters":33600,"station_id":"ce4bhnp2rcd13ifvqgvg","pricing_plan_id":"cebpf4jnsgd1na2vs0mg"},{"bike_id":"9aff3f9f-e176-43ae-9e12-492612b7ce95","system_id":"levelo_inurba_marseille","lat":43.27487,"lon":5.42469,"is_reserved":false,"is_disabled":false,"rental_uris":{"android":"levelo://app?vid=9aff3f9f-e176-43ae-9e12-492612b7ce95","ios":"levelo://app?vid=9aff3f9f-e176-43ae-9e12-492612b7ce95"},"vehicle_type_id":"4","last_reported":1726564151,"current_range_meters":7200,"station_id":"ce4bhn92rcd13ifvqgrg","pricing_plan_id":"cebpf4jnsgd1na2vs0mg"},{"bike_id":"7dd25116-4b08-418f-b59a-2cd52163c135","system_id":"levelo_inurba_marseille","lat":43.24082,"lon":5.37753,"is_reserved":false,"is_disabled":false,"rental_uris":{"android":"levelo://app?vid=7dd25116-4b08-418f-b59a-2cd52163c135","ios":"levelo://app?vid=7dd25116-4b08-418f-b59a-2cd52163c135"},"vehicle_type_id":"4","last_reported":1726564151,"current_range_meters":28800,"station_id":"ce4bhnp2rcd13ifvqgvg","pricing_plan_id":"cebpf4jnsgd1na2vs0mg"},{"bike_id":"8ea79706-33c2-4140-a630-4d917dade742","system_id":"levelo_inurba_marseille","lat":43.2315,"lon":5.43725,"is_reserved":false,"is_disabled":false,"rental_uris":{"android":"levelo://app?vid=8ea79706-33c2-4140-a630-4d917dade742","ios":"levelo://app?vid=8ea79706-33c2-4140-a630-4d917dade742"},"vehicle_type_id":"4","last_reported":1726564151,"current_range_meters":18000,"station_id":"ce4bhmp2rcd13ifvqgog","pricing_plan_id":"cebpf4jnsgd1na2vs0mg"},{"bike_id":"1f38c15a-9705-4563-aafc-3c0e4b2a60f8","system_id":"levelo_inurba_marseille","lat":43.29845,"lon":5.36269,"is_reserved":false,"is_disabled":false,"rental_uris":{"android":"levelo://app?vid=1f38c15a-9705-4563-aafc-3c0e4b2a60f8","ios":"levelo://app?vid=1f38c15a-9705-4563-aafc-3c0e4b2a60f8"},"vehicle_type_id":"4","last_reported":1726564151,"current_range_meters":39200,"station_id":"ce4bgpp2rcd13ifvqc3g","pricing_plan_id":"cebpf4jnsgd1na2vs0mg"},{"bike_id":"7cf78700-f608-433d-973c-57a7029b3e39","system_id":"levelo_inurba_marseille","lat":43.305317,"lon":5.384179,"is_reserved":false,"is_disabled":false,"rental_uris":{"android":"levelo://app?vid=7cf78700-f608-433d-973c-57a7029b3e39","ios":"levelo://app?vid=7cf78700-f608-433d-973c-57a7029b3e39"},"vehicle_type_id":"4","last_reported":1726564151,"current_range_meters":12400,"station_id":"ce4bgg92rcd13ifvqb30","pricing_plan_id":"cebpf4jnsgd1na2vs0mg"},{"bike_id":"908731c5-e847-4d32-af47-ade684662a4c","system_id":"levelo_inurba_marseille","lat":43.29296,"lon":5.37546,"is_reserved":false,"is_disabled":false,"rental_uris":{"android":"levelo://app?vid=908731c5-e847-4d32-af47-ade684662a4c","ios":"levelo://app?vid=908731c5-e847-4d32-af47-ade684662a4c"},"vehicle_type_id":"4","last_reported":1726564151,"current_range_meters":12400,"station_id":"ce4bgi12rcd13ifvqb70","pricing_plan_id":"cebpf4jnsgd1na2vs0mg"},{"bike_id":"a0227d82-64c2-4d0c-8d37-bf8ad5aa88a0","system_id":"levelo_inurba_marseille","lat":43.24085,"lon":5.37748,"is_reserved":false,"is_disabled":false,"rental_uris":{"android":"levelo://app?vid=a0227d82-64c2-4d0c-8d37-bf8ad5aa88a0","ios":"levelo://app?vid=a0227d82-64c2-4d0c-8d37-bf8ad5aa88a0"},"vehicle_type_id":"4","last_reported":1726564151,"current_range_meters":8400,"station_id":"ce4bhnp2rcd13ifvqgvg","pricing_plan_id":"cebpf4jnsgd1na2vs0mg"},{"bike_id":"33b6c908-b316-43f1-9bed-2df4987833c0","system_id":"levelo_inurba_marseille","lat":43.30918,"lon":5.36855,"is_reserved":false,"is_disabled":false,"rental_uris":{"android":"levelo://app?vid=33b6c908-b316-43f1-9bed-2df4987833c0","ios":"levelo://app?vid=33b6c908-b316-43f1-9bed-2df4987833c0"},"vehicle_type_id":"4","last_reported":1726564151,"current_range_meters":28800,"station_id":"ce4bgn92rcd13ifvqbvg","pricing_plan_id":"cebpf4jnsgd1na2vs0mg"},{"bike_id":"932d0e6b-2aa6-4323-ae7c-57c5d0f8f3e9","system_id":"levelo_inurba_marseille","lat":43.29373,"lon":5.37839,"is_reserved":false,"is_disabled":false,"rental_uris":{"android":"levelo://app?vid=932d0e6b-2aa6-4323-ae7c-57c5d0f8f3e9","ios":"levelo://app?vid=932d0e6b-2aa6-4323-ae7c-57c5d0f8f3e9"},"vehicle_type_id":"4","last_reported":1726564151,"current_range_meters":24000,"station_id":"ce4bgjh2rcd13ifvqbf0","pricing_plan_id":"cebpf4jnsgd1na2vs0mg"},{"bike_id":"ef9dcc84-d523-4b5d-9a40-39e9b6e5e4d6","system_id":"levelo_inurba_marseille","lat":43.27072,"lon":5.4228,"is_reserved":false,"is_disabled":false,"rental_uris":{"android":"levelo://app?vid=ef9dcc84-d523-4b5d-9a40-39e9b6e5e4d6","ios":"levelo://app?vid=ef9dcc84-d523-4b5d-9a40-39e9b6e5e4d6"},"vehicle_type_id":"4","last_reported":1726564151,"current_range_meters":32400,"station_id":"ce4bhk92rcd13ifvqgb0","pricing_plan_id":"cebpf4jnsgd1na2vs0mg"},{"bike_id":"9d48b40e-7525-449f-80c0-5bead71e71da","system_id":"levelo_inurba_marseille","lat":43.29227,"lon":5.36074,"is_reserved":false,"is_disabled":false,"rental_uris":{"android":"levelo://app?vid=9d48b40e-7525-449f-80c0-5bead71e71da","ios":"levelo://app?vid=9d48b40e-7525-449f-80c0-5bead71e71da"},"vehicle_type_id":"4","last_reported":1726564151,"current_range_meters":7200,"station_id":"ce4bhbh2rcd13ifvqeqg","pricing_plan_id":"cebpf4jnsgd1na2vs0mg"},{"bike_id":"fee3d5bb-6253-48da-96ac-cce5fd5baf46","system_id":"levelo_inurba_marseille","lat":43.30559,"lon":5.3654,"is_reserved":false,"is_disabled":false,"rental_uris":{"android":"levelo://app?vid=fee3d5bb-6253-48da-96ac-cce5fd5baf46","ios":"levelo://app?vid=fee3d5bb-6253-48da-96ac-cce5fd5baf46"},"vehicle_type_id":"4","last_reported":1726564151,"current_range_meters":39200,"station_id":"ce4bgs12rcd13ifvqcag","pricing_plan_id":"cebpf4jnsgd1na2vs0mg"},{"bike_id":"54a39329-f575-4727-ac1f-a5a4ccac54db","system_id":"levelo_inurba_marseille","lat":43.33613,"lon":5.41026,"is_reserved":false,"is_disabled":false,"rental_uris":{"android":"levelo://app?vid=54a39329-f575-4727-ac1f-a5a4ccac54db","ios":"levelo://app?vid=54a39329-f575-4727-ac1f-a5a4ccac54db"},"vehicle_type_id":"4","last_reported":1726564151,"current_range_meters":39200,"station_id":"ce4bhqh2rcd13ifvqhmg","pricing_plan_id":"cebpf4jnsgd1na2vs0mg"},{"bike_id":"cbaf03bf-0340-4293-a424-18d0ef0b595f","system_id":"levelo_inurba_marseille","lat":43.299,"lon":5.43666,"is_reserved":false,"is_disabled":false,"rental_uris":{"android":"levelo://app?vid=cbaf03bf-0340-4293-a424-18d0ef0b595f","ios":"levelo://app?vid=cbaf03bf-0340-4293-a424-18d0ef0b595f"},"vehicle_type_id":"4","last_reported":1726564151,"current_range_meters":22800,"station_id":"ce4bhpp2rcd13ifvqhfg","pricing_plan_id":"cebpf4jnsgd1na2vs0mg"},{"bike_id":"49e200ca-be2e-44c1-88e1-5c0a88694170","system_id":"levelo_inurba_marseille","lat":43.30545,"lon":5.36535,"is_reserved":false,"is_disabled":false,"rental_uris":{"android":"levelo://app?vid=49e200ca-be2e-44c1-88e1-5c0a88694170","ios":"levelo://app?vid=49e200ca-be2e-44c1-88e1-5c0a88694170"},"vehicle_type_id":"4","last_reported":1726564151,"current_range_meters":35200,"station_id":"ce4bgs12rcd13ifvqcag","pricing_plan_id":"cebpf4jnsgd1na2vs0mg"},{"bike_id":"2d51df09-9df3-4cae-807f-f2a6b52c4ca4","system_id":"levelo_inurba_marseille","lat":43.26211,"lon":5.37917,"is_reserved":false,"is_disabled":false,"rental_uris":{"android":"levelo://app?vid=2d51df09-9df3-4cae-807f-f2a6b52c4ca4","ios":"levelo://app?vid=2d51df09-9df3-4cae-807f-f2a6b52c4ca4"},"vehicle_type_id":"4","last_reported":1726564151,"current_range_meters":22400,"station_id":"ce4bhjp2rcd13ifvqg90","pricing_plan_id":"cebpf4jnsgd1na2vs0mg"},{"bike_id":"c9391989-e15a-4403-8b2d-b10152980200","system_id":"levelo_inurba_marseille","lat":43.28469,"lon":5.38429,"is_reserved":false,"is_disabled":false,"rental_uris":{"android":"levelo://app?vid=c9391989-e15a-4403-8b2d-b10152980200","ios":"levelo://app?vid=c9391989-e15a-4403-8b2d-b10152980200"},"vehicle_type_id":"4","last_reported":1726564151,"current_range_meters":22800,"station_id":"ce4bh512rcd13ifvqe3g","pricing_plan_id":"cebpf4jnsgd1na2vs0mg"},{"bike_id":"f78ec244-0aef-4b6c-a1be-b01f3523a44d","system_id":"levelo_inurba_marseille","lat":43.27489,"lon":5.42464,"is_reserved":false,"is_disabled":false,"rental_uris":{"android":"levelo://app?vid=f78ec244-0aef-4b6c-a1be-b01f3523a44d","ios":"levelo://app?vid=f78ec244-0aef-4b6c-a1be-b01f3523a44d"},"vehicle_type_id":"4","last_reported":1726564151,"current_range_meters":33200,"station_id":"ce4bhn92rcd13ifvqgrg","pricing_plan_id":"cebpf4jnsgd1na2vs0mg"},{"bike_id":"b71de538-a719-49bb-8773-2331356ccc3c","system_id":"levelo_inurba_marseille","lat":43.32298,"lon":5.38275,"is_reserved":false,"is_disabled":false,"rental_uris":{"android":"levelo://app?vid=b71de538-a719-49bb-8773-2331356ccc3c","ios":"levelo://app?vid=b71de538-a719-49bb-8773-2331356ccc3c"},"vehicle_type_id":"4","last_reported":1726564151,"current_range_meters":38000,"station_id":"ce4bhr12rcd13ifvqhqg","pricing_plan_id":"cebpf4jnsgd1na2vs0mg"},{"bike_id":"31d7628c-a98b-4127-881d-92022a3abc84","system_id":"levelo_inurba_marseille","lat":43.25938,"lon":5.4091,"is_reserved":false,"is_disabled":false,"rental_uris":{"android":"levelo://app?vid=31d7628c-a98b-4127-881d-92022a3abc84","ios":"levelo://app?vid=31d7628c-a98b-4127-881d-92022a3abc84"},"vehicle_type_id":"4","last_reported":1726564151,"current_range_meters":28800,"station_id":"ce4bhm92rcd13ifvqglg","pricing_plan_id":"cebpf4jnsgd1na2vs0mg"},{"bike_id":"02f5cf60-0d93-490a-ba69-ad26ab8e0ac6","system_id":"levelo_inurba_marseille","lat":43.272134,"lon":5.391997,"is_reserved":false,"is_disabled":false,"rental_uris":{"android":"levelo://app?vid=02f5cf60-0d93-490a-ba69-ad26ab8e0ac6","ios":"levelo://app?vid=02f5cf60-0d93-490a-ba69-ad26ab8e0ac6"},"vehicle_type_id":"4","last_reported":1726564151,"current_range_meters":38400,"station_id":"ce4bhhp2rcd13ifvqfm0","pricing_plan_id":"cebpf4jnsgd1na2vs0mg"},{"bike_id":"a3dc66ac-ec81-47a5-8dc4-56011c5e10db","system_id":"levelo_inurba_marseille","lat":43.31221,"lon":5.36873,"is_reserved":false,"is_disabled":false,"rental_uris":{"android":"levelo://app?vid=a3dc66ac-ec81-47a5-8dc4-56011c5e10db","ios":"levelo://app?vid=a3dc66ac-ec81-47a5-8dc4-56011c5e10db"},"vehicle_type_id":"4","last_reported":1726564151,"current_range_meters":33600,"station_id":"ce4bgl92rcd13ifvqbq0","pricing_plan_id":"cebpf4jnsgd1na2vs0mg"},{"bike_id":"fb6b2e20-1181-4228-aab7-94d05e809797","system_id":"levelo_inurba_marseille","lat":43.30915,"lon":5.36865,"is_reserved":false,"is_disabled":false,"rental_uris":{"android":"levelo://app?vid=fb6b2e20-1181-4228-aab7-94d05e809797","ios":"levelo://app?vid=fb6b2e20-1181-4228-aab7-94d05e809797"},"vehicle_type_id":"4","last_reported":1726564151,"current_range_meters":39200,"station_id":"ce4bgn92rcd13ifvqbvg","pricing_plan_id":"cebpf4jnsgd1na2vs0mg"},{"bike_id":"071eac86-d03e-442a-8d06-6a3ef33a2470","system_id":"levelo_inurba_marseille","lat":43.33729,"lon":5.39187,"is_reserved":false,"is_disabled":false,"rental_uris":{"android":"levelo://app?vid=071eac86-d03e-442a-8d06-6a3ef33a2470","ios":"levelo://app?vid=071eac86-d03e-442a-8d06-6a3ef33a2470"},"vehicle_type_id":"4","last_reported":1726564151,"current_range_meters":24400,"station_id":"ce4bhr92rcd13ifvqhsg","pricing_plan_id":"cebpf4jnsgd1na2vs0mg"},{"bike_id":"599bb63f-0cfe-491c-8f61-e641ac2d101a","system_id":"levelo_inurba_marseille","lat":43.23154,"lon":5.43723,"is_reserved":false,"is_disabled":false,"rental_uris":{"android":"levelo://app?vid=599bb63f-0cfe-491c-8f61-e641ac2d101a","ios":"levelo://app?vid=599bb63f-0cfe-491c-8f61-e641ac2d101a"},"vehicle_type_id":"4","last_reported":1726564151,"current_range_meters":10800,"station_id":"ce4bhmp2rcd13ifvqgog","pricing_plan_id":"cebpf4jnsgd1na2vs0mg"},{"bike_id":"049d1d41-a930-47db-ad7c-0d650b7928c9","system_id":"levelo_inurba_marseille","lat":43.26499,"lon":5.39548,"is_reserved":false,"is_disabled":false,"rental_uris":{"android":"levelo://app?vid=049d1d41-a930-47db-ad7c-0d650b7928c9","ios":"levelo://app?vid=049d1d41-a930-47db-ad7c-0d650b7928c9"},"vehicle_type_id":"4","last_reported":1726564151,"current_range_meters":38800,"station_id":"ce4bhi12rcd13ifvqfq0","pricing_plan_id":"cebpf4jnsgd1na2vs0mg"},{"bike_id":"bb11e736-9a98-4d68-b71f-9421365485ff","system_id":"levelo_inurba_marseille","lat":43.29841,"lon":5.3627,"is_reserved":false,"is_disabled":false,"rental_uris":{"android":"levelo://app?vid=bb11e736-9a98-4d68-b71f-9421365485ff","ios":"levelo://app?vid=bb11e736-9a98-4d68-b71f-9421365485ff"},"vehicle_type_id":"4","last_reported":1726564151,"current_range_meters":24400,"station_id":"ce4bgpp2rcd13ifvqc3g","pricing_plan_id":"cebpf4jnsgd1na2vs0mg"},{"bike_id":"764492cd-7476-4794-9106-061c8cb03c80","system_id":"levelo_inurba_marseille","lat":43.27494,"lon":5.424245,"is_reserved":false,"is_disabled":false,"rental_uris":{"android":"levelo://app?vid=764492cd-7476-4794-9106-061c8cb03c80","ios":"levelo://app?vid=764492cd-7476-4794-9106-061c8cb03c80"},"vehicle_type_id":"4","last_reported":1726564151,"current_range_meters":30000,"station_id":"ce4bhn92rcd13ifvqgrg","pricing_plan_id":"cebpf4jnsgd1na2vs0mg"},{"bike_id":"66a513c9-29f1-4f8a-98d4-2c701501688e","system_id":"levelo_inurba_marseille","lat":43.28462,"lon":5.35909,"is_reserved":false,"is_disabled":false,"rental_uris":{"android":"levelo://app?vid=66a513c9-29f1-4f8a-98d4-2c701501688e","ios":"levelo://app?vid=66a513c9-29f1-4f8a-98d4-2c701501688e"},"vehicle_type_id":"4","last_reported":1726564151,"current_range_meters":28000,"station_id":"ce4bhah2rcd13ifvqei0","pricing_plan_id":"cebpf4jnsgd1na2vs0mg"},{"bike_id":"d050d7b7-e817-42dd-99e2-bc8a4864acf7","system_id":"levelo_inurba_marseille","lat":43.33619,"lon":5.4103,"is_reserved":false,"is_disabled":false,"rental_uris":{"android":"levelo://app?vid=d050d7b7-e817-42dd-99e2-bc8a4864acf7","ios":"levelo://app?vid=d050d7b7-e817-42dd-99e2-bc8a4864acf7"},"vehicle_type_id":"4","last_reported":1726564151,"current_range_meters":38400,"station_id":"ce4bhqh2rcd13ifvqhmg","pricing_plan_id":"cebpf4jnsgd1na2vs0mg"},{"bike_id":"328d45f9-980e-4811-97c0-47d761861509","system_id":"levelo_inurba_marseille","lat":43.29847,"lon":5.37836,"is_reserved":false,"is_disabled":false,"rental_uris":{"android":"levelo://app?vid=328d45f9-980e-4811-97c0-47d761861509","ios":"levelo://app?vid=328d45f9-980e-4811-97c0-47d761861509"},"vehicle_type_id":"4","last_reported":1726564151,"current_range_meters":18000,"station_id":"ce4bgkh2rcd13ifvqbl0","pricing_plan_id":"cebpf4jnsgd1na2vs0mg"},{"bike_id":"1548832d-4d95-46d6-bf0f-0359404f1715","system_id":"levelo_inurba_marseille","lat":43.24081,"lon":5.37755,"is_reserved":false,"is_disabled":false,"rental_uris":{"android":"levelo://app?vid=1548832d-4d95-46d6-bf0f-0359404f1715","ios":"levelo://app?vid=1548832d-4d95-46d6-bf0f-0359404f1715"},"vehicle_type_id":"4","last_reported":1726564151,"current_range_meters":34800,"station_id":"ce4bhnp2rcd13ifvqgvg","pricing_plan_id":"cebpf4jnsgd1na2vs0mg"},{"bike_id":"a77eb655-a442-49dd-b478-f69b86911b5c","system_id":"levelo_inurba_marseille","lat":43.24666,"lon":5.38167,"is_reserved":false,"is_disabled":false,"rental_uris":{"android":"levelo://app?vid=a77eb655-a442-49dd-b478-f69b86911b5c","ios":"levelo://app?vid=a77eb655-a442-49dd-b478-f69b86911b5c"},"vehicle_type_id":"4","last_reported":1726564151,"current_range_meters":38800,"station_id":"ce4bhih2rcd13ifvqfr0","pricing_plan_id":"cebpf4jnsgd1na2vs0mg"},{"bike_id":"89fdb62e-6f6d-4d93-8aea-bbb35b60addf","system_id":"levelo_inurba_marseille","lat":43.30539,"lon":5.38419,"is_reserved":false,"is_disabled":false,"rental_uris":{"android":"levelo://app?vid=89fdb62e-6f6d-4d93-8aea-bbb35b60addf","ios":"levelo://app?vid=89fdb62e-6f6d-4d93-8aea-bbb35b60addf"},"vehicle_type_id":"4","last_reported":1726564151,"current_range_meters":19600,"station_id":"ce4bgg92rcd13ifvqb30","pricing_plan_id":"cebpf4jnsgd1na2vs0mg"},{"bike_id":"fe43840c-a2c0-45d0-a19d-4ad10017aa65","system_id":"levelo_inurba_marseille","lat":43.28035,"lon":5.36948,"is_reserved":false,"is_disabled":false,"rental_uris":{"android":"levelo://app?vid=fe43840c-a2c0-45d0-a19d-4ad10017aa65","ios":"levelo://app?vid=fe43840c-a2c0-45d0-a19d-4ad10017aa65"},"vehicle_type_id":"4","last_reported":1726564151,"current_range_meters":38800,"station_id":"ce4bha12rcd13ifvqef0","pricing_plan_id":"cebpf4jnsgd1na2vs0mg"},{"bike_id":"fa690805-233a-4a70-a9f3-33f1b67cdb1f","system_id":"levelo_inurba_marseille","lat":43.32284,"lon":5.38267,"is_reserved":false,"is_disabled":false,"rental_uris":{"android":"levelo://app?vid=fa690805-233a-4a70-a9f3-33f1b67cdb1f","ios":"levelo://app?vid=fa690805-233a-4a70-a9f3-33f1b67cdb1f"},"vehicle_type_id":"4","last_reported":1726564151,"current_range_meters":33200,"station_id":"ce4bhr12rcd13ifvqhqg","pricing_plan_id":"cebpf4jnsgd1na2vs0mg"},{"bike_id":"8b608b96-fedf-4511-8d4b-09bad2606e1a","system_id":"levelo_inurba_marseille","lat":43.27736,"lon":5.41124,"is_reserved":false,"is_disabled":false,"rental_uris":{"android":"levelo://app?vid=8b608b96-fedf-4511-8d4b-09bad2606e1a","ios":"levelo://app?vid=8b608b96-fedf-4511-8d4b-09bad2606e1a"},"vehicle_type_id":"4","last_reported":1726564151,"current_range_meters":10000,"station_id":"","pricing_plan_id":"cebpf4jnsgd1na2vs0mg"},{"bike_id":"2569ac56-5f1f-498d-b0e6-b3daf1987b96","system_id":"levelo_inurba_marseille","lat":43.30138,"lon":5.37412,"is_reserved":false,"is_disabled":false,"rental_uris":{"android":"levelo://app?vid=2569ac56-5f1f-498d-b0e6-b3daf1987b96","ios":"levelo://app?vid=2569ac56-5f1f-498d-b0e6-b3daf1987b96"},"vehicle_type_id":"4","last_reported":1726564151,"current_range_meters":17200,"station_id":"ce4bgs92rcd13ifvqcc0","pricing_plan_id":"cebpf4jnsgd1na2vs0mg"},{"bike_id":"2fd20e8c-8e33-413e-9486-26b4cea28154","system_id":"levelo_inurba_marseille","lat":43.32369,"lon":5.38883,"is_reserved":false,"is_disabled":false,"rental_uris":{"android":"levelo://app?vid=2fd20e8c-8e33-413e-9486-26b4cea28154","ios":"levelo://app?vid=2fd20e8c-8e33-413e-9486-26b4cea28154"},"vehicle_type_id":"4","last_reported":1726564151,"current_range_meters":8000,"station_id":"ce4bhqp2rcd13ifvqhog","pricing_plan_id":"cebpf4jnsgd1na2vs0mg"},{"bike_id":"57be3ded-1ee9-42c1-b39d-7196fdda9743","system_id":"levelo_inurba_marseille","lat":43.32291,"lon":5.38268,"is_reserved":false,"is_disabled":false,"rental_uris":{"android":"levelo://app?vid=57be3ded-1ee9-42c1-b39d-7196fdda9743","ios":"levelo://app?vid=57be3ded-1ee9-42c1-b39d-7196fdda9743"},"vehicle_type_id":"4","last_reported":1726564151,"current_range_meters":37600,"station_id":"ce4bhr12rcd13ifvqhqg","pricing_plan_id":"cebpf4jnsgd1na2vs0mg"},