{"last_updated":1687561635,"ttl":30,"version":"2.2","data":{"bikes":[{"bike_id":"8a6756cb-8348-4f27-acf7-b77f96c16038","system_id":"levelo_inurba_marseille","lat":43.313391,"lon":5.36706,"is_reserved":false,"is_disabled":false,"rental_uris":{"android":"levelo://app?vid=8a6756cb-8348-4f27-acf7-b77f96c16038","ios":"levelo://app?vid=8a6756cb-8348-4f27-acf7-b77f96c16038"},"vehicle_type_id":"4","last_reported":1687561636,"current_range_meters":31200,"station_id":"ce4bgr92rcd13ifvqc6g","pricing_plan_id":"free"},{"bike_id":"295cfa0d-4f69-4b89-9c92-b3ea9c9cdb69","system_id":"levelo_inurba_marseille","lat":43.313391,"lon":5.36706,"is_reserved":false,"is_disabled":false,"rental_uris":{"android":"levelo://app?vid=295cfa0d-4f69-4b89-9c92-b3ea9c9cdb69","ios":"levelo://app?vid=295cfa0d-4f69-4b89-9c92-b3ea9c9cdb69"},"vehicle_type_id":"4","last_reported":1687561636,"current_range_meters":31200,"station_id":"ce4bgr92rcd13ifvqc6g","pricing_plan_id":"free"},{"bike_id":"35477914-d946-46ef-b985-228de1bf1b90","system_id":"levelo_inurba_marseille","lat":43.313391,"lon":5.36706,"is_reserved":false,"is_disabled":false,"rental_uris":{"android":"levelo://app?vid=35477914-d946-46ef-b985-228de1bf1b90","ios":"levelo://app?vid=35477914-d946-46ef-b985-228de1bf1b90"},"vehicle_type_id":"4","last_reported":1687561636,"current_range_meters":27200,"station_id":"ce4bgr92rcd13ifvqc6g","pricing_plan_id":"free"},{"bike_id":"5eecf944-8040-4a4a-9226-57c846528893","system_id":"levelo_inurba_marseille","lat":43.312239,"lon":5.368562,"is_reserved":false,"is_disabled":false,"rental_uris":{"android":"levelo://app?vid=5eecf944-8040-4a4a-9226-57c846528893","ios":"levelo://app?vid=5eecf944-8040-4a4a-9226-57c846528893"},"vehicle_type_id":"4","last_reported":1687561636,"current_range_meters":6800,"station_id":"ce4bgl92rcd13ifvqbq0","pricing_plan_id":"free"},{"bike_id":"b40f6b11-560c-4821-8133-4d618b0eaa38","system_id":"levelo_inurba_marseille","lat":43.312239,"lon":5.368562,"is_reserved":false,"is_disabled":false,"rental_uris":{"android":"levelo://app?vid=b40f6b11-560c-4821-8133-4d618b0eaa38","ios":"levelo://app?vid=b40f6b11-560c-4821-8133-4d618b0eaa38"},"vehicle_type_id":"4","last_reported":1687561636,"current_range_meters":30800,"station_id":"ce4bgl92rcd13ifvqbq0","pricing_plan_id":"free"},{"bike_id":"f385b774-bc61-48c6-88b5-72a2fbc51443","system_id":"levelo_inurba_marseille","lat":43.309076,"lon":5.368465,"is_reserved":false,"is_disabled":false,"rental_uris":{"android":"levelo://app?vid=f385b774-bc61-48c6-88b5-72a2fbc51443","ios":"levelo://app?vid=f385b774-bc61-48c6-88b5-72a2fbc51443"},"vehicle_type_id":"4","last_reported":1687561636,"current_range_meters":18000,"station_id":"ce4bgn92rcd13ifvqbvg","pricing_plan_id":"free"},{"bike_id":"06310f1c-4cc8-49c6-a574-6b33fca387cc","system_id":"levelo_inurba_marseille","lat":43.31318,"lon":5.3724,"is_reserved":false,"is_disabled":false,"rental_uris":{"android":"levelo://app?vid=06310f1c-4cc8-49c6-a574-6b33fca387cc","ios":"levelo://app?vid=06310f1c-4cc8-49c6-a574-6b33fca387cc"},"vehicle_type_id":"4","last_reported":1687561636,"current_range_meters":9600,"station_id":"","pricing_plan_id":"free"},{"bike_id":"abfc7a90-6049-4bb6-9bb0-4588ffc3bc16","system_id":"levelo_inurba_marseille","lat":43.314811,"lon":5.373104,"is_reserved":false,"is_disabled":false,"rental_uris":{"android":"levelo://app?vid=abfc7a90-6049-4bb6-9bb0-4588ffc3bc16","ios":"levelo://app?vid=abfc7a90-6049-4bb6-9bb0-4588ffc3bc16"},"vehicle_type_id":"4","last_reported":1687561636,"current_range_meters":29200,"station_id":"ce4bgt12rcd13ifvqcd0","pricing_plan_id":"free"},{"bike_id":"f646071c-8961-47de-a807-b7bd71043814","system_id":"levelo_inurba_marseille","lat":43.308606,"lon":5.372099,"is_reserved":false,"is_disabled":false,"rental_uris":{"android":"levelo://app?vid=f646071c-8961-47de-a807-b7bd71043814","ios":"levelo://app?vid=f646071c-8961-47de-a807-b7bd71043814"},"vehicle_type_id":"4","last_reported":1687561636,"current_range_meters":23600,"station_id":"ce4bguh2rcd13ifvqckg","pricing_plan_id":"free"},{"bike_id":"b95cca4f-7391-4844-84eb-1d48ddb19ea6","system_id":"levelo_inurba_marseille","lat":43.308606,"lon":5.372099,"is_reserved":false,"is_disabled":false,"rental_uris":{"android":"levelo://app?vid=b95cca4f-7391-4844-84eb-1d48ddb19ea6","ios":"levelo://app?vid=b95cca4f-7391-4844-84eb-1d48ddb19ea6"},"vehicle_type_id":"4","last_reported":1687561636,"current_range_meters":31200,"station_id":"ce4bguh2rcd13ifvqckg","pricing_plan_id":"free"},{"bike_id":"37c432a5-d97d-4508-b050-c621e46bcc6e","system_id":"levelo_inurba_marseille","lat":43.305706,"lon":5.365654,"is_reserved":false,"is_disabled":false,"rental_uris":{"android":"levelo://app?vid=37c432a5-d97d-4508-b050-c621e46bcc6e","ios":"levelo://app?vid=37c432a5-d97d-4508-b050-c621e46bcc6e"},"vehicle_type_id":"4","last_reported":1687561636,"current_range_meters":28800,"station_id":"ce4bgs12rcd13ifvqcag","pricing_plan_id":"free"},{"bike_id":"8d7bae24-2936-4349-aa49-5b0e6692f9c8","system_id":"levelo_inurba_marseille","lat":43.30524,"lon":5.36568,"is_reserved":false,"is_disabled":false,"rental_uris":{"android":"levelo://app?vid=8d7bae24-2936-4349-aa49-5b0e6692f9c8","ios":"levelo://app?vid=8d7bae24-2936-4349-aa49-5b0e6692f9c8"},"vehicle_type_id":"4","last_reported":1687561636,"current_range_meters":3600,"station_id":"","pricing_plan_id":"free"},{"bike_id":"a02f37e0-d65d-4812-8ed8-bfda6390cd06","system_id":"levelo_inurba_marseille","lat":43.305989,"lon":5.37225,"is_reserved":false,"is_disabled":false,"rental_uris":{"android":"levelo://app?vid=a02f37e0-d65d-4812-8ed8-bfda6390cd06","ios":"levelo://app?vid=a02f37e0-d65d-4812-8ed8-bfda6390cd06"},"vehicle_type_id":"4","last_reported":1687561636,"current_range_meters":12800,"station_id":"ce4bgqh2rcd13ifvqc4g","pricing_plan_id":"free"},{"bike_id":"db401bf0-e5c8-4cb8-9b71-15caf0fe2210","system_id":"levelo_inurba_marseille","lat":43.305989,"lon":5.37225,"is_reserved":false,"is_disabled":false,"rental_uris":{"android":"levelo://app?vid=db401bf0-e5c8-4cb8-9b71-15caf0fe2210","ios":"levelo://app?vid=db401bf0-e5c8-4cb8-9b71-15caf0fe2210"},"vehicle_type_id":"4","last_reported":1687561636,"current_range_meters":1600,"station_id":"ce4bgqh2rcd13ifvqc4g","pricing_plan_id":"free"},{"bike_id":"19450c02-d889-4843-a341-453cf031cc73","system_id":"levelo_inurba_marseille","lat":43.305989,"lon":5.37225,"is_reserved":false,"is_disabled":false,"rental_uris":{"android":"levelo://app?vid=19450c02-d889-4843-a341-453cf031cc73","ios":"levelo://app?vid=19450c02-d889-4843-a341-453cf031cc73"},"vehicle_type_id":"4","last_reported":1687561636,"current_range_meters":0,"station_id":"ce4bgqh2rcd13ifvqc4g","pricing_plan_id":"free"},{"bike_id":"a376f84d-fafb-4318-bbf3-d07b9e3530bc","system_id":"levelo_inurba_marseille","lat":43.305989,"lon":5.37225,"is_reserved":false,"is_disabled":false,"rental_uris":{"android":"levelo://app?vid=a376f84d-fafb-4318-bbf3-d07b9e3530bc","ios":"levelo://app?vid=a376f84d-fafb-4318-bbf3-d07b9e3530bc"},"vehicle_type_id":"4","last_reported":1687561636,"current_range_meters":4000,"station_id":"ce4bgqh2rcd13ifvqc4g","pricing_plan_id":"free"},{"bike_id":"69248f4f-ce62-4be2-9f5d-29d075cd4c52","system_id":"levelo_inurba_marseille","lat":43.305989,"lon":5.37225,"is_reserved":false,"is_disabled":false,"rental_uris":{"android":"levelo://app?vid=69248f4f-ce62-4be2-9f5d-29d075cd4c52","ios":"levelo://app?vid=69248f4f-ce62-4be2-9f5d-29d075cd4c52"},"vehicle_type_id":"4","last_reported":1687561636,"current_range_meters":30000,"station_id":"ce4bgqh2rcd13ifvqc4g","pricing_plan_id":"free"},{"bike_id":"d2c5ef11-4e0d-4c20-b632-0b08133ee512","system_id":"levelo_inurba_marseille","lat":43.311131,"lon":5.377651,"is_reserved":false,"is_disabled":false,"rental_uris":{"android":"levelo://app?vid=d2c5ef11-4e0d-4c20-b632-0b08133ee512","ios":"levelo://app?vid=d2c5ef11-4e0d-4c20-b632-0b08133ee512"},"vehicle_type_id":"4","last_reported":1687561636,"current_range_meters":24000,"station_id":"ce4bgt92rcd13ifvqcg0","pricing_plan_id":"free"},{"bike_id":"f8f84929-36e8-4f4e-9798-493c2b1afb63","system_id":"levelo_inurba_marseille","lat":43.311131,"lon":5.377651,"is_reserved":false,"is_disabled":false,"rental_uris":{"android":"levelo://app?vid=f8f84929-36e8-4f4e-9798-493c2b1afb63","ios":"levelo://app?vid=f8f84929-36e8-4f4e-9798-493c2b1afb63"},"vehicle_type_id":"4","last_reported":1687561636,"current_range_meters":18400,"station_id":"ce4bgt92rcd13ifvqcg0","pricing_plan_id":"free"},{"bike_id":"dcf1bce1-e4a6-4518-a021-1690592ba70c","system_id":"levelo_inurba_marseille","lat":43.311131,"lon":5.377651,"is_reserved":false,"is_disabled":false,"rental_uris":{"android":"levelo://app?vid=dcf1bce1-e4a6-4518-a021-1690592ba70c","ios":"levelo://app?vid=dcf1bce1-e4a6-4518-a021-1690592ba70c"},"vehicle_type_id":"4","last_reported":1687561636,"current_range_meters":4400,"station_id":"ce4bgt92rcd13ifvqcg0","pricing_plan_id":"free"},{"bike_id":"f4244d65-68c8-4420-8813-cb6189af9e89","system_id":"levelo_inurba_marseille","lat":43.303046,"lon":5.368981,"is_reserved":false,"is_disabled":false,"rental_uris":{"android":"levelo://app?vid=f4244d65-68c8-4420-8813-cb6189af9e89","ios":"levelo://app?vid=f4244d65-68c8-4420-8813-cb6189af9e89"},"vehicle_type_id":"4","last_reported":1687561636,"current_range_meters":1600,"station_id":"ce4bgqh2rcd13ifvqc5g","pricing_plan_id":"free"},{"bike_id":"fb8331a6-2f93-47b5-bf94-ef37ca69f363","system_id":"levelo_inurba_marseille","lat":43.303046,"lon":5.368981,"is_reserved":false,"is_disabled":false,"rental_uris":{"android":"levelo://app?vid=fb8331a6-2f93-47b5-bf94-ef37ca69f363","ios":"levelo://app?vid=fb8331a6-2f93-47b5-bf94-ef37ca69f363"},"vehicle_type_id":"4","last_reported":1687561636,"current_range_meters":10000,"station_id":"ce4bgqh2rcd13ifvqc5g","pricing_plan_id":"free"},{"bike_id":"60d0303e-1f35-4786-9e84-ff9ae30ffffa","system_id":"levelo_inurba_marseille","lat":43.303046,"lon":5.368981,"is_reserved":false,"is_disabled":false,"rental_uris":{"android":"levelo://app?vid=60d0303e-1f35-4786-9e84-ff9ae30ffffa","ios":"levelo://app?vid=60d0303e-1f35-4786-9e84-ff9ae30ffffa"},"vehicle_type_id":"4","last_reported":1687561636,"current_range_meters":11200,"station_id":"ce4bgqh2rcd13ifvqc5g","pricing_plan_id":"free"},{"bike_id":"34a0738d-72c1-4838-aba1-c8efbded6e98","system_id":"levelo_inurba_marseille","lat":43.303046,"lon":5.368981,"is_reserved":false,"is_disabled":false,"rental_uris":{"android":"levelo://app?vid=34a0738d-72c1-4838-aba1-c8efbded6e98","ios":"levelo://app?vid=34a0738d-72c1-4838-aba1-c8efbded6e98"},"vehicle_type_id":"4","last_reported":1687561636,"current_range_meters":30000,"station_id":"ce4bgqh2rcd13ifvqc5g","pricing_plan_id":"free"},{"bike_id":"93241b2d-8104-4fcb-b64d-b13ca3cb5041","system_id":"levelo_inurba_marseille","lat":43.303046,"lon":5.368981,"is_reserved":false,"is_disabled":false,"rental_uris":{"android":"levelo://app?vid=93241b2d-8104-4fcb-b64d-b13ca3cb5041","ios":"levelo://app?vid=93241b2d-8104-4fcb-b64d-b13ca3cb5041"},"vehicle_type_id":"4","last_reported":1687561636,"current_range_meters":0,"station_id":"ce4bgqh2rcd13ifvqc5g","pricing_plan_id":"free"},{"bike_id":"e5d77ebf-18cb-491e-808a-c55e1b128bd1","system_id":"levelo_inurba_marseille","lat":43.315293,"lon":5.380349,"is_reserved":false,"is_disabled":false,"rental_uris":{"android":"levelo://app?vid=e5d77ebf-18cb-491e-808a-c55e1b128bd1","ios":"levelo://app?vid=e5d77ebf-18cb-491e-808a-c55e1b128bd1"},"vehicle_type_id":"4","last_reported":1687561636,"current_range_meters":31200,"station_id":"ce4bhsp2rcd13ifvqi50","pricing_plan_id":"free"},{"bike_id":"035a85f7-14a9-418b-bec6-494de6378db2","system_id":"levelo_inurba_marseille","lat":43.315293,"lon":5.380349,"is_reserved":false,"is_disabled":false,"rental_uris":{"android":"levelo://app?vid=035a85f7-14a9-418b-bec6-494de6378db2","ios":"levelo://app?vid=035a85f7-14a9-418b-bec6-494de6378db2"},"vehicle_type_id":"4","last_reported":1687561636,"current_range_meters":30800,"station_id":"ce4bhsp2rcd13ifvqi50","pricing_plan_id":"free"},{"bike_id":"b0b44079-8797-4c6e-afe6-ac78f4ed7d70","system_id":"levelo_inurba_marseille","lat":43.315293,"lon":5.380349,"is_reserved":false,"is_disabled":false,"rental_uris":{"android":"levelo://app?vid=b0b44079-8797-4c6e-afe6-ac78f4ed7d70","ios":"levelo://app?vid=b0b44079-8797-4c6e-afe6-ac78f4ed7d70"},"vehicle_type_id":"4","last_reported":1687561636,"current_range_meters":6400,"station_id":"ce4bhsp2rcd13ifvqi50","pricing_plan_id":"free"},{"bike_id":"dd875a85-efff-44b8-8320-89fd32ad6ad2","system_id":"levelo_inurba_marseille","lat":43.31528,"lon":5.38034,"is_reserved":false,"is_disabled":false,"rental_uris":{"android":"levelo://app?vid=dd875a85-efff-44b8-8320-89fd32ad6ad2","ios":"levelo://app?vid=dd875a85-efff-44b8-8320-89fd32ad6ad2"},"vehicle_type_id":"4","last_reported":1687561636,"current_range_meters":31200,"station_id":"ce4bhsp2rcd13ifvqi50","pricing_plan_id":"free"},{"bike_id":"41d544e8-aeac-47e5-82b4-04ba4fb6ed3d","system_id":"levelo_inurba_marseille","lat":43.30803,"lon":5.38144,"is_reserved":false,"is_disabled":false,"rental_uris":{"android":"levelo://app?vid=41d544e8-aeac-47e5-82b4-04ba4fb6ed3d","ios":"levelo://app?vid=41d544e8-aeac-47e5-82b4-04ba4fb6ed3d"},"vehicle_type_id":"4","last_reported":1687561636,"current_range_meters":30000,"station_id":"ce4bgt12rcd13ifvqce0","pricing_plan_id":"free"},{"bike_id":"07822e4f-33ce-4db6-8d82-5822b5ef4faa","system_id":"levelo_inurba_marseille","lat":43.30801,"lon":5.38145,"is_reserved":false,"is_disabled":false,"rental_uris":{"android":"levelo://app?vid=07822e4f-33ce-4db6-8d82-5822b5ef4faa","ios":"levelo://app?vid=07822e4f-33ce-4db6-8d82-5822b5ef4faa"},"vehicle_type_id":"4","last_reported":1687561636,"current_range_meters":31200,"station_id":"ce4bgt12rcd13ifvqce0","pricing_plan_id":"free"},{"bike_id":"bbde4c10-01a2-4db4-802e-719ec297b464","system_id":"levelo_inurba_marseille","lat":43.30812,"lon":5.38168,"is_reserved":false,"is_disabled":false,"rental_uris":{"android":"levelo://app?vid=bbde4c10-01a2-4db4-802e-719ec297b464","ios":"levelo://app?vid=bbde4c10-01a2-4db4-802e-719ec297b464"},"vehicle_type_id":"4","last_reported":1687561636,"current_range_meters":31200,"station_id":"ce4bgt12rcd13ifvqce0","pricing_plan_id":"free"},{"bike_id":"fb4714d0-e05d-4da1-bf0d-26d05636b34d","system_id":"levelo_inurba_marseille","lat":43.30471,"lon":5.37904,"is_reserved":false,"is_disabled":false,"rental_uris":{"android":"levelo://app?vid=fb4714d0-e05d-4da1-bf0d-26d05636b34d","ios":"levelo://app?vid=fb4714d0-e05d-4da1-bf0d-26d05636b34d"},"vehicle_type_id":"4","last_reported":1687561636,"current_range_meters":31200,"station_id":"ce4bgup2rcd13ifvqcn0","pricing_plan_id":"free"},{"bike_id":"4860b231-90cc-4c6f-8b65-964e4f6e1d61","system_id":"levelo_inurba_marseille","lat":43.30462,"lon":5.37899,"is_reserved":false,"is_disabled":false,"rental_uris":{"android":"levelo://app?vid=4860b231-90cc-4c6f-8b65-964e4f6e1d61","ios":"levelo://app?vid=4860b231-90cc-4c6f-8b65-964e4f6e1d61"},"vehicle_type_id":"4","last_reported":1687561636,"current_range_meters":31200,"station_id":"ce4bgup2rcd13ifvqcn0","pricing_plan_id":"free"},{"bike_id":"26e86dd3-b483-4840-9b64-4681ab54ac86","system_id":"levelo_inurba_marseille","lat":43.3046,"lon":5.379,"is_reserved":false,"is_disabled":false,"rental_uris":{"android":"levelo://app?vid=26e86dd3-b483-4840-9b64-4681ab54ac86","ios":"levelo://app?vid=26e86dd3-b483-4840-9b64-4681ab54ac86"},"vehicle_type_id":"4","last_reported":1687561636,"current_range_meters":2800,"station_id":"ce4bgup2rcd13ifvqcn0","pricing_plan_id":"free"},{"bike_id":"2b4bdd61-0cc8-45c3-88cf-fbb94cd398d2","system_id":"levelo_inurba_marseille","lat":43.304606,"lon":5.379026,"is_reserved":false,"is_disabled":false,"rental_uris":{"android":"levelo://app?vid=2b4bdd61-0cc8-45c3-88cf-fbb94cd398d2","ios":"levelo://app?vid=2b4bdd61-0cc8-45c3-88cf-fbb94cd398d2"},"vehicle_type_id":"4","last_reported":1687561636,"current_range_meters":28000,"station_id":"ce4bgup2rcd13ifvqcn0","pricing_plan_id":"free"},{"bike_id":"388b99fc-8590-48a5-b5e8-4e62559f8827","system_id":"levelo_inurba_marseille","lat":43.31467,"lon":5.38401,"is_reserved":false,"is_disabled":false,"rental_uris":{"android":"levelo://app?vid=388b99fc-8590-48a5-b5e8-4e62559f8827","ios":"levelo://app?vid=388b99fc-8590-48a5-b5e8-4e62559f8827"},"vehicle_type_id":"4","last_reported":1687561636,"current_range_meters":22000,"station_id":"","pricing_plan_id":"free"},{"bike_id":"d47be9cf-94bf-48d8-8867-0f68c8c62bf0","system_id":"levelo_inurba_marseille","lat":43.31983,"lon":5.38141,"is_reserved":false,"is_disabled":false,"rental_uris":{"android":"levelo://app?vid=d47be9cf-94bf-48d8-8867-0f68c8c62bf0","ios":"levelo://app?vid=d47be9cf-94bf-48d8-8867-0f68c8c62bf0"},"vehicle_type_id":"4","last_reported":1687561636,"current_range_meters":0,"station_id":"ce4bhr12rcd13ifvqhpg","pricing_plan_id":"free"},{"bike_id":"9a84abcc-57ec-4e7a-aad7-107e1e12b7c2","system_id":"levelo_inurba_marseille","lat":43.319935,"lon":5.381699,"is_reserved":false,"is_disabled":false,"rental_uris":{"android":"levelo://app?vid=9a84abcc-57ec-4e7a-aad7-107e1e12b7c2","ios":"levelo://app?vid=9a84abcc-57ec-4e7a-aad7-107e1e12b7c2"},"vehicle_type_id":"4","last_reported":1687561636,"current_range_meters":28000,"station_id":"ce4bhr12rcd13ifvqhpg","pricing_plan_id":"free"},{"bike_id":"75501b7e-2e73-4c84-99a3-42f88a7c4084","system_id":"levelo_inurba_marseille","lat":43.31397,"lon":5.38474,"is_reserved":false,"is_disabled":false,"rental_uris":{"android":"levelo://app?vid=75501b7e-2e73-4c84-99a3-42f88a7c4084","ios":"levelo://app?vid=75501b7e-2e73-4c84-99a3-42f88a7c4084"},"vehicle_type_id":"4","last_reported":1687561636,"current_range_meters":18000,"station_id":"","pricing_plan_id":"free"},{"bike_id":"c76f10b5-febc-4500-8ca6-d48adba99352","system_id":"levelo_inurba_marseille","lat":43.313571,"lon":5.384829,"is_reserved":false,"is_disabled":false,"rental_uris":{"android":"levelo://app?vid=c76f10b5-febc-4500-8ca6-d48adba99352","ios":"levelo://app?vid=c76f10b5-febc-4500-8ca6-d48adba99352"},"vehicle_type_id":"4","last_reported":1687561636,"current_range_meters":4400,"station_id":"ce4bgt92rcd13ifvqcf0","pricing_plan_id":"free"},{"bike_id":"3a5a19c4-47c4-4dbf-907a-f37fe449b305","system_id":"levelo_inurba_marseille","lat":43.31362,"lon":5.38488,"is_reserved":false,"is_disabled":false,"rental_uris":{"android":"levelo://app?vid=3a5a19c4-47c4-4dbf-907a-f37fe449b305","ios":"levelo://app?vid=3a5a19c4-47c4-4dbf-907a-f37fe449b305"},"vehicle_type_id":"4","last_reported":1687561636,"current_range_meters":22800,"station_id":"ce4bgt92rcd13ifvqcf0","pricing_plan_id":"free"},{"bike_id":"cb1a43bb-ddf6-4c6e-95f0-9e2ad7f3a456","system_id":"levelo_inurba_marseille","lat":43.313571,"lon":5.384829,"is_reserved":false,"is_disabled":false,"rental_uris":{"android":"levelo://app?vid=cb1a43bb-ddf6-4c6e-95f0-9e2ad7f3a456","ios":"levelo://app?vid=cb1a43bb-ddf6-4c6e-95f0-9e2ad7f3a456"},"vehicle_type_id":"4","last_reported":1687561636,"current_range_meters":10400,"station_id":"ce4bgt92rcd13ifvqcf0","pricing_plan_id":"free"},{"bike_id":"52ce3a0f-6e66-4c03-b74c-d90b8a64181c","system_id":"levelo_inurba_marseille","lat":43.299243,"lon":5.374807,"is_reserved":false,"is_disabled":false,"rental_uris":{"android":"levelo://app?vid=52ce3a0f-6e66-4c03-b74c-d90b8a64181c","ios":"levelo://app?vid=52ce3a0f-6e66-4c03-b74c-d90b8a64181c"},"vehicle_type_id":"4","last_reported":1687561636,"current_range_meters":12400,"station_id":"ce4bgjh2rcd13ifvqbg0","pricing_plan_id":"free"},{"bike_id":"2d5878de-e7e3-4605-be6c-650e8326c5ff","system_id":"levelo_inurba_marseille","lat":43.311722,"lon":5.387247,"is_reserved":false,"is_disabled":false,"rental_uris":{"android":"levelo://app?vid=2d5878de-e7e3-4605-be6c-650e8326c5ff","ios":"levelo://app?vid=2d5878de-e7e3-4605-be6c-650e8326c5ff"},"vehicle_type_id":"4","last_reported":1687561636,"current_range_meters":22800,"station_id":"ce4bgv12rcd13ifvqcp0","pricing_plan_id":"free"},{"bike_id":"1580a472-182f-4d91-8a6c-4c3a23a9c034","system_id":"levelo_inurba_marseille","lat":43.302,"lon":5.3821,"is_reserved":false,"is_disabled":false,"rental_uris":{"android":"levelo://app?vid=1580a472-182f-4d91-8a6c-4c3a23a9c034","ios":"levelo://app?vid=1580a472-182f-4d91-8a6c-4c3a23a9c034"},"vehicle_type_id":"4","last_reported":1687561636,"current_range_meters":19600,"station_id":"","pricing_plan_id":"free"},{"bike_id":"d6aa4b8f-0fbd-492f-a726-f1b64033634e","system_id":"levelo_inurba_marseille","lat":43.29702,"lon":5.36396,"is_reserved":false,"is_disabled":false,"rental_uris":{"android":"levelo://app?vid=d6aa4b8f-0fbd-492f-a726-f1b64033634e","ios":"levelo://app?vid=d6aa4b8f-0fbd-492f-a726-f1b64033634e"},"vehicle_type_id":"4","last_reported":1687561636,"current_range_meters":8800,"station_id":"","pricing_plan_id":"free"},{"bike_id":"041bc147-ef2f-419b-bb81-deca3bdf89e2","system_id":"levelo_inurba_marseille","lat":43.29611,"lon":5.36046,"is_reserved":false,"is_disabled":false,"rental_uris":{"android":"levelo://app?vid=041bc147-ef2f-419b-bb81-deca3bdf89e2","ios":"levelo://app?vid=041bc147-ef2f-419b-bb81-deca3bdf89e2"},"vehicle_type_id":"4","last_reported":1687561636,"current_range_meters":9200,"station_id":"","pricing_plan_id":"free"},{"bike_id":"acc878fe-7071-4cc5-8f59-cb438feb9edd","system_id":"levelo_inurba_marseille","lat":43.317557,"lon":5.390173,"is_reserved":false,"is_disabled":false,"rental_uris":{"android":"levelo://app?vid=acc878fe-7071-4cc5-8f59-cb438feb9edd","ios":"levelo://app?vid=acc878fe-7071-4cc5-8f59-cb438feb9edd"},"vehicle_type_id":"4","last_reported":1687561636,"current_range_meters":28400,"station_id":"ce4bhqp2rcd13ifvqhng","pricing_plan_id":"free"},{"bike_id":"a26b3693-5eee-4958-8ca8-8a69361289e6","system_id":"levelo_inurba_marseille","lat":43.317557,"lon":5.390173,"is_reserved":false,"is_disabled":false,"rental_uris":{"android":"levelo://app?vid=a26b3693-5eee-4958-8ca8-8a69361289e6","ios":"levelo://app?vid=a26b3693-5eee-4958-8ca8-8a69361289e6"},"vehicle_type_id":"4","last_reported":1687561636,"current_range_meters":31200,"station_id":"ce4bhqp2rcd13ifvqhng","pricing_plan_id":"free"},{"bike_id":"c6302fff-6a1d-4a7e-a94a-fded06b72bcf","system_id":"levelo_inurba_marseille","lat":43.317557,"lon":5.390173,"is_reserved":false,"is_disabled":false,"rental_uris":{"android":"levelo://app?vid=c6302fff-6a1d-4a7e-a94a-fded06b72bcf","ios":"levelo://app?vid=c6302fff-6a1d-4a7e-a94a-fded06b72bcf"},"vehicle_type_id":"4","last_reported":1687561636,"current_range_meters":30000,"station_id":"ce4bhqp2rcd13ifvqhng","pricing_plan_id":"free"},{"bike_id":"4600e073-ef6e-4f41-8ac6-58cd75fca8e5","system_id":"levelo_inurba_marseille","lat":43.29511,"lon":5.36319,"is_reserved":false,"is_disabled":false,"rental_uris":{"android":"levelo://app?vid=4600e073-ef6e-4f41-8ac6-58cd75fca8e5","ios":"levelo://app?vid=4600e073-ef6e-4f41-8ac6-58cd75fca8e5"},"vehicle_type_id":"4","last_reported":1687561636,"current_range_meters":6400,"station_id":"","pricing_plan_id":"free"},{"bike_id":"038ec361-212e-4312-9c2a-7b63a2d9b2f3","system_id":"levelo_inurba_marseille","lat":43.304274,"lon":5.388873,"is_reserved":false,"is_disabled":false,"rental_uris":{"android":"levelo://app?vid=038ec361-212e-4312-9c2a-7b63a2d9b2f3","ios":"levelo://app?vid=038ec361-212e-4312-9c2a-7b63a2d9b2f3"},"vehicle_type_id":"4","last_reported":1687561636,"current_range_meters":28400,"station_id":"ce4bgk12rcd13ifvqbi0","pricing_plan_id":"free"},{"bike_id":"34f6261e-6c3f-46ad-9be4-eeb8c66c0ee4","system_id":"levelo_inurba_marseille","lat":43.2996,"lon":5.38494,"is_reserved":false,"is_disabled":false,"rental_uris":{"android":"levelo://app?vid=34f6261e-6c3f-46ad-9be4-eeb8c66c0ee4","ios":"levelo://app?vid=34f6261e-6c3f-46ad-9be4-eeb8c66c0ee4"},"vehicle_type_id":"4","last_reported":1687561636,"current_range_meters":0,"station_id":"ce4bgj92rcd13ifvqbd0","pricing_plan_id":"free"},{"bike_id":"cb4abb44-f52a-45fe-aa4f-b247ad26ddad","system_id":"levelo_inurba_marseille","lat":43.32367,"lon":5.388836,"is_reserved":false,"is_disabled":false,"rental_uris":{"android":"levelo://app?vid=cb4abb44-f52a-45fe-aa4f-b247ad26ddad","ios":"levelo://app?vid=cb4abb44-f52a-45fe-aa4f-b247ad26ddad"},"vehicle_type_id":"4","last_reported":1687561636,"current_range_meters":22000,"station_id":"ce4bhqp2rcd13ifvqhog","pricing_plan_id":"free"},{"bike_id":"accc3723-1fa1-4720-97d3-39ee4e6e685d","system_id":"levelo_inurba_marseille","lat":43.32367,"lon":5.388836,"is_reserved":false,"is_disabled":false,"rental_uris":{"android":"levelo://app?vid=accc3723-1fa1-4720-97d3-39ee4e6e685d","ios":"levelo://app?vid=accc3723-1fa1-4720-97d3-39ee4e6e685d"},"vehicle_type_id":"4","last_reported":1687561636,"current_range_meters":4800,"station_id":"ce4bhqp2rcd13ifvqhog","pricing_plan_id":"free"},{"bike_id":"6b05f8f0-f4fb-40e7-82c0-a54912f6c06c","system_id":"levelo_inurba_marseille","lat":43.32367,"lon":5.388836,"is_reserved":false,"is_disabled":false,"rental_uris":{"android":"levelo://app?vid=6b05f8f0-f4fb-40e7-82c0-a54912f6c06c","ios":"levelo://app?vid=6b05f8f0-f4fb-40e7-82c0-a54912f6c06c"},"vehicle_type_id":"4","last_reported":1687561636,"current_range_meters":30000,"station_id":"ce4bhqp2rcd13ifvqhog","pricing_plan_id":"free"},{"bike_id":"8236622f-eab0-4c7a-a1db-1bcac87d6cb5","system_id":"levelo_inurba_marseille","lat":43.32367,"lon":5.388836,"is_reserved":false,"is_disabled":false,"rental_uris":{"android":"levelo://app?vid=8236622f-eab0-4c7a-a1db-1bcac87d6cb5","ios":"levelo://app?vid=8236622f-eab0-4c7a-a1db-1bcac87d6cb5"},"vehicle_type_id":"4","last_reported":1687561636,"current_range_meters":8000,"station_id":"ce4bhqp2rcd13ifvqhog","pricing_plan_id":"free"},{"bike_id":"d03181c3-9091-4063-b5ab-d66c863c51ac","system_id":"levelo_inurba_marseille","lat":43.32367,"lon":5.388836,"is_reserved":false,"is_disabled":false,"rental_uris":{"android":"levelo://app?vid=d03181c3-9091-4063-b5ab-d66c863c51ac","ios":"levelo://app?vid=d03181c3-9091-4063-b5ab-d66c863c51ac"},"vehicle_type_id":"4","last_reported":1687561636,"current_range_meters":4800,"station_id":"ce4bhqp2rcd13ifvqhog","pricing_plan_id":"free"},{"bike_id":"51ed23a6-df02-47c8-9e1b-989426c29b96","system_id":"levelo_inurba_marseille","lat":43.32367,"lon":5.388836,"is_reserved":false,"is_disabled":false,"rental_uris":{"android":"levelo://app?vid=51ed23a6-df02-47c8-9e1b-989426c29b96","ios":"levelo://app?vid=51ed23a6-df02-47c8-9e1b-989426c29b96"},"vehicle_type_id":"4","last_reported":1687561636,"current_range_meters":5600,"station_id":"ce4bhqp2rcd13ifvqhog","pricing_plan_id":"free"},{"bike_id":"2d4a20ad-4e58-481a-b920-289c19599765","system_id":"levelo_inurba_marseille","lat":43.293009,"lon":5.374584,"is_reserved":false,"is_disabled":false,"rental_uris":{"android":"levelo://app?vid=2d4a20ad-4e58-481a-b920-289c19599765","ios":"levelo://app?vid=2d4a20ad-4e58-481a-b920-289c19599765"},"vehicle_type_id":"4","last_reported":1687561636,"current_range_meters":18000,"station_id":"ce4bgi12rcd13ifvqb70","pricing_plan_id":"free"},{"bike_id":"91835b26-dc7d-476f-95ff-e1e9597722de","system_id":"levelo_inurba_marseille","lat":43.293009,"lon":5.374584,"is_reserved":false,"is_disabled":false,"rental_uris":{"android":"levelo://app?vid=91835b26-dc7d-476f-95ff-e1e9597722de","ios":"levelo://app?vid=91835b26-dc7d-476f-95ff-e1e9597722de"},"vehicle_type_id":"4","last_reported":1687561636,"current_range_meters":28800,"station_id":"ce4bgi12rcd13ifvqb70","pricing_plan_id":"free"},{"bike_id":"c1f76966-60d6-4543-ba70-591e7f33e000","system_id":"levelo_inurba_marseille","lat":43.298764,"lon":5.388973,"is_reserved":false,"is_disabled":false,"rental_uris":{"android":"levelo://app?vid=c1f76966-60d6-4543-ba70-591e7f33e000","ios":"levelo://app?vid=c1f76966-60d6-4543-ba70-591e7f33e000"},"vehicle_type_id":"4","last_reported":1687561636,"current_range_meters":19600,"station_id":"ce4bh392rcd13ifvqdl0","pricing_plan_id":"free"},{"bike_id":"89712f89-50d4-4c2a-849d-d53028baaa9e","system_id":"levelo_inurba_marseille","lat":43.29865,"lon":5.38899,"is_reserved":false,"is_disabled":false,"rental_uris":{"android":"levelo://app?vid=89712f89-50d4-4c2a-849d-d53028baaa9e","ios":"levelo://app?vid=89712f89-50d4-4c2a-849d-d53028baaa9e"},"vehicle_type_id":"4","last_reported":1687561636,"current_range_meters":31200,"station_id":"ce4bh392rcd13ifvqdl0","pricing_plan_id":"free"},{"bike_id":"8e74d839-8838-4f02-bc2b-88287afde07a","system_id":"levelo_inurba_marseille","lat":43.29863,"lon":5.38905,"is_reserved":false,"is_disabled":false,"rental_uris":{"android":"levelo://app?vid=8e74d839-8838-4f02-bc2b-88287afde07a","ios":"levelo://app?vid=8e74d839-8838-4f02-bc2b-88287afde07a"},"vehicle_type_id":"4","last_reported":1687561636,"current_range_meters":30000,"station_id":"ce4bh392rcd13ifvqdl0","pricing_plan_id":"free"},{"bike_id":"54fda2f9-7b1a-4838-9b70-087d4101d0ae","system_id":"levelo_inurba_marseille","lat":43.33254,"lon":5.37929,"is_reserved":false,"is_disabled":false,"rental_uris":{"android":"levelo://app?vid=54fda2f9-7b1a-4838-9b70-087d4101d0ae","ios":"levelo://app?vid=54fda2f9-7b1a-4838-9b70-087d4101d0ae"},"vehicle_type_id":"4","last_reported":1687561636,"current_range_meters":800,"station_id":"","pricing_plan_id":"free"},{"bike_id":"b4fccd6d-13ff-4454-974e-9ea082a08b8a","system_id":"levelo_inurba_marseille","lat":43.313291,"lon":5.396838,"is_reserved":false,"is_disabled":false,"rental_uris":{"android":"levelo://app?vid=b4fccd6d-13ff-4454-974e-9ea082a08b8a","ios":"levelo://app?vid=b4fccd6d-13ff-4454-974e-9ea082a08b8a"},"vehicle_type_id":"4","last_reported":1687561636,"current_range_meters":14800,"station_id":"ce4bgvp2rcd13ifvqcu0","pricing_plan_id":"free"},{"bike_id":"81781672-4154-4551-a332-5c2e393df06f","system_id":"levelo_inurba_marseille","lat":43.31327,"lon":5.39688,"is_reserved":false,"is_disabled":false,"rental_uris":{"android":"levelo://app?vid=81781672-4154-4551-a332-5c2e393df06f","ios":"levelo://app?vid=81781672-4154-4551-a332-5c2e393df06f"},"vehicle_type_id":"4","last_reported":1687561636,"current_range_meters":22000,"station_id":"ce4bgvp2rcd13ifvqcu0","pricing_plan_id":"free"},{"bike_id":"a4bdefac-de54-4b2e-9b63-fba442789005","system_id":"levelo_inurba_marseille","lat":43.313291,"lon":5.396838,"is_reserved":false,"is_disabled":false,"rental_uris":{"android":"levelo://app?vid=a4bdefac-de54-4b2e-9b63-fba442789005","ios":"levelo://app?vid=a4bdefac-de54-4b2e-9b63-fba442789005"},"vehicle_type_id":"4","last_reported":1687561636,"current_range_meters":28000,"station_id":"ce4bgvp2rcd13ifvqcu0","pricing_plan_id":"free"},{"bike_id":"e14afa42-64a5-42ba-ba6e-98e4e902b9bc","system_id":"levelo_inurba_marseille","lat":43.309038,"lon":5.396546,"is_reserved":false,"is_disabled":false,"rental_uris":{"android":"levelo://app?vid=e14afa42-64a5-42ba-ba6e-98e4e902b9bc","ios":"levelo://app?vid=e14afa42-64a5-42ba-ba6e-98e4e902b9bc"},"vehicle_type_id":"4","last_reported":1687561636,"current_range_meters":5600,"station_id":"ce4bh012rcd13ifvqcv0","pricing_plan_id":"free"},{"bike_id":"a8392e5f-f50a-461b-9779-10293581e019","system_id":"levelo_inurba_marseille","lat":43.313291,"lon":5.396838,"is_reserved":false,"is_disabled":false,"rental_uris":{"android":"levelo://app?vid=a8392e5f-f50a-461b-9779-10293581e019","ios":"levelo://app?vid=a8392e5f-f50a-461b-9779-10293581e019"},"vehicle_type_id":"4","last_reported":1687561636,"current_range_meters":28800,"station_id":"ce4bgvp2rcd13ifvqcu0","pricing_plan_id":"free"},{"bike_id":"458f5ce3-3373-4280-af41-6054b506e27f","system_id":"levelo_inurba_marseille","lat":43.313291,"lon":5.396838,"is_reserved":false,"is_disabled":false,"rental_uris":{"android":"levelo://app?vid=458f5ce3-3373-4280-af41-6054b506e27f","ios":"levelo://app?vid=458f5ce3-3373-4280-af41-6054b506e27f"},"vehicle_type_id":"4","last_reported":1687561636,"current_range_meters":28400,"station_id":"ce4bgvp2rcd13ifvqcu0","pricing_plan_id":"free"},{"bike_id":"0b22b7ab-b781-4f9b-913d-6076dac1b56e","system_id":"levelo_inurba_marseille","lat":43.313194,"lon":5.396951,"is_reserved":false,"is_disabled":false,"rental_uris":{"android":"levelo://app?vid=0b22b7ab-b781-4f9b-913d-6076dac1b56e","ios":"levelo://app?vid=0b22b7ab-b781-4f9b-913d-6076dac1b56e"},"vehicle_type_id":"4","last_reported":1687561636,"current_range_meters":31200,"station_id":"ce4bgvp2rcd13ifvqcu0","pricing_plan_id":"free"},{"bike_id":"44f9d61f-6161-4e91-812d-dbbd9267d69e","system_id":"levelo_inurba_marseille","lat":43.30884,"lon":5.39665,"is_reserved":false,"is_disabled":false,"rental_uris":{"android":"levelo://app?vid=44f9d61f-6161-4e91-812d-dbbd9267d69e","ios":"levelo://app?vid=44f9d61f-6161-4e91-812d-dbbd9267d69e"},"vehicle_type_id":"4","last_reported":1687561636,"current_range_meters":23600,"station_id":"ce4bh012rcd13ifvqcv0","pricing_plan_id":"free"},{"bike_id":"b08a08fc-cff5-4726-b7d3-3dcf51704b06","system_id":"levelo_inurba_marseille","lat":43.29529,"lon":5.385581,"is_reserved":false,"is_disabled":false,"rental_uris":{"android":"levelo://app?vid=b08a08fc-cff5-4726-b7d3-3dcf51704b06","ios":"levelo://app?vid=b08a08fc-cff5-4726-b7d3-3dcf51704b06"},"vehicle_type_id":"4","last_reported":1687561636,"current_range_meters":31600,"station_id":"ce4bgih2rcd13ifvqba0","pricing_plan_id":"free"},{"bike_id":"ad005aa6-993b-4be9-bcf7-83f526003d2e","system_id":"levelo_inurba_marseille","lat":43.2957,"lon":5.38716,"is_reserved":false,"is_disabled":false,"rental_uris":{"android":"levelo://app?vid=ad005aa6-993b-4be9-bcf7-83f526003d2e","ios":"levelo://app?vid=ad005aa6-993b-4be9-bcf7-83f526003d2e"},"vehicle_type_id":"4","last_reported":1687561636,"current_range_meters":0,"station_id":"","pricing_plan_id":"free"},{"bike_id":"8eaa6da0-a416-437b-8cbd-7993ce4ec191","system_id":"levelo_inurba_marseille","lat":43.29029,"lon":5.35921,"is_reserved":false,"is_disabled":false,"rental_uris":{"android":"levelo://app?vid=8eaa6da0-a416-437b-8cbd-7993ce4ec191","ios":"levelo://app?vid=8eaa6da0-a416-437b-8cbd-7993ce4ec191"},"vehicle_type_id":"4","last_reported":1687561636,"current_range_meters":0,"station_id":"","pricing_plan_id":"free"},{"bike_id":"20b2702a-2cf1-439f-b7da-41f192fa1a0a","system_id":"levelo_inurba_marseille","lat":43.29411,"lon":5.38614,"is_reserved":false,"is_disabled":false,"rental_uris":{"android":"levelo://app?vid=20b2702a-2cf1-439f-b7da-41f192fa1a0a","ios":"levelo://app?vid=20b2702a-2cf1-439f-b7da-41f192fa1a0a"},"vehicle_type_id":"4","last_reported":1687561636,"current_range_meters":21600,"station_id":"","pricing_plan_id":"free"},{"bike_id":"510c4d6c-5cee-4d58-a972-73bd0d437601","system_id":"levelo_inurba_marseille","lat":43.289184,"lon":5.366408,"is_reserved":false,"is_disabled":false,"rental_uris":{"android":"levelo://app?vid=510c4d6c-5cee-4d58-a972-73bd0d437601","ios":"levelo://app?vid=510c4d6c-5cee-4d58-a972-73bd0d437601"},"vehicle_type_id":"4","last_reported":1687561636,"current_range_meters":30400,"station_id":"ce4bhap2rcd13ifvqek0","pricing_plan_id":"free"},{"bike_id":"e36874dc-7135-4ebc-b4cd-8f7cd3793fb7","system_id":"levelo_inurba_marseille","lat":43.30344,"lon":5.39681,"is_reserved":false,"is_disabled":false,"rental_uris":{"android":"levelo://app?vid=e36874dc-7135-4ebc-b4cd-8f7cd3793fb7","ios":"levelo://app?vid=e36874dc-7135-4ebc-b4cd-8f7cd3793fb7"},"vehicle_type_id":"4","last_reported":1687561636,"current_range_meters":24400,"station_id":"","pricing_plan_id":"free"},{"bike_id":"68ff49d7-d8b9-4fc0-92fb-a41d5c8f774f","system_id":"levelo_inurba_marseille","lat":43.304274,"lon":5.397513,"is_reserved":false,"is_disabled":false,"rental_uris":{"android":"levelo://app?vid=68ff49d7-d8b9-4fc0-92fb-a41d5c8f774f","ios":"levelo://app?vid=68ff49d7-d8b9-4fc0-92fb-a41d5c8f774f"},"vehicle_type_id":"4","last_reported":1687561636,"current_range_meters":4800,"station_id":"ce4bh092rcd13ifvqd20","pricing_plan_id":"free"},{"bike_id":"8124d2c7-6d62-4f1c-863e-260903640d07","system_id":"levelo_inurba_marseille","lat":43.304274,"lon":5.397513,"is_reserved":false,"is_disabled":false,"rental_uris":{"android":"levelo://app?vid=8124d2c7-6d62-4f1c-863e-260903640d07","ios":"levelo://app?vid=8124d2c7-6d62-4f1c-863e-260903640d07"},"vehicle_type_id":"4","last_reported":1687561636,"current_range_meters":20000,"station_id":"ce4bh092rcd13ifvqd20","pricing_plan_id":"free"},{"bike_id":"e4e06b95-1721-4584-9864-ef74cf24cd0f","system_id":"levelo_inurba_marseille","lat":43.33041,"lon":5.38918,"is_reserved":false,"is_disabled":false,"rental_uris":{"android":"levelo://app?vid=e4e06b95-1721-4584-9864-ef74cf24cd0f","ios":"levelo://app?vid=e4e06b95-1721-4584-9864-ef74cf24cd0f"},"vehicle_type_id":"4","last_reported":1687561636,"current_range_meters":18000,"station_id":"ce4bhr92rcd13ifvqhrg","pricing_plan_id":"free"},{"bike_id":"7c811762-c0ee-4656-87ba-109acbb8edd1","system_id":"levelo_inurba_marseille","lat":43.33042,"lon":5.38917,"is_reserved":false,"is_disabled":false,"rental_uris":{"android":"levelo://app?vid=7c811762-c0ee-4656-87ba-109acbb8edd1","ios":"levelo://app?vid=7c811762-c0ee-4656-87ba-109acbb8edd1"},"vehicle_type_id":"4","last_reported":1687561636,"current_range_meters":11200,"station_id":"ce4bhr92rcd13ifvqhrg","pricing_plan_id":"free"},{"bike_id":"7c4864e9-a0e6-4a7c-ae0f-00be6827168a","system_id":"levelo_inurba_marseille","lat":43.33041,"lon":5.38919,"is_reserved":false,"is_disabled":false,"rental_uris":{"android":"levelo://app?vid=7c4864e9-a0e6-4a7c-ae0f-00be6827168a","ios":"levelo://app?vid=7c4864e9-a0e6-4a7c-ae0f-00be6827168a"},"vehicle_type_id":"4","last_reported":1687561636,"current_range_meters":0,"station_id":"ce4bhr92rcd13ifvqhrg","pricing_plan_id":"free"},{"bike_id":"383564b9-2cae-4808-aee8-d3aefd710421","system_id":"levelo_inurba_marseille","lat":43.33043,"lon":5.38917,"is_reserved":false,"is_disabled":false,"rental_uris":{"android":"levelo://app?vid=383564b9-2cae-4808-aee8-d3aefd710421","ios":"levelo://app?vid=383564b9-2cae-4808-aee8-d3aefd710421"},"vehicle_type_id":"4","last_reported":1687561636,"current_range_meters":800,"station_id":"ce4bhr92rcd13ifvqhrg","pricing_plan_id":"free"},{"bike_id":"23417d1c-4028-4ee4-a9cc-dba39ef81cc6","system_id":"levelo_inurba_marseille","lat":43.33042,"lon":5.38919,"is_reserved":false,"is_disabled":false,"rental_uris":{"android":"levelo://app?vid=23417d1c-4028-4ee4-a9cc-dba39ef81cc6","ios":"levelo://app?vid=23417d1c-4028-4ee4-a9cc-dba39ef81cc6"},"vehicle_type_id":"4","last_reported":1687561636,"current_range_meters":0,"station_id":"ce4bhr92rcd13ifvqhrg","pricing_plan_id":"free"},{"bike_id":"5f3e4fe3-585a-4d1f-ba15-c91b2c215d5d","system_id":"levelo_inurba_marseille","lat":43.290104,"lon":5.356111,"is_reserved":false,"is_disabled":false,"rental_uris":{"android":"levelo://app?vid=5f3e4fe3-585a-4d1f-ba15-c91b2c215d5d","ios":"levelo://app?vid=5f3e4fe3-585a-4d1f-ba15-c91b2c215d5d"},"vehicle_type_id":"4","last_reported":1687561636,"current_range_meters":6000,"station_id":"ce4bhb92rcd13ifvqen0","pricing_plan_id":"free"},{"bike_id":"497ea772-6e0c-4aca-97d3-9f8ac0d1598d","system_id":"levelo_inurba_marseille","lat":43.290104,"lon":5.356111,"is_reserved":false,"is_disabled":false,"rental_uris":{"android":"levelo://app?vid=497ea772-6e0c-4aca-97d3-9f8ac0d1598d","ios":"levelo://app?vid=497ea772-6e0c-4aca-97d3-9f8ac0d1598d"},"vehicle_type_id":"4","last_reported":1687561636,"current_range_meters":8800,"station_id":"ce4bhb92rcd13ifvqen0","pricing_plan_id":"free"},{"bike_id":"94ff6a44-374c-4ca0-9010-cd7c4b2a0de4","system_id":"levelo_inurba_marseille","lat":43.297815,"lon":5.393548,"is_reserved":false,"is_disabled":false,"rental_uris":{"android":"levelo://app?vid=94ff6a44-374c-4ca0-9010-cd7c4b2a0de4","ios":"levelo://app?vid=94ff6a44-374c-4ca0-9010-cd7c4b2a0de4"},"vehicle_type_id":"4","last_reported":1687561636,"current_range_meters":26800,"station_id":"chh1huq6cuj3fo74tm60","pricing_plan_id":"free"},{"bike_id":"7477caec-5bcc-45a7-b582-bebee112921b","system_id":"levelo_inurba_marseille","lat":43.297815,"lon":5.393548,"is_reserved":false,"is_disabled":false,"rental_uris":{"android":"levelo://app?vid=7477caec-5bcc-45a7-b582-bebee112921b","ios":"levelo://app?vid=7477caec-5bcc-45a7-b582-bebee112921b"},"vehicle_type_id":"4","last_reported":1687561636,"current_range_meters":7600,"station_id":"chh1huq6cuj3fo74tm60","pricing_plan_id":"free"},{"bike_id":"f8f781fd-716f-4010-aa3b-4f122c688c5e","system_id":"levelo_inurba_marseille","lat":43.297815,"lon":5.393548,"is_reserved":false,"is_disabled":false,"rental_uris":{"android":"levelo://app?vid=f8f781fd-716f-4010-aa3b-4f122c688c5e","ios":"levelo://app?vid=f8f781fd-716f-4010-aa3b-4f122c688c5e"},"vehicle_type_id":"4","last_reported":1687561636,"current_range_meters":10400,"station_id":"chh1huq6cuj3fo74tm60","pricing_plan_id":"free"},{"bike_id":"4ba6549b-f039-41e8-9968-c27c3f6fe555","system_id":"levelo_inurba_marseille","lat":43.28856,"lon":5.358371,"is_reserved":false,"is_disabled":false,"rental_uris":{"android":"levelo://app?vid=4ba6549b-f039-41e8-9968-c27c3f6fe555","ios":"levelo://app?vid=4ba6549b-f039-41e8-9968-c27c3f6fe555"},"vehicle_type_id":"4","last_reported":1687561636,"current_range_meters":30400,"station_id":"ce4bhb12rcd13ifvqem0","pricing_plan_id":"free"},{"bike_id":"c05a225e-4bd7-49dd-b058-9dbd78c04528","system_id":"levelo_inurba_marseille","lat":43.28856,"lon":5.358371,"is_reserved":false,"is_disabled":false,"rental_uris":{"android":"levelo://app?vid=c05a225e-4bd7-49dd-b058-9dbd78c04528","ios":"levelo://app?vid=c05a225e-4bd7-49dd-b058-9dbd78c04528"},"vehicle_type_id":"4","last_reported":1687561636,"current_range_meters":1600,"station_id":"ce4bhb12rcd13ifvqem0","pricing_plan_id":"free"},{"bike_id":"1f2c9065-17c1-477c-a4c3-8ebec01c2851","system_id":"levelo_inurba_marseille","lat":43.28844,"lon":5.35862,"is_reserved":false,"is_disabled":false,"rental_uris":{"android":"levelo://app?vid=1f2c9065-17c1-477c-a4c3-8ebec01c2851","ios":"levelo://app?vid=1f2c9065-17c1-477c-a4c3-8ebec01c2851"},"vehicle_type_id":"4","last_reported":1687561636,"current_range_meters":4800,"station_id":"ce4bhb12rcd13ifvqem0","pricing_plan_id":"free"},{"bike_id":"3f8a925a-6a54-4259-a38f-9cf091aab246","system_id":"levelo_inurba_marseille","lat":43.29261,"lon":5.38742,"is_reserved":false,"is_disabled":false,"rental_uris":{"android":"levelo://app?vid=3f8a925a-6a54-4259-a38f-9cf091aab246","ios":"levelo://app?vid=3f8a925a-6a54-4259-a38f-9cf091aab246"},"vehicle_type_id":"4","last_reported":1687561636,"current_range_meters":23600,"station_id":"","pricing_plan_id":"free"},{"bike_id":"c7a2b684-52f7-43db-9c28-eaf0549269a9","system_id":"levelo_inurba_marseille","lat":43.28856,"lon":5.358371,"is_reserved":false,"is_disabled":false,"rental_uris":{"android":"levelo://app?vid=c7a2b684-52f7-43db-9c28-eaf0549269a9","ios":"levelo://app?vid=c7a2b684-52f7-43db-9c28-eaf0549269a9"},"vehicle_type_id":"4","last_reported":1687561636,"current_range_meters":14000,"station_id":"ce4bhb12rcd13ifvqem0","pricing_plan_id":"free"},{"bike_id":"1c214aef-af8a-4b26-a4f9-f4aafab4840a","system_id":"levelo_inurba_marseille","lat":43.28856,"lon":5.358371,"is_reserved":false,"is_disabled":false,"rental_uris":{"android":"levelo://app?vid=1c214aef-af8a-4b26-a4f9-f4aafab4840a","ios":"levelo://app?vid=1c214aef-af8a-4b26-a4f9-f4aafab4840a"},"vehicle_type_id":"4","last_reported":1687561636,"current_range_meters":26400,"station_id":"ce4bhb12rcd13ifvqem0","pricing_plan_id":"free"},{"bike_id":"c180ae38-f769-441f-8a55-5a6e4930e6ad","system_id":"levelo_inurba_marseille","lat":43.3375,"lon":5.37439,"is_reserved":false,"is_disabled":false,"rental_uris":{"android":"levelo://app?vid=c180ae38-f769-441f-8a55-5a6e4930e6ad","ios":"levelo://app?vid=c180ae38-f769-441f-8a55-5a6e4930e6ad"},"vehicle_type_id":"4","last_reported":1687561636,"current_range_meters":26800,"station_id":"","pricing_plan_id":"free"},{"bike_id":"8238c0b9-921a-4301-bb43-df1e88eec915","system_id":"levelo_inurba_marseille","lat":43.309371,"lon":5.401449,"is_reserved":false,"is_disabled":false,"rental_uris":{"android":"levelo://app?vid=8238c0b9-921a-4301-bb43-df1e88eec915","ios":"levelo://app?vid=8238c0b9-921a-4301-bb43-df1e88eec915"},"vehicle_type_id":"4","last_reported":1687561636,"current_range_meters":24400,"station_id":"ce4bgvp2rcd13ifvqct0","pricing_plan_id":"free"},{"bike_id":"66fc1940-e878-40bd-bbce-693e9d89464c","system_id":"levelo_inurba_marseille","lat":43.309371,"lon":5.401449,"is_reserved":false,"is_disabled":false,"rental_uris":{"android":"levelo://app?vid=66fc1940-e878-40bd-bbce-693e9d89464c","ios":"levelo://app?vid=66fc1940-e878-40bd-bbce-693e9d89464c"},"vehicle_type_id":"4","last_reported":1687561636,"current_range_meters":8000,"station_id":"ce4bgvp2rcd13ifvqct0","pricing_plan_id":"free"},{"bike_id":"2f104151-a7ce-4263-a658-7e685b8ae3b9","system_id":"levelo_inurba_marseille","lat":43.309371,"lon":5.401449,"is_reserved":false,"is_disabled":false,"rental_uris":{"android":"levelo://app?vid=2f104151-a7ce-4263-a658-7e685b8ae3b9","ios":"levelo://app?vid=2f104151-a7ce-4263-a658-7e685b8ae3b9"},"vehicle_type_id":"4","last_reported":1687561636,"current_range_meters":0,"station_id":"ce4bgvp2rcd13ifvqct0","pricing_plan_id":"free"},{"bike_id":"6626ab0c-e2dc-4e26-a046-071aa3695241","system_id":"levelo_inurba_marseille","lat":43.30642,"lon":5.401031,"is_reserved":false,"is_disabled":false,"rental_uris":{"android":"levelo://app?vid=6626ab0c-e2dc-4e26-a046-071aa3695241","ios":"levelo://app?vid=6626ab0c-e2dc-4e26-a046-071aa3695241"},"vehicle_type_id":"4","last_reported":1687561636,"current_range_meters":18000,"station_id":"ce4bh112rcd13ifvqda0","pricing_plan_id":"free"},{"bike_id":"698a0c42-1f58-43ce-9158-85de813c112c","system_id":"levelo_inurba_marseille","lat":43.306412,"lon":5.401035,"is_reserved":false,"is_disabled":false,"rental_uris":{"android":"levelo://app?vid=698a0c42-1f58-43ce-9158-85de813c112c","ios":"levelo://app?vid=698a0c42-1f58-43ce-9158-85de813c112c"},"vehicle_type_id":"4","last_reported":1687561636,"current_range_meters":20000,"station_id":"ce4bh112rcd13ifvqda0","pricing_plan_id":"free"},{"bike_id":"dcf38555-22f7-4034-b160-6afa14cc0c4d","system_id":"levelo_inurba_marseille","lat":43.306412,"lon":5.401035,"is_reserved":false,"is_disabled":false,"rental_uris":{"android":"levelo://app?vid=dcf38555-22f7-4034-b160-6afa14cc0c4d","ios":"levelo://app?vid=dcf38555-22f7-4034-b160-6afa14cc0c4d"},"vehicle_type_id":"4","last_reported":1687561636,"current_range_meters":11200,"station_id":"ce4bh112rcd13ifvqda0","pricing_plan_id":"free"},{"bike_id":"b8651de5-d481-42a8-91c2-a3084ef12c55","system_id":"levelo_inurba_marseille","lat":43.30636,"lon":5.40084,"is_reserved":false,"is_disabled":false,"rental_uris":{"android":"levelo://app?vid=b8651de5-d481-42a8-91c2-a3084ef12c55","ios":"levelo://app?vid=b8651de5-d481-42a8-91c2-a3084ef12c55"},"vehicle_type_id":"4","last_reported":1687561636,"current_range_meters":24400,"station_id":"","pricing_plan_id":"free"},{"bike_id":"2b12e2e2-6f8a-4a6f-b343-d0bde9a280c9","system_id":"levelo_inurba_marseille","lat":43.30637,"lon":5.40086,"is_reserved":false,"is_disabled":false,"rental_uris":{"android":"levelo://app?vid=2b12e2e2-6f8a-4a6f-b343-d0bde9a280c9","ios":"levelo://app?vid=2b12e2e2-6f8a-4a6f-b343-d0bde9a280c9"},"vehicle_type_id":"4","last_reported":1687561636,"current_range_meters":26000,"station_id":"ce4bh112rcd13ifvqda0","pricing_plan_id":"free"},{"bike_id":"66d5dbc0-0c90-4db5-abb9-833923d5797d","system_id":"levelo_inurba_marseille","lat":43.30642,"lon":5.401031,"is_reserved":false,"is_disabled":false,"rental_uris":{"android":"levelo://app?vid=66d5dbc0-0c90-4db5-abb9-833923d5797d","ios":"levelo://app?vid=66d5dbc0-0c90-4db5-abb9-833923d5797d"},"vehicle_type_id":"4","last_reported":1687561636,"current_range_meters":15200,"station_id":"ce4bh112rcd13ifvqda0","pricing_plan_id":"free"},{"bike_id":"5f66fd72-ae54-4d20-9900-c19bb398c4d1","system_id":"levelo_inurba_marseille","lat":43.30642,"lon":5.401031,"is_reserved":false,"is_disabled":false,"rental_uris":{"android":"levelo://app?vid=5f66fd72-ae54-4d20-9900-c19bb398c4d1","ios":"levelo://app?vid=5f66fd72-ae54-4d20-9900-c19bb398c4d1"},"vehicle_type_id":"4","last_reported":1687561636,"current_range_meters":16400,"station_id":"ce4bh112rcd13ifvqda0","pricing_plan_id":"free"},{"bike_id":"2b089184-8519-46ff-b3dc-9fa555580fb3","system_id":"levelo_inurba_marseille","lat":43.30634,"lon":5.40093,"is_reserved":false,"is_disabled":false,"rental_uris":{"android":"levelo://app?vid=2b089184-8519-46ff-b3dc-9fa555580fb3","ios":"levelo://app?vid=2b089184-8519-46ff-b3dc-9fa555580fb3"},"vehicle_type_id":"4","last_reported":1687561636,"current_range_meters":4800,"station_id":"ce4bh112rcd13ifvqda0","pricing_plan_id":"free"},{"bike_id":"cd29b2d4-c29d-42d0-a7bf-bd45d448320d","system_id":"levelo_inurba_marseille","lat":43.301117,"lon":5.398795,"is_reserved":false,"is_disabled":false,"rental_uris":{"android":"levelo://app?vid=cd29b2d4-c29d-42d0-a7bf-bd45d448320d","ios":"levelo://app?vid=cd29b2d4-c29d-42d0-a7bf-bd45d448320d"},"vehicle_type_id":"4","last_reported":1687561636,"current_range_meters":4800,"station_id":"ce4bh0h2rcd13ifvqd40","pricing_plan_id":"free"},{"bike_id":"c3539e1e-86d3-4a23-b6cc-a394c8bc8fa2","system_id":"levelo_inurba_marseille","lat":43.30639,"lon":5.40097,"is_reserved":false,"is_disabled":false,"rental_uris":{"android":"levelo://app?vid=c3539e1e-86d3-4a23-b6cc-a394c8bc8fa2","ios":"levelo://app?vid=c3539e1e-86d3-4a23-b6cc-a394c8bc8fa2"},"vehicle_type_id":"4","last_reported":1687561636,"current_range_meters":8000,"station_id":"ce4bh112rcd13ifvqda0","pricing_plan_id":"free"},{"bike_id":"945d6ae9-0954-49d2-ad28-7fd6e48c6ae5","system_id":"levelo_inurba_marseille","lat":43.30641,"lon":5.401,"is_reserved":false,"is_disabled":false,"rental_uris":{"android":"levelo://app?vid=945d6ae9-0954-49d2-ad28-7fd6e48c6ae5","ios":"levelo://app?vid=945d6ae9-0954-49d2-ad28-7fd6e48c6ae5"},"vehicle_type_id":"4","last_reported":1687561636,"current_range_meters":0,"station_id":"ce4bh112rcd13ifvqda0","pricing_plan_id":"free"},{"bike_id":"6d731883-3848-40de-a4c9-90337586cbb2","system_id":"levelo_inurba_marseille","lat":43.30635,"lon":5.40103,"is_reserved":false,"is_disabled":false,"rental_uris":{"android":"levelo://app?vid=6d731883-3848-40de-a4c9-90337586cbb2","ios":"levelo://app?vid=6d731883-3848-40de-a4c9-90337586cbb2"},"vehicle_type_id":"4","last_reported":1687561636,"current_range_meters":4400,"station_id":"ce4bh112rcd13ifvqda0","pricing_plan_id":"free"},{"bike_id":"cf88557c-500a-4c98-91d9-a947496a2237","system_id":"levelo_inurba_marseille","lat":43.301117,"lon":5.398795,"is_reserved":false,"is_disabled":false,"rental_uris":{"android":"levelo://app?vid=cf88557c-500a-4c98-91d9-a947496a2237","ios":"levelo://app?vid=cf88557c-500a-4c98-91d9-a947496a2237"},"vehicle_type_id":"4","last_reported":1687561636,"current_range_meters":5600,"station_id":"ce4bh0h2rcd13ifvqd40","pricing_plan_id":"free"},{"bike_id":"c52d3fa4-3ba3-4e86-b12b-0322d0e86e9a","system_id":"levelo_inurba_marseille","lat":43.301117,"lon":5.398795,"is_reserved":false,"is_disabled":false,"rental_uris":{"android":"levelo://app?vid=c52d3fa4-3ba3-4e86-b12b-0322d0e86e9a","ios":"levelo://app?vid=c52d3fa4-3ba3-4e86-b12b-0322d0e86e9a"},"vehicle_type_id":"4","last_reported":1687561636,"current_range_meters":400,"station_id":"ce4bh0h2rcd13ifvqd40","pricing_plan_id":"free"},{"bike_id":"fe603e49-6043-4933-938b-8f044f555b1b","system_id":"levelo_inurba_marseille","lat":43.29879,"lon":5.39734,"is_reserved":false,"is_disabled":false,"rental_uris":{"android":"levelo://app?vid=fe603e49-6043-4933-938b-8f044f555b1b","ios":"levelo://app?vid=fe603e49-6043-4933-938b-8f044f555b1b"},"vehicle_type_id":"4","last_reported":1687561636,"current_range_meters":12400,"station_id":"ce4bh0h2rcd13ifvqd50","pricing_plan_id":"free"},{"bike_id":"dd53cf45-cf6e-4d79-afd0-090f84ac34a9","system_id":"levelo_inurba_marseille","lat":43.29865,"lon":5.39726,"is_reserved":false,"is_disabled":false,"rental_uris":{"android":"levelo://app?vid=dd53cf45-cf6e-4d79-afd0-090f84ac34a9","ios":"levelo://app?vid=dd53cf45-cf6e-4d79-afd0-090f84ac34a9"},"vehicle_type_id":"4","last_reported":1687561636,"current_range_meters":5600,"station_id":"ce4bh0h2rcd13ifvqd50","pricing_plan_id":"free"},{"bike_id":"1b8ed2c6-e563-4673-b306-172c7934e7dc","system_id":"levelo_inurba_marseille","lat":43.29881,"lon":5.39743,"is_reserved":false,"is_disabled":false,"rental_uris":{"android":"levelo://app?vid=1b8ed2c6-e563-4673-b306-172c7934e7dc","ios":"levelo://app?vid=1b8ed2c6-e563-4673-b306-172c7934e7dc"},"vehicle_type_id":"4","last_reported":1687561636,"current_range_meters":3200,"station_id":"ce4bh0h2rcd13ifvqd50","pricing_plan_id":"free"},{"bike_id":"f9eeaed1-b664-4978-b5f7-764c3b8d5308","system_id":"levelo_inurba_marseille","lat":43.286961,"lon":5.373785,"is_reserved":false,"is_disabled":false,"rental_uris":{"android":"levelo://app?vid=f9eeaed1-b664-4978-b5f7-764c3b8d5308","ios":"levelo://app?vid=f9eeaed1-b664-4978-b5f7-764c3b8d5308"},"vehicle_type_id":"4","last_reported":1687561636,"current_range_meters":30000,"station_id":"ce4bh3p2rcd13ifvqdq0","pricing_plan_id":"free"},{"bike_id":"d31d192e-da56-4517-a27c-9c1099ca0581","system_id":"levelo_inurba_marseille","lat":43.29871,"lon":5.39735,"is_reserved":false,"is_disabled":false,"rental_uris":{"android":"levelo://app?vid=d31d192e-da56-4517-a27c-9c1099ca0581","ios":"levelo://app?vid=d31d192e-da56-4517-a27c-9c1099ca0581"},"vehicle_type_id":"4","last_reported":1687561636,"current_range_meters":16800,"station_id":"ce4bh0h2rcd13ifvqd50","pricing_plan_id":"free"},{"bike_id":"1bd60595-0e88-4a89-87c6-988d868c311b","system_id":"levelo_inurba_marseille","lat":43.290345,"lon":5.38646,"is_reserved":false,"is_disabled":false,"rental_uris":{"android":"levelo://app?vid=1bd60595-0e88-4a89-87c6-988d868c311b","ios":"levelo://app?vid=1bd60595-0e88-4a89-87c6-988d868c311b"},"vehicle_type_id":"4","last_reported":1687561636,"current_range_meters":18800,"station_id":"ce4bh4p2rcd13ifvqe0g","pricing_plan_id":"free"},{"bike_id":"2a90bd62-2837-4c8e-acff-bb55e3bd51d0","system_id":"levelo_inurba_marseille","lat":43.28697,"lon":5.37385,"is_reserved":false,"is_disabled":false,"rental_uris":{"android":"levelo://app?vid=2a90bd62-2837-4c8e-acff-bb55e3bd51d0","ios":"levelo://app?vid=2a90bd62-2837-4c8e-acff-bb55e3bd51d0"},"vehicle_type_id":"4","last_reported":1687561636,"current_range_meters":15600,"station_id":"ce4bh3p2rcd13ifvqdq0","pricing_plan_id":"free"},{"bike_id":"248468bc-783b-4ff2-ae20-dd245b6803cc","system_id":"levelo_inurba_marseille","lat":43.286593,"lon":5.363346,"is_reserved":false,"is_disabled":false,"rental_uris":{"android":"levelo://app?vid=248468bc-783b-4ff2-ae20-dd245b6803cc","ios":"levelo://app?vid=248468bc-783b-4ff2-ae20-dd245b6803cc"},"vehicle_type_id":"4","last_reported":1687561636,"current_range_meters":6000,"station_id":"ce4bhah2rcd13ifvqej0","pricing_plan_id":"free"},{"bike_id":"3523935c-3d0e-412f-ab5a-0a2c2bf9abed","system_id":"levelo_inurba_marseille","lat":43.28759,"lon":5.3774,"is_reserved":false,"is_disabled":false,"rental_uris":{"android":"levelo://app?vid=3523935c-3d0e-412f-ab5a-0a2c2bf9abed","ios":"levelo://app?vid=3523935c-3d0e-412f-ab5a-0a2c2bf9abed"},"vehicle_type_id":"4","last_reported":1687561636,"current_range_meters":30000,"station_id":"ce4bh3p2rcd13ifvqdq0","pricing_plan_id":"free"},{"bike_id":"713ac09b-da48-446c-94cd-fcd65e9a175d","system_id":"levelo_inurba_marseille","lat":43.302759,"lon":5.400793,"is_reserved":false,"is_disabled":false,"rental_uris":{"android":"levelo://app?vid=713ac09b-da48-446c-94cd-fcd65e9a175d","ios":"levelo://app?vid=713ac09b-da48-446c-94cd-fcd65e9a175d"},"vehicle_type_id":"4","last_reported":1687561636,"current_range_meters":14800,"station_id":"ce4bgvh2rcd13ifvqcs0","pricing_plan_id":"free"},{"bike_id":"8f8a9ba5-bb84-4ef1-afb4-58a139b53d9d","system_id":"levelo_inurba_marseille","lat":43.302759,"lon":5.400793,"is_reserved":false,"is_disabled":false,"rental_uris":{"android":"levelo://app?vid=8f8a9ba5-bb84-4ef1-afb4-58a139b53d9d","ios":"levelo://app?vid=8f8a9ba5-bb84-4ef1-afb4-58a139b53d9d"},"vehicle_type_id":"4","last_reported":1687561636,"current_range_meters":6000,"station_id":"ce4bgvh2rcd13ifvqcs0","pricing_plan_id":"free"},{"bike_id":"9270cec9-5b0f-432c-bbd8-16170a7e2cf8","system_id":"levelo_inurba_marseille","lat":43.30233,"lon":5.40049,"is_reserved":false,"is_disabled":false,"rental_uris":{"android":"levelo://app?vid=9270cec9-5b0f-432c-bbd8-16170a7e2cf8","ios":"levelo://app?vid=9270cec9-5b0f-432c-bbd8-16170a7e2cf8"},"vehicle_type_id":"4","last_reported":1687561636,"current_range_meters":800,"station_id":"","pricing_plan_id":"free"},{"bike_id":"7d0e2908-97cb-48c9-aaf2-c36d1753d5b0","system_id":"levelo_inurba_marseille","lat":43.302759,"lon":5.400793,"is_reserved":false,"is_disabled":false,"rental_uris":{"android":"levelo://app?vid=7d0e2908-97cb-48c9-aaf2-c36d1753d5b0","ios":"levelo://app?vid=7d0e2908-97cb-48c9-aaf2-c36d1753d5b0"},"vehicle_type_id":"4","last_reported":1687561636,"current_range_meters":3600,"station_id":"ce4bgvh2rcd13ifvqcs0","pricing_plan_id":"free"},{"bike_id":"d99f696d-2919-4bd5-8a7a-538cc1628e62","system_id":"levelo_inurba_marseille","lat":43.302759,"lon":5.400793,"is_reserved":false,"is_disabled":false,"rental_uris":{"android":"levelo://app?vid=d99f696d-2919-4bd5-8a7a-538cc1628e62","ios":"levelo://app?vid=d99f696d-2919-4bd5-8a7a-538cc1628e62"},"vehicle_type_id":"4","last_reported":1687561636,"current_range_meters":0,"station_id":"ce4bgvh2rcd13ifvqcs0","pricing_plan_id":"free"},{"bike_id":"ef038b54-6611-44c0-9971-0a8cb0072f04","system_id":"levelo_inurba_marseille","lat":43.302759,"lon":5.400793,"is_reserved":false,"is_disabled":false,"rental_uris":{"android":"levelo://app?vid=ef038b54-6611-44c0-9971-0a8cb0072f04","ios":"levelo://app?vid=ef038b54-6611-44c0-9971-0a8cb0072f04"},"vehicle_type_id":"4","last_reported":1687561636,"current_range_meters":12000,"station_id":"ce4bgvh2rcd13ifvqcs0","pricing_plan_id":"free"},{"bike_id":"d821c382-c6ed-4b88-9e34-91820b52a21a","system_id":"levelo_inurba_marseille","lat":43.28607,"lon":5.37063,"is_reserved":false,"is_disabled":false,"rental_uris":{"android":"levelo://app?vid=d821c382-c6ed-4b88-9e34-91820b52a21a","ios":"levelo://app?vid=d821c382-c6ed-4b88-9e34-91820b52a21a"},"vehicle_type_id":"4","last_reported":1687561636,"current_range_meters":16400,"station_id":"ce4bht12rcd13ifvqi60","pricing_plan_id":"free"},{"bike_id":"2b5519cd-9991-4821-ba5e-421ff5e8bb06","system_id":"levelo_inurba_marseille","lat":43.28734,"lon":5.37915,"is_reserved":false,"is_disabled":false,"rental_uris":{"android":"levelo://app?vid=2b5519cd-9991-4821-ba5e-421ff5e8bb06","ios":"levelo://app?vid=2b5519cd-9991-4821-ba5e-421ff5e8bb06"},"vehicle_type_id":"4","last_reported":1687561636,"current_range_meters":21200,"station_id":"ce4bh9p2rcd13ifvqec0","pricing_plan_id":"free"},{"bike_id":"1a6f1f97-1fc0-4295-8b04-000e13ba88c0","system_id":"levelo_inurba_marseille","lat":43.287184,"lon":5.37937,"is_reserved":false,"is_disabled":false,"rental_uris":{"android":"levelo://app?vid=1a6f1f97-1fc0-4295-8b04-000e13ba88c0","ios":"levelo://app?vid=1a6f1f97-1fc0-4295-8b04-000e13ba88c0"},"vehicle_type_id":"4","last_reported":1687561636,"current_range_meters":4000,"station_id":"ce4bh9p2rcd13ifvqec0","pricing_plan_id":"free"},{"bike_id":"2a12cd1d-3de4-451a-9276-7cad76322116","system_id":"levelo_inurba_marseille","lat":43.287184,"lon":5.37937,"is_reserved":false,"is_disabled":false,"rental_uris":{"android":"levelo://app?vid=2a12cd1d-3de4-451a-9276-7cad76322116","ios":"levelo://app?vid=2a12cd1d-3de4-451a-9276-7cad76322116"},"vehicle_type_id":"4","last_reported":1687561636,"current_range_meters":25600,"station_id":"ce4bh9p2rcd13ifvqec0","pricing_plan_id":"free"},{"bike_id":"778b0f94-9bda-49c4-aa2b-f9e88ac9ae74","system_id":"levelo_inurba_marseille","lat":43.287184,"lon":5.37937,"is_reserved":false,"is_disabled":false,"rental_uris":{"android":"levelo://app?vid=778b0f94-9bda-49c4-aa2b-f9e88ac9ae74","ios":"levelo://app?vid=778b0f94-9bda-49c4-aa2b-f9e88ac9ae74"},"vehicle_type_id":"4","last_reported":1687561636,"current_range_meters":28800,"station_id":"ce4bh9p2rcd13ifvqec0","pricing_plan_id":"free"},{"bike_id":"3fd3f23d-1458-4120-8fbb-748677523393","system_id":"levelo_inurba_marseille","lat":43.287184,"lon":5.37937,"is_reserved":false,"is_disabled":false,"rental_uris":{"android":"levelo://app?vid=3fd3f23d-1458-4120-8fbb-748677523393","ios":"levelo://app?vid=3fd3f23d-1458-4120-8fbb-748677523393"},"vehicle_type_id":"4","last_reported":1687561636,"current_range_meters":12800,"station_id":"ce4bh9p2rcd13ifvqec0","pricing_plan_id":"free"},{"bike_id":"b946f9df-c663-48fa-907b-d419086985fe","system_id":"levelo_inurba_marseille","lat":43.31646,"lon":5.40433,"is_reserved":false,"is_disabled":false,"rental_uris":{"android":"levelo://app?vid=b946f9df-c663-48fa-907b-d419086985fe","ios":"levelo://app?vid=b946f9df-c663-48fa-907b-d419086985fe"},"vehicle_type_id":"4","last_reported":1687561636,"current_range_meters":19200,"station_id":"","pricing_plan_id":"free"},{"bike_id":"7ff0394d-f958-44b6-9037-68a6ba6907f8","system_id":"levelo_inurba_marseille","lat":43.31648,"lon":5.40439,"is_reserved":false,"is_disabled":false,"rental_uris":{"android":"levelo://app?vid=7ff0394d-f958-44b6-9037-68a6ba6907f8","ios":"levelo://app?vid=7ff0394d-f958-44b6-9037-68a6ba6907f8"},"vehicle_type_id":"4","last_reported":1687561636,"current_range_meters":31200,"station_id":"","pricing_plan_id":"free"},{"bike_id":"5c2055f6-43af-42f5-9106-4fb329f7a3c9","system_id":"levelo_inurba_marseille","lat":43.316517,"lon":5.404375,"is_reserved":false,"is_disabled":false,"rental_uris":{"android":"levelo://app?vid=5c2055f6-43af-42f5-9106-4fb329f7a3c9","ios":"levelo://app?vid=5c2055f6-43af-42f5-9106-4fb329f7a3c9"},"vehicle_type_id":"4","last_reported":1687561636,"current_range_meters":31200,"station_id":"ce4bh012rcd13ifvqd00","pricing_plan_id":"free"},{"bike_id":"2f58ac9e-14d9-418b-ab79-e67d74499c46","system_id":"levelo_inurba_marseille","lat":43.284534,"lon":5.358662,"is_reserved":false,"is_disabled":false,"rental_uris":{"android":"levelo://app?vid=2f58ac9e-14d9-418b-ab79-e67d74499c46","ios":"levelo://app?vid=2f58ac9e-14d9-418b-ab79-e67d74499c46"},"vehicle_type_id":"4","last_reported":1687561636,"current_range_meters":28000,"station_id":"ce4bhah2rcd13ifvqei0","pricing_plan_id":"free"},{"bike_id":"51159607-4c0c-4830-8d67-ad78595ef434","system_id":"levelo_inurba_marseille","lat":43.294314,"lon":5.397498,"is_reserved":false,"is_disabled":false,"rental_uris":{"android":"levelo://app?vid=51159607-4c0c-4830-8d67-ad78595ef434","ios":"levelo://app?vid=51159607-4c0c-4830-8d67-ad78595ef434"},"vehicle_type_id":"4","last_reported":1687561636,"current_range_meters":28000,"station_id":"ce4bh3h2rcd13ifvqdo0","pricing_plan_id":"free"},{"bike_id":"28fbafb9-ecfd-4b1e-972c-2924ae277716","system_id":"levelo_inurba_marseille","lat":43.28459,"lon":5.35889,"is_reserved":false,"is_disabled":false,"rental_uris":{"android":"levelo://app?vid=28fbafb9-ecfd-4b1e-972c-2924ae277716","ios":"levelo://app?vid=28fbafb9-ecfd-4b1e-972c-2924ae277716"},"vehicle_type_id":"4","last_reported":1687561636,"current_range_meters":0,"station_id":"ce4bhah2rcd13ifvqei0","pricing_plan_id":"free"},{"bike_id":"faba7df5-379b-47e0-810c-64f2c25ef057","system_id":"levelo_inurba_marseille","lat":43.284534,"lon":5.358662,"is_reserved":false,"is_disabled":false,"rental_uris":{"android":"levelo://app?vid=faba7df5-379b-47e0-810c-64f2c25ef057","ios":"levelo://app?vid=faba7df5-379b-47e0-810c-64f2c25ef057"},"vehicle_type_id":"4","last_reported":1687561636,"current_range_meters":23200,"station_id":"ce4bhah2rcd13ifvqei0","pricing_plan_id":"free"},{"bike_id":"2c53c751-eb43-4f91-a96b-f5ce1e94c223","system_id":"levelo_inurba_marseille","lat":43.284534,"lon":5.358662,"is_reserved":false,"is_disabled":false,"rental_uris":{"android":"levelo://app?vid=2c53c751-eb43-4f91-a96b-f5ce1e94c223","ios":"levelo://app?vid=2c53c751-eb43-4f91-a96b-f5ce1e94c223"},"vehicle_type_id":"4","last_reported":1687561636,"current_range_meters":5600,"station_id":"ce4bhah2rcd13ifvqei0","pricing_plan_id":"free"},{"bike_id":"2c7db8e4-512f-47a4-b9d1-c15b0f556d7e","system_id":"levelo_inurba_marseille","lat":43.294314,"lon":5.397498,"is_reserved":false,"is_disabled":false,"rental_uris":{"android":"levelo://app?vid=2c7db8e4-512f-47a4-b9d1-c15b0f556d7e","ios":"levelo://app?vid=2c7db8e4-512f-47a4-b9d1-c15b0f556d7e"},"vehicle_type_id":"4","last_reported":1687561636,"current_range_meters":15600,"station_id":"ce4bh3h2rcd13ifvqdo0","pricing_plan_id":"free"},{"bike_id":"1797aa7f-2084-425f-9e0b-55e5db8e64db","system_id":"levelo_inurba_marseille","lat":43.284534,"lon":5.358662,"is_reserved":false,"is_disabled":false,"rental_uris":{"android":"levelo://app?vid=1797aa7f-2084-425f-9e0b-55e5db8e64db","ios":"levelo://app?vid=1797aa7f-2084-425f-9e0b-55e5db8e64db"},"vehicle_type_id":"4","last_reported":1687561636,"current_range_meters":7200,"station_id":"ce4bhah2rcd13ifvqei0","pricing_plan_id":"free"},{"bike_id":"55c6bb61-fd96-4c5e-962e-307d1b077768","system_id":"levelo_inurba_marseille","lat":43.294314,"lon":5.397498,"is_reserved":false,"is_disabled":false,"rental_uris":{"android":"levelo://app?vid=55c6bb61-fd96-4c5e-962e-307d1b077768","ios":"levelo://app?vid=55c6bb61-fd96-4c5e-962e-307d1b077768"},"vehicle_type_id":"4","last_reported":1687561636,"current_range_meters":31200,"station_id":"ce4bh3h2rcd13ifvqdo0","pricing_plan_id":"free"},{"bike_id":"85ec3829-1d15-4fe8-971b-967d1d08f88e","system_id":"levelo_inurba_marseille","lat":43.285848,"lon":5.350787,"is_reserved":false,"is_disabled":false,"rental_uris":{"android":"levelo://app?vid=85ec3829-1d15-4fe8-971b-967d1d08f88e","ios":"levelo://app?vid=85ec3829-1d15-4fe8-971b-967d1d08f88e"},"vehicle_type_id":"4","last_reported":1687561636,"current_range_meters":4000,"station_id":"ce4bhch2rcd13ifvqeug","pricing_plan_id":"free"},{"bike_id":"539dc84e-677a-4bf1-8177-2c4c4bc9420f","system_id":"levelo_inurba_marseille","lat":43.285848,"lon":5.350787,"is_reserved":false,"is_disabled":false,"rental_uris":{"android":"levelo://app?vid=539dc84e-677a-4bf1-8177-2c4c4bc9420f","ios":"levelo://app?vid=539dc84e-677a-4bf1-8177-2c4c4bc9420f"},"vehicle_type_id":"4","last_reported":1687561636,"current_range_meters":29600,"station_id":"ce4bhch2rcd13ifvqeug","pricing_plan_id":"free"},{"bike_id":"924ba7b2-ca84-4390-97c0-2b215c76a8c3","system_id":"levelo_inurba_marseille","lat":43.283998,"lon":5.375062,"is_reserved":false,"is_disabled":false,"rental_uris":{"android":"levelo://app?vid=924ba7b2-ca84-4390-97c0-2b215c76a8c3","ios":"levelo://app?vid=924ba7b2-ca84-4390-97c0-2b215c76a8c3"},"vehicle_type_id":"4","last_reported":1687561636,"current_range_meters":400,"station_id":"ce4bh412rcd13ifvqds0","pricing_plan_id":"free"},{"bike_id":"790b9b69-1801-4a65-805d-cda7d5a771c1","system_id":"levelo_inurba_marseille","lat":43.295713,"lon":5.399639,"is_reserved":false,"is_disabled":false,"rental_uris":{"android":"levelo://app?vid=790b9b69-1801-4a65-805d-cda7d5a771c1","ios":"levelo://app?vid=790b9b69-1801-4a65-805d-cda7d5a771c1"},"vehicle_type_id":"4","last_reported":1687561636,"current_range_meters":6000,"station_id":"ce4bh312rcd13ifvqdj0","pricing_plan_id":"free"},{"bike_id":"257a43dd-b646-4e87-b14d-0817efa43f8a","system_id":"levelo_inurba_marseille","lat":43.295713,"lon":5.399639,"is_reserved":false,"is_disabled":false,"rental_uris":{"android":"levelo://app?vid=257a43dd-b646-4e87-b14d-0817efa43f8a","ios":"levelo://app?vid=257a43dd-b646-4e87-b14d-0817efa43f8a"},"vehicle_type_id":"4","last_reported":1687561636,"current_range_meters":800,"station_id":"ce4bh312rcd13ifvqdj0","pricing_plan_id":"free"},{"bike_id":"99359303-263f-4858-9567-dda5525f3cfc","system_id":"levelo_inurba_marseille","lat":43.283998,"lon":5.375062,"is_reserved":false,"is_disabled":false,"rental_uris":{"android":"levelo://app?vid=99359303-263f-4858-9567-dda5525f3cfc","ios":"levelo://app?vid=99359303-263f-4858-9567-dda5525f3cfc"},"vehicle_type_id":"4","last_reported":1687561636,"current_range_meters":12000,"station_id":"ce4bh412rcd13ifvqds0","pricing_plan_id":"free"},{"bike_id":"9845f45d-195f-4672-82e6-ede5b63da1ca","system_id":"levelo_inurba_marseille","lat":43.283998,"lon":5.375062,"is_reserved":false,"is_disabled":false,"rental_uris":{"android":"levelo://app?vid=9845f45d-195f-4672-82e6-ede5b63da1ca","ios":"levelo://app?vid=9845f45d-195f-4672-82e6-ede5b63da1ca"},"vehicle_type_id":"4","last_reported":1687561636,"current_range_meters":0,"station_id":"ce4bh412rcd13ifvqds0","pricing_plan_id":"free"},{"bike_id":"75932cc8-8b0b-414a-bed2-1e8dcae26992","system_id":"levelo_inurba_marseille","lat":43.295713,"lon":5.399639,"is_reserved":false,"is_disabled":false,"rental_uris":{"android":"levelo://app?vid=75932cc8-8b0b-414a-bed2-1e8dcae26992","ios":"levelo://app?vid=75932cc8-8b0b-414a-bed2-1e8dcae26992"},"vehicle_type_id":"4","last_reported":1687561636,"current_range_meters":3600,"station_id":"ce4bh312rcd13ifvqdj0","pricing_plan_id":"free"},{"bike_id":"c41269c8-e43a-44da-9a75-dcd0cf9598dc","system_id":"levelo_inurba_marseille","lat":43.28679,"lon":5.3866,"is_reserved":false,"is_disabled":false,"rental_uris":{"android":"levelo://app?vid=c41269c8-e43a-44da-9a75-dcd0cf9598dc","ios":"levelo://app?vid=c41269c8-e43a-44da-9a75-dcd0cf9598dc"},"vehicle_type_id":"4","last_reported":1687561636,"current_range_meters":23200,"station_id":"ce4bh492rcd13ifvqdug","pricing_plan_id":"free"},{"bike_id":"e0038a5f-a085-4a50-a74a-34664565c6e3","system_id":"levelo_inurba_marseille","lat":43.28684,"lon":5.38675,"is_reserved":false,"is_disabled":false,"rental_uris":{"android":"levelo://app?vid=e0038a5f-a085-4a50-a74a-34664565c6e3","ios":"levelo://app?vid=e0038a5f-a085-4a50-a74a-34664565c6e3"},"vehicle_type_id":"4","last_reported":1687561636,"current_range_meters":9600,"station_id":"ce4bh492rcd13ifvqdug","pricing_plan_id":"free"},{"bike_id":"6e50af9a-dfd2-4307-ab92-dddac417199e","system_id":"levelo_inurba_marseille","lat":43.295713,"lon":5.399639,"is_reserved":false,"is_disabled":false,"rental_uris":{"android":"levelo://app?vid=6e50af9a-dfd2-4307-ab92-dddac417199e","ios":"levelo://app?vid=6e50af9a-dfd2-4307-ab92-dddac417199e"},"vehicle_type_id":"4","last_reported":1687561636,"current_range_meters":24800,"station_id":"ce4bh312rcd13ifvqdj0","pricing_plan_id":"free"},{"bike_id":"1ec4830f-fce5-4169-8f44-16bdcd98cdc0","system_id":"levelo_inurba_marseille","lat":43.2866,"lon":5.38665,"is_reserved":false,"is_disabled":false,"rental_uris":{"android":"levelo://app?vid=1ec4830f-fce5-4169-8f44-16bdcd98cdc0","ios":"levelo://app?vid=1ec4830f-fce5-4169-8f44-16bdcd98cdc0"},"vehicle_type_id":"4","last_reported":1687561636,"current_range_meters":1200,"station_id":"ce4bh492rcd13ifvqdug","pricing_plan_id":"free"},{"bike_id":"79bb1625-a9a6-4c96-8f5f-eafa2972e33a","system_id":"levelo_inurba_marseille","lat":43.286557,"lon":5.38661,"is_reserved":false,"is_disabled":false,"rental_uris":{"android":"levelo://app?vid=79bb1625-a9a6-4c96-8f5f-eafa2972e33a","ios":"levelo://app?vid=79bb1625-a9a6-4c96-8f5f-eafa2972e33a"},"vehicle_type_id":"4","last_reported":1687561636,"current_range_meters":16000,"station_id":"","pricing_plan_id":"free"},{"bike_id":"4a2ae629-6af2-42b8-bb70-5f5dab067d1c","system_id":"levelo_inurba_marseille","lat":43.28653,"lon":5.3866,"is_reserved":false,"is_disabled":false,"rental_uris":{"android":"levelo://app?vid=4a2ae629-6af2-42b8-bb70-5f5dab067d1c","ios":"levelo://app?vid=4a2ae629-6af2-42b8-bb70-5f5dab067d1c"},"vehicle_type_id":"4","last_reported":1687561636,"current_range_meters":22400,"station_id":"ce4bh492rcd13ifvqdug","pricing_plan_id":"free"},{"bike_id":"0b874ab5-92ca-40e0-9101-90875cd61d5b","system_id":"levelo_inurba_marseille","lat":43.2866,"lon":5.38692,"is_reserved":false,"is_disabled":false,"rental_uris":{"android":"levelo://app?vid=0b874ab5-92ca-40e0-9101-90875cd61d5b","ios":"levelo://app?vid=0b874ab5-92ca-40e0-9101-90875cd61d5b"},"vehicle_type_id":"4","last_reported":1687561636,"current_range_meters":6800,"station_id":"ce4bh492rcd13ifvqdug","pricing_plan_id":"free"},{"bike_id":"11342d7d-dfe8-4da4-8ba1-fa20c4460f51","system_id":"levelo_inurba_marseille","lat":43.3232,"lon":5.40613,"is_reserved":false,"is_disabled":false,"rental_uris":{"android":"levelo://app?vid=11342d7d-dfe8-4da4-8ba1-fa20c4460f51","ios":"levelo://app?vid=11342d7d-dfe8-4da4-8ba1-fa20c4460f51"},"vehicle_type_id":"4","last_reported":1687561636,"current_range_meters":0,"station_id":"ce4bhq92rcd13ifvqhjg","pricing_plan_id":"free"},{"bike_id":"9cae825f-ce49-4976-9212-5608954cbbcd","system_id":"levelo_inurba_marseille","lat":43.323464,"lon":5.406297,"is_reserved":false,"is_disabled":false,"rental_uris":{"android":"levelo://app?vid=9cae825f-ce49-4976-9212-5608954cbbcd","ios":"levelo://app?vid=9cae825f-ce49-4976-9212-5608954cbbcd"},"vehicle_type_id":"4","last_reported":1687561636,"current_range_meters":31200,"station_id":"ce4bhq92rcd13ifvqhjg","pricing_plan_id":"free"},{"bike_id":"8d1b5aae-fd4d-4853-83ef-709beadefdc6","system_id":"levelo_inurba_marseille","lat":43.32323,"lon":5.40614,"is_reserved":false,"is_disabled":false,"rental_uris":{"android":"levelo://app?vid=8d1b5aae-fd4d-4853-83ef-709beadefdc6","ios":"levelo://app?vid=8d1b5aae-fd4d-4853-83ef-709beadefdc6"},"vehicle_type_id":"4","last_reported":1687561636,"current_range_meters":21200,"station_id":"ce4bhq92rcd13ifvqhjg","pricing_plan_id":"free"},{"bike_id":"c8a88ad3-79ac-43b0-8ce6-1524daccaf93","system_id":"levelo_inurba_marseille","lat":43.32327,"lon":5.40615,"is_reserved":false,"is_disabled":false,"rental_uris":{"android":"levelo://app?vid=c8a88ad3-79ac-43b0-8ce6-1524daccaf93","ios":"levelo://app?vid=c8a88ad3-79ac-43b0-8ce6-1524daccaf93"},"vehicle_type_id":"4","last_reported":1687561636,"current_range_meters":18800,"station_id":"ce4bhq92rcd13ifvqhjg","pricing_plan_id":"free"},{"bike_id":"e5991cd3-2cf9-4db6-99a8-0214cfe2d20c","system_id":"levelo_inurba_marseille","lat":43.32328,"lon":5.40617,"is_reserved":false,"is_disabled":false,"rental_uris":{"android":"levelo://app?vid=e5991cd3-2cf9-4db6-99a8-0214cfe2d20c","ios":"levelo://app?vid=e5991cd3-2cf9-4db6-99a8-0214cfe2d20c"},"vehicle_type_id":"4","last_reported":1687561636,"current_range_meters":2000,"station_id":"ce4bhq92rcd13ifvqhjg","pricing_plan_id":"free"},{"bike_id":"c2e0f10b-6e4e-4cf9-b8dd-4d890db279aa","system_id":"levelo_inurba_marseille","lat":43.3233,"lon":5.40616,"is_reserved":false,"is_disabled":false,"rental_uris":{"android":"levelo://app?vid=c2e0f10b-6e4e-4cf9-b8dd-4d890db279aa","ios":"levelo://app?vid=c2e0f10b-6e4e-4cf9-b8dd-4d890db279aa"},"vehicle_type_id":"4","last_reported":1687561636,"current_range_meters":6800,"station_id":"ce4bhq92rcd13ifvqhjg","pricing_plan_id":"free"},{"bike_id":"75b81fdb-a7b4-4460-a538-12c0506d599b","system_id":"levelo_inurba_marseille","lat":43.323464,"lon":5.406297,"is_reserved":false,"is_disabled":false,"rental_uris":{"android":"levelo://app?vid=75b81fdb-a7b4-4460-a538-12c0506d599b","ios":"levelo://app?vid=75b81fdb-a7b4-4460-a538-12c0506d599b"},"vehicle_type_id":"4","last_reported":1687561636,"current_range_meters":15200,"station_id":"ce4bhq92rcd13ifvqhjg","pricing_plan_id":"free"},{"bike_id":"00803c85-75e3-424e-a0cb-c6ed39a02c23","system_id":"levelo_inurba_marseille","lat":43.323464,"lon":5.406297,"is_reserved":false,"is_disabled":false,"rental_uris":{"android":"levelo://app?vid=00803c85-75e3-424e-a0cb-c6ed39a02c23","ios":"levelo://app?vid=00803c85-75e3-424e-a0cb-c6ed39a02c23"},"vehicle_type_id":"4","last_reported":1687561636,"current_range_meters":20000,"station_id":"ce4bhq92rcd13ifvqhjg","pricing_plan_id":"free"},{"bike_id":"2a2f252d-d96d-4440-a4a3-43fbbf49969d","system_id":"levelo_inurba_marseille","lat":43.32327,"lon":5.40621,"is_reserved":false,"is_disabled":false,"rental_uris":{"android":"levelo://app?vid=2a2f252d-d96d-4440-a4a3-43fbbf49969d","ios":"levelo://app?vid=2a2f252d-d96d-4440-a4a3-43fbbf49969d"},"vehicle_type_id":"4","last_reported":1687561636,"current_range_meters":8400,"station_id":"ce4bhq92rcd13ifvqhjg","pricing_plan_id":"free"},{"bike_id":"8d1f88b2-a260-40c1-9cbd-c5c8b2bfd015","system_id":"levelo_inurba_marseille","lat":43.32332,"lon":5.40627,"is_reserved":false,"is_disabled":false,"rental_uris":{"android":"levelo://app?vid=8d1f88b2-a260-40c1-9cbd-c5c8b2bfd015","ios":"levelo://app?vid=8d1f88b2-a260-40c1-9cbd-c5c8b2bfd015"},"vehicle_type_id":"4","last_reported":1687561636,"current_range_meters":13600,"station_id":"ce4bhq92rcd13ifvqhjg","pricing_plan_id":"free"},{"bike_id":"a54c5183-d12c-4b5d-b1a7-e6c2a62eb9b5","system_id":"levelo_inurba_marseille","lat":43.32345,"lon":5.40629,"is_reserved":false,"is_disabled":false,"rental_uris":{"android":"levelo://app?vid=a54c5183-d12c-4b5d-b1a7-e6c2a62eb9b5","ios":"levelo://app?vid=a54c5183-d12c-4b5d-b1a7-e6c2a62eb9b5"},"vehicle_type_id":"4","last_reported":1687561636,"current_range_meters":21200,"station_id":"ce4bhq92rcd13ifvqhjg","pricing_plan_id":"free"},{"bike_id":"51675d20-86aa-4bcf-8b7d-f2ff75dced26","system_id":"levelo_inurba_marseille","lat":43.284793,"lon":5.384113,"is_reserved":false,"is_disabled":false,"rental_uris":{"android":"levelo://app?vid=51675d20-86aa-4bcf-8b7d-f2ff75dced26","ios":"levelo://app?vid=51675d20-86aa-4bcf-8b7d-f2ff75dced26"},"vehicle_type_id":"4","last_reported":1687561636,"current_range_meters":2800,"station_id":"ce4bh512rcd13ifvqe3g","pricing_plan_id":"free"},{"bike_id":"28ccef53-7e4c-43db-b2e9-95e3951ac950","system_id":"levelo_inurba_marseille","lat":43.284793,"lon":5.384113,"is_reserved":false,"is_disabled":false,"rental_uris":{"android":"levelo://app?vid=28ccef53-7e4c-43db-b2e9-95e3951ac950","ios":"levelo://app?vid=28ccef53-7e4c-43db-b2e9-95e3951ac950"},"vehicle_type_id":"4","last_reported":1687561636,"current_range_meters":3200,"station_id":"ce4bh512rcd13ifvqe3g","pricing_plan_id":"free"},{"bike_id":"548aca87-dbe5-483a-b0e5-2ce23a277764","system_id":"levelo_inurba_marseille","lat":43.28476,"lon":5.3841,"is_reserved":false,"is_disabled":false,"rental_uris":{"android":"levelo://app?vid=548aca87-dbe5-483a-b0e5-2ce23a277764","ios":"levelo://app?vid=548aca87-dbe5-483a-b0e5-2ce23a277764"},"vehicle_type_id":"4","last_reported":1687561636,"current_range_meters":14400,"station_id":"ce4bh512rcd13ifvqe3g","pricing_plan_id":"free"},{"bike_id":"1329274e-bc36-44e0-8172-f54fca5c4b18","system_id":"levelo_inurba_marseille","lat":43.284787,"lon":5.384116,"is_reserved":false,"is_disabled":false,"rental_uris":{"android":"levelo://app?vid=1329274e-bc36-44e0-8172-f54fca5c4b18","ios":"levelo://app?vid=1329274e-bc36-44e0-8172-f54fca5c4b18"},"vehicle_type_id":"4","last_reported":1687561636,"current_range_meters":0,"station_id":"ce4bh512rcd13ifvqe3g","pricing_plan_id":"free"},{"bike_id":"b9e1d928-1a0c-4fc6-8f6a-17d693a3c2cf","system_id":"levelo_inurba_marseille","lat":43.284787,"lon":5.384116,"is_reserved":false,"is_disabled":false,"rental_uris":{"android":"levelo://app?vid=b9e1d928-1a0c-4fc6-8f6a-17d693a3c2cf","ios":"levelo://app?vid=b9e1d928-1a0c-4fc6-8f6a-17d693a3c2cf"},"vehicle_type_id":"4","last_reported":1687561636,"current_range_meters":12000,"station_id":"ce4bh512rcd13ifvqe3g","pricing_plan_id":"free"},{"bike_id":"ac28c6f0-9b2a-4838-8618-f87df0b26bb2","system_id":"levelo_inurba_marseille","lat":43.28467,"lon":5.38419,"is_reserved":false,"is_disabled":false,"rental_uris":{"android":"levelo://app?vid=ac28c6f0-9b2a-4838-8618-f87df0b26bb2","ios":"levelo://app?vid=ac28c6f0-9b2a-4838-8618-f87df0b26bb2"},"vehicle_type_id":"4","last_reported":1687561636,"current_range_meters":14000,"station_id":"ce4bh512rcd13ifvqe3g","pricing_plan_id":"free"},{"bike_id":"e9bb34fa-f29b-4419-a7d6-dd07a0c9a7bf","system_id":"levelo_inurba_marseille","lat":43.30688,"lon":5.40843,"is_reserved":false,"is_disabled":false,"rental_uris":{"android":"levelo://app?vid=e9bb34fa-f29b-4419-a7d6-dd07a0c9a7bf","ios":"levelo://app?vid=e9bb34fa-f29b-4419-a7d6-dd07a0c9a7bf"},"vehicle_type_id":"4","last_reported":1687561636,"current_range_meters":800,"station_id":"","pricing_plan_id":"free"},{"bike_id":"fe1f39ee-1f5f-4fee-bf72-ec5ff6851e86","system_id":"levelo_inurba_marseille","lat":43.3224,"lon":5.40709,"is_reserved":false,"is_disabled":false,"rental_uris":{"android":"levelo://app?vid=fe1f39ee-1f5f-4fee-bf72-ec5ff6851e86","ios":"levelo://app?vid=fe1f39ee-1f5f-4fee-bf72-ec5ff6851e86"},"vehicle_type_id":"4","last_reported":1687561636,"current_range_meters":4800,"station_id":"","pricing_plan_id":"free"},{"bike_id":"b4c950db-352f-4a1a-8e3c-c05101a6dad0","system_id":"levelo_inurba_marseille","lat":43.288497,"lon":5.393089,"is_reserved":false,"is_disabled":false,"rental_uris":{"android":"levelo://app?vid=b4c950db-352f-4a1a-8e3c-c05101a6dad0","ios":"levelo://app?vid=b4c950db-352f-4a1a-8e3c-c05101a6dad0"},"vehicle_type_id":"4","last_reported":1687561636,"current_range_meters":31200,"station_id":"ce4bh2p2rcd13ifvqdi0","pricing_plan_id":"free"},{"bike_id":"36c72736-b80f-4f9a-b61a-19459d1d5e5d","system_id":"levelo_inurba_marseille","lat":43.283498,"lon":5.380948,"is_reserved":false,"is_disabled":false,"rental_uris":{"android":"levelo://app?vid=36c72736-b80f-4f9a-b61a-19459d1d5e5d","ios":"levelo://app?vid=36c72736-b80f-4f9a-b61a-19459d1d5e5d"},"vehicle_type_id":"4","last_reported":1687561636,"current_range_meters":14800,"station_id":"ce4bh412rcd13ifvqdr0","pricing_plan_id":"free"},{"bike_id":"2f402fba-f854-45e6-9c16-7ff84ff2b9a1","system_id":"levelo_inurba_marseille","lat":43.283498,"lon":5.380948,"is_reserved":false,"is_disabled":false,"rental_uris":{"android":"levelo://app?vid=2f402fba-f854-45e6-9c16-7ff84ff2b9a1","ios":"levelo://app?vid=2f402fba-f854-45e6-9c16-7ff84ff2b9a1"},"vehicle_type_id":"4","last_reported":1687561636,"current_range_meters":29600,"station_id":"ce4bh412rcd13ifvqdr0","pricing_plan_id":"free"},{"bike_id":"cb1ef563-85dd-4383-81c9-563f3cee6d56","system_id":"levelo_inurba_marseille","lat":43.283494,"lon":5.380945,"is_reserved":false,"is_disabled":false,"rental_uris":{"android":"levelo://app?vid=cb1ef563-85dd-4383-81c9-563f3cee6d56","ios":"levelo://app?vid=cb1ef563-85dd-4383-81c9-563f3cee6d56"},"vehicle_type_id":"4","last_reported":1687561636,"current_range_meters":17600,"station_id":"ce4bh412rcd13ifvqdr0","pricing_plan_id":"free"},{"bike_id":"036d12c3-91f9-4674-bd76-5d05aff84204","system_id":"levelo_inurba_marseille","lat":43.289363,"lon":5.396322,"is_reserved":false,"is_disabled":false,"rental_uris":{"android":"levelo://app?vid=036d12c3-91f9-4674-bd76-5d05aff84204","ios":"levelo://app?vid=036d12c3-91f9-4674-bd76-5d05aff84204"},"vehicle_type_id":"4","last_reported":1687561636,"current_range_meters":4400,"station_id":"ce4bh3h2rcd13ifvqdn0","pricing_plan_id":"free"},{"bike_id":"5f851021-9fe5-482f-8550-78b4cdc11901","system_id":"levelo_inurba_marseille","lat":43.292724,"lon":5.401131,"is_reserved":false,"is_disabled":false,"rental_uris":{"android":"levelo://app?vid=5f851021-9fe5-482f-8550-78b4cdc11901","ios":"levelo://app?vid=5f851021-9fe5-482f-8550-78b4cdc11901"},"vehicle_type_id":"4","last_reported":1687561636,"current_range_meters":6400,"station_id":"ce4bh312rcd13ifvqdk0","pricing_plan_id":"free"},{"bike_id":"4a4d9999-d2f8-4395-9ab1-8105b48fd253","system_id":"levelo_inurba_marseille","lat":43.292724,"lon":5.401131,"is_reserved":false,"is_disabled":false,"rental_uris":{"android":"levelo://app?vid=4a4d9999-d2f8-4395-9ab1-8105b48fd253","ios":"levelo://app?vid=4a4d9999-d2f8-4395-9ab1-8105b48fd253"},"vehicle_type_id":"4","last_reported":1687561636,"current_range_meters":2400,"station_id":"ce4bh312rcd13ifvqdk0","pricing_plan_id":"free"},{"bike_id":"6070751a-788f-40c1-a363-de5199ca4b45","system_id":"levelo_inurba_marseille","lat":43.292724,"lon":5.401131,"is_reserved":false,"is_disabled":false,"rental_uris":{"android":"levelo://app?vid=6070751a-788f-40c1-a363-de5199ca4b45","ios":"levelo://app?vid=6070751a-788f-40c1-a363-de5199ca4b45"},"vehicle_type_id":"4","last_reported":1687561636,"current_range_meters":0,"station_id":"ce4bh312rcd13ifvqdk0","pricing_plan_id":"free"},{"bike_id":"535a5be6-109d-4f11-b9a3-84a0407614af","system_id":"levelo_inurba_marseille","lat":43.283502,"lon":5.386471,"is_reserved":false,"is_disabled":false,"rental_uris":{"android":"levelo://app?vid=535a5be6-109d-4f11-b9a3-84a0407614af","ios":"levelo://app?vid=535a5be6-109d-4f11-b9a3-84a0407614af"},"vehicle_type_id":"4","last_reported":1687561636,"current_range_meters":1200,"station_id":"ce4bh492rcd13ifvqdvg","pricing_plan_id":"free"},{"bike_id":"ad0a14d8-1d1a-4393-aaca-9bdeb48a55e4","system_id":"levelo_inurba_marseille","lat":43.283502,"lon":5.386471,"is_reserved":false,"is_disabled":false,"rental_uris":{"android":"levelo://app?vid=ad0a14d8-1d1a-4393-aaca-9bdeb48a55e4","ios":"levelo://app?vid=ad0a14d8-1d1a-4393-aaca-9bdeb48a55e4"},"vehicle_type_id":"4","last_reported":1687561636,"current_range_meters":8800,"station_id":"ce4bh492rcd13ifvqdvg","pricing_plan_id":"free"},{"bike_id":"da161fe3-4b31-449b-a5ba-ca71fb5bf35d","system_id":"levelo_inurba_marseille","lat":43.283502,"lon":5.386471,"is_reserved":false,"is_disabled":false,"rental_uris":{"android":"levelo://app?vid=da161fe3-4b31-449b-a5ba-ca71fb5bf35d","ios":"levelo://app?vid=da161fe3-4b31-449b-a5ba-ca71fb5bf35d"},"vehicle_type_id":"4","last_reported":1687561636,"current_range_meters":8000,"station_id":"ce4bh492rcd13ifvqdvg","pricing_plan_id":"free"},{"bike_id":"c00c59bf-4268-4f1c-8759-d24c18577c2f","system_id":"levelo_inurba_marseille","lat":43.281044,"lon":5.378308,"is_reserved":false,"is_disabled":false,"rental_uris":{"android":"levelo://app?vid=c00c59bf-4268-4f1c-8759-d24c18577c2f","ios":"levelo://app?vid=c00c59bf-4268-4f1c-8759-d24c18577c2f"},"vehicle_type_id":"4","last_reported":1687561636,"current_range_meters":0,"station_id":"ce4bha12rcd13ifvqee0","pricing_plan_id":"free"},{"bike_id":"9907fe42-e52c-4d6b-887b-b445a49caad8","system_id":"levelo_inurba_marseille","lat":43.281044,"lon":5.378308,"is_reserved":false,"is_disabled":false,"rental_uris":{"android":"levelo://app?vid=9907fe42-e52c-4d6b-887b-b445a49caad8","ios":"levelo://app?vid=9907fe42-e52c-4d6b-887b-b445a49caad8"},"vehicle_type_id":"4","last_reported":1687561636,"current_range_meters":1200,"station_id":"ce4bha12rcd13ifvqee0","pricing_plan_id":"free"},{"bike_id":"2525d320-6b9f-4a58-913a-4d73befb1b1c","system_id":"levelo_inurba_marseille","lat":43.281044,"lon":5.378308,"is_reserved":false,"is_disabled":false,"rental_uris":{"android":"levelo://app?vid=2525d320-6b9f-4a58-913a-4d73befb1b1c","ios":"levelo://app?vid=2525d320-6b9f-4a58-913a-4d73befb1b1c"},"vehicle_type_id":"4","last_reported":1687561636,"current_range_meters":28800,"station_id":"ce4bha12rcd13ifvqee0","pricing_plan_id":"free"},{"bike_id":"1eff585c-e9d5-49ce-8939-f76f57ca78d5","system_id":"levelo_inurba_marseille","lat":43.281044,"lon":5.378308,"is_reserved":false,"is_disabled":false,"rental_uris":{"android":"levelo://app?vid=1eff585c-e9d5-49ce-8939-f76f57ca78d5","ios":"levelo://app?vid=1eff585c-e9d5-49ce-8939-f76f57ca78d5"},"vehicle_type_id":"4","last_reported":1687561636,"current_range_meters":5200,"station_id":"ce4bha12rcd13ifvqee0","pricing_plan_id":"free"},{"bike_id":"2528c125-db14-4ead-a3d6-ad25b5de90ea","system_id":"levelo_inurba_marseille","lat":43.281044,"lon":5.378308,"is_reserved":false,"is_disabled":false,"rental_uris":{"android":"levelo://app?vid=2528c125-db14-4ead-a3d6-ad25b5de90ea","ios":"levelo://app?vid=2528c125-db14-4ead-a3d6-ad25b5de90ea"},"vehicle_type_id":"4","last_reported":1687561636,"current_range_meters":4000,"station_id":"ce4bha12rcd13ifvqee0","pricing_plan_id":"free"},{"bike_id":"2aaa4900-5926-418a-b2b2-01cad3ab00a3","system_id":"levelo_inurba_marseille","lat":43.296263,"lon":5.40601,"is_reserved":false,"is_disabled":false,"rental_uris":{"android":"levelo://app?vid=2aaa4900-5926-418a-b2b2-01cad3ab00a3","ios":"levelo://app?vid=2aaa4900-5926-418a-b2b2-01cad3ab00a3"},"vehicle_type_id":"4","last_reported":1687561636,"current_range_meters":2800,"station_id":"ce4bh0h2rcd13ifvqd60","pricing_plan_id":"free"},{"bike_id":"3fe3d20c-eeff-4703-92c3-7bced03f0422","system_id":"levelo_inurba_marseille","lat":43.296263,"lon":5.40601,"is_reserved":false,"is_disabled":false,"rental_uris":{"android":"levelo://app?vid=3fe3d20c-eeff-4703-92c3-7bced03f0422","ios":"levelo://app?vid=3fe3d20c-eeff-4703-92c3-7bced03f0422"},"vehicle_type_id":"4","last_reported":1687561636,"current_range_meters":20000,"station_id":"ce4bh0h2rcd13ifvqd60","pricing_plan_id":"free"},{"bike_id":"eb0f4d90-3424-4e3c-bc72-d912ac61c967","system_id":"levelo_inurba_marseille","lat":43.281044,"lon":5.378308,"is_reserved":false,"is_disabled":false,"rental_uris":{"android":"levelo://app?vid=eb0f4d90-3424-4e3c-bc72-d912ac61c967","ios":"levelo://app?vid=eb0f4d90-3424-4e3c-bc72-d912ac61c967"},"vehicle_type_id":"4","last_reported":1687561636,"current_range_meters":5200,"station_id":"ce4bha12rcd13ifvqee0","pricing_plan_id":"free"},{"bike_id":"ff60adae-f71a-4e2f-9c03-c28e9ecc3c45","system_id":"levelo_inurba_marseille","lat":43.32736,"lon":5.40771,"is_reserved":false,"is_disabled":false,"rental_uris":{"android":"levelo://app?vid=ff60adae-f71a-4e2f-9c03-c28e9ecc3c45","ios":"levelo://app?vid=ff60adae-f71a-4e2f-9c03-c28e9ecc3c45"},"vehicle_type_id":"4","last_reported":1687561636,"current_range_meters":8000,"station_id":"","pricing_plan_id":"free"},{"bike_id":"68929f28-7b28-4354-a0c5-3ed376d5b445","system_id":"levelo_inurba_marseille","lat":43.284462,"lon":5.392121,"is_reserved":false,"is_disabled":false,"rental_uris":{"android":"levelo://app?vid=68929f28-7b28-4354-a0c5-3ed376d5b445","ios":"levelo://app?vid=68929f28-7b28-4354-a0c5-3ed376d5b445"},"vehicle_type_id":"4","last_reported":1687561636,"current_range_meters":21600,"station_id":"ce4bhoh2rcd13ifvqh5g","pricing_plan_id":"free"},{"bike_id":"fb7f9090-f93b-439c-9e5f-91749fe2b8b1","system_id":"levelo_inurba_marseille","lat":43.284462,"lon":5.392121,"is_reserved":false,"is_disabled":false,"rental_uris":{"android":"levelo://app?vid=fb7f9090-f93b-439c-9e5f-91749fe2b8b1","ios":"levelo://app?vid=fb7f9090-f93b-439c-9e5f-91749fe2b8b1"},"vehicle_type_id":"4","last_reported":1687561636,"current_range_meters":3600,"station_id":"ce4bhoh2rcd13ifvqh5g","pricing_plan_id":"free"},{"bike_id":"2b86055e-f3cf-46d8-9cb3-e361bddf480b","system_id":"levelo_inurba_marseille","lat":43.284462,"lon":5.392121,"is_reserved":false,"is_disabled":false,"rental_uris":{"android":"levelo://app?vid=2b86055e-f3cf-46d8-9cb3-e361bddf480b","ios":"levelo://app?vid=2b86055e-f3cf-46d8-9cb3-e361bddf480b"},"vehicle_type_id":"4","last_reported":1687561636,"current_range_meters":10400,"station_id":"ce4bhoh2rcd13ifvqh5g","pricing_plan_id":"free"},{"bike_id":"d4ead90d-26ac-4a55-8afb-df883e0e82c8","system_id":"levelo_inurba_marseille","lat":43.284462,"lon":5.392121,"is_reserved":false,"is_disabled":false,"rental_uris":{"android":"levelo://app?vid=d4ead90d-26ac-4a55-8afb-df883e0e82c8","ios":"levelo://app?vid=d4ead90d-26ac-4a55-8afb-df883e0e82c8"},"vehicle_type_id":"4","last_reported":1687561636,"current_range_meters":26800,"station_id":"ce4bhoh2rcd13ifvqh5g","pricing_plan_id":"free"},{"bike_id":"ec9c1dbd-1c3c-477e-ae3d-e7790bb2c5fd","system_id":"levelo_inurba_marseille","lat":43.284462,"lon":5.392121,"is_reserved":false,"is_disabled":false,"rental_uris":{"android":"levelo://app?vid=ec9c1dbd-1c3c-477e-ae3d-e7790bb2c5fd","ios":"levelo://app?vid=ec9c1dbd-1c3c-477e-ae3d-e7790bb2c5fd"},"vehicle_type_id":"4","last_reported":1687561636,"current_range_meters":2800,"station_id":"ce4bhoh2rcd13ifvqh5g","pricing_plan_id":"free"},{"bike_id":"20ff8801-b59a-47b2-ad75-5812ce979dfb","system_id":"levelo_inurba_marseille","lat":43.284462,"lon":5.392121,"is_reserved":false,"is_disabled":false,"rental_uris":{"android":"levelo://app?vid=20ff8801-b59a-47b2-ad75-5812ce979dfb","ios":"levelo://app?vid=20ff8801-b59a-47b2-ad75-5812ce979dfb"},"vehicle_type_id":"4","last_reported":1687561636,"current_range_meters":19200,"station_id":"ce4bhoh2rcd13ifvqh5g","pricing_plan_id":"free"},{"bike_id":"20eeb9e6-c0df-4439-bb02-b1410aa3adf3","system_id":"levelo_inurba_marseille","lat":43.284462,"lon":5.392121,"is_reserved":false,"is_disabled":false,"rental_uris":{"android":"levelo://app?vid=20eeb9e6-c0df-4439-bb02-b1410aa3adf3","ios":"levelo://app?vid=20eeb9e6-c0df-4439-bb02-b1410aa3adf3"},"vehicle_type_id":"4","last_reported":1687561636,"current_range_meters":2800,"station_id":"ce4bhoh2rcd13ifvqh5g","pricing_plan_id":"free"},{"bike_id":"c605242c-f8aa-4bc5-8141-cf7f35e732ce","system_id":"levelo_inurba_marseille","lat":43.284462,"lon":5.392121,"is_reserved":false,"is_disabled":false,"rental_uris":{"android":"levelo://app?vid=c605242c-f8aa-4bc5-8141-cf7f35e732ce","ios":"levelo://app?vid=c605242c-f8aa-4bc5-8141-cf7f35e732ce"},"vehicle_type_id":"4","last_reported":1687561636,"current_range_meters":0,"station_id":"ce4bhoh2rcd13ifvqh5g","pricing_plan_id":"free"},{"bike_id":"87a15827-a5b3-4ea1-b416-50bed77d3d85","system_id":"levelo_inurba_marseille","lat":43.284462,"lon":5.392121,"is_reserved":false,"is_disabled":false,"rental_uris":{"android":"levelo://app?vid=87a15827-a5b3-4ea1-b416-50bed77d3d85","ios":"levelo://app?vid=87a15827-a5b3-4ea1-b416-50bed77d3d85"},"vehicle_type_id":"4","last_reported":1687561636,"current_range_meters":31600,"station_id":"ce4bhoh2rcd13ifvqh5g","pricing_plan_id":"free"},{"bike_id":"1ef7a404-782e-4c86-b475-9235f4fe47cf","system_id":"levelo_inurba_marseille","lat":43.28573,"lon":5.394992,"is_reserved":false,"is_disabled":false,"rental_uris":{"android":"levelo://app?vid=1ef7a404-782e-4c86-b475-9235f4fe47cf","ios":"levelo://app?vid=1ef7a404-782e-4c86-b475-9235f4fe47cf"},"vehicle_type_id":"4","last_reported":1687561636,"current_range_meters":25600,"station_id":"ce4bh292rcd13ifvqdg0","pricing_plan_id":"free"},{"bike_id":"5de98341-c4f0-4072-bcea-73b5bf2f2859","system_id":"levelo_inurba_marseille","lat":43.326605,"lon":5.409903,"is_reserved":false,"is_disabled":false,"rental_uris":{"android":"levelo://app?vid=5de98341-c4f0-4072-bcea-73b5bf2f2859","ios":"levelo://app?vid=5de98341-c4f0-4072-bcea-73b5bf2f2859"},"vehicle_type_id":"4","last_reported":1687561636,"current_range_meters":23200,"station_id":"ce4bhpp2rcd13ifvqhgg","pricing_plan_id":"free"},{"bike_id":"514e4d9d-f74c-4bd1-8d07-610055ad8743","system_id":"levelo_inurba_marseille","lat":43.32662,"lon":5.40982,"is_reserved":false,"is_disabled":false,"rental_uris":{"android":"levelo://app?vid=514e4d9d-f74c-4bd1-8d07-610055ad8743","ios":"levelo://app?vid=514e4d9d-f74c-4bd1-8d07-610055ad8743"},"vehicle_type_id":"4","last_reported":1687561636,"current_range_meters":13600,"station_id":"ce4bhpp2rcd13ifvqhgg","pricing_plan_id":"free"},{"bike_id":"9b7e311b-427f-4c6b-9bfe-6d233d8bb257","system_id":"levelo_inurba_marseille","lat":43.32657,"lon":5.40991,"is_reserved":false,"is_disabled":false,"rental_uris":{"android":"levelo://app?vid=9b7e311b-427f-4c6b-9bfe-6d233d8bb257","ios":"levelo://app?vid=9b7e311b-427f-4c6b-9bfe-6d233d8bb257"},"vehicle_type_id":"4","last_reported":1687561636,"current_range_meters":7200,"station_id":"ce4bhpp2rcd13ifvqhgg","pricing_plan_id":"free"},{"bike_id":"944cc645-9c61-42d4-8b7e-807c114cae2f","system_id":"levelo_inurba_marseille","lat":43.32658,"lon":5.40992,"is_reserved":false,"is_disabled":false,"rental_uris":{"android":"levelo://app?vid=944cc645-9c61-42d4-8b7e-807c114cae2f","ios":"levelo://app?vid=944cc645-9c61-42d4-8b7e-807c114cae2f"},"vehicle_type_id":"4","last_reported":1687561636,"current_range_meters":8000,"station_id":"ce4bhpp2rcd13ifvqhgg","pricing_plan_id":"free"},{"bike_id":"bd024b9e-10e2-485e-8834-4d0dbb51c5ca","system_id":"levelo_inurba_marseille","lat":43.326605,"lon":5.409903,"is_reserved":false,"is_disabled":false,"rental_uris":{"android":"levelo://app?vid=bd024b9e-10e2-485e-8834-4d0dbb51c5ca","ios":"levelo://app?vid=bd024b9e-10e2-485e-8834-4d0dbb51c5ca"},"vehicle_type_id":"4","last_reported":1687561636,"current_range_meters":26800,"station_id":"ce4bhpp2rcd13ifvqhgg","pricing_plan_id":"free"},{"bike_id":"fc2a51fe-3bf8-46f3-9fe8-f24612d4a02a","system_id":"levelo_inurba_marseille","lat":43.326565,"lon":5.409975,"is_reserved":false,"is_disabled":false,"rental_uris":{"android":"levelo://app?vid=fc2a51fe-3bf8-46f3-9fe8-f24612d4a02a","ios":"levelo://app?vid=fc2a51fe-3bf8-46f3-9fe8-f24612d4a02a"},"vehicle_type_id":"4","last_reported":1687561636,"current_range_meters":5600,"station_id":"ce4bhpp2rcd13ifvqhgg","pricing_plan_id":"free"},{"bike_id":"f47d889e-f3a7-4cf7-b89b-498d12032e77","system_id":"levelo_inurba_marseille","lat":43.29286,"lon":5.40653,"is_reserved":false,"is_disabled":false,"rental_uris":{"android":"levelo://app?vid=f47d889e-f3a7-4cf7-b89b-498d12032e77","ios":"levelo://app?vid=f47d889e-f3a7-4cf7-b89b-498d12032e77"},"vehicle_type_id":"4","last_reported":1687561636,"current_range_meters":6400,"station_id":"","pricing_plan_id":"free"},{"bike_id":"a23e1b54-b5bc-43a0-8e33-57ae8f8dc72a","system_id":"levelo_inurba_marseille","lat":43.28715,"lon":5.39995,"is_reserved":false,"is_disabled":false,"rental_uris":{"android":"levelo://app?vid=a23e1b54-b5bc-43a0-8e33-57ae8f8dc72a","ios":"levelo://app?vid=a23e1b54-b5bc-43a0-8e33-57ae8f8dc72a"},"vehicle_type_id":"4","last_reported":1687561636,"current_range_meters":7600,"station_id":"ce4bho92rcd13ifvqh3g","pricing_plan_id":"free"},{"bike_id":"0723c628-eb9f-4b6f-80dc-681387f90787","system_id":"levelo_inurba_marseille","lat":43.287154,"lon":5.399979,"is_reserved":false,"is_disabled":false,"rental_uris":{"android":"levelo://app?vid=0723c628-eb9f-4b6f-80dc-681387f90787","ios":"levelo://app?vid=0723c628-eb9f-4b6f-80dc-681387f90787"},"vehicle_type_id":"4","last_reported":1687561636,"current_range_meters":19600,"station_id":"ce4bho92rcd13ifvqh3g","pricing_plan_id":"free"},{"bike_id":"046dae88-6b4b-4102-8edf-68bcdc468df5","system_id":"levelo_inurba_marseille","lat":43.28703,"lon":5.39989,"is_reserved":false,"is_disabled":false,"rental_uris":{"android":"levelo://app?vid=046dae88-6b4b-4102-8edf-68bcdc468df5","ios":"levelo://app?vid=046dae88-6b4b-4102-8edf-68bcdc468df5"},"vehicle_type_id":"4","last_reported":1687561636,"current_range_meters":16800,"station_id":"ce4bho92rcd13ifvqh3g","pricing_plan_id":"free"},{"bike_id":"7905e970-d96f-47f3-add9-384163093635","system_id":"levelo_inurba_marseille","lat":43.287154,"lon":5.399979,"is_reserved":false,"is_disabled":false,"rental_uris":{"android":"levelo://app?vid=7905e970-d96f-47f3-add9-384163093635","ios":"levelo://app?vid=7905e970-d96f-47f3-add9-384163093635"},"vehicle_type_id":"4","last_reported":1687561636,"current_range_meters":19600,"station_id":"ce4bho92rcd13ifvqh3g","pricing_plan_id":"free"},{"bike_id":"5549853c-8ad7-446c-85dc-46cabb5aa089","system_id":"levelo_inurba_marseille","lat":43.28706,"lon":5.39995,"is_reserved":false,"is_disabled":false,"rental_uris":{"android":"levelo://app?vid=5549853c-8ad7-446c-85dc-46cabb5aa089","ios":"levelo://app?vid=5549853c-8ad7-446c-85dc-46cabb5aa089"},"vehicle_type_id":"4","last_reported":1687561636,"current_range_meters":3600,"station_id":"ce4bho92rcd13ifvqh3g","pricing_plan_id":"free"},{"bike_id":"50fd953c-9754-45f4-aec7-ae52bb9eb6fe","system_id":"levelo_inurba_marseille","lat":43.287154,"lon":5.399979,"is_reserved":false,"is_disabled":false,"rental_uris":{"android":"levelo://app?vid=50fd953c-9754-45f4-aec7-ae52bb9eb6fe","ios":"levelo://app?vid=50fd953c-9754-45f4-aec7-ae52bb9eb6fe"},"vehicle_type_id":"4","last_reported":1687561636,"current_range_meters":31600,"station_id":"ce4bho92rcd13ifvqh3g","pricing_plan_id":"free"},{"bike_id":"14c9cff9-ef50-4c6d-8fa4-9a1095daa1fd","system_id":"levelo_inurba_marseille","lat":43.299579,"lon":5.413255,"is_reserved":false,"is_disabled":false,"rental_uris":{"android":"levelo://app?vid=14c9cff9-ef50-4c6d-8fa4-9a1095daa1fd","ios":"levelo://app?vid=14c9cff9-ef50-4c6d-8fa4-9a1095daa1fd"},"vehicle_type_id":"4","last_reported":1687561636,"current_range_meters":22000,"station_id":"ce4bhp12rcd13ifvqh9g","pricing_plan_id":"free"},{"bike_id":"ed1c94f0-8a0b-4a63-a93e-6771127b17ab","system_id":"levelo_inurba_marseille","lat":43.299579,"lon":5.413255,"is_reserved":false,"is_disabled":false,"rental_uris":{"android":"levelo://app?vid=ed1c94f0-8a0b-4a63-a93e-6771127b17ab","ios":"levelo://app?vid=ed1c94f0-8a0b-4a63-a93e-6771127b17ab"},"vehicle_type_id":"4","last_reported":1687561636,"current_range_meters":18800,"station_id":"ce4bhp12rcd13ifvqh9g","pricing_plan_id":"free"},