{"last_updated":1766118361,"ttl":60,"version":"2.2","data":{"bikes":[{"bike_id":"f2a00277-6967-4b60-a530-aa8107223b51","system_id":"levelo_inurba_marseille","lat":43.273745,"lon":5.362532,"is_reserved":false,"is_disabled":false,"rental_uris":{"android":"levelo://app?vid=f2a00277-6967-4b60-a530-aa8107223b51","ios":"levelo://app?vid=f2a00277-6967-4b60-a530-aa8107223b51"},"vehicle_type_id":"4","last_reported":1766118362,"current_range_meters":2800,"station_id":"ce4bhbh2rcd13ifvqeo0","pricing_plan_id":"cebpf4jnsgd1na2vs0mg"},{"bike_id":"0b8ed324-0846-4be1-8827-b5d8db7fa9ab","system_id":"levelo_inurba_marseille","lat":43.28539,"lon":5.44091,"is_reserved":false,"is_disabled":true,"rental_uris":{"android":"levelo://app?vid=0b8ed324-0846-4be1-8827-b5d8db7fa9ab","ios":"levelo://app?vid=0b8ed324-0846-4be1-8827-b5d8db7fa9ab"},"vehicle_type_id":"4","last_reported":1766118362,"current_range_meters":3600,"station_id":"st_d3j3df2ikq2c7380ej80","pricing_plan_id":"cebpf4jnsgd1na2vs0mg"},{"bike_id":"552e4480-a1c5-4dd3-998a-042463b15d7b","system_id":"levelo_inurba_marseille","lat":43.24181,"lon":5.39733,"is_reserved":false,"is_disabled":false,"rental_uris":{"android":"levelo://app?vid=552e4480-a1c5-4dd3-998a-042463b15d7b","ios":"levelo://app?vid=552e4480-a1c5-4dd3-998a-042463b15d7b"},"vehicle_type_id":"4","last_reported":1766118362,"current_range_meters":3600,"station_id":"ce4bhn12rcd13ifvqgpg","pricing_plan_id":"cebpf4jnsgd1na2vs0mg"},{"bike_id":"e9f5b9a9-cf56-4e04-a288-a7b26123b172","system_id":"levelo_inurba_marseille","lat":43.25083,"lon":5.39496,"is_reserved":false,"is_disabled":false,"rental_uris":{"android":"levelo://app?vid=e9f5b9a9-cf56-4e04-a288-a7b26123b172","ios":"levelo://app?vid=e9f5b9a9-cf56-4e04-a288-a7b26123b172"},"vehicle_type_id":"4","last_reported":1766118362,"current_range_meters":3600,"station_id":"ce4bhm12rcd13ifvqgkg","pricing_plan_id":"cebpf4jnsgd1na2vs0mg"},{"bike_id":"73b791d2-6f8a-4c76-a940-4605611964e2","system_id":"levelo_inurba_marseille","lat":43.27361,"lon":5.36244,"is_reserved":false,"is_disabled":false,"rental_uris":{"android":"levelo://app?vid=73b791d2-6f8a-4c76-a940-4605611964e2","ios":"levelo://app?vid=73b791d2-6f8a-4c76-a940-4605611964e2"},"vehicle_type_id":"4","last_reported":1766118362,"current_range_meters":4000,"station_id":"ce4bhbh2rcd13ifvqeo0","pricing_plan_id":"cebpf4jnsgd1na2vs0mg"},{"bike_id":"b9e289e9-e1d8-4db9-8eeb-d4ae6610e1bb","system_id":"levelo_inurba_marseille","lat":43.288612,"lon":5.425142,"is_reserved":false,"is_disabled":false,"rental_uris":{"android":"levelo://app?vid=b9e289e9-e1d8-4db9-8eeb-d4ae6610e1bb","ios":"levelo://app?vid=b9e289e9-e1d8-4db9-8eeb-d4ae6610e1bb"},"vehicle_type_id":"4","last_reported":1766118362,"current_range_meters":4000,"station_id":"st_d3b462108ojc7389ooeg","pricing_plan_id":"cebpf4jnsgd1na2vs0mg"},{"bike_id":"88031236-6a40-4d32-a503-adc00e8f1b31","system_id":"levelo_inurba_marseille","lat":43.33767,"lon":5.374479,"is_reserved":false,"is_disabled":false,"rental_uris":{"android":"levelo://app?vid=88031236-6a40-4d32-a503-adc00e8f1b31","ios":"levelo://app?vid=88031236-6a40-4d32-a503-adc00e8f1b31"},"vehicle_type_id":"4","last_reported":1766118362,"current_range_meters":4000,"station_id":"","pricing_plan_id":"cebpf4jnsgd1na2vs0mg"},{"bike_id":"0713f3f0-69cf-4806-8937-39027e779d39","system_id":"levelo_inurba_marseille","lat":43.30929,"lon":5.40158,"is_reserved":false,"is_disabled":false,"rental_uris":{"android":"levelo://app?vid=0713f3f0-69cf-4806-8937-39027e779d39","ios":"levelo://app?vid=0713f3f0-69cf-4806-8937-39027e779d39"},"vehicle_type_id":"4","last_reported":1766118362,"current_range_meters":4000,"station_id":"ce4bgvp2rcd13ifvqct0","pricing_plan_id":"cebpf4jnsgd1na2vs0mg"},{"bike_id":"cc178787-4e27-477e-85ac-bb874f1df1de","system_id":"levelo_inurba_marseille","lat":43.27332,"lon":5.41085,"is_reserved":false,"is_disabled":false,"rental_uris":{"android":"levelo://app?vid=cc178787-4e27-477e-85ac-bb874f1df1de","ios":"levelo://app?vid=cc178787-4e27-477e-85ac-bb874f1df1de"},"vehicle_type_id":"4","last_reported":1766118362,"current_range_meters":4000,"station_id":"","pricing_plan_id":"cebpf4jnsgd1na2vs0mg"},{"bike_id":"dea83eb0-6335-4521-9011-3497e30288f1","system_id":"levelo_inurba_marseille","lat":43.28964,"lon":5.36393,"is_reserved":false,"is_disabled":false,"rental_uris":{"android":"levelo://app?vid=dea83eb0-6335-4521-9011-3497e30288f1","ios":"levelo://app?vid=dea83eb0-6335-4521-9011-3497e30288f1"},"vehicle_type_id":"4","last_reported":1766118362,"current_range_meters":4000,"station_id":"ce4bhc92rcd13ifvqetg","pricing_plan_id":"cebpf4jnsgd1na2vs0mg"},{"bike_id":"f9902b54-359a-4a2d-9dab-8d982ebd9f4d","system_id":"levelo_inurba_marseille","lat":43.288417,"lon":5.360906,"is_reserved":false,"is_disabled":false,"rental_uris":{"android":"levelo://app?vid=f9902b54-359a-4a2d-9dab-8d982ebd9f4d","ios":"levelo://app?vid=f9902b54-359a-4a2d-9dab-8d982ebd9f4d"},"vehicle_type_id":"4","last_reported":1766118362,"current_range_meters":4400,"station_id":"","pricing_plan_id":"cebpf4jnsgd1na2vs0mg"},{"bike_id":"a1ac0ba7-1483-464e-9caa-755fc64f46a4","system_id":"levelo_inurba_marseille","lat":43.2406,"lon":5.37827,"is_reserved":false,"is_disabled":false,"rental_uris":{"android":"levelo://app?vid=a1ac0ba7-1483-464e-9caa-755fc64f46a4","ios":"levelo://app?vid=a1ac0ba7-1483-464e-9caa-755fc64f46a4"},"vehicle_type_id":"4","last_reported":1766118362,"current_range_meters":4400,"station_id":"","pricing_plan_id":"cebpf4jnsgd1na2vs0mg"},{"bike_id":"c7e5daf3-a6b0-4ffc-8e95-134c47362fa1","system_id":"levelo_inurba_marseille","lat":43.30099,"lon":5.36883,"is_reserved":false,"is_disabled":false,"rental_uris":{"android":"levelo://app?vid=c7e5daf3-a6b0-4ffc-8e95-134c47362fa1","ios":"levelo://app?vid=c7e5daf3-a6b0-4ffc-8e95-134c47362fa1"},"vehicle_type_id":"4","last_reported":1766118362,"current_range_meters":4800,"station_id":"","pricing_plan_id":"cebpf4jnsgd1na2vs0mg"},{"bike_id":"50e6eefe-8aea-4054-ab8f-87d6e301ff34","system_id":"levelo_inurba_marseille","lat":43.242998,"lon":5.438436,"is_reserved":false,"is_disabled":false,"rental_uris":{"android":"levelo://app?vid=50e6eefe-8aea-4054-ab8f-87d6e301ff34","ios":"levelo://app?vid=50e6eefe-8aea-4054-ab8f-87d6e301ff34"},"vehicle_type_id":"4","last_reported":1766118362,"current_range_meters":4800,"station_id":"","pricing_plan_id":"cebpf4jnsgd1na2vs0mg"},{"bike_id":"62228179-400e-4ba9-9bd4-ca6b5178261e","system_id":"levelo_inurba_marseille","lat":43.2887,"lon":5.4253,"is_reserved":false,"is_disabled":false,"rental_uris":{"android":"levelo://app?vid=62228179-400e-4ba9-9bd4-ca6b5178261e","ios":"levelo://app?vid=62228179-400e-4ba9-9bd4-ca6b5178261e"},"vehicle_type_id":"4","last_reported":1766118362,"current_range_meters":4800,"station_id":"st_d3b462108ojc7389ooeg","pricing_plan_id":"cebpf4jnsgd1na2vs0mg"},{"bike_id":"d235767a-3e44-44c9-893e-7ebda15e5a64","system_id":"levelo_inurba_marseille","lat":43.25405,"lon":5.38559,"is_reserved":false,"is_disabled":false,"rental_uris":{"android":"levelo://app?vid=d235767a-3e44-44c9-893e-7ebda15e5a64","ios":"levelo://app?vid=d235767a-3e44-44c9-893e-7ebda15e5a64"},"vehicle_type_id":"4","last_reported":1766118362,"current_range_meters":5600,"station_id":"","pricing_plan_id":"cebpf4jnsgd1na2vs0mg"},{"bike_id":"24d054e7-f0c5-4c42-9fbe-2bd28f113abf","system_id":"levelo_inurba_marseille","lat":43.30263,"lon":5.37725,"is_reserved":false,"is_disabled":false,"rental_uris":{"android":"levelo://app?vid=24d054e7-f0c5-4c42-9fbe-2bd28f113abf","ios":"levelo://app?vid=24d054e7-f0c5-4c42-9fbe-2bd28f113abf"},"vehicle_type_id":"4","last_reported":1766118362,"current_range_meters":5600,"station_id":"ce4bguh2rcd13ifvqcj0","pricing_plan_id":"cebpf4jnsgd1na2vs0mg"},{"bike_id":"07102bbf-8e43-4cc8-abfb-b7bffaf00185","system_id":"levelo_inurba_marseille","lat":43.293795,"lon":5.362635,"is_reserved":false,"is_disabled":false,"rental_uris":{"android":"levelo://app?vid=07102bbf-8e43-4cc8-abfb-b7bffaf00185","ios":"levelo://app?vid=07102bbf-8e43-4cc8-abfb-b7bffaf00185"},"vehicle_type_id":"4","last_reported":1766118362,"current_range_meters":5600,"station_id":"","pricing_plan_id":"cebpf4jnsgd1na2vs0mg"},{"bike_id":"d2bcf7e6-9e6c-48c1-8c64-5337f19dad07","system_id":"levelo_inurba_marseille","lat":43.22872,"lon":5.39956,"is_reserved":false,"is_disabled":false,"rental_uris":{"android":"levelo://app?vid=d2bcf7e6-9e6c-48c1-8c64-5337f19dad07","ios":"levelo://app?vid=d2bcf7e6-9e6c-48c1-8c64-5337f19dad07"},"vehicle_type_id":"4","last_reported":1766118362,"current_range_meters":5600,"station_id":"","pricing_plan_id":"cebpf4jnsgd1na2vs0mg"},{"bike_id":"c4a0a763-a197-4df7-8090-1012ff3d291c","system_id":"levelo_inurba_marseille","lat":43.26557,"lon":5.3731,"is_reserved":false,"is_disabled":false,"rental_uris":{"android":"levelo://app?vid=c4a0a763-a197-4df7-8090-1012ff3d291c","ios":"levelo://app?vid=c4a0a763-a197-4df7-8090-1012ff3d291c"},"vehicle_type_id":"4","last_reported":1766118362,"current_range_meters":6000,"station_id":"ce4bhg12rcd13ifvqf70","pricing_plan_id":"cebpf4jnsgd1na2vs0mg"},{"bike_id":"fdb18b9b-3b90-486e-b306-62bb1a73300b","system_id":"levelo_inurba_marseille","lat":43.24685,"lon":5.381375,"is_reserved":false,"is_disabled":false,"rental_uris":{"android":"levelo://app?vid=fdb18b9b-3b90-486e-b306-62bb1a73300b","ios":"levelo://app?vid=fdb18b9b-3b90-486e-b306-62bb1a73300b"},"vehicle_type_id":"4","last_reported":1766118362,"current_range_meters":6000,"station_id":"ce4bhih2rcd13ifvqfr0","pricing_plan_id":"cebpf4jnsgd1na2vs0mg"},{"bike_id":"b6974cac-17ff-404a-846c-ff0003a98209","system_id":"levelo_inurba_marseille","lat":43.24068,"lon":5.37771,"is_reserved":false,"is_disabled":false,"rental_uris":{"android":"levelo://app?vid=b6974cac-17ff-404a-846c-ff0003a98209","ios":"levelo://app?vid=b6974cac-17ff-404a-846c-ff0003a98209"},"vehicle_type_id":"4","last_reported":1766118362,"current_range_meters":6000,"station_id":"ce4bhnp2rcd13ifvqgvg","pricing_plan_id":"cebpf4jnsgd1na2vs0mg"},{"bike_id":"d88f83fc-7a24-4804-9301-839b1ae399e9","system_id":"levelo_inurba_marseille","lat":43.29526,"lon":5.3787,"is_reserved":false,"is_disabled":false,"rental_uris":{"android":"levelo://app?vid=d88f83fc-7a24-4804-9301-839b1ae399e9","ios":"levelo://app?vid=d88f83fc-7a24-4804-9301-839b1ae399e9"},"vehicle_type_id":"4","last_reported":1766118362,"current_range_meters":6000,"station_id":"","pricing_plan_id":"cebpf4jnsgd1na2vs0mg"},{"bike_id":"a9adc8bf-52f1-4c31-a2de-42743dd086bf","system_id":"levelo_inurba_marseille","lat":43.33723,"lon":5.3748,"is_reserved":false,"is_disabled":false,"rental_uris":{"android":"levelo://app?vid=a9adc8bf-52f1-4c31-a2de-42743dd086bf","ios":"levelo://app?vid=a9adc8bf-52f1-4c31-a2de-42743dd086bf"},"vehicle_type_id":"4","last_reported":1766118362,"current_range_meters":6000,"station_id":"","pricing_plan_id":"cebpf4jnsgd1na2vs0mg"},{"bike_id":"2dbeaaaf-2486-4823-9ae7-ab270283c8e1","system_id":"levelo_inurba_marseille","lat":43.249512,"lon":5.404929,"is_reserved":false,"is_disabled":false,"rental_uris":{"android":"levelo://app?vid=2dbeaaaf-2486-4823-9ae7-ab270283c8e1","ios":"levelo://app?vid=2dbeaaaf-2486-4823-9ae7-ab270283c8e1"},"vehicle_type_id":"4","last_reported":1766118362,"current_range_meters":6000,"station_id":"st_d2ngiaodas8pm72gd1h0","pricing_plan_id":"cebpf4jnsgd1na2vs0mg"},{"bike_id":"c77ed1c3-96ae-45e5-a4d4-21b6a72cf6a6","system_id":"levelo_inurba_marseille","lat":43.3133,"lon":5.39703,"is_reserved":false,"is_disabled":true,"rental_uris":{"android":"levelo://app?vid=c77ed1c3-96ae-45e5-a4d4-21b6a72cf6a6","ios":"levelo://app?vid=c77ed1c3-96ae-45e5-a4d4-21b6a72cf6a6"},"vehicle_type_id":"4","last_reported":1766118362,"current_range_meters":6400,"station_id":"ce4bgvp2rcd13ifvqcu0","pricing_plan_id":"cebpf4jnsgd1na2vs0mg"},{"bike_id":"00fd2dcb-6faf-4c7a-8c99-525909084655","system_id":"levelo_inurba_marseille","lat":43.28162,"lon":5.42635,"is_reserved":false,"is_disabled":true,"rental_uris":{"android":"levelo://app?vid=00fd2dcb-6faf-4c7a-8c99-525909084655","ios":"levelo://app?vid=00fd2dcb-6faf-4c7a-8c99-525909084655"},"vehicle_type_id":"4","last_reported":1766118362,"current_range_meters":6400,"station_id":"ce4bhnh2rcd13ifvqgug","pricing_plan_id":"cebpf4jnsgd1na2vs0mg"},{"bike_id":"82eb5e0f-ca7c-40ed-a4f8-32fe351c2877","system_id":"levelo_inurba_marseille","lat":43.26557,"lon":5.37317,"is_reserved":false,"is_disabled":false,"rental_uris":{"android":"levelo://app?vid=82eb5e0f-ca7c-40ed-a4f8-32fe351c2877","ios":"levelo://app?vid=82eb5e0f-ca7c-40ed-a4f8-32fe351c2877"},"vehicle_type_id":"4","last_reported":1766118362,"current_range_meters":6400,"station_id":"ce4bhg12rcd13ifvqf70","pricing_plan_id":"cebpf4jnsgd1na2vs0mg"},{"bike_id":"33b451a0-a441-4300-869b-39a18ae89cae","system_id":"levelo_inurba_marseille","lat":43.30262,"lon":5.40046,"is_reserved":false,"is_disabled":false,"rental_uris":{"android":"levelo://app?vid=33b451a0-a441-4300-869b-39a18ae89cae","ios":"levelo://app?vid=33b451a0-a441-4300-869b-39a18ae89cae"},"vehicle_type_id":"4","last_reported":1766118362,"current_range_meters":6400,"station_id":"ce4bgvh2rcd13ifvqcs0","pricing_plan_id":"cebpf4jnsgd1na2vs0mg"},{"bike_id":"135034e9-a9ba-448f-8fb7-1a6ab7b9598e","system_id":"levelo_inurba_marseille","lat":43.2656,"lon":5.37268,"is_reserved":false,"is_disabled":true,"rental_uris":{"android":"levelo://app?vid=135034e9-a9ba-448f-8fb7-1a6ab7b9598e","ios":"levelo://app?vid=135034e9-a9ba-448f-8fb7-1a6ab7b9598e"},"vehicle_type_id":"4","last_reported":1766118362,"current_range_meters":6800,"station_id":"ce4bhg12rcd13ifvqf70","pricing_plan_id":"cebpf4jnsgd1na2vs0mg"},{"bike_id":"da18a3b0-ce97-43eb-b181-936e440b40e5","system_id":"levelo_inurba_marseille","lat":43.31697,"lon":5.40404,"is_reserved":false,"is_disabled":false,"rental_uris":{"android":"levelo://app?vid=da18a3b0-ce97-43eb-b181-936e440b40e5","ios":"levelo://app?vid=da18a3b0-ce97-43eb-b181-936e440b40e5"},"vehicle_type_id":"4","last_reported":1766118362,"current_range_meters":6800,"station_id":"","pricing_plan_id":"cebpf4jnsgd1na2vs0mg"},{"bike_id":"985c4a1d-e7c1-458c-98ed-6c64eab300d2","system_id":"levelo_inurba_marseille","lat":43.28233,"lon":5.39029,"is_reserved":false,"is_disabled":false,"rental_uris":{"android":"levelo://app?vid=985c4a1d-e7c1-458c-98ed-6c64eab300d2","ios":"levelo://app?vid=985c4a1d-e7c1-458c-98ed-6c64eab300d2"},"vehicle_type_id":"4","last_reported":1766118362,"current_range_meters":6800,"station_id":"ce4bhn92rcd13ifvqgsg","pricing_plan_id":"cebpf4jnsgd1na2vs0mg"},{"bike_id":"c6d46fa6-4244-47db-bf38-73e3be416caa","system_id":"levelo_inurba_marseille","lat":43.29247,"lon":5.37617,"is_reserved":false,"is_disabled":false,"rental_uris":{"android":"levelo://app?vid=c6d46fa6-4244-47db-bf38-73e3be416caa","ios":"levelo://app?vid=c6d46fa6-4244-47db-bf38-73e3be416caa"},"vehicle_type_id":"4","last_reported":1766118362,"current_range_meters":6800,"station_id":"ce4bgi12rcd13ifvqb80","pricing_plan_id":"cebpf4jnsgd1na2vs0mg"},{"bike_id":"8ebebc91-5103-41de-8878-ecf815b67236","system_id":"levelo_inurba_marseille","lat":43.23182,"lon":5.39992,"is_reserved":false,"is_disabled":false,"rental_uris":{"android":"levelo://app?vid=8ebebc91-5103-41de-8878-ecf815b67236","ios":"levelo://app?vid=8ebebc91-5103-41de-8878-ecf815b67236"},"vehicle_type_id":"4","last_reported":1766118362,"current_range_meters":6800,"station_id":"ce4bhn12rcd13ifvqgqg","pricing_plan_id":"cebpf4jnsgd1na2vs0mg"},{"bike_id":"6ea1c15e-5b74-4575-9f55-3622c6e19603","system_id":"levelo_inurba_marseille","lat":43.288597,"lon":5.35833,"is_reserved":false,"is_disabled":false,"rental_uris":{"android":"levelo://app?vid=6ea1c15e-5b74-4575-9f55-3622c6e19603","ios":"levelo://app?vid=6ea1c15e-5b74-4575-9f55-3622c6e19603"},"vehicle_type_id":"4","last_reported":1766118362,"current_range_meters":7200,"station_id":"ce4bhb12rcd13ifvqem0","pricing_plan_id":"cebpf4jnsgd1na2vs0mg"},{"bike_id":"3cde007c-a409-4597-91e7-ca2461274ad1","system_id":"levelo_inurba_marseille","lat":43.265706,"lon":5.401948,"is_reserved":false,"is_disabled":false,"rental_uris":{"android":"levelo://app?vid=3cde007c-a409-4597-91e7-ca2461274ad1","ios":"levelo://app?vid=3cde007c-a409-4597-91e7-ca2461274ad1"},"vehicle_type_id":"4","last_reported":1766118362,"current_range_meters":7200,"station_id":"","pricing_plan_id":"cebpf4jnsgd1na2vs0mg"},{"bike_id":"9282d5a7-0e9c-4010-ae8a-61b36e696bbc","system_id":"levelo_inurba_marseille","lat":43.25328,"lon":5.42177,"is_reserved":false,"is_disabled":false,"rental_uris":{"android":"levelo://app?vid=9282d5a7-0e9c-4010-ae8a-61b36e696bbc","ios":"levelo://app?vid=9282d5a7-0e9c-4010-ae8a-61b36e696bbc"},"vehicle_type_id":"4","last_reported":1766118362,"current_range_meters":8000,"station_id":"st_d2m65c5bi1j21697t3ng","pricing_plan_id":"cebpf4jnsgd1na2vs0mg"},{"bike_id":"2f97f57c-3083-4277-b0e9-2dc7f8d6d12b","system_id":"levelo_inurba_marseille","lat":43.28669,"lon":5.38676,"is_reserved":false,"is_disabled":false,"rental_uris":{"android":"levelo://app?vid=2f97f57c-3083-4277-b0e9-2dc7f8d6d12b","ios":"levelo://app?vid=2f97f57c-3083-4277-b0e9-2dc7f8d6d12b"},"vehicle_type_id":"4","last_reported":1766118362,"current_range_meters":8000,"station_id":"ce4bh492rcd13ifvqdug","pricing_plan_id":"cebpf4jnsgd1na2vs0mg"},{"bike_id":"55793fee-0b48-4ea8-8b3c-24460bf017fa","system_id":"levelo_inurba_marseille","lat":43.30162,"lon":5.38093,"is_reserved":false,"is_disabled":false,"rental_uris":{"android":"levelo://app?vid=55793fee-0b48-4ea8-8b3c-24460bf017fa","ios":"levelo://app?vid=55793fee-0b48-4ea8-8b3c-24460bf017fa"},"vehicle_type_id":"4","last_reported":1766118362,"current_range_meters":8000,"station_id":"ce4bgjp2rcd13ifvqbh0","pricing_plan_id":"cebpf4jnsgd1na2vs0mg"},{"bike_id":"81508f0a-e327-4705-ae72-228165570b37","system_id":"levelo_inurba_marseille","lat":43.25094,"lon":5.389477,"is_reserved":false,"is_disabled":false,"rental_uris":{"android":"levelo://app?vid=81508f0a-e327-4705-ae72-228165570b37","ios":"levelo://app?vid=81508f0a-e327-4705-ae72-228165570b37"},"vehicle_type_id":"4","last_reported":1766118362,"current_range_meters":8000,"station_id":"","pricing_plan_id":"cebpf4jnsgd1na2vs0mg"},{"bike_id":"85f73172-657d-4c07-87c0-f885714ec732","system_id":"levelo_inurba_marseille","lat":43.286945,"lon":5.373958,"is_reserved":false,"is_disabled":false,"rental_uris":{"android":"levelo://app?vid=85f73172-657d-4c07-87c0-f885714ec732","ios":"levelo://app?vid=85f73172-657d-4c07-87c0-f885714ec732"},"vehicle_type_id":"4","last_reported":1766118362,"current_range_meters":8000,"station_id":"ce4bh3p2rcd13ifvqdq0","pricing_plan_id":"cebpf4jnsgd1na2vs0mg"},{"bike_id":"43f8c405-568b-40a3-a67a-99619c5e63c0","system_id":"levelo_inurba_marseille","lat":43.30545,"lon":5.38408,"is_reserved":false,"is_disabled":false,"rental_uris":{"android":"levelo://app?vid=43f8c405-568b-40a3-a67a-99619c5e63c0","ios":"levelo://app?vid=43f8c405-568b-40a3-a67a-99619c5e63c0"},"vehicle_type_id":"4","last_reported":1766118362,"current_range_meters":8000,"station_id":"ce4bgg92rcd13ifvqb30","pricing_plan_id":"cebpf4jnsgd1na2vs0mg"},{"bike_id":"48e30a46-3a61-4ed5-93c8-2b0ee8661bac","system_id":"levelo_inurba_marseille","lat":43.30192,"lon":5.38086,"is_reserved":false,"is_disabled":false,"rental_uris":{"android":"levelo://app?vid=48e30a46-3a61-4ed5-93c8-2b0ee8661bac","ios":"levelo://app?vid=48e30a46-3a61-4ed5-93c8-2b0ee8661bac"},"vehicle_type_id":"4","last_reported":1766118362,"current_range_meters":8000,"station_id":"","pricing_plan_id":"cebpf4jnsgd1na2vs0mg"},{"bike_id":"f7ebab7c-96ee-4ff2-8e1e-3a8d23205c84","system_id":"levelo_inurba_marseille","lat":43.26551,"lon":5.40339,"is_reserved":false,"is_disabled":false,"rental_uris":{"android":"levelo://app?vid=f7ebab7c-96ee-4ff2-8e1e-3a8d23205c84","ios":"levelo://app?vid=f7ebab7c-96ee-4ff2-8e1e-3a8d23205c84"},"vehicle_type_id":"4","last_reported":1766118362,"current_range_meters":8000,"station_id":"ce4bhmp2rcd13ifvqgng","pricing_plan_id":"cebpf4jnsgd1na2vs0mg"},{"bike_id":"f87a7598-e6b9-4feb-a6e3-d98d4acd6941","system_id":"levelo_inurba_marseille","lat":43.24174,"lon":5.36407,"is_reserved":false,"is_disabled":false,"rental_uris":{"android":"levelo://app?vid=f87a7598-e6b9-4feb-a6e3-d98d4acd6941","ios":"levelo://app?vid=f87a7598-e6b9-4feb-a6e3-d98d4acd6941"},"vehicle_type_id":"4","last_reported":1766118362,"current_range_meters":8000,"station_id":"cpo36qri1sfpv3e86is0","pricing_plan_id":"cebpf4jnsgd1na2vs0mg"},{"bike_id":"7ba54602-568d-42aa-bd74-9550f527b3b9","system_id":"levelo_inurba_marseille","lat":43.288412,"lon":5.358275,"is_reserved":false,"is_disabled":false,"rental_uris":{"android":"levelo://app?vid=7ba54602-568d-42aa-bd74-9550f527b3b9","ios":"levelo://app?vid=7ba54602-568d-42aa-bd74-9550f527b3b9"},"vehicle_type_id":"4","last_reported":1766118362,"current_range_meters":8000,"station_id":"ce4bhb12rcd13ifvqem0","pricing_plan_id":"cebpf4jnsgd1na2vs0mg"},{"bike_id":"3443f220-658c-4c1b-aff5-6f58f3f1f9bb","system_id":"levelo_inurba_marseille","lat":43.29855,"lon":5.39742,"is_reserved":false,"is_disabled":false,"rental_uris":{"android":"levelo://app?vid=3443f220-658c-4c1b-aff5-6f58f3f1f9bb","ios":"levelo://app?vid=3443f220-658c-4c1b-aff5-6f58f3f1f9bb"},"vehicle_type_id":"4","last_reported":1766118362,"current_range_meters":8000,"station_id":"ce4bh0h2rcd13ifvqd50","pricing_plan_id":"cebpf4jnsgd1na2vs0mg"},{"bike_id":"ad8f8db9-350c-462f-b090-b1743e71d6e1","system_id":"levelo_inurba_marseille","lat":43.299731,"lon":5.371759,"is_reserved":false,"is_disabled":false,"rental_uris":{"android":"levelo://app?vid=ad8f8db9-350c-462f-b090-b1743e71d6e1","ios":"levelo://app?vid=ad8f8db9-350c-462f-b090-b1743e71d6e1"},"vehicle_type_id":"4","last_reported":1766118362,"current_range_meters":8400,"station_id":"ce4bgr92rcd13ifvqc7g","pricing_plan_id":"cebpf4jnsgd1na2vs0mg"},{"bike_id":"467517c8-ed87-4e02-bef8-4ed63963538d","system_id":"levelo_inurba_marseille","lat":43.27184,"lon":5.41,"is_reserved":false,"is_disabled":true,"rental_uris":{"android":"levelo://app?vid=467517c8-ed87-4e02-bef8-4ed63963538d","ios":"levelo://app?vid=467517c8-ed87-4e02-bef8-4ed63963538d"},"vehicle_type_id":"4","last_reported":1766118362,"current_range_meters":8400,"station_id":"ce4bhl12rcd13ifvqgf0","pricing_plan_id":"cebpf4jnsgd1na2vs0mg"},{"bike_id":"f65ad8d4-940c-4c44-8c2a-cd0c3cfcfbed","system_id":"levelo_inurba_marseille","lat":43.26685,"lon":5.38259,"is_reserved":false,"is_disabled":false,"rental_uris":{"android":"levelo://app?vid=f65ad8d4-940c-4c44-8c2a-cd0c3cfcfbed","ios":"levelo://app?vid=f65ad8d4-940c-4c44-8c2a-cd0c3cfcfbed"},"vehicle_type_id":"4","last_reported":1766118362,"current_range_meters":8400,"station_id":"ce4bhg92rcd13ifvqf90","pricing_plan_id":"cebpf4jnsgd1na2vs0mg"},{"bike_id":"40c51ff6-bcdf-4189-b2f9-53259a9dc236","system_id":"levelo_inurba_marseille","lat":43.28306,"lon":5.38919,"is_reserved":false,"is_disabled":true,"rental_uris":{"android":"levelo://app?vid=40c51ff6-bcdf-4189-b2f9-53259a9dc236","ios":"levelo://app?vid=40c51ff6-bcdf-4189-b2f9-53259a9dc236"},"vehicle_type_id":"4","last_reported":1766118362,"current_range_meters":8400,"station_id":"","pricing_plan_id":"cebpf4jnsgd1na2vs0mg"},{"bike_id":"9a3d7d62-61d2-4eda-b573-080611517549","system_id":"levelo_inurba_marseille","lat":43.2861,"lon":5.35106,"is_reserved":false,"is_disabled":false,"rental_uris":{"android":"levelo://app?vid=9a3d7d62-61d2-4eda-b573-080611517549","ios":"levelo://app?vid=9a3d7d62-61d2-4eda-b573-080611517549"},"vehicle_type_id":"4","last_reported":1766118362,"current_range_meters":8400,"station_id":"ce4bhch2rcd13ifvqeug","pricing_plan_id":"cebpf4jnsgd1na2vs0mg"},{"bike_id":"c63ccd62-9e0a-4e66-92ab-9a7e6a0ecf3e","system_id":"levelo_inurba_marseille","lat":43.28985,"lon":5.39055,"is_reserved":false,"is_disabled":false,"rental_uris":{"android":"levelo://app?vid=c63ccd62-9e0a-4e66-92ab-9a7e6a0ecf3e","ios":"levelo://app?vid=c63ccd62-9e0a-4e66-92ab-9a7e6a0ecf3e"},"vehicle_type_id":"4","last_reported":1766118362,"current_range_meters":8400,"station_id":"","pricing_plan_id":"cebpf4jnsgd1na2vs0mg"},{"bike_id":"a3abbdad-2039-488b-b268-05d157ebf11b","system_id":"levelo_inurba_marseille","lat":43.29294,"lon":5.37671,"is_reserved":false,"is_disabled":false,"rental_uris":{"android":"levelo://app?vid=a3abbdad-2039-488b-b268-05d157ebf11b","ios":"levelo://app?vid=a3abbdad-2039-488b-b268-05d157ebf11b"},"vehicle_type_id":"4","last_reported":1766118362,"current_range_meters":8400,"station_id":"ce4bgi12rcd13ifvqb80","pricing_plan_id":"cebpf4jnsgd1na2vs0mg"},{"bike_id":"09575982-d1ce-48f3-97ed-c290bec651a2","system_id":"levelo_inurba_marseille","lat":43.28535,"lon":5.44106,"is_reserved":false,"is_disabled":false,"rental_uris":{"android":"levelo://app?vid=09575982-d1ce-48f3-97ed-c290bec651a2","ios":"levelo://app?vid=09575982-d1ce-48f3-97ed-c290bec651a2"},"vehicle_type_id":"4","last_reported":1766118362,"current_range_meters":8400,"station_id":"st_d3j3df2ikq2c7380ej80","pricing_plan_id":"cebpf4jnsgd1na2vs0mg"},{"bike_id":"1c783e39-3092-489d-97e8-0a4c367392b3","system_id":"levelo_inurba_marseille","lat":43.30585,"lon":5.37201,"is_reserved":false,"is_disabled":false,"rental_uris":{"android":"levelo://app?vid=1c783e39-3092-489d-97e8-0a4c367392b3","ios":"levelo://app?vid=1c783e39-3092-489d-97e8-0a4c367392b3"},"vehicle_type_id":"4","last_reported":1766118362,"current_range_meters":8800,"station_id":"ce4bgqh2rcd13ifvqc4g","pricing_plan_id":"cebpf4jnsgd1na2vs0mg"},{"bike_id":"6a1e1967-fdaf-4e65-ae26-1571d7f0290c","system_id":"levelo_inurba_marseille","lat":43.337605,"lon":5.374353,"is_reserved":false,"is_disabled":false,"rental_uris":{"android":"levelo://app?vid=6a1e1967-fdaf-4e65-ae26-1571d7f0290c","ios":"levelo://app?vid=6a1e1967-fdaf-4e65-ae26-1571d7f0290c"},"vehicle_type_id":"4","last_reported":1766118362,"current_range_meters":8800,"station_id":"","pricing_plan_id":"cebpf4jnsgd1na2vs0mg"},{"bike_id":"21e5fd9f-e5d4-4aeb-929a-a23be3e8819d","system_id":"levelo_inurba_marseille","lat":43.30947,"lon":5.40134,"is_reserved":false,"is_disabled":false,"rental_uris":{"android":"levelo://app?vid=21e5fd9f-e5d4-4aeb-929a-a23be3e8819d","ios":"levelo://app?vid=21e5fd9f-e5d4-4aeb-929a-a23be3e8819d"},"vehicle_type_id":"4","last_reported":1766118362,"current_range_meters":8800,"station_id":"ce4bgvp2rcd13ifvqct0","pricing_plan_id":"cebpf4jnsgd1na2vs0mg"},{"bike_id":"4aa02506-0c43-4f05-be51-d45db880ee16","system_id":"levelo_inurba_marseille","lat":43.289368,"lon":5.366277,"is_reserved":false,"is_disabled":false,"rental_uris":{"android":"levelo://app?vid=4aa02506-0c43-4f05-be51-d45db880ee16","ios":"levelo://app?vid=4aa02506-0c43-4f05-be51-d45db880ee16"},"vehicle_type_id":"4","last_reported":1766118362,"current_range_meters":8800,"station_id":"ce4bhap2rcd13ifvqek0","pricing_plan_id":"cebpf4jnsgd1na2vs0mg"},{"bike_id":"37acae82-d1d0-450a-bf9a-b56251eaf3bb","system_id":"levelo_inurba_marseille","lat":43.22928,"lon":5.35382,"is_reserved":false,"is_disabled":false,"rental_uris":{"android":"levelo://app?vid=37acae82-d1d0-450a-bf9a-b56251eaf3bb","ios":"levelo://app?vid=37acae82-d1d0-450a-bf9a-b56251eaf3bb"},"vehicle_type_id":"4","last_reported":1766118362,"current_range_meters":8800,"station_id":"cpo3532slgdg3j2ikp40","pricing_plan_id":"cebpf4jnsgd1na2vs0mg"},{"bike_id":"ec566fdb-8f1a-414d-977d-1f15a6f7df92","system_id":"levelo_inurba_marseille","lat":43.2678,"lon":5.39426,"is_reserved":false,"is_disabled":false,"rental_uris":{"android":"levelo://app?vid=ec566fdb-8f1a-414d-977d-1f15a6f7df92","ios":"levelo://app?vid=ec566fdb-8f1a-414d-977d-1f15a6f7df92"},"vehicle_type_id":"4","last_reported":1766118362,"current_range_meters":8800,"station_id":"ce4bhh12rcd13ifvqfg0","pricing_plan_id":"cebpf4jnsgd1na2vs0mg"},{"bike_id":"9302250b-f5e6-4d0c-863d-477f53448b1d","system_id":"levelo_inurba_marseille","lat":43.30159,"lon":5.3809,"is_reserved":false,"is_disabled":false,"rental_uris":{"android":"levelo://app?vid=9302250b-f5e6-4d0c-863d-477f53448b1d","ios":"levelo://app?vid=9302250b-f5e6-4d0c-863d-477f53448b1d"},"vehicle_type_id":"4","last_reported":1766118362,"current_range_meters":8800,"station_id":"ce4bgjp2rcd13ifvqbh0","pricing_plan_id":"cebpf4jnsgd1na2vs0mg"},{"bike_id":"ead4c991-44c9-4e28-99a1-c6da940a25f1","system_id":"levelo_inurba_marseille","lat":43.305454,"lon":5.384241,"is_reserved":false,"is_disabled":false,"rental_uris":{"android":"levelo://app?vid=ead4c991-44c9-4e28-99a1-c6da940a25f1","ios":"levelo://app?vid=ead4c991-44c9-4e28-99a1-c6da940a25f1"},"vehicle_type_id":"4","last_reported":1766118362,"current_range_meters":8800,"station_id":"ce4bgg92rcd13ifvqb30","pricing_plan_id":"cebpf4jnsgd1na2vs0mg"},{"bike_id":"cf0e2dfe-8751-4251-bbd3-3ad00be9f3ad","system_id":"levelo_inurba_marseille","lat":43.284805,"lon":5.484031,"is_reserved":false,"is_disabled":false,"rental_uris":{"android":"levelo://app?vid=cf0e2dfe-8751-4251-bbd3-3ad00be9f3ad","ios":"levelo://app?vid=cf0e2dfe-8751-4251-bbd3-3ad00be9f3ad"},"vehicle_type_id":"4","last_reported":1766118362,"current_range_meters":8800,"station_id":"","pricing_plan_id":"cebpf4jnsgd1na2vs0mg"},{"bike_id":"f0552324-7f16-45f2-af53-7d50398c0e4b","system_id":"levelo_inurba_marseille","lat":43.292011,"lon":5.393194,"is_reserved":false,"is_disabled":true,"rental_uris":{"android":"levelo://app?vid=f0552324-7f16-45f2-af53-7d50398c0e4b","ios":"levelo://app?vid=f0552324-7f16-45f2-af53-7d50398c0e4b"},"vehicle_type_id":"4","last_reported":1766118362,"current_range_meters":8800,"station_id":"ce4bh192rcd13ifvqdd0","pricing_plan_id":"cebpf4jnsgd1na2vs0mg"},{"bike_id":"83c99fb0-e698-44f7-b62d-d5157869fb05","system_id":"levelo_inurba_marseille","lat":43.251178,"lon":5.403374,"is_reserved":false,"is_disabled":false,"rental_uris":{"android":"levelo://app?vid=83c99fb0-e698-44f7-b62d-d5157869fb05","ios":"levelo://app?vid=83c99fb0-e698-44f7-b62d-d5157869fb05"},"vehicle_type_id":"4","last_reported":1766118362,"current_range_meters":8800,"station_id":"ce4bhlh2rcd13ifvqgig","pricing_plan_id":"cebpf4jnsgd1na2vs0mg"},{"bike_id":"4de29479-d0d0-4dc4-bce7-cdafb64ed774","system_id":"levelo_inurba_marseille","lat":43.286262,"lon":5.35101,"is_reserved":false,"is_disabled":false,"rental_uris":{"android":"levelo://app?vid=4de29479-d0d0-4dc4-bce7-cdafb64ed774","ios":"levelo://app?vid=4de29479-d0d0-4dc4-bce7-cdafb64ed774"},"vehicle_type_id":"4","last_reported":1766118362,"current_range_meters":9200,"station_id":"ce4bhch2rcd13ifvqeug","pricing_plan_id":"cebpf4jnsgd1na2vs0mg"},{"bike_id":"1e6b9ab6-11b1-4c99-beb7-30b30e8ec0aa","system_id":"levelo_inurba_marseille","lat":43.25321,"lon":5.42205,"is_reserved":false,"is_disabled":false,"rental_uris":{"android":"levelo://app?vid=1e6b9ab6-11b1-4c99-beb7-30b30e8ec0aa","ios":"levelo://app?vid=1e6b9ab6-11b1-4c99-beb7-30b30e8ec0aa"},"vehicle_type_id":"4","last_reported":1766118362,"current_range_meters":9200,"station_id":"st_d2m65c5bi1j21697t3ng","pricing_plan_id":"cebpf4jnsgd1na2vs0mg"},{"bike_id":"55e2666e-7fc1-4f40-a2e1-5f6eda32c223","system_id":"levelo_inurba_marseille","lat":43.27854,"lon":5.41121,"is_reserved":false,"is_disabled":false,"rental_uris":{"android":"levelo://app?vid=55e2666e-7fc1-4f40-a2e1-5f6eda32c223","ios":"levelo://app?vid=55e2666e-7fc1-4f40-a2e1-5f6eda32c223"},"vehicle_type_id":"4","last_reported":1766118362,"current_range_meters":9200,"station_id":"ce4bhnp2rcd13ifvqh0g","pricing_plan_id":"cebpf4jnsgd1na2vs0mg"},{"bike_id":"4ee5cbd7-d314-4a5f-b01c-b41629a1d053","system_id":"levelo_inurba_marseille","lat":43.280232,"lon":5.369314,"is_reserved":false,"is_disabled":false,"rental_uris":{"android":"levelo://app?vid=4ee5cbd7-d314-4a5f-b01c-b41629a1d053","ios":"levelo://app?vid=4ee5cbd7-d314-4a5f-b01c-b41629a1d053"},"vehicle_type_id":"4","last_reported":1766118362,"current_range_meters":9200,"station_id":"ce4bha12rcd13ifvqef0","pricing_plan_id":"cebpf4jnsgd1na2vs0mg"},{"bike_id":"e3545456-9ccd-47b9-9f35-1db0fbdf5c17","system_id":"levelo_inurba_marseille","lat":43.28526,"lon":5.44106,"is_reserved":false,"is_disabled":false,"rental_uris":{"android":"levelo://app?vid=e3545456-9ccd-47b9-9f35-1db0fbdf5c17","ios":"levelo://app?vid=e3545456-9ccd-47b9-9f35-1db0fbdf5c17"},"vehicle_type_id":"4","last_reported":1766118362,"current_range_meters":9200,"station_id":"st_d3j3df2ikq2c7380ej80","pricing_plan_id":"cebpf4jnsgd1na2vs0mg"},{"bike_id":"c9ebe54a-3534-4700-b029-26ecc3e08a04","system_id":"levelo_inurba_marseille","lat":43.29925,"lon":5.39925,"is_reserved":false,"is_disabled":false,"rental_uris":{"android":"levelo://app?vid=c9ebe54a-3534-4700-b029-26ecc3e08a04","ios":"levelo://app?vid=c9ebe54a-3534-4700-b029-26ecc3e08a04"},"vehicle_type_id":"4","last_reported":1766118362,"current_range_meters":9200,"station_id":"","pricing_plan_id":"cebpf4jnsgd1na2vs0mg"},{"bike_id":"436e467e-3ef8-4484-b12e-82fd46509f97","system_id":"levelo_inurba_marseille","lat":43.23297,"lon":5.44393,"is_reserved":false,"is_disabled":false,"rental_uris":{"android":"levelo://app?vid=436e467e-3ef8-4484-b12e-82fd46509f97","ios":"levelo://app?vid=436e467e-3ef8-4484-b12e-82fd46509f97"},"vehicle_type_id":"4","last_reported":1766118362,"current_range_meters":9600,"station_id":"","pricing_plan_id":"cebpf4jnsgd1na2vs0mg"},{"bike_id":"4a614ce4-d61c-499d-8955-0569e02f377b","system_id":"levelo_inurba_marseille","lat":43.2751,"lon":5.3727,"is_reserved":false,"is_disabled":false,"rental_uris":{"android":"levelo://app?vid=4a614ce4-d61c-499d-8955-0569e02f377b","ios":"levelo://app?vid=4a614ce4-d61c-499d-8955-0569e02f377b"},"vehicle_type_id":"4","last_reported":1766118362,"current_range_meters":9600,"station_id":"","pricing_plan_id":"cebpf4jnsgd1na2vs0mg"},{"bike_id":"85f12ccf-5b46-4628-894a-c4095346a940","system_id":"levelo_inurba_marseille","lat":43.27972,"lon":5.41044,"is_reserved":false,"is_disabled":true,"rental_uris":{"android":"levelo://app?vid=85f12ccf-5b46-4628-894a-c4095346a940","ios":"levelo://app?vid=85f12ccf-5b46-4628-894a-c4095346a940"},"vehicle_type_id":"4","last_reported":1766118362,"current_range_meters":9600,"station_id":"ce4bhnp2rcd13ifvqh0g","pricing_plan_id":"cebpf4jnsgd1na2vs0mg"},{"bike_id":"ee6f7e5c-24b4-4046-a3ec-072080785116","system_id":"levelo_inurba_marseille","lat":43.21746,"lon":5.34594,"is_reserved":false,"is_disabled":true,"rental_uris":{"android":"levelo://app?vid=ee6f7e5c-24b4-4046-a3ec-072080785116","ios":"levelo://app?vid=ee6f7e5c-24b4-4046-a3ec-072080785116"},"vehicle_type_id":"4","last_reported":1766118362,"current_range_meters":9600,"station_id":"st_cvj6r9ubvosntc0bgbag","pricing_plan_id":"cebpf4jnsgd1na2vs0mg"},{"bike_id":"a24ee5b6-572d-4941-9ef3-a9d89c28bd82","system_id":"levelo_inurba_marseille","lat":43.30557,"lon":5.36707,"is_reserved":false,"is_disabled":false,"rental_uris":{"android":"levelo://app?vid=a24ee5b6-572d-4941-9ef3-a9d89c28bd82","ios":"levelo://app?vid=a24ee5b6-572d-4941-9ef3-a9d89c28bd82"},"vehicle_type_id":"4","last_reported":1766118362,"current_range_meters":9600,"station_id":"ce4bgrp2rcd13ifvqc9g","pricing_plan_id":"cebpf4jnsgd1na2vs0mg"},{"bike_id":"7646bb24-8e97-4ec7-8f0b-3bd06c67dd5d","system_id":"levelo_inurba_marseille","lat":43.3108,"lon":5.42429,"is_reserved":false,"is_disabled":false,"rental_uris":{"android":"levelo://app?vid=7646bb24-8e97-4ec7-8f0b-3bd06c67dd5d","ios":"levelo://app?vid=7646bb24-8e97-4ec7-8f0b-3bd06c67dd5d"},"vehicle_type_id":"4","last_reported":1766118362,"current_range_meters":9600,"station_id":"ce4bhp92rcd13ifvqhag","pricing_plan_id":"cebpf4jnsgd1na2vs0mg"},{"bike_id":"13d3967b-4cfe-47bf-8d35-564fb9330955","system_id":"levelo_inurba_marseille","lat":43.284066,"lon":5.375362,"is_reserved":false,"is_disabled":true,"rental_uris":{"android":"levelo://app?vid=13d3967b-4cfe-47bf-8d35-564fb9330955","ios":"levelo://app?vid=13d3967b-4cfe-47bf-8d35-564fb9330955"},"vehicle_type_id":"4","last_reported":1766118362,"current_range_meters":9600,"station_id":"ce4bh412rcd13ifvqds0","pricing_plan_id":"cebpf4jnsgd1na2vs0mg"},{"bike_id":"136e3c93-7bf6-44bf-a3f3-6515f90c6728","system_id":"levelo_inurba_marseille","lat":43.28218,"lon":5.3902,"is_reserved":false,"is_disabled":false,"rental_uris":{"android":"levelo://app?vid=136e3c93-7bf6-44bf-a3f3-6515f90c6728","ios":"levelo://app?vid=136e3c93-7bf6-44bf-a3f3-6515f90c6728"},"vehicle_type_id":"4","last_reported":1766118362,"current_range_meters":9600,"station_id":"ce4bhn92rcd13ifvqgsg","pricing_plan_id":"cebpf4jnsgd1na2vs0mg"},{"bike_id":"4967ee31-7b12-41dd-95bc-934841f68bea","system_id":"levelo_inurba_marseille","lat":43.27915,"lon":5.3958,"is_reserved":false,"is_disabled":false,"rental_uris":{"android":"levelo://app?vid=4967ee31-7b12-41dd-95bc-934841f68bea","ios":"levelo://app?vid=4967ee31-7b12-41dd-95bc-934841f68bea"},"vehicle_type_id":"4","last_reported":1766118362,"current_range_meters":9600,"station_id":"ce4bhf92rcd13ifvqf40","pricing_plan_id":"cebpf4jnsgd1na2vs0mg"},{"bike_id":"c2b60210-c2fc-42df-8a7f-5d2ba9cadabb","system_id":"levelo_inurba_marseille","lat":43.30942,"lon":5.39029,"is_reserved":false,"is_disabled":true,"rental_uris":{"android":"levelo://app?vid=c2b60210-c2fc-42df-8a7f-5d2ba9cadabb","ios":"levelo://app?vid=c2b60210-c2fc-42df-8a7f-5d2ba9cadabb"},"vehicle_type_id":"4","last_reported":1766118362,"current_range_meters":9600,"station_id":"ce4bgup2rcd13ifvqco0","pricing_plan_id":"cebpf4jnsgd1na2vs0mg"},{"bike_id":"f5263347-3c71-41be-b174-7df864a4ff80","system_id":"levelo_inurba_marseille","lat":43.316732,"lon":5.40454,"is_reserved":false,"is_disabled":false,"rental_uris":{"android":"levelo://app?vid=f5263347-3c71-41be-b174-7df864a4ff80","ios":"levelo://app?vid=f5263347-3c71-41be-b174-7df864a4ff80"},"vehicle_type_id":"4","last_reported":1766118362,"current_range_meters":9600,"station_id":"ce4bh012rcd13ifvqd00","pricing_plan_id":"cebpf4jnsgd1na2vs0mg"},{"bike_id":"9859a8ec-16a9-4245-8424-35aa36622331","system_id":"levelo_inurba_marseille","lat":43.311169,"lon":5.377649,"is_reserved":false,"is_disabled":false,"rental_uris":{"android":"levelo://app?vid=9859a8ec-16a9-4245-8424-35aa36622331","ios":"levelo://app?vid=9859a8ec-16a9-4245-8424-35aa36622331"},"vehicle_type_id":"4","last_reported":1766118362,"current_range_meters":9600,"station_id":"ce4bgt92rcd13ifvqcg0","pricing_plan_id":"cebpf4jnsgd1na2vs0mg"},{"bike_id":"9ce1842c-18fc-43eb-9262-95f8086e7650","system_id":"levelo_inurba_marseille","lat":43.27825,"lon":5.40736,"is_reserved":false,"is_disabled":false,"rental_uris":{"android":"levelo://app?vid=9ce1842c-18fc-43eb-9262-95f8086e7650","ios":"levelo://app?vid=9ce1842c-18fc-43eb-9262-95f8086e7650"},"vehicle_type_id":"4","last_reported":1766118362,"current_range_meters":10000,"station_id":"ce4bhnh2rcd13ifvqgtg","pricing_plan_id":"cebpf4jnsgd1na2vs0mg"},{"bike_id":"ed227b78-f9d0-49aa-9dc2-63aff8ee0a6f","system_id":"levelo_inurba_marseille","lat":43.28225,"lon":5.39057,"is_reserved":false,"is_disabled":false,"rental_uris":{"android":"levelo://app?vid=ed227b78-f9d0-49aa-9dc2-63aff8ee0a6f","ios":"levelo://app?vid=ed227b78-f9d0-49aa-9dc2-63aff8ee0a6f"},"vehicle_type_id":"4","last_reported":1766118362,"current_range_meters":10000,"station_id":"ce4bhn92rcd13ifvqgsg","pricing_plan_id":"cebpf4jnsgd1na2vs0mg"},{"bike_id":"f2a5954f-7832-41d8-927a-0a1a2e0f9394","system_id":"levelo_inurba_marseille","lat":43.24395,"lon":5.37058,"is_reserved":false,"is_disabled":false,"rental_uris":{"android":"levelo://app?vid=f2a5954f-7832-41d8-927a-0a1a2e0f9394","ios":"levelo://app?vid=f2a5954f-7832-41d8-927a-0a1a2e0f9394"},"vehicle_type_id":"4","last_reported":1766118362,"current_range_meters":10000,"station_id":"ce4bhhh2rcd13ifvqfk0","pricing_plan_id":"cebpf4jnsgd1na2vs0mg"},{"bike_id":"f365ebf1-46c0-4bc0-ae4f-263145122a46","system_id":"levelo_inurba_marseille","lat":43.250068,"lon":5.38924,"is_reserved":false,"is_disabled":false,"rental_uris":{"android":"levelo://app?vid=f365ebf1-46c0-4bc0-ae4f-263145122a46","ios":"levelo://app?vid=f365ebf1-46c0-4bc0-ae4f-263145122a46"},"vehicle_type_id":"4","last_reported":1766118362,"current_range_meters":10000,"station_id":"ce4bhgp2rcd13ifvqfd0","pricing_plan_id":"cebpf4jnsgd1na2vs0mg"},{"bike_id":"da0c886d-bf9d-46c9-ba41-bfd5ae0eda24","system_id":"levelo_inurba_marseille","lat":43.24139,"lon":5.36431,"is_reserved":false,"is_disabled":false,"rental_uris":{"android":"levelo://app?vid=da0c886d-bf9d-46c9-ba41-bfd5ae0eda24","ios":"levelo://app?vid=da0c886d-bf9d-46c9-ba41-bfd5ae0eda24"},"vehicle_type_id":"4","last_reported":1766118362,"current_range_meters":10000,"station_id":"cpo36qri1sfpv3e86is0","pricing_plan_id":"cebpf4jnsgd1na2vs0mg"},{"bike_id":"f8ebd501-fad9-48ed-a55d-564fc9324817","system_id":"levelo_inurba_marseille","lat":43.27939,"lon":5.4105,"is_reserved":false,"is_disabled":false,"rental_uris":{"android":"levelo://app?vid=f8ebd501-fad9-48ed-a55d-564fc9324817","ios":"levelo://app?vid=f8ebd501-fad9-48ed-a55d-564fc9324817"},"vehicle_type_id":"4","last_reported":1766118362,"current_range_meters":10000,"station_id":"ce4bhnp2rcd13ifvqh0g","pricing_plan_id":"cebpf4jnsgd1na2vs0mg"},{"bike_id":"228ed5e4-a793-4f90-a46f-1e70b2793524","system_id":"levelo_inurba_marseille","lat":43.28617,"lon":5.39868,"is_reserved":false,"is_disabled":true,"rental_uris":{"android":"levelo://app?vid=228ed5e4-a793-4f90-a46f-1e70b2793524","ios":"levelo://app?vid=228ed5e4-a793-4f90-a46f-1e70b2793524"},"vehicle_type_id":"4","last_reported":1766118362,"current_range_meters":10000,"station_id":"st_d4a7ka997mjs738ck50g","pricing_plan_id":"cebpf4jnsgd1na2vs0mg"},{"bike_id":"c5365846-c619-4f12-8c92-97c9f9725a15","system_id":"levelo_inurba_marseille","lat":43.29544,"lon":5.37927,"is_reserved":false,"is_disabled":false,"rental_uris":{"android":"levelo://app?vid=c5365846-c619-4f12-8c92-97c9f9725a15","ios":"levelo://app?vid=c5365846-c619-4f12-8c92-97c9f9725a15"},"vehicle_type_id":"4","last_reported":1766118362,"current_range_meters":10000,"station_id":"","pricing_plan_id":"cebpf4jnsgd1na2vs0mg"},{"bike_id":"5c8be759-0f11-4129-be41-c24cc2ed7a39","system_id":"levelo_inurba_marseille","lat":43.309085,"lon":5.368573,"is_reserved":false,"is_disabled":false,"rental_uris":{"android":"levelo://app?vid=5c8be759-0f11-4129-be41-c24cc2ed7a39","ios":"levelo://app?vid=5c8be759-0f11-4129-be41-c24cc2ed7a39"},"vehicle_type_id":"4","last_reported":1766118362,"current_range_meters":10000,"station_id":"ce4bgn92rcd13ifvqbvg","pricing_plan_id":"cebpf4jnsgd1na2vs0mg"},{"bike_id":"01a22ff4-19c2-4976-a549-24240c0f7d2f","system_id":"levelo_inurba_marseille","lat":43.25355,"lon":5.42188,"is_reserved":false,"is_disabled":false,"rental_uris":{"android":"levelo://app?vid=01a22ff4-19c2-4976-a549-24240c0f7d2f","ios":"levelo://app?vid=01a22ff4-19c2-4976-a549-24240c0f7d2f"},"vehicle_type_id":"4","last_reported":1766118362,"current_range_meters":10000,"station_id":"st_d2m65c5bi1j21697t3ng","pricing_plan_id":"cebpf4jnsgd1na2vs0mg"},{"bike_id":"b182c9c6-19f5-43ce-9757-5fd6f7bcee12","system_id":"levelo_inurba_marseille","lat":43.300783,"lon":5.39082,"is_reserved":false,"is_disabled":false,"rental_uris":{"android":"levelo://app?vid=b182c9c6-19f5-43ce-9757-5fd6f7bcee12","ios":"levelo://app?vid=b182c9c6-19f5-43ce-9757-5fd6f7bcee12"},"vehicle_type_id":"4","last_reported":1766118362,"current_range_meters":10000,"station_id":"ce4bh192rcd13ifvqdb0","pricing_plan_id":"cebpf4jnsgd1na2vs0mg"},{"bike_id":"fade1f76-6248-43fe-aeb9-7f93aeff737b","system_id":"levelo_inurba_marseille","lat":43.27922,"lon":5.39579,"is_reserved":false,"is_disabled":true,"rental_uris":{"android":"levelo://app?vid=fade1f76-6248-43fe-aeb9-7f93aeff737b","ios":"levelo://app?vid=fade1f76-6248-43fe-aeb9-7f93aeff737b"},"vehicle_type_id":"4","last_reported":1766118362,"current_range_meters":10000,"station_id":"ce4bhf92rcd13ifvqf40","pricing_plan_id":"cebpf4jnsgd1na2vs0mg"},{"bike_id":"374a0371-4968-4fe9-88a9-ac5ffa94b236","system_id":"levelo_inurba_marseille","lat":43.31442,"lon":5.45349,"is_reserved":false,"is_disabled":false,"rental_uris":{"android":"levelo://app?vid=374a0371-4968-4fe9-88a9-ac5ffa94b236","ios":"levelo://app?vid=374a0371-4968-4fe9-88a9-ac5ffa94b236"},"vehicle_type_id":"4","last_reported":1766118362,"current_range_meters":10000,"station_id":"","pricing_plan_id":"cebpf4jnsgd1na2vs0mg"},{"bike_id":"1626daf3-5722-4708-8aed-cbc8067f87db","system_id":"levelo_inurba_marseille","lat":43.28622,"lon":5.35107,"is_reserved":false,"is_disabled":false,"rental_uris":{"android":"levelo://app?vid=1626daf3-5722-4708-8aed-cbc8067f87db","ios":"levelo://app?vid=1626daf3-5722-4708-8aed-cbc8067f87db"},"vehicle_type_id":"4","last_reported":1766118362,"current_range_meters":10000,"station_id":"ce4bhch2rcd13ifvqeug","pricing_plan_id":"cebpf4jnsgd1na2vs0mg"},{"bike_id":"0086be68-5be4-4e1c-8f0a-aca61942d788","system_id":"levelo_inurba_marseille","lat":43.30245,"lon":5.40065,"is_reserved":false,"is_disabled":false,"rental_uris":{"android":"levelo://app?vid=0086be68-5be4-4e1c-8f0a-aca61942d788","ios":"levelo://app?vid=0086be68-5be4-4e1c-8f0a-aca61942d788"},"vehicle_type_id":"4","last_reported":1766118362,"current_range_meters":10000,"station_id":"ce4bgvh2rcd13ifvqcs0","pricing_plan_id":"cebpf4jnsgd1na2vs0mg"},{"bike_id":"a6bb7fde-2db0-447e-8cac-38a0c3844ce6","system_id":"levelo_inurba_marseille","lat":43.27784,"lon":5.3881,"is_reserved":false,"is_disabled":false,"rental_uris":{"android":"levelo://app?vid=a6bb7fde-2db0-447e-8cac-38a0c3844ce6","ios":"levelo://app?vid=a6bb7fde-2db0-447e-8cac-38a0c3844ce6"},"vehicle_type_id":"4","last_reported":1766118362,"current_range_meters":10800,"station_id":"","pricing_plan_id":"cebpf4jnsgd1na2vs0mg"},{"bike_id":"4218c3f6-4764-47cf-93fc-c76838aefb78","system_id":"levelo_inurba_marseille","lat":43.24173,"lon":5.36417,"is_reserved":false,"is_disabled":false,"rental_uris":{"android":"levelo://app?vid=4218c3f6-4764-47cf-93fc-c76838aefb78","ios":"levelo://app?vid=4218c3f6-4764-47cf-93fc-c76838aefb78"},"vehicle_type_id":"4","last_reported":1766118362,"current_range_meters":10800,"station_id":"cpo36qri1sfpv3e86is0","pricing_plan_id":"cebpf4jnsgd1na2vs0mg"},{"bike_id":"d783168f-15b2-4b2a-ad46-bc652bed9d53","system_id":"levelo_inurba_marseille","lat":43.30209,"lon":5.39451,"is_reserved":false,"is_disabled":false,"rental_uris":{"android":"levelo://app?vid=d783168f-15b2-4b2a-ad46-bc652bed9d53","ios":"levelo://app?vid=d783168f-15b2-4b2a-ad46-bc652bed9d53"},"vehicle_type_id":"4","last_reported":1766118362,"current_range_meters":10800,"station_id":"ce4bh0p2rcd13ifvqd70","pricing_plan_id":"cebpf4jnsgd1na2vs0mg"},{"bike_id":"d50867a0-a974-4546-a28c-eba4c2e0b399","system_id":"levelo_inurba_marseille","lat":43.231923,"lon":5.3555,"is_reserved":false,"is_disabled":false,"rental_uris":{"android":"levelo://app?vid=d50867a0-a974-4546-a28c-eba4c2e0b399","ios":"levelo://app?vid=d50867a0-a974-4546-a28c-eba4c2e0b399"},"vehicle_type_id":"4","last_reported":1766118362,"current_range_meters":10800,"station_id":"ce4bhu92rcd13ifvqi70","pricing_plan_id":"cebpf4jnsgd1na2vs0mg"},{"bike_id":"1f8bf9e3-c9bd-4c05-9201-34f9580d25af","system_id":"levelo_inurba_marseille","lat":43.21178,"lon":5.35077,"is_reserved":false,"is_disabled":false,"rental_uris":{"android":"levelo://app?vid=1f8bf9e3-c9bd-4c05-9201-34f9580d25af","ios":"levelo://app?vid=1f8bf9e3-c9bd-4c05-9201-34f9580d25af"},"vehicle_type_id":"4","last_reported":1766118362,"current_range_meters":10800,"station_id":"st_cvj6sg6p6f1abm77japg","pricing_plan_id":"cebpf4jnsgd1na2vs0mg"},{"bike_id":"0a598fce-978f-4f90-b03f-b8be1902feff","system_id":"levelo_inurba_marseille","lat":43.31192,"lon":5.37859,"is_reserved":false,"is_disabled":false,"rental_uris":{"android":"levelo://app?vid=0a598fce-978f-4f90-b03f-b8be1902feff","ios":"levelo://app?vid=0a598fce-978f-4f90-b03f-b8be1902feff"},"vehicle_type_id":"4","last_reported":1766118362,"current_range_meters":10800,"station_id":"","pricing_plan_id":"cebpf4jnsgd1na2vs0mg"},{"bike_id":"d0dd282f-2c05-49dd-834d-6d93cee6c88a","system_id":"levelo_inurba_marseille","lat":43.30194,"lon":5.36623,"is_reserved":false,"is_disabled":true,"rental_uris":{"android":"levelo://app?vid=d0dd282f-2c05-49dd-834d-6d93cee6c88a","ios":"levelo://app?vid=d0dd282f-2c05-49dd-834d-6d93cee6c88a"},"vehicle_type_id":"4","last_reported":1766118362,"current_range_meters":10800,"station_id":"ce4bgrh2rcd13ifvqc8g","pricing_plan_id":"cebpf4jnsgd1na2vs0mg"},{"bike_id":"1f056b37-e3f2-4d39-81cb-848d585f8a47","system_id":"levelo_inurba_marseille","lat":43.2416,"lon":5.3641,"is_reserved":false,"is_disabled":false,"rental_uris":{"android":"levelo://app?vid=1f056b37-e3f2-4d39-81cb-848d585f8a47","ios":"levelo://app?vid=1f056b37-e3f2-4d39-81cb-848d585f8a47"},"vehicle_type_id":"4","last_reported":1766118362,"current_range_meters":10800,"station_id":"cpo36qri1sfpv3e86is0","pricing_plan_id":"cebpf4jnsgd1na2vs0mg"},{"bike_id":"3600545b-6af9-4527-916c-36a9c126b47e","system_id":"levelo_inurba_marseille","lat":43.301412,"lon":5.374166,"is_reserved":false,"is_disabled":false,"rental_uris":{"android":"levelo://app?vid=3600545b-6af9-4527-916c-36a9c126b47e","ios":"levelo://app?vid=3600545b-6af9-4527-916c-36a9c126b47e"},"vehicle_type_id":"4","last_reported":1766118362,"current_range_meters":11200,"station_id":"ce4bgs92rcd13ifvqcc0","pricing_plan_id":"cebpf4jnsgd1na2vs0mg"},{"bike_id":"9f6c9975-15d6-48de-a383-d85662191ef8","system_id":"levelo_inurba_marseille","lat":43.21185,"lon":5.351006,"is_reserved":false,"is_disabled":false,"rental_uris":{"android":"levelo://app?vid=9f6c9975-15d6-48de-a383-d85662191ef8","ios":"levelo://app?vid=9f6c9975-15d6-48de-a383-d85662191ef8"},"vehicle_type_id":"4","last_reported":1766118362,"current_range_meters":11200,"station_id":"st_cvj6sg6p6f1abm77japg","pricing_plan_id":"cebpf4jnsgd1na2vs0mg"},{"bike_id":"33fb061b-cc0a-44e2-a90b-8eab16db9143","system_id":"levelo_inurba_marseille","lat":43.27961,"lon":5.41054,"is_reserved":false,"is_disabled":false,"rental_uris":{"android":"levelo://app?vid=33fb061b-cc0a-44e2-a90b-8eab16db9143","ios":"levelo://app?vid=33fb061b-cc0a-44e2-a90b-8eab16db9143"},"vehicle_type_id":"4","last_reported":1766118362,"current_range_meters":11200,"station_id":"ce4bhnp2rcd13ifvqh0g","pricing_plan_id":"cebpf4jnsgd1na2vs0mg"},{"bike_id":"f07708a6-82af-4792-a815-0ab5057b5c95","system_id":"levelo_inurba_marseille","lat":43.30645,"lon":5.400802,"is_reserved":false,"is_disabled":false,"rental_uris":{"android":"levelo://app?vid=f07708a6-82af-4792-a815-0ab5057b5c95","ios":"levelo://app?vid=f07708a6-82af-4792-a815-0ab5057b5c95"},"vehicle_type_id":"4","last_reported":1766118362,"current_range_meters":11200,"station_id":"ce4bh112rcd13ifvqda0","pricing_plan_id":"cebpf4jnsgd1na2vs0mg"},{"bike_id":"91dc96a9-ec51-4128-814e-ce3aa80480d3","system_id":"levelo_inurba_marseille","lat":43.30037,"lon":5.38125,"is_reserved":false,"is_disabled":false,"rental_uris":{"android":"levelo://app?vid=91dc96a9-ec51-4128-814e-ce3aa80480d3","ios":"levelo://app?vid=91dc96a9-ec51-4128-814e-ce3aa80480d3"},"vehicle_type_id":"4","last_reported":1766118362,"current_range_meters":11200,"station_id":"","pricing_plan_id":"cebpf4jnsgd1na2vs0mg"},{"bike_id":"56055c29-d1fb-47ce-9452-ce663cc953fd","system_id":"levelo_inurba_marseille","lat":43.31323,"lon":5.39703,"is_reserved":false,"is_disabled":false,"rental_uris":{"android":"levelo://app?vid=56055c29-d1fb-47ce-9452-ce663cc953fd","ios":"levelo://app?vid=56055c29-d1fb-47ce-9452-ce663cc953fd"},"vehicle_type_id":"4","last_reported":1766118362,"current_range_meters":11200,"station_id":"ce4bgvp2rcd13ifvqcu0","pricing_plan_id":"cebpf4jnsgd1na2vs0mg"},{"bike_id":"52f275a8-c86e-47e7-94d9-64f50bc0051b","system_id":"levelo_inurba_marseille","lat":43.30929,"lon":5.40143,"is_reserved":false,"is_disabled":false,"rental_uris":{"android":"levelo://app?vid=52f275a8-c86e-47e7-94d9-64f50bc0051b","ios":"levelo://app?vid=52f275a8-c86e-47e7-94d9-64f50bc0051b"},"vehicle_type_id":"4","last_reported":1766118362,"current_range_meters":11200,"station_id":"ce4bgvp2rcd13ifvqct0","pricing_plan_id":"cebpf4jnsgd1na2vs0mg"},{"bike_id":"17a49efb-d179-4b85-b20c-4afe87c0613f","system_id":"levelo_inurba_marseille","lat":43.31056,"lon":5.37169,"is_reserved":false,"is_disabled":true,"rental_uris":{"android":"levelo://app?vid=17a49efb-d179-4b85-b20c-4afe87c0613f","ios":"levelo://app?vid=17a49efb-d179-4b85-b20c-4afe87c0613f"},"vehicle_type_id":"4","last_reported":1766118362,"current_range_meters":11200,"station_id":"st_d4kl2rp97mjs73e7tdfg","pricing_plan_id":"cebpf4jnsgd1na2vs0mg"},{"bike_id":"3165b46a-3493-4d35-8deb-2335a6e8b422","system_id":"levelo_inurba_marseille","lat":43.253348,"lon":5.421635,"is_reserved":false,"is_disabled":false,"rental_uris":{"android":"levelo://app?vid=3165b46a-3493-4d35-8deb-2335a6e8b422","ios":"levelo://app?vid=3165b46a-3493-4d35-8deb-2335a6e8b422"},"vehicle_type_id":"4","last_reported":1766118362,"current_range_meters":11200,"station_id":"st_d2m65c5bi1j21697t3ng","pricing_plan_id":"cebpf4jnsgd1na2vs0mg"},{"bike_id":"b35bf390-3731-42ac-9e87-33947aeb4efc","system_id":"levelo_inurba_marseille","lat":43.32778,"lon":5.392284,"is_reserved":false,"is_disabled":false,"rental_uris":{"android":"levelo://app?vid=b35bf390-3731-42ac-9e87-33947aeb4efc","ios":"levelo://app?vid=b35bf390-3731-42ac-9e87-33947aeb4efc"},"vehicle_type_id":"4","last_reported":1766118362,"current_range_meters":11600,"station_id":"","pricing_plan_id":"cebpf4jnsgd1na2vs0mg"},{"bike_id":"cf5eb2c1-c87d-4ae3-9256-41d8d82f1276","system_id":"levelo_inurba_marseille","lat":43.29219,"lon":5.36069,"is_reserved":false,"is_disabled":false,"rental_uris":{"android":"levelo://app?vid=cf5eb2c1-c87d-4ae3-9256-41d8d82f1276","ios":"levelo://app?vid=cf5eb2c1-c87d-4ae3-9256-41d8d82f1276"},"vehicle_type_id":"4","last_reported":1766118362,"current_range_meters":11600,"station_id":"ce4bhbh2rcd13ifvqeqg","pricing_plan_id":"cebpf4jnsgd1na2vs0mg"},{"bike_id":"f3a4c2fd-c27a-4ca6-bbe5-3949d2a88808","system_id":"levelo_inurba_marseille","lat":43.28584,"lon":5.43,"is_reserved":false,"is_disabled":false,"rental_uris":{"android":"levelo://app?vid=f3a4c2fd-c27a-4ca6-bbe5-3949d2a88808","ios":"levelo://app?vid=f3a4c2fd-c27a-4ca6-bbe5-3949d2a88808"},"vehicle_type_id":"4","last_reported":1766118362,"current_range_meters":11600,"station_id":"","pricing_plan_id":"cebpf4jnsgd1na2vs0mg"},{"bike_id":"9f3c0044-3fd3-4dcb-bbd1-75f89d5cdde5","system_id":"levelo_inurba_marseille","lat":43.313684,"lon":5.384989,"is_reserved":false,"is_disabled":false,"rental_uris":{"android":"levelo://app?vid=9f3c0044-3fd3-4dcb-bbd1-75f89d5cdde5","ios":"levelo://app?vid=9f3c0044-3fd3-4dcb-bbd1-75f89d5cdde5"},"vehicle_type_id":"4","last_reported":1766118362,"current_range_meters":12000,"station_id":"ce4bgt92rcd13ifvqcf0","pricing_plan_id":"cebpf4jnsgd1na2vs0mg"},{"bike_id":"305412fd-41fd-4f48-b0ce-d25b5a7eb63f","system_id":"levelo_inurba_marseille","lat":43.345966,"lon":5.381969,"is_reserved":false,"is_disabled":false,"rental_uris":{"android":"levelo://app?vid=305412fd-41fd-4f48-b0ce-d25b5a7eb63f","ios":"levelo://app?vid=305412fd-41fd-4f48-b0ce-d25b5a7eb63f"},"vehicle_type_id":"4","last_reported":1766118362,"current_range_meters":12000,"station_id":"","pricing_plan_id":"cebpf4jnsgd1na2vs0mg"},{"bike_id":"4a4511f8-e03d-4104-bc90-a58fb016d12a","system_id":"levelo_inurba_marseille","lat":43.31123,"lon":5.37781,"is_reserved":false,"is_disabled":false,"rental_uris":{"android":"levelo://app?vid=4a4511f8-e03d-4104-bc90-a58fb016d12a","ios":"levelo://app?vid=4a4511f8-e03d-4104-bc90-a58fb016d12a"},"vehicle_type_id":"4","last_reported":1766118362,"current_range_meters":12000,"station_id":"ce4bgt92rcd13ifvqcg0","pricing_plan_id":"cebpf4jnsgd1na2vs0mg"},{"bike_id":"f625f78d-1bc8-43e0-b2b6-ddc403a0547a","system_id":"levelo_inurba_marseille","lat":43.2408,"lon":5.37752,"is_reserved":false,"is_disabled":false,"rental_uris":{"android":"levelo://app?vid=f625f78d-1bc8-43e0-b2b6-ddc403a0547a","ios":"levelo://app?vid=f625f78d-1bc8-43e0-b2b6-ddc403a0547a"},"vehicle_type_id":"4","last_reported":1766118362,"current_range_meters":12000,"station_id":"ce4bhnp2rcd13ifvqgvg","pricing_plan_id":"cebpf4jnsgd1na2vs0mg"},{"bike_id":"6944cb44-4c51-460a-b75a-17c9662ff892","system_id":"levelo_inurba_marseille","lat":43.29972,"lon":5.37192,"is_reserved":false,"is_disabled":false,"rental_uris":{"android":"levelo://app?vid=6944cb44-4c51-460a-b75a-17c9662ff892","ios":"levelo://app?vid=6944cb44-4c51-460a-b75a-17c9662ff892"},"vehicle_type_id":"4","last_reported":1766118362,"current_range_meters":12000,"station_id":"ce4bgr92rcd13ifvqc7g","pricing_plan_id":"cebpf4jnsgd1na2vs0mg"},{"bike_id":"413557ff-13d9-40fb-81ee-6ad5e7d92bea","system_id":"levelo_inurba_marseille","lat":43.21189,"lon":5.35058,"is_reserved":false,"is_disabled":false,"rental_uris":{"android":"levelo://app?vid=413557ff-13d9-40fb-81ee-6ad5e7d92bea","ios":"levelo://app?vid=413557ff-13d9-40fb-81ee-6ad5e7d92bea"},"vehicle_type_id":"4","last_reported":1766118362,"current_range_meters":12000,"station_id":"st_cvj6sg6p6f1abm77japg","pricing_plan_id":"cebpf4jnsgd1na2vs0mg"},{"bike_id":"89ac5a74-d552-43f2-9e9b-f90e79428ec7","system_id":"levelo_inurba_marseille","lat":43.29287,"lon":5.40121,"is_reserved":false,"is_disabled":false,"rental_uris":{"android":"levelo://app?vid=89ac5a74-d552-43f2-9e9b-f90e79428ec7","ios":"levelo://app?vid=89ac5a74-d552-43f2-9e9b-f90e79428ec7"},"vehicle_type_id":"4","last_reported":1766118362,"current_range_meters":12000,"station_id":"ce4bh312rcd13ifvqdk0","pricing_plan_id":"cebpf4jnsgd1na2vs0mg"},{"bike_id":"dfbce69e-f6e8-4b7d-b65d-85deba113350","system_id":"levelo_inurba_marseille","lat":43.28233,"lon":5.35022,"is_reserved":false,"is_disabled":false,"rental_uris":{"android":"levelo://app?vid=dfbce69e-f6e8-4b7d-b65d-85deba113350","ios":"levelo://app?vid=dfbce69e-f6e8-4b7d-b65d-85deba113350"},"vehicle_type_id":"4","last_reported":1766118362,"current_range_meters":12000,"station_id":"","pricing_plan_id":"cebpf4jnsgd1na2vs0mg"},{"bike_id":"28e7ea25-d676-49ca-8be6-ac1c19bc94ea","system_id":"levelo_inurba_marseille","lat":43.33425,"lon":5.4005,"is_reserved":false,"is_disabled":false,"rental_uris":{"android":"levelo://app?vid=28e7ea25-d676-49ca-8be6-ac1c19bc94ea","ios":"levelo://app?vid=28e7ea25-d676-49ca-8be6-ac1c19bc94ea"},"vehicle_type_id":"4","last_reported":1766118362,"current_range_meters":12000,"station_id":"","pricing_plan_id":"cebpf4jnsgd1na2vs0mg"},{"bike_id":"9b3ad9e9-6c8e-47dd-9f00-d7499ff2fa77","system_id":"levelo_inurba_marseille","lat":43.21178,"lon":5.35085,"is_reserved":false,"is_disabled":false,"rental_uris":{"android":"levelo://app?vid=9b3ad9e9-6c8e-47dd-9f00-d7499ff2fa77","ios":"levelo://app?vid=9b3ad9e9-6c8e-47dd-9f00-d7499ff2fa77"},"vehicle_type_id":"4","last_reported":1766118362,"current_range_meters":12000,"station_id":"st_cvj6sg6p6f1abm77japg","pricing_plan_id":"cebpf4jnsgd1na2vs0mg"},{"bike_id":"e300a7d5-0244-4753-8688-d18fed221b3a","system_id":"levelo_inurba_marseille","lat":43.28393,"lon":5.37523,"is_reserved":false,"is_disabled":false,"rental_uris":{"android":"levelo://app?vid=e300a7d5-0244-4753-8688-d18fed221b3a","ios":"levelo://app?vid=e300a7d5-0244-4753-8688-d18fed221b3a"},"vehicle_type_id":"4","last_reported":1766118362,"current_range_meters":12000,"station_id":"ce4bh412rcd13ifvqds0","pricing_plan_id":"cebpf4jnsgd1na2vs0mg"},{"bike_id":"b12c4caa-9d88-4cba-acda-9a8c909ff289","system_id":"levelo_inurba_marseille","lat":43.24181,"lon":5.39736,"is_reserved":false,"is_disabled":false,"rental_uris":{"android":"levelo://app?vid=b12c4caa-9d88-4cba-acda-9a8c909ff289","ios":"levelo://app?vid=b12c4caa-9d88-4cba-acda-9a8c909ff289"},"vehicle_type_id":"4","last_reported":1766118362,"current_range_meters":12400,"station_id":"ce4bhn12rcd13ifvqgpg","pricing_plan_id":"cebpf4jnsgd1na2vs0mg"},{"bike_id":"3171c4f4-d5a9-4282-9d2c-df19a6022bc8","system_id":"levelo_inurba_marseille","lat":43.29059,"lon":5.35644,"is_reserved":false,"is_disabled":false,"rental_uris":{"android":"levelo://app?vid=3171c4f4-d5a9-4282-9d2c-df19a6022bc8","ios":"levelo://app?vid=3171c4f4-d5a9-4282-9d2c-df19a6022bc8"},"vehicle_type_id":"4","last_reported":1766118362,"current_range_meters":12400,"station_id":"","pricing_plan_id":"cebpf4jnsgd1na2vs0mg"},{"bike_id":"2b1d4fd8-8af2-42da-8cd8-1c4c7bd61973","system_id":"levelo_inurba_marseille","lat":43.29188,"lon":5.3581,"is_reserved":false,"is_disabled":false,"rental_uris":{"android":"levelo://app?vid=2b1d4fd8-8af2-42da-8cd8-1c4c7bd61973","ios":"levelo://app?vid=2b1d4fd8-8af2-42da-8cd8-1c4c7bd61973"},"vehicle_type_id":"4","last_reported":1766118362,"current_range_meters":12400,"station_id":"ce4bhb12rcd13ifvqel0","pricing_plan_id":"cebpf4jnsgd1na2vs0mg"},{"bike_id":"700442f5-a082-454e-8bc7-ab3bbb77bfce","system_id":"levelo_inurba_marseille","lat":43.26631,"lon":5.37447,"is_reserved":false,"is_disabled":false,"rental_uris":{"android":"levelo://app?vid=700442f5-a082-454e-8bc7-ab3bbb77bfce","ios":"levelo://app?vid=700442f5-a082-454e-8bc7-ab3bbb77bfce"},"vehicle_type_id":"4","last_reported":1766118362,"current_range_meters":12400,"station_id":"","pricing_plan_id":"cebpf4jnsgd1na2vs0mg"},{"bike_id":"a8ae125c-44f7-48ad-a212-7a04204e18cd","system_id":"levelo_inurba_marseille","lat":43.30253,"lon":5.400381,"is_reserved":false,"is_disabled":false,"rental_uris":{"android":"levelo://app?vid=a8ae125c-44f7-48ad-a212-7a04204e18cd","ios":"levelo://app?vid=a8ae125c-44f7-48ad-a212-7a04204e18cd"},"vehicle_type_id":"4","last_reported":1766118362,"current_range_meters":12400,"station_id":"ce4bgvh2rcd13ifvqcs0","pricing_plan_id":"cebpf4jnsgd1na2vs0mg"},{"bike_id":"16435ed7-3230-49ea-9045-19406603f7b6","system_id":"levelo_inurba_marseille","lat":43.29731,"lon":5.36597,"is_reserved":false,"is_disabled":false,"rental_uris":{"android":"levelo://app?vid=16435ed7-3230-49ea-9045-19406603f7b6","ios":"levelo://app?vid=16435ed7-3230-49ea-9045-19406603f7b6"},"vehicle_type_id":"4","last_reported":1766118362,"current_range_meters":12800,"station_id":"ce4bgn12rcd13ifvqbt0","pricing_plan_id":"cebpf4jnsgd1na2vs0mg"},{"bike_id":"1eba388a-e261-4c07-87f7-71091f855fca","system_id":"levelo_inurba_marseille","lat":43.28215,"lon":5.3905,"is_reserved":false,"is_disabled":false,"rental_uris":{"android":"levelo://app?vid=1eba388a-e261-4c07-87f7-71091f855fca","ios":"levelo://app?vid=1eba388a-e261-4c07-87f7-71091f855fca"},"vehicle_type_id":"4","last_reported":1766118362,"current_range_meters":13600,"station_id":"ce4bhn92rcd13ifvqgsg","pricing_plan_id":"cebpf4jnsgd1na2vs0mg"},{"bike_id":"8baf18d0-6725-4ba0-9f72-640cffab0f68","system_id":"levelo_inurba_marseille","lat":43.30137,"lon":5.39869,"is_reserved":false,"is_disabled":false,"rental_uris":{"android":"levelo://app?vid=8baf18d0-6725-4ba0-9f72-640cffab0f68","ios":"levelo://app?vid=8baf18d0-6725-4ba0-9f72-640cffab0f68"},"vehicle_type_id":"4","last_reported":1766118362,"current_range_meters":13600,"station_id":"ce4bh0h2rcd13ifvqd40","pricing_plan_id":"cebpf4jnsgd1na2vs0mg"},{"bike_id":"caa296d3-3cc5-4a69-b445-5ef39d3f3433","system_id":"levelo_inurba_marseille","lat":43.28578,"lon":5.3953,"is_reserved":false,"is_disabled":false,"rental_uris":{"android":"levelo://app?vid=caa296d3-3cc5-4a69-b445-5ef39d3f3433","ios":"levelo://app?vid=caa296d3-3cc5-4a69-b445-5ef39d3f3433"},"vehicle_type_id":"4","last_reported":1766118362,"current_range_meters":13600,"station_id":"ce4bh292rcd13ifvqdg0","pricing_plan_id":"cebpf4jnsgd1na2vs0mg"},{"bike_id":"5726f472-6c40-42af-b719-63ad4dd74d25","system_id":"levelo_inurba_marseille","lat":43.319915,"lon":5.381499,"is_reserved":false,"is_disabled":false,"rental_uris":{"android":"levelo://app?vid=5726f472-6c40-42af-b719-63ad4dd74d25","ios":"levelo://app?vid=5726f472-6c40-42af-b719-63ad4dd74d25"},"vehicle_type_id":"4","last_reported":1766118362,"current_range_meters":13600,"station_id":"ce4bhr12rcd13ifvqhpg","pricing_plan_id":"cebpf4jnsgd1na2vs0mg"},{"bike_id":"76fb7a73-a5f9-4340-855e-fcbbe13e759a","system_id":"levelo_inurba_marseille","lat":43.3186,"lon":5.40011,"is_reserved":false,"is_disabled":false,"rental_uris":{"android":"levelo://app?vid=76fb7a73-a5f9-4340-855e-fcbbe13e759a","ios":"levelo://app?vid=76fb7a73-a5f9-4340-855e-fcbbe13e759a"},"vehicle_type_id":"4","last_reported":1766118362,"current_range_meters":13600,"station_id":"","pricing_plan_id":"cebpf4jnsgd1na2vs0mg"},{"bike_id":"8f4a549b-344a-4fc6-aab0-739441a53b76","system_id":"levelo_inurba_marseille","lat":43.31091,"lon":5.42433,"is_reserved":false,"is_disabled":false,"rental_uris":{"android":"levelo://app?vid=8f4a549b-344a-4fc6-aab0-739441a53b76","ios":"levelo://app?vid=8f4a549b-344a-4fc6-aab0-739441a53b76"},"vehicle_type_id":"4","last_reported":1766118362,"current_range_meters":13600,"station_id":"ce4bhp92rcd13ifvqhag","pricing_plan_id":"cebpf4jnsgd1na2vs0mg"},{"bike_id":"5c1f0183-cbe5-4a9e-a493-d80ce3862cbd","system_id":"levelo_inurba_marseille","lat":43.32115,"lon":5.36815,"is_reserved":false,"is_disabled":false,"rental_uris":{"android":"levelo://app?vid=5c1f0183-cbe5-4a9e-a493-d80ce3862cbd","ios":"levelo://app?vid=5c1f0183-cbe5-4a9e-a493-d80ce3862cbd"},"vehicle_type_id":"4","last_reported":1766118362,"current_range_meters":13600,"station_id":"ce4bhrh2rcd13ifvqhug","pricing_plan_id":"cebpf4jnsgd1na2vs0mg"},{"bike_id":"dcebbb45-765e-44b9-9596-1f8fdae0f25e","system_id":"levelo_inurba_marseille","lat":43.24646,"lon":5.38883,"is_reserved":false,"is_disabled":false,"rental_uris":{"android":"levelo://app?vid=dcebbb45-765e-44b9-9596-1f8fdae0f25e","ios":"levelo://app?vid=dcebbb45-765e-44b9-9596-1f8fdae0f25e"},"vehicle_type_id":"4","last_reported":1766118362,"current_range_meters":13600,"station_id":"ce4bhg12rcd13ifvqf60","pricing_plan_id":"cebpf4jnsgd1na2vs0mg"},{"bike_id":"d6bc7465-ed58-4731-8353-a1bf1c3037e6","system_id":"levelo_inurba_marseille","lat":43.26557,"lon":5.40331,"is_reserved":false,"is_disabled":false,"rental_uris":{"android":"levelo://app?vid=d6bc7465-ed58-4731-8353-a1bf1c3037e6","ios":"levelo://app?vid=d6bc7465-ed58-4731-8353-a1bf1c3037e6"},"vehicle_type_id":"4","last_reported":1766118362,"current_range_meters":13600,"station_id":"ce4bhmp2rcd13ifvqgng","pricing_plan_id":"cebpf4jnsgd1na2vs0mg"},{"bike_id":"d6888ab2-db65-443c-8d72-10589f53745a","system_id":"levelo_inurba_marseille","lat":43.29531,"lon":5.37511,"is_reserved":false,"is_disabled":true,"rental_uris":{"android":"levelo://app?vid=d6888ab2-db65-443c-8d72-10589f53745a","ios":"levelo://app?vid=d6888ab2-db65-443c-8d72-10589f53745a"},"vehicle_type_id":"4","last_reported":1766118362,"current_range_meters":13600,"station_id":"ce4bgkp2rcd13ifvqbmg","pricing_plan_id":"cebpf4jnsgd1na2vs0mg"},{"bike_id":"8168a14b-8ee0-4440-a4b9-9a46efc3b289","system_id":"levelo_inurba_marseille","lat":43.289396,"lon":5.364006,"is_reserved":false,"is_disabled":false,"rental_uris":{"android":"levelo://app?vid=8168a14b-8ee0-4440-a4b9-9a46efc3b289","ios":"levelo://app?vid=8168a14b-8ee0-4440-a4b9-9a46efc3b289"},"vehicle_type_id":"4","last_reported":1766118362,"current_range_meters":13600,"station_id":"ce4bhc92rcd13ifvqetg","pricing_plan_id":"cebpf4jnsgd1na2vs0mg"},{"bike_id":"112a3beb-d6f4-43ea-8344-cc23d1e71cc1","system_id":"levelo_inurba_marseille","lat":43.29055,"lon":5.3714,"is_reserved":false,"is_disabled":false,"rental_uris":{"android":"levelo://app?vid=112a3beb-d6f4-43ea-8344-cc23d1e71cc1","ios":"levelo://app?vid=112a3beb-d6f4-43ea-8344-cc23d1e71cc1"},"vehicle_type_id":"4","last_reported":1766118362,"current_range_meters":13600,"station_id":"","pricing_plan_id":"cebpf4jnsgd1na2vs0mg"},{"bike_id":"51850788-6d18-4067-a22e-183a3dbd8b5e","system_id":"levelo_inurba_marseille","lat":43.28604,"lon":5.35117,"is_reserved":false,"is_disabled":false,"rental_uris":{"android":"levelo://app?vid=51850788-6d18-4067-a22e-183a3dbd8b5e","ios":"levelo://app?vid=51850788-6d18-4067-a22e-183a3dbd8b5e"},"vehicle_type_id":"4","last_reported":1766118362,"current_range_meters":13600,"station_id":"ce4bhch2rcd13ifvqeug","pricing_plan_id":"cebpf4jnsgd1na2vs0mg"},{"bike_id":"689e1e25-96b9-418c-bbe1-0e8f9558c52f","system_id":"levelo_inurba_marseille","lat":43.31367,"lon":5.37706,"is_reserved":false,"is_disabled":false,"rental_uris":{"android":"levelo://app?vid=689e1e25-96b9-418c-bbe1-0e8f9558c52f","ios":"levelo://app?vid=689e1e25-96b9-418c-bbe1-0e8f9558c52f"},"vehicle_type_id":"4","last_reported":1766118362,"current_range_meters":13600,"station_id":"","pricing_plan_id":"cebpf4jnsgd1na2vs0mg"},{"bike_id":"c2657a42-26a4-4ae0-b35b-25bd9d22776b","system_id":"levelo_inurba_marseille","lat":43.28719,"lon":5.36085,"is_reserved":false,"is_disabled":false,"rental_uris":{"android":"levelo://app?vid=c2657a42-26a4-4ae0-b35b-25bd9d22776b","ios":"levelo://app?vid=c2657a42-26a4-4ae0-b35b-25bd9d22776b"},"vehicle_type_id":"4","last_reported":1766118362,"current_range_meters":14000,"station_id":"cki0cbj6b192h4jlfktg","pricing_plan_id":"cebpf4jnsgd1na2vs0mg"},{"bike_id":"1c1f01d8-c54a-439c-9e3f-5ded92cedb52","system_id":"levelo_inurba_marseille","lat":43.23778,"lon":5.36631,"is_reserved":false,"is_disabled":false,"rental_uris":{"android":"levelo://app?vid=1c1f01d8-c54a-439c-9e3f-5ded92cedb52","ios":"levelo://app?vid=1c1f01d8-c54a-439c-9e3f-5ded92cedb52"},"vehicle_type_id":"4","last_reported":1766118362,"current_range_meters":14000,"station_id":"st_d3nk18o9ro0c73en2l3g","pricing_plan_id":"cebpf4jnsgd1na2vs0mg"},{"bike_id":"af783cbc-685b-4b56-93fa-6a6d328c307a","system_id":"levelo_inurba_marseille","lat":43.24991,"lon":5.389396,"is_reserved":false,"is_disabled":false,"rental_uris":{"android":"levelo://app?vid=af783cbc-685b-4b56-93fa-6a6d328c307a","ios":"levelo://app?vid=af783cbc-685b-4b56-93fa-6a6d328c307a"},"vehicle_type_id":"4","last_reported":1766118362,"current_range_meters":14000,"station_id":"ce4bhgp2rcd13ifvqfd0","pricing_plan_id":"cebpf4jnsgd1na2vs0mg"},{"bike_id":"05bc787d-b9f6-49a4-8de6-e5ed8ada89fe","system_id":"levelo_inurba_marseille","lat":43.278141,"lon":5.407031,"is_reserved":false,"is_disabled":false,"rental_uris":{"android":"levelo://app?vid=05bc787d-b9f6-49a4-8de6-e5ed8ada89fe","ios":"levelo://app?vid=05bc787d-b9f6-49a4-8de6-e5ed8ada89fe"},"vehicle_type_id":"4","last_reported":1766118362,"current_range_meters":14000,"station_id":"ce4bhnh2rcd13ifvqgtg","pricing_plan_id":"cebpf4jnsgd1na2vs0mg"},{"bike_id":"1c79eb29-135e-40c1-8651-901759d4aaa6","system_id":"levelo_inurba_marseille","lat":43.28571,"lon":5.3531,"is_reserved":false,"is_disabled":false,"rental_uris":{"android":"levelo://app?vid=1c79eb29-135e-40c1-8651-901759d4aaa6","ios":"levelo://app?vid=1c79eb29-135e-40c1-8651-901759d4aaa6"},"vehicle_type_id":"4","last_reported":1766118362,"current_range_meters":14000,"station_id":"","pricing_plan_id":"cebpf4jnsgd1na2vs0mg"},{"bike_id":"56faafa9-4b42-4d19-9e13-0b553252ddc5","system_id":"levelo_inurba_marseille","lat":43.29061,"lon":5.37155,"is_reserved":false,"is_disabled":false,"rental_uris":{"android":"levelo://app?vid=56faafa9-4b42-4d19-9e13-0b553252ddc5","ios":"levelo://app?vid=56faafa9-4b42-4d19-9e13-0b553252ddc5"},"vehicle_type_id":"4","last_reported":1766118362,"current_range_meters":14000,"station_id":"ce4bh5p2rcd13ifvqe4g","pricing_plan_id":"cebpf4jnsgd1na2vs0mg"},{"bike_id":"ec6401bf-06e9-4881-946b-649f2b1df2d1","system_id":"levelo_inurba_marseille","lat":43.25327,"lon":5.42165,"is_reserved":false,"is_disabled":false,"rental_uris":{"android":"levelo://app?vid=ec6401bf-06e9-4881-946b-649f2b1df2d1","ios":"levelo://app?vid=ec6401bf-06e9-4881-946b-649f2b1df2d1"},"vehicle_type_id":"4","last_reported":1766118362,"current_range_meters":14000,"station_id":"st_d2m65c5bi1j21697t3ng","pricing_plan_id":"cebpf4jnsgd1na2vs0mg"},{"bike_id":"1b242f74-0031-42b6-9e71-062aba3f7d85","system_id":"levelo_inurba_marseille","lat":43.253373,"lon":5.421658,"is_reserved":false,"is_disabled":false,"rental_uris":{"android":"levelo://app?vid=1b242f74-0031-42b6-9e71-062aba3f7d85","ios":"levelo://app?vid=1b242f74-0031-42b6-9e71-062aba3f7d85"},"vehicle_type_id":"4","last_reported":1766118362,"current_range_meters":14000,"station_id":"st_d2m65c5bi1j21697t3ng","pricing_plan_id":"cebpf4jnsgd1na2vs0mg"},{"bike_id":"5af53c2e-3d97-499f-9892-e2ccad8d47f5","system_id":"levelo_inurba_marseille","lat":43.2418,"lon":5.3972,"is_reserved":false,"is_disabled":false,"rental_uris":{"android":"levelo://app?vid=5af53c2e-3d97-499f-9892-e2ccad8d47f5","ios":"levelo://app?vid=5af53c2e-3d97-499f-9892-e2ccad8d47f5"},"vehicle_type_id":"4","last_reported":1766118362,"current_range_meters":14000,"station_id":"ce4bhn12rcd13ifvqgpg","pricing_plan_id":"cebpf4jnsgd1na2vs0mg"},{"bike_id":"8965bd2e-8152-488c-82f6-eca1ad732749","system_id":"levelo_inurba_marseille","lat":43.312746,"lon":5.401667,"is_reserved":false,"is_disabled":false,"rental_uris":{"android":"levelo://app?vid=8965bd2e-8152-488c-82f6-eca1ad732749","ios":"levelo://app?vid=8965bd2e-8152-488c-82f6-eca1ad732749"},"vehicle_type_id":"4","last_reported":1766118362,"current_range_meters":14000,"station_id":"ce4bh092rcd13ifvqd30","pricing_plan_id":"cebpf4jnsgd1na2vs0mg"},{"bike_id":"5474fde9-5ed0-49e3-8fc7-9f89c5c20dfd","system_id":"levelo_inurba_marseille","lat":43.21191,"lon":5.35072,"is_reserved":false,"is_disabled":false,"rental_uris":{"android":"levelo://app?vid=5474fde9-5ed0-49e3-8fc7-9f89c5c20dfd","ios":"levelo://app?vid=5474fde9-5ed0-49e3-8fc7-9f89c5c20dfd"},"vehicle_type_id":"4","last_reported":1766118362,"current_range_meters":14000,"station_id":"st_cvj6sg6p6f1abm77japg","pricing_plan_id":"cebpf4jnsgd1na2vs0mg"},{"bike_id":"34432b8d-ee07-4e27-948a-d025d4af86ca","system_id":"levelo_inurba_marseille","lat":43.295175,"lon":5.39398,"is_reserved":false,"is_disabled":false,"rental_uris":{"android":"levelo://app?vid=34432b8d-ee07-4e27-948a-d025d4af86ca","ios":"levelo://app?vid=34432b8d-ee07-4e27-948a-d025d4af86ca"},"vehicle_type_id":"4","last_reported":1766118362,"current_range_meters":14400,"station_id":"ce4bh292rcd13ifvqdf0","pricing_plan_id":"cebpf4jnsgd1na2vs0mg"},{"bike_id":"47b454cd-01f9-4de3-b129-3f7a7abb6370","system_id":"levelo_inurba_marseille","lat":43.29237,"lon":5.36088,"is_reserved":false,"is_disabled":false,"rental_uris":{"android":"levelo://app?vid=47b454cd-01f9-4de3-b129-3f7a7abb6370","ios":"levelo://app?vid=47b454cd-01f9-4de3-b129-3f7a7abb6370"},"vehicle_type_id":"4","last_reported":1766118362,"current_range_meters":14400,"station_id":"ce4bhbh2rcd13ifvqeqg","pricing_plan_id":"cebpf4jnsgd1na2vs0mg"},{"bike_id":"128f68df-e6c8-471d-bf6e-3a9c347712de","system_id":"levelo_inurba_marseille","lat":43.29234,"lon":5.40898,"is_reserved":false,"is_disabled":false,"rental_uris":{"android":"levelo://app?vid=128f68df-e6c8-471d-bf6e-3a9c347712de","ios":"levelo://app?vid=128f68df-e6c8-471d-bf6e-3a9c347712de"},"vehicle_type_id":"4","last_reported":1766118362,"current_range_meters":14400,"station_id":"ce4bh192rcd13ifvqdc0","pricing_plan_id":"cebpf4jnsgd1na2vs0mg"},{"bike_id":"b090b19d-281c-4430-bcc0-abfef338c97d","system_id":"levelo_inurba_marseille","lat":43.29515,"lon":5.394018,"is_reserved":false,"is_disabled":false,"rental_uris":{"android":"levelo://app?vid=b090b19d-281c-4430-bcc0-abfef338c97d","ios":"levelo://app?vid=b090b19d-281c-4430-bcc0-abfef338c97d"},"vehicle_type_id":"4","last_reported":1766118362,"current_range_meters":14400,"station_id":"ce4bh292rcd13ifvqdf0","pricing_plan_id":"cebpf4jnsgd1na2vs0mg"},{"bike_id":"ed0b0efc-7ff2-4ff0-8f38-23867c9755df","system_id":"levelo_inurba_marseille","lat":43.253409,"lon":5.42163,"is_reserved":false,"is_disabled":false,"rental_uris":{"android":"levelo://app?vid=ed0b0efc-7ff2-4ff0-8f38-23867c9755df","ios":"levelo://app?vid=ed0b0efc-7ff2-4ff0-8f38-23867c9755df"},"vehicle_type_id":"4","last_reported":1766118362,"current_range_meters":14400,"station_id":"st_d2m65c5bi1j21697t3ng","pricing_plan_id":"cebpf4jnsgd1na2vs0mg"},{"bike_id":"d674a729-c24a-42f8-8d99-54fc4e699b40","system_id":"levelo_inurba_marseille","lat":43.30795,"lon":5.37655,"is_reserved":false,"is_disabled":false,"rental_uris":{"android":"levelo://app?vid=d674a729-c24a-42f8-8d99-54fc4e699b40","ios":"levelo://app?vid=d674a729-c24a-42f8-8d99-54fc4e699b40"},"vehicle_type_id":"4","last_reported":1766118362,"current_range_meters":14400,"station_id":"ce4bgv92rcd13ifvqcq0","pricing_plan_id":"cebpf4jnsgd1na2vs0mg"},{"bike_id":"29ff8d65-fbca-42c1-b12e-cd4dc579808a","system_id":"levelo_inurba_marseille","lat":43.30151,"lon":5.37407,"is_reserved":false,"is_disabled":false,"rental_uris":{"android":"levelo://app?vid=29ff8d65-fbca-42c1-b12e-cd4dc579808a","ios":"levelo://app?vid=29ff8d65-fbca-42c1-b12e-cd4dc579808a"},"vehicle_type_id":"4","last_reported":1766118362,"current_range_meters":14400,"station_id":"ce4bgs92rcd13ifvqcc0","pricing_plan_id":"cebpf4jnsgd1na2vs0mg"},{"bike_id":"30df60d9-afa1-4ec6-ae98-845c99089db1","system_id":"levelo_inurba_marseille","lat":43.295835,"lon":5.375082,"is_reserved":false,"is_disabled":false,"rental_uris":{"android":"levelo://app?vid=30df60d9-afa1-4ec6-ae98-845c99089db1","ios":"levelo://app?vid=30df60d9-afa1-4ec6-ae98-845c99089db1"},"vehicle_type_id":"4","last_reported":1766118362,"current_range_meters":14400,"station_id":"","pricing_plan_id":"cebpf4jnsgd1na2vs0mg"},{"bike_id":"cfd83509-3003-443a-802d-586e42da9fd0","system_id":"levelo_inurba_marseille","lat":43.30802,"lon":5.381452,"is_reserved":false,"is_disabled":false,"rental_uris":{"android":"levelo://app?vid=cfd83509-3003-443a-802d-586e42da9fd0","ios":"levelo://app?vid=cfd83509-3003-443a-802d-586e42da9fd0"},"vehicle_type_id":"4","last_reported":1766118362,"current_range_meters":14400,"station_id":"ce4bgt12rcd13ifvqce0","pricing_plan_id":"cebpf4jnsgd1na2vs0mg"},{"bike_id":"d24948ab-c4ba-4fd6-9160-4e46af9e1002","system_id":"levelo_inurba_marseille","lat":43.27996,"lon":5.41687,"is_reserved":false,"is_disabled":false,"rental_uris":{"android":"levelo://app?vid=d24948ab-c4ba-4fd6-9160-4e46af9e1002","ios":"levelo://app?vid=d24948ab-c4ba-4fd6-9160-4e46af9e1002"},"vehicle_type_id":"4","last_reported":1766118362,"current_range_meters":14400,"station_id":"ce4bho12rcd13ifvqh1g","pricing_plan_id":"cebpf4jnsgd1na2vs0mg"},{"bike_id":"a8bb7bbc-85dc-488d-8db9-15a263115c98","system_id":"levelo_inurba_marseille","lat":43.28964,"lon":5.399,"is_reserved":false,"is_disabled":false,"rental_uris":{"android":"levelo://app?vid=a8bb7bbc-85dc-488d-8db9-15a263115c98","ios":"levelo://app?vid=a8bb7bbc-85dc-488d-8db9-15a263115c98"},"vehicle_type_id":"4","last_reported":1766118362,"current_range_meters":14400,"station_id":"","pricing_plan_id":"cebpf4jnsgd1na2vs0mg"},{"bike_id":"1d7a2ca0-8161-4459-b5d5-06113213bda9","system_id":"levelo_inurba_marseille","lat":43.23191,"lon":5.35563,"is_reserved":false,"is_disabled":false,"rental_uris":{"android":"levelo://app?vid=1d7a2ca0-8161-4459-b5d5-06113213bda9","ios":"levelo://app?vid=1d7a2ca0-8161-4459-b5d5-06113213bda9"},"vehicle_type_id":"4","last_reported":1766118362,"current_range_meters":14400,"station_id":"ce4bhu92rcd13ifvqi70","pricing_plan_id":"cebpf4jnsgd1na2vs0mg"},{"bike_id":"d978346a-4426-4e3c-89b3-96a36d544e65","system_id":"levelo_inurba_marseille","lat":43.29298,"lon":5.37157,"is_reserved":false,"is_disabled":false,"rental_uris":{"android":"levelo://app?vid=d978346a-4426-4e3c-89b3-96a36d544e65","ios":"levelo://app?vid=d978346a-4426-4e3c-89b3-96a36d544e65"},"vehicle_type_id":"4","last_reported":1766118362,"current_range_meters":14400,"station_id":"ce4bgh92rcd13ifvqb40","pricing_plan_id":"cebpf4jnsgd1na2vs0mg"},{"bike_id":"24df08af-7a2c-4580-b263-bcb3f62d73e3","system_id":"levelo_inurba_marseille","lat":43.24475,"lon":5.42539,"is_reserved":false,"is_disabled":false,"rental_uris":{"android":"levelo://app?vid=24df08af-7a2c-4580-b263-bcb3f62d73e3","ios":"levelo://app?vid=24df08af-7a2c-4580-b263-bcb3f62d73e3"},"vehicle_type_id":"4","last_reported":1766118362,"current_range_meters":14400,"station_id":"st_d4a3vfp97mjs738cd8kg","pricing_plan_id":"cebpf4jnsgd1na2vs0mg"},{"bike_id":"745a73b2-641e-464c-a252-9945eb0d64e6","system_id":"levelo_inurba_marseille","lat":43.28893,"lon":5.35749,"is_reserved":false,"is_disabled":false,"rental_uris":{"android":"levelo://app?vid=745a73b2-641e-464c-a252-9945eb0d64e6","ios":"levelo://app?vid=745a73b2-641e-464c-a252-9945eb0d64e6"},"vehicle_type_id":"4","last_reported":1766118362,"current_range_meters":14400,"station_id":"","pricing_plan_id":"cebpf4jnsgd1na2vs0mg"},{"bike_id":"fdde03c4-f3c6-4562-b5d1-e681d3e4b56e","system_id":"levelo_inurba_marseille","lat":43.323664,"lon":5.367317,"is_reserved":false,"is_disabled":false,"rental_uris":{"android":"levelo://app?vid=fdde03c4-f3c6-4562-b5d1-e681d3e4b56e","ios":"levelo://app?vid=fdde03c4-f3c6-4562-b5d1-e681d3e4b56e"},"vehicle_type_id":"4","last_reported":1766118362,"current_range_meters":14800,"station_id":"ce4bhsh2rcd13ifvqi2g","pricing_plan_id":"cebpf4jnsgd1na2vs0mg"},{"bike_id":"eace70d9-abc4-463e-ad30-564a1fb2f71d","system_id":"levelo_inurba_marseille","lat":43.2587,"lon":5.39897,"is_reserved":false,"is_disabled":false,"rental_uris":{"android":"levelo://app?vid=eace70d9-abc4-463e-ad30-564a1fb2f71d","ios":"levelo://app?vid=eace70d9-abc4-463e-ad30-564a1fb2f71d"},"vehicle_type_id":"4","last_reported":1766118362,"current_range_meters":14800,"station_id":"ce4bhl92rcd13ifvqghg","pricing_plan_id":"cebpf4jnsgd1na2vs0mg"},{"bike_id":"00a29bb1-88ca-440d-9219-07d673c689ed","system_id":"levelo_inurba_marseille","lat":43.29813,"lon":5.36352,"is_reserved":false,"is_disabled":false,"rental_uris":{"android":"levelo://app?vid=00a29bb1-88ca-440d-9219-07d673c689ed","ios":"levelo://app?vid=00a29bb1-88ca-440d-9219-07d673c689ed"},"vehicle_type_id":"4","last_reported":1766118362,"current_range_meters":14800,"station_id":"","pricing_plan_id":"cebpf4jnsgd1na2vs0mg"},{"bike_id":"61ca951e-8592-4e08-979a-2290ac3fe5c2","system_id":"levelo_inurba_marseille","lat":43.249919,"lon":5.389339,"is_reserved":false,"is_disabled":false,"rental_uris":{"android":"levelo://app?vid=61ca951e-8592-4e08-979a-2290ac3fe5c2","ios":"levelo://app?vid=61ca951e-8592-4e08-979a-2290ac3fe5c2"},"vehicle_type_id":"4","last_reported":1766118362,"current_range_meters":14800,"station_id":"ce4bhgp2rcd13ifvqfd0","pricing_plan_id":"cebpf4jnsgd1na2vs0mg"},{"bike_id":"e0effb5a-e8c9-4234-ae32-e89cc890b254","system_id":"levelo_inurba_marseille","lat":43.28866,"lon":5.42523,"is_reserved":false,"is_disabled":false,"rental_uris":{"android":"levelo://app?vid=e0effb5a-e8c9-4234-ae32-e89cc890b254","ios":"levelo://app?vid=e0effb5a-e8c9-4234-ae32-e89cc890b254"},"vehicle_type_id":"4","last_reported":1766118362,"current_range_meters":14800,"station_id":"st_d3b462108ojc7389ooeg","pricing_plan_id":"cebpf4jnsgd1na2vs0mg"},{"bike_id":"67d835a6-21e4-471b-bcce-6e8b660c295a","system_id":"levelo_inurba_marseille","lat":43.28617,"lon":5.350975,"is_reserved":false,"is_disabled":false,"rental_uris":{"android":"levelo://app?vid=67d835a6-21e4-471b-bcce-6e8b660c295a","ios":"levelo://app?vid=67d835a6-21e4-471b-bcce-6e8b660c295a"},"vehicle_type_id":"4","last_reported":1766118362,"current_range_meters":14800,"station_id":"ce4bhch2rcd13ifvqeug","pricing_plan_id":"cebpf4jnsgd1na2vs0mg"},{"bike_id":"f745b0ad-0ffd-47a9-916e-0da303f73170","system_id":"levelo_inurba_marseille","lat":43.27944,"lon":5.410452,"is_reserved":false,"is_disabled":false,"rental_uris":{"android":"levelo://app?vid=f745b0ad-0ffd-47a9-916e-0da303f73170","ios":"levelo://app?vid=f745b0ad-0ffd-47a9-916e-0da303f73170"},"vehicle_type_id":"4","last_reported":1766118362,"current_range_meters":14800,"station_id":"ce4bhnp2rcd13ifvqh0g","pricing_plan_id":"cebpf4jnsgd1na2vs0mg"},{"bike_id":"91286ed8-0e89-4722-bb30-2bf74162d77e","system_id":"levelo_inurba_marseille","lat":43.29879,"lon":5.389017,"is_reserved":false,"is_disabled":false,"rental_uris":{"android":"levelo://app?vid=91286ed8-0e89-4722-bb30-2bf74162d77e","ios":"levelo://app?vid=91286ed8-0e89-4722-bb30-2bf74162d77e"},"vehicle_type_id":"4","last_reported":1766118362,"current_range_meters":14800,"station_id":"ce4bh192rcd13ifvqdb0","pricing_plan_id":"cebpf4jnsgd1na2vs0mg"},{"bike_id":"6ec9a6be-eed9-4adb-a34f-9a64c85ea37b","system_id":"levelo_inurba_marseille","lat":43.30621,"lon":5.37582,"is_reserved":false,"is_disabled":false,"rental_uris":{"android":"levelo://app?vid=6ec9a6be-eed9-4adb-a34f-9a64c85ea37b","ios":"levelo://app?vid=6ec9a6be-eed9-4adb-a34f-9a64c85ea37b"},"vehicle_type_id":"4","last_reported":1766118362,"current_range_meters":14800,"station_id":"","pricing_plan_id":"cebpf4jnsgd1na2vs0mg"},{"bike_id":"02cb24cc-e062-4b73-80fd-141f91a697f7","system_id":"levelo_inurba_marseille","lat":43.31567,"lon":5.37639,"is_reserved":false,"is_disabled":false,"rental_uris":{"android":"levelo://app?vid=02cb24cc-e062-4b73-80fd-141f91a697f7","ios":"levelo://app?vid=02cb24cc-e062-4b73-80fd-141f91a697f7"},"vehicle_type_id":"4","last_reported":1766118362,"current_range_meters":14800,"station_id":"","pricing_plan_id":"cebpf4jnsgd1na2vs0mg"},{"bike_id":"d3fcd822-177c-4652-bd1b-c4847def5cc0","system_id":"levelo_inurba_marseille","lat":43.3065,"lon":5.40069,"is_reserved":false,"is_disabled":false,"rental_uris":{"android":"levelo://app?vid=d3fcd822-177c-4652-bd1b-c4847def5cc0","ios":"levelo://app?vid=d3fcd822-177c-4652-bd1b-c4847def5cc0"},"vehicle_type_id":"4","last_reported":1766118362,"current_range_meters":15200,"station_id":"ce4bh112rcd13ifvqda0","pricing_plan_id":"cebpf4jnsgd1na2vs0mg"},{"bike_id":"ce4f0ffd-da11-41ea-a5a8-33cb1134d63e","system_id":"levelo_inurba_marseille","lat":43.27988,"lon":5.41673,"is_reserved":false,"is_disabled":false,"rental_uris":{"android":"levelo://app?vid=ce4f0ffd-da11-41ea-a5a8-33cb1134d63e","ios":"levelo://app?vid=ce4f0ffd-da11-41ea-a5a8-33cb1134d63e"},"vehicle_type_id":"4","last_reported":1766118362,"current_range_meters":15200,"station_id":"ce4bho12rcd13ifvqh1g","pricing_plan_id":"cebpf4jnsgd1na2vs0mg"},{"bike_id":"fcae12e9-dde1-430e-95a7-f5567d679aa5","system_id":"levelo_inurba_marseille","lat":43.29252,"lon":5.38436,"is_reserved":false,"is_disabled":true,"rental_uris":{"android":"levelo://app?vid=fcae12e9-dde1-430e-95a7-f5567d679aa5","ios":"levelo://app?vid=fcae12e9-dde1-430e-95a7-f5567d679aa5"},"vehicle_type_id":"4","last_reported":1766118362,"current_range_meters":15200,"station_id":"ce4bh692rcd13ifvqea0","pricing_plan_id":"cebpf4jnsgd1na2vs0mg"},{"bike_id":"41dde568-f7f7-4633-be20-51b0af4553ba","system_id":"levelo_inurba_marseille","lat":43.2792,"lon":5.39586,"is_reserved":false,"is_disabled":false,"rental_uris":{"android":"levelo://app?vid=41dde568-f7f7-4633-be20-51b0af4553ba","ios":"levelo://app?vid=41dde568-f7f7-4633-be20-51b0af4553ba"},"vehicle_type_id":"4","last_reported":1766118362,"current_range_meters":15200,"station_id":"ce4bhf92rcd13ifvqf40","pricing_plan_id":"cebpf4jnsgd1na2vs0mg"},{"bike_id":"08a97567-ae3b-445f-bc05-b76b2237bf08","system_id":"levelo_inurba_marseille","lat":43.24051,"lon":5.37771,"is_reserved":false,"is_disabled":false,"rental_uris":{"android":"levelo://app?vid=08a97567-ae3b-445f-bc05-b76b2237bf08","ios":"levelo://app?vid=08a97567-ae3b-445f-bc05-b76b2237bf08"},"vehicle_type_id":"4","last_reported":1766118362,"current_range_meters":15200,"station_id":"ce4bhnp2rcd13ifvqgvg","pricing_plan_id":"cebpf4jnsgd1na2vs0mg"},{"bike_id":"f1fe0e05-fe90-40dc-bf1c-51498d3a38bb","system_id":"levelo_inurba_marseille","lat":43.27371,"lon":5.3626,"is_reserved":false,"is_disabled":false,"rental_uris":{"android":"levelo://app?vid=f1fe0e05-fe90-40dc-bf1c-51498d3a38bb","ios":"levelo://app?vid=f1fe0e05-fe90-40dc-bf1c-51498d3a38bb"},"vehicle_type_id":"4","last_reported":1766118362,"current_range_meters":15200,"station_id":"ce4bhbh2rcd13ifvqeo0","pricing_plan_id":"cebpf4jnsgd1na2vs0mg"},{"bike_id":"67486f1b-a40b-4e91-8dc3-2d661fa8d1bb","system_id":"levelo_inurba_marseille","lat":43.29216,"lon":5.36098,"is_reserved":false,"is_disabled":false,"rental_uris":{"android":"levelo://app?vid=67486f1b-a40b-4e91-8dc3-2d661fa8d1bb","ios":"levelo://app?vid=67486f1b-a40b-4e91-8dc3-2d661fa8d1bb"},"vehicle_type_id":"4","last_reported":1766118362,"current_range_meters":15200,"station_id":"ce4bhbh2rcd13ifvqeqg","pricing_plan_id":"cebpf4jnsgd1na2vs0mg"},{"bike_id":"207776d7-b88e-48a6-b74f-2b1aae5e54c7","system_id":"levelo_inurba_marseille","lat":43.268961,"lon":5.387159,"is_reserved":false,"is_disabled":false,"rental_uris":{"android":"levelo://app?vid=207776d7-b88e-48a6-b74f-2b1aae5e54c7","ios":"levelo://app?vid=207776d7-b88e-48a6-b74f-2b1aae5e54c7"},"vehicle_type_id":"4","last_reported":1766118362,"current_range_meters":15200,"station_id":"","pricing_plan_id":"cebpf4jnsgd1na2vs0mg"},{"bike_id":"d67904e3-d432-4bb6-9c59-13ac7cead46a","system_id":"levelo_inurba_marseille","lat":43.323549,"lon":5.367527,"is_reserved":false,"is_disabled":false,"rental_uris":{"android":"levelo://app?vid=d67904e3-d432-4bb6-9c59-13ac7cead46a","ios":"levelo://app?vid=d67904e3-d432-4bb6-9c59-13ac7cead46a"},"vehicle_type_id":"4","last_reported":1766118362,"current_range_meters":15200,"station_id":"ce4bhsh2rcd13ifvqi2g","pricing_plan_id":"cebpf4jnsgd1na2vs0mg"},{"bike_id":"d263d4c4-d67f-428b-871b-9f9e034e9cec","system_id":"levelo_inurba_marseille","lat":43.337444,"lon":5.374475,"is_reserved":false,"is_disabled":false,"rental_uris":{"android":"levelo://app?vid=d263d4c4-d67f-428b-871b-9f9e034e9cec","ios":"levelo://app?vid=d263d4c4-d67f-428b-871b-9f9e034e9cec"},"vehicle_type_id":"4","last_reported":1766118362,"current_range_meters":15200,"station_id":"","pricing_plan_id":"cebpf4jnsgd1na2vs0mg"},{"bike_id":"0e831b8a-ba65-4401-84c3-afd3e8869534","system_id":"levelo_inurba_marseille","lat":43.29606,"lon":5.37159,"is_reserved":false,"is_disabled":false,"rental_uris":{"android":"levelo://app?vid=0e831b8a-ba65-4401-84c3-afd3e8869534","ios":"levelo://app?vid=0e831b8a-ba65-4401-84c3-afd3e8869534"},"vehicle_type_id":"4","last_reported":1766118362,"current_range_meters":15200,"station_id":"ce4bgnh2rcd13ifvqc0g","pricing_plan_id":"cebpf4jnsgd1na2vs0mg"},{"bike_id":"90054a0f-7707-4d38-a2c3-d622d9809e49","system_id":"levelo_inurba_marseille","lat":43.29744,"lon":5.42776,"is_reserved":false,"is_disabled":false,"rental_uris":{"android":"levelo://app?vid=90054a0f-7707-4d38-a2c3-d622d9809e49","ios":"levelo://app?vid=90054a0f-7707-4d38-a2c3-d622d9809e49"},"vehicle_type_id":"4","last_reported":1766118362,"current_range_meters":15200,"station_id":"st_d3md5207bmas73dh9klg","pricing_plan_id":"cebpf4jnsgd1na2vs0mg"},{"bike_id":"1c3a6625-d109-4468-bf21-fb586a1cd619","system_id":"levelo_inurba_marseille","lat":43.28351,"lon":5.38109,"is_reserved":false,"is_disabled":false,"rental_uris":{"android":"levelo://app?vid=1c3a6625-d109-4468-bf21-fb586a1cd619","ios":"levelo://app?vid=1c3a6625-d109-4468-bf21-fb586a1cd619"},"vehicle_type_id":"4","last_reported":1766118362,"current_range_meters":15200,"station_id":"ce4bh412rcd13ifvqdr0","pricing_plan_id":"cebpf4jnsgd1na2vs0mg"},{"bike_id":"bcbf2e9e-043a-4574-bcc0-a8f0d26353c7","system_id":"levelo_inurba_marseille","lat":43.29022,"lon":5.38139,"is_reserved":false,"is_disabled":false,"rental_uris":{"android":"levelo://app?vid=bcbf2e9e-043a-4574-bcc0-a8f0d26353c7","ios":"levelo://app?vid=bcbf2e9e-043a-4574-bcc0-a8f0d26353c7"},"vehicle_type_id":"4","last_reported":1766118362,"current_range_meters":16000,"station_id":"ce4bh4p2rcd13ifvqe1g","pricing_plan_id":"cebpf4jnsgd1na2vs0mg"},{"bike_id":"f1c6ef30-df40-4531-b632-19b3b8de3f93","system_id":"levelo_inurba_marseille","lat":43.337444,"lon":5.374475,"is_reserved":false,"is_disabled":false,"rental_uris":{"android":"levelo://app?vid=f1c6ef30-df40-4531-b632-19b3b8de3f93","ios":"levelo://app?vid=f1c6ef30-df40-4531-b632-19b3b8de3f93"},"vehicle_type_id":"4","last_reported":1766118362,"current_range_meters":16000,"station_id":"","pricing_plan_id":"cebpf4jnsgd1na2vs0mg"},{"bike_id":"3632f2ab-b221-4863-b774-2c55ea753df5","system_id":"levelo_inurba_marseille","lat":43.29808,"lon":5.38054,"is_reserved":false,"is_disabled":false,"rental_uris":{"android":"levelo://app?vid=3632f2ab-b221-4863-b774-2c55ea753df5","ios":"levelo://app?vid=3632f2ab-b221-4863-b774-2c55ea753df5"},"vehicle_type_id":"4","last_reported":1766118362,"current_range_meters":16000,"station_id":"","pricing_plan_id":"cebpf4jnsgd1na2vs0mg"},{"bike_id":"db6b0cc7-b9db-4628-83ce-019dc0f883ff","system_id":"levelo_inurba_marseille","lat":43.26557,"lon":5.3903,"is_reserved":false,"is_disabled":false,"rental_uris":{"android":"levelo://app?vid=db6b0cc7-b9db-4628-83ce-019dc0f883ff","ios":"levelo://app?vid=db6b0cc7-b9db-4628-83ce-019dc0f883ff"},"vehicle_type_id":"4","last_reported":1766118362,"current_range_meters":16000,"station_id":"ce4bhe12rcd13ifvqf30","pricing_plan_id":"cebpf4jnsgd1na2vs0mg"},{"bike_id":"cc2a1c40-f3ab-451b-8812-6fdc50c6702d","system_id":"levelo_inurba_marseille","lat":43.284202,"lon":5.349887,"is_reserved":false,"is_disabled":false,"rental_uris":{"android":"levelo://app?vid=cc2a1c40-f3ab-451b-8812-6fdc50c6702d","ios":"levelo://app?vid=cc2a1c40-f3ab-451b-8812-6fdc50c6702d"},"vehicle_type_id":"4","last_reported":1766118362,"current_range_meters":16000,"station_id":"ce4bhbh2rcd13ifvqepg","pricing_plan_id":"cebpf4jnsgd1na2vs0mg"},{"bike_id":"340f8d30-ede3-427a-836c-03a47321f603","system_id":"levelo_inurba_marseille","lat":43.262249,"lon":5.404597,"is_reserved":false,"is_disabled":false,"rental_uris":{"android":"levelo://app?vid=340f8d30-ede3-427a-836c-03a47321f603","ios":"levelo://app?vid=340f8d30-ede3-427a-836c-03a47321f603"},"vehicle_type_id":"4","last_reported":1766118362,"current_range_meters":16000,"station_id":"ce4bhmh2rcd13ifvqgmg","pricing_plan_id":"cebpf4jnsgd1na2vs0mg"},{"bike_id":"2804a5d3-faa8-4e3b-a458-ce91cd4919af","system_id":"levelo_inurba_marseille","lat":43.29227,"lon":5.36076,"is_reserved":false,"is_disabled":false,"rental_uris":{"android":"levelo://app?vid=2804a5d3-faa8-4e3b-a458-ce91cd4919af","ios":"levelo://app?vid=2804a5d3-faa8-4e3b-a458-ce91cd4919af"},"vehicle_type_id":"4","last_reported":1766118362,"current_range_meters":16000,"station_id":"ce4bhbh2rcd13ifvqeqg","pricing_plan_id":"cebpf4jnsgd1na2vs0mg"},{"bike_id":"bb67b255-5e37-444f-b7a3-316dd67e2430","system_id":"levelo_inurba_marseille","lat":43.29177,"lon":5.35789,"is_reserved":false,"is_disabled":false,"rental_uris":{"android":"levelo://app?vid=bb67b255-5e37-444f-b7a3-316dd67e2430","ios":"levelo://app?vid=bb67b255-5e37-444f-b7a3-316dd67e2430"},"vehicle_type_id":"4","last_reported":1766118362,"current_range_meters":16000,"station_id":"ce4bgh92rcd13ifvqb40","pricing_plan_id":"cebpf4jnsgd1na2vs0mg"},{"bike_id":"8ddf5f0b-8638-4227-b0ee-efe27c023df6","system_id":"levelo_inurba_marseille","lat":43.308014,"lon":5.381433,"is_reserved":false,"is_disabled":false,"rental_uris":{"android":"levelo://app?vid=8ddf5f0b-8638-4227-b0ee-efe27c023df6","ios":"levelo://app?vid=8ddf5f0b-8638-4227-b0ee-efe27c023df6"},"vehicle_type_id":"4","last_reported":1766118362,"current_range_meters":16000,"station_id":"ce4bgjp2rcd13ifvqbh0","pricing_plan_id":"cebpf4jnsgd1na2vs0mg"},{"bike_id":"342831ac-e927-49d6-8b43-22fa72e5bef8","system_id":"levelo_inurba_marseille","lat":43.28055,"lon":5.38717,"is_reserved":false,"is_disabled":false,"rental_uris":{"android":"levelo://app?vid=342831ac-e927-49d6-8b43-22fa72e5bef8","ios":"levelo://app?vid=342831ac-e927-49d6-8b43-22fa72e5bef8"},"vehicle_type_id":"4","last_reported":1766118362,"current_range_meters":16000,"station_id":"","pricing_plan_id":"cebpf4jnsgd1na2vs0mg"},{"bike_id":"104427cb-6f2b-466d-8f9d-155b22611c5f","system_id":"levelo_inurba_marseille","lat":43.2863,"lon":5.39846,"is_reserved":false,"is_disabled":false,"rental_uris":{"android":"levelo://app?vid=104427cb-6f2b-466d-8f9d-155b22611c5f","ios":"levelo://app?vid=104427cb-6f2b-466d-8f9d-155b22611c5f"},"vehicle_type_id":"4","last_reported":1766118362,"current_range_meters":16000,"station_id":"st_d4a7ka997mjs738ck50g","pricing_plan_id":"cebpf4jnsgd1na2vs0mg"},{"bike_id":"17e6a6d7-a83e-4be6-ac4f-a147c0b56fba","system_id":"levelo_inurba_marseille","lat":43.23783,"lon":5.36633,"is_reserved":false,"is_disabled":false,"rental_uris":{"android":"levelo://app?vid=17e6a6d7-a83e-4be6-ac4f-a147c0b56fba","ios":"levelo://app?vid=17e6a6d7-a83e-4be6-ac4f-a147c0b56fba"},"vehicle_type_id":"4","last_reported":1766118362,"current_range_meters":16000,"station_id":"st_d3nk18o9ro0c73en2l3g","pricing_plan_id":"cebpf4jnsgd1na2vs0mg"},{"bike_id":"01bdd7ef-5407-42c1-9229-cc21c082c52b","system_id":"levelo_inurba_marseille","lat":43.255072,"lon":5.376595,"is_reserved":false,"is_disabled":false,"rental_uris":{"android":"levelo://app?vid=01bdd7ef-5407-42c1-9229-cc21c082c52b","ios":"levelo://app?vid=01bdd7ef-5407-42c1-9229-cc21c082c52b"},"vehicle_type_id":"4","last_reported":1766118362,"current_range_meters":16400,"station_id":"ce4bhh12rcd13ifvqff0","pricing_plan_id":"cebpf4jnsgd1na2vs0mg"},{"bike_id":"320f03a8-c4c7-4d1f-be9f-3d7bc7f5d6b3","system_id":"levelo_inurba_marseille","lat":43.31115,"lon":5.37789,"is_reserved":false,"is_disabled":false,"rental_uris":{"android":"levelo://app?vid=320f03a8-c4c7-4d1f-be9f-3d7bc7f5d6b3","ios":"levelo://app?vid=320f03a8-c4c7-4d1f-be9f-3d7bc7f5d6b3"},"vehicle_type_id":"4","last_reported":1766118362,"current_range_meters":16400,"station_id":"ce4bgt92rcd13ifvqcg0","pricing_plan_id":"cebpf4jnsgd1na2vs0mg"},{"bike_id":"7d04a59d-052f-40a7-8094-4edf07c71710","system_id":"levelo_inurba_marseille","lat":43.28613,"lon":5.35106,"is_reserved":false,"is_disabled":false,"rental_uris":{"android":"levelo://app?vid=7d04a59d-052f-40a7-8094-4edf07c71710","ios":"levelo://app?vid=7d04a59d-052f-40a7-8094-4edf07c71710"},"vehicle_type_id":"4","last_reported":1766118362,"current_range_meters":16400,"station_id":"ce4bhch2rcd13ifvqeug","pricing_plan_id":"cebpf4jnsgd1na2vs0mg"},{"bike_id":"657677ff-bd0f-45b9-a985-0cee09b5fde2","system_id":"levelo_inurba_marseille","lat":43.31719,"lon":5.43705,"is_reserved":false,"is_disabled":false,"rental_uris":{"android":"levelo://app?vid=657677ff-bd0f-45b9-a985-0cee09b5fde2","ios":"levelo://app?vid=657677ff-bd0f-45b9-a985-0cee09b5fde2"},"vehicle_type_id":"4","last_reported":1766118362,"current_range_meters":16400,"station_id":"ce4bhp92rcd13ifvqhcg","pricing_plan_id":"cebpf4jnsgd1na2vs0mg"},{"bike_id":"7658ce04-c385-4a5b-b29a-f2a2a963598e","system_id":"levelo_inurba_marseille","lat":43.28701,"lon":5.36113,"is_reserved":false,"is_disabled":false,"rental_uris":{"android":"levelo://app?vid=7658ce04-c385-4a5b-b29a-f2a2a963598e","ios":"levelo://app?vid=7658ce04-c385-4a5b-b29a-f2a2a963598e"},"vehicle_type_id":"4","last_reported":1766118362,"current_range_meters":16400,"station_id":"cki0cbj6b192h4jlfktg","pricing_plan_id":"cebpf4jnsgd1na2vs0mg"},{"bike_id":"5cfdf108-64c2-4b38-8628-9d012576cd8b","system_id":"levelo_inurba_marseille","lat":43.33542,"lon":5.3746,"is_reserved":false,"is_disabled":false,"rental_uris":{"android":"levelo://app?vid=5cfdf108-64c2-4b38-8628-9d012576cd8b","ios":"levelo://app?vid=5cfdf108-64c2-4b38-8628-9d012576cd8b"},"vehicle_type_id":"4","last_reported":1766118362,"current_range_meters":16400,"station_id":"st_d46tts09ee8s73dlu43g","pricing_plan_id":"cebpf4jnsgd1na2vs0mg"},{"bike_id":"4d6a801c-974e-4bdb-a9ef-2830fef56156","system_id":"levelo_inurba_marseille","lat":43.24148,"lon":5.36425,"is_reserved":false,"is_disabled":false,"rental_uris":{"android":"levelo://app?vid=4d6a801c-974e-4bdb-a9ef-2830fef56156","ios":"levelo://app?vid=4d6a801c-974e-4bdb-a9ef-2830fef56156"},"vehicle_type_id":"4","last_reported":1766118362,"current_range_meters":16400,"station_id":"cpo36qri1sfpv3e86is0","pricing_plan_id":"cebpf4jnsgd1na2vs0mg"},{"bike_id":"539a15a5-ea1f-433a-b280-748c300e9855","system_id":"levelo_inurba_marseille","lat":43.23172,"lon":5.39978,"is_reserved":false,"is_disabled":false,"rental_uris":{"android":"levelo://app?vid=539a15a5-ea1f-433a-b280-748c300e9855","ios":"levelo://app?vid=539a15a5-ea1f-433a-b280-748c300e9855"},"vehicle_type_id":"4","last_reported":1766118362,"current_range_meters":16400,"station_id":"ce4bhn12rcd13ifvqgqg","pricing_plan_id":"cebpf4jnsgd1na2vs0mg"},{"bike_id":"6c7cdeb8-b2c3-4427-b73a-735e42079b93","system_id":"levelo_inurba_marseille","lat":43.26512,"lon":5.39553,"is_reserved":false,"is_disabled":false,"rental_uris":{"android":"levelo://app?vid=6c7cdeb8-b2c3-4427-b73a-735e42079b93","ios":"levelo://app?vid=6c7cdeb8-b2c3-4427-b73a-735e42079b93"},"vehicle_type_id":"4","last_reported":1766118362,"current_range_meters":16400,"station_id":"ce4bhi12rcd13ifvqfq0","pricing_plan_id":"cebpf4jnsgd1na2vs0mg"},{"bike_id":"449de3f7-7300-4f32-99ec-8d8d0b74147a","system_id":"levelo_inurba_marseille","lat":43.24989,"lon":5.38944,"is_reserved":false,"is_disabled":false,"rental_uris":{"android":"levelo://app?vid=449de3f7-7300-4f32-99ec-8d8d0b74147a","ios":"levelo://app?vid=449de3f7-7300-4f32-99ec-8d8d0b74147a"},