{"last_updated":1758910360,"ttl":60,"version":"2.2","data":{"bikes":[{"bike_id":"5cfd628c-5c2b-4eab-a501-981ba8a122a0","system_id":"levelo_inurba_marseille","lat":43.28934,"lon":5.3663,"is_reserved":false,"is_disabled":false,"rental_uris":{"android":"levelo://app?vid=5cfd628c-5c2b-4eab-a501-981ba8a122a0","ios":"levelo://app?vid=5cfd628c-5c2b-4eab-a501-981ba8a122a0"},"vehicle_type_id":"4","last_reported":1758910360,"current_range_meters":2800,"station_id":"ce4bhap2rcd13ifvqek0","pricing_plan_id":"cebpf4jnsgd1na2vs0mg"},{"bike_id":"8ebbefd2-97da-4a16-a8eb-2639d180086f","system_id":"levelo_inurba_marseille","lat":43.29524,"lon":5.39059,"is_reserved":false,"is_disabled":false,"rental_uris":{"android":"levelo://app?vid=8ebbefd2-97da-4a16-a8eb-2639d180086f","ios":"levelo://app?vid=8ebbefd2-97da-4a16-a8eb-2639d180086f"},"vehicle_type_id":"4","last_reported":1758910360,"current_range_meters":2800,"station_id":"ce4bh3p2rcd13ifvqdp0","pricing_plan_id":"cebpf4jnsgd1na2vs0mg"},{"bike_id":"8e339254-c5c2-42ca-a674-2d5f75180433","system_id":"levelo_inurba_marseille","lat":43.29849,"lon":5.3627,"is_reserved":false,"is_disabled":false,"rental_uris":{"android":"levelo://app?vid=8e339254-c5c2-42ca-a674-2d5f75180433","ios":"levelo://app?vid=8e339254-c5c2-42ca-a674-2d5f75180433"},"vehicle_type_id":"4","last_reported":1758910360,"current_range_meters":2000,"station_id":"ce4bgpp2rcd13ifvqc3g","pricing_plan_id":"cebpf4jnsgd1na2vs0mg"},{"bike_id":"02a08485-8e9e-4cea-bd21-63b3947e9695","system_id":"levelo_inurba_marseille","lat":43.26943,"lon":5.40253,"is_reserved":false,"is_disabled":false,"rental_uris":{"android":"levelo://app?vid=02a08485-8e9e-4cea-bd21-63b3947e9695","ios":"levelo://app?vid=02a08485-8e9e-4cea-bd21-63b3947e9695"},"vehicle_type_id":"4","last_reported":1758910360,"current_range_meters":2800,"station_id":"cjm6bp8fraef2m0cb0m0","pricing_plan_id":"cebpf4jnsgd1na2vs0mg"},{"bike_id":"89e44e0b-6a9f-4b51-a391-dd1bd8186fd1","system_id":"levelo_inurba_marseille","lat":43.31551,"lon":5.37612,"is_reserved":false,"is_disabled":false,"rental_uris":{"android":"levelo://app?vid=89e44e0b-6a9f-4b51-a391-dd1bd8186fd1","ios":"levelo://app?vid=89e44e0b-6a9f-4b51-a391-dd1bd8186fd1"},"vehicle_type_id":"4","last_reported":1758910360,"current_range_meters":2800,"station_id":"","pricing_plan_id":"cebpf4jnsgd1na2vs0mg"},{"bike_id":"438ead59-de14-4fa0-a61d-03a70a4122ae","system_id":"levelo_inurba_marseille","lat":43.97269,"lon":4.89111,"is_reserved":false,"is_disabled":true,"rental_uris":{"android":"levelo://app?vid=438ead59-de14-4fa0-a61d-03a70a4122ae","ios":"levelo://app?vid=438ead59-de14-4fa0-a61d-03a70a4122ae"},"vehicle_type_id":"4","last_reported":1758910360,"current_range_meters":2800,"station_id":"","pricing_plan_id":"cebpf4jnsgd1na2vs0mg"},{"bike_id":"4f9d88bd-a499-4d32-bf14-bfb53848fdbc","system_id":"levelo_inurba_marseille","lat":43.29805,"lon":5.404,"is_reserved":false,"is_disabled":false,"rental_uris":{"android":"levelo://app?vid=4f9d88bd-a499-4d32-bf14-bfb53848fdbc","ios":"levelo://app?vid=4f9d88bd-a499-4d32-bf14-bfb53848fdbc"},"vehicle_type_id":"4","last_reported":1758910360,"current_range_meters":2800,"station_id":"ce4bh112rcd13ifvqd90","pricing_plan_id":"cebpf4jnsgd1na2vs0mg"},{"bike_id":"8e8da76b-32b2-4bc4-9a54-fd078d707b39","system_id":"levelo_inurba_marseille","lat":43.32296,"lon":5.38273,"is_reserved":false,"is_disabled":false,"rental_uris":{"android":"levelo://app?vid=8e8da76b-32b2-4bc4-9a54-fd078d707b39","ios":"levelo://app?vid=8e8da76b-32b2-4bc4-9a54-fd078d707b39"},"vehicle_type_id":"4","last_reported":1758910360,"current_range_meters":3200,"station_id":"ce4bhr12rcd13ifvqhqg","pricing_plan_id":"cebpf4jnsgd1na2vs0mg"},{"bike_id":"6aa5af23-99c2-4820-8c5a-b581b9e3f4ee","system_id":"levelo_inurba_marseille","lat":43.28362,"lon":5.381,"is_reserved":false,"is_disabled":false,"rental_uris":{"android":"levelo://app?vid=6aa5af23-99c2-4820-8c5a-b581b9e3f4ee","ios":"levelo://app?vid=6aa5af23-99c2-4820-8c5a-b581b9e3f4ee"},"vehicle_type_id":"4","last_reported":1758910360,"current_range_meters":2800,"station_id":"ce4bh412rcd13ifvqdr0","pricing_plan_id":"cebpf4jnsgd1na2vs0mg"},{"bike_id":"78b43ab0-57e9-43ee-b7c6-fbbb1406e224","system_id":"levelo_inurba_marseille","lat":43.25736,"lon":5.41121,"is_reserved":false,"is_disabled":false,"rental_uris":{"android":"levelo://app?vid=78b43ab0-57e9-43ee-b7c6-fbbb1406e224","ios":"levelo://app?vid=78b43ab0-57e9-43ee-b7c6-fbbb1406e224"},"vehicle_type_id":"4","last_reported":1758910360,"current_range_meters":3200,"station_id":"ce4bhkp2rcd13ifvqgd0","pricing_plan_id":"cebpf4jnsgd1na2vs0mg"},{"bike_id":"0917de5b-3ddd-4b25-92bb-460c6d717a5f","system_id":"levelo_inurba_marseille","lat":43.31268,"lon":5.41067,"is_reserved":false,"is_disabled":false,"rental_uris":{"android":"levelo://app?vid=0917de5b-3ddd-4b25-92bb-460c6d717a5f","ios":"levelo://app?vid=0917de5b-3ddd-4b25-92bb-460c6d717a5f"},"vehicle_type_id":"4","last_reported":1758910360,"current_range_meters":3200,"station_id":"","pricing_plan_id":"cebpf4jnsgd1na2vs0mg"},{"bike_id":"95e1280b-5991-4128-912a-75e9f859bedc","system_id":"levelo_inurba_marseille","lat":43.28617,"lon":5.37063,"is_reserved":false,"is_disabled":false,"rental_uris":{"android":"levelo://app?vid=95e1280b-5991-4128-912a-75e9f859bedc","ios":"levelo://app?vid=95e1280b-5991-4128-912a-75e9f859bedc"},"vehicle_type_id":"4","last_reported":1758910360,"current_range_meters":3200,"station_id":"ce4bht12rcd13ifvqi60","pricing_plan_id":"cebpf4jnsgd1na2vs0mg"},{"bike_id":"8b43b13b-0343-4cb9-b824-d5ceda281daf","system_id":"levelo_inurba_marseille","lat":43.290283,"lon":5.375658,"is_reserved":false,"is_disabled":false,"rental_uris":{"android":"levelo://app?vid=8b43b13b-0343-4cb9-b824-d5ceda281daf","ios":"levelo://app?vid=8b43b13b-0343-4cb9-b824-d5ceda281daf"},"vehicle_type_id":"4","last_reported":1758910360,"current_range_meters":3600,"station_id":"ce4bh692rcd13ifvqe90","pricing_plan_id":"cebpf4jnsgd1na2vs0mg"},{"bike_id":"72d48244-950f-4377-b731-7588ed8f4214","system_id":"levelo_inurba_marseille","lat":43.25124,"lon":5.40319,"is_reserved":false,"is_disabled":false,"rental_uris":{"android":"levelo://app?vid=72d48244-950f-4377-b731-7588ed8f4214","ios":"levelo://app?vid=72d48244-950f-4377-b731-7588ed8f4214"},"vehicle_type_id":"4","last_reported":1758910360,"current_range_meters":3200,"station_id":"ce4bhlh2rcd13ifvqgig","pricing_plan_id":"cebpf4jnsgd1na2vs0mg"},{"bike_id":"26fc6952-8b11-4e39-a71e-2e6ef5618461","system_id":"levelo_inurba_marseille","lat":43.28936,"lon":5.36634,"is_reserved":false,"is_disabled":false,"rental_uris":{"android":"levelo://app?vid=26fc6952-8b11-4e39-a71e-2e6ef5618461","ios":"levelo://app?vid=26fc6952-8b11-4e39-a71e-2e6ef5618461"},"vehicle_type_id":"4","last_reported":1758910360,"current_range_meters":3600,"station_id":"ce4bhap2rcd13ifvqek0","pricing_plan_id":"cebpf4jnsgd1na2vs0mg"},{"bike_id":"449adf4e-12a3-45de-885e-df88f32e511d","system_id":"levelo_inurba_marseille","lat":43.30727,"lon":5.42455,"is_reserved":false,"is_disabled":false,"rental_uris":{"android":"levelo://app?vid=449adf4e-12a3-45de-885e-df88f32e511d","ios":"levelo://app?vid=449adf4e-12a3-45de-885e-df88f32e511d"},"vehicle_type_id":"4","last_reported":1758910360,"current_range_meters":3600,"station_id":"st_cvj6ca6bvosntc0bfgr0","pricing_plan_id":"cebpf4jnsgd1na2vs0mg"},{"bike_id":"5001b619-8a21-45c9-8930-9794a5346fdb","system_id":"levelo_inurba_marseille","lat":43.28763,"lon":5.38563,"is_reserved":false,"is_disabled":false,"rental_uris":{"android":"levelo://app?vid=5001b619-8a21-45c9-8930-9794a5346fdb","ios":"levelo://app?vid=5001b619-8a21-45c9-8930-9794a5346fdb"},"vehicle_type_id":"4","last_reported":1758910360,"current_range_meters":4000,"station_id":"","pricing_plan_id":"cebpf4jnsgd1na2vs0mg"},{"bike_id":"3d2db94d-bc6b-4226-9ece-2fdbe1233185","system_id":"levelo_inurba_marseille","lat":43.265612,"lon":5.372797,"is_reserved":false,"is_disabled":false,"rental_uris":{"android":"levelo://app?vid=3d2db94d-bc6b-4226-9ece-2fdbe1233185","ios":"levelo://app?vid=3d2db94d-bc6b-4226-9ece-2fdbe1233185"},"vehicle_type_id":"4","last_reported":1758910360,"current_range_meters":4000,"station_id":"ce4bhg12rcd13ifvqf70","pricing_plan_id":"cebpf4jnsgd1na2vs0mg"},{"bike_id":"09f62ba6-af65-412e-aa52-83df4d376991","system_id":"levelo_inurba_marseille","lat":43.31197,"lon":5.36691,"is_reserved":false,"is_disabled":false,"rental_uris":{"android":"levelo://app?vid=09f62ba6-af65-412e-aa52-83df4d376991","ios":"levelo://app?vid=09f62ba6-af65-412e-aa52-83df4d376991"},"vehicle_type_id":"4","last_reported":1758910360,"current_range_meters":4400,"station_id":"","pricing_plan_id":"cebpf4jnsgd1na2vs0mg"},{"bike_id":"0e118b52-22b2-435a-8fd6-c0694d58e18a","system_id":"levelo_inurba_marseille","lat":43.31083,"lon":5.38337,"is_reserved":false,"is_disabled":false,"rental_uris":{"android":"levelo://app?vid=0e118b52-22b2-435a-8fd6-c0694d58e18a","ios":"levelo://app?vid=0e118b52-22b2-435a-8fd6-c0694d58e18a"},"vehicle_type_id":"4","last_reported":1758910360,"current_range_meters":4400,"station_id":"ce4bgv92rcd13ifvqcr0","pricing_plan_id":"cebpf4jnsgd1na2vs0mg"},{"bike_id":"24321c66-d4c5-4b9f-8e76-38b99570cd5f","system_id":"levelo_inurba_marseille","lat":43.29511,"lon":5.39041,"is_reserved":false,"is_disabled":false,"rental_uris":{"android":"levelo://app?vid=24321c66-d4c5-4b9f-8e76-38b99570cd5f","ios":"levelo://app?vid=24321c66-d4c5-4b9f-8e76-38b99570cd5f"},"vehicle_type_id":"4","last_reported":1758910360,"current_range_meters":4400,"station_id":"ce4bh3p2rcd13ifvqdp0","pricing_plan_id":"cebpf4jnsgd1na2vs0mg"},{"bike_id":"c36bb8c7-821d-4529-a06b-83ef97dcc197","system_id":"levelo_inurba_marseille","lat":43.27969,"lon":5.38736,"is_reserved":false,"is_disabled":false,"rental_uris":{"android":"levelo://app?vid=c36bb8c7-821d-4529-a06b-83ef97dcc197","ios":"levelo://app?vid=c36bb8c7-821d-4529-a06b-83ef97dcc197"},"vehicle_type_id":"4","last_reported":1758910360,"current_range_meters":4400,"station_id":"ce4bhg12rcd13ifvqf80","pricing_plan_id":"cebpf4jnsgd1na2vs0mg"},{"bike_id":"194c48d5-6849-45bf-8a89-f8fcfbf6ac7f","system_id":"levelo_inurba_marseille","lat":43.22569,"lon":5.41638,"is_reserved":false,"is_disabled":false,"rental_uris":{"android":"levelo://app?vid=194c48d5-6849-45bf-8a89-f8fcfbf6ac7f","ios":"levelo://app?vid=194c48d5-6849-45bf-8a89-f8fcfbf6ac7f"},"vehicle_type_id":"4","last_reported":1758910360,"current_range_meters":4800,"station_id":"st_d2o4gvlbi1j2169b742g","pricing_plan_id":"cebpf4jnsgd1na2vs0mg"},{"bike_id":"a33c583c-40fe-451f-b30d-e3f794480f4f","system_id":"levelo_inurba_marseille","lat":43.29712,"lon":5.377,"is_reserved":false,"is_disabled":false,"rental_uris":{"android":"levelo://app?vid=a33c583c-40fe-451f-b30d-e3f794480f4f","ios":"levelo://app?vid=a33c583c-40fe-451f-b30d-e3f794480f4f"},"vehicle_type_id":"4","last_reported":1758910360,"current_range_meters":4800,"station_id":"ce4bgkh2rcd13ifvqbl0","pricing_plan_id":"cebpf4jnsgd1na2vs0mg"},{"bike_id":"249d1e25-9e45-4813-8ea5-9dc1b901d558","system_id":"levelo_inurba_marseille","lat":43.30424,"lon":5.41287,"is_reserved":false,"is_disabled":false,"rental_uris":{"android":"levelo://app?vid=249d1e25-9e45-4813-8ea5-9dc1b901d558","ios":"levelo://app?vid=249d1e25-9e45-4813-8ea5-9dc1b901d558"},"vehicle_type_id":"4","last_reported":1758910360,"current_range_meters":5600,"station_id":"ce4bhop2rcd13ifvqh8g","pricing_plan_id":"cebpf4jnsgd1na2vs0mg"},{"bike_id":"8ccb616c-ac24-4f95-8e0c-1c0c12d1308a","system_id":"levelo_inurba_marseille","lat":43.29315,"lon":5.37143,"is_reserved":false,"is_disabled":false,"rental_uris":{"android":"levelo://app?vid=8ccb616c-ac24-4f95-8e0c-1c0c12d1308a","ios":"levelo://app?vid=8ccb616c-ac24-4f95-8e0c-1c0c12d1308a"},"vehicle_type_id":"4","last_reported":1758910360,"current_range_meters":5600,"station_id":"ce4bgh92rcd13ifvqb40","pricing_plan_id":"cebpf4jnsgd1na2vs0mg"},{"bike_id":"15343c75-6626-43fa-8d0d-92c5a7b51bbd","system_id":"levelo_inurba_marseille","lat":43.33027,"lon":5.39038,"is_reserved":false,"is_disabled":false,"rental_uris":{"android":"levelo://app?vid=15343c75-6626-43fa-8d0d-92c5a7b51bbd","ios":"levelo://app?vid=15343c75-6626-43fa-8d0d-92c5a7b51bbd"},"vehicle_type_id":"4","last_reported":1758910360,"current_range_meters":5600,"station_id":"ce4bhr92rcd13ifvqhrg","pricing_plan_id":"cebpf4jnsgd1na2vs0mg"},{"bike_id":"53f8c399-f481-4d25-a2dc-2ed2375e3435","system_id":"levelo_inurba_marseille","lat":43.29797,"lon":5.40407,"is_reserved":false,"is_disabled":false,"rental_uris":{"android":"levelo://app?vid=53f8c399-f481-4d25-a2dc-2ed2375e3435","ios":"levelo://app?vid=53f8c399-f481-4d25-a2dc-2ed2375e3435"},"vehicle_type_id":"4","last_reported":1758910360,"current_range_meters":4800,"station_id":"ce4bh112rcd13ifvqd90","pricing_plan_id":"cebpf4jnsgd1na2vs0mg"},{"bike_id":"588bb5c6-d90f-4edd-b1de-2d2164a39c00","system_id":"levelo_inurba_marseille","lat":43.33029,"lon":5.39033,"is_reserved":false,"is_disabled":false,"rental_uris":{"android":"levelo://app?vid=588bb5c6-d90f-4edd-b1de-2d2164a39c00","ios":"levelo://app?vid=588bb5c6-d90f-4edd-b1de-2d2164a39c00"},"vehicle_type_id":"4","last_reported":1758910360,"current_range_meters":5600,"station_id":"ce4bhr92rcd13ifvqhrg","pricing_plan_id":"cebpf4jnsgd1na2vs0mg"},{"bike_id":"69564c61-5588-41f5-902d-e7266f42af1a","system_id":"levelo_inurba_marseille","lat":43.30345,"lon":5.40439,"is_reserved":false,"is_disabled":false,"rental_uris":{"android":"levelo://app?vid=69564c61-5588-41f5-902d-e7266f42af1a","ios":"levelo://app?vid=69564c61-5588-41f5-902d-e7266f42af1a"},"vehicle_type_id":"4","last_reported":1758910360,"current_range_meters":4800,"station_id":"ce4bh012rcd13ifvqd10","pricing_plan_id":"cebpf4jnsgd1na2vs0mg"},{"bike_id":"fc6b30fa-80e6-44f7-a177-247fc2d5a74b","system_id":"levelo_inurba_marseille","lat":43.29604,"lon":5.38097,"is_reserved":false,"is_disabled":false,"rental_uris":{"android":"levelo://app?vid=fc6b30fa-80e6-44f7-a177-247fc2d5a74b","ios":"levelo://app?vid=fc6b30fa-80e6-44f7-a177-247fc2d5a74b"},"vehicle_type_id":"4","last_reported":1758910360,"current_range_meters":6000,"station_id":"ce4bgl12rcd13ifvqbo0","pricing_plan_id":"cebpf4jnsgd1na2vs0mg"},{"bike_id":"ccf8bdab-1e04-407d-b166-e9ba102d4f73","system_id":"levelo_inurba_marseille","lat":43.29633,"lon":5.40606,"is_reserved":false,"is_disabled":false,"rental_uris":{"android":"levelo://app?vid=ccf8bdab-1e04-407d-b166-e9ba102d4f73","ios":"levelo://app?vid=ccf8bdab-1e04-407d-b166-e9ba102d4f73"},"vehicle_type_id":"4","last_reported":1758910360,"current_range_meters":6000,"station_id":"ce4bh0h2rcd13ifvqd60","pricing_plan_id":"cebpf4jnsgd1na2vs0mg"},{"bike_id":"47736477-f5ac-4ed6-846e-809468f2ab60","system_id":"levelo_inurba_marseille","lat":43.30215,"lon":5.39473,"is_reserved":false,"is_disabled":false,"rental_uris":{"android":"levelo://app?vid=47736477-f5ac-4ed6-846e-809468f2ab60","ios":"levelo://app?vid=47736477-f5ac-4ed6-846e-809468f2ab60"},"vehicle_type_id":"4","last_reported":1758910360,"current_range_meters":6000,"station_id":"ce4bh0p2rcd13ifvqd70","pricing_plan_id":"cebpf4jnsgd1na2vs0mg"},{"bike_id":"7075c2c8-ce96-411f-8f3c-baa78322fb04","system_id":"levelo_inurba_marseille","lat":43.28492,"lon":5.38527,"is_reserved":false,"is_disabled":false,"rental_uris":{"android":"levelo://app?vid=7075c2c8-ce96-411f-8f3c-baa78322fb04","ios":"levelo://app?vid=7075c2c8-ce96-411f-8f3c-baa78322fb04"},"vehicle_type_id":"4","last_reported":1758910360,"current_range_meters":6000,"station_id":"ce4bh8p2rcd13ifvqeb0","pricing_plan_id":"cebpf4jnsgd1na2vs0mg"},{"bike_id":"139753ec-b65d-4714-a041-3da101c91c8d","system_id":"levelo_inurba_marseille","lat":43.28731,"lon":5.36098,"is_reserved":false,"is_disabled":false,"rental_uris":{"android":"levelo://app?vid=139753ec-b65d-4714-a041-3da101c91c8d","ios":"levelo://app?vid=139753ec-b65d-4714-a041-3da101c91c8d"},"vehicle_type_id":"4","last_reported":1758910360,"current_range_meters":6000,"station_id":"cki0cbj6b192h4jlfktg","pricing_plan_id":"cebpf4jnsgd1na2vs0mg"},{"bike_id":"7d9c893e-52dd-45e6-aa9f-5fa5fcf1a192","system_id":"levelo_inurba_marseille","lat":43.30927,"lon":5.40132,"is_reserved":false,"is_disabled":true,"rental_uris":{"android":"levelo://app?vid=7d9c893e-52dd-45e6-aa9f-5fa5fcf1a192","ios":"levelo://app?vid=7d9c893e-52dd-45e6-aa9f-5fa5fcf1a192"},"vehicle_type_id":"4","last_reported":1758910360,"current_range_meters":6400,"station_id":"ce4bgvp2rcd13ifvqct0","pricing_plan_id":"cebpf4jnsgd1na2vs0mg"},{"bike_id":"42bbdd81-ba28-4d13-b315-607386377aea","system_id":"levelo_inurba_marseille","lat":43.31228,"lon":5.36862,"is_reserved":false,"is_disabled":false,"rental_uris":{"android":"levelo://app?vid=42bbdd81-ba28-4d13-b315-607386377aea","ios":"levelo://app?vid=42bbdd81-ba28-4d13-b315-607386377aea"},"vehicle_type_id":"4","last_reported":1758910360,"current_range_meters":6000,"station_id":"ce4bgl92rcd13ifvqbq0","pricing_plan_id":"cebpf4jnsgd1na2vs0mg"},{"bike_id":"9487421f-3ca0-4d80-b5dc-8c8662435a77","system_id":"levelo_inurba_marseille","lat":43.287,"lon":5.37391,"is_reserved":false,"is_disabled":false,"rental_uris":{"android":"levelo://app?vid=9487421f-3ca0-4d80-b5dc-8c8662435a77","ios":"levelo://app?vid=9487421f-3ca0-4d80-b5dc-8c8662435a77"},"vehicle_type_id":"4","last_reported":1758910360,"current_range_meters":6400,"station_id":"ce4bh3p2rcd13ifvqdq0","pricing_plan_id":"cebpf4jnsgd1na2vs0mg"},{"bike_id":"aba17d7c-d4be-49a7-9241-c1c30c4a7795","system_id":"levelo_inurba_marseille","lat":43.293098,"lon":5.371671,"is_reserved":false,"is_disabled":false,"rental_uris":{"android":"levelo://app?vid=aba17d7c-d4be-49a7-9241-c1c30c4a7795","ios":"levelo://app?vid=aba17d7c-d4be-49a7-9241-c1c30c4a7795"},"vehicle_type_id":"4","last_reported":1758910360,"current_range_meters":6000,"station_id":"ce4bgh92rcd13ifvqb40","pricing_plan_id":"cebpf4jnsgd1na2vs0mg"},{"bike_id":"c4c14fd8-ea32-424b-a86d-e0453cafdd6a","system_id":"levelo_inurba_marseille","lat":43.28858,"lon":5.42544,"is_reserved":false,"is_disabled":false,"rental_uris":{"android":"levelo://app?vid=c4c14fd8-ea32-424b-a86d-e0453cafdd6a","ios":"levelo://app?vid=c4c14fd8-ea32-424b-a86d-e0453cafdd6a"},"vehicle_type_id":"4","last_reported":1758910360,"current_range_meters":6400,"station_id":"st_d3b462108ojc7389ooeg","pricing_plan_id":"cebpf4jnsgd1na2vs0mg"},{"bike_id":"410ee7e1-bd8d-488b-aac3-539b2721381c","system_id":"levelo_inurba_marseille","lat":43.31758,"lon":5.39017,"is_reserved":false,"is_disabled":false,"rental_uris":{"android":"levelo://app?vid=410ee7e1-bd8d-488b-aac3-539b2721381c","ios":"levelo://app?vid=410ee7e1-bd8d-488b-aac3-539b2721381c"},"vehicle_type_id":"4","last_reported":1758910360,"current_range_meters":6400,"station_id":"ce4bhqp2rcd13ifvqhng","pricing_plan_id":"cebpf4jnsgd1na2vs0mg"},{"bike_id":"b15c6fae-78ea-4914-abec-1aba47419c0a","system_id":"levelo_inurba_marseille","lat":43.2893,"lon":5.36628,"is_reserved":false,"is_disabled":false,"rental_uris":{"android":"levelo://app?vid=b15c6fae-78ea-4914-abec-1aba47419c0a","ios":"levelo://app?vid=b15c6fae-78ea-4914-abec-1aba47419c0a"},"vehicle_type_id":"4","last_reported":1758910360,"current_range_meters":6800,"station_id":"ce4bhap2rcd13ifvqek0","pricing_plan_id":"cebpf4jnsgd1na2vs0mg"},{"bike_id":"3be1415e-65a3-4c87-9e41-bbfa45afed45","system_id":"levelo_inurba_marseille","lat":43.2994,"lon":5.43662,"is_reserved":false,"is_disabled":false,"rental_uris":{"android":"levelo://app?vid=3be1415e-65a3-4c87-9e41-bbfa45afed45","ios":"levelo://app?vid=3be1415e-65a3-4c87-9e41-bbfa45afed45"},"vehicle_type_id":"4","last_reported":1758910360,"current_range_meters":6800,"station_id":"","pricing_plan_id":"cebpf4jnsgd1na2vs0mg"},{"bike_id":"09cc78f5-fbc1-4a77-9a39-eb4afbaded2e","system_id":"levelo_inurba_marseille","lat":43.3088,"lon":5.39659,"is_reserved":false,"is_disabled":false,"rental_uris":{"android":"levelo://app?vid=09cc78f5-fbc1-4a77-9a39-eb4afbaded2e","ios":"levelo://app?vid=09cc78f5-fbc1-4a77-9a39-eb4afbaded2e"},"vehicle_type_id":"4","last_reported":1758910360,"current_range_meters":6800,"station_id":"ce4bh012rcd13ifvqcv0","pricing_plan_id":"cebpf4jnsgd1na2vs0mg"},{"bike_id":"7e76b35a-d345-49a0-b8d7-44299bdb4b46","system_id":"levelo_inurba_marseille","lat":43.29249,"lon":5.38454,"is_reserved":false,"is_disabled":false,"rental_uris":{"android":"levelo://app?vid=7e76b35a-d345-49a0-b8d7-44299bdb4b46","ios":"levelo://app?vid=7e76b35a-d345-49a0-b8d7-44299bdb4b46"},"vehicle_type_id":"4","last_reported":1758910360,"current_range_meters":6800,"station_id":"ce4bh692rcd13ifvqea0","pricing_plan_id":"cebpf4jnsgd1na2vs0mg"},{"bike_id":"0a4f1e02-93b1-444a-83ad-0d8b603b642a","system_id":"levelo_inurba_marseille","lat":43.30596,"lon":5.39335,"is_reserved":false,"is_disabled":false,"rental_uris":{"android":"levelo://app?vid=0a4f1e02-93b1-444a-83ad-0d8b603b642a","ios":"levelo://app?vid=0a4f1e02-93b1-444a-83ad-0d8b603b642a"},"vehicle_type_id":"4","last_reported":1758910360,"current_range_meters":6800,"station_id":"ce4bh0p2rcd13ifvqd80","pricing_plan_id":"cebpf4jnsgd1na2vs0mg"},{"bike_id":"ef41b06a-0925-4c06-bf20-a385e6e21bad","system_id":"levelo_inurba_marseille","lat":43.29451,"lon":5.39746,"is_reserved":false,"is_disabled":false,"rental_uris":{"android":"levelo://app?vid=ef41b06a-0925-4c06-bf20-a385e6e21bad","ios":"levelo://app?vid=ef41b06a-0925-4c06-bf20-a385e6e21bad"},"vehicle_type_id":"4","last_reported":1758910360,"current_range_meters":6800,"station_id":"ce4bh3h2rcd13ifvqdo0","pricing_plan_id":"cebpf4jnsgd1na2vs0mg"},{"bike_id":"c55f80e4-c4ec-4037-8baa-72366b63246e","system_id":"levelo_inurba_marseille","lat":43.2836,"lon":5.38637,"is_reserved":false,"is_disabled":false,"rental_uris":{"android":"levelo://app?vid=c55f80e4-c4ec-4037-8baa-72366b63246e","ios":"levelo://app?vid=c55f80e4-c4ec-4037-8baa-72366b63246e"},"vehicle_type_id":"4","last_reported":1758910360,"current_range_meters":6800,"station_id":"ce4bh492rcd13ifvqdvg","pricing_plan_id":"cebpf4jnsgd1na2vs0mg"},{"bike_id":"f8d5e2df-adaa-4274-990c-b6558d2a9c88","system_id":"levelo_inurba_marseille","lat":43.28697,"lon":5.37392,"is_reserved":false,"is_disabled":false,"rental_uris":{"android":"levelo://app?vid=f8d5e2df-adaa-4274-990c-b6558d2a9c88","ios":"levelo://app?vid=f8d5e2df-adaa-4274-990c-b6558d2a9c88"},"vehicle_type_id":"4","last_reported":1758910360,"current_range_meters":6800,"station_id":"ce4bh3p2rcd13ifvqdq0","pricing_plan_id":"cebpf4jnsgd1na2vs0mg"},{"bike_id":"3fcd9450-1683-41c4-9938-314e4ec551ab","system_id":"levelo_inurba_marseille","lat":43.299738,"lon":5.384965,"is_reserved":false,"is_disabled":false,"rental_uris":{"android":"levelo://app?vid=3fcd9450-1683-41c4-9938-314e4ec551ab","ios":"levelo://app?vid=3fcd9450-1683-41c4-9938-314e4ec551ab"},"vehicle_type_id":"4","last_reported":1758910360,"current_range_meters":7200,"station_id":"ce4bgj92rcd13ifvqbd0","pricing_plan_id":"cebpf4jnsgd1na2vs0mg"},{"bike_id":"5af104cc-7c43-423b-9b0e-e16da4a1ff2c","system_id":"levelo_inurba_marseille","lat":43.28078,"lon":5.39662,"is_reserved":false,"is_disabled":false,"rental_uris":{"android":"levelo://app?vid=5af104cc-7c43-423b-9b0e-e16da4a1ff2c","ios":"levelo://app?vid=5af104cc-7c43-423b-9b0e-e16da4a1ff2c"},"vehicle_type_id":"4","last_reported":1758910360,"current_range_meters":7200,"station_id":"ce4bho12rcd13ifvqh2g","pricing_plan_id":"cebpf4jnsgd1na2vs0mg"},{"bike_id":"90dbe13e-d99d-415b-862d-7d9f05f3335e","system_id":"levelo_inurba_marseille","lat":43.297098,"lon":5.37702,"is_reserved":false,"is_disabled":false,"rental_uris":{"android":"levelo://app?vid=90dbe13e-d99d-415b-862d-7d9f05f3335e","ios":"levelo://app?vid=90dbe13e-d99d-415b-862d-7d9f05f3335e"},"vehicle_type_id":"4","last_reported":1758910360,"current_range_meters":7200,"station_id":"ce4bgkh2rcd13ifvqbl0","pricing_plan_id":"cebpf4jnsgd1na2vs0mg"},{"bike_id":"8eae954c-dab6-4303-94f5-569e1c483f62","system_id":"levelo_inurba_marseille","lat":43.29431,"lon":5.40727,"is_reserved":false,"is_disabled":false,"rental_uris":{"android":"levelo://app?vid=8eae954c-dab6-4303-94f5-569e1c483f62","ios":"levelo://app?vid=8eae954c-dab6-4303-94f5-569e1c483f62"},"vehicle_type_id":"4","last_reported":1758910360,"current_range_meters":7200,"station_id":"","pricing_plan_id":"cebpf4jnsgd1na2vs0mg"},{"bike_id":"5e25d3e2-46d1-4db6-b476-a8d8251a3ca0","system_id":"levelo_inurba_marseille","lat":43.303013,"lon":5.392148,"is_reserved":false,"is_disabled":false,"rental_uris":{"android":"levelo://app?vid=5e25d3e2-46d1-4db6-b476-a8d8251a3ca0","ios":"levelo://app?vid=5e25d3e2-46d1-4db6-b476-a8d8251a3ca0"},"vehicle_type_id":"4","last_reported":1758910360,"current_range_meters":7200,"station_id":"ce4bgkh2rcd13ifvqbk0","pricing_plan_id":"cebpf4jnsgd1na2vs0mg"},{"bike_id":"417807f4-15bb-4043-9320-4e1f347bd83c","system_id":"levelo_inurba_marseille","lat":43.312707,"lon":5.401723,"is_reserved":false,"is_disabled":false,"rental_uris":{"android":"levelo://app?vid=417807f4-15bb-4043-9320-4e1f347bd83c","ios":"levelo://app?vid=417807f4-15bb-4043-9320-4e1f347bd83c"},"vehicle_type_id":"4","last_reported":1758910360,"current_range_meters":7200,"station_id":"ce4bh092rcd13ifvqd30","pricing_plan_id":"cebpf4jnsgd1na2vs0mg"},{"bike_id":"5cddf758-8a6b-4867-a9f5-82508fe5a8a7","system_id":"levelo_inurba_marseille","lat":43.29507,"lon":5.38197,"is_reserved":false,"is_disabled":false,"rental_uris":{"android":"levelo://app?vid=5cddf758-8a6b-4867-a9f5-82508fe5a8a7","ios":"levelo://app?vid=5cddf758-8a6b-4867-a9f5-82508fe5a8a7"},"vehicle_type_id":"4","last_reported":1758910360,"current_range_meters":7200,"station_id":"","pricing_plan_id":"cebpf4jnsgd1na2vs0mg"},{"bike_id":"526eb266-dc65-4347-97a9-85ce3a223e14","system_id":"levelo_inurba_marseille","lat":43.29441,"lon":5.39759,"is_reserved":false,"is_disabled":false,"rental_uris":{"android":"levelo://app?vid=526eb266-dc65-4347-97a9-85ce3a223e14","ios":"levelo://app?vid=526eb266-dc65-4347-97a9-85ce3a223e14"},"vehicle_type_id":"4","last_reported":1758910360,"current_range_meters":7200,"station_id":"ce4bh3h2rcd13ifvqdo0","pricing_plan_id":"cebpf4jnsgd1na2vs0mg"},{"bike_id":"40cadaa3-9e89-4a69-8762-8b0b65a9d914","system_id":"levelo_inurba_marseille","lat":43.295221,"lon":5.394019,"is_reserved":false,"is_disabled":false,"rental_uris":{"android":"levelo://app?vid=40cadaa3-9e89-4a69-8762-8b0b65a9d914","ios":"levelo://app?vid=40cadaa3-9e89-4a69-8762-8b0b65a9d914"},"vehicle_type_id":"4","last_reported":1758910360,"current_range_meters":7200,"station_id":"","pricing_plan_id":"cebpf4jnsgd1na2vs0mg"},{"bike_id":"003515e8-8117-44bb-979d-5f47e8d50fda","system_id":"levelo_inurba_marseille","lat":43.30642,"lon":5.37557,"is_reserved":false,"is_disabled":false,"rental_uris":{"android":"levelo://app?vid=003515e8-8117-44bb-979d-5f47e8d50fda","ios":"levelo://app?vid=003515e8-8117-44bb-979d-5f47e8d50fda"},"vehicle_type_id":"4","last_reported":1758910360,"current_range_meters":8000,"station_id":"","pricing_plan_id":"cebpf4jnsgd1na2vs0mg"},{"bike_id":"5fb94736-ab55-4669-9051-528e731c111d","system_id":"levelo_inurba_marseille","lat":43.29533,"lon":5.38546,"is_reserved":false,"is_disabled":false,"rental_uris":{"android":"levelo://app?vid=5fb94736-ab55-4669-9051-528e731c111d","ios":"levelo://app?vid=5fb94736-ab55-4669-9051-528e731c111d"},"vehicle_type_id":"4","last_reported":1758910360,"current_range_meters":8000,"station_id":"ce4bgih2rcd13ifvqba0","pricing_plan_id":"cebpf4jnsgd1na2vs0mg"},{"bike_id":"9e4271da-7a19-449e-9773-3748754740e4","system_id":"levelo_inurba_marseille","lat":43.29269,"lon":5.38439,"is_reserved":false,"is_disabled":false,"rental_uris":{"android":"levelo://app?vid=9e4271da-7a19-449e-9773-3748754740e4","ios":"levelo://app?vid=9e4271da-7a19-449e-9773-3748754740e4"},"vehicle_type_id":"4","last_reported":1758910360,"current_range_meters":8000,"station_id":"ce4bh692rcd13ifvqea0","pricing_plan_id":"cebpf4jnsgd1na2vs0mg"},{"bike_id":"df0bd5f5-d529-48cc-8596-7d7dc8c24e4c","system_id":"levelo_inurba_marseille","lat":43.29534,"lon":5.39407,"is_reserved":false,"is_disabled":false,"rental_uris":{"android":"levelo://app?vid=df0bd5f5-d529-48cc-8596-7d7dc8c24e4c","ios":"levelo://app?vid=df0bd5f5-d529-48cc-8596-7d7dc8c24e4c"},"vehicle_type_id":"4","last_reported":1758910360,"current_range_meters":8000,"station_id":"ce4bh292rcd13ifvqdf0","pricing_plan_id":"cebpf4jnsgd1na2vs0mg"},{"bike_id":"3cc8249a-b149-4ab0-8a3e-52241bb02fdd","system_id":"levelo_inurba_marseille","lat":43.29725,"lon":5.38038,"is_reserved":false,"is_disabled":false,"rental_uris":{"android":"levelo://app?vid=3cc8249a-b149-4ab0-8a3e-52241bb02fdd","ios":"levelo://app?vid=3cc8249a-b149-4ab0-8a3e-52241bb02fdd"},"vehicle_type_id":"4","last_reported":1758910360,"current_range_meters":8000,"station_id":"","pricing_plan_id":"cebpf4jnsgd1na2vs0mg"},{"bike_id":"afde6d63-cca2-4077-99f5-e95283b499bd","system_id":"levelo_inurba_marseille","lat":43.32335,"lon":5.40618,"is_reserved":false,"is_disabled":false,"rental_uris":{"android":"levelo://app?vid=afde6d63-cca2-4077-99f5-e95283b499bd","ios":"levelo://app?vid=afde6d63-cca2-4077-99f5-e95283b499bd"},"vehicle_type_id":"4","last_reported":1758910360,"current_range_meters":8000,"station_id":"ce4bhq92rcd13ifvqhjg","pricing_plan_id":"cebpf4jnsgd1na2vs0mg"},{"bike_id":"1bdd17de-292d-46b9-880d-59b4e151ef54","system_id":"levelo_inurba_marseille","lat":43.29527,"lon":5.38542,"is_reserved":false,"is_disabled":false,"rental_uris":{"android":"levelo://app?vid=1bdd17de-292d-46b9-880d-59b4e151ef54","ios":"levelo://app?vid=1bdd17de-292d-46b9-880d-59b4e151ef54"},"vehicle_type_id":"4","last_reported":1758910360,"current_range_meters":8000,"station_id":"ce4bgih2rcd13ifvqba0","pricing_plan_id":"cebpf4jnsgd1na2vs0mg"},{"bike_id":"cd1f8f5a-b1e4-4aa4-b638-89b293804c99","system_id":"levelo_inurba_marseille","lat":43.3042,"lon":5.41297,"is_reserved":false,"is_disabled":false,"rental_uris":{"android":"levelo://app?vid=cd1f8f5a-b1e4-4aa4-b638-89b293804c99","ios":"levelo://app?vid=cd1f8f5a-b1e4-4aa4-b638-89b293804c99"},"vehicle_type_id":"4","last_reported":1758910360,"current_range_meters":8000,"station_id":"ce4bhop2rcd13ifvqh8g","pricing_plan_id":"cebpf4jnsgd1na2vs0mg"},{"bike_id":"212de2eb-8bbc-413c-b204-9fe1facd76e8","system_id":"levelo_inurba_marseille","lat":43.31297,"lon":5.37819,"is_reserved":false,"is_disabled":false,"rental_uris":{"android":"levelo://app?vid=212de2eb-8bbc-413c-b204-9fe1facd76e8","ios":"levelo://app?vid=212de2eb-8bbc-413c-b204-9fe1facd76e8"},"vehicle_type_id":"4","last_reported":1758910360,"current_range_meters":8000,"station_id":"","pricing_plan_id":"cebpf4jnsgd1na2vs0mg"},{"bike_id":"10570c5a-8e04-4e55-8478-90c821e94d73","system_id":"levelo_inurba_marseille","lat":43.33149,"lon":5.38164,"is_reserved":false,"is_disabled":false,"rental_uris":{"android":"levelo://app?vid=10570c5a-8e04-4e55-8478-90c821e94d73","ios":"levelo://app?vid=10570c5a-8e04-4e55-8478-90c821e94d73"},"vehicle_type_id":"4","last_reported":1758910360,"current_range_meters":8000,"station_id":"","pricing_plan_id":"cebpf4jnsgd1na2vs0mg"},{"bike_id":"97077d85-71b7-4186-accf-6b32288208e9","system_id":"levelo_inurba_marseille","lat":43.22554,"lon":5.41641,"is_reserved":false,"is_disabled":false,"rental_uris":{"android":"levelo://app?vid=97077d85-71b7-4186-accf-6b32288208e9","ios":"levelo://app?vid=97077d85-71b7-4186-accf-6b32288208e9"},"vehicle_type_id":"4","last_reported":1758910360,"current_range_meters":8400,"station_id":"st_d2o4gvlbi1j2169b742g","pricing_plan_id":"cebpf4jnsgd1na2vs0mg"},{"bike_id":"f897d300-643c-4c7a-951b-f56d70ef23ca","system_id":"levelo_inurba_marseille","lat":43.30323,"lon":5.39085,"is_reserved":false,"is_disabled":false,"rental_uris":{"android":"levelo://app?vid=f897d300-643c-4c7a-951b-f56d70ef23ca","ios":"levelo://app?vid=f897d300-643c-4c7a-951b-f56d70ef23ca"},"vehicle_type_id":"4","last_reported":1758910360,"current_range_meters":8400,"station_id":"","pricing_plan_id":"cebpf4jnsgd1na2vs0mg"},{"bike_id":"d48bb115-5d41-43cb-869f-6d466cfa6f63","system_id":"levelo_inurba_marseille","lat":43.29305,"lon":5.37457,"is_reserved":false,"is_disabled":false,"rental_uris":{"android":"levelo://app?vid=d48bb115-5d41-43cb-869f-6d466cfa6f63","ios":"levelo://app?vid=d48bb115-5d41-43cb-869f-6d466cfa6f63"},"vehicle_type_id":"4","last_reported":1758910360,"current_range_meters":8800,"station_id":"ce4bgi12rcd13ifvqb70","pricing_plan_id":"cebpf4jnsgd1na2vs0mg"},{"bike_id":"e057a4ef-97bf-4e25-9a18-02598bbb0bbf","system_id":"levelo_inurba_marseille","lat":43.24544,"lon":5.39535,"is_reserved":false,"is_disabled":true,"rental_uris":{"android":"levelo://app?vid=e057a4ef-97bf-4e25-9a18-02598bbb0bbf","ios":"levelo://app?vid=e057a4ef-97bf-4e25-9a18-02598bbb0bbf"},"vehicle_type_id":"4","last_reported":1758910360,"current_range_meters":8400,"station_id":"ce4bhlp2rcd13ifvqgjg","pricing_plan_id":"cebpf4jnsgd1na2vs0mg"},{"bike_id":"b33a2e1e-e47f-4bd2-a238-de0a63060f6b","system_id":"levelo_inurba_marseille","lat":43.23973,"lon":5.36631,"is_reserved":false,"is_disabled":false,"rental_uris":{"android":"levelo://app?vid=b33a2e1e-e47f-4bd2-a238-de0a63060f6b","ios":"levelo://app?vid=b33a2e1e-e47f-4bd2-a238-de0a63060f6b"},"vehicle_type_id":"4","last_reported":1758910360,"current_range_meters":8400,"station_id":"ce4bhi12rcd13ifvqfp0","pricing_plan_id":"cebpf4jnsgd1na2vs0mg"},{"bike_id":"a7862c84-1ee5-4824-bd79-9ce62d6933b3","system_id":"levelo_inurba_marseille","lat":43.29061,"lon":5.3714,"is_reserved":false,"is_disabled":true,"rental_uris":{"android":"levelo://app?vid=a7862c84-1ee5-4824-bd79-9ce62d6933b3","ios":"levelo://app?vid=a7862c84-1ee5-4824-bd79-9ce62d6933b3"},"vehicle_type_id":"4","last_reported":1758910360,"current_range_meters":8400,"station_id":"ce4bh5p2rcd13ifvqe4g","pricing_plan_id":"cebpf4jnsgd1na2vs0mg"},{"bike_id":"8b67a3f9-96a4-4851-be82-ee3df57c9d39","system_id":"levelo_inurba_marseille","lat":43.29264,"lon":5.38439,"is_reserved":false,"is_disabled":false,"rental_uris":{"android":"levelo://app?vid=8b67a3f9-96a4-4851-be82-ee3df57c9d39","ios":"levelo://app?vid=8b67a3f9-96a4-4851-be82-ee3df57c9d39"},"vehicle_type_id":"4","last_reported":1758910360,"current_range_meters":8400,"station_id":"ce4bh692rcd13ifvqea0","pricing_plan_id":"cebpf4jnsgd1na2vs0mg"},{"bike_id":"7aca4146-1679-408c-ace1-60be4c50ff4d","system_id":"levelo_inurba_marseille","lat":43.29709,"lon":5.37693,"is_reserved":false,"is_disabled":false,"rental_uris":{"android":"levelo://app?vid=7aca4146-1679-408c-ace1-60be4c50ff4d","ios":"levelo://app?vid=7aca4146-1679-408c-ace1-60be4c50ff4d"},"vehicle_type_id":"4","last_reported":1758910360,"current_range_meters":8400,"station_id":"ce4bgkh2rcd13ifvqbl0","pricing_plan_id":"cebpf4jnsgd1na2vs0mg"},{"bike_id":"5070e9d5-1fc3-4d03-b1c0-402887e5ce13","system_id":"levelo_inurba_marseille","lat":43.25004,"lon":5.38925,"is_reserved":false,"is_disabled":false,"rental_uris":{"android":"levelo://app?vid=5070e9d5-1fc3-4d03-b1c0-402887e5ce13","ios":"levelo://app?vid=5070e9d5-1fc3-4d03-b1c0-402887e5ce13"},"vehicle_type_id":"4","last_reported":1758910360,"current_range_meters":8400,"station_id":"ce4bhgp2rcd13ifvqfd0","pricing_plan_id":"cebpf4jnsgd1na2vs0mg"},{"bike_id":"339534b4-d6ce-428f-97c9-087d1b58c7b3","system_id":"levelo_inurba_marseille","lat":43.32698,"lon":5.4029,"is_reserved":false,"is_disabled":false,"rental_uris":{"android":"levelo://app?vid=339534b4-d6ce-428f-97c9-087d1b58c7b3","ios":"levelo://app?vid=339534b4-d6ce-428f-97c9-087d1b58c7b3"},"vehicle_type_id":"4","last_reported":1758910360,"current_range_meters":8400,"station_id":"","pricing_plan_id":"cebpf4jnsgd1na2vs0mg"},{"bike_id":"1e1ec54c-e47b-4842-b5a3-d44c4f653d61","system_id":"levelo_inurba_marseille","lat":43.31185,"lon":5.387155,"is_reserved":false,"is_disabled":false,"rental_uris":{"android":"levelo://app?vid=1e1ec54c-e47b-4842-b5a3-d44c4f653d61","ios":"levelo://app?vid=1e1ec54c-e47b-4842-b5a3-d44c4f653d61"},"vehicle_type_id":"4","last_reported":1758910360,"current_range_meters":8800,"station_id":"ce4bgv12rcd13ifvqcp0","pricing_plan_id":"cebpf4jnsgd1na2vs0mg"},{"bike_id":"6e5f9218-7e48-4f4d-9536-3a347d73742b","system_id":"levelo_inurba_marseille","lat":43.30882,"lon":5.39666,"is_reserved":false,"is_disabled":false,"rental_uris":{"android":"levelo://app?vid=6e5f9218-7e48-4f4d-9536-3a347d73742b","ios":"levelo://app?vid=6e5f9218-7e48-4f4d-9536-3a347d73742b"},"vehicle_type_id":"4","last_reported":1758910360,"current_range_meters":8400,"station_id":"ce4bh012rcd13ifvqcv0","pricing_plan_id":"cebpf4jnsgd1na2vs0mg"},{"bike_id":"fe939078-5878-4cad-973e-1fc4284a436f","system_id":"levelo_inurba_marseille","lat":43.29344,"lon":5.38642,"is_reserved":false,"is_disabled":false,"rental_uris":{"android":"levelo://app?vid=fe939078-5878-4cad-973e-1fc4284a436f","ios":"levelo://app?vid=fe939078-5878-4cad-973e-1fc4284a436f"},"vehicle_type_id":"4","last_reported":1758910360,"current_range_meters":8800,"station_id":"","pricing_plan_id":"cebpf4jnsgd1na2vs0mg"},{"bike_id":"3b4c0876-9ce3-4577-8e33-c6d1665be917","system_id":"levelo_inurba_marseille","lat":43.29535,"lon":5.38537,"is_reserved":false,"is_disabled":false,"rental_uris":{"android":"levelo://app?vid=3b4c0876-9ce3-4577-8e33-c6d1665be917","ios":"levelo://app?vid=3b4c0876-9ce3-4577-8e33-c6d1665be917"},"vehicle_type_id":"4","last_reported":1758910360,"current_range_meters":9200,"station_id":"ce4bgih2rcd13ifvqba0","pricing_plan_id":"cebpf4jnsgd1na2vs0mg"},{"bike_id":"174dfb4f-f618-4c2f-be1c-ae0d6b405e94","system_id":"levelo_inurba_marseille","lat":43.29693,"lon":5.3825,"is_reserved":false,"is_disabled":false,"rental_uris":{"android":"levelo://app?vid=174dfb4f-f618-4c2f-be1c-ae0d6b405e94","ios":"levelo://app?vid=174dfb4f-f618-4c2f-be1c-ae0d6b405e94"},"vehicle_type_id":"4","last_reported":1758910360,"current_range_meters":9200,"station_id":"","pricing_plan_id":"cebpf4jnsgd1na2vs0mg"},{"bike_id":"3a516d5e-f0a7-41ca-bc68-4e4734b8fdb8","system_id":"levelo_inurba_marseille","lat":43.31069,"lon":5.38344,"is_reserved":false,"is_disabled":false,"rental_uris":{"android":"levelo://app?vid=3a516d5e-f0a7-41ca-bc68-4e4734b8fdb8","ios":"levelo://app?vid=3a516d5e-f0a7-41ca-bc68-4e4734b8fdb8"},"vehicle_type_id":"4","last_reported":1758910360,"current_range_meters":9200,"station_id":"ce4bgv92rcd13ifvqcr0","pricing_plan_id":"cebpf4jnsgd1na2vs0mg"},{"bike_id":"641559f1-9cff-4cf1-875f-c4a64248ece4","system_id":"levelo_inurba_marseille","lat":43.3205,"lon":5.4156,"is_reserved":false,"is_disabled":false,"rental_uris":{"android":"levelo://app?vid=641559f1-9cff-4cf1-875f-c4a64248ece4","ios":"levelo://app?vid=641559f1-9cff-4cf1-875f-c4a64248ece4"},"vehicle_type_id":"4","last_reported":1758910360,"current_range_meters":8800,"station_id":"ce4bhq92rcd13ifvqhkg","pricing_plan_id":"cebpf4jnsgd1na2vs0mg"},{"bike_id":"6338603f-91aa-4667-b31d-86f67a4500e5","system_id":"levelo_inurba_marseille","lat":43.25875,"lon":5.39911,"is_reserved":false,"is_disabled":false,"rental_uris":{"android":"levelo://app?vid=6338603f-91aa-4667-b31d-86f67a4500e5","ios":"levelo://app?vid=6338603f-91aa-4667-b31d-86f67a4500e5"},"vehicle_type_id":"4","last_reported":1758910360,"current_range_meters":9200,"station_id":"ce4bhl92rcd13ifvqghg","pricing_plan_id":"cebpf4jnsgd1na2vs0mg"},{"bike_id":"c7f6a08b-c655-4213-b2ba-7d02e7f382fe","system_id":"levelo_inurba_marseille","lat":43.27988,"lon":5.39483,"is_reserved":false,"is_disabled":false,"rental_uris":{"android":"levelo://app?vid=c7f6a08b-c655-4213-b2ba-7d02e7f382fe","ios":"levelo://app?vid=c7f6a08b-c655-4213-b2ba-7d02e7f382fe"},"vehicle_type_id":"4","last_reported":1758910360,"current_range_meters":9200,"station_id":"","pricing_plan_id":"cebpf4jnsgd1na2vs0mg"},{"bike_id":"870e5594-9683-411d-824b-ff8499d5de2e","system_id":"levelo_inurba_marseille","lat":43.33729,"lon":5.39173,"is_reserved":false,"is_disabled":false,"rental_uris":{"android":"levelo://app?vid=870e5594-9683-411d-824b-ff8499d5de2e","ios":"levelo://app?vid=870e5594-9683-411d-824b-ff8499d5de2e"},"vehicle_type_id":"4","last_reported":1758910360,"current_range_meters":8800,"station_id":"ce4bhr92rcd13ifvqhsg","pricing_plan_id":"cebpf4jnsgd1na2vs0mg"},{"bike_id":"e5303607-da03-4ac7-b81e-b332ede84cf7","system_id":"levelo_inurba_marseille","lat":43.31295,"lon":5.37823,"is_reserved":false,"is_disabled":false,"rental_uris":{"android":"levelo://app?vid=e5303607-da03-4ac7-b81e-b332ede84cf7","ios":"levelo://app?vid=e5303607-da03-4ac7-b81e-b332ede84cf7"},"vehicle_type_id":"4","last_reported":1758910360,"current_range_meters":9200,"station_id":"","pricing_plan_id":"cebpf4jnsgd1na2vs0mg"},{"bike_id":"4d6ea0b6-0720-4d91-a915-ec7400f36cb5","system_id":"levelo_inurba_marseille","lat":43.29567,"lon":5.39973,"is_reserved":false,"is_disabled":false,"rental_uris":{"android":"levelo://app?vid=4d6ea0b6-0720-4d91-a915-ec7400f36cb5","ios":"levelo://app?vid=4d6ea0b6-0720-4d91-a915-ec7400f36cb5"},"vehicle_type_id":"4","last_reported":1758910360,"current_range_meters":9600,"station_id":"ce4bh312rcd13ifvqdj0","pricing_plan_id":"cebpf4jnsgd1na2vs0mg"},{"bike_id":"22e1526a-5d94-480e-9eef-c281aa35345c","system_id":"levelo_inurba_marseille","lat":43.21214,"lon":5.35068,"is_reserved":false,"is_disabled":false,"rental_uris":{"android":"levelo://app?vid=22e1526a-5d94-480e-9eef-c281aa35345c","ios":"levelo://app?vid=22e1526a-5d94-480e-9eef-c281aa35345c"},"vehicle_type_id":"4","last_reported":1758910360,"current_range_meters":9600,"station_id":"st_cvj6sg6p6f1abm77japg","pricing_plan_id":"cebpf4jnsgd1na2vs0mg"},{"bike_id":"96d9d290-3482-406b-a187-2a8b12ccabb2","system_id":"levelo_inurba_marseille","lat":43.29016,"lon":5.37131,"is_reserved":false,"is_disabled":false,"rental_uris":{"android":"levelo://app?vid=96d9d290-3482-406b-a187-2a8b12ccabb2","ios":"levelo://app?vid=96d9d290-3482-406b-a187-2a8b12ccabb2"},"vehicle_type_id":"4","last_reported":1758910360,"current_range_meters":9600,"station_id":"","pricing_plan_id":"cebpf4jnsgd1na2vs0mg"},{"bike_id":"93c45366-c971-43fb-8538-8a09abd49d8b","system_id":"levelo_inurba_marseille","lat":43.29164,"lon":5.38481,"is_reserved":false,"is_disabled":false,"rental_uris":{"android":"levelo://app?vid=93c45366-c971-43fb-8538-8a09abd49d8b","ios":"levelo://app?vid=93c45366-c971-43fb-8538-8a09abd49d8b"},"vehicle_type_id":"4","last_reported":1758910360,"current_range_meters":9600,"station_id":"","pricing_plan_id":"cebpf4jnsgd1na2vs0mg"},{"bike_id":"2fc6ba20-f1fb-4e0c-939f-69e12e0647d5","system_id":"levelo_inurba_marseille","lat":43.23968,"lon":5.36629,"is_reserved":false,"is_disabled":false,"rental_uris":{"android":"levelo://app?vid=2fc6ba20-f1fb-4e0c-939f-69e12e0647d5","ios":"levelo://app?vid=2fc6ba20-f1fb-4e0c-939f-69e12e0647d5"},"vehicle_type_id":"4","last_reported":1758910360,"current_range_meters":9200,"station_id":"ce4bhi12rcd13ifvqfp0","pricing_plan_id":"cebpf4jnsgd1na2vs0mg"},{"bike_id":"041cd397-24ab-4e04-af23-07b961e161f4","system_id":"levelo_inurba_marseille","lat":43.337444,"lon":5.374475,"is_reserved":false,"is_disabled":false,"rental_uris":{"android":"levelo://app?vid=041cd397-24ab-4e04-af23-07b961e161f4","ios":"levelo://app?vid=041cd397-24ab-4e04-af23-07b961e161f4"},"vehicle_type_id":"4","last_reported":1758910360,"current_range_meters":9600,"station_id":"","pricing_plan_id":"cebpf4jnsgd1na2vs0mg"},{"bike_id":"befa9ab5-29e1-4cb2-a174-850126ef96f6","system_id":"levelo_inurba_marseille","lat":43.284761,"lon":5.38539,"is_reserved":false,"is_disabled":false,"rental_uris":{"android":"levelo://app?vid=befa9ab5-29e1-4cb2-a174-850126ef96f6","ios":"levelo://app?vid=befa9ab5-29e1-4cb2-a174-850126ef96f6"},"vehicle_type_id":"4","last_reported":1758910360,"current_range_meters":9600,"station_id":"ce4bh8p2rcd13ifvqeb0","pricing_plan_id":"cebpf4jnsgd1na2vs0mg"},{"bike_id":"06201641-b315-4a3f-bc35-9c05b9a6c17c","system_id":"levelo_inurba_marseille","lat":43.2886,"lon":5.42523,"is_reserved":false,"is_disabled":false,"rental_uris":{"android":"levelo://app?vid=06201641-b315-4a3f-bc35-9c05b9a6c17c","ios":"levelo://app?vid=06201641-b315-4a3f-bc35-9c05b9a6c17c"},"vehicle_type_id":"4","last_reported":1758910360,"current_range_meters":9600,"station_id":"st_d3b462108ojc7389ooeg","pricing_plan_id":"cebpf4jnsgd1na2vs0mg"},{"bike_id":"39bb99be-b25d-4119-b9e9-fa26430c15f1","system_id":"levelo_inurba_marseille","lat":43.2926,"lon":5.3843,"is_reserved":false,"is_disabled":false,"rental_uris":{"android":"levelo://app?vid=39bb99be-b25d-4119-b9e9-fa26430c15f1","ios":"levelo://app?vid=39bb99be-b25d-4119-b9e9-fa26430c15f1"},"vehicle_type_id":"4","last_reported":1758910360,"current_range_meters":10000,"station_id":"ce4bh692rcd13ifvqea0","pricing_plan_id":"cebpf4jnsgd1na2vs0mg"},{"bike_id":"c248d563-ef20-43ca-9ade-3af3fd90b48d","system_id":"levelo_inurba_marseille","lat":43.29263,"lon":5.3844,"is_reserved":false,"is_disabled":false,"rental_uris":{"android":"levelo://app?vid=c248d563-ef20-43ca-9ade-3af3fd90b48d","ios":"levelo://app?vid=c248d563-ef20-43ca-9ade-3af3fd90b48d"},"vehicle_type_id":"4","last_reported":1758910360,"current_range_meters":10000,"station_id":"ce4bh692rcd13ifvqea0","pricing_plan_id":"cebpf4jnsgd1na2vs0mg"},{"bike_id":"d85a21d7-1e65-4d76-b134-97a257d3c799","system_id":"levelo_inurba_marseille","lat":43.29091,"lon":5.3815,"is_reserved":false,"is_disabled":true,"rental_uris":{"android":"levelo://app?vid=d85a21d7-1e65-4d76-b134-97a257d3c799","ios":"levelo://app?vid=d85a21d7-1e65-4d76-b134-97a257d3c799"},"vehicle_type_id":"4","last_reported":1758910360,"current_range_meters":10000,"station_id":"ce4bh512rcd13ifvqe2g","pricing_plan_id":"cebpf4jnsgd1na2vs0mg"},{"bike_id":"217486d0-8957-4213-b9c9-a83698745957","system_id":"levelo_inurba_marseille","lat":43.28036,"lon":5.36948,"is_reserved":false,"is_disabled":false,"rental_uris":{"android":"levelo://app?vid=217486d0-8957-4213-b9c9-a83698745957","ios":"levelo://app?vid=217486d0-8957-4213-b9c9-a83698745957"},"vehicle_type_id":"4","last_reported":1758910360,"current_range_meters":10000,"station_id":"ce4bha12rcd13ifvqef0","pricing_plan_id":"cebpf4jnsgd1na2vs0mg"},{"bike_id":"9427ac0b-5b30-468a-98b3-4262939949a6","system_id":"levelo_inurba_marseille","lat":43.31336,"lon":5.39689,"is_reserved":false,"is_disabled":false,"rental_uris":{"android":"levelo://app?vid=9427ac0b-5b30-468a-98b3-4262939949a6","ios":"levelo://app?vid=9427ac0b-5b30-468a-98b3-4262939949a6"},"vehicle_type_id":"4","last_reported":1758910360,"current_range_meters":9600,"station_id":"ce4bgvp2rcd13ifvqcu0","pricing_plan_id":"cebpf4jnsgd1na2vs0mg"},{"bike_id":"66cd286d-b98b-431e-941d-783802a45c12","system_id":"levelo_inurba_marseille","lat":43.258138,"lon":5.394278,"is_reserved":false,"is_disabled":false,"rental_uris":{"android":"levelo://app?vid=66cd286d-b98b-431e-941d-783802a45c12","ios":"levelo://app?vid=66cd286d-b98b-431e-941d-783802a45c12"},"vehicle_type_id":"4","last_reported":1758910360,"current_range_meters":10000,"station_id":"ce4bhip2rcd13ifvqft0","pricing_plan_id":"cebpf4jnsgd1na2vs0mg"},{"bike_id":"39a994f2-64a4-471d-a6b5-569761725b21","system_id":"levelo_inurba_marseille","lat":43.2557,"lon":5.38249,"is_reserved":false,"is_disabled":false,"rental_uris":{"android":"levelo://app?vid=39a994f2-64a4-471d-a6b5-569761725b21","ios":"levelo://app?vid=39a994f2-64a4-471d-a6b5-569761725b21"},"vehicle_type_id":"4","last_reported":1758910360,"current_range_meters":10800,"station_id":"ce4bhih2rcd13ifvqfs0","pricing_plan_id":"cebpf4jnsgd1na2vs0mg"},{"bike_id":"e328dc8f-6aaa-4263-bda1-d50a4899743f","system_id":"levelo_inurba_marseille","lat":43.29044,"lon":5.39952,"is_reserved":false,"is_disabled":false,"rental_uris":{"android":"levelo://app?vid=e328dc8f-6aaa-4263-bda1-d50a4899743f","ios":"levelo://app?vid=e328dc8f-6aaa-4263-bda1-d50a4899743f"},"vehicle_type_id":"4","last_reported":1758910360,"current_range_meters":10800,"station_id":"ce4bh392rcd13ifvqdm0","pricing_plan_id":"cebpf4jnsgd1na2vs0mg"},{"bike_id":"75611fb7-df45-4d9f-9db0-a181136cc424","system_id":"levelo_inurba_marseille","lat":43.21735,"lon":5.34611,"is_reserved":false,"is_disabled":true,"rental_uris":{"android":"levelo://app?vid=75611fb7-df45-4d9f-9db0-a181136cc424","ios":"levelo://app?vid=75611fb7-df45-4d9f-9db0-a181136cc424"},"vehicle_type_id":"4","last_reported":1758910360,"current_range_meters":11200,"station_id":"st_cvj6r9ubvosntc0bgbag","pricing_plan_id":"cebpf4jnsgd1na2vs0mg"},{"bike_id":"b01b5bc6-6834-41fb-be97-f5b6fb7e9ec8","system_id":"levelo_inurba_marseille","lat":43.26309,"lon":5.39846,"is_reserved":false,"is_disabled":false,"rental_uris":{"android":"levelo://app?vid=b01b5bc6-6834-41fb-be97-f5b6fb7e9ec8","ios":"levelo://app?vid=b01b5bc6-6834-41fb-be97-f5b6fb7e9ec8"},"vehicle_type_id":"4","last_reported":1758910360,"current_range_meters":11200,"station_id":"","pricing_plan_id":"cebpf4jnsgd1na2vs0mg"},{"bike_id":"ce8b0db9-7d93-4e90-822d-829860500ddd","system_id":"levelo_inurba_marseille","lat":43.34141,"lon":5.40902,"is_reserved":false,"is_disabled":false,"rental_uris":{"android":"levelo://app?vid=ce8b0db9-7d93-4e90-822d-829860500ddd","ios":"levelo://app?vid=ce8b0db9-7d93-4e90-822d-829860500ddd"},"vehicle_type_id":"4","last_reported":1758910360,"current_range_meters":10800,"station_id":"ce4bhqh2rcd13ifvqhlg","pricing_plan_id":"cebpf4jnsgd1na2vs0mg"},{"bike_id":"fd7db3b2-bf6f-47a6-a193-d9e54fb8924d","system_id":"levelo_inurba_marseille","lat":43.32231,"lon":5.39479,"is_reserved":false,"is_disabled":false,"rental_uris":{"android":"levelo://app?vid=fd7db3b2-bf6f-47a6-a193-d9e54fb8924d","ios":"levelo://app?vid=fd7db3b2-bf6f-47a6-a193-d9e54fb8924d"},"vehicle_type_id":"4","last_reported":1758910360,"current_range_meters":11200,"station_id":"","pricing_plan_id":"cebpf4jnsgd1na2vs0mg"},{"bike_id":"8cb72824-4901-4844-ad3d-a03702ae15b2","system_id":"levelo_inurba_marseille","lat":43.27677,"lon":5.38863,"is_reserved":false,"is_disabled":false,"rental_uris":{"android":"levelo://app?vid=8cb72824-4901-4844-ad3d-a03702ae15b2","ios":"levelo://app?vid=8cb72824-4901-4844-ad3d-a03702ae15b2"},"vehicle_type_id":"4","last_reported":1758910360,"current_range_meters":11200,"station_id":"ce4bhi12rcd13ifvqfo0","pricing_plan_id":"cebpf4jnsgd1na2vs0mg"},{"bike_id":"8fb6b312-30ed-4765-90d6-32ed783bc889","system_id":"levelo_inurba_marseille","lat":43.29968,"lon":5.41344,"is_reserved":false,"is_disabled":true,"rental_uris":{"android":"levelo://app?vid=8fb6b312-30ed-4765-90d6-32ed783bc889","ios":"levelo://app?vid=8fb6b312-30ed-4765-90d6-32ed783bc889"},"vehicle_type_id":"4","last_reported":1758910360,"current_range_meters":11200,"station_id":"ce4bhp12rcd13ifvqh9g","pricing_plan_id":"cebpf4jnsgd1na2vs0mg"},{"bike_id":"a57b3feb-2354-42fe-87fd-e8fcee3a0260","system_id":"levelo_inurba_marseille","lat":43.26953,"lon":5.40241,"is_reserved":false,"is_disabled":false,"rental_uris":{"android":"levelo://app?vid=a57b3feb-2354-42fe-87fd-e8fcee3a0260","ios":"levelo://app?vid=a57b3feb-2354-42fe-87fd-e8fcee3a0260"},"vehicle_type_id":"4","last_reported":1758910360,"current_range_meters":11200,"station_id":"","pricing_plan_id":"cebpf4jnsgd1na2vs0mg"},{"bike_id":"d8033d9a-6866-416c-89fb-6946117610e7","system_id":"levelo_inurba_marseille","lat":43.30812,"lon":5.43528,"is_reserved":false,"is_disabled":false,"rental_uris":{"android":"levelo://app?vid=d8033d9a-6866-416c-89fb-6946117610e7","ios":"levelo://app?vid=d8033d9a-6866-416c-89fb-6946117610e7"},"vehicle_type_id":"4","last_reported":1758910360,"current_range_meters":11600,"station_id":"ce4bhph2rcd13ifvqheg","pricing_plan_id":"cebpf4jnsgd1na2vs0mg"},{"bike_id":"28727c53-ddb3-4650-b6fb-82974c672cf0","system_id":"levelo_inurba_marseille","lat":43.32658,"lon":5.40995,"is_reserved":false,"is_disabled":false,"rental_uris":{"android":"levelo://app?vid=28727c53-ddb3-4650-b6fb-82974c672cf0","ios":"levelo://app?vid=28727c53-ddb3-4650-b6fb-82974c672cf0"},"vehicle_type_id":"4","last_reported":1758910360,"current_range_meters":11600,"station_id":"ce4bhpp2rcd13ifvqhgg","pricing_plan_id":"cebpf4jnsgd1na2vs0mg"},{"bike_id":"ed9c1b6f-0cc7-47fb-a193-bb02351072ff","system_id":"levelo_inurba_marseille","lat":43.254958,"lon":5.376427,"is_reserved":false,"is_disabled":false,"rental_uris":{"android":"levelo://app?vid=ed9c1b6f-0cc7-47fb-a193-bb02351072ff","ios":"levelo://app?vid=ed9c1b6f-0cc7-47fb-a193-bb02351072ff"},"vehicle_type_id":"4","last_reported":1758910360,"current_range_meters":11600,"station_id":"","pricing_plan_id":"cebpf4jnsgd1na2vs0mg"},{"bike_id":"2907de3a-cdb7-4c49-945b-9d4546080cdd","system_id":"levelo_inurba_marseille","lat":43.29486,"lon":5.36235,"is_reserved":false,"is_disabled":false,"rental_uris":{"android":"levelo://app?vid=2907de3a-cdb7-4c49-945b-9d4546080cdd","ios":"levelo://app?vid=2907de3a-cdb7-4c49-945b-9d4546080cdd"},"vehicle_type_id":"4","last_reported":1758910360,"current_range_meters":11600,"station_id":"","pricing_plan_id":"cebpf4jnsgd1na2vs0mg"},{"bike_id":"79669a1b-f9c8-4963-81f0-156f8093e6fe","system_id":"levelo_inurba_marseille","lat":43.29294,"lon":5.3717,"is_reserved":false,"is_disabled":false,"rental_uris":{"android":"levelo://app?vid=79669a1b-f9c8-4963-81f0-156f8093e6fe","ios":"levelo://app?vid=79669a1b-f9c8-4963-81f0-156f8093e6fe"},"vehicle_type_id":"4","last_reported":1758910360,"current_range_meters":11600,"station_id":"ce4bgh92rcd13ifvqb40","pricing_plan_id":"cebpf4jnsgd1na2vs0mg"},{"bike_id":"c975862c-3721-4ac1-a6a4-5b86cf0364aa","system_id":"levelo_inurba_marseille","lat":43.21205,"lon":5.35078,"is_reserved":false,"is_disabled":false,"rental_uris":{"android":"levelo://app?vid=c975862c-3721-4ac1-a6a4-5b86cf0364aa","ios":"levelo://app?vid=c975862c-3721-4ac1-a6a4-5b86cf0364aa"},"vehicle_type_id":"4","last_reported":1758910360,"current_range_meters":11600,"station_id":"st_cvj6sg6p6f1abm77japg","pricing_plan_id":"cebpf4jnsgd1na2vs0mg"},{"bike_id":"a639c491-c436-478a-8d5d-bd2c30b918ff","system_id":"levelo_inurba_marseille","lat":43.29747,"lon":5.37241,"is_reserved":false,"is_disabled":false,"rental_uris":{"android":"levelo://app?vid=a639c491-c436-478a-8d5d-bd2c30b918ff","ios":"levelo://app?vid=a639c491-c436-478a-8d5d-bd2c30b918ff"},"vehicle_type_id":"4","last_reported":1758910360,"current_range_meters":11600,"station_id":"","pricing_plan_id":"cebpf4jnsgd1na2vs0mg"},{"bike_id":"8baeac13-7e80-456d-83aa-12e0372d0df5","system_id":"levelo_inurba_marseille","lat":43.32495,"lon":5.37548,"is_reserved":false,"is_disabled":false,"rental_uris":{"android":"levelo://app?vid=8baeac13-7e80-456d-83aa-12e0372d0df5","ios":"levelo://app?vid=8baeac13-7e80-456d-83aa-12e0372d0df5"},"vehicle_type_id":"4","last_reported":1758910360,"current_range_meters":11600,"station_id":"","pricing_plan_id":"cebpf4jnsgd1na2vs0mg"},{"bike_id":"2743c320-87b4-4b48-bca4-7ab0e4909280","system_id":"levelo_inurba_marseille","lat":43.29804,"lon":5.38095,"is_reserved":false,"is_disabled":false,"rental_uris":{"android":"levelo://app?vid=2743c320-87b4-4b48-bca4-7ab0e4909280","ios":"levelo://app?vid=2743c320-87b4-4b48-bca4-7ab0e4909280"},"vehicle_type_id":"4","last_reported":1758910360,"current_range_meters":12000,"station_id":"ce4bgip2rcd13ifvqbb0","pricing_plan_id":"cebpf4jnsgd1na2vs0mg"},{"bike_id":"8c60830f-aa05-4d5f-8a23-4e3e357c0fea","system_id":"levelo_inurba_marseille","lat":43.28275,"lon":5.35074,"is_reserved":false,"is_disabled":false,"rental_uris":{"android":"levelo://app?vid=8c60830f-aa05-4d5f-8a23-4e3e357c0fea","ios":"levelo://app?vid=8c60830f-aa05-4d5f-8a23-4e3e357c0fea"},"vehicle_type_id":"4","last_reported":1758910360,"current_range_meters":12000,"station_id":"ce4bhbp2rcd13ifvqerg","pricing_plan_id":"cebpf4jnsgd1na2vs0mg"},{"bike_id":"280349c2-7d75-4732-844a-272770d12d07","system_id":"levelo_inurba_marseille","lat":43.24959,"lon":5.405,"is_reserved":false,"is_disabled":false,"rental_uris":{"android":"levelo://app?vid=280349c2-7d75-4732-844a-272770d12d07","ios":"levelo://app?vid=280349c2-7d75-4732-844a-272770d12d07"},"vehicle_type_id":"4","last_reported":1758910360,"current_range_meters":12000,"station_id":"st_d2ngiaodas8pm72gd1h0","pricing_plan_id":"cebpf4jnsgd1na2vs0mg"},{"bike_id":"7266fb39-452a-4e7f-aafa-8725c9c5d955","system_id":"levelo_inurba_marseille","lat":43.27172,"lon":5.41001,"is_reserved":false,"is_disabled":false,"rental_uris":{"android":"levelo://app?vid=7266fb39-452a-4e7f-aafa-8725c9c5d955","ios":"levelo://app?vid=7266fb39-452a-4e7f-aafa-8725c9c5d955"},"vehicle_type_id":"4","last_reported":1758910360,"current_range_meters":12000,"station_id":"ce4bhl12rcd13ifvqgf0","pricing_plan_id":"cebpf4jnsgd1na2vs0mg"},{"bike_id":"3f51e03c-3abb-4dde-8cdd-da596aa3252f","system_id":"levelo_inurba_marseille","lat":43.27672,"lon":5.38893,"is_reserved":false,"is_disabled":true,"rental_uris":{"android":"levelo://app?vid=3f51e03c-3abb-4dde-8cdd-da596aa3252f","ios":"levelo://app?vid=3f51e03c-3abb-4dde-8cdd-da596aa3252f"},"vehicle_type_id":"4","last_reported":1758910360,"current_range_meters":12000,"station_id":"ce4bhi12rcd13ifvqfo0","pricing_plan_id":"cebpf4jnsgd1na2vs0mg"},{"bike_id":"f8128348-f3bf-41cc-8b6e-a6df8137ba43","system_id":"levelo_inurba_marseille","lat":43.29265,"lon":5.38443,"is_reserved":false,"is_disabled":false,"rental_uris":{"android":"levelo://app?vid=f8128348-f3bf-41cc-8b6e-a6df8137ba43","ios":"levelo://app?vid=f8128348-f3bf-41cc-8b6e-a6df8137ba43"},"vehicle_type_id":"4","last_reported":1758910360,"current_range_meters":12000,"station_id":"ce4bh692rcd13ifvqea0","pricing_plan_id":"cebpf4jnsgd1na2vs0mg"},{"bike_id":"e7f99e94-8bc7-4c99-8c26-b872b8ace1af","system_id":"levelo_inurba_marseille","lat":43.30819,"lon":5.43525,"is_reserved":false,"is_disabled":false,"rental_uris":{"android":"levelo://app?vid=e7f99e94-8bc7-4c99-8c26-b872b8ace1af","ios":"levelo://app?vid=e7f99e94-8bc7-4c99-8c26-b872b8ace1af"},"vehicle_type_id":"4","last_reported":1758910360,"current_range_meters":12000,"station_id":"ce4bhph2rcd13ifvqheg","pricing_plan_id":"cebpf4jnsgd1na2vs0mg"},{"bike_id":"04e1f2fc-a999-4e5d-b642-eb389a3f0235","system_id":"levelo_inurba_marseille","lat":43.30534,"lon":5.3655,"is_reserved":false,"is_disabled":true,"rental_uris":{"android":"levelo://app?vid=04e1f2fc-a999-4e5d-b642-eb389a3f0235","ios":"levelo://app?vid=04e1f2fc-a999-4e5d-b642-eb389a3f0235"},"vehicle_type_id":"4","last_reported":1758910360,"current_range_meters":12000,"station_id":"ce4bgs12rcd13ifvqcag","pricing_plan_id":"cebpf4jnsgd1na2vs0mg"},{"bike_id":"492ad12c-b243-47af-8b99-b8dc1dc5237a","system_id":"levelo_inurba_marseille","lat":43.22923,"lon":5.35406,"is_reserved":false,"is_disabled":false,"rental_uris":{"android":"levelo://app?vid=492ad12c-b243-47af-8b99-b8dc1dc5237a","ios":"levelo://app?vid=492ad12c-b243-47af-8b99-b8dc1dc5237a"},"vehicle_type_id":"4","last_reported":1758910360,"current_range_meters":12000,"station_id":"cpo3532slgdg3j2ikp40","pricing_plan_id":"cebpf4jnsgd1na2vs0mg"},{"bike_id":"1a1b29a0-ae13-479c-a792-dcd3da995b15","system_id":"levelo_inurba_marseille","lat":43.29773,"lon":5.37105,"is_reserved":false,"is_disabled":false,"rental_uris":{"android":"levelo://app?vid=1a1b29a0-ae13-479c-a792-dcd3da995b15","ios":"levelo://app?vid=1a1b29a0-ae13-479c-a792-dcd3da995b15"},"vehicle_type_id":"4","last_reported":1758910360,"current_range_meters":12000,"station_id":"ce4bgop2rcd13ifvqc1g","pricing_plan_id":"cebpf4jnsgd1na2vs0mg"},{"bike_id":"6bcdfc7c-350c-4674-9ede-2928d75a3a1a","system_id":"levelo_inurba_marseille","lat":43.25331,"lon":5.42171,"is_reserved":false,"is_disabled":false,"rental_uris":{"android":"levelo://app?vid=6bcdfc7c-350c-4674-9ede-2928d75a3a1a","ios":"levelo://app?vid=6bcdfc7c-350c-4674-9ede-2928d75a3a1a"},"vehicle_type_id":"4","last_reported":1758910360,"current_range_meters":12000,"station_id":"st_d2m65c5bi1j21697t3ng","pricing_plan_id":"cebpf4jnsgd1na2vs0mg"},{"bike_id":"df649d25-1f44-4471-8cdd-9566da8ef9b9","system_id":"levelo_inurba_marseille","lat":43.32296,"lon":5.39238,"is_reserved":false,"is_disabled":false,"rental_uris":{"android":"levelo://app?vid=df649d25-1f44-4471-8cdd-9566da8ef9b9","ios":"levelo://app?vid=df649d25-1f44-4471-8cdd-9566da8ef9b9"},"vehicle_type_id":"4","last_reported":1758910360,"current_range_meters":12400,"station_id":"","pricing_plan_id":"cebpf4jnsgd1na2vs0mg"},{"bike_id":"22baad07-eaf3-43fa-b0e8-56b1d925e452","system_id":"levelo_inurba_marseille","lat":43.25867,"lon":5.39899,"is_reserved":false,"is_disabled":false,"rental_uris":{"android":"levelo://app?vid=22baad07-eaf3-43fa-b0e8-56b1d925e452","ios":"levelo://app?vid=22baad07-eaf3-43fa-b0e8-56b1d925e452"},"vehicle_type_id":"4","last_reported":1758910360,"current_range_meters":12400,"station_id":"ce4bhl92rcd13ifvqghg","pricing_plan_id":"cebpf4jnsgd1na2vs0mg"},{"bike_id":"5759ec50-17e9-4130-873f-ac3bbca34362","system_id":"levelo_inurba_marseille","lat":43.30957,"lon":5.39042,"is_reserved":false,"is_disabled":false,"rental_uris":{"android":"levelo://app?vid=5759ec50-17e9-4130-873f-ac3bbca34362","ios":"levelo://app?vid=5759ec50-17e9-4130-873f-ac3bbca34362"},"vehicle_type_id":"4","last_reported":1758910360,"current_range_meters":12000,"station_id":"ce4bgup2rcd13ifvqco0","pricing_plan_id":"cebpf4jnsgd1na2vs0mg"},{"bike_id":"b2f59954-636f-4a13-a4f9-21bcc2f0cd9f","system_id":"levelo_inurba_marseille","lat":43.30613,"lon":5.39315,"is_reserved":false,"is_disabled":false,"rental_uris":{"android":"levelo://app?vid=b2f59954-636f-4a13-a4f9-21bcc2f0cd9f","ios":"levelo://app?vid=b2f59954-636f-4a13-a4f9-21bcc2f0cd9f"},"vehicle_type_id":"4","last_reported":1758910360,"current_range_meters":12400,"station_id":"ce4bh0p2rcd13ifvqd80","pricing_plan_id":"cebpf4jnsgd1na2vs0mg"},{"bike_id":"f5eb5fac-36cc-401f-ae2d-ac5e41206691","system_id":"levelo_inurba_marseille","lat":43.25335,"lon":5.42173,"is_reserved":false,"is_disabled":false,"rental_uris":{"android":"levelo://app?vid=f5eb5fac-36cc-401f-ae2d-ac5e41206691","ios":"levelo://app?vid=f5eb5fac-36cc-401f-ae2d-ac5e41206691"},"vehicle_type_id":"4","last_reported":1758910360,"current_range_meters":12400,"station_id":"st_d2m65c5bi1j21697t3ng","pricing_plan_id":"cebpf4jnsgd1na2vs0mg"},{"bike_id":"d01cc982-8a30-4c10-9a03-7844fdd6b1ef","system_id":"levelo_inurba_marseille","lat":43.27965,"lon":5.38691,"is_reserved":false,"is_disabled":false,"rental_uris":{"android":"levelo://app?vid=d01cc982-8a30-4c10-9a03-7844fdd6b1ef","ios":"levelo://app?vid=d01cc982-8a30-4c10-9a03-7844fdd6b1ef"},"vehicle_type_id":"4","last_reported":1758910360,"current_range_meters":12400,"station_id":"ce4bhg12rcd13ifvqf80","pricing_plan_id":"cebpf4jnsgd1na2vs0mg"},{"bike_id":"ca7849f4-d722-49c8-ba75-9d23fe49404b","system_id":"levelo_inurba_marseille","lat":43.29268,"lon":5.38461,"is_reserved":false,"is_disabled":false,"rental_uris":{"android":"levelo://app?vid=ca7849f4-d722-49c8-ba75-9d23fe49404b","ios":"levelo://app?vid=ca7849f4-d722-49c8-ba75-9d23fe49404b"},"vehicle_type_id":"4","last_reported":1758910360,"current_range_meters":12400,"station_id":"ce4bh692rcd13ifvqea0","pricing_plan_id":"cebpf4jnsgd1na2vs0mg"},{"bike_id":"e1e1a7ed-1d45-4a81-ac6e-29e8eb1df96d","system_id":"levelo_inurba_marseille","lat":43.25501,"lon":5.37663,"is_reserved":false,"is_disabled":false,"rental_uris":{"android":"levelo://app?vid=e1e1a7ed-1d45-4a81-ac6e-29e8eb1df96d","ios":"levelo://app?vid=e1e1a7ed-1d45-4a81-ac6e-29e8eb1df96d"},"vehicle_type_id":"4","last_reported":1758910360,"current_range_meters":12000,"station_id":"ce4bhh12rcd13ifvqff0","pricing_plan_id":"cebpf4jnsgd1na2vs0mg"},{"bike_id":"dfdbe69a-2532-4409-9fc0-ce7e4609c06c","system_id":"levelo_inurba_marseille","lat":43.29704,"lon":5.37702,"is_reserved":false,"is_disabled":false,"rental_uris":{"android":"levelo://app?vid=dfdbe69a-2532-4409-9fc0-ce7e4609c06c","ios":"levelo://app?vid=dfdbe69a-2532-4409-9fc0-ce7e4609c06c"},"vehicle_type_id":"4","last_reported":1758910360,"current_range_meters":12000,"station_id":"ce4bgkh2rcd13ifvqbl0","pricing_plan_id":"cebpf4jnsgd1na2vs0mg"},{"bike_id":"fd18a301-a9dd-4600-afce-c6b935fa8b40","system_id":"levelo_inurba_marseille","lat":43.261832,"lon":5.37449,"is_reserved":false,"is_disabled":false,"rental_uris":{"android":"levelo://app?vid=fd18a301-a9dd-4600-afce-c6b935fa8b40","ios":"levelo://app?vid=fd18a301-a9dd-4600-afce-c6b935fa8b40"},"vehicle_type_id":"4","last_reported":1758910360,"current_range_meters":12800,"station_id":"ce4bhgp2rcd13ifvqfc0","pricing_plan_id":"cebpf4jnsgd1na2vs0mg"},{"bike_id":"08292ac0-f4a0-4778-9703-5ac015ee1e3a","system_id":"levelo_inurba_marseille","lat":43.24627,"lon":5.43153,"is_reserved":false,"is_disabled":false,"rental_uris":{"android":"levelo://app?vid=08292ac0-f4a0-4778-9703-5ac015ee1e3a","ios":"levelo://app?vid=08292ac0-f4a0-4778-9703-5ac015ee1e3a"},"vehicle_type_id":"4","last_reported":1758910360,"current_range_meters":12800,"station_id":"st_d2m6c4gdas8pm72e190g","pricing_plan_id":"cebpf4jnsgd1na2vs0mg"},{"bike_id":"c9028431-429b-4400-8ae1-9a4c57ba0667","system_id":"levelo_inurba_marseille","lat":43.34144,"lon":5.40909,"is_reserved":false,"is_disabled":false,"rental_uris":{"android":"levelo://app?vid=c9028431-429b-4400-8ae1-9a4c57ba0667","ios":"levelo://app?vid=c9028431-429b-4400-8ae1-9a4c57ba0667"},"vehicle_type_id":"4","last_reported":1758910360,"current_range_meters":12400,"station_id":"ce4bhqh2rcd13ifvqhlg","pricing_plan_id":"cebpf4jnsgd1na2vs0mg"},{"bike_id":"f59933d2-584b-4d31-b540-f48162f472e1","system_id":"levelo_inurba_marseille","lat":43.28594,"lon":5.35109,"is_reserved":false,"is_disabled":false,"rental_uris":{"android":"levelo://app?vid=f59933d2-584b-4d31-b540-f48162f472e1","ios":"levelo://app?vid=f59933d2-584b-4d31-b540-f48162f472e1"},"vehicle_type_id":"4","last_reported":1758910360,"current_range_meters":12800,"station_id":"ce4bhch2rcd13ifvqeug","pricing_plan_id":"cebpf4jnsgd1na2vs0mg"},{"bike_id":"a756c2c2-c17a-4246-923c-320e7b941e72","system_id":"levelo_inurba_marseille","lat":43.2959,"lon":5.37479,"is_reserved":false,"is_disabled":false,"rental_uris":{"android":"levelo://app?vid=a756c2c2-c17a-4246-923c-320e7b941e72","ios":"levelo://app?vid=a756c2c2-c17a-4246-923c-320e7b941e72"},"vehicle_type_id":"4","last_reported":1758910360,"current_range_meters":12800,"station_id":"ce4bgh92rcd13ifvqb50","pricing_plan_id":"cebpf4jnsgd1na2vs0mg"},{"bike_id":"9a4f92ed-e086-4038-a651-bbe0613f80bd","system_id":"levelo_inurba_marseille","lat":43.22563,"lon":5.41634,"is_reserved":false,"is_disabled":false,"rental_uris":{"android":"levelo://app?vid=9a4f92ed-e086-4038-a651-bbe0613f80bd","ios":"levelo://app?vid=9a4f92ed-e086-4038-a651-bbe0613f80bd"},"vehicle_type_id":"4","last_reported":1758910360,"current_range_meters":12800,"station_id":"st_d2o4gvlbi1j2169b742g","pricing_plan_id":"cebpf4jnsgd1na2vs0mg"},{"bike_id":"d529b113-1651-4f22-babf-ffd706769776","system_id":"levelo_inurba_marseille","lat":43.25822,"lon":5.39441,"is_reserved":false,"is_disabled":false,"rental_uris":{"android":"levelo://app?vid=d529b113-1651-4f22-babf-ffd706769776","ios":"levelo://app?vid=d529b113-1651-4f22-babf-ffd706769776"},"vehicle_type_id":"4","last_reported":1758910360,"current_range_meters":12400,"station_id":"ce4bhip2rcd13ifvqft0","pricing_plan_id":"cebpf4jnsgd1na2vs0mg"},{"bike_id":"08fe2b08-b3fa-43f8-ae73-04061f76318d","system_id":"levelo_inurba_marseille","lat":43.305552,"lon":5.365395,"is_reserved":false,"is_disabled":false,"rental_uris":{"android":"levelo://app?vid=08fe2b08-b3fa-43f8-ae73-04061f76318d","ios":"levelo://app?vid=08fe2b08-b3fa-43f8-ae73-04061f76318d"},"vehicle_type_id":"4","last_reported":1758910360,"current_range_meters":12800,"station_id":"","pricing_plan_id":"cebpf4jnsgd1na2vs0mg"},{"bike_id":"10b8d871-07e9-4114-9eb9-6bcce40e7beb","system_id":"levelo_inurba_marseille","lat":43.27045,"lon":5.392226,"is_reserved":false,"is_disabled":false,"rental_uris":{"android":"levelo://app?vid=10b8d871-07e9-4114-9eb9-6bcce40e7beb","ios":"levelo://app?vid=10b8d871-07e9-4114-9eb9-6bcce40e7beb"},"vehicle_type_id":"4","last_reported":1758910360,"current_range_meters":12800,"station_id":"ce4bhe12rcd13ifvqf30","pricing_plan_id":"cebpf4jnsgd1na2vs0mg"},{"bike_id":"8af06d23-cfa2-4988-bb89-5d4a532d4033","system_id":"levelo_inurba_marseille","lat":43.25504,"lon":5.37659,"is_reserved":false,"is_disabled":false,"rental_uris":{"android":"levelo://app?vid=8af06d23-cfa2-4988-bb89-5d4a532d4033","ios":"levelo://app?vid=8af06d23-cfa2-4988-bb89-5d4a532d4033"},"vehicle_type_id":"4","last_reported":1758910360,"current_range_meters":13600,"station_id":"ce4bhh12rcd13ifvqff0","pricing_plan_id":"cebpf4jnsgd1na2vs0mg"},{"bike_id":"e4978689-3c25-4e38-8fec-72c986116c0a","system_id":"levelo_inurba_marseille","lat":43.29786,"lon":5.37085,"is_reserved":false,"is_disabled":false,"rental_uris":{"android":"levelo://app?vid=e4978689-3c25-4e38-8fec-72c986116c0a","ios":"levelo://app?vid=e4978689-3c25-4e38-8fec-72c986116c0a"},"vehicle_type_id":"4","last_reported":1758910360,"current_range_meters":13600,"station_id":"ce4bgop2rcd13ifvqc1g","pricing_plan_id":"cebpf4jnsgd1na2vs0mg"},{"bike_id":"57dc4d48-a588-470d-9e76-731f989cf022","system_id":"levelo_inurba_marseille","lat":43.27178,"lon":5.40993,"is_reserved":false,"is_disabled":false,"rental_uris":{"android":"levelo://app?vid=57dc4d48-a588-470d-9e76-731f989cf022","ios":"levelo://app?vid=57dc4d48-a588-470d-9e76-731f989cf022"},"vehicle_type_id":"4","last_reported":1758910360,"current_range_meters":13600,"station_id":"ce4bhl12rcd13ifvqgf0","pricing_plan_id":"cebpf4jnsgd1na2vs0mg"},{"bike_id":"4407f0c7-f8f2-44c4-b16c-74d5984e3278","system_id":"levelo_inurba_marseille","lat":43.25581,"lon":5.38247,"is_reserved":false,"is_disabled":true,"rental_uris":{"android":"levelo://app?vid=4407f0c7-f8f2-44c4-b16c-74d5984e3278","ios":"levelo://app?vid=4407f0c7-f8f2-44c4-b16c-74d5984e3278"},"vehicle_type_id":"4","last_reported":1758910360,"current_range_meters":13600,"station_id":"ce4bhih2rcd13ifvqfs0","pricing_plan_id":"cebpf4jnsgd1na2vs0mg"},{"bike_id":"fee74e98-eb52-4f66-a612-109c75f34aa6","system_id":"levelo_inurba_marseille","lat":43.29573,"lon":5.37969,"is_reserved":false,"is_disabled":false,"rental_uris":{"android":"levelo://app?vid=fee74e98-eb52-4f66-a612-109c75f34aa6","ios":"levelo://app?vid=fee74e98-eb52-4f66-a612-109c75f34aa6"},"vehicle_type_id":"4","last_reported":1758910360,"current_range_meters":13600,"station_id":"","pricing_plan_id":"cebpf4jnsgd1na2vs0mg"},{"bike_id":"41eab710-4751-400a-8795-176d4cae6b75","system_id":"levelo_inurba_marseille","lat":43.311709,"lon":5.387313,"is_reserved":false,"is_disabled":false,"rental_uris":{"android":"levelo://app?vid=41eab710-4751-400a-8795-176d4cae6b75","ios":"levelo://app?vid=41eab710-4751-400a-8795-176d4cae6b75"},"vehicle_type_id":"4","last_reported":1758910360,"current_range_meters":13600,"station_id":"ce4bgv12rcd13ifvqcp0","pricing_plan_id":"cebpf4jnsgd1na2vs0mg"},{"bike_id":"45e07bae-690f-4ff3-a8bd-511d32841972","system_id":"levelo_inurba_marseille","lat":43.24787,"lon":5.40146,"is_reserved":false,"is_disabled":false,"rental_uris":{"android":"levelo://app?vid=45e07bae-690f-4ff3-a8bd-511d32841972","ios":"levelo://app?vid=45e07bae-690f-4ff3-a8bd-511d32841972"},"vehicle_type_id":"4","last_reported":1758910360,"current_range_meters":14000,"station_id":"","pricing_plan_id":"cebpf4jnsgd1na2vs0mg"},{"bike_id":"1d55699a-f088-4f86-b137-c8c42b90ebf3","system_id":"levelo_inurba_marseille","lat":43.280099,"lon":5.400378,"is_reserved":false,"is_disabled":false,"rental_uris":{"android":"levelo://app?vid=1d55699a-f088-4f86-b137-c8c42b90ebf3","ios":"levelo://app?vid=1d55699a-f088-4f86-b137-c8c42b90ebf3"},"vehicle_type_id":"4","last_reported":1758910360,"current_range_meters":12800,"station_id":"ce4bho92rcd13ifvqh4g","pricing_plan_id":"cebpf4jnsgd1na2vs0mg"},{"bike_id":"0b01e881-a275-45eb-a15a-645add1561c8","system_id":"levelo_inurba_marseille","lat":43.28615,"lon":5.35105,"is_reserved":false,"is_disabled":false,"rental_uris":{"android":"levelo://app?vid=0b01e881-a275-45eb-a15a-645add1561c8","ios":"levelo://app?vid=0b01e881-a275-45eb-a15a-645add1561c8"},"vehicle_type_id":"4","last_reported":1758910360,"current_range_meters":14000,"station_id":"ce4bhch2rcd13ifvqeug","pricing_plan_id":"cebpf4jnsgd1na2vs0mg"},{"bike_id":"de3747e9-e37c-4cdb-ad1a-9f67e8a91990","system_id":"levelo_inurba_marseille","lat":43.23197,"lon":5.39988,"is_reserved":false,"is_disabled":false,"rental_uris":{"android":"levelo://app?vid=de3747e9-e37c-4cdb-ad1a-9f67e8a91990","ios":"levelo://app?vid=de3747e9-e37c-4cdb-ad1a-9f67e8a91990"},"vehicle_type_id":"4","last_reported":1758910360,"current_range_meters":14000,"station_id":"ce4bhn12rcd13ifvqgqg","pricing_plan_id":"cebpf4jnsgd1na2vs0mg"},{"bike_id":"f626f457-0696-4e32-af9e-687030f53c6d","system_id":"levelo_inurba_marseille","lat":43.33771,"lon":5.37481,"is_reserved":false,"is_disabled":false,"rental_uris":{"android":"levelo://app?vid=f626f457-0696-4e32-af9e-687030f53c6d","ios":"levelo://app?vid=f626f457-0696-4e32-af9e-687030f53c6d"},"vehicle_type_id":"4","last_reported":1758910360,"current_range_meters":14000,"station_id":"","pricing_plan_id":"cebpf4jnsgd1na2vs0mg"},{"bike_id":"0b2fda4e-ac18-414b-8b05-54fcdd4fc421","system_id":"levelo_inurba_marseille","lat":43.32282,"lon":5.3826,"is_reserved":false,"is_disabled":false,"rental_uris":{"android":"levelo://app?vid=0b2fda4e-ac18-414b-8b05-54fcdd4fc421","ios":"levelo://app?vid=0b2fda4e-ac18-414b-8b05-54fcdd4fc421"},"vehicle_type_id":"4","last_reported":1758910360,"current_range_meters":14000,"station_id":"ce4bhr12rcd13ifvqhqg","pricing_plan_id":"cebpf4jnsgd1na2vs0mg"},{"bike_id":"be2872ef-f5d9-4685-b95d-fb503bad1acd","system_id":"levelo_inurba_marseille","lat":43.30144,"lon":5.38096,"is_reserved":false,"is_disabled":true,"rental_uris":{"android":"levelo://app?vid=be2872ef-f5d9-4685-b95d-fb503bad1acd","ios":"levelo://app?vid=be2872ef-f5d9-4685-b95d-fb503bad1acd"},"vehicle_type_id":"4","last_reported":1758910360,"current_range_meters":14000,"station_id":"ce4bgjp2rcd13ifvqbh0","pricing_plan_id":"cebpf4jnsgd1na2vs0mg"},{"bike_id":"35123bef-c3d7-40fe-9ac6-a43d867d5b89","system_id":"levelo_inurba_marseille","lat":43.2798,"lon":5.36993,"is_reserved":false,"is_disabled":false,"rental_uris":{"android":"levelo://app?vid=35123bef-c3d7-40fe-9ac6-a43d867d5b89","ios":"levelo://app?vid=35123bef-c3d7-40fe-9ac6-a43d867d5b89"},"vehicle_type_id":"4","last_reported":1758910360,"current_range_meters":14000,"station_id":"ce4bha12rcd13ifvqef0","pricing_plan_id":"cebpf4jnsgd1na2vs0mg"},{"bike_id":"7c9210b1-c35b-4d98-8ef3-df459b3d3721","system_id":"levelo_inurba_marseille","lat":43.28725,"lon":5.37942,"is_reserved":false,"is_disabled":false,"rental_uris":{"android":"levelo://app?vid=7c9210b1-c35b-4d98-8ef3-df459b3d3721","ios":"levelo://app?vid=7c9210b1-c35b-4d98-8ef3-df459b3d3721"},"vehicle_type_id":"4","last_reported":1758910360,"current_range_meters":14400,"station_id":"ce4bh9p2rcd13ifvqec0","pricing_plan_id":"cebpf4jnsgd1na2vs0mg"},{"bike_id":"9a223f43-c7a2-409e-95d3-e87869bc9d8a","system_id":"levelo_inurba_marseille","lat":43.29079,"lon":5.38155,"is_reserved":false,"is_disabled":false,"rental_uris":{"android":"levelo://app?vid=9a223f43-c7a2-409e-95d3-e87869bc9d8a","ios":"levelo://app?vid=9a223f43-c7a2-409e-95d3-e87869bc9d8a"},"vehicle_type_id":"4","last_reported":1758910360,"current_range_meters":14000,"station_id":"ce4bh512rcd13ifvqe2g","pricing_plan_id":"cebpf4jnsgd1na2vs0mg"},{"bike_id":"b852d494-e01a-4134-bfc9-6203c4fb68dd","system_id":"levelo_inurba_marseille","lat":43.29068,"lon":5.37163,"is_reserved":false,"is_disabled":false,"rental_uris":{"android":"levelo://app?vid=b852d494-e01a-4134-bfc9-6203c4fb68dd","ios":"levelo://app?vid=b852d494-e01a-4134-bfc9-6203c4fb68dd"},"vehicle_type_id":"4","last_reported":1758910360,"current_range_meters":14400,"station_id":"ce4bh5p2rcd13ifvqe4g","pricing_plan_id":"cebpf4jnsgd1na2vs0mg"},{"bike_id":"2a416e7a-1803-402e-9523-74bfe690bd54","system_id":"levelo_inurba_marseille","lat":43.32365,"lon":5.36767,"is_reserved":false,"is_disabled":false,"rental_uris":{"android":"levelo://app?vid=2a416e7a-1803-402e-9523-74bfe690bd54","ios":"levelo://app?vid=2a416e7a-1803-402e-9523-74bfe690bd54"},"vehicle_type_id":"4","last_reported":1758910360,"current_range_meters":14400,"station_id":"ce4bhsh2rcd13ifvqi2g","pricing_plan_id":"cebpf4jnsgd1na2vs0mg"},{"bike_id":"307a29c1-1714-4985-a01c-d669c20e3ea9","system_id":"levelo_inurba_marseille","lat":43.24814,"lon":5.37459,"is_reserved":false,"is_disabled":false,"rental_uris":{"android":"levelo://app?vid=307a29c1-1714-4985-a01c-d669c20e3ea9","ios":"levelo://app?vid=307a29c1-1714-4985-a01c-d669c20e3ea9"},"vehicle_type_id":"4","last_reported":1758910360,"current_range_meters":14800,"station_id":"ce4bhgh2rcd13ifvqfb0","pricing_plan_id":"cebpf4jnsgd1na2vs0mg"},{"bike_id":"8cf842e4-76c1-4a82-ad31-66529da65dba","system_id":"levelo_inurba_marseille","lat":43.26683,"lon":5.40203,"is_reserved":false,"is_disabled":false,"rental_uris":{"android":"levelo://app?vid=8cf842e4-76c1-4a82-ad31-66529da65dba","ios":"levelo://app?vid=8cf842e4-76c1-4a82-ad31-66529da65dba"},"vehicle_type_id":"4","last_reported":1758910360,"current_range_meters":14800,"station_id":"","pricing_plan_id":"cebpf4jnsgd1na2vs0mg"},{"bike_id":"cbfe1fb5-0a11-4506-9047-51c81b65d782","system_id":"levelo_inurba_marseille","lat":43.295313,"lon":5.385389,"is_reserved":false,"is_disabled":false,"rental_uris":{"android":"levelo://app?vid=cbfe1fb5-0a11-4506-9047-51c81b65d782","ios":"levelo://app?vid=cbfe1fb5-0a11-4506-9047-51c81b65d782"},"vehicle_type_id":"4","last_reported":1758910360,"current_range_meters":14800,"station_id":"ce4bgih2rcd13ifvqba0","pricing_plan_id":"cebpf4jnsgd1na2vs0mg"},{"bike_id":"3652de56-c611-41c6-aa03-7fef6136da9d","system_id":"levelo_inurba_marseille","lat":43.2498,"lon":5.3894,"is_reserved":false,"is_disabled":false,"rental_uris":{"android":"levelo://app?vid=3652de56-c611-41c6-aa03-7fef6136da9d","ios":"levelo://app?vid=3652de56-c611-41c6-aa03-7fef6136da9d"},"vehicle_type_id":"4","last_reported":1758910360,"current_range_meters":14800,"station_id":"ce4bhgp2rcd13ifvqfd0","pricing_plan_id":"cebpf4jnsgd1na2vs0mg"},{"bike_id":"70b7ea01-eb7d-4ad4-9d7b-08819c9c9cd3","system_id":"levelo_inurba_marseille","lat":43.25566,"lon":5.38253,"is_reserved":false,"is_disabled":true,"rental_uris":{"android":"levelo://app?vid=70b7ea01-eb7d-4ad4-9d7b-08819c9c9cd3","ios":"levelo://app?vid=70b7ea01-eb7d-4ad4-9d7b-08819c9c9cd3"},"vehicle_type_id":"4","last_reported":1758910360,"current_range_meters":14800,"station_id":"ce4bhih2rcd13ifvqfs0","pricing_plan_id":"cebpf4jnsgd1na2vs0mg"},{"bike_id":"15b8abb9-1b82-439d-bef4-2444276aa7c3","system_id":"levelo_inurba_marseille","lat":43.3108,"lon":5.38338,"is_reserved":false,"is_disabled":true,"rental_uris":{"android":"levelo://app?vid=15b8abb9-1b82-439d-bef4-2444276aa7c3","ios":"levelo://app?vid=15b8abb9-1b82-439d-bef4-2444276aa7c3"},"vehicle_type_id":"4","last_reported":1758910360,"current_range_meters":14800,"station_id":"ce4bgv92rcd13ifvqcr0","pricing_plan_id":"cebpf4jnsgd1na2vs0mg"},{"bike_id":"63d52c35-c9c9-44eb-9780-1b2f9145123b","system_id":"levelo_inurba_marseille","lat":43.29627,"lon":5.377037,"is_reserved":false,"is_disabled":false,"rental_uris":{"android":"levelo://app?vid=63d52c35-c9c9-44eb-9780-1b2f9145123b","ios":"levelo://app?vid=63d52c35-c9c9-44eb-9780-1b2f9145123b"},"vehicle_type_id":"4","last_reported":1758910360,"current_range_meters":14800,"station_id":"","pricing_plan_id":"cebpf4jnsgd1na2vs0mg"},{"bike_id":"85782661-163d-4a8b-b5a4-1f0a766faaa2","system_id":"levelo_inurba_marseille","lat":43.24626,"lon":5.43151,"is_reserved":false,"is_disabled":false,"rental_uris":{"android":"levelo://app?vid=85782661-163d-4a8b-b5a4-1f0a766faaa2","ios":"levelo://app?vid=85782661-163d-4a8b-b5a4-1f0a766faaa2"},"vehicle_type_id":"4","last_reported":1758910360,"current_range_meters":14800,"station_id":"st_d2m6c4gdas8pm72e190g","pricing_plan_id":"cebpf4jnsgd1na2vs0mg"},{"bike_id":"2b4c6cfb-f077-466c-8802-0d0dabbed2d5","system_id":"levelo_inurba_marseille","lat":43.30783,"lon":5.37656,"is_reserved":false,"is_disabled":false,"rental_uris":{"android":"levelo://app?vid=2b4c6cfb-f077-466c-8802-0d0dabbed2d5","ios":"levelo://app?vid=2b4c6cfb-f077-466c-8802-0d0dabbed2d5"},"vehicle_type_id":"4","last_reported":1758910360,"current_range_meters":14800,"station_id":"ce4bgv92rcd13ifvqcq0","pricing_plan_id":"cebpf4jnsgd1na2vs0mg"},{"bike_id":"59e3d1c4-6170-422b-9073-645d9dce4d1e","system_id":"levelo_inurba_marseille","lat":43.29262,"lon":5.38441,"is_reserved":false,"is_disabled":false,"rental_uris":{"android":"levelo://app?vid=59e3d1c4-6170-422b-9073-645d9dce4d1e","ios":"levelo://app?vid=59e3d1c4-6170-422b-9073-645d9dce4d1e"},"vehicle_type_id":"4","last_reported":1758910360,"current_range_meters":14800,"station_id":"ce4bh692rcd13ifvqea0","pricing_plan_id":"cebpf4jnsgd1na2vs0mg"},{"bike_id":"9bb4db31-0bf9-4171-bca1-76cb045f53a3","system_id":"levelo_inurba_marseille","lat":43.26924,"lon":5.389081,"is_reserved":false,"is_disabled":true,"rental_uris":{"android":"levelo://app?vid=9bb4db31-0bf9-4171-bca1-76cb045f53a3","ios":"levelo://app?vid=9bb4db31-0bf9-4171-bca1-76cb045f53a3"},"vehicle_type_id":"4","last_reported":1758910360,"current_range_meters":14800,"station_id":"ce4bhhh2rcd13ifvqfl0","pricing_plan_id":"cebpf4jnsgd1na2vs0mg"},{"bike_id":"bdf98283-e040-4f5f-94a3-6c902d369273","system_id":"levelo_inurba_marseille","lat":43.2972,"lon":5.37696,"is_reserved":false,"is_disabled":true,"rental_uris":{"android":"levelo://app?vid=bdf98283-e040-4f5f-94a3-6c902d369273","ios":"levelo://app?vid=bdf98283-e040-4f5f-94a3-6c902d369273"},"vehicle_type_id":"4","last_reported":1758910360,"current_range_meters":14800,"station_id":"ce4bgkh2rcd13ifvqbl0","pricing_plan_id":"cebpf4jnsgd1na2vs0mg"},{"bike_id":"e58f61e0-143d-4c19-b20e-8786c76e64e3","system_id":"levelo_inurba_marseille","lat":43.29973,"lon":5.38499,"is_reserved":false,"is_disabled":false,"rental_uris":{"android":"levelo://app?vid=e58f61e0-143d-4c19-b20e-8786c76e64e3","ios":"levelo://app?vid=e58f61e0-143d-4c19-b20e-8786c76e64e3"},"vehicle_type_id":"4","last_reported":1758910360,"current_range_meters":14800,"station_id":"ce4bgj92rcd13ifvqbd0","pricing_plan_id":"cebpf4jnsgd1na2vs0mg"},{"bike_id":"e9965d7f-c60b-4fbd-96cd-93282f8867aa","system_id":"levelo_inurba_marseille","lat":43.25342,"lon":5.42169,"is_reserved":false,"is_disabled":false,"rental_uris":{"android":"levelo://app?vid=e9965d7f-c60b-4fbd-96cd-93282f8867aa","ios":"levelo://app?vid=e9965d7f-c60b-4fbd-96cd-93282f8867aa"},"vehicle_type_id":"4","last_reported":1758910360,"current_range_meters":15200,"station_id":"st_d2m65c5bi1j21697t3ng","pricing_plan_id":"cebpf4jnsgd1na2vs0mg"},{"bike_id":"41fbe864-b9c2-4b8a-a22b-e40ee788b52e","system_id":"levelo_inurba_marseille","lat":43.251,"lon":5.39493,"is_reserved":false,"is_disabled":false,"rental_uris":{"android":"levelo://app?vid=41fbe864-b9c2-4b8a-a22b-e40ee788b52e","ios":"levelo://app?vid=41fbe864-b9c2-4b8a-a22b-e40ee788b52e"},"vehicle_type_id":"4","last_reported":1758910360,"current_range_meters":14800,"station_id":"ce4bhm12rcd13ifvqgkg","pricing_plan_id":"cebpf4jnsgd1na2vs0mg"},{"bike_id":"3e971897-0619-466c-9436-b377e8515140","system_id":"levelo_inurba_marseille","lat":43.29299,"lon":5.37449,"is_reserved":false,"is_disabled":false,"rental_uris":{"android":"levelo://app?vid=3e971897-0619-466c-9436-b377e8515140","ios":"levelo://app?vid=3e971897-0619-466c-9436-b377e8515140"},"vehicle_type_id":"4","last_reported":1758910360,"current_range_meters":15200,"station_id":"ce4bgi12rcd13ifvqb70","pricing_plan_id":"cebpf4jnsgd1na2vs0mg"},{"bike_id":"01bf55f2-4ac6-46f6-8504-3267bf31e1a6","system_id":"levelo_inurba_marseille","lat":43.2973,"lon":5.381787,"is_reserved":false,"is_disabled":false,"rental_uris":{"android":"levelo://app?vid=01bf55f2-4ac6-46f6-8504-3267bf31e1a6","ios":"levelo://app?vid=01bf55f2-4ac6-46f6-8504-3267bf31e1a6"},"vehicle_type_id":"4","last_reported":1758910360,"current_range_meters":15200,"station_id":"","pricing_plan_id":"cebpf4jnsgd1na2vs0mg"},{"bike_id":"62529f44-1407-45b5-a57d-0e6b577d523f","system_id":"levelo_inurba_marseille","lat":43.31715,"lon":5.42411,"is_reserved":false,"is_disabled":true,"rental_uris":{"android":"levelo://app?vid=62529f44-1407-45b5-a57d-0e6b577d523f","ios":"levelo://app?vid=62529f44-1407-45b5-a57d-0e6b577d523f"},"vehicle_type_id":"4","last_reported":1758910360,"current_range_meters":15200,"station_id":"ce4bhp92rcd13ifvqhbg","pricing_plan_id":"cebpf4jnsgd1na2vs0mg"},{"bike_id":"7633d964-b60c-4c63-8a2b-46d5ac422bea","system_id":"levelo_inurba_marseille","lat":43.30809,"lon":5.38155,"is_reserved":false,"is_disabled":false,"rental_uris":{"android":"levelo://app?vid=7633d964-b60c-4c63-8a2b-46d5ac422bea","ios":"levelo://app?vid=7633d964-b60c-4c63-8a2b-46d5ac422bea"},"vehicle_type_id":"4","last_reported":1758910360,"current_range_meters":15200,"station_id":"ce4bgt12rcd13ifvqce0","pricing_plan_id":"cebpf4jnsgd1na2vs0mg"},{"bike_id":"3181866a-1952-49fb-b4ea-2e21fdf4bb0b","system_id":"levelo_inurba_marseille","lat":43.29325,"lon":5.37167,"is_reserved":false,"is_disabled":false,"rental_uris":{"android":"levelo://app?vid=3181866a-1952-49fb-b4ea-2e21fdf4bb0b","ios":"levelo://app?vid=3181866a-1952-49fb-b4ea-2e21fdf4bb0b"},"vehicle_type_id":"4","last_reported":1758910360,"current_range_meters":15200,"station_id":"ce4bgh92rcd13ifvqb40","pricing_plan_id":"cebpf4jnsgd1na2vs0mg"},{"bike_id":"339ced58-e5f9-4b6f-acc1-344fed71e89f","system_id":"levelo_inurba_marseille","lat":43.2694,"lon":5.40261,"is_reserved":false,"is_disabled":false,"rental_uris":{"android":"levelo://app?vid=339ced58-e5f9-4b6f-acc1-344fed71e89f","ios":"levelo://app?vid=339ced58-e5f9-4b6f-acc1-344fed71e89f"},"vehicle_type_id":"4","last_reported":1758910360,"current_range_meters":16000,"station_id":"cjm6bp8fraef2m0cb0m0","pricing_plan_id":"cebpf4jnsgd1na2vs0mg"},{"bike_id":"a6187c30-1c11-4309-be70-335b3ca8c646","system_id":"levelo_inurba_marseille","lat":43.21188,"lon":5.35081,"is_reserved":false,"is_disabled":false,"rental_uris":{"android":"levelo://app?vid=a6187c30-1c11-4309-be70-335b3ca8c646","ios":"levelo://app?vid=a6187c30-1c11-4309-be70-335b3ca8c646"},"vehicle_type_id":"4","last_reported":1758910360,"current_range_meters":16000,"station_id":"","pricing_plan_id":"cebpf4jnsgd1na2vs0mg"},{"bike_id":"83c24ba8-e5e4-4dcf-945a-5a9ee254e274","system_id":"levelo_inurba_marseille","lat":43.27069,"lon":5.42289,"is_reserved":false,"is_disabled":false,"rental_uris":{"android":"levelo://app?vid=83c24ba8-e5e4-4dcf-945a-5a9ee254e274","ios":"levelo://app?vid=83c24ba8-e5e4-4dcf-945a-5a9ee254e274"},"vehicle_type_id":"4","last_reported":1758910360,"current_range_meters":16000,"station_id":"ce4bhk92rcd13ifvqgb0","pricing_plan_id":"cebpf4jnsgd1na2vs0mg"},{"bike_id":"b780947e-34f9-4f8c-b470-ef52cafeb344","system_id":"levelo_inurba_marseille","lat":43.29225,"lon":5.36062,"is_reserved":false,"is_disabled":false,"rental_uris":{"android":"levelo://app?vid=b780947e-34f9-4f8c-b470-ef52cafeb344","ios":"levelo://app?vid=b780947e-34f9-4f8c-b470-ef52cafeb344"},"vehicle_type_id":"4","last_reported":1758910360,"current_range_meters":16000,"station_id":"ce4bhbh2rcd13ifvqeqg","pricing_plan_id":"cebpf4jnsgd1na2vs0mg"},{"bike_id":"fd1364a5-ff73-488a-b72e-592513140002","system_id":"levelo_inurba_marseille","lat":43.2509,"lon":5.39533,"is_reserved":false,"is_disabled":false,"rental_uris":{"android":"levelo://app?vid=fd1364a5-ff73-488a-b72e-592513140002","ios":"levelo://app?vid=fd1364a5-ff73-488a-b72e-592513140002"},"vehicle_type_id":"4","last_reported":1758910360,"current_range_meters":16000,"station_id":"ce4bhm12rcd13ifvqgkg","pricing_plan_id":"cebpf4jnsgd1na2vs0mg"},{"bike_id":"bbec63cc-552e-45d5-8a59-a5cb39d6c46b","system_id":"levelo_inurba_marseille","lat":43.32546,"lon":5.41426,"is_reserved":false,"is_disabled":false,"rental_uris":{"android":"levelo://app?vid=bbec63cc-552e-45d5-8a59-a5cb39d6c46b","ios":"levelo://app?vid=bbec63cc-552e-45d5-8a59-a5cb39d6c46b"},"vehicle_type_id":"4","last_reported":1758910360,"current_range_meters":15200,"station_id":"ce4bhq12rcd13ifvqhhg","pricing_plan_id":"cebpf4jnsgd1na2vs0mg"},{"bike_id":"e5bb3149-139c-49eb-82ec-69fdead3b5c4","system_id":"levelo_inurba_marseille","lat":43.23192,"lon":5.35551,"is_reserved":false,"is_disabled":false,"rental_uris":{"android":"levelo://app?vid=e5bb3149-139c-49eb-82ec-69fdead3b5c4","ios":"levelo://app?vid=e5bb3149-139c-49eb-82ec-69fdead3b5c4"},"vehicle_type_id":"4","last_reported":1758910360,"current_range_meters":16000,"station_id":"ce4bhu92rcd13ifvqi70","pricing_plan_id":"cebpf4jnsgd1na2vs0mg"},{"bike_id":"ac894387-043b-42ef-96f2-3f279963ad27","system_id":"levelo_inurba_marseille","lat":43.25077,"lon":5.39507,"is_reserved":false,"is_disabled":false,"rental_uris":{"android":"levelo://app?vid=ac894387-043b-42ef-96f2-3f279963ad27","ios":"levelo://app?vid=ac894387-043b-42ef-96f2-3f279963ad27"},"vehicle_type_id":"4","last_reported":1758910360,"current_range_meters":16000,"station_id":"ce4bhm12rcd13ifvqgkg","pricing_plan_id":"cebpf4jnsgd1na2vs0mg"},{"bike_id":"6d95dc9e-0607-48ac-b10b-960995ae4839","system_id":"levelo_inurba_marseille","lat":43.31766,"lon":5.39014,"is_reserved":false,"is_disabled":false,"rental_uris":{"android":"levelo://app?vid=6d95dc9e-0607-48ac-b10b-960995ae4839","ios":"levelo://app?vid=6d95dc9e-0607-48ac-b10b-960995ae4839"},"vehicle_type_id":"4","last_reported":1758910360,"current_range_meters":16000,"station_id":"ce4bhqp2rcd13ifvqhng","pricing_plan_id":"cebpf4jnsgd1na2vs0mg"},{"bike_id":"ec348589-ff91-45a4-84f8-96a0dc2abb69","system_id":"levelo_inurba_marseille","lat":43.32719,"lon":5.39273,"is_reserved":false,"is_disabled":false,"rental_uris":{"android":"levelo://app?vid=ec348589-ff91-45a4-84f8-96a0dc2abb69","ios":"levelo://app?vid=ec348589-ff91-45a4-84f8-96a0dc2abb69"},"vehicle_type_id":"4","last_reported":1758910360,"current_range_meters":16000,"station_id":"","pricing_plan_id":"cebpf4jnsgd1na2vs0mg"},{"bike_id":"ee925a9c-c600-454e-8837-0da5956fd25f","system_id":"levelo_inurba_marseille","lat":43.22935,"lon":5.35384,"is_reserved":false,"is_disabled":false,"rental_uris":{"android":"levelo://app?vid=ee925a9c-c600-454e-8837-0da5956fd25f","ios":"levelo://app?vid=ee925a9c-c600-454e-8837-0da5956fd25f"},"vehicle_type_id":"4","last_reported":1758910360,"current_range_meters":16000,"station_id":"cpo3532slgdg3j2ikp40","pricing_plan_id":"cebpf4jnsgd1na2vs0mg"},{"bike_id":"8da38942-c6b7-40bf-87b4-dedfdbc21adc","system_id":"levelo_inurba_marseille","lat":43.3201,"lon":5.38159,"is_reserved":false,"is_disabled":false,"rental_uris":{"android":"levelo://app?vid=8da38942-c6b7-40bf-87b4-dedfdbc21adc","ios":"levelo://app?vid=8da38942-c6b7-40bf-87b4-dedfdbc21adc"},"vehicle_type_id":"4","last_reported":1758910360,"current_range_meters":15200,"station_id":"ce4bhr12rcd13ifvqhpg","pricing_plan_id":"cebpf4jnsgd1na2vs0mg"},{"bike_id":"934ea1ec-b7f6-49a1-9efa-287317d4eb22","system_id":"levelo_inurba_marseille","lat":43.29048,"lon":5.35914,"is_reserved":false,"is_disabled":false,"rental_uris":{"android":"levelo://app?vid=934ea1ec-b7f6-49a1-9efa-287317d4eb22","ios":"levelo://app?vid=934ea1ec-b7f6-49a1-9efa-287317d4eb22"},"vehicle_type_id":"4","last_reported":1758910360,"current_range_meters":16400,"station_id":"","pricing_plan_id":"cebpf4jnsgd1na2vs0mg"},{"bike_id":"08f1ae4d-4e31-4568-85b6-3312c7afb22a","system_id":"levelo_inurba_marseille","lat":43.29361,"lon":5.37839,"is_reserved":false,"is_disabled":false,"rental_uris":{"android":"levelo://app?vid=08f1ae4d-4e31-4568-85b6-3312c7afb22a","ios":"levelo://app?vid=08f1ae4d-4e31-4568-85b6-3312c7afb22a"},"vehicle_type_id":"4","last_reported":1758910360,"current_range_meters":16400,"station_id":"ce4bgjh2rcd13ifvqbf0","pricing_plan_id":"cebpf4jnsgd1na2vs0mg"},{"bike_id":"4918b5ba-af5a-4903-b550-64aecc1ac28d","system_id":"levelo_inurba_marseille","lat":43.2511,"lon":5.40326,"is_reserved":false,"is_disabled":false,"rental_uris":{"android":"levelo://app?vid=4918b5ba-af5a-4903-b550-64aecc1ac28d","ios":"levelo://app?vid=4918b5ba-af5a-4903-b550-64aecc1ac28d"},"vehicle_type_id":"4","last_reported":1758910360,"current_range_meters":16000,"station_id":"ce4bhlh2rcd13ifvqgig","pricing_plan_id":"cebpf4jnsgd1na2vs0mg"},{"bike_id":"1c14f608-9eb0-4b58-8221-e6e5ed28265b","system_id":"levelo_inurba_marseille","lat":43.243873,"lon":5.37078,"is_reserved":false,"is_disabled":false,"rental_uris":{"android":"levelo://app?vid=1c14f608-9eb0-4b58-8221-e6e5ed28265b","ios":"levelo://app?vid=1c14f608-9eb0-4b58-8221-e6e5ed28265b"},"vehicle_type_id":"4","last_reported":1758910360,"current_range_meters":16400,"station_id":"ce4bhhh2rcd13ifvqfk0","pricing_plan_id":"cebpf4jnsgd1na2vs0mg"},{"bike_id":"e4802be6-90b6-4c6a-a174-ee79e6861b39","system_id":"levelo_inurba_marseille","lat":43.31084,"lon":5.42429,"is_reserved":false,"is_disabled":false,"rental_uris":{"android":"levelo://app?vid=e4802be6-90b6-4c6a-a174-ee79e6861b39","ios":"levelo://app?vid=e4802be6-90b6-4c6a-a174-ee79e6861b39"},"vehicle_type_id":"4","last_reported":1758910360,"current_range_meters":16400,"station_id":"ce4bhp92rcd13ifvqhag","pricing_plan_id":"cebpf4jnsgd1na2vs0mg"},{"bike_id":"80bdba63-46f3-4274-b0d9-d9711409b6a8","system_id":"levelo_inurba_marseille","lat":43.270752,"lon":5.402497,"is_reserved":false,"is_disabled":false,"rental_uris":{"android":"levelo://app?vid=80bdba63-46f3-4274-b0d9-d9711409b6a8","ios":"levelo://app?vid=80bdba63-46f3-4274-b0d9-d9711409b6a8"},"vehicle_type_id":"4","last_reported":1758910360,"current_range_meters":16400,"station_id":"","pricing_plan_id":"cebpf4jnsgd1na2vs0mg"},{"bike_id":"e694397c-998d-4618-8399-19bd28e8bfac","system_id":"levelo_inurba_marseille","lat":43.26212,"lon":5.37444,"is_reserved":false,"is_disabled":false,"rental_uris":{"android":"levelo://app?vid=e694397c-998d-4618-8399-19bd28e8bfac","ios":"levelo://app?vid=e694397c-998d-4618-8399-19bd28e8bfac"},"vehicle_type_id":"4","last_reported":1758910360,"current_range_meters":16400,"station_id":"ce4bhgp2rcd13ifvqfc0","pricing_plan_id":"cebpf4jnsgd1na2vs0mg"},{"bike_id":"175ed984-4779-4b98-920a-039ca300eaa4","system_id":"levelo_inurba_marseille","lat":43.27302,"lon":5.40819,"is_reserved":false,"is_disabled":false,"rental_uris":{"android":"levelo://app?vid=175ed984-4779-4b98-920a-039ca300eaa4","ios":"levelo://app?vid=175ed984-4779-4b98-920a-039ca300eaa4"},"vehicle_type_id":"4","last_reported":1758910360,"current_range_meters":16800,"station_id":"","pricing_plan_id":"cebpf4jnsgd1na2vs0mg"},{"bike_id":"a0013361-2642-4fdb-89a9-0b8709d5a022","system_id":"levelo_inurba_marseille","lat":43.29308,"lon":5.37165,"is_reserved":false,"is_disabled":false,"rental_uris":{"android":"levelo://app?vid=a0013361-2642-4fdb-89a9-0b8709d5a022","ios":"levelo://app?vid=a0013361-2642-4fdb-89a9-0b8709d5a022"},"vehicle_type_id":"4","last_reported":1758910360,"current_range_meters":16800,"station_id":"ce4bgh92rcd13ifvqb40","pricing_plan_id":"cebpf4jnsgd1na2vs0mg"},{"bike_id":"a4ba26dc-2f32-48e5-bf18-4cc12ac5d755","system_id":"levelo_inurba_marseille","lat":43.27073,"lon":5.42283,"is_reserved":false,"is_disabled":false,"rental_uris":{"android":"levelo://app?vid=a4ba26dc-2f32-48e5-bf18-4cc12ac5d755","ios":"levelo://app?vid=a4ba26dc-2f32-48e5-bf18-4cc12ac5d755"},"vehicle_type_id":"4","last_reported":1758910360,"current_range_meters":16800,"station_id":"ce4bhk92rcd13ifvqgb0","pricing_plan_id":"cebpf4jnsgd1na2vs0mg"},{"bike_id":"fd443f7c-230d-4a8c-a6af-054633863de6","system_id":"levelo_inurba_marseille","lat":43.28291,"lon":5.35065,"is_reserved":false,"is_disabled":false,"rental_uris":{"android":"levelo://app?vid=fd443f7c-230d-4a8c-a6af-054633863de6","ios":"levelo://app?vid=fd443f7c-230d-4a8c-a6af-054633863de6"},"vehicle_type_id":"4","last_reported":1758910360,"current_range_meters":16800,"station_id":"ce4bhbp2rcd13ifvqerg","pricing_plan_id":"cebpf4jnsgd1na2vs0mg"},{"bike_id":"71164885-da65-4c04-b17c-b7b56f805a34","system_id":"levelo_inurba_marseille","lat":43.29275,"lon":5.368482,"is_reserved":false,"is_disabled":false,"rental_uris":{"android":"levelo://app?vid=71164885-da65-4c04-b17c-b7b56f805a34","ios":"levelo://app?vid=71164885-da65-4c04-b17c-b7b56f805a34"},"vehicle_type_id":"4","last_reported":1758910360,"current_range_meters":16800,"station_id":"ce4bhbp2rcd13ifvqesg","pricing_plan_id":"cebpf4jnsgd1na2vs0mg"},{"bike_id":"dd7e7a88-44e6-491d-8ba0-e160e5daafd4","system_id":"levelo_inurba_marseille","lat":43.295965,"lon":5.381062,"is_reserved":false,"is_disabled":false,"rental_uris":{"android":"levelo://app?vid=dd7e7a88-44e6-491d-8ba0-e160e5daafd4","ios":"levelo://app?vid=dd7e7a88-44e6-491d-8ba0-e160e5daafd4"},"vehicle_type_id":"4","last_reported":1758910360,"current_range_meters":16800,"station_id":"ce4bgl12rcd13ifvqbo0","pricing_plan_id":"cebpf4jnsgd1na2vs0mg"},{"bike_id":"7bbaf29b-34e2-42ec-9b64-c7d58b5c72c6","system_id":"levelo_inurba_marseille","lat":43.308,"lon":5.38156,"is_reserved":false,"is_disabled":false,"rental_uris":{"android":"levelo://app?vid=7bbaf29b-34e2-42ec-9b64-c7d58b5c72c6","ios":"levelo://app?vid=7bbaf29b-34e2-42ec-9b64-c7d58b5c72c6"},"vehicle_type_id":"4","last_reported":1758910360,"current_range_meters":16800,"station_id":"ce4bgt12rcd13ifvqce0","pricing_plan_id":"cebpf4jnsgd1na2vs0mg"},{"bike_id":"e241dfc8-d7f9-404e-a9fb-70b03889b507","system_id":"levelo_inurba_marseille","lat":43.31354,"lon":5.38548,"is_reserved":false,"is_disabled":true,"rental_uris":{"android":"levelo://app?vid=e241dfc8-d7f9-404e-a9fb-70b03889b507","ios":"levelo://app?vid=e241dfc8-d7f9-404e-a9fb-70b03889b507"},"vehicle_type_id":"4","last_reported":1758910360,"current_range_meters":16800,"station_id":"","pricing_plan_id":"cebpf4jnsgd1na2vs0mg"},{"bike_id":"09bfeca9-5d15-48fd-afce-ba98de68a943","system_id":"levelo_inurba_marseille","lat":43.28611,"lon":5.3707,"is_reserved":false,"is_disabled":false,"rental_uris":{"android":"levelo://app?vid=09bfeca9-5d15-48fd-afce-ba98de68a943","ios":"levelo://app?vid=09bfeca9-5d15-48fd-afce-ba98de68a943"},"vehicle_type_id":"4","last_reported":1758910360,"current_range_meters":16800,"station_id":"ce4bht12rcd13ifvqi60","pricing_plan_id":"cebpf4jnsgd1na2vs0mg"},{"bike_id":"855d7122-4824-46d3-b6c6-d8afb40dfca0","system_id":"levelo_inurba_marseille","lat":43.24078,"lon":5.37766,"is_reserved":false,"is_disabled":false,"rental_uris":{"android":"levelo://app?vid=855d7122-4824-46d3-b6c6-d8afb40dfca0","ios":"levelo://app?vid=855d7122-4824-46d3-b6c6-d8afb40dfca0"},"vehicle_type_id":"4","last_reported":1758910360,"current_range_meters":16800,"station_id":"ce4bhnp2rcd13ifvqgvg","pricing_plan_id":"cebpf4jnsgd1na2vs0mg"},{"bike_id":"052c59a7-1cc4-4bbc-97f5-180981a63118","system_id":"levelo_inurba_marseille","lat":43.24633,"lon":5.43155,"is_reserved":false,"is_disabled":false,"rental_uris":{"android":"levelo://app?vid=052c59a7-1cc4-4bbc-97f5-180981a63118","ios":"levelo://app?vid=052c59a7-1cc4-4bbc-97f5-180981a63118"},"vehicle_type_id":"4","last_reported":1758910360,"current_range_meters":16800,"station_id":"st_d2m6c4gdas8pm72e190g","pricing_plan_id":"cebpf4jnsgd1na2vs0mg"},{"bike_id":"7f09bc43-02a6-468a-9182-731c83281b4a","system_id":"levelo_inurba_marseille","lat":43.26363,"lon":5.37548,"is_reserved":false,"is_disabled":false,"rental_uris":{"android":"levelo://app?vid=7f09bc43-02a6-468a-9182-731c83281b4a","ios":"levelo://app?vid=7f09bc43-02a6-468a-9182-731c83281b4a"},"vehicle_type_id":"4","last_reported":1758910360,"current_range_meters":17200,"station_id":"","pricing_plan_id":"cebpf4jnsgd1na2vs0mg"},{"bike_id":"b1b911d7-f2cf-4c1f-9891-e7fffd56bc9c","system_id":"levelo_inurba_marseille","lat":43.28156,"lon":5.42653,"is_reserved":false,"is_disabled":false,"rental_uris":{"android":"levelo://app?vid=b1b911d7-f2cf-4c1f-9891-e7fffd56bc9c","ios":"levelo://app?vid=b1b911d7-f2cf-4c1f-9891-e7fffd56bc9c"},"vehicle_type_id":"4","last_reported":1758910360,"current_range_meters":17200,"station_id":"ce4bhnh2rcd13ifvqgug","pricing_plan_id":"cebpf4jnsgd1na2vs0mg"},{"bike_id":"5bb42022-0e19-48bc-a5b4-218bb1d7482e","system_id":"levelo_inurba_marseille","lat":43.31282,"lon":5.37733,"is_reserved":false,"is_disabled":false,"rental_uris":{"android":"levelo://app?vid=5bb42022-0e19-48bc-a5b4-218bb1d7482e","ios":"levelo://app?vid=5bb42022-0e19-48bc-a5b4-218bb1d7482e"},"vehicle_type_id":"4","last_reported":1758910360,"current_range_meters":17200,"station_id":"","pricing_plan_id":"cebpf4jnsgd1na2vs0mg"},{"bike_id":"03350417-1098-4d6c-b8fe-9e64358744bf","system_id":"levelo_inurba_marseille","lat":43.31035,"lon":5.37581,"is_reserved":false,"is_disabled":false,"rental_uris":{"android":"levelo://app?vid=03350417-1098-4d6c-b8fe-9e64358744bf","ios":"levelo://app?vid=03350417-1098-4d6c-b8fe-9e64358744bf"},