{"last_updated":1753456343,"ttl":60,"version":"2.2","data":{"bikes":[{"bike_id":"8f1ac6b1-9977-492a-8fd6-7b5c92ac5bc5","system_id":"levelo_inurba_marseille","lat":43.24392,"lon":5.37069,"is_reserved":false,"is_disabled":false,"rental_uris":{"android":"levelo://app?vid=8f1ac6b1-9977-492a-8fd6-7b5c92ac5bc5","ios":"levelo://app?vid=8f1ac6b1-9977-492a-8fd6-7b5c92ac5bc5"},"vehicle_type_id":"4","last_reported":1753456344,"current_range_meters":2800,"station_id":"ce4bhhh2rcd13ifvqfk0","pricing_plan_id":"cebpf4jnsgd1na2vs0mg"},{"bike_id":"44168810-6be7-466b-8eb0-56c888cc7160","system_id":"levelo_inurba_marseille","lat":43.30625,"lon":5.3737,"is_reserved":false,"is_disabled":false,"rental_uris":{"android":"levelo://app?vid=44168810-6be7-466b-8eb0-56c888cc7160","ios":"levelo://app?vid=44168810-6be7-466b-8eb0-56c888cc7160"},"vehicle_type_id":"4","last_reported":1753456344,"current_range_meters":2800,"station_id":"","pricing_plan_id":"cebpf4jnsgd1na2vs0mg"},{"bike_id":"8ee5bfa6-42fd-4e00-b1d1-7495949df70c","system_id":"levelo_inurba_marseille","lat":43.23178,"lon":5.39987,"is_reserved":false,"is_disabled":false,"rental_uris":{"android":"levelo://app?vid=8ee5bfa6-42fd-4e00-b1d1-7495949df70c","ios":"levelo://app?vid=8ee5bfa6-42fd-4e00-b1d1-7495949df70c"},"vehicle_type_id":"4","last_reported":1753456344,"current_range_meters":3200,"station_id":"ce4bhn12rcd13ifvqgqg","pricing_plan_id":"cebpf4jnsgd1na2vs0mg"},{"bike_id":"33d20863-5437-4b98-b535-2890f46165c0","system_id":"levelo_inurba_marseille","lat":43.30642,"lon":5.40095,"is_reserved":false,"is_disabled":false,"rental_uris":{"android":"levelo://app?vid=33d20863-5437-4b98-b535-2890f46165c0","ios":"levelo://app?vid=33d20863-5437-4b98-b535-2890f46165c0"},"vehicle_type_id":"4","last_reported":1753456344,"current_range_meters":3200,"station_id":"ce4bh112rcd13ifvqda0","pricing_plan_id":"cebpf4jnsgd1na2vs0mg"},{"bike_id":"2bf6bffe-b207-4557-83a8-5416ffb85e3b","system_id":"levelo_inurba_marseille","lat":43.297752,"lon":5.371104,"is_reserved":false,"is_disabled":false,"rental_uris":{"android":"levelo://app?vid=2bf6bffe-b207-4557-83a8-5416ffb85e3b","ios":"levelo://app?vid=2bf6bffe-b207-4557-83a8-5416ffb85e3b"},"vehicle_type_id":"4","last_reported":1753456344,"current_range_meters":3200,"station_id":"","pricing_plan_id":"cebpf4jnsgd1na2vs0mg"},{"bike_id":"df508e6e-87aa-409a-b0cd-2733b09c9835","system_id":"levelo_inurba_marseille","lat":43.25865,"lon":5.39898,"is_reserved":false,"is_disabled":false,"rental_uris":{"android":"levelo://app?vid=df508e6e-87aa-409a-b0cd-2733b09c9835","ios":"levelo://app?vid=df508e6e-87aa-409a-b0cd-2733b09c9835"},"vehicle_type_id":"4","last_reported":1753456344,"current_range_meters":3200,"station_id":"ce4bhl92rcd13ifvqghg","pricing_plan_id":"cebpf4jnsgd1na2vs0mg"},{"bike_id":"fe65d7d6-638d-40a5-bccf-533e7cf482a6","system_id":"levelo_inurba_marseille","lat":43.283504,"lon":5.432646,"is_reserved":false,"is_disabled":false,"rental_uris":{"android":"levelo://app?vid=fe65d7d6-638d-40a5-bccf-533e7cf482a6","ios":"levelo://app?vid=fe65d7d6-638d-40a5-bccf-533e7cf482a6"},"vehicle_type_id":"4","last_reported":1753456344,"current_range_meters":4000,"station_id":"","pricing_plan_id":"cebpf4jnsgd1na2vs0mg"},{"bike_id":"6efa4955-7d8e-4165-b167-64462dc045f4","system_id":"levelo_inurba_marseille","lat":43.30467,"lon":5.37906,"is_reserved":false,"is_disabled":false,"rental_uris":{"android":"levelo://app?vid=6efa4955-7d8e-4165-b167-64462dc045f4","ios":"levelo://app?vid=6efa4955-7d8e-4165-b167-64462dc045f4"},"vehicle_type_id":"4","last_reported":1753456344,"current_range_meters":3600,"station_id":"ce4bgup2rcd13ifvqcn0","pricing_plan_id":"cebpf4jnsgd1na2vs0mg"},{"bike_id":"11712141-fafc-40a3-91f5-0272f31f4ac6","system_id":"levelo_inurba_marseille","lat":43.23962,"lon":5.36629,"is_reserved":false,"is_disabled":false,"rental_uris":{"android":"levelo://app?vid=11712141-fafc-40a3-91f5-0272f31f4ac6","ios":"levelo://app?vid=11712141-fafc-40a3-91f5-0272f31f4ac6"},"vehicle_type_id":"4","last_reported":1753456344,"current_range_meters":4000,"station_id":"ce4bhi12rcd13ifvqfp0","pricing_plan_id":"cebpf4jnsgd1na2vs0mg"},{"bike_id":"6768128e-0076-440e-a64f-acd742c54969","system_id":"levelo_inurba_marseille","lat":43.3044,"lon":5.38889,"is_reserved":false,"is_disabled":false,"rental_uris":{"android":"levelo://app?vid=6768128e-0076-440e-a64f-acd742c54969","ios":"levelo://app?vid=6768128e-0076-440e-a64f-acd742c54969"},"vehicle_type_id":"4","last_reported":1753456344,"current_range_meters":4400,"station_id":"ce4bgk12rcd13ifvqbi0","pricing_plan_id":"cebpf4jnsgd1na2vs0mg"},{"bike_id":"b34261d1-92f7-49d7-a266-756fee313976","system_id":"levelo_inurba_marseille","lat":43.28488,"lon":5.38548,"is_reserved":false,"is_disabled":false,"rental_uris":{"android":"levelo://app?vid=b34261d1-92f7-49d7-a266-756fee313976","ios":"levelo://app?vid=b34261d1-92f7-49d7-a266-756fee313976"},"vehicle_type_id":"4","last_reported":1753456344,"current_range_meters":4800,"station_id":"ce4bh8p2rcd13ifvqeb0","pricing_plan_id":"cebpf4jnsgd1na2vs0mg"},{"bike_id":"c9c36fe2-fe3f-4bd7-a560-b2765155b038","system_id":"levelo_inurba_marseille","lat":43.26567,"lon":5.37302,"is_reserved":false,"is_disabled":false,"rental_uris":{"android":"levelo://app?vid=c9c36fe2-fe3f-4bd7-a560-b2765155b038","ios":"levelo://app?vid=c9c36fe2-fe3f-4bd7-a560-b2765155b038"},"vehicle_type_id":"4","last_reported":1753456344,"current_range_meters":5600,"station_id":"ce4bhg12rcd13ifvqf70","pricing_plan_id":"cebpf4jnsgd1na2vs0mg"},{"bike_id":"0cf52468-dd29-498b-a7f5-7a9ffaa61c31","system_id":"levelo_inurba_marseille","lat":43.29794,"lon":5.3811,"is_reserved":false,"is_disabled":false,"rental_uris":{"android":"levelo://app?vid=0cf52468-dd29-498b-a7f5-7a9ffaa61c31","ios":"levelo://app?vid=0cf52468-dd29-498b-a7f5-7a9ffaa61c31"},"vehicle_type_id":"4","last_reported":1753456344,"current_range_meters":4800,"station_id":"ce4bgip2rcd13ifvqbb0","pricing_plan_id":"cebpf4jnsgd1na2vs0mg"},{"bike_id":"e5b42a10-9d05-44b4-bd4a-6add49cdd079","system_id":"levelo_inurba_marseille","lat":43.31269,"lon":5.40166,"is_reserved":false,"is_disabled":false,"rental_uris":{"android":"levelo://app?vid=e5b42a10-9d05-44b4-bd4a-6add49cdd079","ios":"levelo://app?vid=e5b42a10-9d05-44b4-bd4a-6add49cdd079"},"vehicle_type_id":"4","last_reported":1753456344,"current_range_meters":6000,"station_id":"ce4bh092rcd13ifvqd30","pricing_plan_id":"cebpf4jnsgd1na2vs0mg"},{"bike_id":"85b1ffd2-5fc3-4703-bf38-c866c7677b84","system_id":"levelo_inurba_marseille","lat":43.27955,"lon":5.39072,"is_reserved":false,"is_disabled":false,"rental_uris":{"android":"levelo://app?vid=85b1ffd2-5fc3-4703-bf38-c866c7677b84","ios":"levelo://app?vid=85b1ffd2-5fc3-4703-bf38-c866c7677b84"},"vehicle_type_id":"4","last_reported":1753456344,"current_range_meters":6000,"station_id":"","pricing_plan_id":"cebpf4jnsgd1na2vs0mg"},{"bike_id":"fd38bb5a-4138-4d2f-96e5-55d6542f58a4","system_id":"levelo_inurba_marseille","lat":43.27716,"lon":5.367545,"is_reserved":false,"is_disabled":false,"rental_uris":{"android":"levelo://app?vid=fd38bb5a-4138-4d2f-96e5-55d6542f58a4","ios":"levelo://app?vid=fd38bb5a-4138-4d2f-96e5-55d6542f58a4"},"vehicle_type_id":"4","last_reported":1753456344,"current_range_meters":6000,"station_id":"","pricing_plan_id":"cebpf4jnsgd1na2vs0mg"},{"bike_id":"eb9a98b3-c3f8-4d42-b68a-67eb9616a355","system_id":"levelo_inurba_marseille","lat":43.29843,"lon":5.36268,"is_reserved":false,"is_disabled":false,"rental_uris":{"android":"levelo://app?vid=eb9a98b3-c3f8-4d42-b68a-67eb9616a355","ios":"levelo://app?vid=eb9a98b3-c3f8-4d42-b68a-67eb9616a355"},"vehicle_type_id":"4","last_reported":1753456344,"current_range_meters":6000,"station_id":"ce4bgpp2rcd13ifvqc3g","pricing_plan_id":"cebpf4jnsgd1na2vs0mg"},{"bike_id":"cce72859-647c-4a23-a830-4d27e8f0dbbb","system_id":"levelo_inurba_marseille","lat":43.29616,"lon":5.37737,"is_reserved":false,"is_disabled":false,"rental_uris":{"android":"levelo://app?vid=cce72859-647c-4a23-a830-4d27e8f0dbbb","ios":"levelo://app?vid=cce72859-647c-4a23-a830-4d27e8f0dbbb"},"vehicle_type_id":"4","last_reported":1753456344,"current_range_meters":6400,"station_id":"ce4bgi92rcd13ifvqb90","pricing_plan_id":"cebpf4jnsgd1na2vs0mg"},{"bike_id":"aa24388e-6864-4359-80dc-3e04a7877b64","system_id":"levelo_inurba_marseille","lat":43.30321,"lon":5.36897,"is_reserved":false,"is_disabled":false,"rental_uris":{"android":"levelo://app?vid=aa24388e-6864-4359-80dc-3e04a7877b64","ios":"levelo://app?vid=aa24388e-6864-4359-80dc-3e04a7877b64"},"vehicle_type_id":"4","last_reported":1753456344,"current_range_meters":6800,"station_id":"ce4bgqh2rcd13ifvqc5g","pricing_plan_id":"cebpf4jnsgd1na2vs0mg"},{"bike_id":"d87b56f9-aec8-4c18-8340-d7aba9319bde","system_id":"levelo_inurba_marseille","lat":43.2749,"lon":5.39638,"is_reserved":false,"is_disabled":false,"rental_uris":{"android":"levelo://app?vid=d87b56f9-aec8-4c18-8340-d7aba9319bde","ios":"levelo://app?vid=d87b56f9-aec8-4c18-8340-d7aba9319bde"},"vehicle_type_id":"4","last_reported":1753456344,"current_range_meters":6800,"station_id":"","pricing_plan_id":"cebpf4jnsgd1na2vs0mg"},{"bike_id":"bca9d8c9-e03c-4a2e-a79f-f9b7949af83c","system_id":"levelo_inurba_marseille","lat":43.306372,"lon":5.401046,"is_reserved":false,"is_disabled":false,"rental_uris":{"android":"levelo://app?vid=bca9d8c9-e03c-4a2e-a79f-f9b7949af83c","ios":"levelo://app?vid=bca9d8c9-e03c-4a2e-a79f-f9b7949af83c"},"vehicle_type_id":"4","last_reported":1753456344,"current_range_meters":6800,"station_id":"ce4bh112rcd13ifvqda0","pricing_plan_id":"cebpf4jnsgd1na2vs0mg"},{"bike_id":"b54b5e84-7057-4e14-8101-e3dbd0f0745c","system_id":"levelo_inurba_marseille","lat":43.23067,"lon":5.35489,"is_reserved":false,"is_disabled":false,"rental_uris":{"android":"levelo://app?vid=b54b5e84-7057-4e14-8101-e3dbd0f0745c","ios":"levelo://app?vid=b54b5e84-7057-4e14-8101-e3dbd0f0745c"},"vehicle_type_id":"4","last_reported":1753456344,"current_range_meters":7200,"station_id":"cpo3342slgdg3j2ifvpg","pricing_plan_id":"cebpf4jnsgd1na2vs0mg"},{"bike_id":"5af4a98e-993f-469b-86d4-458c86379d30","system_id":"levelo_inurba_marseille","lat":43.27999,"lon":5.41664,"is_reserved":false,"is_disabled":false,"rental_uris":{"android":"levelo://app?vid=5af4a98e-993f-469b-86d4-458c86379d30","ios":"levelo://app?vid=5af4a98e-993f-469b-86d4-458c86379d30"},"vehicle_type_id":"4","last_reported":1753456344,"current_range_meters":7200,"station_id":"ce4bho12rcd13ifvqh1g","pricing_plan_id":"cebpf4jnsgd1na2vs0mg"},{"bike_id":"b2d9b512-461e-4c22-8160-83c7cfb0cdf8","system_id":"levelo_inurba_marseille","lat":43.27946,"lon":5.41045,"is_reserved":false,"is_disabled":true,"rental_uris":{"android":"levelo://app?vid=b2d9b512-461e-4c22-8160-83c7cfb0cdf8","ios":"levelo://app?vid=b2d9b512-461e-4c22-8160-83c7cfb0cdf8"},"vehicle_type_id":"4","last_reported":1753456344,"current_range_meters":7200,"station_id":"ce4bhnp2rcd13ifvqh0g","pricing_plan_id":"cebpf4jnsgd1na2vs0mg"},{"bike_id":"e19cd9bd-8f1f-4909-a624-5af678243303","system_id":"levelo_inurba_marseille","lat":43.2906,"lon":5.39848,"is_reserved":false,"is_disabled":false,"rental_uris":{"android":"levelo://app?vid=e19cd9bd-8f1f-4909-a624-5af678243303","ios":"levelo://app?vid=e19cd9bd-8f1f-4909-a624-5af678243303"},"vehicle_type_id":"4","last_reported":1753456344,"current_range_meters":7200,"station_id":"","pricing_plan_id":"cebpf4jnsgd1na2vs0mg"},{"bike_id":"e9e1153e-4664-4ed5-aef6-f8b8ca45583e","system_id":"levelo_inurba_marseille","lat":43.29632,"lon":5.38091,"is_reserved":false,"is_disabled":false,"rental_uris":{"android":"levelo://app?vid=e9e1153e-4664-4ed5-aef6-f8b8ca45583e","ios":"levelo://app?vid=e9e1153e-4664-4ed5-aef6-f8b8ca45583e"},"vehicle_type_id":"4","last_reported":1753456344,"current_range_meters":7200,"station_id":"ce4bgl12rcd13ifvqbo0","pricing_plan_id":"cebpf4jnsgd1na2vs0mg"},{"bike_id":"3843a00f-81d8-45fd-a52a-64868b9c8532","system_id":"levelo_inurba_marseille","lat":43.29769,"lon":5.37733,"is_reserved":false,"is_disabled":false,"rental_uris":{"android":"levelo://app?vid=3843a00f-81d8-45fd-a52a-64868b9c8532","ios":"levelo://app?vid=3843a00f-81d8-45fd-a52a-64868b9c8532"},"vehicle_type_id":"4","last_reported":1753456344,"current_range_meters":7200,"station_id":"","pricing_plan_id":"cebpf4jnsgd1na2vs0mg"},{"bike_id":"8d10640a-a46e-4bbe-aece-5a5494ad33d8","system_id":"levelo_inurba_marseille","lat":43.28447,"lon":5.39199,"is_reserved":false,"is_disabled":false,"rental_uris":{"android":"levelo://app?vid=8d10640a-a46e-4bbe-aece-5a5494ad33d8","ios":"levelo://app?vid=8d10640a-a46e-4bbe-aece-5a5494ad33d8"},"vehicle_type_id":"4","last_reported":1753456344,"current_range_meters":7200,"station_id":"ce4bhoh2rcd13ifvqh5g","pricing_plan_id":"cebpf4jnsgd1na2vs0mg"},{"bike_id":"67a93391-d932-4602-bb91-271d6f70164f","system_id":"levelo_inurba_marseille","lat":43.225085,"lon":5.347838,"is_reserved":false,"is_disabled":false,"rental_uris":{"android":"levelo://app?vid=67a93391-d932-4602-bb91-271d6f70164f","ios":"levelo://app?vid=67a93391-d932-4602-bb91-271d6f70164f"},"vehicle_type_id":"4","last_reported":1753456344,"current_range_meters":7200,"station_id":"st_cvj5dfep6f1abm77gieg","pricing_plan_id":"cebpf4jnsgd1na2vs0mg"},{"bike_id":"a6cb9e33-58ea-44ef-9d2d-fa46b060b5a1","system_id":"levelo_inurba_marseille","lat":43.28701,"lon":5.39979,"is_reserved":false,"is_disabled":false,"rental_uris":{"android":"levelo://app?vid=a6cb9e33-58ea-44ef-9d2d-fa46b060b5a1","ios":"levelo://app?vid=a6cb9e33-58ea-44ef-9d2d-fa46b060b5a1"},"vehicle_type_id":"4","last_reported":1753456344,"current_range_meters":8000,"station_id":"ce4bho92rcd13ifvqh3g","pricing_plan_id":"cebpf4jnsgd1na2vs0mg"},{"bike_id":"71c6466d-9abe-4660-bc3a-f35643aea622","system_id":"levelo_inurba_marseille","lat":43.28936,"lon":5.3664,"is_reserved":false,"is_disabled":false,"rental_uris":{"android":"levelo://app?vid=71c6466d-9abe-4660-bc3a-f35643aea622","ios":"levelo://app?vid=71c6466d-9abe-4660-bc3a-f35643aea622"},"vehicle_type_id":"4","last_reported":1753456344,"current_range_meters":7200,"station_id":"ce4bhap2rcd13ifvqek0","pricing_plan_id":"cebpf4jnsgd1na2vs0mg"},{"bike_id":"6635db08-04a9-4f2e-b2c3-2132c8973292","system_id":"levelo_inurba_marseille","lat":43.2945,"lon":5.39746,"is_reserved":false,"is_disabled":false,"rental_uris":{"android":"levelo://app?vid=6635db08-04a9-4f2e-b2c3-2132c8973292","ios":"levelo://app?vid=6635db08-04a9-4f2e-b2c3-2132c8973292"},"vehicle_type_id":"4","last_reported":1753456344,"current_range_meters":8400,"station_id":"ce4bh3h2rcd13ifvqdo0","pricing_plan_id":"cebpf4jnsgd1na2vs0mg"},{"bike_id":"bcfeb788-eed8-4a22-9566-78b3af0fa09b","system_id":"levelo_inurba_marseille","lat":43.29929,"lon":5.37575,"is_reserved":false,"is_disabled":false,"rental_uris":{"android":"levelo://app?vid=bcfeb788-eed8-4a22-9566-78b3af0fa09b","ios":"levelo://app?vid=bcfeb788-eed8-4a22-9566-78b3af0fa09b"},"vehicle_type_id":"4","last_reported":1753456344,"current_range_meters":8400,"station_id":"","pricing_plan_id":"cebpf4jnsgd1na2vs0mg"},{"bike_id":"b93c0803-f824-4cb7-a4ed-57da1403b68e","system_id":"levelo_inurba_marseille","lat":43.325583,"lon":5.379059,"is_reserved":false,"is_disabled":true,"rental_uris":{"android":"levelo://app?vid=b93c0803-f824-4cb7-a4ed-57da1403b68e","ios":"levelo://app?vid=b93c0803-f824-4cb7-a4ed-57da1403b68e"},"vehicle_type_id":"4","last_reported":1753456344,"current_range_meters":8400,"station_id":"","pricing_plan_id":"cebpf4jnsgd1na2vs0mg"},{"bike_id":"fd4ba70a-7bfa-434e-8564-04bf25cc9f63","system_id":"levelo_inurba_marseille","lat":43.28111,"lon":5.44114,"is_reserved":false,"is_disabled":false,"rental_uris":{"android":"levelo://app?vid=fd4ba70a-7bfa-434e-8564-04bf25cc9f63","ios":"levelo://app?vid=fd4ba70a-7bfa-434e-8564-04bf25cc9f63"},"vehicle_type_id":"4","last_reported":1753456344,"current_range_meters":8400,"station_id":"","pricing_plan_id":"cebpf4jnsgd1na2vs0mg"},{"bike_id":"51979a68-a8cc-400e-b7b9-cd8004031e65","system_id":"levelo_inurba_marseille","lat":43.22523,"lon":5.34783,"is_reserved":false,"is_disabled":false,"rental_uris":{"android":"levelo://app?vid=51979a68-a8cc-400e-b7b9-cd8004031e65","ios":"levelo://app?vid=51979a68-a8cc-400e-b7b9-cd8004031e65"},"vehicle_type_id":"4","last_reported":1753456344,"current_range_meters":8400,"station_id":"st_cvj5dfep6f1abm77gieg","pricing_plan_id":"cebpf4jnsgd1na2vs0mg"},{"bike_id":"f28d2bb9-4217-4196-a573-ba6f4c172497","system_id":"levelo_inurba_marseille","lat":43.28154,"lon":5.36099,"is_reserved":false,"is_disabled":false,"rental_uris":{"android":"levelo://app?vid=f28d2bb9-4217-4196-a573-ba6f4c172497","ios":"levelo://app?vid=f28d2bb9-4217-4196-a573-ba6f4c172497"},"vehicle_type_id":"4","last_reported":1753456344,"current_range_meters":8800,"station_id":"","pricing_plan_id":"cebpf4jnsgd1na2vs0mg"},{"bike_id":"e452e1c2-2b57-4593-a40f-0668c58e1327","system_id":"levelo_inurba_marseille","lat":43.30303,"lon":5.39206,"is_reserved":false,"is_disabled":false,"rental_uris":{"android":"levelo://app?vid=e452e1c2-2b57-4593-a40f-0668c58e1327","ios":"levelo://app?vid=e452e1c2-2b57-4593-a40f-0668c58e1327"},"vehicle_type_id":"4","last_reported":1753456344,"current_range_meters":8800,"station_id":"ce4bgkh2rcd13ifvqbk0","pricing_plan_id":"cebpf4jnsgd1na2vs0mg"},{"bike_id":"db22ab85-3235-400a-818d-9d01edd69a83","system_id":"levelo_inurba_marseille","lat":43.279076,"lon":5.396069,"is_reserved":false,"is_disabled":false,"rental_uris":{"android":"levelo://app?vid=db22ab85-3235-400a-818d-9d01edd69a83","ios":"levelo://app?vid=db22ab85-3235-400a-818d-9d01edd69a83"},"vehicle_type_id":"4","last_reported":1753456344,"current_range_meters":9200,"station_id":"ce4bhf92rcd13ifvqf40","pricing_plan_id":"cebpf4jnsgd1na2vs0mg"},{"bike_id":"a2dd7c59-b362-4e5c-a612-7877189768e2","system_id":"levelo_inurba_marseille","lat":43.282704,"lon":5.350624,"is_reserved":false,"is_disabled":false,"rental_uris":{"android":"levelo://app?vid=a2dd7c59-b362-4e5c-a612-7877189768e2","ios":"levelo://app?vid=a2dd7c59-b362-4e5c-a612-7877189768e2"},"vehicle_type_id":"4","last_reported":1753456344,"current_range_meters":9600,"station_id":"ce4bhbp2rcd13ifvqerg","pricing_plan_id":"cebpf4jnsgd1na2vs0mg"},{"bike_id":"d62fa972-cf10-438d-898e-a03e121f6ffa","system_id":"levelo_inurba_marseille","lat":43.29273,"lon":5.40743,"is_reserved":false,"is_disabled":false,"rental_uris":{"android":"levelo://app?vid=d62fa972-cf10-438d-898e-a03e121f6ffa","ios":"levelo://app?vid=d62fa972-cf10-438d-898e-a03e121f6ffa"},"vehicle_type_id":"4","last_reported":1753456344,"current_range_meters":9600,"station_id":"","pricing_plan_id":"cebpf4jnsgd1na2vs0mg"},{"bike_id":"7897aa08-301a-4a1c-96ae-bdf708289b0a","system_id":"levelo_inurba_marseille","lat":43.28739,"lon":5.3608,"is_reserved":false,"is_disabled":false,"rental_uris":{"android":"levelo://app?vid=7897aa08-301a-4a1c-96ae-bdf708289b0a","ios":"levelo://app?vid=7897aa08-301a-4a1c-96ae-bdf708289b0a"},"vehicle_type_id":"4","last_reported":1753456344,"current_range_meters":9600,"station_id":"cki0cbj6b192h4jlfktg","pricing_plan_id":"cebpf4jnsgd1na2vs0mg"},{"bike_id":"59abc30f-b3f1-4eaf-a927-b4e34774c82c","system_id":"levelo_inurba_marseille","lat":43.29707,"lon":5.37696,"is_reserved":false,"is_disabled":false,"rental_uris":{"android":"levelo://app?vid=59abc30f-b3f1-4eaf-a927-b4e34774c82c","ios":"levelo://app?vid=59abc30f-b3f1-4eaf-a927-b4e34774c82c"},"vehicle_type_id":"4","last_reported":1753456344,"current_range_meters":10000,"station_id":"ce4bgkh2rcd13ifvqbl0","pricing_plan_id":"cebpf4jnsgd1na2vs0mg"},{"bike_id":"5b94eff9-2e0f-4c0e-b3f6-ab7ca2eca31a","system_id":"levelo_inurba_marseille","lat":43.27386,"lon":5.36263,"is_reserved":false,"is_disabled":true,"rental_uris":{"android":"levelo://app?vid=5b94eff9-2e0f-4c0e-b3f6-ab7ca2eca31a","ios":"levelo://app?vid=5b94eff9-2e0f-4c0e-b3f6-ab7ca2eca31a"},"vehicle_type_id":"4","last_reported":1753456344,"current_range_meters":10000,"station_id":"ce4bhbh2rcd13ifvqeo0","pricing_plan_id":"cebpf4jnsgd1na2vs0mg"},{"bike_id":"2e8e7fa4-47bc-4567-b903-96abfb4fdf66","system_id":"levelo_inurba_marseille","lat":43.29701,"lon":5.44166,"is_reserved":false,"is_disabled":false,"rental_uris":{"android":"levelo://app?vid=2e8e7fa4-47bc-4567-b903-96abfb4fdf66","ios":"levelo://app?vid=2e8e7fa4-47bc-4567-b903-96abfb4fdf66"},"vehicle_type_id":"4","last_reported":1753456344,"current_range_meters":10000,"station_id":"","pricing_plan_id":"cebpf4jnsgd1na2vs0mg"},{"bike_id":"a1676a90-aeae-4e28-8472-3e88e730a66f","system_id":"levelo_inurba_marseille","lat":43.290599,"lon":5.43975,"is_reserved":false,"is_disabled":false,"rental_uris":{"android":"levelo://app?vid=a1676a90-aeae-4e28-8472-3e88e730a66f","ios":"levelo://app?vid=a1676a90-aeae-4e28-8472-3e88e730a66f"},"vehicle_type_id":"4","last_reported":1753456344,"current_range_meters":10800,"station_id":"","pricing_plan_id":"cebpf4jnsgd1na2vs0mg"},{"bike_id":"d68f3124-e473-42d9-93d7-0d6c6613e4e0","system_id":"levelo_inurba_marseille","lat":43.28845,"lon":5.35857,"is_reserved":false,"is_disabled":false,"rental_uris":{"android":"levelo://app?vid=d68f3124-e473-42d9-93d7-0d6c6613e4e0","ios":"levelo://app?vid=d68f3124-e473-42d9-93d7-0d6c6613e4e0"},"vehicle_type_id":"4","last_reported":1753456344,"current_range_meters":10800,"station_id":"ce4bhb12rcd13ifvqem0","pricing_plan_id":"cebpf4jnsgd1na2vs0mg"},{"bike_id":"f5946966-362d-4482-95cd-26bc2fe9dcf5","system_id":"levelo_inurba_marseille","lat":43.2937,"lon":5.37846,"is_reserved":false,"is_disabled":false,"rental_uris":{"android":"levelo://app?vid=f5946966-362d-4482-95cd-26bc2fe9dcf5","ios":"levelo://app?vid=f5946966-362d-4482-95cd-26bc2fe9dcf5"},"vehicle_type_id":"4","last_reported":1753456344,"current_range_meters":10000,"station_id":"ce4bgjh2rcd13ifvqbf0","pricing_plan_id":"cebpf4jnsgd1na2vs0mg"},{"bike_id":"42e541a3-11e3-4d98-a9ec-6dd63fb4199b","system_id":"levelo_inurba_marseille","lat":43.30378,"lon":5.42479,"is_reserved":false,"is_disabled":false,"rental_uris":{"android":"levelo://app?vid=42e541a3-11e3-4d98-a9ec-6dd63fb4199b","ios":"levelo://app?vid=42e541a3-11e3-4d98-a9ec-6dd63fb4199b"},"vehicle_type_id":"4","last_reported":1753456344,"current_range_meters":10800,"station_id":"ce4bhoh2rcd13ifvqh6g","pricing_plan_id":"cebpf4jnsgd1na2vs0mg"},{"bike_id":"3ce7d5bf-f389-46e3-bb8d-c1e3250ca207","system_id":"levelo_inurba_marseille","lat":43.28275,"lon":5.35072,"is_reserved":false,"is_disabled":false,"rental_uris":{"android":"levelo://app?vid=3ce7d5bf-f389-46e3-bb8d-c1e3250ca207","ios":"levelo://app?vid=3ce7d5bf-f389-46e3-bb8d-c1e3250ca207"},"vehicle_type_id":"4","last_reported":1753456344,"current_range_meters":10800,"station_id":"ce4bhbp2rcd13ifvqerg","pricing_plan_id":"cebpf4jnsgd1na2vs0mg"},{"bike_id":"ff30a5ee-0e9d-4bfa-a593-c7beaf9df463","system_id":"levelo_inurba_marseille","lat":43.3354,"lon":5.36206,"is_reserved":false,"is_disabled":false,"rental_uris":{"android":"levelo://app?vid=ff30a5ee-0e9d-4bfa-a593-c7beaf9df463","ios":"levelo://app?vid=ff30a5ee-0e9d-4bfa-a593-c7beaf9df463"},"vehicle_type_id":"4","last_reported":1753456344,"current_range_meters":10800,"station_id":"","pricing_plan_id":"cebpf4jnsgd1na2vs0mg"},{"bike_id":"d8290ade-5879-497a-ba9b-245a29ea8983","system_id":"levelo_inurba_marseille","lat":43.287957,"lon":5.353347,"is_reserved":false,"is_disabled":false,"rental_uris":{"android":"levelo://app?vid=d8290ade-5879-497a-ba9b-245a29ea8983","ios":"levelo://app?vid=d8290ade-5879-497a-ba9b-245a29ea8983"},"vehicle_type_id":"4","last_reported":1753456344,"current_range_meters":10800,"station_id":"ce4bhb92rcd13ifvqen0","pricing_plan_id":"cebpf4jnsgd1na2vs0mg"},{"bike_id":"8dc4a58a-6cfa-489a-9e0b-5c4cf89f6e9a","system_id":"levelo_inurba_marseille","lat":43.26554,"lon":5.37285,"is_reserved":false,"is_disabled":false,"rental_uris":{"android":"levelo://app?vid=8dc4a58a-6cfa-489a-9e0b-5c4cf89f6e9a","ios":"levelo://app?vid=8dc4a58a-6cfa-489a-9e0b-5c4cf89f6e9a"},"vehicle_type_id":"4","last_reported":1753456344,"current_range_meters":11200,"station_id":"ce4bhg12rcd13ifvqf70","pricing_plan_id":"cebpf4jnsgd1na2vs0mg"},{"bike_id":"33f82924-5acb-458e-bffa-9a270a37ed22","system_id":"levelo_inurba_marseille","lat":43.28154,"lon":5.4264,"is_reserved":false,"is_disabled":false,"rental_uris":{"android":"levelo://app?vid=33f82924-5acb-458e-bffa-9a270a37ed22","ios":"levelo://app?vid=33f82924-5acb-458e-bffa-9a270a37ed22"},"vehicle_type_id":"4","last_reported":1753456344,"current_range_meters":10800,"station_id":"ce4bhnh2rcd13ifvqgug","pricing_plan_id":"cebpf4jnsgd1na2vs0mg"},{"bike_id":"cf13e97a-0b49-4675-9d13-8998213f35ab","system_id":"levelo_inurba_marseille","lat":43.27814,"lon":5.40717,"is_reserved":false,"is_disabled":false,"rental_uris":{"android":"levelo://app?vid=cf13e97a-0b49-4675-9d13-8998213f35ab","ios":"levelo://app?vid=cf13e97a-0b49-4675-9d13-8998213f35ab"},"vehicle_type_id":"4","last_reported":1753456344,"current_range_meters":10000,"station_id":"ce4bhnh2rcd13ifvqgtg","pricing_plan_id":"cebpf4jnsgd1na2vs0mg"},{"bike_id":"f8675083-8ec4-4d15-b87e-bb22cb12616f","system_id":"levelo_inurba_marseille","lat":43.32118,"lon":5.36759,"is_reserved":false,"is_disabled":false,"rental_uris":{"android":"levelo://app?vid=f8675083-8ec4-4d15-b87e-bb22cb12616f","ios":"levelo://app?vid=f8675083-8ec4-4d15-b87e-bb22cb12616f"},"vehicle_type_id":"4","last_reported":1753456344,"current_range_meters":11200,"station_id":"ce4bhrh2rcd13ifvqhug","pricing_plan_id":"cebpf4jnsgd1na2vs0mg"},{"bike_id":"6f025ee8-3ce4-48ff-afbb-05d349b1be40","system_id":"levelo_inurba_marseille","lat":43.313678,"lon":5.367107,"is_reserved":false,"is_disabled":false,"rental_uris":{"android":"levelo://app?vid=6f025ee8-3ce4-48ff-afbb-05d349b1be40","ios":"levelo://app?vid=6f025ee8-3ce4-48ff-afbb-05d349b1be40"},"vehicle_type_id":"4","last_reported":1753456344,"current_range_meters":11200,"station_id":"ce4bgr92rcd13ifvqc6g","pricing_plan_id":"cebpf4jnsgd1na2vs0mg"},{"bike_id":"6aee0e72-1303-4f7b-b13a-045646186055","system_id":"levelo_inurba_marseille","lat":43.23193,"lon":5.35551,"is_reserved":false,"is_disabled":false,"rental_uris":{"android":"levelo://app?vid=6aee0e72-1303-4f7b-b13a-045646186055","ios":"levelo://app?vid=6aee0e72-1303-4f7b-b13a-045646186055"},"vehicle_type_id":"4","last_reported":1753456344,"current_range_meters":11200,"station_id":"ce4bhu92rcd13ifvqi70","pricing_plan_id":"cebpf4jnsgd1na2vs0mg"},{"bike_id":"f7623b57-5f88-4ef7-8535-1d8b44f90d27","system_id":"levelo_inurba_marseille","lat":43.22515,"lon":5.3477,"is_reserved":false,"is_disabled":false,"rental_uris":{"android":"levelo://app?vid=f7623b57-5f88-4ef7-8535-1d8b44f90d27","ios":"levelo://app?vid=f7623b57-5f88-4ef7-8535-1d8b44f90d27"},"vehicle_type_id":"4","last_reported":1753456344,"current_range_meters":11200,"station_id":"","pricing_plan_id":"cebpf4jnsgd1na2vs0mg"},{"bike_id":"ac7f3c2f-452c-4620-beb4-96f9c8da3434","system_id":"levelo_inurba_marseille","lat":43.30626,"lon":5.38493,"is_reserved":false,"is_disabled":false,"rental_uris":{"android":"levelo://app?vid=ac7f3c2f-452c-4620-beb4-96f9c8da3434","ios":"levelo://app?vid=ac7f3c2f-452c-4620-beb4-96f9c8da3434"},"vehicle_type_id":"4","last_reported":1753456344,"current_range_meters":11200,"station_id":"","pricing_plan_id":"cebpf4jnsgd1na2vs0mg"},{"bike_id":"79079a9a-8322-4f6c-a9e6-9aba90ee17ba","system_id":"levelo_inurba_marseille","lat":43.33745,"lon":5.37376,"is_reserved":false,"is_disabled":false,"rental_uris":{"android":"levelo://app?vid=79079a9a-8322-4f6c-a9e6-9aba90ee17ba","ios":"levelo://app?vid=79079a9a-8322-4f6c-a9e6-9aba90ee17ba"},"vehicle_type_id":"4","last_reported":1753456344,"current_range_meters":11200,"station_id":"","pricing_plan_id":"cebpf4jnsgd1na2vs0mg"},{"bike_id":"35ee41ab-1155-4c5d-a3ff-d1e05b86be8c","system_id":"levelo_inurba_marseille","lat":43.31302,"lon":5.431432,"is_reserved":false,"is_disabled":false,"rental_uris":{"android":"levelo://app?vid=35ee41ab-1155-4c5d-a3ff-d1e05b86be8c","ios":"levelo://app?vid=35ee41ab-1155-4c5d-a3ff-d1e05b86be8c"},"vehicle_type_id":"4","last_reported":1753456344,"current_range_meters":11200,"station_id":"","pricing_plan_id":"cebpf4jnsgd1na2vs0mg"},{"bike_id":"52234233-a777-4a16-921c-119f07f2120c","system_id":"levelo_inurba_marseille","lat":43.31128,"lon":5.3777,"is_reserved":false,"is_disabled":false,"rental_uris":{"android":"levelo://app?vid=52234233-a777-4a16-921c-119f07f2120c","ios":"levelo://app?vid=52234233-a777-4a16-921c-119f07f2120c"},"vehicle_type_id":"4","last_reported":1753456344,"current_range_meters":11200,"station_id":"ce4bgt92rcd13ifvqcg0","pricing_plan_id":"cebpf4jnsgd1na2vs0mg"},{"bike_id":"14e765dc-32a8-40b1-b1a3-b9724fcb5353","system_id":"levelo_inurba_marseille","lat":43.29581,"lon":5.37509,"is_reserved":false,"is_disabled":false,"rental_uris":{"android":"levelo://app?vid=14e765dc-32a8-40b1-b1a3-b9724fcb5353","ios":"levelo://app?vid=14e765dc-32a8-40b1-b1a3-b9724fcb5353"},"vehicle_type_id":"4","last_reported":1753456344,"current_range_meters":11200,"station_id":"ce4bgh92rcd13ifvqb50","pricing_plan_id":"cebpf4jnsgd1na2vs0mg"},{"bike_id":"b0642f06-95ff-41f6-9f4a-0722c8309d1c","system_id":"levelo_inurba_marseille","lat":43.26886,"lon":5.36871,"is_reserved":false,"is_disabled":false,"rental_uris":{"android":"levelo://app?vid=b0642f06-95ff-41f6-9f4a-0722c8309d1c","ios":"levelo://app?vid=b0642f06-95ff-41f6-9f4a-0722c8309d1c"},"vehicle_type_id":"4","last_reported":1753456344,"current_range_meters":11600,"station_id":"","pricing_plan_id":"cebpf4jnsgd1na2vs0mg"},{"bike_id":"3e625983-3cff-465f-8a2c-a44d3494af54","system_id":"levelo_inurba_marseille","lat":43.3189,"lon":5.4073,"is_reserved":false,"is_disabled":false,"rental_uris":{"android":"levelo://app?vid=3e625983-3cff-465f-8a2c-a44d3494af54","ios":"levelo://app?vid=3e625983-3cff-465f-8a2c-a44d3494af54"},"vehicle_type_id":"4","last_reported":1753456344,"current_range_meters":11600,"station_id":"ce4bhq12rcd13ifvqhig","pricing_plan_id":"cebpf4jnsgd1na2vs0mg"},{"bike_id":"554f3a30-25c7-4007-a3d5-e4f3c49c7beb","system_id":"levelo_inurba_marseille","lat":43.32352,"lon":5.36627,"is_reserved":false,"is_disabled":false,"rental_uris":{"android":"levelo://app?vid=554f3a30-25c7-4007-a3d5-e4f3c49c7beb","ios":"levelo://app?vid=554f3a30-25c7-4007-a3d5-e4f3c49c7beb"},"vehicle_type_id":"4","last_reported":1753456344,"current_range_meters":11600,"station_id":"","pricing_plan_id":"cebpf4jnsgd1na2vs0mg"},{"bike_id":"02322836-2c70-49a5-8ffd-dcb48f337f33","system_id":"levelo_inurba_marseille","lat":43.27907,"lon":5.38016,"is_reserved":false,"is_disabled":false,"rental_uris":{"android":"levelo://app?vid=02322836-2c70-49a5-8ffd-dcb48f337f33","ios":"levelo://app?vid=02322836-2c70-49a5-8ffd-dcb48f337f33"},"vehicle_type_id":"4","last_reported":1753456344,"current_range_meters":11200,"station_id":"ce4bhf92rcd13ifvqf50","pricing_plan_id":"cebpf4jnsgd1na2vs0mg"},{"bike_id":"f9b4831c-e725-4aef-9c49-00e00576ae82","system_id":"levelo_inurba_marseille","lat":43.270714,"lon":5.422795,"is_reserved":false,"is_disabled":false,"rental_uris":{"android":"levelo://app?vid=f9b4831c-e725-4aef-9c49-00e00576ae82","ios":"levelo://app?vid=f9b4831c-e725-4aef-9c49-00e00576ae82"},"vehicle_type_id":"4","last_reported":1753456344,"current_range_meters":12000,"station_id":"ce4bhk92rcd13ifvqgb0","pricing_plan_id":"cebpf4jnsgd1na2vs0mg"},{"bike_id":"1c31f24b-2b9e-48c3-b103-bffd32b92420","system_id":"levelo_inurba_marseille","lat":43.335182,"lon":5.408428,"is_reserved":false,"is_disabled":false,"rental_uris":{"android":"levelo://app?vid=1c31f24b-2b9e-48c3-b103-bffd32b92420","ios":"levelo://app?vid=1c31f24b-2b9e-48c3-b103-bffd32b92420"},"vehicle_type_id":"4","last_reported":1753456344,"current_range_meters":12000,"station_id":"","pricing_plan_id":"cebpf4jnsgd1na2vs0mg"},{"bike_id":"43cf4049-15dd-4e8c-88a8-61cd8dc10bf5","system_id":"levelo_inurba_marseille","lat":43.33417,"lon":5.39803,"is_reserved":false,"is_disabled":false,"rental_uris":{"android":"levelo://app?vid=43cf4049-15dd-4e8c-88a8-61cd8dc10bf5","ios":"levelo://app?vid=43cf4049-15dd-4e8c-88a8-61cd8dc10bf5"},"vehicle_type_id":"4","last_reported":1753456344,"current_range_meters":12000,"station_id":"","pricing_plan_id":"cebpf4jnsgd1na2vs0mg"},{"bike_id":"c44f2e50-2a68-4b48-ad6a-5c0b13edc21c","system_id":"levelo_inurba_marseille","lat":43.2997,"lon":5.41322,"is_reserved":false,"is_disabled":false,"rental_uris":{"android":"levelo://app?vid=c44f2e50-2a68-4b48-ad6a-5c0b13edc21c","ios":"levelo://app?vid=c44f2e50-2a68-4b48-ad6a-5c0b13edc21c"},"vehicle_type_id":"4","last_reported":1753456344,"current_range_meters":12000,"station_id":"ce4bhp12rcd13ifvqh9g","pricing_plan_id":"cebpf4jnsgd1na2vs0mg"},{"bike_id":"775d7352-96b7-4b67-b05a-6e361319c894","system_id":"levelo_inurba_marseille","lat":43.28413,"lon":5.34982,"is_reserved":false,"is_disabled":false,"rental_uris":{"android":"levelo://app?vid=775d7352-96b7-4b67-b05a-6e361319c894","ios":"levelo://app?vid=775d7352-96b7-4b67-b05a-6e361319c894"},"vehicle_type_id":"4","last_reported":1753456344,"current_range_meters":12000,"station_id":"ce4bhbh2rcd13ifvqepg","pricing_plan_id":"cebpf4jnsgd1na2vs0mg"},{"bike_id":"9067c7cd-2e8a-4ff2-b9ba-128ce3753ddc","system_id":"levelo_inurba_marseille","lat":43.28426,"lon":5.34984,"is_reserved":false,"is_disabled":false,"rental_uris":{"android":"levelo://app?vid=9067c7cd-2e8a-4ff2-b9ba-128ce3753ddc","ios":"levelo://app?vid=9067c7cd-2e8a-4ff2-b9ba-128ce3753ddc"},"vehicle_type_id":"4","last_reported":1753456344,"current_range_meters":12000,"station_id":"ce4bhbh2rcd13ifvqepg","pricing_plan_id":"cebpf4jnsgd1na2vs0mg"},{"bike_id":"a803b66c-e084-4452-9da3-9f67d0aa5df6","system_id":"levelo_inurba_marseille","lat":43.28448,"lon":5.39202,"is_reserved":false,"is_disabled":false,"rental_uris":{"android":"levelo://app?vid=a803b66c-e084-4452-9da3-9f67d0aa5df6","ios":"levelo://app?vid=a803b66c-e084-4452-9da3-9f67d0aa5df6"},"vehicle_type_id":"4","last_reported":1753456344,"current_range_meters":12000,"station_id":"ce4bhoh2rcd13ifvqh5g","pricing_plan_id":"cebpf4jnsgd1na2vs0mg"},{"bike_id":"a12459fb-772e-4b74-9514-784297907c96","system_id":"levelo_inurba_marseille","lat":43.27068,"lon":5.42275,"is_reserved":false,"is_disabled":false,"rental_uris":{"android":"levelo://app?vid=a12459fb-772e-4b74-9514-784297907c96","ios":"levelo://app?vid=a12459fb-772e-4b74-9514-784297907c96"},"vehicle_type_id":"4","last_reported":1753456344,"current_range_meters":12000,"station_id":"ce4bhk92rcd13ifvqgb0","pricing_plan_id":"cebpf4jnsgd1na2vs0mg"},{"bike_id":"39102bcb-5620-453b-8d18-14e12d4c89d8","system_id":"levelo_inurba_marseille","lat":43.28691,"lon":5.37408,"is_reserved":false,"is_disabled":false,"rental_uris":{"android":"levelo://app?vid=39102bcb-5620-453b-8d18-14e12d4c89d8","ios":"levelo://app?vid=39102bcb-5620-453b-8d18-14e12d4c89d8"},"vehicle_type_id":"4","last_reported":1753456344,"current_range_meters":12400,"station_id":"ce4bh3p2rcd13ifvqdq0","pricing_plan_id":"cebpf4jnsgd1na2vs0mg"},{"bike_id":"2a265228-8641-42b2-9832-e93abdd3cd39","system_id":"levelo_inurba_marseille","lat":43.30785,"lon":5.37638,"is_reserved":false,"is_disabled":false,"rental_uris":{"android":"levelo://app?vid=2a265228-8641-42b2-9832-e93abdd3cd39","ios":"levelo://app?vid=2a265228-8641-42b2-9832-e93abdd3cd39"},"vehicle_type_id":"4","last_reported":1753456344,"current_range_meters":12400,"station_id":"ce4bgv92rcd13ifvqcq0","pricing_plan_id":"cebpf4jnsgd1na2vs0mg"},{"bike_id":"772aeb3d-e4a2-4ef3-a3a2-39652b1bb214","system_id":"levelo_inurba_marseille","lat":43.30431,"lon":5.39749,"is_reserved":false,"is_disabled":false,"rental_uris":{"android":"levelo://app?vid=772aeb3d-e4a2-4ef3-a3a2-39652b1bb214","ios":"levelo://app?vid=772aeb3d-e4a2-4ef3-a3a2-39652b1bb214"},"vehicle_type_id":"4","last_reported":1753456344,"current_range_meters":12000,"station_id":"ce4bh092rcd13ifvqd20","pricing_plan_id":"cebpf4jnsgd1na2vs0mg"},{"bike_id":"8872b46c-76b1-4305-b62f-2a88635c489b","system_id":"levelo_inurba_marseille","lat":43.24795,"lon":5.37434,"is_reserved":false,"is_disabled":false,"rental_uris":{"android":"levelo://app?vid=8872b46c-76b1-4305-b62f-2a88635c489b","ios":"levelo://app?vid=8872b46c-76b1-4305-b62f-2a88635c489b"},"vehicle_type_id":"4","last_reported":1753456344,"current_range_meters":12400,"station_id":"ce4bhgh2rcd13ifvqfb0","pricing_plan_id":"cebpf4jnsgd1na2vs0mg"},{"bike_id":"161be832-5be2-47dd-a773-b75e2c19b3aa","system_id":"levelo_inurba_marseille","lat":43.29791,"lon":5.38102,"is_reserved":false,"is_disabled":false,"rental_uris":{"android":"levelo://app?vid=161be832-5be2-47dd-a773-b75e2c19b3aa","ios":"levelo://app?vid=161be832-5be2-47dd-a773-b75e2c19b3aa"},"vehicle_type_id":"4","last_reported":1753456344,"current_range_meters":12400,"station_id":"ce4bgip2rcd13ifvqbb0","pricing_plan_id":"cebpf4jnsgd1na2vs0mg"},{"bike_id":"34a2e458-d2d9-4dd2-8286-a0218386a409","system_id":"levelo_inurba_marseille","lat":43.27383,"lon":5.36257,"is_reserved":false,"is_disabled":false,"rental_uris":{"android":"levelo://app?vid=34a2e458-d2d9-4dd2-8286-a0218386a409","ios":"levelo://app?vid=34a2e458-d2d9-4dd2-8286-a0218386a409"},"vehicle_type_id":"4","last_reported":1753456344,"current_range_meters":12800,"station_id":"ce4bhbh2rcd13ifvqeo0","pricing_plan_id":"cebpf4jnsgd1na2vs0mg"},{"bike_id":"462912ea-bb61-4602-ab2e-0daf4e63b1a5","system_id":"levelo_inurba_marseille","lat":43.29884,"lon":5.38923,"is_reserved":false,"is_disabled":false,"rental_uris":{"android":"levelo://app?vid=462912ea-bb61-4602-ab2e-0daf4e63b1a5","ios":"levelo://app?vid=462912ea-bb61-4602-ab2e-0daf4e63b1a5"},"vehicle_type_id":"4","last_reported":1753456344,"current_range_meters":12400,"station_id":"ce4bh392rcd13ifvqdl0","pricing_plan_id":"cebpf4jnsgd1na2vs0mg"},{"bike_id":"71258c65-3dee-4a65-a037-dcda1783505a","system_id":"levelo_inurba_marseille","lat":43.31489,"lon":5.36912,"is_reserved":false,"is_disabled":false,"rental_uris":{"android":"levelo://app?vid=71258c65-3dee-4a65-a037-dcda1783505a","ios":"levelo://app?vid=71258c65-3dee-4a65-a037-dcda1783505a"},"vehicle_type_id":"4","last_reported":1753456344,"current_range_meters":12800,"station_id":"","pricing_plan_id":"cebpf4jnsgd1na2vs0mg"},{"bike_id":"490fd0a3-3ae2-4135-acff-5c94025f5f04","system_id":"levelo_inurba_marseille","lat":43.27923,"lon":5.39566,"is_reserved":false,"is_disabled":true,"rental_uris":{"android":"levelo://app?vid=490fd0a3-3ae2-4135-acff-5c94025f5f04","ios":"levelo://app?vid=490fd0a3-3ae2-4135-acff-5c94025f5f04"},"vehicle_type_id":"4","last_reported":1753456344,"current_range_meters":12800,"station_id":"ce4bhf92rcd13ifvqf40","pricing_plan_id":"cebpf4jnsgd1na2vs0mg"},{"bike_id":"bfefc726-83af-43c0-b035-ae3ba1d65ffa","system_id":"levelo_inurba_marseille","lat":43.28161,"lon":5.42637,"is_reserved":false,"is_disabled":false,"rental_uris":{"android":"levelo://app?vid=bfefc726-83af-43c0-b035-ae3ba1d65ffa","ios":"levelo://app?vid=bfefc726-83af-43c0-b035-ae3ba1d65ffa"},"vehicle_type_id":"4","last_reported":1753456344,"current_range_meters":12800,"station_id":"ce4bhnh2rcd13ifvqgug","pricing_plan_id":"cebpf4jnsgd1na2vs0mg"},{"bike_id":"5440a182-b760-4205-92c8-d9ab0a9c67c8","system_id":"levelo_inurba_marseille","lat":43.28423,"lon":5.34983,"is_reserved":false,"is_disabled":true,"rental_uris":{"android":"levelo://app?vid=5440a182-b760-4205-92c8-d9ab0a9c67c8","ios":"levelo://app?vid=5440a182-b760-4205-92c8-d9ab0a9c67c8"},"vehicle_type_id":"4","last_reported":1753456344,"current_range_meters":13600,"station_id":"ce4bhbh2rcd13ifvqepg","pricing_plan_id":"cebpf4jnsgd1na2vs0mg"},{"bike_id":"078febbd-6d49-4abf-8b46-d33f87f8da46","system_id":"levelo_inurba_marseille","lat":43.25458,"lon":5.3798,"is_reserved":false,"is_disabled":false,"rental_uris":{"android":"levelo://app?vid=078febbd-6d49-4abf-8b46-d33f87f8da46","ios":"levelo://app?vid=078febbd-6d49-4abf-8b46-d33f87f8da46"},"vehicle_type_id":"4","last_reported":1753456344,"current_range_meters":13600,"station_id":"","pricing_plan_id":"cebpf4jnsgd1na2vs0mg"},{"bike_id":"fe39a6a1-a1ae-4536-a4a0-ea1534e73ed3","system_id":"levelo_inurba_marseille","lat":43.2694,"lon":5.40254,"is_reserved":false,"is_disabled":false,"rental_uris":{"android":"levelo://app?vid=fe39a6a1-a1ae-4536-a4a0-ea1534e73ed3","ios":"levelo://app?vid=fe39a6a1-a1ae-4536-a4a0-ea1534e73ed3"},"vehicle_type_id":"4","last_reported":1753456344,"current_range_meters":13600,"station_id":"cjm6bp8fraef2m0cb0m0","pricing_plan_id":"cebpf4jnsgd1na2vs0mg"},{"bike_id":"591fb768-7e78-4b54-88b5-e73a5af76b19","system_id":"levelo_inurba_marseille","lat":43.22921,"lon":5.353697,"is_reserved":false,"is_disabled":false,"rental_uris":{"android":"levelo://app?vid=591fb768-7e78-4b54-88b5-e73a5af76b19","ios":"levelo://app?vid=591fb768-7e78-4b54-88b5-e73a5af76b19"},"vehicle_type_id":"4","last_reported":1753456344,"current_range_meters":13600,"station_id":"cpo3532slgdg3j2ikp40","pricing_plan_id":"cebpf4jnsgd1na2vs0mg"},{"bike_id":"c017b4de-074c-46ed-bc0a-5b7912813135","system_id":"levelo_inurba_marseille","lat":43.26094,"lon":5.37327,"is_reserved":false,"is_disabled":false,"rental_uris":{"android":"levelo://app?vid=c017b4de-074c-46ed-bc0a-5b7912813135","ios":"levelo://app?vid=c017b4de-074c-46ed-bc0a-5b7912813135"},"vehicle_type_id":"4","last_reported":1753456344,"current_range_meters":13600,"station_id":"","pricing_plan_id":"cebpf4jnsgd1na2vs0mg"},{"bike_id":"46154337-3a0d-4f3c-807c-11c4bca6ecf8","system_id":"levelo_inurba_marseille","lat":43.29161,"lon":5.37161,"is_reserved":false,"is_disabled":false,"rental_uris":{"android":"levelo://app?vid=46154337-3a0d-4f3c-807c-11c4bca6ecf8","ios":"levelo://app?vid=46154337-3a0d-4f3c-807c-11c4bca6ecf8"},"vehicle_type_id":"4","last_reported":1753456344,"current_range_meters":12400,"station_id":"ce4bha92rcd13ifvqeh0","pricing_plan_id":"cebpf4jnsgd1na2vs0mg"},{"bike_id":"c35598f9-aa35-41a4-8681-4535ebe3cac5","system_id":"levelo_inurba_marseille","lat":43.29449,"lon":5.3975,"is_reserved":false,"is_disabled":false,"rental_uris":{"android":"levelo://app?vid=c35598f9-aa35-41a4-8681-4535ebe3cac5","ios":"levelo://app?vid=c35598f9-aa35-41a4-8681-4535ebe3cac5"},"vehicle_type_id":"4","last_reported":1753456344,"current_range_meters":13600,"station_id":"ce4bh3h2rcd13ifvqdo0","pricing_plan_id":"cebpf4jnsgd1na2vs0mg"},{"bike_id":"6086a5aa-6907-4da8-83af-2b0b3fd903ec","system_id":"levelo_inurba_marseille","lat":43.27997,"lon":5.40013,"is_reserved":false,"is_disabled":false,"rental_uris":{"android":"levelo://app?vid=6086a5aa-6907-4da8-83af-2b0b3fd903ec","ios":"levelo://app?vid=6086a5aa-6907-4da8-83af-2b0b3fd903ec"},"vehicle_type_id":"4","last_reported":1753456344,"current_range_meters":14800,"station_id":"ce4bho92rcd13ifvqh4g","pricing_plan_id":"cebpf4jnsgd1na2vs0mg"},{"bike_id":"12f1ccbe-caad-447a-81e6-68f78b4f48b3","system_id":"levelo_inurba_marseille","lat":43.2862,"lon":5.35101,"is_reserved":false,"is_disabled":false,"rental_uris":{"android":"levelo://app?vid=12f1ccbe-caad-447a-81e6-68f78b4f48b3","ios":"levelo://app?vid=12f1ccbe-caad-447a-81e6-68f78b4f48b3"},"vehicle_type_id":"4","last_reported":1753456344,"current_range_meters":14000,"station_id":"ce4bhch2rcd13ifvqeug","pricing_plan_id":"cebpf4jnsgd1na2vs0mg"},{"bike_id":"3905a451-3ca5-4c8d-992c-e76d7da42101","system_id":"levelo_inurba_marseille","lat":43.28291,"lon":5.35012,"is_reserved":false,"is_disabled":false,"rental_uris":{"android":"levelo://app?vid=3905a451-3ca5-4c8d-992c-e76d7da42101","ios":"levelo://app?vid=3905a451-3ca5-4c8d-992c-e76d7da42101"},"vehicle_type_id":"4","last_reported":1753456344,"current_range_meters":14000,"station_id":"ce4bhbp2rcd13ifvqerg","pricing_plan_id":"cebpf4jnsgd1na2vs0mg"},{"bike_id":"ccca3042-9358-40fc-ac03-e327e01c225f","system_id":"levelo_inurba_marseille","lat":43.23291,"lon":5.36105,"is_reserved":false,"is_disabled":false,"rental_uris":{"android":"levelo://app?vid=ccca3042-9358-40fc-ac03-e327e01c225f","ios":"levelo://app?vid=ccca3042-9358-40fc-ac03-e327e01c225f"},"vehicle_type_id":"4","last_reported":1753456344,"current_range_meters":14000,"station_id":"","pricing_plan_id":"cebpf4jnsgd1na2vs0mg"},{"bike_id":"a3fe9995-2e3e-423b-9540-429a92fa997e","system_id":"levelo_inurba_marseille","lat":43.30194,"lon":5.3722,"is_reserved":false,"is_disabled":false,"rental_uris":{"android":"levelo://app?vid=a3fe9995-2e3e-423b-9540-429a92fa997e","ios":"levelo://app?vid=a3fe9995-2e3e-423b-9540-429a92fa997e"},"vehicle_type_id":"4","last_reported":1753456344,"current_range_meters":14000,"station_id":"","pricing_plan_id":"cebpf4jnsgd1na2vs0mg"},{"bike_id":"d7386c13-20f4-4e5a-93d5-26ad3b029120","system_id":"levelo_inurba_marseille","lat":43.30143,"lon":5.38059,"is_reserved":false,"is_disabled":false,"rental_uris":{"android":"levelo://app?vid=d7386c13-20f4-4e5a-93d5-26ad3b029120","ios":"levelo://app?vid=d7386c13-20f4-4e5a-93d5-26ad3b029120"},"vehicle_type_id":"4","last_reported":1753456344,"current_range_meters":14000,"station_id":"ce4bgjp2rcd13ifvqbh0","pricing_plan_id":"cebpf4jnsgd1na2vs0mg"},{"bike_id":"30877ab0-f801-4495-9f92-895f7b54e0cc","system_id":"levelo_inurba_marseille","lat":43.30556,"lon":5.36545,"is_reserved":false,"is_disabled":false,"rental_uris":{"android":"levelo://app?vid=30877ab0-f801-4495-9f92-895f7b54e0cc","ios":"levelo://app?vid=30877ab0-f801-4495-9f92-895f7b54e0cc"},"vehicle_type_id":"4","last_reported":1753456344,"current_range_meters":14000,"station_id":"ce4bgs12rcd13ifvqcag","pricing_plan_id":"cebpf4jnsgd1na2vs0mg"},{"bike_id":"e01c5a77-f29e-47a9-a4d6-e249613a7adc","system_id":"levelo_inurba_marseille","lat":43.2841,"lon":5.34987,"is_reserved":false,"is_disabled":false,"rental_uris":{"android":"levelo://app?vid=e01c5a77-f29e-47a9-a4d6-e249613a7adc","ios":"levelo://app?vid=e01c5a77-f29e-47a9-a4d6-e249613a7adc"},"vehicle_type_id":"4","last_reported":1753456344,"current_range_meters":14400,"station_id":"ce4bhbh2rcd13ifvqepg","pricing_plan_id":"cebpf4jnsgd1na2vs0mg"},{"bike_id":"14290dc3-0ecb-4c09-bf2e-6db4a8e35188","system_id":"levelo_inurba_marseille","lat":43.243884,"lon":5.370652,"is_reserved":false,"is_disabled":false,"rental_uris":{"android":"levelo://app?vid=14290dc3-0ecb-4c09-bf2e-6db4a8e35188","ios":"levelo://app?vid=14290dc3-0ecb-4c09-bf2e-6db4a8e35188"},"vehicle_type_id":"4","last_reported":1753456344,"current_range_meters":14400,"station_id":"ce4bhhh2rcd13ifvqfk0","pricing_plan_id":"cebpf4jnsgd1na2vs0mg"},{"bike_id":"a8f8c7b3-2c86-4089-8f4c-4aab74c0e546","system_id":"levelo_inurba_marseille","lat":43.299652,"lon":5.384818,"is_reserved":false,"is_disabled":false,"rental_uris":{"android":"levelo://app?vid=a8f8c7b3-2c86-4089-8f4c-4aab74c0e546","ios":"levelo://app?vid=a8f8c7b3-2c86-4089-8f4c-4aab74c0e546"},"vehicle_type_id":"4","last_reported":1753456344,"current_range_meters":14400,"station_id":"ce4bgj92rcd13ifvqbd0","pricing_plan_id":"cebpf4jnsgd1na2vs0mg"},{"bike_id":"45919cfe-4302-488b-8296-1458eac6db93","system_id":"levelo_inurba_marseille","lat":43.29079,"lon":5.39905,"is_reserved":false,"is_disabled":true,"rental_uris":{"android":"levelo://app?vid=45919cfe-4302-488b-8296-1458eac6db93","ios":"levelo://app?vid=45919cfe-4302-488b-8296-1458eac6db93"},"vehicle_type_id":"4","last_reported":1753456344,"current_range_meters":14800,"station_id":"","pricing_plan_id":"cebpf4jnsgd1na2vs0mg"},{"bike_id":"d6b834d9-5f4f-445c-9a8d-5ea38c349287","system_id":"levelo_inurba_marseille","lat":43.21758,"lon":5.34604,"is_reserved":false,"is_disabled":false,"rental_uris":{"android":"levelo://app?vid=d6b834d9-5f4f-445c-9a8d-5ea38c349287","ios":"levelo://app?vid=d6b834d9-5f4f-445c-9a8d-5ea38c349287"},"vehicle_type_id":"4","last_reported":1753456344,"current_range_meters":14800,"station_id":"st_cvj6r9ubvosntc0bgbag","pricing_plan_id":"cebpf4jnsgd1na2vs0mg"},{"bike_id":"22abd279-ac3d-4b7c-8221-b68bbacaab0e","system_id":"levelo_inurba_marseille","lat":43.26215,"lon":5.374427,"is_reserved":false,"is_disabled":false,"rental_uris":{"android":"levelo://app?vid=22abd279-ac3d-4b7c-8221-b68bbacaab0e","ios":"levelo://app?vid=22abd279-ac3d-4b7c-8221-b68bbacaab0e"},"vehicle_type_id":"4","last_reported":1753456344,"current_range_meters":15200,"station_id":"ce4bhgp2rcd13ifvqfc0","pricing_plan_id":"cebpf4jnsgd1na2vs0mg"},{"bike_id":"998111db-eeca-4c77-9e0c-e081b470aa34","system_id":"levelo_inurba_marseille","lat":43.27806,"lon":5.40718,"is_reserved":false,"is_disabled":false,"rental_uris":{"android":"levelo://app?vid=998111db-eeca-4c77-9e0c-e081b470aa34","ios":"levelo://app?vid=998111db-eeca-4c77-9e0c-e081b470aa34"},"vehicle_type_id":"4","last_reported":1753456344,"current_range_meters":15200,"station_id":"ce4bhnh2rcd13ifvqgtg","pricing_plan_id":"cebpf4jnsgd1na2vs0mg"},{"bike_id":"5484d3cd-0ae2-49aa-ab1c-347958bb1b89","system_id":"levelo_inurba_marseille","lat":43.30566,"lon":5.3652,"is_reserved":false,"is_disabled":false,"rental_uris":{"android":"levelo://app?vid=5484d3cd-0ae2-49aa-ab1c-347958bb1b89","ios":"levelo://app?vid=5484d3cd-0ae2-49aa-ab1c-347958bb1b89"},"vehicle_type_id":"4","last_reported":1753456344,"current_range_meters":15200,"station_id":"ce4bgs12rcd13ifvqcag","pricing_plan_id":"cebpf4jnsgd1na2vs0mg"},{"bike_id":"f6177b34-6f67-445e-ae37-0eaa5b52634b","system_id":"levelo_inurba_marseille","lat":43.22925,"lon":5.35398,"is_reserved":false,"is_disabled":false,"rental_uris":{"android":"levelo://app?vid=f6177b34-6f67-445e-ae37-0eaa5b52634b","ios":"levelo://app?vid=f6177b34-6f67-445e-ae37-0eaa5b52634b"},"vehicle_type_id":"4","last_reported":1753456344,"current_range_meters":15200,"station_id":"cpo3532slgdg3j2ikp40","pricing_plan_id":"cebpf4jnsgd1na2vs0mg"},{"bike_id":"934a6ce2-824d-47d4-8dc1-8d233e64ed57","system_id":"levelo_inurba_marseille","lat":43.33024,"lon":5.39039,"is_reserved":false,"is_disabled":false,"rental_uris":{"android":"levelo://app?vid=934a6ce2-824d-47d4-8dc1-8d233e64ed57","ios":"levelo://app?vid=934a6ce2-824d-47d4-8dc1-8d233e64ed57"},"vehicle_type_id":"4","last_reported":1753456344,"current_range_meters":15200,"station_id":"ce4bhr92rcd13ifvqhrg","pricing_plan_id":"cebpf4jnsgd1na2vs0mg"},{"bike_id":"2be141aa-a9ae-4970-b832-414e7517e155","system_id":"levelo_inurba_marseille","lat":43.28572,"lon":5.394929,"is_reserved":false,"is_disabled":false,"rental_uris":{"android":"levelo://app?vid=2be141aa-a9ae-4970-b832-414e7517e155","ios":"levelo://app?vid=2be141aa-a9ae-4970-b832-414e7517e155"},"vehicle_type_id":"4","last_reported":1753456344,"current_range_meters":15200,"station_id":"ce4bh292rcd13ifvqdg0","pricing_plan_id":"cebpf4jnsgd1na2vs0mg"},{"bike_id":"21c19dff-1b93-4e54-a147-5848498b8098","system_id":"levelo_inurba_marseille","lat":43.31529,"lon":5.38026,"is_reserved":false,"is_disabled":false,"rental_uris":{"android":"levelo://app?vid=21c19dff-1b93-4e54-a147-5848498b8098","ios":"levelo://app?vid=21c19dff-1b93-4e54-a147-5848498b8098"},"vehicle_type_id":"4","last_reported":1753456344,"current_range_meters":14800,"station_id":"ce4bhsp2rcd13ifvqi50","pricing_plan_id":"cebpf4jnsgd1na2vs0mg"},{"bike_id":"adff2804-2b4d-4f8e-ab5c-b81cc65f8320","system_id":"levelo_inurba_marseille","lat":43.31689,"lon":5.37751,"is_reserved":false,"is_disabled":false,"rental_uris":{"android":"levelo://app?vid=adff2804-2b4d-4f8e-ab5c-b81cc65f8320","ios":"levelo://app?vid=adff2804-2b4d-4f8e-ab5c-b81cc65f8320"},"vehicle_type_id":"4","last_reported":1753456344,"current_range_meters":15200,"station_id":"ce4bgth2rcd13ifvqch0","pricing_plan_id":"cebpf4jnsgd1na2vs0mg"},{"bike_id":"f3874552-67ae-42b2-8118-9593cfbe8355","system_id":"levelo_inurba_marseille","lat":43.24173,"lon":5.3638,"is_reserved":false,"is_disabled":false,"rental_uris":{"android":"levelo://app?vid=f3874552-67ae-42b2-8118-9593cfbe8355","ios":"levelo://app?vid=f3874552-67ae-42b2-8118-9593cfbe8355"},"vehicle_type_id":"4","last_reported":1753456344,"current_range_meters":16000,"station_id":"cpo36qri1sfpv3e86is0","pricing_plan_id":"cebpf4jnsgd1na2vs0mg"},{"bike_id":"22dca147-1260-44d8-822d-d9d1d50cce31","system_id":"levelo_inurba_marseille","lat":43.27473,"lon":5.396,"is_reserved":false,"is_disabled":false,"rental_uris":{"android":"levelo://app?vid=22dca147-1260-44d8-822d-d9d1d50cce31","ios":"levelo://app?vid=22dca147-1260-44d8-822d-d9d1d50cce31"},"vehicle_type_id":"4","last_reported":1753456344,"current_range_meters":16000,"station_id":"","pricing_plan_id":"cebpf4jnsgd1na2vs0mg"},{"bike_id":"325601ca-b159-4df0-a3af-69e7d5a7d645","system_id":"levelo_inurba_marseille","lat":43.28611,"lon":5.37063,"is_reserved":false,"is_disabled":false,"rental_uris":{"android":"levelo://app?vid=325601ca-b159-4df0-a3af-69e7d5a7d645","ios":"levelo://app?vid=325601ca-b159-4df0-a3af-69e7d5a7d645"},"vehicle_type_id":"4","last_reported":1753456344,"current_range_meters":16000,"station_id":"ce4bht12rcd13ifvqi60","pricing_plan_id":"cebpf4jnsgd1na2vs0mg"},{"bike_id":"44b406b4-2cb6-4c28-bd48-185bd835f4e2","system_id":"levelo_inurba_marseille","lat":43.21757,"lon":5.34638,"is_reserved":false,"is_disabled":false,"rental_uris":{"android":"levelo://app?vid=44b406b4-2cb6-4c28-bd48-185bd835f4e2","ios":"levelo://app?vid=44b406b4-2cb6-4c28-bd48-185bd835f4e2"},"vehicle_type_id":"4","last_reported":1753456344,"current_range_meters":16000,"station_id":"st_cvj6r9ubvosntc0bgbag","pricing_plan_id":"cebpf4jnsgd1na2vs0mg"},{"bike_id":"9575837e-b363-4708-9b96-c153c5fc2eb1","system_id":"levelo_inurba_marseille","lat":43.3236,"lon":5.36752,"is_reserved":false,"is_disabled":false,"rental_uris":{"android":"levelo://app?vid=9575837e-b363-4708-9b96-c153c5fc2eb1","ios":"levelo://app?vid=9575837e-b363-4708-9b96-c153c5fc2eb1"},"vehicle_type_id":"4","last_reported":1753456344,"current_range_meters":16000,"station_id":"ce4bhsh2rcd13ifvqi2g","pricing_plan_id":"cebpf4jnsgd1na2vs0mg"},{"bike_id":"21a22bc7-65fe-4b97-a005-517b211a0b98","system_id":"levelo_inurba_marseille","lat":43.23052,"lon":5.35488,"is_reserved":false,"is_disabled":false,"rental_uris":{"android":"levelo://app?vid=21a22bc7-65fe-4b97-a005-517b211a0b98","ios":"levelo://app?vid=21a22bc7-65fe-4b97-a005-517b211a0b98"},"vehicle_type_id":"4","last_reported":1753456344,"current_range_meters":16000,"station_id":"cpo3342slgdg3j2ifvpg","pricing_plan_id":"cebpf4jnsgd1na2vs0mg"},{"bike_id":"e4a253ac-8c9d-4da1-b5c8-60915a4c7673","system_id":"levelo_inurba_marseille","lat":43.280335,"lon":5.369359,"is_reserved":false,"is_disabled":false,"rental_uris":{"android":"levelo://app?vid=e4a253ac-8c9d-4da1-b5c8-60915a4c7673","ios":"levelo://app?vid=e4a253ac-8c9d-4da1-b5c8-60915a4c7673"},"vehicle_type_id":"4","last_reported":1753456344,"current_range_meters":16000,"station_id":"ce4bha12rcd13ifvqef0","pricing_plan_id":"cebpf4jnsgd1na2vs0mg"},{"bike_id":"d3bb5d54-6833-4c8e-ace3-4750d7184099","system_id":"levelo_inurba_marseille","lat":43.26554,"lon":5.37301,"is_reserved":false,"is_disabled":false,"rental_uris":{"android":"levelo://app?vid=d3bb5d54-6833-4c8e-ace3-4750d7184099","ios":"levelo://app?vid=d3bb5d54-6833-4c8e-ace3-4750d7184099"},"vehicle_type_id":"4","last_reported":1753456344,"current_range_meters":16000,"station_id":"ce4bhg12rcd13ifvqf70","pricing_plan_id":"cebpf4jnsgd1na2vs0mg"},{"bike_id":"605a26a7-be30-47d9-81e5-e981767b1778","system_id":"levelo_inurba_marseille","lat":43.26954,"lon":5.38656,"is_reserved":false,"is_disabled":false,"rental_uris":{"android":"levelo://app?vid=605a26a7-be30-47d9-81e5-e981767b1778","ios":"levelo://app?vid=605a26a7-be30-47d9-81e5-e981767b1778"},"vehicle_type_id":"4","last_reported":1753456344,"current_range_meters":16000,"station_id":"ce4bhh92rcd13ifvqfh0","pricing_plan_id":"cebpf4jnsgd1na2vs0mg"},{"bike_id":"0e2cd5b3-7004-4bda-8a60-521d7029a4c1","system_id":"levelo_inurba_marseille","lat":43.21748,"lon":5.34603,"is_reserved":false,"is_disabled":false,"rental_uris":{"android":"levelo://app?vid=0e2cd5b3-7004-4bda-8a60-521d7029a4c1","ios":"levelo://app?vid=0e2cd5b3-7004-4bda-8a60-521d7029a4c1"},"vehicle_type_id":"4","last_reported":1753456344,"current_range_meters":16000,"station_id":"","pricing_plan_id":"cebpf4jnsgd1na2vs0mg"},{"bike_id":"c54ff59d-c443-4efe-88ce-ec43b99b22b7","system_id":"levelo_inurba_marseille","lat":43.22926,"lon":5.35395,"is_reserved":false,"is_disabled":false,"rental_uris":{"android":"levelo://app?vid=c54ff59d-c443-4efe-88ce-ec43b99b22b7","ios":"levelo://app?vid=c54ff59d-c443-4efe-88ce-ec43b99b22b7"},"vehicle_type_id":"4","last_reported":1753456344,"current_range_meters":16000,"station_id":"cpo3532slgdg3j2ikp40","pricing_plan_id":"cebpf4jnsgd1na2vs0mg"},{"bike_id":"4d72a855-a15c-4b80-87db-d5d3b8786584","system_id":"levelo_inurba_marseille","lat":43.28617,"lon":5.35107,"is_reserved":false,"is_disabled":false,"rental_uris":{"android":"levelo://app?vid=4d72a855-a15c-4b80-87db-d5d3b8786584","ios":"levelo://app?vid=4d72a855-a15c-4b80-87db-d5d3b8786584"},"vehicle_type_id":"4","last_reported":1753456344,"current_range_meters":16400,"station_id":"ce4bhch2rcd13ifvqeug","pricing_plan_id":"cebpf4jnsgd1na2vs0mg"},{"bike_id":"7e6cbf23-0744-43af-8253-8c672c5274d7","system_id":"levelo_inurba_marseille","lat":43.28604,"lon":5.37063,"is_reserved":false,"is_disabled":false,"rental_uris":{"android":"levelo://app?vid=7e6cbf23-0744-43af-8253-8c672c5274d7","ios":"levelo://app?vid=7e6cbf23-0744-43af-8253-8c672c5274d7"},"vehicle_type_id":"4","last_reported":1753456344,"current_range_meters":16400,"station_id":"ce4bht12rcd13ifvqi60","pricing_plan_id":"cebpf4jnsgd1na2vs0mg"},{"bike_id":"de99b14c-9afd-4bdd-bc56-50354c110c3d","system_id":"levelo_inurba_marseille","lat":43.25467,"lon":5.37687,"is_reserved":false,"is_disabled":false,"rental_uris":{"android":"levelo://app?vid=de99b14c-9afd-4bdd-bc56-50354c110c3d","ios":"levelo://app?vid=de99b14c-9afd-4bdd-bc56-50354c110c3d"},"vehicle_type_id":"4","last_reported":1753456344,"current_range_meters":16400,"station_id":"","pricing_plan_id":"cebpf4jnsgd1na2vs0mg"},{"bike_id":"c26f1b4d-11e7-4aaa-8fd1-0c8a6e22bd7c","system_id":"levelo_inurba_marseille","lat":43.30132,"lon":5.38784,"is_reserved":false,"is_disabled":true,"rental_uris":{"android":"levelo://app?vid=c26f1b4d-11e7-4aaa-8fd1-0c8a6e22bd7c","ios":"levelo://app?vid=c26f1b4d-11e7-4aaa-8fd1-0c8a6e22bd7c"},"vehicle_type_id":"4","last_reported":1753456344,"current_range_meters":16400,"station_id":"ce4bghh2rcd13ifvqb60","pricing_plan_id":"cebpf4jnsgd1na2vs0mg"},{"bike_id":"cdc8a271-33b5-4a79-8721-308031dfc88b","system_id":"levelo_inurba_marseille","lat":43.2987,"lon":5.39719,"is_reserved":false,"is_disabled":false,"rental_uris":{"android":"levelo://app?vid=cdc8a271-33b5-4a79-8721-308031dfc88b","ios":"levelo://app?vid=cdc8a271-33b5-4a79-8721-308031dfc88b"},"vehicle_type_id":"4","last_reported":1753456344,"current_range_meters":16400,"station_id":"ce4bh0h2rcd13ifvqd50","pricing_plan_id":"cebpf4jnsgd1na2vs0mg"},{"bike_id":"36f324cb-a9ad-46b7-afb0-26f814934e1f","system_id":"levelo_inurba_marseille","lat":43.2623,"lon":5.37462,"is_reserved":false,"is_disabled":false,"rental_uris":{"android":"levelo://app?vid=36f324cb-a9ad-46b7-afb0-26f814934e1f","ios":"levelo://app?vid=36f324cb-a9ad-46b7-afb0-26f814934e1f"},"vehicle_type_id":"4","last_reported":1753456344,"current_range_meters":16400,"station_id":"ce4bhgp2rcd13ifvqfc0","pricing_plan_id":"cebpf4jnsgd1na2vs0mg"},{"bike_id":"4eedb553-1a5f-47e4-a136-f5051ab058e6","system_id":"levelo_inurba_marseille","lat":43.28424,"lon":5.34984,"is_reserved":false,"is_disabled":true,"rental_uris":{"android":"levelo://app?vid=4eedb553-1a5f-47e4-a136-f5051ab058e6","ios":"levelo://app?vid=4eedb553-1a5f-47e4-a136-f5051ab058e6"},"vehicle_type_id":"4","last_reported":1753456344,"current_range_meters":16400,"station_id":"ce4bhbh2rcd13ifvqepg","pricing_plan_id":"cebpf4jnsgd1na2vs0mg"},{"bike_id":"dd4669b8-7a1e-455c-921c-cef6ea4213f0","system_id":"levelo_inurba_marseille","lat":43.29803,"lon":5.37661,"is_reserved":false,"is_disabled":false,"rental_uris":{"android":"levelo://app?vid=dd4669b8-7a1e-455c-921c-cef6ea4213f0","ios":"levelo://app?vid=dd4669b8-7a1e-455c-921c-cef6ea4213f0"},"vehicle_type_id":"4","last_reported":1753456344,"current_range_meters":16400,"station_id":"","pricing_plan_id":"cebpf4jnsgd1na2vs0mg"},{"bike_id":"4150f367-c77b-49d6-9460-8034f7438f5c","system_id":"levelo_inurba_marseille","lat":43.262054,"lon":5.374491,"is_reserved":false,"is_disabled":false,"rental_uris":{"android":"levelo://app?vid=4150f367-c77b-49d6-9460-8034f7438f5c","ios":"levelo://app?vid=4150f367-c77b-49d6-9460-8034f7438f5c"},"vehicle_type_id":"4","last_reported":1753456344,"current_range_meters":16400,"station_id":"","pricing_plan_id":"cebpf4jnsgd1na2vs0mg"},{"bike_id":"e48b8863-dde7-4b89-bf64-6fd5d8a9d707","system_id":"levelo_inurba_marseille","lat":43.27913,"lon":5.38009,"is_reserved":false,"is_disabled":false,"rental_uris":{"android":"levelo://app?vid=e48b8863-dde7-4b89-bf64-6fd5d8a9d707","ios":"levelo://app?vid=e48b8863-dde7-4b89-bf64-6fd5d8a9d707"},"vehicle_type_id":"4","last_reported":1753456344,"current_range_meters":16800,"station_id":"ce4bhf92rcd13ifvqf50","pricing_plan_id":"cebpf4jnsgd1na2vs0mg"},{"bike_id":"e05c8fb8-d842-4df1-8cda-059c4b8564cf","system_id":"levelo_inurba_marseille","lat":43.28617,"lon":5.35106,"is_reserved":false,"is_disabled":false,"rental_uris":{"android":"levelo://app?vid=e05c8fb8-d842-4df1-8cda-059c4b8564cf","ios":"levelo://app?vid=e05c8fb8-d842-4df1-8cda-059c4b8564cf"},"vehicle_type_id":"4","last_reported":1753456344,"current_range_meters":16800,"station_id":"ce4bhch2rcd13ifvqeug","pricing_plan_id":"cebpf4jnsgd1na2vs0mg"},{"bike_id":"e4758bdf-cf42-4efa-b967-d2d8f06662b0","system_id":"levelo_inurba_marseille","lat":43.299,"lon":5.37478,"is_reserved":false,"is_disabled":false,"rental_uris":{"android":"levelo://app?vid=e4758bdf-cf42-4efa-b967-d2d8f06662b0","ios":"levelo://app?vid=e4758bdf-cf42-4efa-b967-d2d8f06662b0"},"vehicle_type_id":"4","last_reported":1753456344,"current_range_meters":16800,"station_id":"ce4bgjh2rcd13ifvqbg0","pricing_plan_id":"cebpf4jnsgd1na2vs0mg"},{"bike_id":"830ac2da-3449-4c4f-88c4-7edd782ac2a3","system_id":"levelo_inurba_marseille","lat":43.229306,"lon":5.35383,"is_reserved":false,"is_disabled":false,"rental_uris":{"android":"levelo://app?vid=830ac2da-3449-4c4f-88c4-7edd782ac2a3","ios":"levelo://app?vid=830ac2da-3449-4c4f-88c4-7edd782ac2a3"},"vehicle_type_id":"4","last_reported":1753456344,"current_range_meters":16800,"station_id":"cpo3532slgdg3j2ikp40","pricing_plan_id":"cebpf4jnsgd1na2vs0mg"},{"bike_id":"d42fd1d9-8599-4423-8a25-1889aaf7e28d","system_id":"levelo_inurba_marseille","lat":43.22936,"lon":5.35372,"is_reserved":false,"is_disabled":false,"rental_uris":{"android":"levelo://app?vid=d42fd1d9-8599-4423-8a25-1889aaf7e28d","ios":"levelo://app?vid=d42fd1d9-8599-4423-8a25-1889aaf7e28d"},"vehicle_type_id":"4","last_reported":1753456344,"current_range_meters":16800,"station_id":"cpo3532slgdg3j2ikp40","pricing_plan_id":"cebpf4jnsgd1na2vs0mg"},{"bike_id":"534086b7-5d73-40cd-a02b-128e089b663f","system_id":"levelo_inurba_marseille","lat":43.26196,"lon":5.37448,"is_reserved":false,"is_disabled":false,"rental_uris":{"android":"levelo://app?vid=534086b7-5d73-40cd-a02b-128e089b663f","ios":"levelo://app?vid=534086b7-5d73-40cd-a02b-128e089b663f"},"vehicle_type_id":"4","last_reported":1753456344,"current_range_meters":16800,"station_id":"ce4bhgp2rcd13ifvqfc0","pricing_plan_id":"cebpf4jnsgd1na2vs0mg"},{"bike_id":"2f7aa8ee-b17f-447e-ac1c-06bff5e89da8","system_id":"levelo_inurba_marseille","lat":43.29899,"lon":5.43675,"is_reserved":false,"is_disabled":false,"rental_uris":{"android":"levelo://app?vid=2f7aa8ee-b17f-447e-ac1c-06bff5e89da8","ios":"levelo://app?vid=2f7aa8ee-b17f-447e-ac1c-06bff5e89da8"},"vehicle_type_id":"4","last_reported":1753456344,"current_range_meters":16800,"station_id":"ce4bhpp2rcd13ifvqhfg","pricing_plan_id":"cebpf4jnsgd1na2vs0mg"},{"bike_id":"57755280-973c-4ff3-9c25-8f15e2c5b510","system_id":"levelo_inurba_marseille","lat":43.31872,"lon":5.37373,"is_reserved":false,"is_disabled":false,"rental_uris":{"android":"levelo://app?vid=57755280-973c-4ff3-9c25-8f15e2c5b510","ios":"levelo://app?vid=57755280-973c-4ff3-9c25-8f15e2c5b510"},"vehicle_type_id":"4","last_reported":1753456344,"current_range_meters":16800,"station_id":"","pricing_plan_id":"cebpf4jnsgd1na2vs0mg"},{"bike_id":"5ec0c64f-b3b2-4d4f-bba1-8753a83f96a8","system_id":"levelo_inurba_marseille","lat":43.21759,"lon":5.346,"is_reserved":false,"is_disabled":false,"rental_uris":{"android":"levelo://app?vid=5ec0c64f-b3b2-4d4f-bba1-8753a83f96a8","ios":"levelo://app?vid=5ec0c64f-b3b2-4d4f-bba1-8753a83f96a8"},"vehicle_type_id":"4","last_reported":1753456344,"current_range_meters":17200,"station_id":"st_cvj6r9ubvosntc0bgbag","pricing_plan_id":"cebpf4jnsgd1na2vs0mg"},{"bike_id":"09b7f600-cb1e-4ea0-adc2-9c3dcb778794","system_id":"levelo_inurba_marseille","lat":43.22495,"lon":5.34802,"is_reserved":false,"is_disabled":false,"rental_uris":{"android":"levelo://app?vid=09b7f600-cb1e-4ea0-adc2-9c3dcb778794","ios":"levelo://app?vid=09b7f600-cb1e-4ea0-adc2-9c3dcb778794"},"vehicle_type_id":"4","last_reported":1753456344,"current_range_meters":17200,"station_id":"st_cvj5dfep6f1abm77gieg","pricing_plan_id":"cebpf4jnsgd1na2vs0mg"},{"bike_id":"7f7a4770-cb44-4cbe-afee-f7531a238fa9","system_id":"levelo_inurba_marseille","lat":43.225059,"lon":5.347842,"is_reserved":false,"is_disabled":false,"rental_uris":{"android":"levelo://app?vid=7f7a4770-cb44-4cbe-afee-f7531a238fa9","ios":"levelo://app?vid=7f7a4770-cb44-4cbe-afee-f7531a238fa9"},"vehicle_type_id":"4","last_reported":1753456344,"current_range_meters":17200,"station_id":"st_cvj5dfep6f1abm77gieg","pricing_plan_id":"cebpf4jnsgd1na2vs0mg"},{"bike_id":"7528e0ee-3254-4380-8007-ffef61e356ca","system_id":"levelo_inurba_marseille","lat":43.265591,"lon":5.372892,"is_reserved":false,"is_disabled":false,"rental_uris":{"android":"levelo://app?vid=7528e0ee-3254-4380-8007-ffef61e356ca","ios":"levelo://app?vid=7528e0ee-3254-4380-8007-ffef61e356ca"},"vehicle_type_id":"4","last_reported":1753456344,"current_range_meters":17200,"station_id":"ce4bhg12rcd13ifvqf70","pricing_plan_id":"cebpf4jnsgd1na2vs0mg"},{"bike_id":"f8a5258a-c32a-4c32-9d50-8d119f529a04","system_id":"levelo_inurba_marseille","lat":43.22935,"lon":5.3538,"is_reserved":false,"is_disabled":false,"rental_uris":{"android":"levelo://app?vid=f8a5258a-c32a-4c32-9d50-8d119f529a04","ios":"levelo://app?vid=f8a5258a-c32a-4c32-9d50-8d119f529a04"},"vehicle_type_id":"4","last_reported":1753456344,"current_range_meters":17200,"station_id":"cpo3532slgdg3j2ikp40","pricing_plan_id":"cebpf4jnsgd1na2vs0mg"},{"bike_id":"a520aef3-d8ee-479c-910a-c0447822ca28","system_id":"levelo_inurba_marseille","lat":43.32656,"lon":5.40981,"is_reserved":false,"is_disabled":false,"rental_uris":{"android":"levelo://app?vid=a520aef3-d8ee-479c-910a-c0447822ca28","ios":"levelo://app?vid=a520aef3-d8ee-479c-910a-c0447822ca28"},"vehicle_type_id":"4","last_reported":1753456344,"current_range_meters":17200,"station_id":"ce4bhpp2rcd13ifvqhgg","pricing_plan_id":"cebpf4jnsgd1na2vs0mg"},{"bike_id":"28e9a9e0-5427-4cba-add8-6abc554845b1","system_id":"levelo_inurba_marseille","lat":43.2868,"lon":5.3867,"is_reserved":false,"is_disabled":false,"rental_uris":{"android":"levelo://app?vid=28e9a9e0-5427-4cba-add8-6abc554845b1","ios":"levelo://app?vid=28e9a9e0-5427-4cba-add8-6abc554845b1"},"vehicle_type_id":"4","last_reported":1753456344,"current_range_meters":17200,"station_id":"ce4bh492rcd13ifvqdug","pricing_plan_id":"cebpf4jnsgd1na2vs0mg"},{"bike_id":"b5faf0f0-8a73-4fc4-b6fc-daffce16b582","system_id":"levelo_inurba_marseille","lat":43.30142,"lon":5.38084,"is_reserved":false,"is_disabled":false,"rental_uris":{"android":"levelo://app?vid=b5faf0f0-8a73-4fc4-b6fc-daffce16b582","ios":"levelo://app?vid=b5faf0f0-8a73-4fc4-b6fc-daffce16b582"},"vehicle_type_id":"4","last_reported":1753456344,"current_range_meters":17200,"station_id":"ce4bgjp2rcd13ifvqbh0","pricing_plan_id":"cebpf4jnsgd1na2vs0mg"},{"bike_id":"329c8f00-9fb0-47d7-84ef-1bc64e291f9c","system_id":"levelo_inurba_marseille","lat":43.292789,"lon":5.36837,"is_reserved":false,"is_disabled":false,"rental_uris":{"android":"levelo://app?vid=329c8f00-9fb0-47d7-84ef-1bc64e291f9c","ios":"levelo://app?vid=329c8f00-9fb0-47d7-84ef-1bc64e291f9c"},"vehicle_type_id":"4","last_reported":1753456344,"current_range_meters":17200,"station_id":"","pricing_plan_id":"cebpf4jnsgd1na2vs0mg"},{"bike_id":"48b81d63-e613-4566-82ef-263d5508685e","system_id":"levelo_inurba_marseille","lat":43.3117,"lon":5.38714,"is_reserved":false,"is_disabled":false,"rental_uris":{"android":"levelo://app?vid=48b81d63-e613-4566-82ef-263d5508685e","ios":"levelo://app?vid=48b81d63-e613-4566-82ef-263d5508685e"},"vehicle_type_id":"4","last_reported":1753456344,"current_range_meters":17200,"station_id":"ce4bgv12rcd13ifvqcp0","pricing_plan_id":"cebpf4jnsgd1na2vs0mg"},{"bike_id":"7bff35d7-eb59-45ab-96c4-aed0e2e0eaad","system_id":"levelo_inurba_marseille","lat":43.28414,"lon":5.34977,"is_reserved":false,"is_disabled":false,"rental_uris":{"android":"levelo://app?vid=7bff35d7-eb59-45ab-96c4-aed0e2e0eaad","ios":"levelo://app?vid=7bff35d7-eb59-45ab-96c4-aed0e2e0eaad"},"vehicle_type_id":"4","last_reported":1753456344,"current_range_meters":17600,"station_id":"ce4bhbh2rcd13ifvqepg","pricing_plan_id":"cebpf4jnsgd1na2vs0mg"},{"bike_id":"7d1d9b60-3dc8-4c23-95e2-067a5b72f8af","system_id":"levelo_inurba_marseille","lat":43.24804,"lon":5.37449,"is_reserved":false,"is_disabled":false,"rental_uris":{"android":"levelo://app?vid=7d1d9b60-3dc8-4c23-95e2-067a5b72f8af","ios":"levelo://app?vid=7d1d9b60-3dc8-4c23-95e2-067a5b72f8af"},"vehicle_type_id":"4","last_reported":1753456344,"current_range_meters":17600,"station_id":"ce4bhgh2rcd13ifvqfb0","pricing_plan_id":"cebpf4jnsgd1na2vs0mg"},{"bike_id":"80acebb2-0350-48ac-b0aa-274664838171","system_id":"levelo_inurba_marseille","lat":43.24175,"lon":5.36404,"is_reserved":false,"is_disabled":false,"rental_uris":{"android":"levelo://app?vid=80acebb2-0350-48ac-b0aa-274664838171","ios":"levelo://app?vid=80acebb2-0350-48ac-b0aa-274664838171"},"vehicle_type_id":"4","last_reported":1753456344,"current_range_meters":17600,"station_id":"cpo36qri1sfpv3e86is0","pricing_plan_id":"cebpf4jnsgd1na2vs0mg"},{"bike_id":"466ed9fa-8bfd-4a44-8412-f600991d94be","system_id":"levelo_inurba_marseille","lat":43.29555,"lon":5.4229,"is_reserved":false,"is_disabled":false,"rental_uris":{"android":"levelo://app?vid=466ed9fa-8bfd-4a44-8412-f600991d94be","ios":"levelo://app?vid=466ed9fa-8bfd-4a44-8412-f600991d94be"},"vehicle_type_id":"4","last_reported":1753456344,"current_range_meters":18000,"station_id":"ce4bhph2rcd13ifvqhdg","pricing_plan_id":"cebpf4jnsgd1na2vs0mg"},{"bike_id":"8f4ca69e-9621-4ffd-91af-41f939f5f71e","system_id":"levelo_inurba_marseille","lat":43.23969,"lon":5.36627,"is_reserved":false,"is_disabled":false,"rental_uris":{"android":"levelo://app?vid=8f4ca69e-9621-4ffd-91af-41f939f5f71e","ios":"levelo://app?vid=8f4ca69e-9621-4ffd-91af-41f939f5f71e"},"vehicle_type_id":"4","last_reported":1753456344,"current_range_meters":18000,"station_id":"ce4bhi12rcd13ifvqfp0","pricing_plan_id":"cebpf4jnsgd1na2vs0mg"},{"bike_id":"16971f4c-ccac-4993-ad28-795396f2377f","system_id":"levelo_inurba_marseille","lat":43.24195,"lon":5.36421,"is_reserved":false,"is_disabled":false,"rental_uris":{"android":"levelo://app?vid=16971f4c-ccac-4993-ad28-795396f2377f","ios":"levelo://app?vid=16971f4c-ccac-4993-ad28-795396f2377f"},"vehicle_type_id":"4","last_reported":1753456344,"current_range_meters":18000,"station_id":"cpo36qri1sfpv3e86is0","pricing_plan_id":"cebpf4jnsgd1na2vs0mg"},{"bike_id":"c54c7470-7323-445b-86e5-5b5ce2f05a24","system_id":"levelo_inurba_marseille","lat":43.21751,"lon":5.34602,"is_reserved":false,"is_disabled":false,"rental_uris":{"android":"levelo://app?vid=c54c7470-7323-445b-86e5-5b5ce2f05a24","ios":"levelo://app?vid=c54c7470-7323-445b-86e5-5b5ce2f05a24"},"vehicle_type_id":"4","last_reported":1753456344,"current_range_meters":18000,"station_id":"st_cvj6r9ubvosntc0bgbag","pricing_plan_id":"cebpf4jnsgd1na2vs0mg"},{"bike_id":"152247a2-6f09-485f-acf9-4f6bd27a046c","system_id":"levelo_inurba_marseille","lat":43.2818,"lon":5.42652,"is_reserved":false,"is_disabled":false,"rental_uris":{"android":"levelo://app?vid=152247a2-6f09-485f-acf9-4f6bd27a046c","ios":"levelo://app?vid=152247a2-6f09-485f-acf9-4f6bd27a046c"},"vehicle_type_id":"4","last_reported":1753456344,"current_range_meters":18000,"station_id":"ce4bhnh2rcd13ifvqgug","pricing_plan_id":"cebpf4jnsgd1na2vs0mg"},{"bike_id":"ec74f06a-40dc-4c39-a0cb-57d6f568a4e5","system_id":"levelo_inurba_marseille","lat":43.22929,"lon":5.3538,"is_reserved":false,"is_disabled":false,"rental_uris":{"android":"levelo://app?vid=ec74f06a-40dc-4c39-a0cb-57d6f568a4e5","ios":"levelo://app?vid=ec74f06a-40dc-4c39-a0cb-57d6f568a4e5"},"vehicle_type_id":"4","last_reported":1753456344,"current_range_meters":18000,"station_id":"cpo3532slgdg3j2ikp40","pricing_plan_id":"cebpf4jnsgd1na2vs0mg"},{"bike_id":"eaf13212-4478-4fd2-a17b-d7f931907236","system_id":"levelo_inurba_marseille","lat":43.3107,"lon":5.38357,"is_reserved":false,"is_disabled":false,"rental_uris":{"android":"levelo://app?vid=eaf13212-4478-4fd2-a17b-d7f931907236","ios":"levelo://app?vid=eaf13212-4478-4fd2-a17b-d7f931907236"},"vehicle_type_id":"4","last_reported":1753456344,"current_range_meters":18000,"station_id":"ce4bgv92rcd13ifvqcr0","pricing_plan_id":"cebpf4jnsgd1na2vs0mg"},{"bike_id":"2de6df84-4a65-421c-a610-eefd67edb8aa","system_id":"levelo_inurba_marseille","lat":43.32477,"lon":5.36553,"is_reserved":false,"is_disabled":false,"rental_uris":{"android":"levelo://app?vid=2de6df84-4a65-421c-a610-eefd67edb8aa","ios":"levelo://app?vid=2de6df84-4a65-421c-a610-eefd67edb8aa"},"vehicle_type_id":"4","last_reported":1753456344,"current_range_meters":18000,"station_id":"ce4bhs12rcd13ifvqhvg","pricing_plan_id":"cebpf4jnsgd1na2vs0mg"},{"bike_id":"6ab0b13c-2ff1-417a-acfd-489d6800d4c9","system_id":"levelo_inurba_marseille","lat":43.2738,"lon":5.3625,"is_reserved":false,"is_disabled":true,"rental_uris":{"android":"levelo://app?vid=6ab0b13c-2ff1-417a-acfd-489d6800d4c9","ios":"levelo://app?vid=6ab0b13c-2ff1-417a-acfd-489d6800d4c9"},"vehicle_type_id":"4","last_reported":1753456344,"current_range_meters":18000,"station_id":"","pricing_plan_id":"cebpf4jnsgd1na2vs0mg"},{"bike_id":"432b75fd-601b-47d1-be3f-a18b5d68c2fc","system_id":"levelo_inurba_marseille","lat":43.292913,"lon":5.37098,"is_reserved":false,"is_disabled":false,"rental_uris":{"android":"levelo://app?vid=432b75fd-601b-47d1-be3f-a18b5d68c2fc","ios":"levelo://app?vid=432b75fd-601b-47d1-be3f-a18b5d68c2fc"},"vehicle_type_id":"4","last_reported":1753456344,"current_range_meters":18800,"station_id":"ce4bgh92rcd13ifvqb40","pricing_plan_id":"cebpf4jnsgd1na2vs0mg"},{"bike_id":"a1659a1c-1b3a-4457-9941-599b3e3a228c","system_id":"levelo_inurba_marseille","lat":43.28618,"lon":5.35103,"is_reserved":false,"is_disabled":false,"rental_uris":{"android":"levelo://app?vid=a1659a1c-1b3a-4457-9941-599b3e3a228c","ios":"levelo://app?vid=a1659a1c-1b3a-4457-9941-599b3e3a228c"},"vehicle_type_id":"4","last_reported":1753456344,"current_range_meters":18800,"station_id":"ce4bhch2rcd13ifvqeug","pricing_plan_id":"cebpf4jnsgd1na2vs0mg"},{"bike_id":"8c14d325-f151-4b68-ad15-6de2912c8def","system_id":"levelo_inurba_marseille","lat":43.2784,"lon":5.39207,"is_reserved":false,"is_disabled":false,"rental_uris":{"android":"levelo://app?vid=8c14d325-f151-4b68-ad15-6de2912c8def","ios":"levelo://app?vid=8c14d325-f151-4b68-ad15-6de2912c8def"},"vehicle_type_id":"4","last_reported":1753456344,"current_range_meters":18800,"station_id":"ce4bhjp2rcd13ifvqga0","pricing_plan_id":"cebpf4jnsgd1na2vs0mg"},{"bike_id":"2c1587f6-c8c8-454c-82f5-3204e1a93abf","system_id":"levelo_inurba_marseille","lat":43.28612,"lon":5.35099,"is_reserved":false,"is_disabled":false,"rental_uris":{"android":"levelo://app?vid=2c1587f6-c8c8-454c-82f5-3204e1a93abf","ios":"levelo://app?vid=2c1587f6-c8c8-454c-82f5-3204e1a93abf"},"vehicle_type_id":"4","last_reported":1753456344,"current_range_meters":18800,"station_id":"ce4bhch2rcd13ifvqeug","pricing_plan_id":"cebpf4jnsgd1na2vs0mg"},{"bike_id":"bbfcba62-ab55-418b-9d31-925eaeeac99f","system_id":"levelo_inurba_marseille","lat":43.28609,"lon":5.3706,"is_reserved":false,"is_disabled":false,"rental_uris":{"android":"levelo://app?vid=bbfcba62-ab55-418b-9d31-925eaeeac99f","ios":"levelo://app?vid=bbfcba62-ab55-418b-9d31-925eaeeac99f"},"vehicle_type_id":"4","last_reported":1753456344,"current_range_meters":18800,"station_id":"ce4bht12rcd13ifvqi60","pricing_plan_id":"cebpf4jnsgd1na2vs0mg"},{"bike_id":"c3c2652b-f2d7-4ed4-89ec-9559feb01451","system_id":"levelo_inurba_marseille","lat":43.292236,"lon":5.360521,"is_reserved":false,"is_disabled":true,"rental_uris":{"android":"levelo://app?vid=c3c2652b-f2d7-4ed4-89ec-9559feb01451","ios":"levelo://app?vid=c3c2652b-f2d7-4ed4-89ec-9559feb01451"},"vehicle_type_id":"4","last_reported":1753456344,"current_range_meters":18800,"station_id":"ce4bhbh2rcd13ifvqeqg","pricing_plan_id":"cebpf4jnsgd1na2vs0mg"},{"bike_id":"e50d923d-b934-4ddf-89f8-26a87289f284","system_id":"levelo_inurba_marseille","lat":43.26563,"lon":5.37284,"is_reserved":false,"is_disabled":false,"rental_uris":{"android":"levelo://app?vid=e50d923d-b934-4ddf-89f8-26a87289f284","ios":"levelo://app?vid=e50d923d-b934-4ddf-89f8-26a87289f284"},"vehicle_type_id":"4","last_reported":1753456344,"current_range_meters":18800,"station_id":"ce4bhg12rcd13ifvqf70","pricing_plan_id":"cebpf4jnsgd1na2vs0mg"},{"bike_id":"1855cbe1-5a05-480e-9057-6e9b3976dbbe","system_id":"levelo_inurba_marseille","lat":43.33736,"lon":5.39188,"is_reserved":false,"is_disabled":false,"rental_uris":{"android":"levelo://app?vid=1855cbe1-5a05-480e-9057-6e9b3976dbbe","ios":"levelo://app?vid=1855cbe1-5a05-480e-9057-6e9b3976dbbe"},"vehicle_type_id":"4","last_reported":1753456344,"current_range_meters":18800,"station_id":"ce4bhr92rcd13ifvqhsg","pricing_plan_id":"cebpf4jnsgd1na2vs0mg"},{"bike_id":"2e4911fc-dc9f-47d0-9e20-f3fe4c066e99","system_id":"levelo_inurba_marseille","lat":43.31883,"lon":5.40742,"is_reserved":false,"is_disabled":false,"rental_uris":{"android":"levelo://app?vid=2e4911fc-dc9f-47d0-9e20-f3fe4c066e99","ios":"levelo://app?vid=2e4911fc-dc9f-47d0-9e20-f3fe4c066e99"},"vehicle_type_id":"4","last_reported":1753456344,"current_range_meters":18000,"station_id":"ce4bhq12rcd13ifvqhig","pricing_plan_id":"cebpf4jnsgd1na2vs0mg"},{"bike_id":"b0ab26ed-6d98-4d8d-9fc2-b57924d0bcb8","system_id":"levelo_inurba_marseille","lat":43.21753,"lon":5.34601,"is_reserved":false,"is_disabled":false,"rental_uris":{"android":"levelo://app?vid=b0ab26ed-6d98-4d8d-9fc2-b57924d0bcb8","ios":"levelo://app?vid=b0ab26ed-6d98-4d8d-9fc2-b57924d0bcb8"},"vehicle_type_id":"4","last_reported":1753456344,"current_range_meters":18800,"station_id":"","pricing_plan_id":"cebpf4jnsgd1na2vs0mg"},{"bike_id":"e7652c6c-2402-49f7-a93f-025650a12a4e","system_id":"levelo_inurba_marseille","lat":43.28616,"lon":5.35106,"is_reserved":false,"is_disabled":false,"rental_uris":{"android":"levelo://app?vid=e7652c6c-2402-49f7-a93f-025650a12a4e","ios":"levelo://app?vid=e7652c6c-2402-49f7-a93f-025650a12a4e"},"vehicle_type_id":"4","last_reported":1753456344,"current_range_meters":18800,"station_id":"ce4bhch2rcd13ifvqeug","pricing_plan_id":"cebpf4jnsgd1na2vs0mg"},{"bike_id":"d1118ba2-7ab0-47ff-a120-ca2f2f1b3dfe","system_id":"levelo_inurba_marseille","lat":43.28627,"lon":5.35077,"is_reserved":false,"is_disabled":false,"rental_uris":{"android":"levelo://app?vid=d1118ba2-7ab0-47ff-a120-ca2f2f1b3dfe","ios":"levelo://app?vid=d1118ba2-7ab0-47ff-a120-ca2f2f1b3dfe"},"vehicle_type_id":"4","last_reported":1753456344,"current_range_meters":18800,"station_id":"ce4bhch2rcd13ifvqeug","pricing_plan_id":"cebpf4jnsgd1na2vs0mg"},{"bike_id":"1e5c96a6-9d0f-4d5f-85ef-5a5f8ac0317a","system_id":"levelo_inurba_marseille","lat":43.334911,"lon":5.391369,"is_reserved":false,"is_disabled":false,"rental_uris":{"android":"levelo://app?vid=1e5c96a6-9d0f-4d5f-85ef-5a5f8ac0317a","ios":"levelo://app?vid=1e5c96a6-9d0f-4d5f-85ef-5a5f8ac0317a"},"vehicle_type_id":"4","last_reported":1753456344,"current_range_meters":18800,"station_id":"","pricing_plan_id":"cebpf4jnsgd1na2vs0mg"},{"bike_id":"613d754f-7c52-43fd-b050-b8df7dd9dccd","system_id":"levelo_inurba_marseille","lat":43.2784,"lon":5.39214,"is_reserved":false,"is_disabled":false,"rental_uris":{"android":"levelo://app?vid=613d754f-7c52-43fd-b050-b8df7dd9dccd","ios":"levelo://app?vid=613d754f-7c52-43fd-b050-b8df7dd9dccd"},"vehicle_type_id":"4","last_reported":1753456344,"current_range_meters":18800,"station_id":"ce4bhjp2rcd13ifvqga0","pricing_plan_id":"cebpf4jnsgd1na2vs0mg"},{"bike_id":"26dade7f-8130-42fd-b2bb-47c3ef95fc38","system_id":"levelo_inurba_marseille","lat":43.27809,"lon":5.40696,"is_reserved":false,"is_disabled":false,"rental_uris":{"android":"levelo://app?vid=26dade7f-8130-42fd-b2bb-47c3ef95fc38","ios":"levelo://app?vid=26dade7f-8130-42fd-b2bb-47c3ef95fc38"},"vehicle_type_id":"4","last_reported":1753456344,"current_range_meters":18800,"station_id":"ce4bhnh2rcd13ifvqgtg","pricing_plan_id":"cebpf4jnsgd1na2vs0mg"},{"bike_id":"033ca3b0-ab47-4fd0-ba6d-b152f60d8d31","system_id":"levelo_inurba_marseille","lat":43.30792,"lon":5.38154,"is_reserved":false,"is_disabled":false,"rental_uris":{"android":"levelo://app?vid=033ca3b0-ab47-4fd0-ba6d-b152f60d8d31","ios":"levelo://app?vid=033ca3b0-ab47-4fd0-ba6d-b152f60d8d31"},"vehicle_type_id":"4","last_reported":1753456344,"current_range_meters":18800,"station_id":"ce4bgt12rcd13ifvqce0","pricing_plan_id":"cebpf4jnsgd1na2vs0mg"},{"bike_id":"a1d5115b-997f-44a5-8b4b-21cb29757407","system_id":"levelo_inurba_marseille","lat":43.31252,"lon":5.37317,"is_reserved":false,"is_disabled":false,"rental_uris":{"android":"levelo://app?vid=a1d5115b-997f-44a5-8b4b-21cb29757407","ios":"levelo://app?vid=a1d5115b-997f-44a5-8b4b-21cb29757407"},"vehicle_type_id":"4","last_reported":1753456344,"current_range_meters":18800,"station_id":"","pricing_plan_id":"cebpf4jnsgd1na2vs0mg"},{"bike_id":"973dc889-baf1-471b-9e93-f6a4792bc4be","system_id":"levelo_inurba_marseille","lat":43.25502,"lon":5.37651,"is_reserved":false,"is_disabled":false,"rental_uris":{"android":"levelo://app?vid=973dc889-baf1-471b-9e93-f6a4792bc4be","ios":"levelo://app?vid=973dc889-baf1-471b-9e93-f6a4792bc4be"},"vehicle_type_id":"4","last_reported":1753456344,"current_range_meters":18800,"station_id":"ce4bhh12rcd13ifvqff0","pricing_plan_id":"cebpf4jnsgd1na2vs0mg"},{"bike_id":"f4fd8122-3542-41c9-a204-ae963e556aa2","system_id":"levelo_inurba_marseille","lat":43.23056,"lon":5.35503,"is_reserved":false,"is_disabled":false,"rental_uris":{"android":"levelo://app?vid=f4fd8122-3542-41c9-a204-ae963e556aa2","ios":"levelo://app?vid=f4fd8122-3542-41c9-a204-ae963e556aa2"},"vehicle_type_id":"4","last_reported":1753456344,"current_range_meters":19200,"station_id":"cpo3342slgdg3j2ifvpg","pricing_plan_id":"cebpf4jnsgd1na2vs0mg"},{"bike_id":"387ce989-fb39-42cd-a91b-548259c960c5","system_id":"levelo_inurba_marseille","lat":43.282696,"lon":5.3507,"is_reserved":false,"is_disabled":false,"rental_uris":{"android":"levelo://app?vid=387ce989-fb39-42cd-a91b-548259c960c5","ios":"levelo://app?vid=387ce989-fb39-42cd-a91b-548259c960c5"},"vehicle_type_id":"4","last_reported":1753456344,"current_range_meters":19200,"station_id":"ce4bhbp2rcd13ifvqerg","pricing_plan_id":"cebpf4jnsgd1na2vs0mg"},{"bike_id":"6341b1b5-fc02-437b-b52c-d86499fa4740","system_id":"levelo_inurba_marseille","lat":43.29005,"lon":5.35612,"is_reserved":false,"is_disabled":false,"rental_uris":{"android":"levelo://app?vid=6341b1b5-fc02-437b-b52c-d86499fa4740","ios":"levelo://app?vid=6341b1b5-fc02-437b-b52c-d86499fa4740"},"vehicle_type_id":"4","last_reported":1753456344,"current_range_meters":18800,"station_id":"ce4bhb92rcd13ifvqen0","pricing_plan_id":"cebpf4jnsgd1na2vs0mg"},{"bike_id":"c8643813-cfee-4c97-ab8d-3b3f5f43ad05","system_id":"levelo_inurba_marseille","lat":43.289447,"lon":5.365851,"is_reserved":false,"is_disabled":false,"rental_uris":{"android":"levelo://app?vid=c8643813-cfee-4c97-ab8d-3b3f5f43ad05","ios":"levelo://app?vid=c8643813-cfee-4c97-ab8d-3b3f5f43ad05"},"vehicle_type_id":"4","last_reported":1753456344,"current_range_meters":19200,"station_id":"ce4bhap2rcd13ifvqek0","pricing_plan_id":"cebpf4jnsgd1na2vs0mg"},{"bike_id":"07889d7f-750d-4c2a-9f82-d7fdd37d056c","system_id":"levelo_inurba_marseille","lat":43.28609,"lon":5.37073,"is_reserved":false,"is_disabled":false,"rental_uris":{"android":"levelo://app?vid=07889d7f-750d-4c2a-9f82-d7fdd37d056c","ios":"levelo://app?vid=07889d7f-750d-4c2a-9f82-d7fdd37d056c"},"vehicle_type_id":"4","last_reported":1753456344,"current_range_meters":19200,"station_id":"ce4bht12rcd13ifvqi60","pricing_plan_id":"cebpf4jnsgd1na2vs0mg"},{"bike_id":"55f97efc-c950-4951-8ddd-2ccde70b140e","system_id":"levelo_inurba_marseille","lat":43.22502,"lon":5.34784,"is_reserved":false,"is_disabled":false,"rental_uris":{"android":"levelo://app?vid=55f97efc-c950-4951-8ddd-2ccde70b140e","ios":"levelo://app?vid=55f97efc-c950-4951-8ddd-2ccde70b140e"},"vehicle_type_id":"4","last_reported":1753456344,"current_range_meters":19200,"station_id":"st_cvj5dfep6f1abm77gieg","pricing_plan_id":"cebpf4jnsgd1na2vs0mg"},{"bike_id":"698839df-d197-4aab-ba14-73303c6b274f","system_id":"levelo_inurba_marseille","lat":43.29065,"lon":5.35588,"is_reserved":false,"is_disabled":false,"rental_uris":{"android":"levelo://app?vid=698839df-d197-4aab-ba14-73303c6b274f","ios":"levelo://app?vid=698839df-d197-4aab-ba14-73303c6b274f"},"vehicle_type_id":"4","last_reported":1753456344,"current_range_meters":18800,"station_id":"ce4bhb92rcd13ifvqen0","pricing_plan_id":"cebpf4jnsgd1na2vs0mg"},{"bike_id":"a3e4f936-e7da-42bf-94b4-ad22bb68b9c3","system_id":"levelo_inurba_marseille","lat":43.21749,"lon":5.34611,"is_reserved":false,"is_disabled":false,"rental_uris":{"android":"levelo://app?vid=a3e4f936-e7da-42bf-94b4-ad22bb68b9c3","ios":"levelo://app?vid=a3e4f936-e7da-42bf-94b4-ad22bb68b9c3"},"vehicle_type_id":"4","last_reported":1753456344,"current_range_meters":19200,"station_id":"","pricing_plan_id":"cebpf4jnsgd1na2vs0mg"},{"bike_id":"c141895e-11b2-488d-a203-ea3987f763b7","system_id":"levelo_inurba_marseille","lat":43.27499,"lon":5.42448,"is_reserved":false,"is_disabled":false,"rental_uris":{"android":"levelo://app?vid=c141895e-11b2-488d-a203-ea3987f763b7","ios":"levelo://app?vid=c141895e-11b2-488d-a203-ea3987f763b7"},"vehicle_type_id":"4","last_reported":1753456344,"current_range_meters":19200,"station_id":"ce4bhn92rcd13ifvqgrg","pricing_plan_id":"cebpf4jnsgd1na2vs0mg"},{"bike_id":"7254aad9-4b7a-44b4-89bb-4f6b7cb10520","system_id":"levelo_inurba_marseille","lat":43.26075,"lon":5.39397,"is_reserved":false,"is_disabled":false,"rental_uris":{"android":"levelo://app?vid=7254aad9-4b7a-44b4-89bb-4f6b7cb10520","ios":"levelo://app?vid=7254aad9-4b7a-44b4-89bb-4f6b7cb10520"},"vehicle_type_id":"4","last_reported":1753456344,"current_range_meters":19200,"station_id":"ce4bhh92rcd13ifvqfj0","pricing_plan_id":"cebpf4jnsgd1na2vs0mg"},{"bike_id":"06977557-4e8e-4988-bb79-44f87fad0d9d","system_id":"levelo_inurba_marseille","lat":43.2901,"lon":5.35611,"is_reserved":false,"is_disabled":false,"rental_uris":{"android":"levelo://app?vid=06977557-4e8e-4988-bb79-44f87fad0d9d","ios":"levelo://app?vid=06977557-4e8e-4988-bb79-44f87fad0d9d"},"vehicle_type_id":"4","last_reported":1753456344,"current_range_meters":19200,"station_id":"ce4bhb92rcd13ifvqen0","pricing_plan_id":"cebpf4jnsgd1na2vs0mg"},{"bike_id":"9e18122d-2b49-45e7-815f-a3b223f491f7","system_id":"levelo_inurba_marseille","lat":43.28948,"lon":5.36396,"is_reserved":false,"is_disabled":false,"rental_uris":{"android":"levelo://app?vid=9e18122d-2b49-45e7-815f-a3b223f491f7","ios":"levelo://app?vid=9e18122d-2b49-45e7-815f-a3b223f491f7"},"vehicle_type_id":"4","last_reported":1753456344,"current_range_meters":19200,"station_id":"ce4bhc92rcd13ifvqetg","pricing_plan_id":"cebpf4jnsgd1na2vs0mg"},{"bike_id":"37f8d601-8585-4eff-a909-9203a8836f23","system_id":"levelo_inurba_marseille","lat":43.32116,"lon":5.36774,"is_reserved":false,"is_disabled":false,"rental_uris":{"android":"levelo://app?vid=37f8d601-8585-4eff-a909-9203a8836f23","ios":"levelo://app?vid=37f8d601-8585-4eff-a909-9203a8836f23"},"vehicle_type_id":"4","last_reported":1753456344,"current_range_meters":19200,"station_id":"ce4bhrh2rcd13ifvqhug","pricing_plan_id":"cebpf4jnsgd1na2vs0mg"},{"bike_id":"f56ed009-c55a-4186-b57d-5335023afd89","system_id":"levelo_inurba_marseille","lat":43.27063,"lon":5.40264,"is_reserved":false,"is_disabled":false,"rental_uris":{"android":"levelo://app?vid=f56ed009-c55a-4186-b57d-5335023afd89","ios":"levelo://app?vid=f56ed009-c55a-4186-b57d-5335023afd89"},"vehicle_type_id":"4","last_reported":1753456344,"current_range_meters":19200,"station_id":"ce4bhk92rcd13ifvqgc0","pricing_plan_id":"cebpf4jnsgd1na2vs0mg"},{"bike_id":"70242363-f29d-4c0a-8f8f-52a444c9c142","system_id":"levelo_inurba_marseille","lat":43.29782,"lon":5.38101,"is_reserved":false,"is_disabled":false,"rental_uris":{"android":"levelo://app?vid=70242363-f29d-4c0a-8f8f-52a444c9c142","ios":"levelo://app?vid=70242363-f29d-4c0a-8f8f-52a444c9c142"},"vehicle_type_id":"4","last_reported":1753456344,"current_range_meters":19200,"station_id":"ce4bgip2rcd13ifvqbb0","pricing_plan_id":"cebpf4jnsgd1na2vs0mg"},{"bike_id":"c3b53303-9018-4d5a-91fe-ce0c3b3be56d","system_id":"levelo_inurba_marseille","lat":43.28615,"lon":5.3706,"is_reserved":false,"is_disabled":false,"rental_uris":{"android":"levelo://app?vid=c3b53303-9018-4d5a-91fe-ce0c3b3be56d","ios":"levelo://app?vid=c3b53303-9018-4d5a-91fe-ce0c3b3be56d"},"vehicle_type_id":"4","last_reported":1753456344,"current_range_meters":19200,"station_id":"ce4bht12rcd13ifvqi60","pricing_plan_id":"cebpf4jnsgd1na2vs0mg"},{"bike_id":"002d2fd9-acd8-475c-ad36-166d94beeedc","system_id":"levelo_inurba_marseille","lat":43.29977,"lon":5.38474,"is_reserved":false,"is_disabled":false,"rental_uris":{"android":"levelo://app?vid=002d2fd9-acd8-475c-ad36-166d94beeedc","ios":"levelo://app?vid=002d2fd9-acd8-475c-ad36-166d94beeedc"},"vehicle_type_id":"4","last_reported":1753456344,"current_range_meters":19600,"station_id":"ce4bgj92rcd13ifvqbd0","pricing_plan_id":"cebpf4jnsgd1na2vs0mg"},{"bike_id":"2703e0a4-7218-4353-b33c-9609c06a5516","system_id":"levelo_inurba_marseille","lat":43.27492,"lon":5.42455,"is_reserved":false,"is_disabled":false,"rental_uris":{"android":"levelo://app?vid=2703e0a4-7218-4353-b33c-9609c06a5516","ios":"levelo://app?vid=2703e0a4-7218-4353-b33c-9609c06a5516"},"vehicle_type_id":"4","last_reported":1753456344,"current_range_meters":19600,"station_id":"ce4bhn92rcd13ifvqgrg","pricing_plan_id":"cebpf4jnsgd1na2vs0mg"},{"bike_id":"3c5c829d-f8d2-4754-8adb-4f267933a19e","system_id":"levelo_inurba_marseille","lat":43.255017,"lon":5.376501,"is_reserved":false,"is_disabled":false,"rental_uris":{"android":"levelo://app?vid=3c5c829d-f8d2-4754-8adb-4f267933a19e","ios":"levelo://app?vid=3c5c829d-f8d2-4754-8adb-4f267933a19e"},"vehicle_type_id":"4","last_reported":1753456344,"current_range_meters":19600,"station_id":"ce4bhh12rcd13ifvqff0","pricing_plan_id":"cebpf4jnsgd1na2vs0mg"},{"bike_id":"febfb0dd-62aa-4333-8aa6-5a2dfd2c5e17","system_id":"levelo_inurba_marseille","lat":43.33156,"lon":5.35975,"is_reserved":false,"is_disabled":false,"rental_uris":{"android":"levelo://app?vid=febfb0dd-62aa-4333-8aa6-5a2dfd2c5e17","ios":"levelo://app?vid=febfb0dd-62aa-4333-8aa6-5a2dfd2c5e17"},"vehicle_type_id":"4","last_reported":1753456344,"current_range_meters":19600,"station_id":"","pricing_plan_id":"cebpf4jnsgd1na2vs0mg"},{"bike_id":"85333a3b-9be8-4a22-af2c-50f33eb8750c","system_id":"levelo_inurba_marseille","lat":43.24165,"lon":5.36395,"is_reserved":false,"is_disabled":false,"rental_uris":{"android":"levelo://app?vid=85333a3b-9be8-4a22-af2c-50f33eb8750c","ios":"levelo://app?vid=85333a3b-9be8-4a22-af2c-50f33eb8750c"},"vehicle_type_id":"4","last_reported":1753456344,"current_range_meters":19600,"station_id":"cpo36qri1sfpv3e86is0","pricing_plan_id":"cebpf4jnsgd1na2vs0mg"},{"bike_id":"4f069cb2-e85f-44ab-8659-b3444c19b657","system_id":"levelo_inurba_marseille","lat":43.2319,"lon":5.35553,"is_reserved":false,"is_disabled":false,"rental_uris":{"android":"levelo://app?vid=4f069cb2-e85f-44ab-8659-b3444c19b657","ios":"levelo://app?vid=4f069cb2-e85f-44ab-8659-b3444c19b657"},"vehicle_type_id":"4","last_reported":1753456344,"current_range_meters":19600,"station_id":"ce4bhu92rcd13ifvqi70","pricing_plan_id":"cebpf4jnsgd1na2vs0mg"},{"bike_id":"fbb2460d-5ad8-4e5e-b87b-d049af083a8c","system_id":"levelo_inurba_marseille","lat":43.28613,"lon":5.37066,"is_reserved":false,"is_disabled":false,"rental_uris":{"android":"levelo://app?vid=fbb2460d-5ad8-4e5e-b87b-d049af083a8c","ios":"levelo://app?vid=fbb2460d-5ad8-4e5e-b87b-d049af083a8c"},"vehicle_type_id":"4","last_reported":1753456344,"current_range_meters":19600,"station_id":"ce4bht12rcd13ifvqi60","pricing_plan_id":"cebpf4jnsgd1na2vs0mg"},{"bike_id":"61cd7fe3-237f-4708-afc7-dd8a81b4454c","system_id":"levelo_inurba_marseille","lat":43.22935,"lon":5.35399,"is_reserved":false,"is_disabled":false,"rental_uris":{"android":"levelo://app?vid=61cd7fe3-237f-4708-afc7-dd8a81b4454c","ios":"levelo://app?vid=61cd7fe3-237f-4708-afc7-dd8a81b4454c"},"vehicle_type_id":"4","last_reported":1753456344,"current_range_meters":19600,"station_id":"cpo3532slgdg3j2ikp40","pricing_plan_id":"cebpf4jnsgd1na2vs0mg"},{"bike_id":"88713064-73b6-47c5-8baf-21f8c90f1d38","system_id":"levelo_inurba_marseille","lat":43.30153,"lon":5.38076,"is_reserved":false,"is_disabled":false,"rental_uris":{"android":"levelo://app?vid=88713064-73b6-47c5-8baf-21f8c90f1d38","ios":"levelo://app?vid=88713064-73b6-47c5-8baf-21f8c90f1d38"},"vehicle_type_id":"4","last_reported":1753456344,"current_range_meters":19600,"station_id":"ce4bgjp2rcd13ifvqbh0","pricing_plan_id":"cebpf4jnsgd1na2vs0mg"},{"bike_id":"43dbc09e-d0e4-4ddb-bafe-4f55874d23a9","system_id":"levelo_inurba_marseille","lat":43.30235,"lon":5.3823,"is_reserved":false,"is_disabled":false,"rental_uris":{"android":"levelo://app?vid=43dbc09e-d0e4-4ddb-bafe-4f55874d23a9","ios":"levelo://app?vid=43dbc09e-d0e4-4ddb-bafe-4f55874d23a9"},"vehicle_type_id":"4","last_reported":1753456344,"current_range_meters":19600,"station_id":"","pricing_plan_id":"cebpf4jnsgd1na2vs0mg"},{"bike_id":"ac76fd8a-5918-445c-86ca-53d50631a363","system_id":"levelo_inurba_marseille","lat":43.29934,"lon":5.36543,"is_reserved":false,"is_disabled":false,"rental_uris":{"android":"levelo://app?vid=ac76fd8a-5918-445c-86ca-53d50631a363","ios":"levelo://app?vid=ac76fd8a-5918-445c-86ca-53d50631a363"},"vehicle_type_id":"4","last_reported":1753456344,"current_range_meters":19600,"station_id":"ce4bgm92rcd13ifvqbr0","pricing_plan_id":"cebpf4jnsgd1na2vs0mg"},{"bike_id":"fdf52e4a-0546-49a0-ac34-d25c3a4994ff","system_id":"levelo_inurba_marseille","lat":43.3017,"lon":5.38079,"is_reserved":false,"is_disabled":false,"rental_uris":{"android":"levelo://app?vid=fdf52e4a-0546-49a0-ac34-d25c3a4994ff","ios":"levelo://app?vid=fdf52e4a-0546-49a0-ac34-d25c3a4994ff"},"vehicle_type_id":"4","last_reported":1753456344,"current_range_meters":19600,"station_id":"ce4bgjp2rcd13ifvqbh0","pricing_plan_id":"cebpf4jnsgd1na2vs0mg"},{"bike_id":"7e65c5ea-0429-45f5-a396-bd32e67f0744","system_id":"levelo_inurba_marseille","lat":43.33468,"lon":5.40039,"is_reserved":false,"is_disabled":false,"rental_uris":{"android":"levelo://app?vid=7e65c5ea-0429-45f5-a396-bd32e67f0744","ios":"levelo://app?vid=7e65c5ea-0429-45f5-a396-bd32e67f0744"},"vehicle_type_id":"4","last_reported":1753456344,"current_range_meters":19600,"station_id":"","pricing_plan_id":"cebpf4jnsgd1na2vs0mg"},{"bike_id":"725317c6-351b-43e5-b68d-45c3db010ac3","system_id":"levelo_inurba_marseille","lat":43.28152,"lon":5.42617,"is_reserved":false,"is_disabled":false,"rental_uris":{"android":"levelo://app?vid=725317c6-351b-43e5-b68d-45c3db010ac3","ios":"levelo://app?vid=725317c6-351b-43e5-b68d-45c3db010ac3"},"vehicle_type_id":"4","last_reported":1753456344,"current_range_meters":20000,"station_id":"ce4bhnh2rcd13ifvqgug","pricing_plan_id":"cebpf4jnsgd1na2vs0mg"},{"bike_id":"93065409-89f0-4afa-80c8-b4dc9fb712c3","system_id":"levelo_inurba_marseille","lat":43.26202,"lon":5.374475,"is_reserved":false,"is_disabled":true,"rental_uris":{"android":"levelo://app?vid=93065409-89f0-4afa-80c8-b4dc9fb712c3","ios":"levelo://app?vid=93065409-89f0-4afa-80c8-b4dc9fb712c3"},"vehicle_type_id":"4","last_reported":1753456344,"current_range_meters":20000,"station_id":"ce4bhgp2rcd13ifvqfc0","pricing_plan_id":"cebpf4jnsgd1na2vs0mg"},{"bike_id":"a05343f6-5345-451e-92c9-8d14b4ec04eb","system_id":"levelo_inurba_marseille","lat":43.314919,"lon":5.373082,"is_reserved":false,"is_disabled":true,"rental_uris":{"android":"levelo://app?vid=a05343f6-5345-451e-92c9-8d14b4ec04eb","ios":"levelo://app?vid=a05343f6-5345-451e-92c9-8d14b4ec04eb"},"vehicle_type_id":"4","last_reported":1753456344,"current_range_meters":20000,"station_id":"","pricing_plan_id":"cebpf4jnsgd1na2vs0mg"},{"bike_id":"adc99020-a046-4247-b3bb-abb9aabfb167","system_id":"levelo_inurba_marseille","lat":43.2439,"lon":5.3707,"is_reserved":false,"is_disabled":false,"rental_uris":{"android":"levelo://app?vid=adc99020-a046-4247-b3bb-abb9aabfb167","ios":"levelo://app?vid=adc99020-a046-4247-b3bb-abb9aabfb167"},"vehicle_type_id":"4","last_reported":1753456344,"current_range_meters":20000,"station_id":"ce4bhhh2rcd13ifvqfk0","pricing_plan_id":"cebpf4jnsgd1na2vs0mg"},{"bike_id":"2c8c209a-8a8a-4d5d-9dce-aacf06a80f29","system_id":"levelo_inurba_marseille","lat":43.28151,"lon":5.42639,"is_reserved":false,"is_disabled":false,"rental_uris":{"android":"levelo://app?vid=2c8c209a-8a8a-4d5d-9dce-aacf06a80f29","ios":"levelo://app?vid=2c8c209a-8a8a-4d5d-9dce-aacf06a80f29"},"vehicle_type_id":"4","last_reported":1753456344,"current_range_meters":20000,"station_id":"ce4bhnh2rcd13ifvqgug","pricing_plan_id":"cebpf4jnsgd1na2vs0mg"},{"bike_id":"58075a71-8a2b-4f59-abd3-9202ce214e8a","system_id":"levelo_inurba_marseille","lat":43.26942,"lon":5.40256,"is_reserved":false,"is_disabled":false,"rental_uris":{"android":"levelo://app?vid=58075a71-8a2b-4f59-abd3-9202ce214e8a","ios":"levelo://app?vid=58075a71-8a2b-4f59-abd3-9202ce214e8a"},"vehicle_type_id":"4","last_reported":1753456344,"current_range_meters":20000,"station_id":"cjm6bp8fraef2m0cb0m0","pricing_plan_id":"cebpf4jnsgd1na2vs0mg"},{"bike_id":"6308591e-a1f1-45fe-9435-f1e81b4a1b4e","system_id":"levelo_inurba_marseille","lat":43.31292,"lon":5.37142,"is_reserved":false,"is_disabled":false,"rental_uris":{"android":"levelo://app?vid=6308591e-a1f1-45fe-9435-f1e81b4a1b4e","ios":"levelo://app?vid=6308591e-a1f1-45fe-9435-f1e81b4a1b4e"},"vehicle_type_id":"4","last_reported":1753456344,"current_range_meters":20000,"station_id":"","pricing_plan_id":"cebpf4jnsgd1na2vs0mg"},{"bike_id":"eeab9f4c-9807-4d04-b3b3-0905aee9c9d9","system_id":"levelo_inurba_marseille","lat":43.28413,"lon":5.34984,"is_reserved":false,"is_disabled":false,"rental_uris":{"android":"levelo://app?vid=eeab9f4c-9807-4d04-b3b3-0905aee9c9d9","ios":"levelo://app?vid=eeab9f4c-9807-4d04-b3b3-0905aee9c9d9"},"vehicle_type_id":"4","last_reported":1753456344,"current_range_meters":20000,"station_id":"ce4bhbh2rcd13ifvqepg","pricing_plan_id":"cebpf4jnsgd1na2vs0mg"},{"bike_id":"8d638062-b729-4ab6-a2cd-3ffb748369e4","system_id":"levelo_inurba_marseille","lat":43.30601,"lon":5.36995,"is_reserved":false,"is_disabled":false,"rental_uris":{"android":"levelo://app?vid=8d638062-b729-4ab6-a2cd-3ffb748369e4","ios":"levelo://app?vid=8d638062-b729-4ab6-a2cd-3ffb748369e4"},"vehicle_type_id":"4","last_reported":1753456344,"current_range_meters":20400,"station_id":"","pricing_plan_id":"cebpf4jnsgd1na2vs0mg"},{"bike_id":"6b34aaa6-58a0-46fb-bc50-6499601beb64","system_id":"levelo_inurba_marseille","lat":43.224956,"lon":5.347884,"is_reserved":false,"is_disabled":false,"rental_uris":{"android":"levelo://app?vid=6b34aaa6-58a0-46fb-bc50-6499601beb64","ios":"levelo://app?vid=6b34aaa6-58a0-46fb-bc50-6499601beb64"},"vehicle_type_id":"4","last_reported":1753456344,"current_range_meters":20400,"station_id":"st_cvj5dfep6f1abm77gieg","pricing_plan_id":"cebpf4jnsgd1na2vs0mg"},{"bike_id":"81487674-a411-4e70-8b87-896a2b36fff2","system_id":"levelo_inurba_marseille","lat":43.32494,"lon":5.36567,"is_reserved":false,"is_disabled":false,"rental_uris":{"android":"levelo://app?vid=81487674-a411-4e70-8b87-896a2b36fff2","ios":"levelo://app?vid=81487674-a411-4e70-8b87-896a2b36fff2"},