{"last_updated":1704625560,"ttl":30,"version":"2.2","data":{"bikes":[{"bike_id":"c425a59a-6e2e-4cf3-a83a-9195f97464e2","system_id":"levelo_inurba_marseille","lat":43.31341,"lon":5.367098,"is_reserved":false,"is_disabled":false,"rental_uris":{"android":"levelo://app?vid=c425a59a-6e2e-4cf3-a83a-9195f97464e2","ios":"levelo://app?vid=c425a59a-6e2e-4cf3-a83a-9195f97464e2"},"vehicle_type_id":"4","last_reported":1704625560,"current_range_meters":30000,"station_id":"ce4bgr92rcd13ifvqc6g","pricing_plan_id":"free"},{"bike_id":"538fb89a-e981-44ef-b121-b35ab9a4ee1c","system_id":"levelo_inurba_marseille","lat":43.31341,"lon":5.367098,"is_reserved":false,"is_disabled":false,"rental_uris":{"android":"levelo://app?vid=538fb89a-e981-44ef-b121-b35ab9a4ee1c","ios":"levelo://app?vid=538fb89a-e981-44ef-b121-b35ab9a4ee1c"},"vehicle_type_id":"4","last_reported":1704625560,"current_range_meters":26800,"station_id":"ce4bgr92rcd13ifvqc6g","pricing_plan_id":"free"},{"bike_id":"09d01de4-e9cf-4328-8dfb-0b18e3115d82","system_id":"levelo_inurba_marseille","lat":43.312239,"lon":5.368562,"is_reserved":false,"is_disabled":false,"rental_uris":{"android":"levelo://app?vid=09d01de4-e9cf-4328-8dfb-0b18e3115d82","ios":"levelo://app?vid=09d01de4-e9cf-4328-8dfb-0b18e3115d82"},"vehicle_type_id":"4","last_reported":1704625560,"current_range_meters":28000,"station_id":"ce4bgl92rcd13ifvqbq0","pricing_plan_id":"free"},{"bike_id":"b3cce754-093a-482e-a05d-1152ff4a51ea","system_id":"levelo_inurba_marseille","lat":43.316801,"lon":5.372658,"is_reserved":false,"is_disabled":false,"rental_uris":{"android":"levelo://app?vid=b3cce754-093a-482e-a05d-1152ff4a51ea","ios":"levelo://app?vid=b3cce754-093a-482e-a05d-1152ff4a51ea"},"vehicle_type_id":"4","last_reported":1704625560,"current_range_meters":4000,"station_id":"","pricing_plan_id":"free"},{"bike_id":"a18c9f18-dd23-4fa3-ae4c-750a813ec2dd","system_id":"levelo_inurba_marseille","lat":43.315484,"lon":5.374425,"is_reserved":false,"is_disabled":false,"rental_uris":{"android":"levelo://app?vid=a18c9f18-dd23-4fa3-ae4c-750a813ec2dd","ios":"levelo://app?vid=a18c9f18-dd23-4fa3-ae4c-750a813ec2dd"},"vehicle_type_id":"4","last_reported":1704625560,"current_range_meters":15200,"station_id":"","pricing_plan_id":"free"},{"bike_id":"15d3d658-8c7c-402b-9579-21d2a2773558","system_id":"levelo_inurba_marseille","lat":43.305706,"lon":5.365654,"is_reserved":false,"is_disabled":false,"rental_uris":{"android":"levelo://app?vid=15d3d658-8c7c-402b-9579-21d2a2773558","ios":"levelo://app?vid=15d3d658-8c7c-402b-9579-21d2a2773558"},"vehicle_type_id":"4","last_reported":1704625560,"current_range_meters":26400,"station_id":"ce4bgs12rcd13ifvqcag","pricing_plan_id":"free"},{"bike_id":"0b220752-3f26-4027-ba3e-c5879f3fc495","system_id":"levelo_inurba_marseille","lat":43.305714,"lon":5.365633,"is_reserved":false,"is_disabled":false,"rental_uris":{"android":"levelo://app?vid=0b220752-3f26-4027-ba3e-c5879f3fc495","ios":"levelo://app?vid=0b220752-3f26-4027-ba3e-c5879f3fc495"},"vehicle_type_id":"4","last_reported":1704625560,"current_range_meters":28800,"station_id":"ce4bgs12rcd13ifvqcag","pricing_plan_id":"free"},{"bike_id":"a106a8d8-876a-427a-a89d-a10019294942","system_id":"levelo_inurba_marseille","lat":43.305714,"lon":5.365633,"is_reserved":false,"is_disabled":false,"rental_uris":{"android":"levelo://app?vid=a106a8d8-876a-427a-a89d-a10019294942","ios":"levelo://app?vid=a106a8d8-876a-427a-a89d-a10019294942"},"vehicle_type_id":"4","last_reported":1704625560,"current_range_meters":13200,"station_id":"ce4bgs12rcd13ifvqcag","pricing_plan_id":"free"},{"bike_id":"74c89ddf-011d-4a2b-aa42-bf0b5154d86e","system_id":"levelo_inurba_marseille","lat":43.305714,"lon":5.365633,"is_reserved":false,"is_disabled":false,"rental_uris":{"android":"levelo://app?vid=74c89ddf-011d-4a2b-aa42-bf0b5154d86e","ios":"levelo://app?vid=74c89ddf-011d-4a2b-aa42-bf0b5154d86e"},"vehicle_type_id":"4","last_reported":1704625560,"current_range_meters":19200,"station_id":"ce4bgs12rcd13ifvqcag","pricing_plan_id":"free"},{"bike_id":"24312f7b-3d07-4f13-b593-a82cf21f6674","system_id":"levelo_inurba_marseille","lat":43.30539,"lon":5.36543,"is_reserved":false,"is_disabled":false,"rental_uris":{"android":"levelo://app?vid=24312f7b-3d07-4f13-b593-a82cf21f6674","ios":"levelo://app?vid=24312f7b-3d07-4f13-b593-a82cf21f6674"},"vehicle_type_id":"4","last_reported":1704625560,"current_range_meters":20800,"station_id":"ce4bgs12rcd13ifvqcag","pricing_plan_id":"free"},{"bike_id":"23b3a2b2-c9a1-42b7-b4c6-de5ab5d30e63","system_id":"levelo_inurba_marseille","lat":43.305368,"lon":5.367343,"is_reserved":false,"is_disabled":false,"rental_uris":{"android":"levelo://app?vid=23b3a2b2-c9a1-42b7-b4c6-de5ab5d30e63","ios":"levelo://app?vid=23b3a2b2-c9a1-42b7-b4c6-de5ab5d30e63"},"vehicle_type_id":"4","last_reported":1704625560,"current_range_meters":20400,"station_id":"ce4bgrp2rcd13ifvqc9g","pricing_plan_id":"free"},{"bike_id":"1a420f68-50c6-42a1-a98e-0d427d26bd81","system_id":"levelo_inurba_marseille","lat":43.311131,"lon":5.377651,"is_reserved":false,"is_disabled":false,"rental_uris":{"android":"levelo://app?vid=1a420f68-50c6-42a1-a98e-0d427d26bd81","ios":"levelo://app?vid=1a420f68-50c6-42a1-a98e-0d427d26bd81"},"vehicle_type_id":"4","last_reported":1704625560,"current_range_meters":28400,"station_id":"ce4bgt92rcd13ifvqcg0","pricing_plan_id":"free"},{"bike_id":"f02e2a8d-e921-416f-810f-4aadd5da4dab","system_id":"levelo_inurba_marseille","lat":43.307945,"lon":5.376487,"is_reserved":false,"is_disabled":false,"rental_uris":{"android":"levelo://app?vid=f02e2a8d-e921-416f-810f-4aadd5da4dab","ios":"levelo://app?vid=f02e2a8d-e921-416f-810f-4aadd5da4dab"},"vehicle_type_id":"4","last_reported":1704625560,"current_range_meters":26400,"station_id":"ce4bgv92rcd13ifvqcq0","pricing_plan_id":"free"},{"bike_id":"89bffd9f-80ae-48ac-8282-961ba54a130e","system_id":"levelo_inurba_marseille","lat":43.317075,"lon":5.377367,"is_reserved":false,"is_disabled":false,"rental_uris":{"android":"levelo://app?vid=89bffd9f-80ae-48ac-8282-961ba54a130e","ios":"levelo://app?vid=89bffd9f-80ae-48ac-8282-961ba54a130e"},"vehicle_type_id":"4","last_reported":1704625560,"current_range_meters":27200,"station_id":"ce4bgth2rcd13ifvqch0","pricing_plan_id":"free"},{"bike_id":"c4e90871-bb94-4085-82dc-ccbd997a22ca","system_id":"levelo_inurba_marseille","lat":43.31535,"lon":5.3791,"is_reserved":false,"is_disabled":false,"rental_uris":{"android":"levelo://app?vid=c4e90871-bb94-4085-82dc-ccbd997a22ca","ios":"levelo://app?vid=c4e90871-bb94-4085-82dc-ccbd997a22ca"},"vehicle_type_id":"4","last_reported":1704625560,"current_range_meters":6000,"station_id":"","pricing_plan_id":"free"},{"bike_id":"29c6a7a9-f07d-4030-ab86-adb0c59b6223","system_id":"levelo_inurba_marseille","lat":43.315289,"lon":5.380279,"is_reserved":false,"is_disabled":false,"rental_uris":{"android":"levelo://app?vid=29c6a7a9-f07d-4030-ab86-adb0c59b6223","ios":"levelo://app?vid=29c6a7a9-f07d-4030-ab86-adb0c59b6223"},"vehicle_type_id":"4","last_reported":1704625560,"current_range_meters":12400,"station_id":"ce4bhsp2rcd13ifvqi50","pricing_plan_id":"free"},{"bike_id":"8ef1a586-cc29-4bb1-a1d4-de2934bfeac9","system_id":"levelo_inurba_marseille","lat":43.315325,"lon":5.380298,"is_reserved":false,"is_disabled":false,"rental_uris":{"android":"levelo://app?vid=8ef1a586-cc29-4bb1-a1d4-de2934bfeac9","ios":"levelo://app?vid=8ef1a586-cc29-4bb1-a1d4-de2934bfeac9"},"vehicle_type_id":"4","last_reported":1704625560,"current_range_meters":2000,"station_id":"ce4bhsp2rcd13ifvqi50","pricing_plan_id":"free"},{"bike_id":"f72f5f18-53fb-434a-a1eb-40fc45291c46","system_id":"levelo_inurba_marseille","lat":43.301939,"lon":5.366286,"is_reserved":false,"is_disabled":false,"rental_uris":{"android":"levelo://app?vid=f72f5f18-53fb-434a-a1eb-40fc45291c46","ios":"levelo://app?vid=f72f5f18-53fb-434a-a1eb-40fc45291c46"},"vehicle_type_id":"4","last_reported":1704625560,"current_range_meters":18000,"station_id":"ce4bgrh2rcd13ifvqc8g","pricing_plan_id":"free"},{"bike_id":"dfe0a4f3-de16-4005-94fb-da8e6bdea68d","system_id":"levelo_inurba_marseille","lat":43.301939,"lon":5.366286,"is_reserved":false,"is_disabled":false,"rental_uris":{"android":"levelo://app?vid=dfe0a4f3-de16-4005-94fb-da8e6bdea68d","ios":"levelo://app?vid=dfe0a4f3-de16-4005-94fb-da8e6bdea68d"},"vehicle_type_id":"4","last_reported":1704625560,"current_range_meters":26000,"station_id":"ce4bgrh2rcd13ifvqc8g","pricing_plan_id":"free"},{"bike_id":"410d56b4-8422-4bc5-a962-9b4ea6b59eab","system_id":"levelo_inurba_marseille","lat":43.301939,"lon":5.366286,"is_reserved":false,"is_disabled":false,"rental_uris":{"android":"levelo://app?vid=410d56b4-8422-4bc5-a962-9b4ea6b59eab","ios":"levelo://app?vid=410d56b4-8422-4bc5-a962-9b4ea6b59eab"},"vehicle_type_id":"4","last_reported":1704625560,"current_range_meters":29600,"station_id":"ce4bgrh2rcd13ifvqc8g","pricing_plan_id":"free"},{"bike_id":"9a5d20fc-5739-4188-aece-a966211e1333","system_id":"levelo_inurba_marseille","lat":43.324771,"lon":5.36557,"is_reserved":false,"is_disabled":false,"rental_uris":{"android":"levelo://app?vid=9a5d20fc-5739-4188-aece-a966211e1333","ios":"levelo://app?vid=9a5d20fc-5739-4188-aece-a966211e1333"},"vehicle_type_id":"4","last_reported":1704625560,"current_range_meters":15600,"station_id":"ce4bhs12rcd13ifvqhvg","pricing_plan_id":"free"},{"bike_id":"2aa100e7-2671-4c1b-a1f0-ab7832afcbad","system_id":"levelo_inurba_marseille","lat":43.324771,"lon":5.36557,"is_reserved":false,"is_disabled":false,"rental_uris":{"android":"levelo://app?vid=2aa100e7-2671-4c1b-a1f0-ab7832afcbad","ios":"levelo://app?vid=2aa100e7-2671-4c1b-a1f0-ab7832afcbad"},"vehicle_type_id":"4","last_reported":1704625560,"current_range_meters":26400,"station_id":"ce4bhs12rcd13ifvqhvg","pricing_plan_id":"free"},{"bike_id":"b43ac539-4439-4d94-b5c9-6bb6e2eadc58","system_id":"levelo_inurba_marseille","lat":43.3136,"lon":5.385,"is_reserved":false,"is_disabled":false,"rental_uris":{"android":"levelo://app?vid=b43ac539-4439-4d94-b5c9-6bb6e2eadc58","ios":"levelo://app?vid=b43ac539-4439-4d94-b5c9-6bb6e2eadc58"},"vehicle_type_id":"4","last_reported":1704625560,"current_range_meters":26400,"station_id":"ce4bgt92rcd13ifvqcf0","pricing_plan_id":"free"},{"bike_id":"17504bde-947a-4cd6-98b3-9a4c66aca99b","system_id":"levelo_inurba_marseille","lat":43.313827,"lon":5.385007,"is_reserved":false,"is_disabled":false,"rental_uris":{"android":"levelo://app?vid=17504bde-947a-4cd6-98b3-9a4c66aca99b","ios":"levelo://app?vid=17504bde-947a-4cd6-98b3-9a4c66aca99b"},"vehicle_type_id":"4","last_reported":1704625560,"current_range_meters":2000,"station_id":"","pricing_plan_id":"free"},{"bike_id":"9d75b24e-edbb-4601-92f1-ba3cf530033b","system_id":"levelo_inurba_marseille","lat":43.299724,"lon":5.371829,"is_reserved":false,"is_disabled":false,"rental_uris":{"android":"levelo://app?vid=9d75b24e-edbb-4601-92f1-ba3cf530033b","ios":"levelo://app?vid=9d75b24e-edbb-4601-92f1-ba3cf530033b"},"vehicle_type_id":"4","last_reported":1704625560,"current_range_meters":22000,"station_id":"ce4bgr92rcd13ifvqc7g","pricing_plan_id":"free"},{"bike_id":"7fd606b4-c177-4d2d-a59a-731bab27b2ce","system_id":"levelo_inurba_marseille","lat":43.299222,"lon":5.365554,"is_reserved":false,"is_disabled":false,"rental_uris":{"android":"levelo://app?vid=7fd606b4-c177-4d2d-a59a-731bab27b2ce","ios":"levelo://app?vid=7fd606b4-c177-4d2d-a59a-731bab27b2ce"},"vehicle_type_id":"4","last_reported":1704625560,"current_range_meters":25600,"station_id":"ce4bgm92rcd13ifvqbr0","pricing_plan_id":"free"},{"bike_id":"8cbc4597-2ed0-4f74-92bc-bf8809eb1afa","system_id":"levelo_inurba_marseille","lat":43.299724,"lon":5.371829,"is_reserved":false,"is_disabled":false,"rental_uris":{"android":"levelo://app?vid=8cbc4597-2ed0-4f74-92bc-bf8809eb1afa","ios":"levelo://app?vid=8cbc4597-2ed0-4f74-92bc-bf8809eb1afa"},"vehicle_type_id":"4","last_reported":1704625560,"current_range_meters":23600,"station_id":"ce4bgr92rcd13ifvqc7g","pricing_plan_id":"free"},{"bike_id":"53810426-cb6f-4d44-8905-20ecd0969a1b","system_id":"levelo_inurba_marseille","lat":43.299724,"lon":5.371829,"is_reserved":false,"is_disabled":false,"rental_uris":{"android":"levelo://app?vid=53810426-cb6f-4d44-8905-20ecd0969a1b","ios":"levelo://app?vid=53810426-cb6f-4d44-8905-20ecd0969a1b"},"vehicle_type_id":"4","last_reported":1704625560,"current_range_meters":7600,"station_id":"ce4bgr92rcd13ifvqc7g","pricing_plan_id":"free"},{"bike_id":"b22604ec-0c4b-41b4-a20e-38add68f7682","system_id":"levelo_inurba_marseille","lat":43.32559,"lon":5.37476,"is_reserved":false,"is_disabled":false,"rental_uris":{"android":"levelo://app?vid=b22604ec-0c4b-41b4-a20e-38add68f7682","ios":"levelo://app?vid=b22604ec-0c4b-41b4-a20e-38add68f7682"},"vehicle_type_id":"4","last_reported":1704625560,"current_range_meters":9600,"station_id":"","pricing_plan_id":"free"},{"bike_id":"90f624c9-e920-42f0-bdb2-c7157855cdc0","system_id":"levelo_inurba_marseille","lat":43.311593,"lon":5.386816,"is_reserved":false,"is_disabled":false,"rental_uris":{"android":"levelo://app?vid=90f624c9-e920-42f0-bdb2-c7157855cdc0","ios":"levelo://app?vid=90f624c9-e920-42f0-bdb2-c7157855cdc0"},"vehicle_type_id":"4","last_reported":1704625560,"current_range_meters":9200,"station_id":"ce4bgv12rcd13ifvqcp0","pricing_plan_id":"free"},{"bike_id":"3f7631f2-3988-4082-a7fc-48831d644f29","system_id":"levelo_inurba_marseille","lat":43.298433,"lon":5.362774,"is_reserved":false,"is_disabled":false,"rental_uris":{"android":"levelo://app?vid=3f7631f2-3988-4082-a7fc-48831d644f29","ios":"levelo://app?vid=3f7631f2-3988-4082-a7fc-48831d644f29"},"vehicle_type_id":"4","last_reported":1704625560,"current_range_meters":14400,"station_id":"ce4bgpp2rcd13ifvqc3g","pricing_plan_id":"free"},{"bike_id":"ae5a3721-c4e5-4ee9-9fd7-67280c04cfb6","system_id":"levelo_inurba_marseille","lat":43.298433,"lon":5.362774,"is_reserved":false,"is_disabled":false,"rental_uris":{"android":"levelo://app?vid=ae5a3721-c4e5-4ee9-9fd7-67280c04cfb6","ios":"levelo://app?vid=ae5a3721-c4e5-4ee9-9fd7-67280c04cfb6"},"vehicle_type_id":"4","last_reported":1704625560,"current_range_meters":23200,"station_id":"ce4bgpp2rcd13ifvqc3g","pricing_plan_id":"free"},{"bike_id":"11de5c06-6615-4c15-a5f5-3841ae68a42d","system_id":"levelo_inurba_marseille","lat":43.299243,"lon":5.374807,"is_reserved":false,"is_disabled":false,"rental_uris":{"android":"levelo://app?vid=11de5c06-6615-4c15-a5f5-3841ae68a42d","ios":"levelo://app?vid=11de5c06-6615-4c15-a5f5-3841ae68a42d"},"vehicle_type_id":"4","last_reported":1704625560,"current_range_meters":30400,"station_id":"ce4bgjh2rcd13ifvqbg0","pricing_plan_id":"free"},{"bike_id":"91853785-b412-43d8-9ede-1524189885ab","system_id":"levelo_inurba_marseille","lat":43.298433,"lon":5.362774,"is_reserved":false,"is_disabled":false,"rental_uris":{"android":"levelo://app?vid=91853785-b412-43d8-9ede-1524189885ab","ios":"levelo://app?vid=91853785-b412-43d8-9ede-1524189885ab"},"vehicle_type_id":"4","last_reported":1704625560,"current_range_meters":28800,"station_id":"ce4bgpp2rcd13ifvqc3g","pricing_plan_id":"free"},{"bike_id":"2b23ac9a-3cd7-46d2-9713-03ccc68b1bd1","system_id":"levelo_inurba_marseille","lat":43.299243,"lon":5.37481,"is_reserved":false,"is_disabled":false,"rental_uris":{"android":"levelo://app?vid=2b23ac9a-3cd7-46d2-9713-03ccc68b1bd1","ios":"levelo://app?vid=2b23ac9a-3cd7-46d2-9713-03ccc68b1bd1"},"vehicle_type_id":"4","last_reported":1704625560,"current_range_meters":23200,"station_id":"ce4bgjh2rcd13ifvqbg0","pricing_plan_id":"free"},{"bike_id":"675bc348-f84d-43f0-abe3-552320d97b09","system_id":"levelo_inurba_marseille","lat":43.299243,"lon":5.37481,"is_reserved":false,"is_disabled":false,"rental_uris":{"android":"levelo://app?vid=675bc348-f84d-43f0-abe3-552320d97b09","ios":"levelo://app?vid=675bc348-f84d-43f0-abe3-552320d97b09"},"vehicle_type_id":"4","last_reported":1704625560,"current_range_meters":22400,"station_id":"ce4bgjh2rcd13ifvqbg0","pricing_plan_id":"free"},{"bike_id":"6baaa609-23e6-42ba-b73d-ad8da4aafd37","system_id":"levelo_inurba_marseille","lat":43.297774,"lon":5.370875,"is_reserved":false,"is_disabled":false,"rental_uris":{"android":"levelo://app?vid=6baaa609-23e6-42ba-b73d-ad8da4aafd37","ios":"levelo://app?vid=6baaa609-23e6-42ba-b73d-ad8da4aafd37"},"vehicle_type_id":"4","last_reported":1704625560,"current_range_meters":30000,"station_id":"ce4bgop2rcd13ifvqc1g","pricing_plan_id":"free"},{"bike_id":"63f07019-ac6e-407e-9571-4ac96abcc3cf","system_id":"levelo_inurba_marseille","lat":43.32286,"lon":5.38255,"is_reserved":false,"is_disabled":false,"rental_uris":{"android":"levelo://app?vid=63f07019-ac6e-407e-9571-4ac96abcc3cf","ios":"levelo://app?vid=63f07019-ac6e-407e-9571-4ac96abcc3cf"},"vehicle_type_id":"4","last_reported":1704625560,"current_range_meters":16000,"station_id":"ce4bhr12rcd13ifvqhqg","pricing_plan_id":"free"},{"bike_id":"09da622d-5ec6-4261-a95d-695d32c570ab","system_id":"levelo_inurba_marseille","lat":43.322871,"lon":5.382595,"is_reserved":false,"is_disabled":false,"rental_uris":{"android":"levelo://app?vid=09da622d-5ec6-4261-a95d-695d32c570ab","ios":"levelo://app?vid=09da622d-5ec6-4261-a95d-695d32c570ab"},"vehicle_type_id":"4","last_reported":1704625560,"current_range_meters":10800,"station_id":"ce4bhr12rcd13ifvqhqg","pricing_plan_id":"free"},{"bike_id":"297a7823-4b34-45b3-8282-c78d31cc9f05","system_id":"levelo_inurba_marseille","lat":43.322872,"lon":5.382756,"is_reserved":false,"is_disabled":false,"rental_uris":{"android":"levelo://app?vid=297a7823-4b34-45b3-8282-c78d31cc9f05","ios":"levelo://app?vid=297a7823-4b34-45b3-8282-c78d31cc9f05"},"vehicle_type_id":"4","last_reported":1704625560,"current_range_meters":29200,"station_id":"ce4bhr12rcd13ifvqhqg","pricing_plan_id":"free"},{"bike_id":"276c91d7-6ca9-48bc-bf75-acd9920b9ec2","system_id":"levelo_inurba_marseille","lat":43.322872,"lon":5.382756,"is_reserved":false,"is_disabled":false,"rental_uris":{"android":"levelo://app?vid=276c91d7-6ca9-48bc-bf75-acd9920b9ec2","ios":"levelo://app?vid=276c91d7-6ca9-48bc-bf75-acd9920b9ec2"},"vehicle_type_id":"4","last_reported":1704625560,"current_range_meters":26400,"station_id":"ce4bhr12rcd13ifvqhqg","pricing_plan_id":"free"},{"bike_id":"3bb7c7dd-5eca-4a2d-a889-98c939c30e62","system_id":"levelo_inurba_marseille","lat":43.32288,"lon":5.38267,"is_reserved":false,"is_disabled":false,"rental_uris":{"android":"levelo://app?vid=3bb7c7dd-5eca-4a2d-a889-98c939c30e62","ios":"levelo://app?vid=3bb7c7dd-5eca-4a2d-a889-98c939c30e62"},"vehicle_type_id":"4","last_reported":1704625560,"current_range_meters":27200,"station_id":"ce4bhr12rcd13ifvqhqg","pricing_plan_id":"free"},{"bike_id":"cc495013-a9b7-4492-a4e4-0f0aca4a9939","system_id":"levelo_inurba_marseille","lat":43.322872,"lon":5.382756,"is_reserved":false,"is_disabled":false,"rental_uris":{"android":"levelo://app?vid=cc495013-a9b7-4492-a4e4-0f0aca4a9939","ios":"levelo://app?vid=cc495013-a9b7-4492-a4e4-0f0aca4a9939"},"vehicle_type_id":"4","last_reported":1704625560,"current_range_meters":7600,"station_id":"ce4bhr12rcd13ifvqhqg","pricing_plan_id":"free"},{"bike_id":"d0aaa14f-1070-4a80-a2f2-78508dd9f6bd","system_id":"levelo_inurba_marseille","lat":43.322872,"lon":5.382756,"is_reserved":false,"is_disabled":false,"rental_uris":{"android":"levelo://app?vid=d0aaa14f-1070-4a80-a2f2-78508dd9f6bd","ios":"levelo://app?vid=d0aaa14f-1070-4a80-a2f2-78508dd9f6bd"},"vehicle_type_id":"4","last_reported":1704625560,"current_range_meters":31600,"station_id":"ce4bhr12rcd13ifvqhqg","pricing_plan_id":"free"},{"bike_id":"48de57f3-12a8-4253-90b5-aab66c42162c","system_id":"levelo_inurba_marseille","lat":43.32821,"lon":5.36689,"is_reserved":false,"is_disabled":false,"rental_uris":{"android":"levelo://app?vid=48de57f3-12a8-4253-90b5-aab66c42162c","ios":"levelo://app?vid=48de57f3-12a8-4253-90b5-aab66c42162c"},"vehicle_type_id":"4","last_reported":1704625560,"current_range_meters":18000,"station_id":"ce4bhs92rcd13ifvqi0g","pricing_plan_id":"free"},{"bike_id":"387c1dff-fb7e-4547-838e-1af3f69c4219","system_id":"levelo_inurba_marseille","lat":43.328221,"lon":5.366778,"is_reserved":false,"is_disabled":false,"rental_uris":{"android":"levelo://app?vid=387c1dff-fb7e-4547-838e-1af3f69c4219","ios":"levelo://app?vid=387c1dff-fb7e-4547-838e-1af3f69c4219"},"vehicle_type_id":"4","last_reported":1704625560,"current_range_meters":23600,"station_id":"ce4bhs92rcd13ifvqi0g","pricing_plan_id":"free"},{"bike_id":"72905f78-9c33-4138-8385-d331d9223abd","system_id":"levelo_inurba_marseille","lat":43.328244,"lon":5.366679,"is_reserved":false,"is_disabled":false,"rental_uris":{"android":"levelo://app?vid=72905f78-9c33-4138-8385-d331d9223abd","ios":"levelo://app?vid=72905f78-9c33-4138-8385-d331d9223abd"},"vehicle_type_id":"4","last_reported":1704625560,"current_range_meters":15200,"station_id":"ce4bhs92rcd13ifvqi0g","pricing_plan_id":"free"},{"bike_id":"a791cb05-0716-4f7c-bfab-5cd10f4022f6","system_id":"levelo_inurba_marseille","lat":43.32825,"lon":5.3669,"is_reserved":false,"is_disabled":false,"rental_uris":{"android":"levelo://app?vid=a791cb05-0716-4f7c-bfab-5cd10f4022f6","ios":"levelo://app?vid=a791cb05-0716-4f7c-bfab-5cd10f4022f6"},"vehicle_type_id":"4","last_reported":1704625560,"current_range_meters":17200,"station_id":"ce4bhs92rcd13ifvqi0g","pricing_plan_id":"free"},{"bike_id":"c224ea64-7bb8-45be-8a3a-d137d9e17684","system_id":"levelo_inurba_marseille","lat":43.32825,"lon":5.36678,"is_reserved":false,"is_disabled":false,"rental_uris":{"android":"levelo://app?vid=c224ea64-7bb8-45be-8a3a-d137d9e17684","ios":"levelo://app?vid=c224ea64-7bb8-45be-8a3a-d137d9e17684"},"vehicle_type_id":"4","last_reported":1704625560,"current_range_meters":14400,"station_id":"ce4bhs92rcd13ifvqi0g","pricing_plan_id":"free"},{"bike_id":"5021f406-3153-4a9e-a450-00a19314acbe","system_id":"levelo_inurba_marseille","lat":43.32825,"lon":5.36672,"is_reserved":false,"is_disabled":false,"rental_uris":{"android":"levelo://app?vid=5021f406-3153-4a9e-a450-00a19314acbe","ios":"levelo://app?vid=5021f406-3153-4a9e-a450-00a19314acbe"},"vehicle_type_id":"4","last_reported":1704625560,"current_range_meters":31200,"station_id":"ce4bhs92rcd13ifvqi0g","pricing_plan_id":"free"},{"bike_id":"30714412-926c-4fbd-8639-ea1fba1e8d22","system_id":"levelo_inurba_marseille","lat":43.32827,"lon":5.36687,"is_reserved":false,"is_disabled":false,"rental_uris":{"android":"levelo://app?vid=30714412-926c-4fbd-8639-ea1fba1e8d22","ios":"levelo://app?vid=30714412-926c-4fbd-8639-ea1fba1e8d22"},"vehicle_type_id":"4","last_reported":1704625560,"current_range_meters":21200,"station_id":"ce4bhs92rcd13ifvqi0g","pricing_plan_id":"free"},{"bike_id":"66addf4b-70b7-4ac4-8e17-37956e9ecfbb","system_id":"levelo_inurba_marseille","lat":43.32827,"lon":5.36683,"is_reserved":false,"is_disabled":false,"rental_uris":{"android":"levelo://app?vid=66addf4b-70b7-4ac4-8e17-37956e9ecfbb","ios":"levelo://app?vid=66addf4b-70b7-4ac4-8e17-37956e9ecfbb"},"vehicle_type_id":"4","last_reported":1704625560,"current_range_meters":20000,"station_id":"ce4bhs92rcd13ifvqi0g","pricing_plan_id":"free"},{"bike_id":"ca02ca89-8dd5-4fc4-9a30-db37a36b7ff7","system_id":"levelo_inurba_marseille","lat":43.32827,"lon":5.36678,"is_reserved":false,"is_disabled":false,"rental_uris":{"android":"levelo://app?vid=ca02ca89-8dd5-4fc4-9a30-db37a36b7ff7","ios":"levelo://app?vid=ca02ca89-8dd5-4fc4-9a30-db37a36b7ff7"},"vehicle_type_id":"4","last_reported":1704625560,"current_range_meters":29200,"station_id":"ce4bhs92rcd13ifvqi0g","pricing_plan_id":"free"},{"bike_id":"8341e063-523f-4d25-880b-99eb6edf220f","system_id":"levelo_inurba_marseille","lat":43.32827,"lon":5.36676,"is_reserved":false,"is_disabled":false,"rental_uris":{"android":"levelo://app?vid=8341e063-523f-4d25-880b-99eb6edf220f","ios":"levelo://app?vid=8341e063-523f-4d25-880b-99eb6edf220f"},"vehicle_type_id":"4","last_reported":1704625560,"current_range_meters":16400,"station_id":"ce4bhs92rcd13ifvqi0g","pricing_plan_id":"free"},{"bike_id":"9383789e-2a1a-4049-a767-e1f78cbdfc52","system_id":"levelo_inurba_marseille","lat":43.328371,"lon":5.366909,"is_reserved":false,"is_disabled":false,"rental_uris":{"android":"levelo://app?vid=9383789e-2a1a-4049-a767-e1f78cbdfc52","ios":"levelo://app?vid=9383789e-2a1a-4049-a767-e1f78cbdfc52"},"vehicle_type_id":"4","last_reported":1704625560,"current_range_meters":18800,"station_id":"ce4bhs92rcd13ifvqi0g","pricing_plan_id":"free"},{"bike_id":"064b14d2-f3e9-43be-a725-c95d6c66fd15","system_id":"levelo_inurba_marseille","lat":43.328371,"lon":5.366909,"is_reserved":false,"is_disabled":false,"rental_uris":{"android":"levelo://app?vid=064b14d2-f3e9-43be-a725-c95d6c66fd15","ios":"levelo://app?vid=064b14d2-f3e9-43be-a725-c95d6c66fd15"},"vehicle_type_id":"4","last_reported":1704625560,"current_range_meters":22400,"station_id":"ce4bhs92rcd13ifvqi0g","pricing_plan_id":"free"},{"bike_id":"43f47c35-ec23-411b-b2fa-7957e35eab11","system_id":"levelo_inurba_marseille","lat":43.328371,"lon":5.366909,"is_reserved":false,"is_disabled":false,"rental_uris":{"android":"levelo://app?vid=43f47c35-ec23-411b-b2fa-7957e35eab11","ios":"levelo://app?vid=43f47c35-ec23-411b-b2fa-7957e35eab11"},"vehicle_type_id":"4","last_reported":1704625560,"current_range_meters":11200,"station_id":"ce4bhs92rcd13ifvqi0g","pricing_plan_id":"free"},{"bike_id":"753d2fe5-d673-41f8-8778-4842dbb07364","system_id":"levelo_inurba_marseille","lat":43.328371,"lon":5.366912,"is_reserved":false,"is_disabled":false,"rental_uris":{"android":"levelo://app?vid=753d2fe5-d673-41f8-8778-4842dbb07364","ios":"levelo://app?vid=753d2fe5-d673-41f8-8778-4842dbb07364"},"vehicle_type_id":"4","last_reported":1704625560,"current_range_meters":31200,"station_id":"ce4bhs92rcd13ifvqi0g","pricing_plan_id":"free"},{"bike_id":"e22d5d66-2c33-444c-9a95-5d6517dd879c","system_id":"levelo_inurba_marseille","lat":43.328371,"lon":5.366909,"is_reserved":false,"is_disabled":false,"rental_uris":{"android":"levelo://app?vid=e22d5d66-2c33-444c-9a95-5d6517dd879c","ios":"levelo://app?vid=e22d5d66-2c33-444c-9a95-5d6517dd879c"},"vehicle_type_id":"4","last_reported":1704625560,"current_range_meters":6000,"station_id":"ce4bhs92rcd13ifvqi0g","pricing_plan_id":"free"},{"bike_id":"42895378-a21e-445b-8e89-325727904609","system_id":"levelo_inurba_marseille","lat":43.328371,"lon":5.366909,"is_reserved":false,"is_disabled":false,"rental_uris":{"android":"levelo://app?vid=42895378-a21e-445b-8e89-325727904609","ios":"levelo://app?vid=42895378-a21e-445b-8e89-325727904609"},"vehicle_type_id":"4","last_reported":1704625560,"current_range_meters":22400,"station_id":"ce4bhs92rcd13ifvqi0g","pricing_plan_id":"free"},{"bike_id":"ee966a52-c4f3-4b5b-b8b2-c85b17eb5fb4","system_id":"levelo_inurba_marseille","lat":43.328371,"lon":5.366909,"is_reserved":false,"is_disabled":false,"rental_uris":{"android":"levelo://app?vid=ee966a52-c4f3-4b5b-b8b2-c85b17eb5fb4","ios":"levelo://app?vid=ee966a52-c4f3-4b5b-b8b2-c85b17eb5fb4"},"vehicle_type_id":"4","last_reported":1704625560,"current_range_meters":16400,"station_id":"ce4bhs92rcd13ifvqi0g","pricing_plan_id":"free"},{"bike_id":"0725f2a6-de18-43ea-a245-f699ddc19b55","system_id":"levelo_inurba_marseille","lat":43.328371,"lon":5.366909,"is_reserved":false,"is_disabled":false,"rental_uris":{"android":"levelo://app?vid=0725f2a6-de18-43ea-a245-f699ddc19b55","ios":"levelo://app?vid=0725f2a6-de18-43ea-a245-f699ddc19b55"},"vehicle_type_id":"4","last_reported":1704625560,"current_range_meters":8800,"station_id":"ce4bhs92rcd13ifvqi0g","pricing_plan_id":"free"},{"bike_id":"c4985e4b-ae2d-4dac-b59d-2cf7a488779d","system_id":"levelo_inurba_marseille","lat":43.297163,"lon":5.365866,"is_reserved":false,"is_disabled":false,"rental_uris":{"android":"levelo://app?vid=c4985e4b-ae2d-4dac-b59d-2cf7a488779d","ios":"levelo://app?vid=c4985e4b-ae2d-4dac-b59d-2cf7a488779d"},"vehicle_type_id":"4","last_reported":1704625560,"current_range_meters":25600,"station_id":"ce4bgn12rcd13ifvqbt0","pricing_plan_id":"free"},{"bike_id":"f639a436-04c3-4aa2-ab91-c85267fb4328","system_id":"levelo_inurba_marseille","lat":43.29619,"lon":5.37148,"is_reserved":false,"is_disabled":false,"rental_uris":{"android":"levelo://app?vid=f639a436-04c3-4aa2-ab91-c85267fb4328","ios":"levelo://app?vid=f639a436-04c3-4aa2-ab91-c85267fb4328"},"vehicle_type_id":"4","last_reported":1704625560,"current_range_meters":28000,"station_id":"ce4bgnh2rcd13ifvqc0g","pricing_plan_id":"free"},{"bike_id":"37ff019d-5bc8-4d13-b49b-87494de9ac4e","system_id":"levelo_inurba_marseille","lat":43.29581,"lon":5.36744,"is_reserved":false,"is_disabled":false,"rental_uris":{"android":"levelo://app?vid=37ff019d-5bc8-4d13-b49b-87494de9ac4e","ios":"levelo://app?vid=37ff019d-5bc8-4d13-b49b-87494de9ac4e"},"vehicle_type_id":"4","last_reported":1704625560,"current_range_meters":26800,"station_id":"ce4bgph2rcd13ifvqc2g","pricing_plan_id":"free"},{"bike_id":"4d1656e1-bca6-434e-b33b-4c2cbf8f7ae6","system_id":"levelo_inurba_marseille","lat":43.29573,"lon":5.367355,"is_reserved":false,"is_disabled":false,"rental_uris":{"android":"levelo://app?vid=4d1656e1-bca6-434e-b33b-4c2cbf8f7ae6","ios":"levelo://app?vid=4d1656e1-bca6-434e-b33b-4c2cbf8f7ae6"},"vehicle_type_id":"4","last_reported":1704625560,"current_range_meters":24800,"station_id":"ce4bgph2rcd13ifvqc2g","pricing_plan_id":"free"},{"bike_id":"89223683-d708-4695-9ed5-6e6f6dfd15b7","system_id":"levelo_inurba_marseille","lat":43.296935,"lon":5.376544,"is_reserved":false,"is_disabled":false,"rental_uris":{"android":"levelo://app?vid=89223683-d708-4695-9ed5-6e6f6dfd15b7","ios":"levelo://app?vid=89223683-d708-4695-9ed5-6e6f6dfd15b7"},"vehicle_type_id":"4","last_reported":1704625560,"current_range_meters":25200,"station_id":"ce4bgkh2rcd13ifvqbl0","pricing_plan_id":"free"},{"bike_id":"6c5eebbe-3606-40f4-b51a-cdf8266c0074","system_id":"levelo_inurba_marseille","lat":43.309564,"lon":5.390355,"is_reserved":false,"is_disabled":false,"rental_uris":{"android":"levelo://app?vid=6c5eebbe-3606-40f4-b51a-cdf8266c0074","ios":"levelo://app?vid=6c5eebbe-3606-40f4-b51a-cdf8266c0074"},"vehicle_type_id":"4","last_reported":1704625560,"current_range_meters":25600,"station_id":"ce4bgup2rcd13ifvqco0","pricing_plan_id":"free"},{"bike_id":"fcdaf753-8f4b-40ab-aab5-8b11ac124835","system_id":"levelo_inurba_marseille","lat":43.309589,"lon":5.390258,"is_reserved":false,"is_disabled":false,"rental_uris":{"android":"levelo://app?vid=fcdaf753-8f4b-40ab-aab5-8b11ac124835","ios":"levelo://app?vid=fcdaf753-8f4b-40ab-aab5-8b11ac124835"},"vehicle_type_id":"4","last_reported":1704625560,"current_range_meters":25600,"station_id":"ce4bgup2rcd13ifvqco0","pricing_plan_id":"free"},{"bike_id":"c8f1c66d-517e-47cd-8c74-1fbdb664b117","system_id":"levelo_inurba_marseille","lat":43.30947,"lon":5.39048,"is_reserved":false,"is_disabled":false,"rental_uris":{"android":"levelo://app?vid=c8f1c66d-517e-47cd-8c74-1fbdb664b117","ios":"levelo://app?vid=c8f1c66d-517e-47cd-8c74-1fbdb664b117"},"vehicle_type_id":"4","last_reported":1704625560,"current_range_meters":0,"station_id":"ce4bgup2rcd13ifvqco0","pricing_plan_id":"free"},{"bike_id":"fc4ff5de-621c-414a-9bfd-b4cc2eddf11a","system_id":"levelo_inurba_marseille","lat":43.305994,"lon":5.393687,"is_reserved":false,"is_disabled":false,"rental_uris":{"android":"levelo://app?vid=fc4ff5de-621c-414a-9bfd-b4cc2eddf11a","ios":"levelo://app?vid=fc4ff5de-621c-414a-9bfd-b4cc2eddf11a"},"vehicle_type_id":"4","last_reported":1704625560,"current_range_meters":13200,"station_id":"ce4bh0p2rcd13ifvqd80","pricing_plan_id":"free"},{"bike_id":"8088569f-085b-480e-8192-cee04b972d15","system_id":"levelo_inurba_marseille","lat":43.317557,"lon":5.390173,"is_reserved":false,"is_disabled":false,"rental_uris":{"android":"levelo://app?vid=8088569f-085b-480e-8192-cee04b972d15","ios":"levelo://app?vid=8088569f-085b-480e-8192-cee04b972d15"},"vehicle_type_id":"4","last_reported":1704625560,"current_range_meters":30800,"station_id":"ce4bhqp2rcd13ifvqhng","pricing_plan_id":"free"},{"bike_id":"712bc03c-4301-4f23-a402-31c4a3f6ea54","system_id":"levelo_inurba_marseille","lat":43.31759,"lon":5.39022,"is_reserved":false,"is_disabled":false,"rental_uris":{"android":"levelo://app?vid=712bc03c-4301-4f23-a402-31c4a3f6ea54","ios":"levelo://app?vid=712bc03c-4301-4f23-a402-31c4a3f6ea54"},"vehicle_type_id":"4","last_reported":1704625560,"current_range_meters":4400,"station_id":"ce4bhqp2rcd13ifvqhng","pricing_plan_id":"free"},{"bike_id":"8b6e78ed-ecb8-466f-b871-d464dfa838a0","system_id":"levelo_inurba_marseille","lat":43.295748,"lon":5.37522,"is_reserved":false,"is_disabled":false,"rental_uris":{"android":"levelo://app?vid=8b6e78ed-ecb8-466f-b871-d464dfa838a0","ios":"levelo://app?vid=8b6e78ed-ecb8-466f-b871-d464dfa838a0"},"vehicle_type_id":"4","last_reported":1704625560,"current_range_meters":22000,"station_id":"ce4bgh92rcd13ifvqb50","pricing_plan_id":"free"},{"bike_id":"85de360c-88a3-4028-bc30-897283958b8d","system_id":"levelo_inurba_marseille","lat":43.295279,"lon":5.375048,"is_reserved":false,"is_disabled":false,"rental_uris":{"android":"levelo://app?vid=85de360c-88a3-4028-bc30-897283958b8d","ios":"levelo://app?vid=85de360c-88a3-4028-bc30-897283958b8d"},"vehicle_type_id":"4","last_reported":1704625560,"current_range_meters":27200,"station_id":"ce4bgkp2rcd13ifvqbmg","pricing_plan_id":"free"},{"bike_id":"fe00a187-12eb-4019-910f-19e42f205f9e","system_id":"levelo_inurba_marseille","lat":43.295279,"lon":5.375048,"is_reserved":false,"is_disabled":false,"rental_uris":{"android":"levelo://app?vid=fe00a187-12eb-4019-910f-19e42f205f9e","ios":"levelo://app?vid=fe00a187-12eb-4019-910f-19e42f205f9e"},"vehicle_type_id":"4","last_reported":1704625560,"current_range_meters":9600,"station_id":"ce4bgkp2rcd13ifvqbmg","pricing_plan_id":"free"},{"bike_id":"e41edb74-3214-4bda-a00f-c48da0bca9f0","system_id":"levelo_inurba_marseille","lat":43.299724,"lon":5.384848,"is_reserved":false,"is_disabled":false,"rental_uris":{"android":"levelo://app?vid=e41edb74-3214-4bda-a00f-c48da0bca9f0","ios":"levelo://app?vid=e41edb74-3214-4bda-a00f-c48da0bca9f0"},"vehicle_type_id":"4","last_reported":1704625560,"current_range_meters":26400,"station_id":"ce4bgj92rcd13ifvqbd0","pricing_plan_id":"free"},{"bike_id":"45143701-ee0f-449e-a6ed-5c6826e8c2f3","system_id":"levelo_inurba_marseille","lat":43.32367,"lon":5.388836,"is_reserved":false,"is_disabled":false,"rental_uris":{"android":"levelo://app?vid=45143701-ee0f-449e-a6ed-5c6826e8c2f3","ios":"levelo://app?vid=45143701-ee0f-449e-a6ed-5c6826e8c2f3"},"vehicle_type_id":"4","last_reported":1704625560,"current_range_meters":26800,"station_id":"ce4bhqp2rcd13ifvqhog","pricing_plan_id":"free"},{"bike_id":"204dea3f-87e7-4326-9f54-6cdab23e9e5a","system_id":"levelo_inurba_marseille","lat":43.32367,"lon":5.388836,"is_reserved":false,"is_disabled":false,"rental_uris":{"android":"levelo://app?vid=204dea3f-87e7-4326-9f54-6cdab23e9e5a","ios":"levelo://app?vid=204dea3f-87e7-4326-9f54-6cdab23e9e5a"},"vehicle_type_id":"4","last_reported":1704625560,"current_range_meters":31200,"station_id":"ce4bhqp2rcd13ifvqhog","pricing_plan_id":"free"},{"bike_id":"cdc52804-365f-47bc-ac28-e4ad9c3e46d7","system_id":"levelo_inurba_marseille","lat":43.32367,"lon":5.388836,"is_reserved":false,"is_disabled":false,"rental_uris":{"android":"levelo://app?vid=cdc52804-365f-47bc-ac28-e4ad9c3e46d7","ios":"levelo://app?vid=cdc52804-365f-47bc-ac28-e4ad9c3e46d7"},"vehicle_type_id":"4","last_reported":1704625560,"current_range_meters":31200,"station_id":"ce4bhqp2rcd13ifvqhog","pricing_plan_id":"free"},{"bike_id":"147b8151-2360-481c-804a-30e39a06e4de","system_id":"levelo_inurba_marseille","lat":43.29604,"lon":5.38101,"is_reserved":false,"is_disabled":false,"rental_uris":{"android":"levelo://app?vid=147b8151-2360-481c-804a-30e39a06e4de","ios":"levelo://app?vid=147b8151-2360-481c-804a-30e39a06e4de"},"vehicle_type_id":"4","last_reported":1704625560,"current_range_meters":26000,"station_id":"ce4bgl12rcd13ifvqbo0","pricing_plan_id":"free"},{"bike_id":"b294702b-142e-4c8f-99f3-0f1b4332bda6","system_id":"levelo_inurba_marseille","lat":43.293259,"lon":5.371586,"is_reserved":false,"is_disabled":false,"rental_uris":{"android":"levelo://app?vid=b294702b-142e-4c8f-99f3-0f1b4332bda6","ios":"levelo://app?vid=b294702b-142e-4c8f-99f3-0f1b4332bda6"},"vehicle_type_id":"4","last_reported":1704625560,"current_range_meters":27200,"station_id":"ce4bgh92rcd13ifvqb40","pricing_plan_id":"free"},{"bike_id":"5f1dd9e4-aa1c-4018-95c5-8c7b136d627f","system_id":"levelo_inurba_marseille","lat":43.292763,"lon":5.368137,"is_reserved":false,"is_disabled":false,"rental_uris":{"android":"levelo://app?vid=5f1dd9e4-aa1c-4018-95c5-8c7b136d627f","ios":"levelo://app?vid=5f1dd9e4-aa1c-4018-95c5-8c7b136d627f"},"vehicle_type_id":"4","last_reported":1704625560,"current_range_meters":0,"station_id":"ce4bhbp2rcd13ifvqesg","pricing_plan_id":"free"},{"bike_id":"f1505aec-1395-4655-9cdc-11915a2b717c","system_id":"levelo_inurba_marseille","lat":43.293009,"lon":5.374584,"is_reserved":false,"is_disabled":false,"rental_uris":{"android":"levelo://app?vid=f1505aec-1395-4655-9cdc-11915a2b717c","ios":"levelo://app?vid=f1505aec-1395-4655-9cdc-11915a2b717c"},"vehicle_type_id":"4","last_reported":1704625560,"current_range_meters":27200,"station_id":"ce4bgi12rcd13ifvqb70","pricing_plan_id":"free"},{"bike_id":"5bcad76d-b2fe-45b7-a2b4-17e44f01dc51","system_id":"levelo_inurba_marseille","lat":43.293009,"lon":5.374584,"is_reserved":false,"is_disabled":false,"rental_uris":{"android":"levelo://app?vid=5bcad76d-b2fe-45b7-a2b4-17e44f01dc51","ios":"levelo://app?vid=5bcad76d-b2fe-45b7-a2b4-17e44f01dc51"},"vehicle_type_id":"4","last_reported":1704625560,"current_range_meters":24400,"station_id":"ce4bgi12rcd13ifvqb70","pricing_plan_id":"free"},{"bike_id":"b31b7cb6-4e40-488b-a91c-bb62f29af407","system_id":"levelo_inurba_marseille","lat":43.292979,"lon":5.374607,"is_reserved":false,"is_disabled":false,"rental_uris":{"android":"levelo://app?vid=b31b7cb6-4e40-488b-a91c-bb62f29af407","ios":"levelo://app?vid=b31b7cb6-4e40-488b-a91c-bb62f29af407"},"vehicle_type_id":"4","last_reported":1704625560,"current_range_meters":30400,"station_id":"ce4bgi12rcd13ifvqb70","pricing_plan_id":"free"},{"bike_id":"0042d25b-b3ee-4730-bc29-984757050110","system_id":"levelo_inurba_marseille","lat":43.30596,"lon":5.39361,"is_reserved":false,"is_disabled":false,"rental_uris":{"android":"levelo://app?vid=0042d25b-b3ee-4730-bc29-984757050110","ios":"levelo://app?vid=0042d25b-b3ee-4730-bc29-984757050110"},"vehicle_type_id":"4","last_reported":1704625560,"current_range_meters":22800,"station_id":"ce4bh0p2rcd13ifvqd80","pricing_plan_id":"free"},{"bike_id":"6d8a6a7f-a47d-4c3b-a5e7-b2d9c3611fdb","system_id":"levelo_inurba_marseille","lat":43.293009,"lon":5.374584,"is_reserved":false,"is_disabled":false,"rental_uris":{"android":"levelo://app?vid=6d8a6a7f-a47d-4c3b-a5e7-b2d9c3611fdb","ios":"levelo://app?vid=6d8a6a7f-a47d-4c3b-a5e7-b2d9c3611fdb"},"vehicle_type_id":"4","last_reported":1704625560,"current_range_meters":31200,"station_id":"ce4bgi12rcd13ifvqb70","pricing_plan_id":"free"},{"bike_id":"9f2c3e2b-de47-4c07-88fc-7fd01aaa9a08","system_id":"levelo_inurba_marseille","lat":43.2936,"lon":5.37835,"is_reserved":false,"is_disabled":false,"rental_uris":{"android":"levelo://app?vid=9f2c3e2b-de47-4c07-88fc-7fd01aaa9a08","ios":"levelo://app?vid=9f2c3e2b-de47-4c07-88fc-7fd01aaa9a08"},"vehicle_type_id":"4","last_reported":1704625560,"current_range_meters":22400,"station_id":"ce4bgjh2rcd13ifvqbf0","pricing_plan_id":"free"},{"bike_id":"e6d1c8b8-8961-49f7-850c-0b8712493c80","system_id":"levelo_inurba_marseille","lat":43.292311,"lon":5.360731,"is_reserved":false,"is_disabled":false,"rental_uris":{"android":"levelo://app?vid=e6d1c8b8-8961-49f7-850c-0b8712493c80","ios":"levelo://app?vid=e6d1c8b8-8961-49f7-850c-0b8712493c80"},"vehicle_type_id":"4","last_reported":1704625560,"current_range_meters":30000,"station_id":"ce4bhbh2rcd13ifvqeqg","pricing_plan_id":"free"},{"bike_id":"5daaabd6-0643-483b-a1d9-ad2d92bbe838","system_id":"levelo_inurba_marseille","lat":43.300852,"lon":5.390859,"is_reserved":false,"is_disabled":false,"rental_uris":{"android":"levelo://app?vid=5daaabd6-0643-483b-a1d9-ad2d92bbe838","ios":"levelo://app?vid=5daaabd6-0643-483b-a1d9-ad2d92bbe838"},"vehicle_type_id":"4","last_reported":1704625560,"current_range_meters":6800,"station_id":"ce4bh192rcd13ifvqdb0","pricing_plan_id":"free"},{"bike_id":"8916738f-b248-4632-9b9e-f268074949a1","system_id":"levelo_inurba_marseille","lat":43.291671,"lon":5.371575,"is_reserved":false,"is_disabled":false,"rental_uris":{"android":"levelo://app?vid=8916738f-b248-4632-9b9e-f268074949a1","ios":"levelo://app?vid=8916738f-b248-4632-9b9e-f268074949a1"},"vehicle_type_id":"4","last_reported":1704625560,"current_range_meters":27600,"station_id":"ce4bha92rcd13ifvqeh0","pricing_plan_id":"free"},{"bike_id":"ae2a9138-18ed-4595-8bb4-4817bfc4f816","system_id":"levelo_inurba_marseille","lat":43.291675,"lon":5.371583,"is_reserved":false,"is_disabled":false,"rental_uris":{"android":"levelo://app?vid=ae2a9138-18ed-4595-8bb4-4817bfc4f816","ios":"levelo://app?vid=ae2a9138-18ed-4595-8bb4-4817bfc4f816"},"vehicle_type_id":"4","last_reported":1704625560,"current_range_meters":27200,"station_id":"ce4bha92rcd13ifvqeh0","pricing_plan_id":"free"},{"bike_id":"719722b6-c0b5-41c5-854d-0427ebce7abf","system_id":"levelo_inurba_marseille","lat":43.291675,"lon":5.371583,"is_reserved":false,"is_disabled":false,"rental_uris":{"android":"levelo://app?vid=719722b6-c0b5-41c5-854d-0427ebce7abf","ios":"levelo://app?vid=719722b6-c0b5-41c5-854d-0427ebce7abf"},"vehicle_type_id":"4","last_reported":1704625560,"current_range_meters":28000,"station_id":"ce4bha92rcd13ifvqeh0","pricing_plan_id":"free"},{"bike_id":"79b5a47f-ebea-4486-8e54-cc1a7bd75c6e","system_id":"levelo_inurba_marseille","lat":43.291994,"lon":5.357886,"is_reserved":false,"is_disabled":false,"rental_uris":{"android":"levelo://app?vid=79b5a47f-ebea-4486-8e54-cc1a7bd75c6e","ios":"levelo://app?vid=79b5a47f-ebea-4486-8e54-cc1a7bd75c6e"},"vehicle_type_id":"4","last_reported":1704625560,"current_range_meters":14800,"station_id":"ce4bhb12rcd13ifvqel0","pricing_plan_id":"free"},{"bike_id":"0c55181c-11e1-4e55-9ca6-08cc7dab4996","system_id":"levelo_inurba_marseille","lat":43.313291,"lon":5.396838,"is_reserved":false,"is_disabled":false,"rental_uris":{"android":"levelo://app?vid=0c55181c-11e1-4e55-9ca6-08cc7dab4996","ios":"levelo://app?vid=0c55181c-11e1-4e55-9ca6-08cc7dab4996"},"vehicle_type_id":"4","last_reported":1704625560,"current_range_meters":21200,"station_id":"ce4bgvp2rcd13ifvqcu0","pricing_plan_id":"free"},{"bike_id":"1d2960b8-60be-4cab-a361-0305908bc696","system_id":"levelo_inurba_marseille","lat":43.313291,"lon":5.396838,"is_reserved":false,"is_disabled":false,"rental_uris":{"android":"levelo://app?vid=1d2960b8-60be-4cab-a361-0305908bc696","ios":"levelo://app?vid=1d2960b8-60be-4cab-a361-0305908bc696"},"vehicle_type_id":"4","last_reported":1704625560,"current_range_meters":12800,"station_id":"ce4bgvp2rcd13ifvqcu0","pricing_plan_id":"free"},{"bike_id":"a32a7746-144b-4831-b829-ba30a3ecf321","system_id":"levelo_inurba_marseille","lat":43.313291,"lon":5.396838,"is_reserved":false,"is_disabled":false,"rental_uris":{"android":"levelo://app?vid=a32a7746-144b-4831-b829-ba30a3ecf321","ios":"levelo://app?vid=a32a7746-144b-4831-b829-ba30a3ecf321"},"vehicle_type_id":"4","last_reported":1704625560,"current_range_meters":30000,"station_id":"ce4bgvp2rcd13ifvqcu0","pricing_plan_id":"free"},{"bike_id":"dd8183be-a822-4ba4-941f-f8962ed9c98a","system_id":"levelo_inurba_marseille","lat":43.290779,"lon":5.371482,"is_reserved":false,"is_disabled":false,"rental_uris":{"android":"levelo://app?vid=dd8183be-a822-4ba4-941f-f8962ed9c98a","ios":"levelo://app?vid=dd8183be-a822-4ba4-941f-f8962ed9c98a"},"vehicle_type_id":"4","last_reported":1704625560,"current_range_meters":24400,"station_id":"ce4bh5p2rcd13ifvqe4g","pricing_plan_id":"free"},{"bike_id":"002fc66d-843f-47ba-aaf4-22fc507adcfa","system_id":"levelo_inurba_marseille","lat":43.290327,"lon":5.375711,"is_reserved":false,"is_disabled":false,"rental_uris":{"android":"levelo://app?vid=002fc66d-843f-47ba-aaf4-22fc507adcfa","ios":"levelo://app?vid=002fc66d-843f-47ba-aaf4-22fc507adcfa"},"vehicle_type_id":"4","last_reported":1704625560,"current_range_meters":16400,"station_id":"ce4bh692rcd13ifvqe90","pricing_plan_id":"free"},{"bike_id":"5da570ca-0cbe-456a-b998-dd75e2a6b6aa","system_id":"levelo_inurba_marseille","lat":43.289184,"lon":5.366408,"is_reserved":false,"is_disabled":false,"rental_uris":{"android":"levelo://app?vid=5da570ca-0cbe-456a-b998-dd75e2a6b6aa","ios":"levelo://app?vid=5da570ca-0cbe-456a-b998-dd75e2a6b6aa"},"vehicle_type_id":"4","last_reported":1704625560,"current_range_meters":29600,"station_id":"ce4bhap2rcd13ifvqek0","pricing_plan_id":"free"},{"bike_id":"1d4049ee-b944-4006-98f4-e75321577ce3","system_id":"levelo_inurba_marseille","lat":43.292737,"lon":5.384486,"is_reserved":false,"is_disabled":false,"rental_uris":{"android":"levelo://app?vid=1d4049ee-b944-4006-98f4-e75321577ce3","ios":"levelo://app?vid=1d4049ee-b944-4006-98f4-e75321577ce3"},"vehicle_type_id":"4","last_reported":1704625560,"current_range_meters":26000,"station_id":"ce4bh692rcd13ifvqea0","pricing_plan_id":"free"},{"bike_id":"f28880ab-4352-40c1-b0c2-7f78fe0d7bfc","system_id":"levelo_inurba_marseille","lat":43.29268,"lon":5.3844,"is_reserved":false,"is_disabled":false,"rental_uris":{"android":"levelo://app?vid=f28880ab-4352-40c1-b0c2-7f78fe0d7bfc","ios":"levelo://app?vid=f28880ab-4352-40c1-b0c2-7f78fe0d7bfc"},"vehicle_type_id":"4","last_reported":1704625560,"current_range_meters":2800,"station_id":"ce4bh692rcd13ifvqea0","pricing_plan_id":"free"},{"bike_id":"4287d4b2-16ac-452b-b6aa-050517d52bec","system_id":"levelo_inurba_marseille","lat":43.304296,"lon":5.397513,"is_reserved":false,"is_disabled":false,"rental_uris":{"android":"levelo://app?vid=4287d4b2-16ac-452b-b6aa-050517d52bec","ios":"levelo://app?vid=4287d4b2-16ac-452b-b6aa-050517d52bec"},"vehicle_type_id":"4","last_reported":1704625560,"current_range_meters":27200,"station_id":"ce4bh092rcd13ifvqd20","pricing_plan_id":"free"},{"bike_id":"161360f3-7572-432b-9789-1a3832602001","system_id":"levelo_inurba_marseille","lat":43.290104,"lon":5.356111,"is_reserved":false,"is_disabled":false,"rental_uris":{"android":"levelo://app?vid=161360f3-7572-432b-9789-1a3832602001","ios":"levelo://app?vid=161360f3-7572-432b-9789-1a3832602001"},"vehicle_type_id":"4","last_reported":1704625560,"current_range_meters":17200,"station_id":"ce4bhb92rcd13ifvqen0","pricing_plan_id":"free"},{"bike_id":"2f9ce13d-4f64-4a1a-af9b-e1b3efe1bdfa","system_id":"levelo_inurba_marseille","lat":43.297967,"lon":5.393292,"is_reserved":false,"is_disabled":false,"rental_uris":{"android":"levelo://app?vid=2f9ce13d-4f64-4a1a-af9b-e1b3efe1bdfa","ios":"levelo://app?vid=2f9ce13d-4f64-4a1a-af9b-e1b3efe1bdfa"},"vehicle_type_id":"4","last_reported":1704625560,"current_range_meters":28800,"station_id":"chh1huq6cuj3fo74tm60","pricing_plan_id":"free"},{"bike_id":"952eb80d-c5ef-43d6-93e9-c1820e38d9bb","system_id":"levelo_inurba_marseille","lat":43.290995,"lon":5.381361,"is_reserved":false,"is_disabled":false,"rental_uris":{"android":"levelo://app?vid=952eb80d-c5ef-43d6-93e9-c1820e38d9bb","ios":"levelo://app?vid=952eb80d-c5ef-43d6-93e9-c1820e38d9bb"},"vehicle_type_id":"4","last_reported":1704625560,"current_range_meters":22400,"station_id":"ce4bh512rcd13ifvqe2g","pricing_plan_id":"free"},{"bike_id":"604d70e1-4bfc-4c1a-ad50-5c45b428d61e","system_id":"levelo_inurba_marseille","lat":43.330442,"lon":5.389148,"is_reserved":false,"is_disabled":false,"rental_uris":{"android":"levelo://app?vid=604d70e1-4bfc-4c1a-ad50-5c45b428d61e","ios":"levelo://app?vid=604d70e1-4bfc-4c1a-ad50-5c45b428d61e"},"vehicle_type_id":"4","last_reported":1704625560,"current_range_meters":19200,"station_id":"ce4bhr92rcd13ifvqhrg","pricing_plan_id":"free"},{"bike_id":"8625464e-66d0-4621-bd34-1a2874fb7a19","system_id":"levelo_inurba_marseille","lat":43.330442,"lon":5.389148,"is_reserved":false,"is_disabled":false,"rental_uris":{"android":"levelo://app?vid=8625464e-66d0-4621-bd34-1a2874fb7a19","ios":"levelo://app?vid=8625464e-66d0-4621-bd34-1a2874fb7a19"},"vehicle_type_id":"4","last_reported":1704625560,"current_range_meters":31200,"station_id":"ce4bhr92rcd13ifvqhrg","pricing_plan_id":"free"},{"bike_id":"7c7a6206-545f-4749-ace7-a0c9f17d3062","system_id":"levelo_inurba_marseille","lat":43.330442,"lon":5.389148,"is_reserved":false,"is_disabled":false,"rental_uris":{"android":"levelo://app?vid=7c7a6206-545f-4749-ace7-a0c9f17d3062","ios":"levelo://app?vid=7c7a6206-545f-4749-ace7-a0c9f17d3062"},"vehicle_type_id":"4","last_reported":1704625560,"current_range_meters":14400,"station_id":"ce4bhr92rcd13ifvqhrg","pricing_plan_id":"free"},{"bike_id":"42a2d22f-ce67-446d-ab38-453f93bc49fa","system_id":"levelo_inurba_marseille","lat":43.330442,"lon":5.389148,"is_reserved":false,"is_disabled":false,"rental_uris":{"android":"levelo://app?vid=42a2d22f-ce67-446d-ab38-453f93bc49fa","ios":"levelo://app?vid=42a2d22f-ce67-446d-ab38-453f93bc49fa"},"vehicle_type_id":"4","last_reported":1704625560,"current_range_meters":12800,"station_id":"ce4bhr92rcd13ifvqhrg","pricing_plan_id":"free"},{"bike_id":"57a59c67-703f-4a83-aae5-f27109cb99b9","system_id":"levelo_inurba_marseille","lat":43.330442,"lon":5.389148,"is_reserved":false,"is_disabled":false,"rental_uris":{"android":"levelo://app?vid=57a59c67-703f-4a83-aae5-f27109cb99b9","ios":"levelo://app?vid=57a59c67-703f-4a83-aae5-f27109cb99b9"},"vehicle_type_id":"4","last_reported":1704625560,"current_range_meters":19200,"station_id":"ce4bhr92rcd13ifvqhrg","pricing_plan_id":"free"},{"bike_id":"8c728ecb-cad4-4774-a562-0a6494a195ad","system_id":"levelo_inurba_marseille","lat":43.28856,"lon":5.358371,"is_reserved":false,"is_disabled":false,"rental_uris":{"android":"levelo://app?vid=8c728ecb-cad4-4774-a562-0a6494a195ad","ios":"levelo://app?vid=8c728ecb-cad4-4774-a562-0a6494a195ad"},"vehicle_type_id":"4","last_reported":1704625560,"current_range_meters":29200,"station_id":"ce4bhb12rcd13ifvqem0","pricing_plan_id":"free"},{"bike_id":"8a426083-d925-4221-b0bc-1cf82a72291b","system_id":"levelo_inurba_marseille","lat":43.3067,"lon":5.40057,"is_reserved":false,"is_disabled":false,"rental_uris":{"android":"levelo://app?vid=8a426083-d925-4221-b0bc-1cf82a72291b","ios":"levelo://app?vid=8a426083-d925-4221-b0bc-1cf82a72291b"},"vehicle_type_id":"4","last_reported":1704625560,"current_range_meters":16800,"station_id":"ce4bh112rcd13ifvqda0","pricing_plan_id":"free"},{"bike_id":"79880bce-d32e-4636-9493-e11747d49352","system_id":"levelo_inurba_marseille","lat":43.30939,"lon":5.40144,"is_reserved":false,"is_disabled":false,"rental_uris":{"android":"levelo://app?vid=79880bce-d32e-4636-9493-e11747d49352","ios":"levelo://app?vid=79880bce-d32e-4636-9493-e11747d49352"},"vehicle_type_id":"4","last_reported":1704625560,"current_range_meters":30800,"station_id":"ce4bgvp2rcd13ifvqct0","pricing_plan_id":"free"},{"bike_id":"fcc70e91-41c4-4ba5-8f50-e0d6e14c7a26","system_id":"levelo_inurba_marseille","lat":43.30935,"lon":5.40147,"is_reserved":false,"is_disabled":false,"rental_uris":{"android":"levelo://app?vid=fcc70e91-41c4-4ba5-8f50-e0d6e14c7a26","ios":"levelo://app?vid=fcc70e91-41c4-4ba5-8f50-e0d6e14c7a26"},"vehicle_type_id":"4","last_reported":1704625560,"current_range_meters":21200,"station_id":"ce4bgvp2rcd13ifvqct0","pricing_plan_id":"free"},{"bike_id":"c5527485-3bbb-4ad9-ac15-0be0dadc774a","system_id":"levelo_inurba_marseille","lat":43.309371,"lon":5.401449,"is_reserved":false,"is_disabled":false,"rental_uris":{"android":"levelo://app?vid=c5527485-3bbb-4ad9-ac15-0be0dadc774a","ios":"levelo://app?vid=c5527485-3bbb-4ad9-ac15-0be0dadc774a"},"vehicle_type_id":"4","last_reported":1704625560,"current_range_meters":18400,"station_id":"ce4bgvp2rcd13ifvqct0","pricing_plan_id":"free"},{"bike_id":"c8150c2e-9fca-4c4a-8d6c-895c5f80e74a","system_id":"levelo_inurba_marseille","lat":43.309371,"lon":5.401449,"is_reserved":false,"is_disabled":false,"rental_uris":{"android":"levelo://app?vid=c8150c2e-9fca-4c4a-8d6c-895c5f80e74a","ios":"levelo://app?vid=c8150c2e-9fca-4c4a-8d6c-895c5f80e74a"},"vehicle_type_id":"4","last_reported":1704625560,"current_range_meters":8000,"station_id":"ce4bgvp2rcd13ifvqct0","pricing_plan_id":"free"},{"bike_id":"93310879-61e1-4b67-9a43-dfdb7f577908","system_id":"levelo_inurba_marseille","lat":43.30635,"lon":5.40069,"is_reserved":false,"is_disabled":false,"rental_uris":{"android":"levelo://app?vid=93310879-61e1-4b67-9a43-dfdb7f577908","ios":"levelo://app?vid=93310879-61e1-4b67-9a43-dfdb7f577908"},"vehicle_type_id":"4","last_reported":1704625560,"current_range_meters":25600,"station_id":"ce4bh112rcd13ifvqda0","pricing_plan_id":"free"},{"bike_id":"d7eacd65-805a-418e-a709-aba6de0ca27c","system_id":"levelo_inurba_marseille","lat":43.306378,"lon":5.400713,"is_reserved":false,"is_disabled":false,"rental_uris":{"android":"levelo://app?vid=d7eacd65-805a-418e-a709-aba6de0ca27c","ios":"levelo://app?vid=d7eacd65-805a-418e-a709-aba6de0ca27c"},"vehicle_type_id":"4","last_reported":1704625560,"current_range_meters":12000,"station_id":"ce4bh112rcd13ifvqda0","pricing_plan_id":"free"},{"bike_id":"162ab047-1d09-43d6-9f58-1290e3058b45","system_id":"levelo_inurba_marseille","lat":43.306412,"lon":5.401035,"is_reserved":false,"is_disabled":false,"rental_uris":{"android":"levelo://app?vid=162ab047-1d09-43d6-9f58-1290e3058b45","ios":"levelo://app?vid=162ab047-1d09-43d6-9f58-1290e3058b45"},"vehicle_type_id":"4","last_reported":1704625560,"current_range_meters":21600,"station_id":"ce4bh112rcd13ifvqda0","pricing_plan_id":"free"},{"bike_id":"e972d93e-a05a-47c2-8bc9-94d2005eef24","system_id":"levelo_inurba_marseille","lat":43.306412,"lon":5.401035,"is_reserved":false,"is_disabled":false,"rental_uris":{"android":"levelo://app?vid=e972d93e-a05a-47c2-8bc9-94d2005eef24","ios":"levelo://app?vid=e972d93e-a05a-47c2-8bc9-94d2005eef24"},"vehicle_type_id":"4","last_reported":1704625560,"current_range_meters":25600,"station_id":"ce4bh112rcd13ifvqda0","pricing_plan_id":"free"},{"bike_id":"d0f453f6-a41c-4ae5-a43a-7d54eab18253","system_id":"levelo_inurba_marseille","lat":43.301117,"lon":5.398795,"is_reserved":false,"is_disabled":false,"rental_uris":{"android":"levelo://app?vid=d0f453f6-a41c-4ae5-a43a-7d54eab18253","ios":"levelo://app?vid=d0f453f6-a41c-4ae5-a43a-7d54eab18253"},"vehicle_type_id":"4","last_reported":1704625560,"current_range_meters":13600,"station_id":"ce4bh0h2rcd13ifvqd40","pricing_plan_id":"free"},{"bike_id":"99955737-3050-4227-b1e4-dac8e5d13ece","system_id":"levelo_inurba_marseille","lat":43.28727,"lon":5.36078,"is_reserved":false,"is_disabled":false,"rental_uris":{"android":"levelo://app?vid=99955737-3050-4227-b1e4-dac8e5d13ece","ios":"levelo://app?vid=99955737-3050-4227-b1e4-dac8e5d13ece"},"vehicle_type_id":"4","last_reported":1704625560,"current_range_meters":28400,"station_id":"cki0cbj6b192h4jlfktg","pricing_plan_id":"free"},{"bike_id":"0caeafda-3ba6-44ac-8af4-0bebab109ce0","system_id":"levelo_inurba_marseille","lat":43.28727,"lon":5.36078,"is_reserved":false,"is_disabled":false,"rental_uris":{"android":"levelo://app?vid=0caeafda-3ba6-44ac-8af4-0bebab109ce0","ios":"levelo://app?vid=0caeafda-3ba6-44ac-8af4-0bebab109ce0"},"vehicle_type_id":"4","last_reported":1704625560,"current_range_meters":22000,"station_id":"cki0cbj6b192h4jlfktg","pricing_plan_id":"free"},{"bike_id":"94b3ddfa-090a-43a9-858e-5ccda96b1594","system_id":"levelo_inurba_marseille","lat":43.28727,"lon":5.36078,"is_reserved":false,"is_disabled":false,"rental_uris":{"android":"levelo://app?vid=94b3ddfa-090a-43a9-858e-5ccda96b1594","ios":"levelo://app?vid=94b3ddfa-090a-43a9-858e-5ccda96b1594"},"vehicle_type_id":"4","last_reported":1704625560,"current_range_meters":26400,"station_id":"cki0cbj6b192h4jlfktg","pricing_plan_id":"free"},{"bike_id":"f182b2a2-f3ed-48be-83e1-8510337afb10","system_id":"levelo_inurba_marseille","lat":43.286961,"lon":5.373785,"is_reserved":false,"is_disabled":false,"rental_uris":{"android":"levelo://app?vid=f182b2a2-f3ed-48be-83e1-8510337afb10","ios":"levelo://app?vid=f182b2a2-f3ed-48be-83e1-8510337afb10"},"vehicle_type_id":"4","last_reported":1704625560,"current_range_meters":9600,"station_id":"ce4bh3p2rcd13ifvqdq0","pricing_plan_id":"free"},{"bike_id":"40665879-7b09-4421-a451-3464bab8ef30","system_id":"levelo_inurba_marseille","lat":43.286961,"lon":5.373785,"is_reserved":false,"is_disabled":false,"rental_uris":{"android":"levelo://app?vid=40665879-7b09-4421-a451-3464bab8ef30","ios":"levelo://app?vid=40665879-7b09-4421-a451-3464bab8ef30"},"vehicle_type_id":"4","last_reported":1704625560,"current_range_meters":25600,"station_id":"ce4bh3p2rcd13ifvqdq0","pricing_plan_id":"free"},{"bike_id":"1a797ee0-1cb3-41d6-8645-38647168ba3f","system_id":"levelo_inurba_marseille","lat":43.295194,"lon":5.39397,"is_reserved":false,"is_disabled":false,"rental_uris":{"android":"levelo://app?vid=1a797ee0-1cb3-41d6-8645-38647168ba3f","ios":"levelo://app?vid=1a797ee0-1cb3-41d6-8645-38647168ba3f"},"vehicle_type_id":"4","last_reported":1704625560,"current_range_meters":0,"station_id":"ce4bh292rcd13ifvqdf0","pricing_plan_id":"free"},{"bike_id":"184b6e55-8d52-4394-a645-f66522c75464","system_id":"levelo_inurba_marseille","lat":43.290345,"lon":5.38646,"is_reserved":false,"is_disabled":false,"rental_uris":{"android":"levelo://app?vid=184b6e55-8d52-4394-a645-f66522c75464","ios":"levelo://app?vid=184b6e55-8d52-4394-a645-f66522c75464"},"vehicle_type_id":"4","last_reported":1704625560,"current_range_meters":25200,"station_id":"ce4bh4p2rcd13ifvqe0g","pricing_plan_id":"free"},{"bike_id":"88fe19a8-8798-4719-a4a3-2c0343c72289","system_id":"levelo_inurba_marseille","lat":43.290345,"lon":5.38646,"is_reserved":false,"is_disabled":false,"rental_uris":{"android":"levelo://app?vid=88fe19a8-8798-4719-a4a3-2c0343c72289","ios":"levelo://app?vid=88fe19a8-8798-4719-a4a3-2c0343c72289"},"vehicle_type_id":"4","last_reported":1704625560,"current_range_meters":25200,"station_id":"ce4bh4p2rcd13ifvqe0g","pricing_plan_id":"free"},{"bike_id":"aa165219-3e9e-4c8f-b35b-244f2b3bfead","system_id":"levelo_inurba_marseille","lat":43.29027,"lon":5.38654,"is_reserved":false,"is_disabled":false,"rental_uris":{"android":"levelo://app?vid=aa165219-3e9e-4c8f-b35b-244f2b3bfead","ios":"levelo://app?vid=aa165219-3e9e-4c8f-b35b-244f2b3bfead"},"vehicle_type_id":"4","last_reported":1704625560,"current_range_meters":19600,"station_id":"ce4bh4p2rcd13ifvqe0g","pricing_plan_id":"free"},{"bike_id":"398026f8-e0c3-4a1c-a0bb-f5f6e64391fb","system_id":"levelo_inurba_marseille","lat":43.290345,"lon":5.38646,"is_reserved":false,"is_disabled":false,"rental_uris":{"android":"levelo://app?vid=398026f8-e0c3-4a1c-a0bb-f5f6e64391fb","ios":"levelo://app?vid=398026f8-e0c3-4a1c-a0bb-f5f6e64391fb"},"vehicle_type_id":"4","last_reported":1704625560,"current_range_meters":4800,"station_id":"ce4bh4p2rcd13ifvqe0g","pricing_plan_id":"free"},{"bike_id":"238196aa-a4ae-4397-906e-b41878f6b1f2","system_id":"levelo_inurba_marseille","lat":43.286039,"lon":5.370679,"is_reserved":false,"is_disabled":false,"rental_uris":{"android":"levelo://app?vid=238196aa-a4ae-4397-906e-b41878f6b1f2","ios":"levelo://app?vid=238196aa-a4ae-4397-906e-b41878f6b1f2"},"vehicle_type_id":"4","last_reported":1704625560,"current_range_meters":31200,"station_id":"ce4bht12rcd13ifvqi60","pricing_plan_id":"free"},{"bike_id":"6c976029-5e7e-4dd8-bfaa-4c5c5ee6fad0","system_id":"levelo_inurba_marseille","lat":43.286039,"lon":5.370679,"is_reserved":false,"is_disabled":false,"rental_uris":{"android":"levelo://app?vid=6c976029-5e7e-4dd8-bfaa-4c5c5ee6fad0","ios":"levelo://app?vid=6c976029-5e7e-4dd8-bfaa-4c5c5ee6fad0"},"vehicle_type_id":"4","last_reported":1704625560,"current_range_meters":30000,"station_id":"ce4bht12rcd13ifvqi60","pricing_plan_id":"free"},{"bike_id":"3d586703-e7c7-4c93-820c-cc285dc4e8ac","system_id":"levelo_inurba_marseille","lat":43.286039,"lon":5.370681,"is_reserved":false,"is_disabled":false,"rental_uris":{"android":"levelo://app?vid=3d586703-e7c7-4c93-820c-cc285dc4e8ac","ios":"levelo://app?vid=3d586703-e7c7-4c93-820c-cc285dc4e8ac"},"vehicle_type_id":"4","last_reported":1704625560,"current_range_meters":28800,"station_id":"ce4bht12rcd13ifvqi60","pricing_plan_id":"free"},{"bike_id":"84645f28-366a-4535-a26a-f425708bd0f6","system_id":"levelo_inurba_marseille","lat":43.28726,"lon":5.37929,"is_reserved":false,"is_disabled":false,"rental_uris":{"android":"levelo://app?vid=84645f28-366a-4535-a26a-f425708bd0f6","ios":"levelo://app?vid=84645f28-366a-4535-a26a-f425708bd0f6"},"vehicle_type_id":"4","last_reported":1704625560,"current_range_meters":26800,"station_id":"ce4bh9p2rcd13ifvqec0","pricing_plan_id":"free"},{"bike_id":"46f595a2-1743-473d-8d19-89e3c16d4457","system_id":"levelo_inurba_marseille","lat":43.291994,"lon":5.392907,"is_reserved":false,"is_disabled":false,"rental_uris":{"android":"levelo://app?vid=46f595a2-1743-473d-8d19-89e3c16d4457","ios":"levelo://app?vid=46f595a2-1743-473d-8d19-89e3c16d4457"},"vehicle_type_id":"4","last_reported":1704625560,"current_range_meters":27600,"station_id":"ce4bh192rcd13ifvqdd0","pricing_plan_id":"free"},{"bike_id":"93b47ff7-87e1-4c62-a927-724871a2bb54","system_id":"levelo_inurba_marseille","lat":43.284583,"lon":5.358978,"is_reserved":false,"is_disabled":false,"rental_uris":{"android":"levelo://app?vid=93b47ff7-87e1-4c62-a927-724871a2bb54","ios":"levelo://app?vid=93b47ff7-87e1-4c62-a927-724871a2bb54"},"vehicle_type_id":"4","last_reported":1704625560,"current_range_meters":26800,"station_id":"ce4bhah2rcd13ifvqei0","pricing_plan_id":"free"},{"bike_id":"52fbedf8-25ba-4a79-af17-432df60b729c","system_id":"levelo_inurba_marseille","lat":43.284538,"lon":5.358657,"is_reserved":false,"is_disabled":false,"rental_uris":{"android":"levelo://app?vid=52fbedf8-25ba-4a79-af17-432df60b729c","ios":"levelo://app?vid=52fbedf8-25ba-4a79-af17-432df60b729c"},"vehicle_type_id":"4","last_reported":1704625560,"current_range_meters":28800,"station_id":"ce4bhah2rcd13ifvqei0","pricing_plan_id":"free"},{"bike_id":"154efb84-26fc-49e6-ada6-5bf0c44dd6f0","system_id":"levelo_inurba_marseille","lat":43.285856,"lon":5.350771,"is_reserved":false,"is_disabled":false,"rental_uris":{"android":"levelo://app?vid=154efb84-26fc-49e6-ada6-5bf0c44dd6f0","ios":"levelo://app?vid=154efb84-26fc-49e6-ada6-5bf0c44dd6f0"},"vehicle_type_id":"4","last_reported":1704625560,"current_range_meters":10000,"station_id":"ce4bhch2rcd13ifvqeug","pricing_plan_id":"free"},{"bike_id":"e7d08906-0d87-4715-8ffa-bdb9be03abd3","system_id":"levelo_inurba_marseille","lat":43.285856,"lon":5.350771,"is_reserved":false,"is_disabled":false,"rental_uris":{"android":"levelo://app?vid=e7d08906-0d87-4715-8ffa-bdb9be03abd3","ios":"levelo://app?vid=e7d08906-0d87-4715-8ffa-bdb9be03abd3"},"vehicle_type_id":"4","last_reported":1704625560,"current_range_meters":18000,"station_id":"ce4bhch2rcd13ifvqeug","pricing_plan_id":"free"},{"bike_id":"77dcd9db-8541-482e-80ea-3465701dc93c","system_id":"levelo_inurba_marseille","lat":43.285856,"lon":5.350771,"is_reserved":false,"is_disabled":false,"rental_uris":{"android":"levelo://app?vid=77dcd9db-8541-482e-80ea-3465701dc93c","ios":"levelo://app?vid=77dcd9db-8541-482e-80ea-3465701dc93c"},"vehicle_type_id":"4","last_reported":1704625560,"current_range_meters":15200,"station_id":"ce4bhch2rcd13ifvqeug","pricing_plan_id":"free"},{"bike_id":"f6d84242-536a-4227-995d-300e54eb18f6","system_id":"levelo_inurba_marseille","lat":43.28619,"lon":5.35101,"is_reserved":false,"is_disabled":false,"rental_uris":{"android":"levelo://app?vid=f6d84242-536a-4227-995d-300e54eb18f6","ios":"levelo://app?vid=f6d84242-536a-4227-995d-300e54eb18f6"},"vehicle_type_id":"4","last_reported":1704625560,"current_range_meters":9200,"station_id":"ce4bhch2rcd13ifvqeug","pricing_plan_id":"free"},{"bike_id":"a8a5a961-0292-4b80-81a4-a594170f711e","system_id":"levelo_inurba_marseille","lat":43.285856,"lon":5.350771,"is_reserved":false,"is_disabled":false,"rental_uris":{"android":"levelo://app?vid=a8a5a961-0292-4b80-81a4-a594170f711e","ios":"levelo://app?vid=a8a5a961-0292-4b80-81a4-a594170f711e"},"vehicle_type_id":"4","last_reported":1704625560,"current_range_meters":18800,"station_id":"ce4bhch2rcd13ifvqeug","pricing_plan_id":"free"},{"bike_id":"43b3ea92-a636-409a-a2bf-2cfcdf83346d","system_id":"levelo_inurba_marseille","lat":43.285856,"lon":5.350771,"is_reserved":false,"is_disabled":false,"rental_uris":{"android":"levelo://app?vid=43b3ea92-a636-409a-a2bf-2cfcdf83346d","ios":"levelo://app?vid=43b3ea92-a636-409a-a2bf-2cfcdf83346d"},"vehicle_type_id":"4","last_reported":1704625560,"current_range_meters":24400,"station_id":"ce4bhch2rcd13ifvqeug","pricing_plan_id":"free"},{"bike_id":"5688a380-9bf4-41fc-824e-d906fd2a2179","system_id":"levelo_inurba_marseille","lat":43.285856,"lon":5.350771,"is_reserved":false,"is_disabled":false,"rental_uris":{"android":"levelo://app?vid=5688a380-9bf4-41fc-824e-d906fd2a2179","ios":"levelo://app?vid=5688a380-9bf4-41fc-824e-d906fd2a2179"},"vehicle_type_id":"4","last_reported":1704625560,"current_range_meters":13200,"station_id":"ce4bhch2rcd13ifvqeug","pricing_plan_id":"free"},{"bike_id":"01e59b64-29e9-4e48-86ad-7a3b4b582e04","system_id":"levelo_inurba_marseille","lat":43.285856,"lon":5.350771,"is_reserved":false,"is_disabled":false,"rental_uris":{"android":"levelo://app?vid=01e59b64-29e9-4e48-86ad-7a3b4b582e04","ios":"levelo://app?vid=01e59b64-29e9-4e48-86ad-7a3b4b582e04"},"vehicle_type_id":"4","last_reported":1704625560,"current_range_meters":28400,"station_id":"ce4bhch2rcd13ifvqeug","pricing_plan_id":"free"},{"bike_id":"dffb7f5d-3b19-429d-ac37-bf521bd72a68","system_id":"levelo_inurba_marseille","lat":43.285856,"lon":5.350771,"is_reserved":false,"is_disabled":false,"rental_uris":{"android":"levelo://app?vid=dffb7f5d-3b19-429d-ac37-bf521bd72a68","ios":"levelo://app?vid=dffb7f5d-3b19-429d-ac37-bf521bd72a68"},"vehicle_type_id":"4","last_reported":1704625560,"current_range_meters":30400,"station_id":"ce4bhch2rcd13ifvqeug","pricing_plan_id":"free"},{"bike_id":"b0d9c37a-12b7-4fcf-b2cc-70034df7a04b","system_id":"levelo_inurba_marseille","lat":43.29834,"lon":5.40165,"is_reserved":false,"is_disabled":false,"rental_uris":{"android":"levelo://app?vid=b0d9c37a-12b7-4fcf-b2cc-70034df7a04b","ios":"levelo://app?vid=b0d9c37a-12b7-4fcf-b2cc-70034df7a04b"},"vehicle_type_id":"4","last_reported":1704625560,"current_range_meters":0,"station_id":"","pricing_plan_id":"free"},{"bike_id":"54bec85a-3ad1-4ccc-9cab-e86a90c0ca6c","system_id":"levelo_inurba_marseille","lat":43.323464,"lon":5.406297,"is_reserved":false,"is_disabled":false,"rental_uris":{"android":"levelo://app?vid=54bec85a-3ad1-4ccc-9cab-e86a90c0ca6c","ios":"levelo://app?vid=54bec85a-3ad1-4ccc-9cab-e86a90c0ca6c"},"vehicle_type_id":"4","last_reported":1704625560,"current_range_meters":31600,"station_id":"ce4bhq92rcd13ifvqhjg","pricing_plan_id":"free"},{"bike_id":"747b4a07-a8db-40b3-a2bf-387b48385f47","system_id":"levelo_inurba_marseille","lat":43.323464,"lon":5.406297,"is_reserved":false,"is_disabled":false,"rental_uris":{"android":"levelo://app?vid=747b4a07-a8db-40b3-a2bf-387b48385f47","ios":"levelo://app?vid=747b4a07-a8db-40b3-a2bf-387b48385f47"},"vehicle_type_id":"4","last_reported":1704625560,"current_range_meters":21200,"station_id":"ce4bhq92rcd13ifvqhjg","pricing_plan_id":"free"},{"bike_id":"aa0f324d-b553-4219-b2e7-33428e751491","system_id":"levelo_inurba_marseille","lat":43.284793,"lon":5.384113,"is_reserved":false,"is_disabled":false,"rental_uris":{"android":"levelo://app?vid=aa0f324d-b553-4219-b2e7-33428e751491","ios":"levelo://app?vid=aa0f324d-b553-4219-b2e7-33428e751491"},"vehicle_type_id":"4","last_reported":1704625560,"current_range_meters":25600,"station_id":"ce4bh512rcd13ifvqe3g","pricing_plan_id":"free"},{"bike_id":"4714bef9-5f38-4c26-b888-7b40cc11f281","system_id":"levelo_inurba_marseille","lat":43.284219,"lon":5.3497,"is_reserved":false,"is_disabled":false,"rental_uris":{"android":"levelo://app?vid=4714bef9-5f38-4c26-b888-7b40cc11f281","ios":"levelo://app?vid=4714bef9-5f38-4c26-b888-7b40cc11f281"},"vehicle_type_id":"4","last_reported":1704625560,"current_range_meters":31600,"station_id":"ce4bhbh2rcd13ifvqepg","pricing_plan_id":"free"},{"bike_id":"74c757a3-57f5-43bc-9cbd-c0caf045d565","system_id":"levelo_inurba_marseille","lat":43.284219,"lon":5.3497,"is_reserved":false,"is_disabled":false,"rental_uris":{"android":"levelo://app?vid=74c757a3-57f5-43bc-9cbd-c0caf045d565","ios":"levelo://app?vid=74c757a3-57f5-43bc-9cbd-c0caf045d565"},"vehicle_type_id":"4","last_reported":1704625560,"current_range_meters":25600,"station_id":"ce4bhbh2rcd13ifvqepg","pricing_plan_id":"free"},{"bike_id":"089fd505-dace-46fe-a5f8-d3c86a685bad","system_id":"levelo_inurba_marseille","lat":43.284231,"lon":5.349905,"is_reserved":false,"is_disabled":false,"rental_uris":{"android":"levelo://app?vid=089fd505-dace-46fe-a5f8-d3c86a685bad","ios":"levelo://app?vid=089fd505-dace-46fe-a5f8-d3c86a685bad"},"vehicle_type_id":"4","last_reported":1704625560,"current_range_meters":20400,"station_id":"ce4bhbh2rcd13ifvqepg","pricing_plan_id":"free"},{"bike_id":"5d724bc6-af52-4d46-8d06-42885fe6618d","system_id":"levelo_inurba_marseille","lat":43.284217,"lon":5.349697,"is_reserved":false,"is_disabled":false,"rental_uris":{"android":"levelo://app?vid=5d724bc6-af52-4d46-8d06-42885fe6618d","ios":"levelo://app?vid=5d724bc6-af52-4d46-8d06-42885fe6618d"},"vehicle_type_id":"4","last_reported":1704625560,"current_range_meters":31200,"station_id":"ce4bhbh2rcd13ifvqepg","pricing_plan_id":"free"},{"bike_id":"c3f119c8-a2c3-48cd-a23a-407567ed222b","system_id":"levelo_inurba_marseille","lat":43.284217,"lon":5.349697,"is_reserved":false,"is_disabled":false,"rental_uris":{"android":"levelo://app?vid=c3f119c8-a2c3-48cd-a23a-407567ed222b","ios":"levelo://app?vid=c3f119c8-a2c3-48cd-a23a-407567ed222b"},"vehicle_type_id":"4","last_reported":1704625560,"current_range_meters":31200,"station_id":"ce4bhbh2rcd13ifvqepg","pricing_plan_id":"free"},{"bike_id":"9329076a-0d3e-4112-be77-66dd924dd8e2","system_id":"levelo_inurba_marseille","lat":43.284219,"lon":5.3497,"is_reserved":false,"is_disabled":false,"rental_uris":{"android":"levelo://app?vid=9329076a-0d3e-4112-be77-66dd924dd8e2","ios":"levelo://app?vid=9329076a-0d3e-4112-be77-66dd924dd8e2"},"vehicle_type_id":"4","last_reported":1704625560,"current_range_meters":12400,"station_id":"ce4bhbh2rcd13ifvqepg","pricing_plan_id":"free"},{"bike_id":"9117797d-3df0-46d0-9e5c-883fbec69ea3","system_id":"levelo_inurba_marseille","lat":43.284219,"lon":5.3497,"is_reserved":false,"is_disabled":false,"rental_uris":{"android":"levelo://app?vid=9117797d-3df0-46d0-9e5c-883fbec69ea3","ios":"levelo://app?vid=9117797d-3df0-46d0-9e5c-883fbec69ea3"},"vehicle_type_id":"4","last_reported":1704625560,"current_range_meters":29600,"station_id":"ce4bhbh2rcd13ifvqepg","pricing_plan_id":"free"},{"bike_id":"d6cf9ad8-9892-44d5-a0af-7f7d54026128","system_id":"levelo_inurba_marseille","lat":43.292724,"lon":5.401131,"is_reserved":false,"is_disabled":false,"rental_uris":{"android":"levelo://app?vid=d6cf9ad8-9892-44d5-a0af-7f7d54026128","ios":"levelo://app?vid=d6cf9ad8-9892-44d5-a0af-7f7d54026128"},"vehicle_type_id":"4","last_reported":1704625560,"current_range_meters":31200,"station_id":"ce4bh312rcd13ifvqdk0","pricing_plan_id":"free"},{"bike_id":"8689da3f-2e18-497c-81c7-253926b0c264","system_id":"levelo_inurba_marseille","lat":43.282754,"lon":5.350519,"is_reserved":false,"is_disabled":false,"rental_uris":{"android":"levelo://app?vid=8689da3f-2e18-497c-81c7-253926b0c264","ios":"levelo://app?vid=8689da3f-2e18-497c-81c7-253926b0c264"},"vehicle_type_id":"4","last_reported":1704625560,"current_range_meters":27200,"station_id":"ce4bhbp2rcd13ifvqerg","pricing_plan_id":"free"},{"bike_id":"d807c3a1-c397-4042-a278-4e087381b3b6","system_id":"levelo_inurba_marseille","lat":43.282744,"lon":5.350746,"is_reserved":false,"is_disabled":false,"rental_uris":{"android":"levelo://app?vid=d807c3a1-c397-4042-a278-4e087381b3b6","ios":"levelo://app?vid=d807c3a1-c397-4042-a278-4e087381b3b6"},"vehicle_type_id":"4","last_reported":1704625560,"current_range_meters":17600,"station_id":"ce4bhbp2rcd13ifvqerg","pricing_plan_id":"free"},{"bike_id":"fd817817-289b-4ac7-a1d1-8ad432f14ee3","system_id":"levelo_inurba_marseille","lat":43.282744,"lon":5.350533,"is_reserved":false,"is_disabled":false,"rental_uris":{"android":"levelo://app?vid=fd817817-289b-4ac7-a1d1-8ad432f14ee3","ios":"levelo://app?vid=fd817817-289b-4ac7-a1d1-8ad432f14ee3"},"vehicle_type_id":"4","last_reported":1704625560,"current_range_meters":17600,"station_id":"ce4bhbp2rcd13ifvqerg","pricing_plan_id":"free"},{"bike_id":"f8dd31ec-fac5-40aa-bf57-1849aadae574","system_id":"levelo_inurba_marseille","lat":43.282744,"lon":5.350533,"is_reserved":false,"is_disabled":false,"rental_uris":{"android":"levelo://app?vid=f8dd31ec-fac5-40aa-bf57-1849aadae574","ios":"levelo://app?vid=f8dd31ec-fac5-40aa-bf57-1849aadae574"},"vehicle_type_id":"4","last_reported":1704625560,"current_range_meters":23600,"station_id":"ce4bhbp2rcd13ifvqerg","pricing_plan_id":"free"},{"bike_id":"52596233-efe2-42f7-a154-9ab226054d49","system_id":"levelo_inurba_marseille","lat":43.282674,"lon":5.350706,"is_reserved":false,"is_disabled":false,"rental_uris":{"android":"levelo://app?vid=52596233-efe2-42f7-a154-9ab226054d49","ios":"levelo://app?vid=52596233-efe2-42f7-a154-9ab226054d49"},"vehicle_type_id":"4","last_reported":1704625560,"current_range_meters":30400,"station_id":"ce4bhbp2rcd13ifvqerg","pricing_plan_id":"free"},{"bike_id":"de380a36-5464-4216-818c-7a3271335f1a","system_id":"levelo_inurba_marseille","lat":43.282754,"lon":5.350519,"is_reserved":false,"is_disabled":false,"rental_uris":{"android":"levelo://app?vid=de380a36-5464-4216-818c-7a3271335f1a","ios":"levelo://app?vid=de380a36-5464-4216-818c-7a3271335f1a"},"vehicle_type_id":"4","last_reported":1704625560,"current_range_meters":31200,"station_id":"ce4bhbp2rcd13ifvqerg","pricing_plan_id":"free"},{"bike_id":"64a3722c-d7b1-4c03-a920-a75f2903e4ba","system_id":"levelo_inurba_marseille","lat":43.28264,"lon":5.35058,"is_reserved":false,"is_disabled":false,"rental_uris":{"android":"levelo://app?vid=64a3722c-d7b1-4c03-a920-a75f2903e4ba","ios":"levelo://app?vid=64a3722c-d7b1-4c03-a920-a75f2903e4ba"},"vehicle_type_id":"4","last_reported":1704625560,"current_range_meters":30000,"station_id":"ce4bhbp2rcd13ifvqerg","pricing_plan_id":"free"},{"bike_id":"1746f1e5-e822-4ff7-8274-3f268a553397","system_id":"levelo_inurba_marseille","lat":43.28261,"lon":5.35065,"is_reserved":false,"is_disabled":false,"rental_uris":{"android":"levelo://app?vid=1746f1e5-e822-4ff7-8274-3f268a553397","ios":"levelo://app?vid=1746f1e5-e822-4ff7-8274-3f268a553397"},"vehicle_type_id":"4","last_reported":1704625560,"current_range_meters":27600,"station_id":"ce4bhbp2rcd13ifvqerg","pricing_plan_id":"free"},{"bike_id":"e885103f-db97-41b4-99c6-c14b945ef173","system_id":"levelo_inurba_marseille","lat":43.283502,"lon":5.386471,"is_reserved":false,"is_disabled":false,"rental_uris":{"android":"levelo://app?vid=e885103f-db97-41b4-99c6-c14b945ef173","ios":"levelo://app?vid=e885103f-db97-41b4-99c6-c14b945ef173"},"vehicle_type_id":"4","last_reported":1704625560,"current_range_meters":20400,"station_id":"ce4bh492rcd13ifvqdvg","pricing_plan_id":"free"},{"bike_id":"dc94473a-3f3d-4641-8d14-6e7e409434ec","system_id":"levelo_inurba_marseille","lat":43.29042,"lon":5.39948,"is_reserved":false,"is_disabled":false,"rental_uris":{"android":"levelo://app?vid=dc94473a-3f3d-4641-8d14-6e7e409434ec","ios":"levelo://app?vid=dc94473a-3f3d-4641-8d14-6e7e409434ec"},"vehicle_type_id":"4","last_reported":1704625560,"current_range_meters":800,"station_id":"ce4bh392rcd13ifvqdm0","pricing_plan_id":"free"},{"bike_id":"5b7daaa7-247b-40ca-a884-2378a5386c56","system_id":"levelo_inurba_marseille","lat":43.281044,"lon":5.378308,"is_reserved":false,"is_disabled":false,"rental_uris":{"android":"levelo://app?vid=5b7daaa7-247b-40ca-a884-2378a5386c56","ios":"levelo://app?vid=5b7daaa7-247b-40ca-a884-2378a5386c56"},"vehicle_type_id":"4","last_reported":1704625560,"current_range_meters":25600,"station_id":"ce4bha12rcd13ifvqee0","pricing_plan_id":"free"},{"bike_id":"63956f55-a251-4073-8454-a1c8d58ff4dc","system_id":"levelo_inurba_marseille","lat":43.284462,"lon":5.392121,"is_reserved":false,"is_disabled":false,"rental_uris":{"android":"levelo://app?vid=63956f55-a251-4073-8454-a1c8d58ff4dc","ios":"levelo://app?vid=63956f55-a251-4073-8454-a1c8d58ff4dc"},"vehicle_type_id":"4","last_reported":1704625560,"current_range_meters":26800,"station_id":"ce4bhoh2rcd13ifvqh5g","pricing_plan_id":"free"},{"bike_id":"73b7c303-bb17-492e-9d0f-94d5ac695eac","system_id":"levelo_inurba_marseille","lat":43.32661,"lon":5.40974,"is_reserved":false,"is_disabled":false,"rental_uris":{"android":"levelo://app?vid=73b7c303-bb17-492e-9d0f-94d5ac695eac","ios":"levelo://app?vid=73b7c303-bb17-492e-9d0f-94d5ac695eac"},"vehicle_type_id":"4","last_reported":1704625560,"current_range_meters":16400,"station_id":"ce4bhpp2rcd13ifvqhgg","pricing_plan_id":"free"},{"bike_id":"804748a1-919c-4286-95e2-023037287763","system_id":"levelo_inurba_marseille","lat":43.326605,"lon":5.409903,"is_reserved":false,"is_disabled":false,"rental_uris":{"android":"levelo://app?vid=804748a1-919c-4286-95e2-023037287763","ios":"levelo://app?vid=804748a1-919c-4286-95e2-023037287763"},"vehicle_type_id":"4","last_reported":1704625560,"current_range_meters":28400,"station_id":"ce4bhpp2rcd13ifvqhgg","pricing_plan_id":"free"},{"bike_id":"a0d20dd8-a3b3-4fa3-a6e9-2896226abf35","system_id":"levelo_inurba_marseille","lat":43.326605,"lon":5.409903,"is_reserved":false,"is_disabled":false,"rental_uris":{"android":"levelo://app?vid=a0d20dd8-a3b3-4fa3-a6e9-2896226abf35","ios":"levelo://app?vid=a0d20dd8-a3b3-4fa3-a6e9-2896226abf35"},"vehicle_type_id":"4","last_reported":1704625560,"current_range_meters":7600,"station_id":"ce4bhpp2rcd13ifvqhgg","pricing_plan_id":"free"},{"bike_id":"2d6aa450-9253-455f-bebc-a9333d15cb74","system_id":"levelo_inurba_marseille","lat":43.326605,"lon":5.409903,"is_reserved":false,"is_disabled":false,"rental_uris":{"android":"levelo://app?vid=2d6aa450-9253-455f-bebc-a9333d15cb74","ios":"levelo://app?vid=2d6aa450-9253-455f-bebc-a9333d15cb74"},"vehicle_type_id":"4","last_reported":1704625560,"current_range_meters":25200,"station_id":"ce4bhpp2rcd13ifvqhgg","pricing_plan_id":"free"},{"bike_id":"5ff05813-14ce-47ae-a306-8457a7145774","system_id":"levelo_inurba_marseille","lat":43.304231,"lon":5.412785,"is_reserved":false,"is_disabled":false,"rental_uris":{"android":"levelo://app?vid=5ff05813-14ce-47ae-a306-8457a7145774","ios":"levelo://app?vid=5ff05813-14ce-47ae-a306-8457a7145774"},"vehicle_type_id":"4","last_reported":1704625560,"current_range_meters":29600,"station_id":"ce4bhop2rcd13ifvqh8g","pricing_plan_id":"free"},{"bike_id":"6bcc2d9f-ce8b-4eda-944e-d3d8c9887e44","system_id":"levelo_inurba_marseille","lat":43.304188,"lon":5.412904,"is_reserved":false,"is_disabled":false,"rental_uris":{"android":"levelo://app?vid=6bcc2d9f-ce8b-4eda-944e-d3d8c9887e44","ios":"levelo://app?vid=6bcc2d9f-ce8b-4eda-944e-d3d8c9887e44"},"vehicle_type_id":"4","last_reported":1704625560,"current_range_meters":17200,"station_id":"ce4bhop2rcd13ifvqh8g","pricing_plan_id":"free"},{"bike_id":"73da02cf-6897-420e-b821-2c9af8f3f2cc","system_id":"levelo_inurba_marseille","lat":43.3042,"lon":5.4128,"is_reserved":false,"is_disabled":false,"rental_uris":{"android":"levelo://app?vid=73da02cf-6897-420e-b821-2c9af8f3f2cc","ios":"levelo://app?vid=73da02cf-6897-420e-b821-2c9af8f3f2cc"},"vehicle_type_id":"4","last_reported":1704625560,"current_range_meters":4400,"station_id":"ce4bhop2rcd13ifvqh8g","pricing_plan_id":"free"},{"bike_id":"3d351d06-0266-45af-8adb-554012353f4c","system_id":"levelo_inurba_marseille","lat":43.30418,"lon":5.41289,"is_reserved":false,"is_disabled":false,"rental_uris":{"android":"levelo://app?vid=3d351d06-0266-45af-8adb-554012353f4c","ios":"levelo://app?vid=3d351d06-0266-45af-8adb-554012353f4c"},"vehicle_type_id":"4","last_reported":1704625560,"current_range_meters":31200,"station_id":"ce4bhop2rcd13ifvqh8g","pricing_plan_id":"free"},{"bike_id":"6b32fc1f-04a9-4fe2-b9d5-f7ed7bb851d8","system_id":"levelo_inurba_marseille","lat":43.30418,"lon":5.41289,"is_reserved":false,"is_disabled":false,"rental_uris":{"android":"levelo://app?vid=6b32fc1f-04a9-4fe2-b9d5-f7ed7bb851d8","ios":"levelo://app?vid=6b32fc1f-04a9-4fe2-b9d5-f7ed7bb851d8"},"vehicle_type_id":"4","last_reported":1704625560,"current_range_meters":29200,"station_id":"ce4bhop2rcd13ifvqh8g","pricing_plan_id":"free"},{"bike_id":"4fecbc49-e81d-4a0a-9f23-e08740a286c3","system_id":"levelo_inurba_marseille","lat":43.279087,"lon":5.380114,"is_reserved":false,"is_disabled":false,"rental_uris":{"android":"levelo://app?vid=4fecbc49-e81d-4a0a-9f23-e08740a286c3","ios":"levelo://app?vid=4fecbc49-e81d-4a0a-9f23-e08740a286c3"},"vehicle_type_id":"4","last_reported":1704625560,"current_range_meters":26000,"station_id":"ce4bhf92rcd13ifvqf50","pricing_plan_id":"free"},{"bike_id":"dcaf317e-0e72-4622-b686-a6fd15a0e463","system_id":"levelo_inurba_marseille","lat":43.279742,"lon":5.38744,"is_reserved":false,"is_disabled":false,"rental_uris":{"android":"levelo://app?vid=dcaf317e-0e72-4622-b686-a6fd15a0e463","ios":"levelo://app?vid=dcaf317e-0e72-4622-b686-a6fd15a0e463"},"vehicle_type_id":"4","last_reported":1704625560,"current_range_meters":26400,"station_id":"ce4bhg12rcd13ifvqf80","pricing_plan_id":"free"},{"bike_id":"3ac754bc-d5b8-4b32-b278-01e67659a988","system_id":"levelo_inurba_marseille","lat":43.279742,"lon":5.38744,"is_reserved":false,"is_disabled":false,"rental_uris":{"android":"levelo://app?vid=3ac754bc-d5b8-4b32-b278-01e67659a988","ios":"levelo://app?vid=3ac754bc-d5b8-4b32-b278-01e67659a988"},"vehicle_type_id":"4","last_reported":1704625560,"current_range_meters":30400,"station_id":"ce4bhg12rcd13ifvqf80","pricing_plan_id":"free"},{"bike_id":"06f01f0f-b7cf-4035-90fa-74d8d4a1bad4","system_id":"levelo_inurba_marseille","lat":43.292569,"lon":5.409107,"is_reserved":false,"is_disabled":false,"rental_uris":{"android":"levelo://app?vid=06f01f0f-b7cf-4035-90fa-74d8d4a1bad4","ios":"levelo://app?vid=06f01f0f-b7cf-4035-90fa-74d8d4a1bad4"},"vehicle_type_id":"4","last_reported":1704625560,"current_range_meters":21600,"station_id":"ce4bh192rcd13ifvqdc0","pricing_plan_id":"free"},{"bike_id":"64822f24-a252-45f6-9dc1-4edd12e081de","system_id":"levelo_inurba_marseille","lat":43.2808,"lon":5.39641,"is_reserved":false,"is_disabled":false,"rental_uris":{"android":"levelo://app?vid=64822f24-a252-45f6-9dc1-4edd12e081de","ios":"levelo://app?vid=64822f24-a252-45f6-9dc1-4edd12e081de"},"vehicle_type_id":"4","last_reported":1704625560,"current_range_meters":30400,"station_id":"ce4bho12rcd13ifvqh2g","pricing_plan_id":"free"},{"bike_id":"6839e748-dc98-4408-8bd8-32786d880019","system_id":"levelo_inurba_marseille","lat":43.280755,"lon":5.39657,"is_reserved":false,"is_disabled":false,"rental_uris":{"android":"levelo://app?vid=6839e748-dc98-4408-8bd8-32786d880019","ios":"levelo://app?vid=6839e748-dc98-4408-8bd8-32786d880019"},"vehicle_type_id":"4","last_reported":1704625560,"current_range_meters":14400,"station_id":"","pricing_plan_id":"free"},{"bike_id":"9d5095a4-b951-4636-9005-60267ecaf2d3","system_id":"levelo_inurba_marseille","lat":43.303837,"lon":5.418724,"is_reserved":false,"is_disabled":false,"rental_uris":{"android":"levelo://app?vid=9d5095a4-b951-4636-9005-60267ecaf2d3","ios":"levelo://app?vid=9d5095a4-b951-4636-9005-60267ecaf2d3"},"vehicle_type_id":"4","last_reported":1704625560,"current_range_meters":27200,"station_id":"ce4bhop2rcd13ifvqh7g","pricing_plan_id":"free"},{"bike_id":"01608204-faa2-4814-91e7-1a982d36392a","system_id":"levelo_inurba_marseille","lat":43.273609,"lon":5.362708,"is_reserved":false,"is_disabled":false,"rental_uris":{"android":"levelo://app?vid=01608204-faa2-4814-91e7-1a982d36392a","ios":"levelo://app?vid=01608204-faa2-4814-91e7-1a982d36392a"},"vehicle_type_id":"4","last_reported":1704625560,"current_range_meters":26000,"station_id":"ce4bhbh2rcd13ifvqeo0","pricing_plan_id":"free"},{"bike_id":"e2ca198c-33a3-489b-9a72-467d13ddc47e","system_id":"levelo_inurba_marseille","lat":43.336134,"lon":5.410341,"is_reserved":false,"is_disabled":false,"rental_uris":{"android":"levelo://app?vid=e2ca198c-33a3-489b-9a72-467d13ddc47e","ios":"levelo://app?vid=e2ca198c-33a3-489b-9a72-467d13ddc47e"},"vehicle_type_id":"4","last_reported":1704625560,"current_range_meters":31200,"station_id":"ce4bhqh2rcd13ifvqhmg","pricing_plan_id":"free"},{"bike_id":"31008af1-011a-429b-a4c8-c4f8d8d213c9","system_id":"levelo_inurba_marseille","lat":43.336134,"lon":5.410341,"is_reserved":false,"is_disabled":false,"rental_uris":{"android":"levelo://app?vid=31008af1-011a-429b-a4c8-c4f8d8d213c9","ios":"levelo://app?vid=31008af1-011a-429b-a4c8-c4f8d8d213c9"},"vehicle_type_id":"4","last_reported":1704625560,"current_range_meters":29200,"station_id":"ce4bhqh2rcd13ifvqhmg","pricing_plan_id":"free"},{"bike_id":"889deaf9-8c5b-46a2-b769-3ce6b0ce116e","system_id":"levelo_inurba_marseille","lat":43.336134,"lon":5.410341,"is_reserved":false,"is_disabled":false,"rental_uris":{"android":"levelo://app?vid=889deaf9-8c5b-46a2-b769-3ce6b0ce116e","ios":"levelo://app?vid=889deaf9-8c5b-46a2-b769-3ce6b0ce116e"},"vehicle_type_id":"4","last_reported":1704625560,"current_range_meters":30800,"station_id":"ce4bhqh2rcd13ifvqhmg","pricing_plan_id":"free"},{"bike_id":"d1f7ebfa-b33a-44c8-8083-15cad09ebb7a","system_id":"levelo_inurba_marseille","lat":43.336134,"lon":5.410341,"is_reserved":false,"is_disabled":false,"rental_uris":{"android":"levelo://app?vid=d1f7ebfa-b33a-44c8-8083-15cad09ebb7a","ios":"levelo://app?vid=d1f7ebfa-b33a-44c8-8083-15cad09ebb7a"},"vehicle_type_id":"4","last_reported":1704625560,"current_range_meters":28400,"station_id":"ce4bhqh2rcd13ifvqhmg","pricing_plan_id":"free"},{"bike_id":"96690605-615b-490e-8b7c-351d3a4ebff7","system_id":"levelo_inurba_marseille","lat":43.28004,"lon":5.40007,"is_reserved":false,"is_disabled":false,"rental_uris":{"android":"levelo://app?vid=96690605-615b-490e-8b7c-351d3a4ebff7","ios":"levelo://app?vid=96690605-615b-490e-8b7c-351d3a4ebff7"},"vehicle_type_id":"4","last_reported":1704625560,"current_range_meters":3200,"station_id":"ce4bho92rcd13ifvqh4g","pricing_plan_id":"free"},{"bike_id":"37a9c23a-99d3-4b9d-bafd-8aa90e266549","system_id":"levelo_inurba_marseille","lat":43.27998,"lon":5.40012,"is_reserved":false,"is_disabled":false,"rental_uris":{"android":"levelo://app?vid=37a9c23a-99d3-4b9d-bafd-8aa90e266549","ios":"levelo://app?vid=37a9c23a-99d3-4b9d-bafd-8aa90e266549"},"vehicle_type_id":"4","last_reported":1704625560,"current_range_meters":24000,"station_id":"ce4bho92rcd13ifvqh4g","pricing_plan_id":"free"},{"bike_id":"aa6798ef-5c77-4451-9f6f-40469873f551","system_id":"levelo_inurba_marseille","lat":43.28,"lon":5.40018,"is_reserved":false,"is_disabled":false,"rental_uris":{"android":"levelo://app?vid=aa6798ef-5c77-4451-9f6f-40469873f551","ios":"levelo://app?vid=aa6798ef-5c77-4451-9f6f-40469873f551"},"vehicle_type_id":"4","last_reported":1704625560,"current_range_meters":30400,"station_id":"ce4bho92rcd13ifvqh4g","pricing_plan_id":"free"},{"bike_id":"b64097b7-cafd-40c8-9192-664316f67849","system_id":"levelo_inurba_marseille","lat":43.317121,"lon":5.423936,"is_reserved":false,"is_disabled":false,"rental_uris":{"android":"levelo://app?vid=b64097b7-cafd-40c8-9192-664316f67849","ios":"levelo://app?vid=b64097b7-cafd-40c8-9192-664316f67849"},"vehicle_type_id":"4","last_reported":1704625560,"current_range_meters":28000,"station_id":"ce4bhp92rcd13ifvqhbg","pricing_plan_id":"free"},{"bike_id":"464b252f-4a0d-4ecb-9f59-3d1a072c4274","system_id":"levelo_inurba_marseille","lat":43.317121,"lon":5.423936,"is_reserved":false,"is_disabled":false,"rental_uris":{"android":"levelo://app?vid=464b252f-4a0d-4ecb-9f59-3d1a072c4274","ios":"levelo://app?vid=464b252f-4a0d-4ecb-9f59-3d1a072c4274"},"vehicle_type_id":"4","last_reported":1704625560,"current_range_meters":31200,"station_id":"ce4bhp92rcd13ifvqhbg","pricing_plan_id":"free"},{"bike_id":"927b60bd-b4d0-483f-b4f4-ca3a25b5243f","system_id":"levelo_inurba_marseille","lat":43.317121,"lon":5.423936,"is_reserved":false,"is_disabled":false,"rental_uris":{"android":"levelo://app?vid=927b60bd-b4d0-483f-b4f4-ca3a25b5243f","ios":"levelo://app?vid=927b60bd-b4d0-483f-b4f4-ca3a25b5243f"},"vehicle_type_id":"4","last_reported":1704625560,"current_range_meters":28000,"station_id":"ce4bhp92rcd13ifvqhbg","pricing_plan_id":"free"},{"bike_id":"add79ccb-d238-4b0b-9447-1ee9e99bc8fe","system_id":"levelo_inurba_marseille","lat":43.310785,"lon":5.424305,"is_reserved":false,"is_disabled":false,"rental_uris":{"android":"levelo://app?vid=add79ccb-d238-4b0b-9447-1ee9e99bc8fe","ios":"levelo://app?vid=add79ccb-d238-4b0b-9447-1ee9e99bc8fe"},"vehicle_type_id":"4","last_reported":1704625560,"current_range_meters":30000,"station_id":"ce4bhp92rcd13ifvqhag","pricing_plan_id":"free"},{"bike_id":"494ed528-976a-494b-842c-db1f9fa2db39","system_id":"levelo_inurba_marseille","lat":43.340804,"lon":5.410219,"is_reserved":false,"is_disabled":false,"rental_uris":{"android":"levelo://app?vid=494ed528-976a-494b-842c-db1f9fa2db39","ios":"levelo://app?vid=494ed528-976a-494b-842c-db1f9fa2db39"},"vehicle_type_id":"4","last_reported":1704625560,"current_range_meters":26000,"station_id":"ce4bhqh2rcd13ifvqhlg","pricing_plan_id":"free"},{"bike_id":"64b9f263-1ea7-4547-a4df-eab95dfc94c8","system_id":"levelo_inurba_marseille","lat":43.340804,"lon":5.410219,"is_reserved":false,"is_disabled":false,"rental_uris":{"android":"levelo://app?vid=64b9f263-1ea7-4547-a4df-eab95dfc94c8","ios":"levelo://app?vid=64b9f263-1ea7-4547-a4df-eab95dfc94c8"},"vehicle_type_id":"4","last_reported":1704625560,"current_range_meters":6400,"station_id":"ce4bhqh2rcd13ifvqhlg","pricing_plan_id":"free"},{"bike_id":"11fe76d6-576f-4af1-b59f-34c2a58c871a","system_id":"levelo_inurba_marseille","lat":43.340804,"lon":5.410219,"is_reserved":false,"is_disabled":false,"rental_uris":{"android":"levelo://app?vid=11fe76d6-576f-4af1-b59f-34c2a58c871a","ios":"levelo://app?vid=11fe76d6-576f-4af1-b59f-34c2a58c871a"},"vehicle_type_id":"4","last_reported":1704625560,"current_range_meters":31600,"station_id":"ce4bhqh2rcd13ifvqhlg","pricing_plan_id":"free"},{"bike_id":"461657c9-e33a-46b1-991e-8729539ba8aa","system_id":"levelo_inurba_marseille","lat":43.340804,"lon":5.410219,"is_reserved":false,"is_disabled":false,"rental_uris":{"android":"levelo://app?vid=461657c9-e33a-46b1-991e-8729539ba8aa","ios":"levelo://app?vid=461657c9-e33a-46b1-991e-8729539ba8aa"},"vehicle_type_id":"4","last_reported":1704625560,"current_range_meters":12400,"station_id":"ce4bhqh2rcd13ifvqhlg","pricing_plan_id":"free"},{"bike_id":"439e6703-236e-4929-b5c1-cd3664ea20c1","system_id":"levelo_inurba_marseille","lat":43.27327,"lon":5.39075,"is_reserved":false,"is_disabled":false,"rental_uris":{"android":"levelo://app?vid=439e6703-236e-4929-b5c1-cd3664ea20c1","ios":"levelo://app?vid=439e6703-236e-4929-b5c1-cd3664ea20c1"},"vehicle_type_id":"4","last_reported":1704625560,"current_range_meters":13200,"station_id":"ce4bhgp2rcd13ifvqfe0","pricing_plan_id":"free"},{"bike_id":"5ce3514e-61b3-49dc-b002-b3b750ea2c6f","system_id":"levelo_inurba_marseille","lat":43.273129,"lon":5.390725,"is_reserved":false,"is_disabled":false,"rental_uris":{"android":"levelo://app?vid=5ce3514e-61b3-49dc-b002-b3b750ea2c6f","ios":"levelo://app?vid=5ce3514e-61b3-49dc-b002-b3b750ea2c6f"},"vehicle_type_id":"4","last_reported":1704625560,"current_range_meters":30000,"station_id":"ce4bhgp2rcd13ifvqfe0","pricing_plan_id":"free"},{"bike_id":"7d91815f-b01c-4b04-a387-438be19e9d2b","system_id":"levelo_inurba_marseille","lat":43.304096,"lon":5.425385,"is_reserved":false,"is_disabled":false,"rental_uris":{"android":"levelo://app?vid=7d91815f-b01c-4b04-a387-438be19e9d2b","ios":"levelo://app?vid=7d91815f-b01c-4b04-a387-438be19e9d2b"},"vehicle_type_id":"4","last_reported":1704625560,"current_range_meters":22400,"station_id":"ce4bhoh2rcd13ifvqh6g","pricing_plan_id":"free"},{"bike_id":"5a315432-7432-45d3-bc9f-9e68ad373c03","system_id":"levelo_inurba_marseille","lat":43.304096,"lon":5.425385,"is_reserved":false,"is_disabled":false,"rental_uris":{"android":"levelo://app?vid=5a315432-7432-45d3-bc9f-9e68ad373c03","ios":"levelo://app?vid=5a315432-7432-45d3-bc9f-9e68ad373c03"},"vehicle_type_id":"4","last_reported":1704625560,"current_range_meters":20400,"station_id":"ce4bhoh2rcd13ifvqh6g","pricing_plan_id":"free"},{"bike_id":"e49ae8e7-56f1-4292-bcab-1b0388d8a156","system_id":"levelo_inurba_marseille","lat":43.304096,"lon":5.425385,"is_reserved":false,"is_disabled":false,"rental_uris":{"android":"levelo://app?vid=e49ae8e7-56f1-4292-bcab-1b0388d8a156","ios":"levelo://app?vid=e49ae8e7-56f1-4292-bcab-1b0388d8a156"},"vehicle_type_id":"4","last_reported":1704625560,"current_range_meters":8000,"station_id":"ce4bhoh2rcd13ifvqh6g","pricing_plan_id":"free"},{"bike_id":"7345abd2-09ef-440c-b6e9-d57569a8415a","system_id":"levelo_inurba_marseille","lat":43.304096,"lon":5.425385,"is_reserved":false,"is_disabled":false,"rental_uris":{"android":"levelo://app?vid=7345abd2-09ef-440c-b6e9-d57569a8415a","ios":"levelo://app?vid=7345abd2-09ef-440c-b6e9-d57569a8415a"},"vehicle_type_id":"4","last_reported":1704625560,"current_range_meters":6000,"station_id":"ce4bhoh2rcd13ifvqh6g","pricing_plan_id":"free"},{"bike_id":"287d1458-a279-4139-94f8-da980c4a9cdb","system_id":"levelo_inurba_marseille","lat":43.304096,"lon":5.425385,"is_reserved":false,"is_disabled":false,"rental_uris":{"android":"levelo://app?vid=287d1458-a279-4139-94f8-da980c4a9cdb","ios":"levelo://app?vid=287d1458-a279-4139-94f8-da980c4a9cdb"},"vehicle_type_id":"4","last_reported":1704625560,"current_range_meters":2800,"station_id":"ce4bhoh2rcd13ifvqh6g","pricing_plan_id":"free"},{"bike_id":"e7cbbbff-b9d7-4c64-89bd-140b0f668fbf","system_id":"levelo_inurba_marseille","lat":43.294933,"lon":5.422425,"is_reserved":false,"is_disabled":false,"rental_uris":{"android":"levelo://app?vid=e7cbbbff-b9d7-4c64-89bd-140b0f668fbf","ios":"levelo://app?vid=e7cbbbff-b9d7-4c64-89bd-140b0f668fbf"},"vehicle_type_id":"4","last_reported":1704625560,"current_range_meters":22000,"station_id":"","pricing_plan_id":"free"},{"bike_id":"c085d901-e33c-457c-853f-9c02bb4444c1","system_id":"levelo_inurba_marseille","lat":43.29548,"lon":5.42282,"is_reserved":false,"is_disabled":false,"rental_uris":{"android":"levelo://app?vid=c085d901-e33c-457c-853f-9c02bb4444c1","ios":"levelo://app?vid=c085d901-e33c-457c-853f-9c02bb4444c1"},"vehicle_type_id":"4","last_reported":1704625560,"current_range_meters":23200,"station_id":"ce4bhph2rcd13ifvqhdg","pricing_plan_id":"free"},{"bike_id":"fedc8eaf-436b-4552-800f-fab60c4925ad","system_id":"levelo_inurba_marseille","lat":43.272116,"lon":5.391763,"is_reserved":false,"is_disabled":false,"rental_uris":{"android":"levelo://app?vid=fedc8eaf-436b-4552-800f-fab60c4925ad","ios":"levelo://app?vid=fedc8eaf-436b-4552-800f-fab60c4925ad"},"vehicle_type_id":"4","last_reported":1704625560,"current_range_meters":30000,"station_id":"ce4bhhp2rcd13ifvqfm0","pricing_plan_id":"free"},{"bike_id":"1aac0250-6cd9-4ac7-ac0d-edd8ae281c04","system_id":"levelo_inurba_marseille","lat":43.272116,"lon":5.391747,"is_reserved":false,"is_disabled":false,"rental_uris":{"android":"levelo://app?vid=1aac0250-6cd9-4ac7-ac0d-edd8ae281c04","ios":"levelo://app?vid=1aac0250-6cd9-4ac7-ac0d-edd8ae281c04"},"vehicle_type_id":"4","last_reported":1704625560,"current_range_meters":13200,"station_id":"ce4bhhp2rcd13ifvqfm0","pricing_plan_id":"free"},{"bike_id":"82e2f1fe-40ce-4ae9-baa0-3e8cb317a93e","system_id":"levelo_inurba_marseille","lat":43.272124,"lon":5.391768,"is_reserved":false,"is_disabled":false,"rental_uris":{"android":"levelo://app?vid=82e2f1fe-40ce-4ae9-baa0-3e8cb317a93e","ios":"levelo://app?vid=82e2f1fe-40ce-4ae9-baa0-3e8cb317a93e"},"vehicle_type_id":"4","last_reported":1704625560,"current_range_meters":25200,"station_id":"ce4bhhp2rcd13ifvqfm0","pricing_plan_id":"free"},{"bike_id":"4c5e4e2a-e250-4c76-b0cc-e3c47679edef","system_id":"levelo_inurba_marseille","lat":43.272118,"lon":5.391758,"is_reserved":false,"is_disabled":false,"rental_uris":{"android":"levelo://app?vid=4c5e4e2a-e250-4c76-b0cc-e3c47679edef","ios":"levelo://app?vid=4c5e4e2a-e250-4c76-b0cc-e3c47679edef"},"vehicle_type_id":"4","last_reported":1704625560,"current_range_meters":16400,"station_id":"ce4bhhp2rcd13ifvqfm0","pricing_plan_id":"free"},{"bike_id":"96da5ac0-f8e2-46d2-b9c9-624c7431a419","system_id":"levelo_inurba_marseille","lat":43.272116,"lon":5.391747,"is_reserved":false,"is_disabled":false,"rental_uris":{"android":"levelo://app?vid=96da5ac0-f8e2-46d2-b9c9-624c7431a419","ios":"levelo://app?vid=96da5ac0-f8e2-46d2-b9c9-624c7431a419"},"vehicle_type_id":"4","last_reported":1704625560,"current_range_meters":6800,"station_id":"ce4bhhp2rcd13ifvqfm0","pricing_plan_id":"free"},{"bike_id":"8021f483-0001-41eb-b574-8be895b2462d","system_id":"levelo_inurba_marseille","lat":43.278128,"lon":5.407195,"is_reserved":false,"is_disabled":false,"rental_uris":{"android":"levelo://app?vid=8021f483-0001-41eb-b574-8be895b2462d","ios":"levelo://app?vid=8021f483-0001-41eb-b574-8be895b2462d"},"vehicle_type_id":"4","last_reported":1704625560,"current_range_meters":17600,"station_id":"ce4bhnh2rcd13ifvqgtg","pricing_plan_id":"free"},{"bike_id":"365764e8-a52b-49a8-b99b-9851f6fb1579","system_id":"levelo_inurba_marseille","lat":43.269467,"lon":5.386439,"is_reserved":false,"is_disabled":false,"rental_uris":{"android":"levelo://app?vid=365764e8-a52b-49a8-b99b-9851f6fb1579","ios":"levelo://app?vid=365764e8-a52b-49a8-b99b-9851f6fb1579"},"vehicle_type_id":"4","last_reported":1704625560,"current_range_meters":30000,"station_id":"ce4bhh92rcd13ifvqfh0","pricing_plan_id":"free"},{"bike_id":"406f6916-cb23-452c-a6f1-285720325bc4","system_id":"levelo_inurba_marseille","lat":43.269319,"lon":5.389397,"is_reserved":false,"is_disabled":false,"rental_uris":{"android":"levelo://app?vid=406f6916-cb23-452c-a6f1-285720325bc4","ios":"levelo://app?vid=406f6916-cb23-452c-a6f1-285720325bc4"},"vehicle_type_id":"4","last_reported":1704625560,"current_range_meters":14800,"station_id":"ce4bhhh2rcd13ifvqfl0","pricing_plan_id":"free"},{"bike_id":"d5f53d09-eb42-4997-8fb8-09d821c12589","system_id":"levelo_inurba_marseille","lat":43.269319,"lon":5.389397,"is_reserved":false,"is_disabled":false,"rental_uris":{"android":"levelo://app?vid=d5f53d09-eb42-4997-8fb8-09d821c12589","ios":"levelo://app?vid=d5f53d09-eb42-4997-8fb8-09d821c12589"},"vehicle_type_id":"4","last_reported":1704625560,"current_range_meters":15600,"station_id":"ce4bhhh2rcd13ifvqfl0","pricing_plan_id":"free"},{"bike_id":"f66cf7e6-8c8a-4e85-9919-c49c4a199485","system_id":"levelo_inurba_marseille","lat":43.265714,"lon":5.372891,"is_reserved":false,"is_disabled":false,"rental_uris":{"android":"levelo://app?vid=f66cf7e6-8c8a-4e85-9919-c49c4a199485","ios":"levelo://app?vid=f66cf7e6-8c8a-4e85-9919-c49c4a199485"},"vehicle_type_id":"4","last_reported":1704625560,"current_range_meters":16800,"station_id":"ce4bhg12rcd13ifvqf70","pricing_plan_id":"free"},{"bike_id":"0815c223-5f6b-498c-975b-a7e1f4a8f721","system_id":"levelo_inurba_marseille","lat":43.27996,"lon":5.416624,"is_reserved":false,"is_disabled":false,"rental_uris":{"android":"levelo://app?vid=0815c223-5f6b-498c-975b-a7e1f4a8f721","ios":"levelo://app?vid=0815c223-5f6b-498c-975b-a7e1f4a8f721"},"vehicle_type_id":"4","last_reported":1704625560,"current_range_meters":18800,"station_id":"ce4bho12rcd13ifvqh1g","pricing_plan_id":"free"},{"bike_id":"a66bebb3-68cc-4d73-abbc-ae2e502b1909","system_id":"levelo_inurba_marseille","lat":43.27996,"lon":5.416624,"is_reserved":false,"is_disabled":false,"rental_uris":{"android":"levelo://app?vid=a66bebb3-68cc-4d73-abbc-ae2e502b1909","ios":"levelo://app?vid=a66bebb3-68cc-4d73-abbc-ae2e502b1909"},"vehicle_type_id":"4","last_reported":1704625560,"current_range_meters":31600,"station_id":"ce4bho12rcd13ifvqh1g","pricing_plan_id":"free"},