{"last_updated":1718982763,"ttl":30,"version":"2.2","data":{"bikes":[{"bike_id":"20f31c62-307b-4c16-93b6-6fcc5accd677","system_id":"levelo_inurba_marseille","lat":43.314615,"lon":5.373727,"is_reserved":false,"is_disabled":false,"rental_uris":{"android":"levelo://app?vid=20f31c62-307b-4c16-93b6-6fcc5accd677","ios":"levelo://app?vid=20f31c62-307b-4c16-93b6-6fcc5accd677"},"vehicle_type_id":"4","last_reported":1718982763,"current_range_meters":16400,"station_id":"","pricing_plan_id":"cebpf4jnsgd1na2vs0mg"},{"bike_id":"febded05-074e-44fd-bfa7-b6f69d60fa1f","system_id":"levelo_inurba_marseille","lat":43.309039,"lon":5.371797,"is_reserved":false,"is_disabled":false,"rental_uris":{"android":"levelo://app?vid=febded05-074e-44fd-bfa7-b6f69d60fa1f","ios":"levelo://app?vid=febded05-074e-44fd-bfa7-b6f69d60fa1f"},"vehicle_type_id":"4","last_reported":1718982763,"current_range_meters":6800,"station_id":"ce4bguh2rcd13ifvqckg","pricing_plan_id":"cebpf4jnsgd1na2vs0mg"},{"bike_id":"c4f8f228-273f-400d-963b-46760a643d0b","system_id":"levelo_inurba_marseille","lat":43.305714,"lon":5.365633,"is_reserved":false,"is_disabled":false,"rental_uris":{"android":"levelo://app?vid=c4f8f228-273f-400d-963b-46760a643d0b","ios":"levelo://app?vid=c4f8f228-273f-400d-963b-46760a643d0b"},"vehicle_type_id":"4","last_reported":1718982763,"current_range_meters":0,"station_id":"ce4bgs12rcd13ifvqcag","pricing_plan_id":"cebpf4jnsgd1na2vs0mg"},{"bike_id":"d6741429-2f21-4bdb-8ebe-d949de4475f9","system_id":"levelo_inurba_marseille","lat":43.30534,"lon":5.36556,"is_reserved":false,"is_disabled":false,"rental_uris":{"android":"levelo://app?vid=d6741429-2f21-4bdb-8ebe-d949de4475f9","ios":"levelo://app?vid=d6741429-2f21-4bdb-8ebe-d949de4475f9"},"vehicle_type_id":"4","last_reported":1718982763,"current_range_meters":2000,"station_id":"ce4bgs12rcd13ifvqcag","pricing_plan_id":"cebpf4jnsgd1na2vs0mg"},{"bike_id":"a603a3be-63e0-4383-89f2-e78acd2e6f1e","system_id":"levelo_inurba_marseille","lat":43.305989,"lon":5.37225,"is_reserved":false,"is_disabled":false,"rental_uris":{"android":"levelo://app?vid=a603a3be-63e0-4383-89f2-e78acd2e6f1e","ios":"levelo://app?vid=a603a3be-63e0-4383-89f2-e78acd2e6f1e"},"vehicle_type_id":"4","last_reported":1718982763,"current_range_meters":1600,"station_id":"ce4bgqh2rcd13ifvqc4g","pricing_plan_id":"cebpf4jnsgd1na2vs0mg"},{"bike_id":"85639aab-e7b1-4ead-bb46-115afb60a021","system_id":"levelo_inurba_marseille","lat":43.305989,"lon":5.37225,"is_reserved":false,"is_disabled":false,"rental_uris":{"android":"levelo://app?vid=85639aab-e7b1-4ead-bb46-115afb60a021","ios":"levelo://app?vid=85639aab-e7b1-4ead-bb46-115afb60a021"},"vehicle_type_id":"4","last_reported":1718982763,"current_range_meters":14400,"station_id":"ce4bgqh2rcd13ifvqc4g","pricing_plan_id":"cebpf4jnsgd1na2vs0mg"},{"bike_id":"fe9c5ab2-cb0a-4dc3-9d07-f3413b6cba1b","system_id":"levelo_inurba_marseille","lat":43.311125,"lon":5.377624,"is_reserved":false,"is_disabled":false,"rental_uris":{"android":"levelo://app?vid=fe9c5ab2-cb0a-4dc3-9d07-f3413b6cba1b","ios":"levelo://app?vid=fe9c5ab2-cb0a-4dc3-9d07-f3413b6cba1b"},"vehicle_type_id":"4","last_reported":1718982763,"current_range_meters":21600,"station_id":"ce4bgt92rcd13ifvqcg0","pricing_plan_id":"cebpf4jnsgd1na2vs0mg"},{"bike_id":"cd4cdacf-ddfa-4dd9-8d80-efcdf28565e3","system_id":"levelo_inurba_marseille","lat":43.317075,"lon":5.377367,"is_reserved":false,"is_disabled":false,"rental_uris":{"android":"levelo://app?vid=cd4cdacf-ddfa-4dd9-8d80-efcdf28565e3","ios":"levelo://app?vid=cd4cdacf-ddfa-4dd9-8d80-efcdf28565e3"},"vehicle_type_id":"4","last_reported":1718982763,"current_range_meters":0,"station_id":"ce4bgth2rcd13ifvqch0","pricing_plan_id":"cebpf4jnsgd1na2vs0mg"},{"bike_id":"cc2e1c0b-073e-4bfc-8049-87933a50229c","system_id":"levelo_inurba_marseille","lat":43.31948,"lon":5.37474,"is_reserved":false,"is_disabled":false,"rental_uris":{"android":"levelo://app?vid=cc2e1c0b-073e-4bfc-8049-87933a50229c","ios":"levelo://app?vid=cc2e1c0b-073e-4bfc-8049-87933a50229c"},"vehicle_type_id":"4","last_reported":1718982763,"current_range_meters":24000,"station_id":"","pricing_plan_id":"cebpf4jnsgd1na2vs0mg"},{"bike_id":"fe4687b5-47fe-450a-a3af-f6f204d0bfbf","system_id":"levelo_inurba_marseille","lat":43.31711,"lon":5.37753,"is_reserved":false,"is_disabled":false,"rental_uris":{"android":"levelo://app?vid=fe4687b5-47fe-450a-a3af-f6f204d0bfbf","ios":"levelo://app?vid=fe4687b5-47fe-450a-a3af-f6f204d0bfbf"},"vehicle_type_id":"4","last_reported":1718982763,"current_range_meters":22400,"station_id":"ce4bgth2rcd13ifvqch0","pricing_plan_id":"cebpf4jnsgd1na2vs0mg"},{"bike_id":"303d38a4-98f6-48fa-8bd4-54fabe4e78dd","system_id":"levelo_inurba_marseille","lat":43.31724,"lon":5.3775,"is_reserved":false,"is_disabled":false,"rental_uris":{"android":"levelo://app?vid=303d38a4-98f6-48fa-8bd4-54fabe4e78dd","ios":"levelo://app?vid=303d38a4-98f6-48fa-8bd4-54fabe4e78dd"},"vehicle_type_id":"4","last_reported":1718982763,"current_range_meters":13600,"station_id":"ce4bgth2rcd13ifvqch0","pricing_plan_id":"cebpf4jnsgd1na2vs0mg"},{"bike_id":"355bbf53-7985-4f7e-8b9d-cb59204ff098","system_id":"levelo_inurba_marseille","lat":43.30304,"lon":5.368987,"is_reserved":false,"is_disabled":false,"rental_uris":{"android":"levelo://app?vid=355bbf53-7985-4f7e-8b9d-cb59204ff098","ios":"levelo://app?vid=355bbf53-7985-4f7e-8b9d-cb59204ff098"},"vehicle_type_id":"4","last_reported":1718982763,"current_range_meters":0,"station_id":"ce4bgqh2rcd13ifvqc5g","pricing_plan_id":"cebpf4jnsgd1na2vs0mg"},{"bike_id":"51d4f53c-4058-4b41-ac4b-3fd23597b8c0","system_id":"levelo_inurba_marseille","lat":43.315289,"lon":5.380349,"is_reserved":false,"is_disabled":false,"rental_uris":{"android":"levelo://app?vid=51d4f53c-4058-4b41-ac4b-3fd23597b8c0","ios":"levelo://app?vid=51d4f53c-4058-4b41-ac4b-3fd23597b8c0"},"vehicle_type_id":"4","last_reported":1718982763,"current_range_meters":22800,"station_id":"ce4bhsp2rcd13ifvqi50","pricing_plan_id":"cebpf4jnsgd1na2vs0mg"},{"bike_id":"1aa9382d-bd55-4aff-8971-b23615fccdae","system_id":"levelo_inurba_marseille","lat":43.31087,"lon":5.38114,"is_reserved":false,"is_disabled":false,"rental_uris":{"android":"levelo://app?vid=1aa9382d-bd55-4aff-8971-b23615fccdae","ios":"levelo://app?vid=1aa9382d-bd55-4aff-8971-b23615fccdae"},"vehicle_type_id":"4","last_reported":1718982763,"current_range_meters":4800,"station_id":"","pricing_plan_id":"cebpf4jnsgd1na2vs0mg"},{"bike_id":"678a2542-aa79-46bd-9f50-62911e3cf3b6","system_id":"levelo_inurba_marseille","lat":43.304606,"lon":5.379026,"is_reserved":false,"is_disabled":false,"rental_uris":{"android":"levelo://app?vid=678a2542-aa79-46bd-9f50-62911e3cf3b6","ios":"levelo://app?vid=678a2542-aa79-46bd-9f50-62911e3cf3b6"},"vehicle_type_id":"4","last_reported":1718982763,"current_range_meters":10800,"station_id":"ce4bgup2rcd13ifvqcn0","pricing_plan_id":"cebpf4jnsgd1na2vs0mg"},{"bike_id":"afc92d08-bbe6-43c4-9940-67bcee943715","system_id":"levelo_inurba_marseille","lat":43.304606,"lon":5.379026,"is_reserved":false,"is_disabled":false,"rental_uris":{"android":"levelo://app?vid=afc92d08-bbe6-43c4-9940-67bcee943715","ios":"levelo://app?vid=afc92d08-bbe6-43c4-9940-67bcee943715"},"vehicle_type_id":"4","last_reported":1718982763,"current_range_meters":18400,"station_id":"ce4bgup2rcd13ifvqcn0","pricing_plan_id":"cebpf4jnsgd1na2vs0mg"},{"bike_id":"24baf901-9dc8-4b10-9588-779e8457981d","system_id":"levelo_inurba_marseille","lat":43.304606,"lon":5.379026,"is_reserved":false,"is_disabled":false,"rental_uris":{"android":"levelo://app?vid=24baf901-9dc8-4b10-9588-779e8457981d","ios":"levelo://app?vid=24baf901-9dc8-4b10-9588-779e8457981d"},"vehicle_type_id":"4","last_reported":1718982763,"current_range_meters":26800,"station_id":"ce4bgup2rcd13ifvqcn0","pricing_plan_id":"cebpf4jnsgd1na2vs0mg"},{"bike_id":"567cd815-e154-40ef-b026-81433b67cf21","system_id":"levelo_inurba_marseille","lat":43.32481,"lon":5.365695,"is_reserved":false,"is_disabled":false,"rental_uris":{"android":"levelo://app?vid=567cd815-e154-40ef-b026-81433b67cf21","ios":"levelo://app?vid=567cd815-e154-40ef-b026-81433b67cf21"},"vehicle_type_id":"4","last_reported":1718982763,"current_range_meters":19200,"station_id":"ce4bhs12rcd13ifvqhvg","pricing_plan_id":"cebpf4jnsgd1na2vs0mg"},{"bike_id":"41e183b6-db92-4867-a988-802922b4b8ee","system_id":"levelo_inurba_marseille","lat":43.310804,"lon":5.38359,"is_reserved":false,"is_disabled":false,"rental_uris":{"android":"levelo://app?vid=41e183b6-db92-4867-a988-802922b4b8ee","ios":"levelo://app?vid=41e183b6-db92-4867-a988-802922b4b8ee"},"vehicle_type_id":"4","last_reported":1718982763,"current_range_meters":4000,"station_id":"ce4bgv92rcd13ifvqcr0","pricing_plan_id":"cebpf4jnsgd1na2vs0mg"},{"bike_id":"0cf4f2e2-150e-4567-bd04-06c956a4df89","system_id":"levelo_inurba_marseille","lat":43.32492,"lon":5.36556,"is_reserved":false,"is_disabled":false,"rental_uris":{"android":"levelo://app?vid=0cf4f2e2-150e-4567-bd04-06c956a4df89","ios":"levelo://app?vid=0cf4f2e2-150e-4567-bd04-06c956a4df89"},"vehicle_type_id":"4","last_reported":1718982763,"current_range_meters":0,"station_id":"ce4bhs12rcd13ifvqhvg","pricing_plan_id":"cebpf4jnsgd1na2vs0mg"},{"bike_id":"430d1c3f-1df0-4b39-a17f-e250bdd336d1","system_id":"levelo_inurba_marseille","lat":43.310804,"lon":5.38359,"is_reserved":false,"is_disabled":false,"rental_uris":{"android":"levelo://app?vid=430d1c3f-1df0-4b39-a17f-e250bdd336d1","ios":"levelo://app?vid=430d1c3f-1df0-4b39-a17f-e250bdd336d1"},"vehicle_type_id":"4","last_reported":1718982763,"current_range_meters":2000,"station_id":"ce4bgv92rcd13ifvqcr0","pricing_plan_id":"cebpf4jnsgd1na2vs0mg"},{"bike_id":"4c7b0e9e-116e-45af-ba49-4a7d5dacb960","system_id":"levelo_inurba_marseille","lat":43.310804,"lon":5.38359,"is_reserved":false,"is_disabled":false,"rental_uris":{"android":"levelo://app?vid=4c7b0e9e-116e-45af-ba49-4a7d5dacb960","ios":"levelo://app?vid=4c7b0e9e-116e-45af-ba49-4a7d5dacb960"},"vehicle_type_id":"4","last_reported":1718982763,"current_range_meters":0,"station_id":"ce4bgv92rcd13ifvqcr0","pricing_plan_id":"cebpf4jnsgd1na2vs0mg"},{"bike_id":"4b4c6786-0daf-4e00-8dd3-05483bb864c6","system_id":"levelo_inurba_marseille","lat":43.310804,"lon":5.38359,"is_reserved":false,"is_disabled":false,"rental_uris":{"android":"levelo://app?vid=4b4c6786-0daf-4e00-8dd3-05483bb864c6","ios":"levelo://app?vid=4b4c6786-0daf-4e00-8dd3-05483bb864c6"},"vehicle_type_id":"4","last_reported":1718982763,"current_range_meters":0,"station_id":"ce4bgv92rcd13ifvqcr0","pricing_plan_id":"cebpf4jnsgd1na2vs0mg"},{"bike_id":"1d3833c5-6812-4c4e-a723-b827ba6e8d65","system_id":"levelo_inurba_marseille","lat":43.310804,"lon":5.38359,"is_reserved":false,"is_disabled":false,"rental_uris":{"android":"levelo://app?vid=1d3833c5-6812-4c4e-a723-b827ba6e8d65","ios":"levelo://app?vid=1d3833c5-6812-4c4e-a723-b827ba6e8d65"},"vehicle_type_id":"4","last_reported":1718982763,"current_range_meters":0,"station_id":"ce4bgv92rcd13ifvqcr0","pricing_plan_id":"cebpf4jnsgd1na2vs0mg"},{"bike_id":"4f17b089-79cb-4f2e-a7e1-b736df93b457","system_id":"levelo_inurba_marseille","lat":43.320015,"lon":5.381525,"is_reserved":false,"is_disabled":false,"rental_uris":{"android":"levelo://app?vid=4f17b089-79cb-4f2e-a7e1-b736df93b457","ios":"levelo://app?vid=4f17b089-79cb-4f2e-a7e1-b736df93b457"},"vehicle_type_id":"4","last_reported":1718982763,"current_range_meters":0,"station_id":"ce4bhr12rcd13ifvqhpg","pricing_plan_id":"cebpf4jnsgd1na2vs0mg"},{"bike_id":"f9688f78-b9d5-4d7a-9153-1544fdf96fd7","system_id":"levelo_inurba_marseille","lat":43.313571,"lon":5.384829,"is_reserved":false,"is_disabled":false,"rental_uris":{"android":"levelo://app?vid=f9688f78-b9d5-4d7a-9153-1544fdf96fd7","ios":"levelo://app?vid=f9688f78-b9d5-4d7a-9153-1544fdf96fd7"},"vehicle_type_id":"4","last_reported":1718982763,"current_range_meters":0,"station_id":"ce4bgt92rcd13ifvqcf0","pricing_plan_id":"cebpf4jnsgd1na2vs0mg"},{"bike_id":"b57cf413-943f-4550-8a21-f17bbbeba9cf","system_id":"levelo_inurba_marseille","lat":43.299724,"lon":5.371829,"is_reserved":false,"is_disabled":false,"rental_uris":{"android":"levelo://app?vid=b57cf413-943f-4550-8a21-f17bbbeba9cf","ios":"levelo://app?vid=b57cf413-943f-4550-8a21-f17bbbeba9cf"},"vehicle_type_id":"4","last_reported":1718982763,"current_range_meters":5600,"station_id":"ce4bgr92rcd13ifvqc7g","pricing_plan_id":"cebpf4jnsgd1na2vs0mg"},{"bike_id":"1c910911-6a7b-488d-9c49-6bf50b2c0616","system_id":"levelo_inurba_marseille","lat":43.299724,"lon":5.371829,"is_reserved":false,"is_disabled":false,"rental_uris":{"android":"levelo://app?vid=1c910911-6a7b-488d-9c49-6bf50b2c0616","ios":"levelo://app?vid=1c910911-6a7b-488d-9c49-6bf50b2c0616"},"vehicle_type_id":"4","last_reported":1718982763,"current_range_meters":4400,"station_id":"ce4bgr92rcd13ifvqc7g","pricing_plan_id":"cebpf4jnsgd1na2vs0mg"},{"bike_id":"a3351bc9-57e5-40a8-a632-fb07b59c3abd","system_id":"levelo_inurba_marseille","lat":43.29852,"lon":5.36284,"is_reserved":false,"is_disabled":false,"rental_uris":{"android":"levelo://app?vid=a3351bc9-57e5-40a8-a632-fb07b59c3abd","ios":"levelo://app?vid=a3351bc9-57e5-40a8-a632-fb07b59c3abd"},"vehicle_type_id":"4","last_reported":1718982763,"current_range_meters":0,"station_id":"","pricing_plan_id":"cebpf4jnsgd1na2vs0mg"},{"bike_id":"e20e1157-6ed4-46b5-9869-fe8467fe0ea2","system_id":"levelo_inurba_marseille","lat":43.30543,"lon":5.38429,"is_reserved":false,"is_disabled":false,"rental_uris":{"android":"levelo://app?vid=e20e1157-6ed4-46b5-9869-fe8467fe0ea2","ios":"levelo://app?vid=e20e1157-6ed4-46b5-9869-fe8467fe0ea2"},"vehicle_type_id":"4","last_reported":1718982763,"current_range_meters":0,"station_id":"ce4bgg92rcd13ifvqb30","pricing_plan_id":"cebpf4jnsgd1na2vs0mg"},{"bike_id":"c8d74784-cfa3-4dc0-a55e-c53d6b6b7590","system_id":"levelo_inurba_marseille","lat":43.29962,"lon":5.37601,"is_reserved":false,"is_disabled":false,"rental_uris":{"android":"levelo://app?vid=c8d74784-cfa3-4dc0-a55e-c53d6b6b7590","ios":"levelo://app?vid=c8d74784-cfa3-4dc0-a55e-c53d6b6b7590"},"vehicle_type_id":"4","last_reported":1718982763,"current_range_meters":18800,"station_id":"","pricing_plan_id":"cebpf4jnsgd1na2vs0mg"},{"bike_id":"3ae12918-7860-47be-aac5-d54ae234676a","system_id":"levelo_inurba_marseille","lat":43.322872,"lon":5.382756,"is_reserved":false,"is_disabled":false,"rental_uris":{"android":"levelo://app?vid=3ae12918-7860-47be-aac5-d54ae234676a","ios":"levelo://app?vid=3ae12918-7860-47be-aac5-d54ae234676a"},"vehicle_type_id":"4","last_reported":1718982763,"current_range_meters":28800,"station_id":"ce4bhr12rcd13ifvqhqg","pricing_plan_id":"cebpf4jnsgd1na2vs0mg"},{"bike_id":"de121f16-bfa6-4c34-9209-303ac2080f65","system_id":"levelo_inurba_marseille","lat":43.30217,"lon":5.38355,"is_reserved":false,"is_disabled":false,"rental_uris":{"android":"levelo://app?vid=de121f16-bfa6-4c34-9209-303ac2080f65","ios":"levelo://app?vid=de121f16-bfa6-4c34-9209-303ac2080f65"},"vehicle_type_id":"4","last_reported":1718982763,"current_range_meters":21200,"station_id":"","pricing_plan_id":"cebpf4jnsgd1na2vs0mg"},{"bike_id":"31a0ff66-3476-4c80-8b3d-7ad3f34621f4","system_id":"levelo_inurba_marseille","lat":43.2968,"lon":5.37291,"is_reserved":false,"is_disabled":false,"rental_uris":{"android":"levelo://app?vid=31a0ff66-3476-4c80-8b3d-7ad3f34621f4","ios":"levelo://app?vid=31a0ff66-3476-4c80-8b3d-7ad3f34621f4"},"vehicle_type_id":"4","last_reported":1718982763,"current_range_meters":2800,"station_id":"ce4bgk12rcd13ifvqbj0","pricing_plan_id":"cebpf4jnsgd1na2vs0mg"},{"bike_id":"71598d7a-228d-4aff-8916-a3df0cbba5cb","system_id":"levelo_inurba_marseille","lat":43.296131,"lon":5.370791,"is_reserved":false,"is_disabled":false,"rental_uris":{"android":"levelo://app?vid=71598d7a-228d-4aff-8916-a3df0cbba5cb","ios":"levelo://app?vid=71598d7a-228d-4aff-8916-a3df0cbba5cb"},"vehicle_type_id":"4","last_reported":1718982763,"current_range_meters":0,"station_id":"ce4bgnh2rcd13ifvqc0g","pricing_plan_id":"cebpf4jnsgd1na2vs0mg"},{"bike_id":"a00171e4-96cb-4fa3-97c0-f63de43dee14","system_id":"levelo_inurba_marseille","lat":43.29573,"lon":5.367355,"is_reserved":false,"is_disabled":false,"rental_uris":{"android":"levelo://app?vid=a00171e4-96cb-4fa3-97c0-f63de43dee14","ios":"levelo://app?vid=a00171e4-96cb-4fa3-97c0-f63de43dee14"},"vehicle_type_id":"4","last_reported":1718982763,"current_range_meters":23200,"station_id":"ce4bgph2rcd13ifvqc2g","pricing_plan_id":"cebpf4jnsgd1na2vs0mg"},{"bike_id":"dd92a857-a97b-4097-96e8-d064cd052c54","system_id":"levelo_inurba_marseille","lat":43.29573,"lon":5.367355,"is_reserved":false,"is_disabled":false,"rental_uris":{"android":"levelo://app?vid=dd92a857-a97b-4097-96e8-d064cd052c54","ios":"levelo://app?vid=dd92a857-a97b-4097-96e8-d064cd052c54"},"vehicle_type_id":"4","last_reported":1718982763,"current_range_meters":400,"station_id":"ce4bgph2rcd13ifvqc2g","pricing_plan_id":"cebpf4jnsgd1na2vs0mg"},{"bike_id":"e50dcf30-0af6-428d-a205-cfb5c8472fa5","system_id":"levelo_inurba_marseille","lat":43.29573,"lon":5.367355,"is_reserved":false,"is_disabled":false,"rental_uris":{"android":"levelo://app?vid=e50dcf30-0af6-428d-a205-cfb5c8472fa5","ios":"levelo://app?vid=e50dcf30-0af6-428d-a205-cfb5c8472fa5"},"vehicle_type_id":"4","last_reported":1718982763,"current_range_meters":27200,"station_id":"ce4bgph2rcd13ifvqc2g","pricing_plan_id":"cebpf4jnsgd1na2vs0mg"},{"bike_id":"214469e8-c512-475e-8dd7-a2ee3aa5b369","system_id":"levelo_inurba_marseille","lat":43.296921,"lon":5.376579,"is_reserved":false,"is_disabled":false,"rental_uris":{"android":"levelo://app?vid=214469e8-c512-475e-8dd7-a2ee3aa5b369","ios":"levelo://app?vid=214469e8-c512-475e-8dd7-a2ee3aa5b369"},"vehicle_type_id":"4","last_reported":1718982763,"current_range_meters":27200,"station_id":"ce4bgkh2rcd13ifvqbl0","pricing_plan_id":"cebpf4jnsgd1na2vs0mg"},{"bike_id":"b08b9e21-337d-409d-94c9-a5656fc1c43a","system_id":"levelo_inurba_marseille","lat":43.317557,"lon":5.390173,"is_reserved":false,"is_disabled":false,"rental_uris":{"android":"levelo://app?vid=b08b9e21-337d-409d-94c9-a5656fc1c43a","ios":"levelo://app?vid=b08b9e21-337d-409d-94c9-a5656fc1c43a"},"vehicle_type_id":"4","last_reported":1718982763,"current_range_meters":6400,"station_id":"ce4bhqp2rcd13ifvqhng","pricing_plan_id":"cebpf4jnsgd1na2vs0mg"},{"bike_id":"320d46ee-cc92-471f-a889-64e7accdd43d","system_id":"levelo_inurba_marseille","lat":43.298037,"lon":5.381066,"is_reserved":false,"is_disabled":false,"rental_uris":{"android":"levelo://app?vid=320d46ee-cc92-471f-a889-64e7accdd43d","ios":"levelo://app?vid=320d46ee-cc92-471f-a889-64e7accdd43d"},"vehicle_type_id":"4","last_reported":1718982763,"current_range_meters":10800,"station_id":"ce4bgip2rcd13ifvqbb0","pricing_plan_id":"cebpf4jnsgd1na2vs0mg"},{"bike_id":"63553621-9cc0-4efc-b643-8d6af700874f","system_id":"levelo_inurba_marseille","lat":43.298023,"lon":5.380977,"is_reserved":false,"is_disabled":false,"rental_uris":{"android":"levelo://app?vid=63553621-9cc0-4efc-b643-8d6af700874f","ios":"levelo://app?vid=63553621-9cc0-4efc-b643-8d6af700874f"},"vehicle_type_id":"4","last_reported":1718982763,"current_range_meters":0,"station_id":"ce4bgip2rcd13ifvqbb0","pricing_plan_id":"cebpf4jnsgd1na2vs0mg"},{"bike_id":"c985ef33-d5f7-4260-bc3b-be498c3b5426","system_id":"levelo_inurba_marseille","lat":43.29804,"lon":5.38103,"is_reserved":false,"is_disabled":false,"rental_uris":{"android":"levelo://app?vid=c985ef33-d5f7-4260-bc3b-be498c3b5426","ios":"levelo://app?vid=c985ef33-d5f7-4260-bc3b-be498c3b5426"},"vehicle_type_id":"4","last_reported":1718982763,"current_range_meters":0,"station_id":"ce4bgip2rcd13ifvqbb0","pricing_plan_id":"cebpf4jnsgd1na2vs0mg"},{"bike_id":"c90a6f6a-8d4f-4699-a943-54fc8ecfc60d","system_id":"levelo_inurba_marseille","lat":43.298037,"lon":5.381066,"is_reserved":false,"is_disabled":false,"rental_uris":{"android":"levelo://app?vid=c90a6f6a-8d4f-4699-a943-54fc8ecfc60d","ios":"levelo://app?vid=c90a6f6a-8d4f-4699-a943-54fc8ecfc60d"},"vehicle_type_id":"4","last_reported":1718982763,"current_range_meters":1200,"station_id":"ce4bgip2rcd13ifvqbb0","pricing_plan_id":"cebpf4jnsgd1na2vs0mg"},{"bike_id":"f4cff180-ca8b-4610-afb2-a1e3f3a90860","system_id":"levelo_inurba_marseille","lat":43.298037,"lon":5.381066,"is_reserved":false,"is_disabled":false,"rental_uris":{"android":"levelo://app?vid=f4cff180-ca8b-4610-afb2-a1e3f3a90860","ios":"levelo://app?vid=f4cff180-ca8b-4610-afb2-a1e3f3a90860"},"vehicle_type_id":"4","last_reported":1718982763,"current_range_meters":8800,"station_id":"ce4bgip2rcd13ifvqbb0","pricing_plan_id":"cebpf4jnsgd1na2vs0mg"},{"bike_id":"383f6e29-dd20-48f4-af00-bca464759337","system_id":"levelo_inurba_marseille","lat":43.295748,"lon":5.37522,"is_reserved":false,"is_disabled":false,"rental_uris":{"android":"levelo://app?vid=383f6e29-dd20-48f4-af00-bca464759337","ios":"levelo://app?vid=383f6e29-dd20-48f4-af00-bca464759337"},"vehicle_type_id":"4","last_reported":1718982763,"current_range_meters":6000,"station_id":"ce4bgh92rcd13ifvqb50","pricing_plan_id":"cebpf4jnsgd1na2vs0mg"},{"bike_id":"6902b0bf-1259-4183-ad17-aae71cee0907","system_id":"levelo_inurba_marseille","lat":43.304278,"lon":5.388868,"is_reserved":false,"is_disabled":false,"rental_uris":{"android":"levelo://app?vid=6902b0bf-1259-4183-ad17-aae71cee0907","ios":"levelo://app?vid=6902b0bf-1259-4183-ad17-aae71cee0907"},"vehicle_type_id":"4","last_reported":1718982763,"current_range_meters":22800,"station_id":"ce4bgk12rcd13ifvqbi0","pricing_plan_id":"cebpf4jnsgd1na2vs0mg"},{"bike_id":"dff29c23-1875-4de4-8ed8-4c4ceb3cefbd","system_id":"levelo_inurba_marseille","lat":43.30424,"lon":5.38884,"is_reserved":false,"is_disabled":false,"rental_uris":{"android":"levelo://app?vid=dff29c23-1875-4de4-8ed8-4c4ceb3cefbd","ios":"levelo://app?vid=dff29c23-1875-4de4-8ed8-4c4ceb3cefbd"},"vehicle_type_id":"4","last_reported":1718982763,"current_range_meters":0,"station_id":"ce4bgk12rcd13ifvqbi0","pricing_plan_id":"cebpf4jnsgd1na2vs0mg"},{"bike_id":"189edbb5-ff4b-4f3e-9321-ae71fe55f071","system_id":"levelo_inurba_marseille","lat":43.304278,"lon":5.388868,"is_reserved":false,"is_disabled":false,"rental_uris":{"android":"levelo://app?vid=189edbb5-ff4b-4f3e-9321-ae71fe55f071","ios":"levelo://app?vid=189edbb5-ff4b-4f3e-9321-ae71fe55f071"},"vehicle_type_id":"4","last_reported":1718982763,"current_range_meters":24000,"station_id":"ce4bgk12rcd13ifvqbi0","pricing_plan_id":"cebpf4jnsgd1na2vs0mg"},{"bike_id":"bd858134-7ed5-438e-8984-aeb4bad1021e","system_id":"levelo_inurba_marseille","lat":43.298037,"lon":5.381066,"is_reserved":false,"is_disabled":false,"rental_uris":{"android":"levelo://app?vid=bd858134-7ed5-438e-8984-aeb4bad1021e","ios":"levelo://app?vid=bd858134-7ed5-438e-8984-aeb4bad1021e"},"vehicle_type_id":"4","last_reported":1718982763,"current_range_meters":0,"station_id":"ce4bgip2rcd13ifvqbb0","pricing_plan_id":"cebpf4jnsgd1na2vs0mg"},{"bike_id":"65542362-badc-419d-8e22-25cc094fcaf2","system_id":"levelo_inurba_marseille","lat":43.304278,"lon":5.388868,"is_reserved":false,"is_disabled":false,"rental_uris":{"android":"levelo://app?vid=65542362-badc-419d-8e22-25cc094fcaf2","ios":"levelo://app?vid=65542362-badc-419d-8e22-25cc094fcaf2"},"vehicle_type_id":"4","last_reported":1718982763,"current_range_meters":17600,"station_id":"ce4bgk12rcd13ifvqbi0","pricing_plan_id":"cebpf4jnsgd1na2vs0mg"},{"bike_id":"c2102607-1278-4d14-b9c7-63f3ab6f1748","system_id":"levelo_inurba_marseille","lat":43.296277,"lon":5.377108,"is_reserved":false,"is_disabled":false,"rental_uris":{"android":"levelo://app?vid=c2102607-1278-4d14-b9c7-63f3ab6f1748","ios":"levelo://app?vid=c2102607-1278-4d14-b9c7-63f3ab6f1748"},"vehicle_type_id":"4","last_reported":1718982763,"current_range_meters":17600,"station_id":"ce4bgi92rcd13ifvqb90","pricing_plan_id":"cebpf4jnsgd1na2vs0mg"},{"bike_id":"4b17b5a5-bb02-4fc0-ac6a-b458590d6f81","system_id":"levelo_inurba_marseille","lat":43.304274,"lon":5.388873,"is_reserved":false,"is_disabled":false,"rental_uris":{"android":"levelo://app?vid=4b17b5a5-bb02-4fc0-ac6a-b458590d6f81","ios":"levelo://app?vid=4b17b5a5-bb02-4fc0-ac6a-b458590d6f81"},"vehicle_type_id":"4","last_reported":1718982763,"current_range_meters":7200,"station_id":"ce4bgk12rcd13ifvqbi0","pricing_plan_id":"cebpf4jnsgd1na2vs0mg"},{"bike_id":"47f1f6d1-1c13-4962-9e10-b98309d28b19","system_id":"levelo_inurba_marseille","lat":43.295279,"lon":5.375048,"is_reserved":false,"is_disabled":false,"rental_uris":{"android":"levelo://app?vid=47f1f6d1-1c13-4962-9e10-b98309d28b19","ios":"levelo://app?vid=47f1f6d1-1c13-4962-9e10-b98309d28b19"},"vehicle_type_id":"4","last_reported":1718982763,"current_range_meters":8400,"station_id":"ce4bgkp2rcd13ifvqbmg","pricing_plan_id":"cebpf4jnsgd1na2vs0mg"},{"bike_id":"0b04d498-92c4-483f-976d-8c8ab964cd8c","system_id":"levelo_inurba_marseille","lat":43.299724,"lon":5.384848,"is_reserved":false,"is_disabled":false,"rental_uris":{"android":"levelo://app?vid=0b04d498-92c4-483f-976d-8c8ab964cd8c","ios":"levelo://app?vid=0b04d498-92c4-483f-976d-8c8ab964cd8c"},"vehicle_type_id":"4","last_reported":1718982763,"current_range_meters":0,"station_id":"ce4bgj92rcd13ifvqbd0","pricing_plan_id":"cebpf4jnsgd1na2vs0mg"},{"bike_id":"919d3128-da69-4fda-86bc-e407e614b712","system_id":"levelo_inurba_marseille","lat":43.293259,"lon":5.371586,"is_reserved":false,"is_disabled":false,"rental_uris":{"android":"levelo://app?vid=919d3128-da69-4fda-86bc-e407e614b712","ios":"levelo://app?vid=919d3128-da69-4fda-86bc-e407e614b712"},"vehicle_type_id":"4","last_reported":1718982763,"current_range_meters":12000,"station_id":"ce4bgh92rcd13ifvqb40","pricing_plan_id":"cebpf4jnsgd1na2vs0mg"},{"bike_id":"5e87027c-5292-462d-bcda-b5dc8e0f417c","system_id":"levelo_inurba_marseille","lat":43.29602,"lon":5.381084,"is_reserved":false,"is_disabled":false,"rental_uris":{"android":"levelo://app?vid=5e87027c-5292-462d-bcda-b5dc8e0f417c","ios":"levelo://app?vid=5e87027c-5292-462d-bcda-b5dc8e0f417c"},"vehicle_type_id":"4","last_reported":1718982763,"current_range_meters":14800,"station_id":"ce4bgl12rcd13ifvqbo0","pricing_plan_id":"cebpf4jnsgd1na2vs0mg"},{"bike_id":"0154e72a-e260-452e-ad45-653750145bf3","system_id":"levelo_inurba_marseille","lat":43.29313,"lon":5.37174,"is_reserved":false,"is_disabled":false,"rental_uris":{"android":"levelo://app?vid=0154e72a-e260-452e-ad45-653750145bf3","ios":"levelo://app?vid=0154e72a-e260-452e-ad45-653750145bf3"},"vehicle_type_id":"4","last_reported":1718982763,"current_range_meters":0,"station_id":"ce4bgh92rcd13ifvqb40","pricing_plan_id":"cebpf4jnsgd1na2vs0mg"},{"bike_id":"f96d3189-29c0-4eda-ad40-9c0c62145ed0","system_id":"levelo_inurba_marseille","lat":43.293259,"lon":5.371586,"is_reserved":false,"is_disabled":false,"rental_uris":{"android":"levelo://app?vid=f96d3189-29c0-4eda-ad40-9c0c62145ed0","ios":"levelo://app?vid=f96d3189-29c0-4eda-ad40-9c0c62145ed0"},"vehicle_type_id":"4","last_reported":1718982763,"current_range_meters":0,"station_id":"ce4bgh92rcd13ifvqb40","pricing_plan_id":"cebpf4jnsgd1na2vs0mg"},{"bike_id":"c9443ceb-e8c0-496b-b949-84ebd05e2555","system_id":"levelo_inurba_marseille","lat":43.297447,"lon":5.385393,"is_reserved":false,"is_disabled":false,"rental_uris":{"android":"levelo://app?vid=c9443ceb-e8c0-496b-b949-84ebd05e2555","ios":"levelo://app?vid=c9443ceb-e8c0-496b-b949-84ebd05e2555"},"vehicle_type_id":"4","last_reported":1718982763,"current_range_meters":0,"station_id":"","pricing_plan_id":"cebpf4jnsgd1na2vs0mg"},{"bike_id":"41aec1c8-f278-42e6-a429-e325c61a0664","system_id":"levelo_inurba_marseille","lat":43.29298,"lon":5.37462,"is_reserved":false,"is_disabled":false,"rental_uris":{"android":"levelo://app?vid=41aec1c8-f278-42e6-a429-e325c61a0664","ios":"levelo://app?vid=41aec1c8-f278-42e6-a429-e325c61a0664"},"vehicle_type_id":"4","last_reported":1718982763,"current_range_meters":0,"station_id":"ce4bgi12rcd13ifvqb70","pricing_plan_id":"cebpf4jnsgd1na2vs0mg"},{"bike_id":"f7a39a10-65e2-4a9d-8044-10884f44b103","system_id":"levelo_inurba_marseille","lat":43.292215,"lon":5.36326,"is_reserved":false,"is_disabled":false,"rental_uris":{"android":"levelo://app?vid=f7a39a10-65e2-4a9d-8044-10884f44b103","ios":"levelo://app?vid=f7a39a10-65e2-4a9d-8044-10884f44b103"},"vehicle_type_id":"4","last_reported":1718982763,"current_range_meters":2800,"station_id":"ce4bhbh2rcd13ifvqeqg","pricing_plan_id":"cebpf4jnsgd1na2vs0mg"},{"bike_id":"154efd4f-ad19-4a4c-aa29-36169a920b6e","system_id":"levelo_inurba_marseille","lat":43.293009,"lon":5.374584,"is_reserved":false,"is_disabled":false,"rental_uris":{"android":"levelo://app?vid=154efd4f-ad19-4a4c-aa29-36169a920b6e","ios":"levelo://app?vid=154efd4f-ad19-4a4c-aa29-36169a920b6e"},"vehicle_type_id":"4","last_reported":1718982763,"current_range_meters":23200,"station_id":"ce4bgi12rcd13ifvqb70","pricing_plan_id":"cebpf4jnsgd1na2vs0mg"},{"bike_id":"a7e1c7be-03c1-4201-855e-135642f0ffc5","system_id":"levelo_inurba_marseille","lat":43.302992,"lon":5.392136,"is_reserved":false,"is_disabled":false,"rental_uris":{"android":"levelo://app?vid=a7e1c7be-03c1-4201-855e-135642f0ffc5","ios":"levelo://app?vid=a7e1c7be-03c1-4201-855e-135642f0ffc5"},"vehicle_type_id":"4","last_reported":1718982763,"current_range_meters":10800,"station_id":"ce4bgkh2rcd13ifvqbk0","pricing_plan_id":"cebpf4jnsgd1na2vs0mg"},{"bike_id":"5e9c297a-2415-4d3a-9d8c-7e80f685443e","system_id":"levelo_inurba_marseille","lat":43.2936,"lon":5.37835,"is_reserved":false,"is_disabled":false,"rental_uris":{"android":"levelo://app?vid=5e9c297a-2415-4d3a-9d8c-7e80f685443e","ios":"levelo://app?vid=5e9c297a-2415-4d3a-9d8c-7e80f685443e"},"vehicle_type_id":"4","last_reported":1718982763,"current_range_meters":30800,"station_id":"ce4bgjh2rcd13ifvqbf0","pricing_plan_id":"cebpf4jnsgd1na2vs0mg"},{"bike_id":"a20220b1-c5e3-4e09-98ff-72561533718e","system_id":"levelo_inurba_marseille","lat":43.302992,"lon":5.392136,"is_reserved":false,"is_disabled":false,"rental_uris":{"android":"levelo://app?vid=a20220b1-c5e3-4e09-98ff-72561533718e","ios":"levelo://app?vid=a20220b1-c5e3-4e09-98ff-72561533718e"},"vehicle_type_id":"4","last_reported":1718982763,"current_range_meters":800,"station_id":"ce4bgkh2rcd13ifvqbk0","pricing_plan_id":"cebpf4jnsgd1na2vs0mg"},{"bike_id":"528f7dc1-b6d7-456b-b1de-5102029e8dce","system_id":"levelo_inurba_marseille","lat":43.302992,"lon":5.392136,"is_reserved":false,"is_disabled":false,"rental_uris":{"android":"levelo://app?vid=528f7dc1-b6d7-456b-b1de-5102029e8dce","ios":"levelo://app?vid=528f7dc1-b6d7-456b-b1de-5102029e8dce"},"vehicle_type_id":"4","last_reported":1718982763,"current_range_meters":5600,"station_id":"ce4bgkh2rcd13ifvqbk0","pricing_plan_id":"cebpf4jnsgd1na2vs0mg"},{"bike_id":"fafa00d2-e2ce-4a5b-b798-e6355779fe2d","system_id":"levelo_inurba_marseille","lat":43.292332,"lon":5.360546,"is_reserved":false,"is_disabled":false,"rental_uris":{"android":"levelo://app?vid=fafa00d2-e2ce-4a5b-b798-e6355779fe2d","ios":"levelo://app?vid=fafa00d2-e2ce-4a5b-b798-e6355779fe2d"},"vehicle_type_id":"4","last_reported":1718982763,"current_range_meters":31600,"station_id":"ce4bhbh2rcd13ifvqeqg","pricing_plan_id":"cebpf4jnsgd1na2vs0mg"},{"bike_id":"7fc52f1a-c3e6-4ee9-8bd9-ead620e10d55","system_id":"levelo_inurba_marseille","lat":43.29231,"lon":5.36067,"is_reserved":false,"is_disabled":false,"rental_uris":{"android":"levelo://app?vid=7fc52f1a-c3e6-4ee9-8bd9-ead620e10d55","ios":"levelo://app?vid=7fc52f1a-c3e6-4ee9-8bd9-ead620e10d55"},"vehicle_type_id":"4","last_reported":1718982763,"current_range_meters":2800,"station_id":"ce4bhbh2rcd13ifvqeqg","pricing_plan_id":"cebpf4jnsgd1na2vs0mg"},{"bike_id":"687c2d5b-ef98-4e08-8e56-6b137caf87b4","system_id":"levelo_inurba_marseille","lat":43.294619,"lon":5.381384,"is_reserved":false,"is_disabled":false,"rental_uris":{"android":"levelo://app?vid=687c2d5b-ef98-4e08-8e56-6b137caf87b4","ios":"levelo://app?vid=687c2d5b-ef98-4e08-8e56-6b137caf87b4"},"vehicle_type_id":"4","last_reported":1718982763,"current_range_meters":18000,"station_id":"","pricing_plan_id":"cebpf4jnsgd1na2vs0mg"},{"bike_id":"aedfc475-3b40-4057-b1a1-3d98fe4a6642","system_id":"levelo_inurba_marseille","lat":43.29223,"lon":5.36073,"is_reserved":false,"is_disabled":false,"rental_uris":{"android":"levelo://app?vid=aedfc475-3b40-4057-b1a1-3d98fe4a6642","ios":"levelo://app?vid=aedfc475-3b40-4057-b1a1-3d98fe4a6642"},"vehicle_type_id":"4","last_reported":1718982763,"current_range_meters":25200,"station_id":"ce4bhbh2rcd13ifvqeqg","pricing_plan_id":"cebpf4jnsgd1na2vs0mg"},{"bike_id":"d180d09e-010d-41d8-8a62-47bce0950cd2","system_id":"levelo_inurba_marseille","lat":43.29224,"lon":5.36057,"is_reserved":false,"is_disabled":false,"rental_uris":{"android":"levelo://app?vid=d180d09e-010d-41d8-8a62-47bce0950cd2","ios":"levelo://app?vid=d180d09e-010d-41d8-8a62-47bce0950cd2"},"vehicle_type_id":"4","last_reported":1718982763,"current_range_meters":16400,"station_id":"ce4bhbh2rcd13ifvqeqg","pricing_plan_id":"cebpf4jnsgd1na2vs0mg"},{"bike_id":"c0ee0a6d-a9c9-4c39-aab1-f71a47a811a2","system_id":"levelo_inurba_marseille","lat":43.29224,"lon":5.36056,"is_reserved":false,"is_disabled":false,"rental_uris":{"android":"levelo://app?vid=c0ee0a6d-a9c9-4c39-aab1-f71a47a811a2","ios":"levelo://app?vid=c0ee0a6d-a9c9-4c39-aab1-f71a47a811a2"},"vehicle_type_id":"4","last_reported":1718982763,"current_range_meters":8800,"station_id":"ce4bhbh2rcd13ifvqeqg","pricing_plan_id":"cebpf4jnsgd1na2vs0mg"},{"bike_id":"9e82f26d-52c7-4321-ac51-0b41f8e7c114","system_id":"levelo_inurba_marseille","lat":43.2922,"lon":5.36072,"is_reserved":false,"is_disabled":false,"rental_uris":{"android":"levelo://app?vid=9e82f26d-52c7-4321-ac51-0b41f8e7c114","ios":"levelo://app?vid=9e82f26d-52c7-4321-ac51-0b41f8e7c114"},"vehicle_type_id":"4","last_reported":1718982763,"current_range_meters":30400,"station_id":"ce4bhbh2rcd13ifvqeqg","pricing_plan_id":"cebpf4jnsgd1na2vs0mg"},{"bike_id":"0bfb8378-da93-4cf0-9bac-fe36568e731a","system_id":"levelo_inurba_marseille","lat":43.292201,"lon":5.360648,"is_reserved":false,"is_disabled":false,"rental_uris":{"android":"levelo://app?vid=0bfb8378-da93-4cf0-9bac-fe36568e731a","ios":"levelo://app?vid=0bfb8378-da93-4cf0-9bac-fe36568e731a"},"vehicle_type_id":"4","last_reported":1718982763,"current_range_meters":23200,"station_id":"ce4bhbh2rcd13ifvqeqg","pricing_plan_id":"cebpf4jnsgd1na2vs0mg"},{"bike_id":"8dd5b7fc-164c-4b9c-ac4f-b58802693cdf","system_id":"levelo_inurba_marseille","lat":43.298764,"lon":5.388973,"is_reserved":false,"is_disabled":false,"rental_uris":{"android":"levelo://app?vid=8dd5b7fc-164c-4b9c-ac4f-b58802693cdf","ios":"levelo://app?vid=8dd5b7fc-164c-4b9c-ac4f-b58802693cdf"},"vehicle_type_id":"4","last_reported":1718982763,"current_range_meters":24000,"station_id":"ce4bh392rcd13ifvqdl0","pricing_plan_id":"cebpf4jnsgd1na2vs0mg"},{"bike_id":"565936fd-447f-4101-a466-000bcc04096d","system_id":"levelo_inurba_marseille","lat":43.298764,"lon":5.388973,"is_reserved":false,"is_disabled":false,"rental_uris":{"android":"levelo://app?vid=565936fd-447f-4101-a466-000bcc04096d","ios":"levelo://app?vid=565936fd-447f-4101-a466-000bcc04096d"},"vehicle_type_id":"4","last_reported":1718982763,"current_range_meters":19200,"station_id":"ce4bh392rcd13ifvqdl0","pricing_plan_id":"cebpf4jnsgd1na2vs0mg"},{"bike_id":"7e50b988-4626-4682-bb58-00b7ead97f1f","system_id":"levelo_inurba_marseille","lat":43.291675,"lon":5.371583,"is_reserved":false,"is_disabled":false,"rental_uris":{"android":"levelo://app?vid=7e50b988-4626-4682-bb58-00b7ead97f1f","ios":"levelo://app?vid=7e50b988-4626-4682-bb58-00b7ead97f1f"},"vehicle_type_id":"4","last_reported":1718982763,"current_range_meters":2800,"station_id":"ce4bha92rcd13ifvqeh0","pricing_plan_id":"cebpf4jnsgd1na2vs0mg"},{"bike_id":"9621bb2a-fad9-4491-8085-6d1589f3bacf","system_id":"levelo_inurba_marseille","lat":43.2988,"lon":5.38907,"is_reserved":false,"is_disabled":false,"rental_uris":{"android":"levelo://app?vid=9621bb2a-fad9-4491-8085-6d1589f3bacf","ios":"levelo://app?vid=9621bb2a-fad9-4491-8085-6d1589f3bacf"},"vehicle_type_id":"4","last_reported":1718982763,"current_range_meters":0,"station_id":"ce4bh392rcd13ifvqdl0","pricing_plan_id":"cebpf4jnsgd1na2vs0mg"},{"bike_id":"8a6a29c7-68f0-40f9-9e66-e63555a7f82e","system_id":"levelo_inurba_marseille","lat":43.2987,"lon":5.38907,"is_reserved":false,"is_disabled":false,"rental_uris":{"android":"levelo://app?vid=8a6a29c7-68f0-40f9-9e66-e63555a7f82e","ios":"levelo://app?vid=8a6a29c7-68f0-40f9-9e66-e63555a7f82e"},"vehicle_type_id":"4","last_reported":1718982763,"current_range_meters":24800,"station_id":"ce4bh392rcd13ifvqdl0","pricing_plan_id":"cebpf4jnsgd1na2vs0mg"},{"bike_id":"d0d18688-c933-44dd-bd0c-87a7c6a4c2bd","system_id":"levelo_inurba_marseille","lat":43.292005,"lon":5.357875,"is_reserved":false,"is_disabled":false,"rental_uris":{"android":"levelo://app?vid=d0d18688-c933-44dd-bd0c-87a7c6a4c2bd","ios":"levelo://app?vid=d0d18688-c933-44dd-bd0c-87a7c6a4c2bd"},"vehicle_type_id":"4","last_reported":1718982763,"current_range_meters":2400,"station_id":"ce4bhb12rcd13ifvqel0","pricing_plan_id":"cebpf4jnsgd1na2vs0mg"},{"bike_id":"f122ff05-c12b-4389-ad31-e5edf35b5383","system_id":"levelo_inurba_marseille","lat":43.291994,"lon":5.357886,"is_reserved":false,"is_disabled":false,"rental_uris":{"android":"levelo://app?vid=f122ff05-c12b-4389-ad31-e5edf35b5383","ios":"levelo://app?vid=f122ff05-c12b-4389-ad31-e5edf35b5383"},"vehicle_type_id":"4","last_reported":1718982763,"current_range_meters":30000,"station_id":"ce4bhb12rcd13ifvqel0","pricing_plan_id":"cebpf4jnsgd1na2vs0mg"},{"bike_id":"94ee0a3b-805f-4d06-bb04-52841c02bff6","system_id":"levelo_inurba_marseille","lat":43.291994,"lon":5.357886,"is_reserved":false,"is_disabled":false,"rental_uris":{"android":"levelo://app?vid=94ee0a3b-805f-4d06-bb04-52841c02bff6","ios":"levelo://app?vid=94ee0a3b-805f-4d06-bb04-52841c02bff6"},"vehicle_type_id":"4","last_reported":1718982763,"current_range_meters":2400,"station_id":"ce4bhb12rcd13ifvqel0","pricing_plan_id":"cebpf4jnsgd1na2vs0mg"},{"bike_id":"10ae864a-acf5-445b-acc3-cff62cb3ee5a","system_id":"levelo_inurba_marseille","lat":43.292005,"lon":5.357875,"is_reserved":false,"is_disabled":false,"rental_uris":{"android":"levelo://app?vid=10ae864a-acf5-445b-acc3-cff62cb3ee5a","ios":"levelo://app?vid=10ae864a-acf5-445b-acc3-cff62cb3ee5a"},"vehicle_type_id":"4","last_reported":1718982763,"current_range_meters":12000,"station_id":"ce4bhb12rcd13ifvqel0","pricing_plan_id":"cebpf4jnsgd1na2vs0mg"},{"bike_id":"22df305b-a4c4-4343-ab98-c4e8b7dababa","system_id":"levelo_inurba_marseille","lat":43.313291,"lon":5.396838,"is_reserved":false,"is_disabled":false,"rental_uris":{"android":"levelo://app?vid=22df305b-a4c4-4343-ab98-c4e8b7dababa","ios":"levelo://app?vid=22df305b-a4c4-4343-ab98-c4e8b7dababa"},"vehicle_type_id":"4","last_reported":1718982763,"current_range_meters":2000,"station_id":"ce4bgvp2rcd13ifvqcu0","pricing_plan_id":"cebpf4jnsgd1na2vs0mg"},{"bike_id":"4552e22f-5e78-4a95-9d07-743035c2f0c8","system_id":"levelo_inurba_marseille","lat":43.292005,"lon":5.357875,"is_reserved":false,"is_disabled":false,"rental_uris":{"android":"levelo://app?vid=4552e22f-5e78-4a95-9d07-743035c2f0c8","ios":"levelo://app?vid=4552e22f-5e78-4a95-9d07-743035c2f0c8"},"vehicle_type_id":"4","last_reported":1718982763,"current_range_meters":15200,"station_id":"ce4bhb12rcd13ifvqel0","pricing_plan_id":"cebpf4jnsgd1na2vs0mg"},{"bike_id":"5eaa5cfa-3c63-4806-a662-0e14337e537c","system_id":"levelo_inurba_marseille","lat":43.31326,"lon":5.39693,"is_reserved":false,"is_disabled":false,"rental_uris":{"android":"levelo://app?vid=5eaa5cfa-3c63-4806-a662-0e14337e537c","ios":"levelo://app?vid=5eaa5cfa-3c63-4806-a662-0e14337e537c"},"vehicle_type_id":"4","last_reported":1718982763,"current_range_meters":9200,"station_id":"ce4bgvp2rcd13ifvqcu0","pricing_plan_id":"cebpf4jnsgd1na2vs0mg"},{"bike_id":"fd8b1232-6f28-4598-a731-0765c5047c98","system_id":"levelo_inurba_marseille","lat":43.313291,"lon":5.396838,"is_reserved":false,"is_disabled":false,"rental_uris":{"android":"levelo://app?vid=fd8b1232-6f28-4598-a731-0765c5047c98","ios":"levelo://app?vid=fd8b1232-6f28-4598-a731-0765c5047c98"},"vehicle_type_id":"4","last_reported":1718982763,"current_range_meters":6000,"station_id":"ce4bgvp2rcd13ifvqcu0","pricing_plan_id":"cebpf4jnsgd1na2vs0mg"},{"bike_id":"daf5d945-d0cb-4806-adcb-b24bc2adef4b","system_id":"levelo_inurba_marseille","lat":43.29529,"lon":5.385581,"is_reserved":false,"is_disabled":false,"rental_uris":{"android":"levelo://app?vid=daf5d945-d0cb-4806-adcb-b24bc2adef4b","ios":"levelo://app?vid=daf5d945-d0cb-4806-adcb-b24bc2adef4b"},"vehicle_type_id":"4","last_reported":1718982763,"current_range_meters":13600,"station_id":"ce4bgih2rcd13ifvqba0","pricing_plan_id":"cebpf4jnsgd1na2vs0mg"},{"bike_id":"10e222e8-f2e9-41c0-abe6-900fdfead634","system_id":"levelo_inurba_marseille","lat":43.29529,"lon":5.385581,"is_reserved":false,"is_disabled":false,"rental_uris":{"android":"levelo://app?vid=10e222e8-f2e9-41c0-abe6-900fdfead634","ios":"levelo://app?vid=10e222e8-f2e9-41c0-abe6-900fdfead634"},"vehicle_type_id":"4","last_reported":1718982763,"current_range_meters":11200,"station_id":"ce4bgih2rcd13ifvqba0","pricing_plan_id":"cebpf4jnsgd1na2vs0mg"},{"bike_id":"8c658c75-f28c-4731-b10f-dbbd554b6f59","system_id":"levelo_inurba_marseille","lat":43.29529,"lon":5.385581,"is_reserved":false,"is_disabled":false,"rental_uris":{"android":"levelo://app?vid=8c658c75-f28c-4731-b10f-dbbd554b6f59","ios":"levelo://app?vid=8c658c75-f28c-4731-b10f-dbbd554b6f59"},"vehicle_type_id":"4","last_reported":1718982763,"current_range_meters":28800,"station_id":"ce4bgih2rcd13ifvqba0","pricing_plan_id":"cebpf4jnsgd1na2vs0mg"},{"bike_id":"6581618f-c1ee-4c99-bad5-6dea23d78482","system_id":"levelo_inurba_marseille","lat":43.29529,"lon":5.385581,"is_reserved":false,"is_disabled":false,"rental_uris":{"android":"levelo://app?vid=6581618f-c1ee-4c99-bad5-6dea23d78482","ios":"levelo://app?vid=6581618f-c1ee-4c99-bad5-6dea23d78482"},"vehicle_type_id":"4","last_reported":1718982763,"current_range_meters":10400,"station_id":"ce4bgih2rcd13ifvqba0","pricing_plan_id":"cebpf4jnsgd1na2vs0mg"},{"bike_id":"8f52431a-53e0-4b80-a194-3be3c9fff9f4","system_id":"levelo_inurba_marseille","lat":43.29529,"lon":5.385581,"is_reserved":false,"is_disabled":false,"rental_uris":{"android":"levelo://app?vid=8f52431a-53e0-4b80-a194-3be3c9fff9f4","ios":"levelo://app?vid=8f52431a-53e0-4b80-a194-3be3c9fff9f4"},"vehicle_type_id":"4","last_reported":1718982763,"current_range_meters":16800,"station_id":"ce4bgih2rcd13ifvqba0","pricing_plan_id":"cebpf4jnsgd1na2vs0mg"},{"bike_id":"bb0fd63d-5df5-4d6e-a867-77c823c00965","system_id":"levelo_inurba_marseille","lat":43.290779,"lon":5.371482,"is_reserved":false,"is_disabled":false,"rental_uris":{"android":"levelo://app?vid=bb0fd63d-5df5-4d6e-a867-77c823c00965","ios":"levelo://app?vid=bb0fd63d-5df5-4d6e-a867-77c823c00965"},"vehicle_type_id":"4","last_reported":1718982763,"current_range_meters":16400,"station_id":"ce4bh5p2rcd13ifvqe4g","pricing_plan_id":"cebpf4jnsgd1na2vs0mg"},{"bike_id":"015861be-bd62-4e81-bb45-e66b82750879","system_id":"levelo_inurba_marseille","lat":43.29074,"lon":5.3717,"is_reserved":false,"is_disabled":false,"rental_uris":{"android":"levelo://app?vid=015861be-bd62-4e81-bb45-e66b82750879","ios":"levelo://app?vid=015861be-bd62-4e81-bb45-e66b82750879"},"vehicle_type_id":"4","last_reported":1718982763,"current_range_meters":0,"station_id":"ce4bh5p2rcd13ifvqe4g","pricing_plan_id":"cebpf4jnsgd1na2vs0mg"},{"bike_id":"55803f4c-9e71-443d-af0c-64ab4f80c66a","system_id":"levelo_inurba_marseille","lat":43.290779,"lon":5.371482,"is_reserved":false,"is_disabled":false,"rental_uris":{"android":"levelo://app?vid=55803f4c-9e71-443d-af0c-64ab4f80c66a","ios":"levelo://app?vid=55803f4c-9e71-443d-af0c-64ab4f80c66a"},"vehicle_type_id":"4","last_reported":1718982763,"current_range_meters":29600,"station_id":"ce4bh5p2rcd13ifvqe4g","pricing_plan_id":"cebpf4jnsgd1na2vs0mg"},{"bike_id":"aa348040-5042-4438-9f8b-5dbe03102a97","system_id":"levelo_inurba_marseille","lat":43.302008,"lon":5.394694,"is_reserved":false,"is_disabled":false,"rental_uris":{"android":"levelo://app?vid=aa348040-5042-4438-9f8b-5dbe03102a97","ios":"levelo://app?vid=aa348040-5042-4438-9f8b-5dbe03102a97"},"vehicle_type_id":"4","last_reported":1718982763,"current_range_meters":1600,"station_id":"ce4bh0p2rcd13ifvqd70","pricing_plan_id":"cebpf4jnsgd1na2vs0mg"},{"bike_id":"cf5bf026-6670-4238-af0d-6072bd5694d8","system_id":"levelo_inurba_marseille","lat":43.302008,"lon":5.394694,"is_reserved":false,"is_disabled":false,"rental_uris":{"android":"levelo://app?vid=cf5bf026-6670-4238-af0d-6072bd5694d8","ios":"levelo://app?vid=cf5bf026-6670-4238-af0d-6072bd5694d8"},"vehicle_type_id":"4","last_reported":1718982763,"current_range_meters":8000,"station_id":"ce4bh0p2rcd13ifvqd70","pricing_plan_id":"cebpf4jnsgd1na2vs0mg"},{"bike_id":"8ca373b8-1af6-4073-964a-e1b7253fd939","system_id":"levelo_inurba_marseille","lat":43.302008,"lon":5.394694,"is_reserved":false,"is_disabled":false,"rental_uris":{"android":"levelo://app?vid=8ca373b8-1af6-4073-964a-e1b7253fd939","ios":"levelo://app?vid=8ca373b8-1af6-4073-964a-e1b7253fd939"},"vehicle_type_id":"4","last_reported":1718982763,"current_range_meters":27200,"station_id":"ce4bh0p2rcd13ifvqd70","pricing_plan_id":"cebpf4jnsgd1na2vs0mg"},{"bike_id":"25a4e7c3-c2b1-471f-9507-75a72ee9bb71","system_id":"levelo_inurba_marseille","lat":43.290624,"lon":5.359245,"is_reserved":false,"is_disabled":false,"rental_uris":{"android":"levelo://app?vid=25a4e7c3-c2b1-471f-9507-75a72ee9bb71","ios":"levelo://app?vid=25a4e7c3-c2b1-471f-9507-75a72ee9bb71"},"vehicle_type_id":"4","last_reported":1718982763,"current_range_meters":26000,"station_id":"ce4bha92rcd13ifvqeg0","pricing_plan_id":"cebpf4jnsgd1na2vs0mg"},{"bike_id":"32ad4962-9f99-4497-a4d7-7b3cef7c4057","system_id":"levelo_inurba_marseille","lat":43.290624,"lon":5.359245,"is_reserved":false,"is_disabled":false,"rental_uris":{"android":"levelo://app?vid=32ad4962-9f99-4497-a4d7-7b3cef7c4057","ios":"levelo://app?vid=32ad4962-9f99-4497-a4d7-7b3cef7c4057"},"vehicle_type_id":"4","last_reported":1718982763,"current_range_meters":15200,"station_id":"ce4bha92rcd13ifvqeg0","pricing_plan_id":"cebpf4jnsgd1na2vs0mg"},{"bike_id":"f15ca2bc-d6a9-4bc5-9844-b65cd0507ba8","system_id":"levelo_inurba_marseille","lat":43.290624,"lon":5.359245,"is_reserved":false,"is_disabled":false,"rental_uris":{"android":"levelo://app?vid=f15ca2bc-d6a9-4bc5-9844-b65cd0507ba8","ios":"levelo://app?vid=f15ca2bc-d6a9-4bc5-9844-b65cd0507ba8"},"vehicle_type_id":"4","last_reported":1718982763,"current_range_meters":3200,"station_id":"ce4bha92rcd13ifvqeg0","pricing_plan_id":"cebpf4jnsgd1na2vs0mg"},{"bike_id":"fa554c55-b163-4611-917c-f67f84ccb503","system_id":"levelo_inurba_marseille","lat":43.294153,"lon":5.386305,"is_reserved":false,"is_disabled":false,"rental_uris":{"android":"levelo://app?vid=fa554c55-b163-4611-917c-f67f84ccb503","ios":"levelo://app?vid=fa554c55-b163-4611-917c-f67f84ccb503"},"vehicle_type_id":"4","last_reported":1718982763,"current_range_meters":8800,"station_id":"ce4bh2h2rcd13ifvqdh0","pricing_plan_id":"cebpf4jnsgd1na2vs0mg"},{"bike_id":"21cc15a2-c824-407e-b47d-50cd88a66b4f","system_id":"levelo_inurba_marseille","lat":43.294153,"lon":5.386305,"is_reserved":false,"is_disabled":false,"rental_uris":{"android":"levelo://app?vid=21cc15a2-c824-407e-b47d-50cd88a66b4f","ios":"levelo://app?vid=21cc15a2-c824-407e-b47d-50cd88a66b4f"},"vehicle_type_id":"4","last_reported":1718982763,"current_range_meters":9600,"station_id":"ce4bh2h2rcd13ifvqdh0","pricing_plan_id":"cebpf4jnsgd1na2vs0mg"},{"bike_id":"c272f10f-ebb7-4572-8917-9a7b55ee1fc9","system_id":"levelo_inurba_marseille","lat":43.294153,"lon":5.386305,"is_reserved":false,"is_disabled":false,"rental_uris":{"android":"levelo://app?vid=c272f10f-ebb7-4572-8917-9a7b55ee1fc9","ios":"levelo://app?vid=c272f10f-ebb7-4572-8917-9a7b55ee1fc9"},"vehicle_type_id":"4","last_reported":1718982763,"current_range_meters":28000,"station_id":"ce4bh2h2rcd13ifvqdh0","pricing_plan_id":"cebpf4jnsgd1na2vs0mg"},{"bike_id":"d1f6c180-9337-4888-9774-7f1ac08fb268","system_id":"levelo_inurba_marseille","lat":43.294153,"lon":5.386305,"is_reserved":false,"is_disabled":false,"rental_uris":{"android":"levelo://app?vid=d1f6c180-9337-4888-9774-7f1ac08fb268","ios":"levelo://app?vid=d1f6c180-9337-4888-9774-7f1ac08fb268"},"vehicle_type_id":"4","last_reported":1718982763,"current_range_meters":15200,"station_id":"ce4bh2h2rcd13ifvqdh0","pricing_plan_id":"cebpf4jnsgd1na2vs0mg"},{"bike_id":"adf14ec9-230f-48b9-99d3-a91ad41c7ba7","system_id":"levelo_inurba_marseille","lat":43.28945,"lon":5.36641,"is_reserved":false,"is_disabled":false,"rental_uris":{"android":"levelo://app?vid=adf14ec9-230f-48b9-99d3-a91ad41c7ba7","ios":"levelo://app?vid=adf14ec9-230f-48b9-99d3-a91ad41c7ba7"},"vehicle_type_id":"4","last_reported":1718982763,"current_range_meters":0,"station_id":"ce4bhap2rcd13ifvqek0","pricing_plan_id":"cebpf4jnsgd1na2vs0mg"},{"bike_id":"3cea4051-9226-4674-af50-4813e171377a","system_id":"levelo_inurba_marseille","lat":43.29417,"lon":5.386255,"is_reserved":false,"is_disabled":false,"rental_uris":{"android":"levelo://app?vid=3cea4051-9226-4674-af50-4813e171377a","ios":"levelo://app?vid=3cea4051-9226-4674-af50-4813e171377a"},"vehicle_type_id":"4","last_reported":1718982763,"current_range_meters":31200,"station_id":"ce4bh2h2rcd13ifvqdh0","pricing_plan_id":"cebpf4jnsgd1na2vs0mg"},{"bike_id":"bca2bc3c-8c0c-45bb-95aa-f8030cc176a3","system_id":"levelo_inurba_marseille","lat":43.294162,"lon":5.386292,"is_reserved":false,"is_disabled":false,"rental_uris":{"android":"levelo://app?vid=bca2bc3c-8c0c-45bb-95aa-f8030cc176a3","ios":"levelo://app?vid=bca2bc3c-8c0c-45bb-95aa-f8030cc176a3"},"vehicle_type_id":"4","last_reported":1718982763,"current_range_meters":11200,"station_id":"ce4bh2h2rcd13ifvqdh0","pricing_plan_id":"cebpf4jnsgd1na2vs0mg"},{"bike_id":"76856384-3234-4b27-9155-c54d1e03290b","system_id":"levelo_inurba_marseille","lat":43.289184,"lon":5.366408,"is_reserved":false,"is_disabled":false,"rental_uris":{"android":"levelo://app?vid=76856384-3234-4b27-9155-c54d1e03290b","ios":"levelo://app?vid=76856384-3234-4b27-9155-c54d1e03290b"},"vehicle_type_id":"4","last_reported":1718982763,"current_range_meters":0,"station_id":"ce4bhap2rcd13ifvqek0","pricing_plan_id":"cebpf4jnsgd1na2vs0mg"},{"bike_id":"956d1e99-e2ff-4779-813a-60f6dad95958","system_id":"levelo_inurba_marseille","lat":43.289184,"lon":5.366408,"is_reserved":false,"is_disabled":false,"rental_uris":{"android":"levelo://app?vid=956d1e99-e2ff-4779-813a-60f6dad95958","ios":"levelo://app?vid=956d1e99-e2ff-4779-813a-60f6dad95958"},"vehicle_type_id":"4","last_reported":1718982763,"current_range_meters":800,"station_id":"ce4bhap2rcd13ifvqek0","pricing_plan_id":"cebpf4jnsgd1na2vs0mg"},{"bike_id":"4298a4c7-7082-4516-8905-79b61a07e6f1","system_id":"levelo_inurba_marseille","lat":43.28935,"lon":5.36633,"is_reserved":false,"is_disabled":false,"rental_uris":{"android":"levelo://app?vid=4298a4c7-7082-4516-8905-79b61a07e6f1","ios":"levelo://app?vid=4298a4c7-7082-4516-8905-79b61a07e6f1"},"vehicle_type_id":"4","last_reported":1718982763,"current_range_meters":0,"station_id":"ce4bhap2rcd13ifvqek0","pricing_plan_id":"cebpf4jnsgd1na2vs0mg"},{"bike_id":"490f5a67-4e91-46ff-b091-4ff776fe5b6c","system_id":"levelo_inurba_marseille","lat":43.292644,"lon":5.384257,"is_reserved":false,"is_disabled":false,"rental_uris":{"android":"levelo://app?vid=490f5a67-4e91-46ff-b091-4ff776fe5b6c","ios":"levelo://app?vid=490f5a67-4e91-46ff-b091-4ff776fe5b6c"},"vehicle_type_id":"4","last_reported":1718982763,"current_range_meters":0,"station_id":"ce4bh692rcd13ifvqea0","pricing_plan_id":"cebpf4jnsgd1na2vs0mg"},{"bike_id":"1eaff7f4-46e7-412c-bf16-47ff01d85f77","system_id":"levelo_inurba_marseille","lat":43.304274,"lon":5.397513,"is_reserved":false,"is_disabled":false,"rental_uris":{"android":"levelo://app?vid=1eaff7f4-46e7-412c-bf16-47ff01d85f77","ios":"levelo://app?vid=1eaff7f4-46e7-412c-bf16-47ff01d85f77"},"vehicle_type_id":"4","last_reported":1718982763,"current_range_meters":22400,"station_id":"ce4bh092rcd13ifvqd20","pricing_plan_id":"cebpf4jnsgd1na2vs0mg"},{"bike_id":"b95f16f8-fb27-44ed-878e-a1d37c55e173","system_id":"levelo_inurba_marseille","lat":43.292642,"lon":5.384254,"is_reserved":false,"is_disabled":false,"rental_uris":{"android":"levelo://app?vid=b95f16f8-fb27-44ed-878e-a1d37c55e173","ios":"levelo://app?vid=b95f16f8-fb27-44ed-878e-a1d37c55e173"},"vehicle_type_id":"4","last_reported":1718982763,"current_range_meters":21200,"station_id":"ce4bh692rcd13ifvqea0","pricing_plan_id":"cebpf4jnsgd1na2vs0mg"},{"bike_id":"37104220-ef1f-458f-bfb4-0d7fb7212f15","system_id":"levelo_inurba_marseille","lat":43.292642,"lon":5.384254,"is_reserved":false,"is_disabled":false,"rental_uris":{"android":"levelo://app?vid=37104220-ef1f-458f-bfb4-0d7fb7212f15","ios":"levelo://app?vid=37104220-ef1f-458f-bfb4-0d7fb7212f15"},"vehicle_type_id":"4","last_reported":1718982763,"current_range_meters":12800,"station_id":"ce4bh692rcd13ifvqea0","pricing_plan_id":"cebpf4jnsgd1na2vs0mg"},{"bike_id":"42596ea7-15ee-420b-8fb8-ee3c49107115","system_id":"levelo_inurba_marseille","lat":43.301095,"lon":5.39542,"is_reserved":false,"is_disabled":false,"rental_uris":{"android":"levelo://app?vid=42596ea7-15ee-420b-8fb8-ee3c49107115","ios":"levelo://app?vid=42596ea7-15ee-420b-8fb8-ee3c49107115"},"vehicle_type_id":"4","last_reported":1718982763,"current_range_meters":15600,"station_id":"chh1huq6cuj3fo74tm60","pricing_plan_id":"cebpf4jnsgd1na2vs0mg"},{"bike_id":"7f414df2-3b6f-4488-91ef-5c74a82f320e","system_id":"levelo_inurba_marseille","lat":43.29257,"lon":5.38439,"is_reserved":false,"is_disabled":false,"rental_uris":{"android":"levelo://app?vid=7f414df2-3b6f-4488-91ef-5c74a82f320e","ios":"levelo://app?vid=7f414df2-3b6f-4488-91ef-5c74a82f320e"},"vehicle_type_id":"4","last_reported":1718982763,"current_range_meters":800,"station_id":"","pricing_plan_id":"cebpf4jnsgd1na2vs0mg"},{"bike_id":"70b828b4-87c5-4cbd-9a35-7e421e57dbad","system_id":"levelo_inurba_marseille","lat":43.290104,"lon":5.356111,"is_reserved":false,"is_disabled":false,"rental_uris":{"android":"levelo://app?vid=70b828b4-87c5-4cbd-9a35-7e421e57dbad","ios":"levelo://app?vid=70b828b4-87c5-4cbd-9a35-7e421e57dbad"},"vehicle_type_id":"4","last_reported":1718982763,"current_range_meters":400,"station_id":"ce4bhb92rcd13ifvqen0","pricing_plan_id":"cebpf4jnsgd1na2vs0mg"},{"bike_id":"8de84ecd-f03a-4eec-8509-adcc81320f6d","system_id":"levelo_inurba_marseille","lat":43.290103,"lon":5.356114,"is_reserved":false,"is_disabled":false,"rental_uris":{"android":"levelo://app?vid=8de84ecd-f03a-4eec-8509-adcc81320f6d","ios":"levelo://app?vid=8de84ecd-f03a-4eec-8509-adcc81320f6d"},"vehicle_type_id":"4","last_reported":1718982763,"current_range_meters":21200,"station_id":"ce4bhb92rcd13ifvqen0","pricing_plan_id":"cebpf4jnsgd1na2vs0mg"},{"bike_id":"f06de3be-7820-4c0c-9932-4e3a96afa253","system_id":"levelo_inurba_marseille","lat":43.290103,"lon":5.356114,"is_reserved":false,"is_disabled":false,"rental_uris":{"android":"levelo://app?vid=f06de3be-7820-4c0c-9932-4e3a96afa253","ios":"levelo://app?vid=f06de3be-7820-4c0c-9932-4e3a96afa253"},"vehicle_type_id":"4","last_reported":1718982763,"current_range_meters":16000,"station_id":"ce4bhb92rcd13ifvqen0","pricing_plan_id":"cebpf4jnsgd1na2vs0mg"},{"bike_id":"1a42c993-43d4-4031-9c2f-6dc37c9ab1c5","system_id":"levelo_inurba_marseille","lat":43.290995,"lon":5.381361,"is_reserved":false,"is_disabled":false,"rental_uris":{"android":"levelo://app?vid=1a42c993-43d4-4031-9c2f-6dc37c9ab1c5","ios":"levelo://app?vid=1a42c993-43d4-4031-9c2f-6dc37c9ab1c5"},"vehicle_type_id":"4","last_reported":1718982763,"current_range_meters":31200,"station_id":"ce4bh512rcd13ifvqe2g","pricing_plan_id":"cebpf4jnsgd1na2vs0mg"},{"bike_id":"d24cb42e-897e-482e-9f66-41f631f98ffe","system_id":"levelo_inurba_marseille","lat":43.297815,"lon":5.393548,"is_reserved":false,"is_disabled":false,"rental_uris":{"android":"levelo://app?vid=d24cb42e-897e-482e-9f66-41f631f98ffe","ios":"levelo://app?vid=d24cb42e-897e-482e-9f66-41f631f98ffe"},"vehicle_type_id":"4","last_reported":1718982763,"current_range_meters":27600,"station_id":"chh1huq6cuj3fo74tm60","pricing_plan_id":"cebpf4jnsgd1na2vs0mg"},{"bike_id":"8cbac0cb-c664-4616-a843-072b60018455","system_id":"levelo_inurba_marseille","lat":43.295169,"lon":5.390426,"is_reserved":false,"is_disabled":false,"rental_uris":{"android":"levelo://app?vid=8cbac0cb-c664-4616-a843-072b60018455","ios":"levelo://app?vid=8cbac0cb-c664-4616-a843-072b60018455"},"vehicle_type_id":"4","last_reported":1718982763,"current_range_meters":30400,"station_id":"ce4bh3p2rcd13ifvqdp0","pricing_plan_id":"cebpf4jnsgd1na2vs0mg"},{"bike_id":"27fbbe24-c29c-4c8e-8bd7-6a53908fb627","system_id":"levelo_inurba_marseille","lat":43.29527,"lon":5.39082,"is_reserved":false,"is_disabled":false,"rental_uris":{"android":"levelo://app?vid=27fbbe24-c29c-4c8e-8bd7-6a53908fb627","ios":"levelo://app?vid=27fbbe24-c29c-4c8e-8bd7-6a53908fb627"},"vehicle_type_id":"4","last_reported":1718982763,"current_range_meters":2800,"station_id":"ce4bh3p2rcd13ifvqdp0","pricing_plan_id":"cebpf4jnsgd1na2vs0mg"},{"bike_id":"9541edca-e3b0-4280-9b4c-ab96625acd59","system_id":"levelo_inurba_marseille","lat":43.2901,"lon":5.381269,"is_reserved":false,"is_disabled":false,"rental_uris":{"android":"levelo://app?vid=9541edca-e3b0-4280-9b4c-ab96625acd59","ios":"levelo://app?vid=9541edca-e3b0-4280-9b4c-ab96625acd59"},"vehicle_type_id":"4","last_reported":1718982763,"current_range_meters":6400,"station_id":"ce4bh4p2rcd13ifvqe1g","pricing_plan_id":"cebpf4jnsgd1na2vs0mg"},{"bike_id":"ee5d7985-c2c1-4c7d-9037-b772b4a45f72","system_id":"levelo_inurba_marseille","lat":43.28856,"lon":5.358371,"is_reserved":false,"is_disabled":false,"rental_uris":{"android":"levelo://app?vid=ee5d7985-c2c1-4c7d-9037-b772b4a45f72","ios":"levelo://app?vid=ee5d7985-c2c1-4c7d-9037-b772b4a45f72"},"vehicle_type_id":"4","last_reported":1718982763,"current_range_meters":31200,"station_id":"ce4bhb12rcd13ifvqem0","pricing_plan_id":"cebpf4jnsgd1na2vs0mg"},{"bike_id":"e7b02b90-101d-4619-ab2c-55e64ec6af29","system_id":"levelo_inurba_marseille","lat":43.28856,"lon":5.358371,"is_reserved":false,"is_disabled":false,"rental_uris":{"android":"levelo://app?vid=e7b02b90-101d-4619-ab2c-55e64ec6af29","ios":"levelo://app?vid=e7b02b90-101d-4619-ab2c-55e64ec6af29"},"vehicle_type_id":"4","last_reported":1718982763,"current_range_meters":0,"station_id":"ce4bhb12rcd13ifvqem0","pricing_plan_id":"cebpf4jnsgd1na2vs0mg"},{"bike_id":"44d4582b-3689-4b18-95c0-e16aecf9b37e","system_id":"levelo_inurba_marseille","lat":43.28856,"lon":5.358371,"is_reserved":false,"is_disabled":false,"rental_uris":{"android":"levelo://app?vid=44d4582b-3689-4b18-95c0-e16aecf9b37e","ios":"levelo://app?vid=44d4582b-3689-4b18-95c0-e16aecf9b37e"},"vehicle_type_id":"4","last_reported":1718982763,"current_range_meters":3600,"station_id":"ce4bhb12rcd13ifvqem0","pricing_plan_id":"cebpf4jnsgd1na2vs0mg"},{"bike_id":"30f458f3-d2b7-4058-b9eb-093cc6e91bd1","system_id":"levelo_inurba_marseille","lat":43.28846,"lon":5.35857,"is_reserved":false,"is_disabled":false,"rental_uris":{"android":"levelo://app?vid=30f458f3-d2b7-4058-b9eb-093cc6e91bd1","ios":"levelo://app?vid=30f458f3-d2b7-4058-b9eb-093cc6e91bd1"},"vehicle_type_id":"4","last_reported":1718982763,"current_range_meters":2800,"station_id":"ce4bhb12rcd13ifvqem0","pricing_plan_id":"cebpf4jnsgd1na2vs0mg"},{"bike_id":"05092e03-5cef-41c3-9575-df5db7507ebd","system_id":"levelo_inurba_marseille","lat":43.33739,"lon":5.37464,"is_reserved":false,"is_disabled":false,"rental_uris":{"android":"levelo://app?vid=05092e03-5cef-41c3-9575-df5db7507ebd","ios":"levelo://app?vid=05092e03-5cef-41c3-9575-df5db7507ebd"},"vehicle_type_id":"4","last_reported":1718982763,"current_range_meters":22800,"station_id":"","pricing_plan_id":"cebpf4jnsgd1na2vs0mg"},{"bike_id":"11442b00-5aee-4ea8-b427-9e421f7522d8","system_id":"levelo_inurba_marseille","lat":43.312609,"lon":5.401662,"is_reserved":false,"is_disabled":false,"rental_uris":{"android":"levelo://app?vid=11442b00-5aee-4ea8-b427-9e421f7522d8","ios":"levelo://app?vid=11442b00-5aee-4ea8-b427-9e421f7522d8"},"vehicle_type_id":"4","last_reported":1718982763,"current_range_meters":6800,"station_id":"ce4bh092rcd13ifvqd30","pricing_plan_id":"cebpf4jnsgd1na2vs0mg"},{"bike_id":"db534928-e6a2-47cc-a852-558fe66ed50c","system_id":"levelo_inurba_marseille","lat":43.337448,"lon":5.374658,"is_reserved":false,"is_disabled":false,"rental_uris":{"android":"levelo://app?vid=db534928-e6a2-47cc-a852-558fe66ed50c","ios":"levelo://app?vid=db534928-e6a2-47cc-a852-558fe66ed50c"},"vehicle_type_id":"4","last_reported":1718982763,"current_range_meters":22000,"station_id":"","pricing_plan_id":"cebpf4jnsgd1na2vs0mg"},{"bike_id":"0e11bbab-a5d9-4098-a6f1-624d89f27c59","system_id":"levelo_inurba_marseille","lat":43.337572,"lon":5.374546,"is_reserved":false,"is_disabled":false,"rental_uris":{"android":"levelo://app?vid=0e11bbab-a5d9-4098-a6f1-624d89f27c59","ios":"levelo://app?vid=0e11bbab-a5d9-4098-a6f1-624d89f27c59"},"vehicle_type_id":"4","last_reported":1718982763,"current_range_meters":27600,"station_id":"","pricing_plan_id":"cebpf4jnsgd1na2vs0mg"},{"bike_id":"86cbe1d4-08a0-457a-be22-b2423ac27a85","system_id":"levelo_inurba_marseille","lat":43.30642,"lon":5.401031,"is_reserved":false,"is_disabled":false,"rental_uris":{"android":"levelo://app?vid=86cbe1d4-08a0-457a-be22-b2423ac27a85","ios":"levelo://app?vid=86cbe1d4-08a0-457a-be22-b2423ac27a85"},"vehicle_type_id":"4","last_reported":1718982763,"current_range_meters":16800,"station_id":"ce4bh112rcd13ifvqda0","pricing_plan_id":"cebpf4jnsgd1na2vs0mg"},{"bike_id":"c9b66a2b-0639-4d7a-b560-2bf673d8bd00","system_id":"levelo_inurba_marseille","lat":43.33033,"lon":5.39233,"is_reserved":false,"is_disabled":false,"rental_uris":{"android":"levelo://app?vid=c9b66a2b-0639-4d7a-b560-2bf673d8bd00","ios":"levelo://app?vid=c9b66a2b-0639-4d7a-b560-2bf673d8bd00"},"vehicle_type_id":"4","last_reported":1718982763,"current_range_meters":0,"station_id":"","pricing_plan_id":"cebpf4jnsgd1na2vs0mg"},{"bike_id":"a77bf3f1-dc55-4e35-8fe0-6292cee970ef","system_id":"levelo_inurba_marseille","lat":43.33035,"lon":5.39239,"is_reserved":false,"is_disabled":false,"rental_uris":{"android":"levelo://app?vid=a77bf3f1-dc55-4e35-8fe0-6292cee970ef","ios":"levelo://app?vid=a77bf3f1-dc55-4e35-8fe0-6292cee970ef"},"vehicle_type_id":"4","last_reported":1718982763,"current_range_meters":24800,"station_id":"","pricing_plan_id":"cebpf4jnsgd1na2vs0mg"},{"bike_id":"58ea7e2e-beae-44c5-87d3-ae554732939d","system_id":"levelo_inurba_marseille","lat":43.306412,"lon":5.401035,"is_reserved":false,"is_disabled":false,"rental_uris":{"android":"levelo://app?vid=58ea7e2e-beae-44c5-87d3-ae554732939d","ios":"levelo://app?vid=58ea7e2e-beae-44c5-87d3-ae554732939d"},"vehicle_type_id":"4","last_reported":1718982763,"current_range_meters":12800,"station_id":"ce4bh112rcd13ifvqda0","pricing_plan_id":"cebpf4jnsgd1na2vs0mg"},{"bike_id":"1529575d-3c24-4053-9dc4-3fc753c20a3e","system_id":"levelo_inurba_marseille","lat":43.3304,"lon":5.39281,"is_reserved":false,"is_disabled":false,"rental_uris":{"android":"levelo://app?vid=1529575d-3c24-4053-9dc4-3fc753c20a3e","ios":"levelo://app?vid=1529575d-3c24-4053-9dc4-3fc753c20a3e"},"vehicle_type_id":"4","last_reported":1718982763,"current_range_meters":5200,"station_id":"","pricing_plan_id":"cebpf4jnsgd1na2vs0mg"},{"bike_id":"d53238f8-726c-4f03-b62a-c7224892352b","system_id":"levelo_inurba_marseille","lat":43.28727,"lon":5.36078,"is_reserved":false,"is_disabled":false,"rental_uris":{"android":"levelo://app?vid=d53238f8-726c-4f03-b62a-c7224892352b","ios":"levelo://app?vid=d53238f8-726c-4f03-b62a-c7224892352b"},"vehicle_type_id":"4","last_reported":1718982763,"current_range_meters":6400,"station_id":"cki0cbj6b192h4jlfktg","pricing_plan_id":"cebpf4jnsgd1na2vs0mg"},{"bike_id":"c362be4e-2163-4679-89c5-a65039b4d460","system_id":"levelo_inurba_marseille","lat":43.28727,"lon":5.36078,"is_reserved":false,"is_disabled":false,"rental_uris":{"android":"levelo://app?vid=c362be4e-2163-4679-89c5-a65039b4d460","ios":"levelo://app?vid=c362be4e-2163-4679-89c5-a65039b4d460"},"vehicle_type_id":"4","last_reported":1718982763,"current_range_meters":20400,"station_id":"cki0cbj6b192h4jlfktg","pricing_plan_id":"cebpf4jnsgd1na2vs0mg"},{"bike_id":"1148cda7-494d-41d8-9a44-070b72304e00","system_id":"levelo_inurba_marseille","lat":43.286591,"lon":5.363346,"is_reserved":false,"is_disabled":false,"rental_uris":{"android":"levelo://app?vid=1148cda7-494d-41d8-9a44-070b72304e00","ios":"levelo://app?vid=1148cda7-494d-41d8-9a44-070b72304e00"},"vehicle_type_id":"4","last_reported":1718982763,"current_range_meters":25200,"station_id":"ce4bhah2rcd13ifvqej0","pricing_plan_id":"cebpf4jnsgd1na2vs0mg"},{"bike_id":"ca8e6a4c-0449-4940-b025-7be0528c11e8","system_id":"levelo_inurba_marseille","lat":43.286591,"lon":5.363346,"is_reserved":false,"is_disabled":false,"rental_uris":{"android":"levelo://app?vid=ca8e6a4c-0449-4940-b025-7be0528c11e8","ios":"levelo://app?vid=ca8e6a4c-0449-4940-b025-7be0528c11e8"},"vehicle_type_id":"4","last_reported":1718982763,"current_range_meters":6400,"station_id":"ce4bhah2rcd13ifvqej0","pricing_plan_id":"cebpf4jnsgd1na2vs0mg"},{"bike_id":"2250089a-f6ca-4b03-88e5-f0ff289bfbf1","system_id":"levelo_inurba_marseille","lat":43.28701,"lon":5.37385,"is_reserved":false,"is_disabled":false,"rental_uris":{"android":"levelo://app?vid=2250089a-f6ca-4b03-88e5-f0ff289bfbf1","ios":"levelo://app?vid=2250089a-f6ca-4b03-88e5-f0ff289bfbf1"},"vehicle_type_id":"4","last_reported":1718982763,"current_range_meters":0,"station_id":"ce4bh3p2rcd13ifvqdq0","pricing_plan_id":"cebpf4jnsgd1na2vs0mg"},{"bike_id":"600bd3a9-d700-40fd-af87-f24558699ab4","system_id":"levelo_inurba_marseille","lat":43.295196,"lon":5.39397,"is_reserved":false,"is_disabled":false,"rental_uris":{"android":"levelo://app?vid=600bd3a9-d700-40fd-af87-f24558699ab4","ios":"levelo://app?vid=600bd3a9-d700-40fd-af87-f24558699ab4"},"vehicle_type_id":"4","last_reported":1718982763,"current_range_meters":30400,"station_id":"ce4bh292rcd13ifvqdf0","pricing_plan_id":"cebpf4jnsgd1na2vs0mg"},{"bike_id":"49817f1a-d7f8-49f2-818b-31bd2dd796fb","system_id":"levelo_inurba_marseille","lat":43.298681,"lon":5.397225,"is_reserved":false,"is_disabled":false,"rental_uris":{"android":"levelo://app?vid=49817f1a-d7f8-49f2-818b-31bd2dd796fb","ios":"levelo://app?vid=49817f1a-d7f8-49f2-818b-31bd2dd796fb"},"vehicle_type_id":"4","last_reported":1718982763,"current_range_meters":26400,"station_id":"ce4bh0h2rcd13ifvqd50","pricing_plan_id":"cebpf4jnsgd1na2vs0mg"},{"bike_id":"a57cd130-edf2-43cf-9bf7-ac25d04971df","system_id":"levelo_inurba_marseille","lat":43.286591,"lon":5.363346,"is_reserved":false,"is_disabled":false,"rental_uris":{"android":"levelo://app?vid=a57cd130-edf2-43cf-9bf7-ac25d04971df","ios":"levelo://app?vid=a57cd130-edf2-43cf-9bf7-ac25d04971df"},"vehicle_type_id":"4","last_reported":1718982763,"current_range_meters":19200,"station_id":"ce4bhah2rcd13ifvqej0","pricing_plan_id":"cebpf4jnsgd1na2vs0mg"},{"bike_id":"9432281c-18d7-4664-b4c8-f1a33b39ca8f","system_id":"levelo_inurba_marseille","lat":43.295194,"lon":5.39397,"is_reserved":false,"is_disabled":false,"rental_uris":{"android":"levelo://app?vid=9432281c-18d7-4664-b4c8-f1a33b39ca8f","ios":"levelo://app?vid=9432281c-18d7-4664-b4c8-f1a33b39ca8f"},"vehicle_type_id":"4","last_reported":1718982763,"current_range_meters":800,"station_id":"ce4bh292rcd13ifvqdf0","pricing_plan_id":"cebpf4jnsgd1na2vs0mg"},{"bike_id":"634f8d75-431d-4040-b323-ae8ee5237610","system_id":"levelo_inurba_marseille","lat":43.289307,"lon":5.38406,"is_reserved":false,"is_disabled":false,"rental_uris":{"android":"levelo://app?vid=634f8d75-431d-4040-b323-ae8ee5237610","ios":"levelo://app?vid=634f8d75-431d-4040-b323-ae8ee5237610"},"vehicle_type_id":"4","last_reported":1718982763,"current_range_meters":17600,"station_id":"ce4bh612rcd13ifvqe6g","pricing_plan_id":"cebpf4jnsgd1na2vs0mg"},{"bike_id":"87765452-e5a9-46f0-9f9d-5117f4e778ae","system_id":"levelo_inurba_marseille","lat":43.290336,"lon":5.386425,"is_reserved":false,"is_disabled":false,"rental_uris":{"android":"levelo://app?vid=87765452-e5a9-46f0-9f9d-5117f4e778ae","ios":"levelo://app?vid=87765452-e5a9-46f0-9f9d-5117f4e778ae"},"vehicle_type_id":"4","last_reported":1718982763,"current_range_meters":24000,"station_id":"ce4bh4p2rcd13ifvqe0g","pricing_plan_id":"cebpf4jnsgd1na2vs0mg"},{"bike_id":"53d57ece-4c35-4ecc-aa8e-d9a7fc6de17a","system_id":"levelo_inurba_marseille","lat":43.290345,"lon":5.38646,"is_reserved":false,"is_disabled":false,"rental_uris":{"android":"levelo://app?vid=53d57ece-4c35-4ecc-aa8e-d9a7fc6de17a","ios":"levelo://app?vid=53d57ece-4c35-4ecc-aa8e-d9a7fc6de17a"},"vehicle_type_id":"4","last_reported":1718982763,"current_range_meters":12400,"station_id":"ce4bh4p2rcd13ifvqe0g","pricing_plan_id":"cebpf4jnsgd1na2vs0mg"},{"bike_id":"66dce600-faf8-4d79-beb2-9e10187a73b7","system_id":"levelo_inurba_marseille","lat":43.290336,"lon":5.386425,"is_reserved":false,"is_disabled":false,"rental_uris":{"android":"levelo://app?vid=66dce600-faf8-4d79-beb2-9e10187a73b7","ios":"levelo://app?vid=66dce600-faf8-4d79-beb2-9e10187a73b7"},"vehicle_type_id":"4","last_reported":1718982763,"current_range_meters":13200,"station_id":"ce4bh4p2rcd13ifvqe0g","pricing_plan_id":"cebpf4jnsgd1na2vs0mg"},{"bike_id":"403bcd83-49d8-423e-894b-d7edf0ad34bb","system_id":"levelo_inurba_marseille","lat":43.290243,"lon":5.386597,"is_reserved":false,"is_disabled":false,"rental_uris":{"android":"levelo://app?vid=403bcd83-49d8-423e-894b-d7edf0ad34bb","ios":"levelo://app?vid=403bcd83-49d8-423e-894b-d7edf0ad34bb"},"vehicle_type_id":"4","last_reported":1718982763,"current_range_meters":21600,"station_id":"","pricing_plan_id":"cebpf4jnsgd1na2vs0mg"},{"bike_id":"4181a6a7-0c90-428f-a269-e198def951ad","system_id":"levelo_inurba_marseille","lat":43.290336,"lon":5.386425,"is_reserved":false,"is_disabled":false,"rental_uris":{"android":"levelo://app?vid=4181a6a7-0c90-428f-a269-e198def951ad","ios":"levelo://app?vid=4181a6a7-0c90-428f-a269-e198def951ad"},"vehicle_type_id":"4","last_reported":1718982763,"current_range_meters":800,"station_id":"ce4bh4p2rcd13ifvqe0g","pricing_plan_id":"cebpf4jnsgd1na2vs0mg"},{"bike_id":"d10e7941-e668-4c09-bd11-5acfb724b03a","system_id":"levelo_inurba_marseille","lat":43.29985,"lon":5.40067,"is_reserved":false,"is_disabled":false,"rental_uris":{"android":"levelo://app?vid=d10e7941-e668-4c09-bd11-5acfb724b03a","ios":"levelo://app?vid=d10e7941-e668-4c09-bd11-5acfb724b03a"},"vehicle_type_id":"4","last_reported":1718982763,"current_range_meters":2400,"station_id":"","pricing_plan_id":"cebpf4jnsgd1na2vs0mg"},{"bike_id":"f4a6fccf-6457-4706-8b9a-ed6eb67df10f","system_id":"levelo_inurba_marseille","lat":43.31694,"lon":5.40464,"is_reserved":false,"is_disabled":false,"rental_uris":{"android":"levelo://app?vid=f4a6fccf-6457-4706-8b9a-ed6eb67df10f","ios":"levelo://app?vid=f4a6fccf-6457-4706-8b9a-ed6eb67df10f"},"vehicle_type_id":"4","last_reported":1718982763,"current_range_meters":0,"station_id":"ce4bh012rcd13ifvqd00","pricing_plan_id":"cebpf4jnsgd1na2vs0mg"},{"bike_id":"da66910f-7c85-4121-80ce-5e199bae9011","system_id":"levelo_inurba_marseille","lat":43.316821,"lon":5.404737,"is_reserved":false,"is_disabled":false,"rental_uris":{"android":"levelo://app?vid=da66910f-7c85-4121-80ce-5e199bae9011","ios":"levelo://app?vid=da66910f-7c85-4121-80ce-5e199bae9011"},"vehicle_type_id":"4","last_reported":1718982763,"current_range_meters":16400,"station_id":"ce4bh012rcd13ifvqd00","pricing_plan_id":"cebpf4jnsgd1na2vs0mg"},{"bike_id":"031906df-c3d0-42d4-bf8e-bdb6ed95dfb4","system_id":"levelo_inurba_marseille","lat":43.28786,"lon":5.38471,"is_reserved":false,"is_disabled":false,"rental_uris":{"android":"levelo://app?vid=031906df-c3d0-42d4-bf8e-bdb6ed95dfb4","ios":"levelo://app?vid=031906df-c3d0-42d4-bf8e-bdb6ed95dfb4"},"vehicle_type_id":"4","last_reported":1718982763,"current_range_meters":21600,"station_id":"","pricing_plan_id":"cebpf4jnsgd1na2vs0mg"},{"bike_id":"3d426680-46bd-49cb-bde6-eed5fc4eceee","system_id":"levelo_inurba_marseille","lat":43.291994,"lon":5.392907,"is_reserved":false,"is_disabled":false,"rental_uris":{"android":"levelo://app?vid=3d426680-46bd-49cb-bde6-eed5fc4eceee","ios":"levelo://app?vid=3d426680-46bd-49cb-bde6-eed5fc4eceee"},"vehicle_type_id":"4","last_reported":1718982763,"current_range_meters":28400,"station_id":"ce4bh192rcd13ifvqdd0","pricing_plan_id":"cebpf4jnsgd1na2vs0mg"},{"bike_id":"6aa136eb-c9c5-4aa3-a1f2-b454c1648c4d","system_id":"levelo_inurba_marseille","lat":43.291994,"lon":5.392907,"is_reserved":false,"is_disabled":false,"rental_uris":{"android":"levelo://app?vid=6aa136eb-c9c5-4aa3-a1f2-b454c1648c4d","ios":"levelo://app?vid=6aa136eb-c9c5-4aa3-a1f2-b454c1648c4d"},"vehicle_type_id":"4","last_reported":1718982763,"current_range_meters":0,"station_id":"ce4bh192rcd13ifvqdd0","pricing_plan_id":"cebpf4jnsgd1na2vs0mg"},{"bike_id":"902a8f82-d912-46dc-b0ed-f8815af5b679","system_id":"levelo_inurba_marseille","lat":43.291994,"lon":5.392907,"is_reserved":false,"is_disabled":false,"rental_uris":{"android":"levelo://app?vid=902a8f82-d912-46dc-b0ed-f8815af5b679","ios":"levelo://app?vid=902a8f82-d912-46dc-b0ed-f8815af5b679"},"vehicle_type_id":"4","last_reported":1718982763,"current_range_meters":0,"station_id":"ce4bh192rcd13ifvqdd0","pricing_plan_id":"cebpf4jnsgd1na2vs0mg"},{"bike_id":"bc956cb7-a470-4b84-9039-0022e6c8e1fc","system_id":"levelo_inurba_marseille","lat":43.28672,"lon":5.38318,"is_reserved":false,"is_disabled":false,"rental_uris":{"android":"levelo://app?vid=bc956cb7-a470-4b84-9039-0022e6c8e1fc","ios":"levelo://app?vid=bc956cb7-a470-4b84-9039-0022e6c8e1fc"},"vehicle_type_id":"4","last_reported":1718982763,"current_range_meters":28800,"station_id":"","pricing_plan_id":"cebpf4jnsgd1na2vs0mg"},{"bike_id":"f0cccc14-7ebd-42ad-a75e-05567e45a83f","system_id":"levelo_inurba_marseille","lat":43.28462,"lon":5.35881,"is_reserved":false,"is_disabled":false,"rental_uris":{"android":"levelo://app?vid=f0cccc14-7ebd-42ad-a75e-05567e45a83f","ios":"levelo://app?vid=f0cccc14-7ebd-42ad-a75e-05567e45a83f"},"vehicle_type_id":"4","last_reported":1718982763,"current_range_meters":0,"station_id":"ce4bhah2rcd13ifvqei0","pricing_plan_id":"cebpf4jnsgd1na2vs0mg"},{"bike_id":"d7517b65-41ac-43d6-b1d2-854f05b9caa5","system_id":"levelo_inurba_marseille","lat":43.29456,"lon":5.39752,"is_reserved":false,"is_disabled":false,"rental_uris":{"android":"levelo://app?vid=d7517b65-41ac-43d6-b1d2-854f05b9caa5","ios":"levelo://app?vid=d7517b65-41ac-43d6-b1d2-854f05b9caa5"},"vehicle_type_id":"4","last_reported":1718982763,"current_range_meters":4000,"station_id":"ce4bh3h2rcd13ifvqdo0","pricing_plan_id":"cebpf4jnsgd1na2vs0mg"},{"bike_id":"392c3b5a-86b0-40b2-a2a9-215067037c45","system_id":"levelo_inurba_marseille","lat":43.284593,"lon":5.358877,"is_reserved":false,"is_disabled":false,"rental_uris":{"android":"levelo://app?vid=392c3b5a-86b0-40b2-a2a9-215067037c45","ios":"levelo://app?vid=392c3b5a-86b0-40b2-a2a9-215067037c45"},"vehicle_type_id":"4","last_reported":1718982763,"current_range_meters":0,"station_id":"ce4bhah2rcd13ifvqei0","pricing_plan_id":"cebpf4jnsgd1na2vs0mg"},{"bike_id":"aa4b8825-71fc-4e73-8cf9-15866ea27793","system_id":"levelo_inurba_marseille","lat":43.284534,"lon":5.358662,"is_reserved":false,"is_disabled":false,"rental_uris":{"android":"levelo://app?vid=aa4b8825-71fc-4e73-8cf9-15866ea27793","ios":"levelo://app?vid=aa4b8825-71fc-4e73-8cf9-15866ea27793"},"vehicle_type_id":"4","last_reported":1718982763,"current_range_meters":5200,"station_id":"ce4bhah2rcd13ifvqei0","pricing_plan_id":"cebpf4jnsgd1na2vs0mg"},{"bike_id":"39d9b5fb-0165-4077-af19-d4262845dfef","system_id":"levelo_inurba_marseille","lat":43.284538,"lon":5.358657,"is_reserved":false,"is_disabled":false,"rental_uris":{"android":"levelo://app?vid=39d9b5fb-0165-4077-af19-d4262845dfef","ios":"levelo://app?vid=39d9b5fb-0165-4077-af19-d4262845dfef"},"vehicle_type_id":"4","last_reported":1718982763,"current_range_meters":3600,"station_id":"ce4bhah2rcd13ifvqei0","pricing_plan_id":"cebpf4jnsgd1na2vs0mg"},{"bike_id":"2d8af8ed-a4bf-4608-a4f4-b92f7add3b5a","system_id":"levelo_inurba_marseille","lat":43.29449,"lon":5.39754,"is_reserved":false,"is_disabled":false,"rental_uris":{"android":"levelo://app?vid=2d8af8ed-a4bf-4608-a4f4-b92f7add3b5a","ios":"levelo://app?vid=2d8af8ed-a4bf-4608-a4f4-b92f7add3b5a"},"vehicle_type_id":"4","last_reported":1718982763,"current_range_meters":0,"station_id":"ce4bh3h2rcd13ifvqdo0","pricing_plan_id":"cebpf4jnsgd1na2vs0mg"},{"bike_id":"ca96df3e-949a-497f-a243-73eb82871542","system_id":"levelo_inurba_marseille","lat":43.29445,"lon":5.39758,"is_reserved":false,"is_disabled":false,"rental_uris":{"android":"levelo://app?vid=ca96df3e-949a-497f-a243-73eb82871542","ios":"levelo://app?vid=ca96df3e-949a-497f-a243-73eb82871542"},"vehicle_type_id":"4","last_reported":1718982763,"current_range_meters":26800,"station_id":"ce4bh3h2rcd13ifvqdo0","pricing_plan_id":"cebpf4jnsgd1na2vs0mg"},{"bike_id":"983b3445-cd28-4406-b3eb-fb029c0a7826","system_id":"levelo_inurba_marseille","lat":43.29437,"lon":5.39754,"is_reserved":false,"is_disabled":false,"rental_uris":{"android":"levelo://app?vid=983b3445-cd28-4406-b3eb-fb029c0a7826","ios":"levelo://app?vid=983b3445-cd28-4406-b3eb-fb029c0a7826"},"vehicle_type_id":"4","last_reported":1718982763,"current_range_meters":0,"station_id":"ce4bh3h2rcd13ifvqdo0","pricing_plan_id":"cebpf4jnsgd1na2vs0mg"},{"bike_id":"70f94f05-335f-48b3-848c-c3de81ab617f","system_id":"levelo_inurba_marseille","lat":43.2862,"lon":5.35105,"is_reserved":false,"is_disabled":false,"rental_uris":{"android":"levelo://app?vid=70f94f05-335f-48b3-848c-c3de81ab617f","ios":"levelo://app?vid=70f94f05-335f-48b3-848c-c3de81ab617f"},"vehicle_type_id":"4","last_reported":1718982763,"current_range_meters":23200,"station_id":"ce4bhch2rcd13ifvqeug","pricing_plan_id":"cebpf4jnsgd1na2vs0mg"},{"bike_id":"bc365083-7266-4c54-aaa4-034b4bb190c4","system_id":"levelo_inurba_marseille","lat":43.285856,"lon":5.350771,"is_reserved":false,"is_disabled":false,"rental_uris":{"android":"levelo://app?vid=bc365083-7266-4c54-aaa4-034b4bb190c4","ios":"levelo://app?vid=bc365083-7266-4c54-aaa4-034b4bb190c4"},"vehicle_type_id":"4","last_reported":1718982763,"current_range_meters":31200,"station_id":"ce4bhch2rcd13ifvqeug","pricing_plan_id":"cebpf4jnsgd1na2vs0mg"},{"bike_id":"b93b2731-ffb8-4135-a7ab-b75ad8764bd4","system_id":"levelo_inurba_marseille","lat":43.2862,"lon":5.35103,"is_reserved":false,"is_disabled":false,"rental_uris":{"android":"levelo://app?vid=b93b2731-ffb8-4135-a7ab-b75ad8764bd4","ios":"levelo://app?vid=b93b2731-ffb8-4135-a7ab-b75ad8764bd4"},"vehicle_type_id":"4","last_reported":1718982763,"current_range_meters":16000,"station_id":"ce4bhch2rcd13ifvqeug","pricing_plan_id":"cebpf4jnsgd1na2vs0mg"},{"bike_id":"077bb202-0b81-408d-88a2-fc4470bdbf32","system_id":"levelo_inurba_marseille","lat":43.28619,"lon":5.35106,"is_reserved":false,"is_disabled":false,"rental_uris":{"android":"levelo://app?vid=077bb202-0b81-408d-88a2-fc4470bdbf32","ios":"levelo://app?vid=077bb202-0b81-408d-88a2-fc4470bdbf32"},"vehicle_type_id":"4","last_reported":1718982763,"current_range_meters":12400,"station_id":"ce4bhch2rcd13ifvqeug","pricing_plan_id":"cebpf4jnsgd1na2vs0mg"},{"bike_id":"70817c11-c4f8-47bd-9d1d-f925d55af994","system_id":"levelo_inurba_marseille","lat":43.2862,"lon":5.35102,"is_reserved":false,"is_disabled":false,"rental_uris":{"android":"levelo://app?vid=70817c11-c4f8-47bd-9d1d-f925d55af994","ios":"levelo://app?vid=70817c11-c4f8-47bd-9d1d-f925d55af994"},"vehicle_type_id":"4","last_reported":1718982763,"current_range_meters":0,"station_id":"ce4bhch2rcd13ifvqeug","pricing_plan_id":"cebpf4jnsgd1na2vs0mg"},{"bike_id":"890711c0-ce20-4a7e-91cb-cb9986e7d9ec","system_id":"levelo_inurba_marseille","lat":43.28618,"lon":5.35107,"is_reserved":false,"is_disabled":false,"rental_uris":{"android":"levelo://app?vid=890711c0-ce20-4a7e-91cb-cb9986e7d9ec","ios":"levelo://app?vid=890711c0-ce20-4a7e-91cb-cb9986e7d9ec"},"vehicle_type_id":"4","last_reported":1718982763,"current_range_meters":26800,"station_id":"ce4bhch2rcd13ifvqeug","pricing_plan_id":"cebpf4jnsgd1na2vs0mg"},{"bike_id":"4397410c-d49f-4866-ac95-26d23f45728d","system_id":"levelo_inurba_marseille","lat":43.28617,"lon":5.35109,"is_reserved":false,"is_disabled":false,"rental_uris":{"android":"levelo://app?vid=4397410c-d49f-4866-ac95-26d23f45728d","ios":"levelo://app?vid=4397410c-d49f-4866-ac95-26d23f45728d"},"vehicle_type_id":"4","last_reported":1718982763,"current_range_meters":0,"station_id":"ce4bhch2rcd13ifvqeug","pricing_plan_id":"cebpf4jnsgd1na2vs0mg"},{"bike_id":"670d7bcc-19cd-44eb-be26-5af8cb29d08e","system_id":"levelo_inurba_marseille","lat":43.2862,"lon":5.35098,"is_reserved":false,"is_disabled":false,"rental_uris":{"android":"levelo://app?vid=670d7bcc-19cd-44eb-be26-5af8cb29d08e","ios":"levelo://app?vid=670d7bcc-19cd-44eb-be26-5af8cb29d08e"},"vehicle_type_id":"4","last_reported":1718982763,"current_range_meters":14400,"station_id":"ce4bhch2rcd13ifvqeug","pricing_plan_id":"cebpf4jnsgd1na2vs0mg"},{"bike_id":"b4e68ff4-2f76-4144-b993-c69b6635b886","system_id":"levelo_inurba_marseille","lat":43.28617,"lon":5.35107,"is_reserved":false,"is_disabled":false,"rental_uris":{"android":"levelo://app?vid=b4e68ff4-2f76-4144-b993-c69b6635b886","ios":"levelo://app?vid=b4e68ff4-2f76-4144-b993-c69b6635b886"},"vehicle_type_id":"4","last_reported":1718982763,"current_range_meters":4000,"station_id":"ce4bhch2rcd13ifvqeug","pricing_plan_id":"cebpf4jnsgd1na2vs0mg"},{"bike_id":"ead23108-7180-48b5-9b55-3c1d55979c9d","system_id":"levelo_inurba_marseille","lat":43.28617,"lon":5.35103,"is_reserved":false,"is_disabled":false,"rental_uris":{"android":"levelo://app?vid=ead23108-7180-48b5-9b55-3c1d55979c9d","ios":"levelo://app?vid=ead23108-7180-48b5-9b55-3c1d55979c9d"},"vehicle_type_id":"4","last_reported":1718982763,"current_range_meters":12800,"station_id":"ce4bhch2rcd13ifvqeug","pricing_plan_id":"cebpf4jnsgd1na2vs0mg"},{"bike_id":"f7a07b7e-7768-476a-a30b-c89676193252","system_id":"levelo_inurba_marseille","lat":43.285856,"lon":5.350771,"is_reserved":false,"is_disabled":false,"rental_uris":{"android":"levelo://app?vid=f7a07b7e-7768-476a-a30b-c89676193252","ios":"levelo://app?vid=f7a07b7e-7768-476a-a30b-c89676193252"},"vehicle_type_id":"4","last_reported":1718982763,"current_range_meters":31200,"station_id":"ce4bhch2rcd13ifvqeug","pricing_plan_id":"cebpf4jnsgd1na2vs0mg"},{"bike_id":"a6078aa0-ade9-440e-96e2-9621cef76ec9","system_id":"levelo_inurba_marseille","lat":43.28617,"lon":5.35102,"is_reserved":false,"is_disabled":false,"rental_uris":{"android":"levelo://app?vid=a6078aa0-ade9-440e-96e2-9621cef76ec9","ios":"levelo://app?vid=a6078aa0-ade9-440e-96e2-9621cef76ec9"},"vehicle_type_id":"4","last_reported":1718982763,"current_range_meters":23600,"station_id":"ce4bhch2rcd13ifvqeug","pricing_plan_id":"cebpf4jnsgd1na2vs0mg"},{"bike_id":"a0ab25b7-3853-4764-98db-e6aebd7d058f","system_id":"levelo_inurba_marseille","lat":43.28619,"lon":5.35095,"is_reserved":false,"is_disabled":false,"rental_uris":{"android":"levelo://app?vid=a0ab25b7-3853-4764-98db-e6aebd7d058f","ios":"levelo://app?vid=a0ab25b7-3853-4764-98db-e6aebd7d058f"},"vehicle_type_id":"4","last_reported":1718982763,"current_range_meters":31200,"station_id":"ce4bhch2rcd13ifvqeug","pricing_plan_id":"cebpf4jnsgd1na2vs0mg"},{"bike_id":"d9f3d9c4-307c-4830-95ea-2bc00c348015","system_id":"levelo_inurba_marseille","lat":43.28617,"lon":5.35099,"is_reserved":false,"is_disabled":false,"rental_uris":{"android":"levelo://app?vid=d9f3d9c4-307c-4830-95ea-2bc00c348015","ios":"levelo://app?vid=d9f3d9c4-307c-4830-95ea-2bc00c348015"},"vehicle_type_id":"4","last_reported":1718982763,"current_range_meters":20000,"station_id":"ce4bhch2rcd13ifvqeug","pricing_plan_id":"cebpf4jnsgd1na2vs0mg"},{"bike_id":"dd13918b-1712-4a27-b4b4-1ff86e512a12","system_id":"levelo_inurba_marseille","lat":43.285856,"lon":5.350771,"is_reserved":false,"is_disabled":false,"rental_uris":{"android":"levelo://app?vid=dd13918b-1712-4a27-b4b4-1ff86e512a12","ios":"levelo://app?vid=dd13918b-1712-4a27-b4b4-1ff86e512a12"},"vehicle_type_id":"4","last_reported":1718982763,"current_range_meters":0,"station_id":"ce4bhch2rcd13ifvqeug","pricing_plan_id":"cebpf4jnsgd1na2vs0mg"},{"bike_id":"d117db84-77fa-48b9-b7e0-8e8a0a1fcf99","system_id":"levelo_inurba_marseille","lat":43.28612,"lon":5.351113,"is_reserved":false,"is_disabled":false,"rental_uris":{"android":"levelo://app?vid=d117db84-77fa-48b9-b7e0-8e8a0a1fcf99","ios":"levelo://app?vid=d117db84-77fa-48b9-b7e0-8e8a0a1fcf99"},"vehicle_type_id":"4","last_reported":1718982763,"current_range_meters":22000,"station_id":"","pricing_plan_id":"cebpf4jnsgd1na2vs0mg"},{"bike_id":"33cdf7fa-49b4-455a-8b4e-00e50c21c143","system_id":"levelo_inurba_marseille","lat":43.285856,"lon":5.350771,"is_reserved":false,"is_disabled":false,"rental_uris":{"android":"levelo://app?vid=33cdf7fa-49b4-455a-8b4e-00e50c21c143","ios":"levelo://app?vid=33cdf7fa-49b4-455a-8b4e-00e50c21c143"},"vehicle_type_id":"4","last_reported":1718982763,"current_range_meters":4400,"station_id":"ce4bhch2rcd13ifvqeug","pricing_plan_id":"cebpf4jnsgd1na2vs0mg"},{"bike_id":"c4aa70f4-0504-4cbd-8859-3044f0d8a43a","system_id":"levelo_inurba_marseille","lat":43.28614,"lon":5.35104,"is_reserved":false,"is_disabled":false,"rental_uris":{"android":"levelo://app?vid=c4aa70f4-0504-4cbd-8859-3044f0d8a43a","ios":"levelo://app?vid=c4aa70f4-0504-4cbd-8859-3044f0d8a43a"},"vehicle_type_id":"4","last_reported":1718982763,"current_range_meters":10400,"station_id":"ce4bhch2rcd13ifvqeug","pricing_plan_id":"cebpf4jnsgd1na2vs0mg"},{"bike_id":"2c7dd85d-1c90-4e46-9d0d-bd390b03b2aa","system_id":"levelo_inurba_marseille","lat":43.28613,"lon":5.35106,"is_reserved":false,"is_disabled":false,"rental_uris":{"android":"levelo://app?vid=2c7dd85d-1c90-4e46-9d0d-bd390b03b2aa","ios":"levelo://app?vid=2c7dd85d-1c90-4e46-9d0d-bd390b03b2aa"},"vehicle_type_id":"4","last_reported":1718982763,"current_range_meters":5600,"station_id":"ce4bhch2rcd13ifvqeug","pricing_plan_id":"cebpf4jnsgd1na2vs0mg"},{"bike_id":"c501872a-ecb3-4954-bff4-c3ab043dd64c","system_id":"levelo_inurba_marseille","lat":43.286153,"lon":5.350913,"is_reserved":false,"is_disabled":false,"rental_uris":{"android":"levelo://app?vid=c501872a-ecb3-4954-bff4-c3ab043dd64c","ios":"levelo://app?vid=c501872a-ecb3-4954-bff4-c3ab043dd64c"},"vehicle_type_id":"4","last_reported":1718982763,"current_range_meters":1600,"station_id":"ce4bhch2rcd13ifvqeug","pricing_plan_id":"cebpf4jnsgd1na2vs0mg"},{"bike_id":"8d99227f-e064-402c-9305-25b71d1ea81b","system_id":"levelo_inurba_marseille","lat":43.286117,"lon":5.351023,"is_reserved":false,"is_disabled":false,"rental_uris":{"android":"levelo://app?vid=8d99227f-e064-402c-9305-25b71d1ea81b","ios":"levelo://app?vid=8d99227f-e064-402c-9305-25b71d1ea81b"},"vehicle_type_id":"4","last_reported":1718982763,"current_range_meters":18400,"station_id":"ce4bhch2rcd13ifvqeug","pricing_plan_id":"cebpf4jnsgd1na2vs0mg"},{"bike_id":"26e076a5-2c8c-4785-ac0e-79deba1ec1c8","system_id":"levelo_inurba_marseille","lat":43.28611,"lon":5.35103,"is_reserved":false,"is_disabled":false,"rental_uris":{"android":"levelo://app?vid=26e076a5-2c8c-4785-ac0e-79deba1ec1c8","ios":"levelo://app?vid=26e076a5-2c8c-4785-ac0e-79deba1ec1c8"},"vehicle_type_id":"4","last_reported":1718982763,"current_range_meters":2000,"station_id":"ce4bhch2rcd13ifvqeug","pricing_plan_id":"cebpf4jnsgd1na2vs0mg"},{"bike_id":"cf4d68a3-a5d3-44b6-b0f3-ced79016fd55","system_id":"levelo_inurba_marseille","lat":43.2861,"lon":5.35106,"is_reserved":false,"is_disabled":false,"rental_uris":{"android":"levelo://app?vid=cf4d68a3-a5d3-44b6-b0f3-ced79016fd55","ios":"levelo://app?vid=cf4d68a3-a5d3-44b6-b0f3-ced79016fd55"},"vehicle_type_id":"4","last_reported":1718982763,"current_range_meters":31200,"station_id":"ce4bhch2rcd13ifvqeug","pricing_plan_id":"cebpf4jnsgd1na2vs0mg"},{"bike_id":"d7717c98-0084-4bfb-be06-55d123011226","system_id":"levelo_inurba_marseille","lat":43.285856,"lon":5.350771,"is_reserved":false,"is_disabled":false,"rental_uris":{"android":"levelo://app?vid=d7717c98-0084-4bfb-be06-55d123011226","ios":"levelo://app?vid=d7717c98-0084-4bfb-be06-55d123011226"},"vehicle_type_id":"4","last_reported":1718982763,"current_range_meters":10800,"station_id":"ce4bhch2rcd13ifvqeug","pricing_plan_id":"cebpf4jnsgd1na2vs0mg"},{"bike_id":"2c3658fe-2a6a-4e3a-ab63-4344f6f24390","system_id":"levelo_inurba_marseille","lat":43.28609,"lon":5.35106,"is_reserved":false,"is_disabled":false,"rental_uris":{"android":"levelo://app?vid=2c3658fe-2a6a-4e3a-ab63-4344f6f24390","ios":"levelo://app?vid=2c3658fe-2a6a-4e3a-ab63-4344f6f24390"},"vehicle_type_id":"4","last_reported":1718982763,"current_range_meters":21200,"station_id":"ce4bhch2rcd13ifvqeug","pricing_plan_id":"cebpf4jnsgd1na2vs0mg"},{"bike_id":"f0c2a4ad-5cd4-44a7-82a6-e42b64cbee62","system_id":"levelo_inurba_marseille","lat":43.28611,"lon":5.35099,"is_reserved":false,"is_disabled":false,"rental_uris":{"android":"levelo://app?vid=f0c2a4ad-5cd4-44a7-82a6-e42b64cbee62","ios":"levelo://app?vid=f0c2a4ad-5cd4-44a7-82a6-e42b64cbee62"},"vehicle_type_id":"4","last_reported":1718982763,"current_range_meters":24400,"station_id":"ce4bhch2rcd13ifvqeug","pricing_plan_id":"cebpf4jnsgd1na2vs0mg"},{"bike_id":"6f956de2-f02c-4215-abb4-35eee1c8f6fd","system_id":"levelo_inurba_marseille","lat":43.28611,"lon":5.35099,"is_reserved":false,"is_disabled":false,"rental_uris":{"android":"levelo://app?vid=6f956de2-f02c-4215-abb4-35eee1c8f6fd","ios":"levelo://app?vid=6f956de2-f02c-4215-abb4-35eee1c8f6fd"},"vehicle_type_id":"4","last_reported":1718982763,"current_range_meters":4400,"station_id":"ce4bhch2rcd13ifvqeug","pricing_plan_id":"cebpf4jnsgd1na2vs0mg"},{"bike_id":"5532452b-2b7e-4b8a-816a-be6d72a3657a","system_id":"levelo_inurba_marseille","lat":43.28419,"lon":5.37508,"is_reserved":false,"is_disabled":false,"rental_uris":{"android":"levelo://app?vid=5532452b-2b7e-4b8a-816a-be6d72a3657a","ios":"levelo://app?vid=5532452b-2b7e-4b8a-816a-be6d72a3657a"},"vehicle_type_id":"4","last_reported":1718982763,"current_range_meters":0,"station_id":"ce4bh412rcd13ifvqds0","pricing_plan_id":"cebpf4jnsgd1na2vs0mg"},{"bike_id":"d5794c18-9433-44a4-a776-76745d67d402","system_id":"levelo_inurba_marseille","lat":43.29749,"lon":5.40123,"is_reserved":false,"is_disabled":false,"rental_uris":{"android":"levelo://app?vid=d5794c18-9433-44a4-a776-76745d67d402","ios":"levelo://app?vid=d5794c18-9433-44a4-a776-76745d67d402"},"vehicle_type_id":"4","last_reported":1718982763,"current_range_meters":25600,"station_id":"","pricing_plan_id":"cebpf4jnsgd1na2vs0mg"},{"bike_id":"f9669f92-b0fd-4307-bc25-a52986eae602","system_id":"levelo_inurba_marseille","lat":43.28404,"lon":5.37521,"is_reserved":false,"is_disabled":false,"rental_uris":{"android":"levelo://app?vid=f9669f92-b0fd-4307-bc25-a52986eae602","ios":"levelo://app?vid=f9669f92-b0fd-4307-bc25-a52986eae602"},"vehicle_type_id":"4","last_reported":1718982763,"current_range_meters":0,"station_id":"ce4bh412rcd13ifvqds0","pricing_plan_id":"cebpf4jnsgd1na2vs0mg"},{"bike_id":"2f2dc43b-99c3-4f2a-bb64-289f0ffb23bf","system_id":"levelo_inurba_marseille","lat":43.283991,"lon":5.375158,"is_reserved":false,"is_disabled":false,"rental_uris":{"android":"levelo://app?vid=2f2dc43b-99c3-4f2a-bb64-289f0ffb23bf","ios":"levelo://app?vid=2f2dc43b-99c3-4f2a-bb64-289f0ffb23bf"},"vehicle_type_id":"4","last_reported":1718982763,"current_range_meters":800,"station_id":"ce4bh412rcd13ifvqds0","pricing_plan_id":"cebpf4jnsgd1na2vs0mg"},{"bike_id":"a67d023c-3584-49a7-9092-f82d38af0425","system_id":"levelo_inurba_marseille","lat":43.286595,"lon":5.386795,"is_reserved":false,"is_disabled":false,"rental_uris":{"android":"levelo://app?vid=a67d023c-3584-49a7-9092-f82d38af0425","ios":"levelo://app?vid=a67d023c-3584-49a7-9092-f82d38af0425"},"vehicle_type_id":"4","last_reported":1718982763,"current_range_meters":12400,"station_id":"ce4bh492rcd13ifvqdug","pricing_plan_id":"cebpf4jnsgd1na2vs0mg"},{"bike_id":"98c65ed3-4881-4968-b277-13c2ef1aeadc","system_id":"levelo_inurba_marseille","lat":43.2866,"lon":5.38669,"is_reserved":false,"is_disabled":false,"rental_uris":{"android":"levelo://app?vid=98c65ed3-4881-4968-b277-13c2ef1aeadc","ios":"levelo://app?vid=98c65ed3-4881-4968-b277-13c2ef1aeadc"},"vehicle_type_id":"4","last_reported":1718982763,"current_range_meters":31200,"station_id":"ce4bh492rcd13ifvqdug","pricing_plan_id":"cebpf4jnsgd1na2vs0mg"},{"bike_id":"92b2924a-7623-4273-9c4b-2e5156b21907","system_id":"levelo_inurba_marseille","lat":43.319179,"lon":5.407725,"is_reserved":false,"is_disabled":false,"rental_uris":{"android":"levelo://app?vid=92b2924a-7623-4273-9c4b-2e5156b21907","ios":"levelo://app?vid=92b2924a-7623-4273-9c4b-2e5156b21907"},"vehicle_type_id":"4","last_reported":1718982763,"current_range_meters":30400,"station_id":"ce4bhq12rcd13ifvqhig","pricing_plan_id":"cebpf4jnsgd1na2vs0mg"},{"bike_id":"8775d745-bfa8-43f9-a7fd-533e4b86a48b","system_id":"levelo_inurba_marseille","lat":43.319179,"lon":5.407725,"is_reserved":false,"is_disabled":false,"rental_uris":{"android":"levelo://app?vid=8775d745-bfa8-43f9-a7fd-533e4b86a48b","ios":"levelo://app?vid=8775d745-bfa8-43f9-a7fd-533e4b86a48b"},"vehicle_type_id":"4","last_reported":1718982763,"current_range_meters":12400,"station_id":"ce4bhq12rcd13ifvqhig","pricing_plan_id":"cebpf4jnsgd1na2vs0mg"},{"bike_id":"8b715652-734b-43bd-8612-afc1050920dd","system_id":"levelo_inurba_marseille","lat":43.31879,"lon":5.40776,"is_reserved":false,"is_disabled":false,"rental_uris":{"android":"levelo://app?vid=8b715652-734b-43bd-8612-afc1050920dd","ios":"levelo://app?vid=8b715652-734b-43bd-8612-afc1050920dd"},"vehicle_type_id":"4","last_reported":1718982763,"current_range_meters":0,"station_id":"ce4bhq12rcd13ifvqhig","pricing_plan_id":"cebpf4jnsgd1na2vs0mg"},{"bike_id":"f79fc6ab-5a07-4465-b82e-c0f65ce210e9","system_id":"levelo_inurba_marseille","lat":43.33717,"lon":5.391857,"is_reserved":false,"is_disabled":false,"rental_uris":{"android":"levelo://app?vid=f79fc6ab-5a07-4465-b82e-c0f65ce210e9","ios":"levelo://app?vid=f79fc6ab-5a07-4465-b82e-c0f65ce210e9"},"vehicle_type_id":"4","last_reported":1718982763,"current_range_meters":10400,"station_id":"ce4bhr92rcd13ifvqhsg","pricing_plan_id":"cebpf4jnsgd1na2vs0mg"},{"bike_id":"5394714c-29bb-47ae-b103-9216d2456bcb","system_id":"levelo_inurba_marseille","lat":43.33717,"lon":5.391857,"is_reserved":false,"is_disabled":false,"rental_uris":{"android":"levelo://app?vid=5394714c-29bb-47ae-b103-9216d2456bcb","ios":"levelo://app?vid=5394714c-29bb-47ae-b103-9216d2456bcb"},"vehicle_type_id":"4","last_reported":1718982763,"current_range_meters":8000,"station_id":"ce4bhr92rcd13ifvqhsg","pricing_plan_id":"cebpf4jnsgd1na2vs0mg"},{"bike_id":"f476d628-1740-4739-bb0c-93219bfe931e","system_id":"levelo_inurba_marseille","lat":43.337168,"lon":5.391825,"is_reserved":false,"is_disabled":false,"rental_uris":{"android":"levelo://app?vid=f476d628-1740-4739-bb0c-93219bfe931e","ios":"levelo://app?vid=f476d628-1740-4739-bb0c-93219bfe931e"},"vehicle_type_id":"4","last_reported":1718982763,"current_range_meters":1200,"station_id":"ce4bhr92rcd13ifvqhsg","pricing_plan_id":"cebpf4jnsgd1na2vs0mg"},{"bike_id":"b1c1f88a-de1a-4898-afec-dc7f673dbc26","system_id":"levelo_inurba_marseille","lat":43.33717,"lon":5.391857,"is_reserved":false,"is_disabled":false,"rental_uris":{"android":"levelo://app?vid=b1c1f88a-de1a-4898-afec-dc7f673dbc26","ios":"levelo://app?vid=b1c1f88a-de1a-4898-afec-dc7f673dbc26"},"vehicle_type_id":"4","last_reported":1718982763,"current_range_meters":19200,"station_id":"ce4bhr92rcd13ifvqhsg","pricing_plan_id":"cebpf4jnsgd1na2vs0mg"},{"bike_id":"f70c9ca4-f7d4-4a94-8721-c40617c71294","system_id":"levelo_inurba_marseille","lat":43.323464,"lon":5.406297,"is_reserved":false,"is_disabled":false,"rental_uris":{"android":"levelo://app?vid=f70c9ca4-f7d4-4a94-8721-c40617c71294","ios":"levelo://app?vid=f70c9ca4-f7d4-4a94-8721-c40617c71294"},"vehicle_type_id":"4","last_reported":1718982763,"current_range_meters":14000,"station_id":"ce4bhq92rcd13ifvqhjg","pricing_plan_id":"cebpf4jnsgd1na2vs0mg"},{"bike_id":"6990131c-919b-480f-ac9a-3786b4341a46","system_id":"levelo_inurba_marseille","lat":43.288497,"lon":5.393089,"is_reserved":false,"is_disabled":false,"rental_uris":{"android":"levelo://app?vid=6990131c-919b-480f-ac9a-3786b4341a46","ios":"levelo://app?vid=6990131c-919b-480f-ac9a-3786b4341a46"},"vehicle_type_id":"4","last_reported":1718982763,"current_range_meters":800,"station_id":"ce4bh2p2rcd13ifvqdi0","pricing_plan_id":"cebpf4jnsgd1na2vs0mg"},{"bike_id":"28e207f7-c9eb-4577-bdee-88cebaf3c8fb","system_id":"levelo_inurba_marseille","lat":43.28352,"lon":5.3811,"is_reserved":false,"is_disabled":false,"rental_uris":{"android":"levelo://app?vid=28e207f7-c9eb-4577-bdee-88cebaf3c8fb","ios":"levelo://app?vid=28e207f7-c9eb-4577-bdee-88cebaf3c8fb"},"vehicle_type_id":"4","last_reported":1718982763,"current_range_meters":23600,"station_id":"ce4bh412rcd13ifvqdr0","pricing_plan_id":"cebpf4jnsgd1na2vs0mg"},{"bike_id":"362057cb-fd3d-4e76-a7b2-277fa618be26","system_id":"levelo_inurba_marseille","lat":43.284219,"lon":5.3497,"is_reserved":false,"is_disabled":false,"rental_uris":{"android":"levelo://app?vid=362057cb-fd3d-4e76-a7b2-277fa618be26","ios":"levelo://app?vid=362057cb-fd3d-4e76-a7b2-277fa618be26"},"vehicle_type_id":"4","last_reported":1718982763,"current_range_meters":29200,"station_id":"ce4bhbh2rcd13ifvqepg","pricing_plan_id":"cebpf4jnsgd1na2vs0mg"},{"bike_id":"d88045bc-07d6-47c4-a624-af47bf74c148","system_id":"levelo_inurba_marseille","lat":43.284217,"lon":5.349697,"is_reserved":false,"is_disabled":false,"rental_uris":{"android":"levelo://app?vid=d88045bc-07d6-47c4-a624-af47bf74c148","ios":"levelo://app?vid=d88045bc-07d6-47c4-a624-af47bf74c148"},"vehicle_type_id":"4","last_reported":1718982763,"current_range_meters":22800,"station_id":"ce4bhbh2rcd13ifvqepg","pricing_plan_id":"cebpf4jnsgd1na2vs0mg"},{"bike_id":"95f5641c-5cea-4aa3-a080-9f639e166cdb","system_id":"levelo_inurba_marseille","lat":43.284219,"lon":5.3497,"is_reserved":false,"is_disabled":false,"rental_uris":{"android":"levelo://app?vid=95f5641c-5cea-4aa3-a080-9f639e166cdb","ios":"levelo://app?vid=95f5641c-5cea-4aa3-a080-9f639e166cdb"},"vehicle_type_id":"4","last_reported":1718982763,"current_range_meters":24400,"station_id":"ce4bhbh2rcd13ifvqepg","pricing_plan_id":"cebpf4jnsgd1na2vs0mg"},{"bike_id":"cd97de13-bbcd-4da8-bab0-1bb1d3195d69","system_id":"levelo_inurba_marseille","lat":43.284217,"lon":5.349697,"is_reserved":false,"is_disabled":false,"rental_uris":{"android":"levelo://app?vid=cd97de13-bbcd-4da8-bab0-1bb1d3195d69","ios":"levelo://app?vid=cd97de13-bbcd-4da8-bab0-1bb1d3195d69"},"vehicle_type_id":"4","last_reported":1718982763,"current_range_meters":14800,"station_id":"ce4bhbh2rcd13ifvqepg","pricing_plan_id":"cebpf4jnsgd1na2vs0mg"},{"bike_id":"3abd61d8-e8d6-4622-962a-c11e9c282544","system_id":"levelo_inurba_marseille","lat":43.284219,"lon":5.3497,"is_reserved":false,"is_disabled":false,"rental_uris":{"android":"levelo://app?vid=3abd61d8-e8d6-4622-962a-c11e9c282544","ios":"levelo://app?vid=3abd61d8-e8d6-4622-962a-c11e9c282544"},"vehicle_type_id":"4","last_reported":1718982763,"current_range_meters":8800,"station_id":"ce4bhbh2rcd13ifvqepg","pricing_plan_id":"cebpf4jnsgd1na2vs0mg"},{"bike_id":"6b6485fe-ad03-404b-8e9c-3f45b33d640e","system_id":"levelo_inurba_marseille","lat":43.284219,"lon":5.3497,"is_reserved":false,"is_disabled":false,"rental_uris":{"android":"levelo://app?vid=6b6485fe-ad03-404b-8e9c-3f45b33d640e","ios":"levelo://app?vid=6b6485fe-ad03-404b-8e9c-3f45b33d640e"},"vehicle_type_id":"4","last_reported":1718982763,"current_range_meters":31200,"station_id":"ce4bhbh2rcd13ifvqepg","pricing_plan_id":"cebpf4jnsgd1na2vs0mg"},