{"last_updated":1769077027,"ttl":60,"version":"2.2","data":{"bikes":[{"bike_id":"cd656310-4221-426f-b1a2-42610d0b025b","system_id":"levelo_inurba_marseille","lat":43.2378,"lon":5.36633,"is_reserved":false,"is_disabled":false,"rental_uris":{"android":"levelo://app?vid=cd656310-4221-426f-b1a2-42610d0b025b","ios":"levelo://app?vid=cd656310-4221-426f-b1a2-42610d0b025b"},"vehicle_type_id":"4","last_reported":1769077028,"current_range_meters":2800,"station_id":"st_d3nk18o9ro0c73en2l3g","pricing_plan_id":"cebpf4jnsgd1na2vs0mg"},{"bike_id":"f73788f7-dec5-4308-a431-6e346b811946","system_id":"levelo_inurba_marseille","lat":43.30144,"lon":5.38113,"is_reserved":false,"is_disabled":false,"rental_uris":{"android":"levelo://app?vid=f73788f7-dec5-4308-a431-6e346b811946","ios":"levelo://app?vid=f73788f7-dec5-4308-a431-6e346b811946"},"vehicle_type_id":"4","last_reported":1769077028,"current_range_meters":2800,"station_id":"ce4bgjp2rcd13ifvqbh0","pricing_plan_id":"cebpf4jnsgd1na2vs0mg"},{"bike_id":"26f01440-98ee-4a28-bdf0-132282fd1794","system_id":"levelo_inurba_marseille","lat":43.27997,"lon":5.41665,"is_reserved":false,"is_disabled":false,"rental_uris":{"android":"levelo://app?vid=26f01440-98ee-4a28-bdf0-132282fd1794","ios":"levelo://app?vid=26f01440-98ee-4a28-bdf0-132282fd1794"},"vehicle_type_id":"4","last_reported":1769077028,"current_range_meters":2800,"station_id":"ce4bho12rcd13ifvqh1g","pricing_plan_id":"cebpf4jnsgd1na2vs0mg"},{"bike_id":"524d578e-a05d-4e3b-a710-025f60cee79e","system_id":"levelo_inurba_marseille","lat":43.30771,"lon":5.37651,"is_reserved":false,"is_disabled":false,"rental_uris":{"android":"levelo://app?vid=524d578e-a05d-4e3b-a710-025f60cee79e","ios":"levelo://app?vid=524d578e-a05d-4e3b-a710-025f60cee79e"},"vehicle_type_id":"4","last_reported":1769077028,"current_range_meters":2800,"station_id":"ce4bgv92rcd13ifvqcq0","pricing_plan_id":"cebpf4jnsgd1na2vs0mg"},{"bike_id":"5bdad711-817a-42cc-84b1-10d4beae812a","system_id":"levelo_inurba_marseille","lat":43.2256,"lon":5.41629,"is_reserved":false,"is_disabled":false,"rental_uris":{"android":"levelo://app?vid=5bdad711-817a-42cc-84b1-10d4beae812a","ios":"levelo://app?vid=5bdad711-817a-42cc-84b1-10d4beae812a"},"vehicle_type_id":"4","last_reported":1769077028,"current_range_meters":2800,"station_id":"st_d2o4gvlbi1j2169b742g","pricing_plan_id":"cebpf4jnsgd1na2vs0mg"},{"bike_id":"4d9fb050-4361-4bab-ba3c-960b4264587c","system_id":"levelo_inurba_marseille","lat":43.325038,"lon":5.361956,"is_reserved":false,"is_disabled":false,"rental_uris":{"android":"levelo://app?vid=4d9fb050-4361-4bab-ba3c-960b4264587c","ios":"levelo://app?vid=4d9fb050-4361-4bab-ba3c-960b4264587c"},"vehicle_type_id":"4","last_reported":1769077028,"current_range_meters":2800,"station_id":"","pricing_plan_id":"cebpf4jnsgd1na2vs0mg"},{"bike_id":"4e266928-91a4-475e-9119-7fc25f43b254","system_id":"levelo_inurba_marseille","lat":43.30904,"lon":5.36862,"is_reserved":false,"is_disabled":false,"rental_uris":{"android":"levelo://app?vid=4e266928-91a4-475e-9119-7fc25f43b254","ios":"levelo://app?vid=4e266928-91a4-475e-9119-7fc25f43b254"},"vehicle_type_id":"4","last_reported":1769077028,"current_range_meters":2800,"station_id":"ce4bgn92rcd13ifvqbvg","pricing_plan_id":"cebpf4jnsgd1na2vs0mg"},{"bike_id":"31c21be6-18ca-494d-8d01-2f205767068d","system_id":"levelo_inurba_marseille","lat":43.318605,"lon":5.374801,"is_reserved":false,"is_disabled":false,"rental_uris":{"android":"levelo://app?vid=31c21be6-18ca-494d-8d01-2f205767068d","ios":"levelo://app?vid=31c21be6-18ca-494d-8d01-2f205767068d"},"vehicle_type_id":"4","last_reported":1769077028,"current_range_meters":2800,"station_id":"","pricing_plan_id":"cebpf4jnsgd1na2vs0mg"},{"bike_id":"19e8b27e-132e-46a2-acc6-21e8f573234b","system_id":"levelo_inurba_marseille","lat":43.25727,"lon":5.41118,"is_reserved":false,"is_disabled":false,"rental_uris":{"android":"levelo://app?vid=19e8b27e-132e-46a2-acc6-21e8f573234b","ios":"levelo://app?vid=19e8b27e-132e-46a2-acc6-21e8f573234b"},"vehicle_type_id":"4","last_reported":1769077028,"current_range_meters":2800,"station_id":"ce4bhkp2rcd13ifvqgd0","pricing_plan_id":"cebpf4jnsgd1na2vs0mg"},{"bike_id":"e6df6fb7-994b-4037-99d6-76175fe9a7d0","system_id":"levelo_inurba_marseille","lat":43.231887,"lon":5.399824,"is_reserved":false,"is_disabled":false,"rental_uris":{"android":"levelo://app?vid=e6df6fb7-994b-4037-99d6-76175fe9a7d0","ios":"levelo://app?vid=e6df6fb7-994b-4037-99d6-76175fe9a7d0"},"vehicle_type_id":"4","last_reported":1769077028,"current_range_meters":2800,"station_id":"ce4bhn12rcd13ifvqgqg","pricing_plan_id":"cebpf4jnsgd1na2vs0mg"},{"bike_id":"331e6e1a-1c1c-4408-b8db-ca9192f5c573","system_id":"levelo_inurba_marseille","lat":43.30639,"lon":5.40116,"is_reserved":false,"is_disabled":false,"rental_uris":{"android":"levelo://app?vid=331e6e1a-1c1c-4408-b8db-ca9192f5c573","ios":"levelo://app?vid=331e6e1a-1c1c-4408-b8db-ca9192f5c573"},"vehicle_type_id":"4","last_reported":1769077028,"current_range_meters":2800,"station_id":"ce4bgn92rcd13ifvqbvg","pricing_plan_id":"cebpf4jnsgd1na2vs0mg"},{"bike_id":"0ee18328-4255-4169-8f2e-69a8c0665c53","system_id":"levelo_inurba_marseille","lat":43.29635,"lon":5.40603,"is_reserved":false,"is_disabled":false,"rental_uris":{"android":"levelo://app?vid=0ee18328-4255-4169-8f2e-69a8c0665c53","ios":"levelo://app?vid=0ee18328-4255-4169-8f2e-69a8c0665c53"},"vehicle_type_id":"4","last_reported":1769077028,"current_range_meters":2800,"station_id":"ce4bh0h2rcd13ifvqd60","pricing_plan_id":"cebpf4jnsgd1na2vs0mg"},{"bike_id":"b89a9141-29ab-4762-aaa2-9040ea7f768e","system_id":"levelo_inurba_marseille","lat":43.24998,"lon":5.38924,"is_reserved":false,"is_disabled":false,"rental_uris":{"android":"levelo://app?vid=b89a9141-29ab-4762-aaa2-9040ea7f768e","ios":"levelo://app?vid=b89a9141-29ab-4762-aaa2-9040ea7f768e"},"vehicle_type_id":"4","last_reported":1769077028,"current_range_meters":2800,"station_id":"ce4bhgp2rcd13ifvqfd0","pricing_plan_id":"cebpf4jnsgd1na2vs0mg"},{"bike_id":"35e70889-7f98-4486-aef5-2251117a1687","system_id":"levelo_inurba_marseille","lat":43.27208,"lon":5.39205,"is_reserved":false,"is_disabled":false,"rental_uris":{"android":"levelo://app?vid=35e70889-7f98-4486-aef5-2251117a1687","ios":"levelo://app?vid=35e70889-7f98-4486-aef5-2251117a1687"},"vehicle_type_id":"4","last_reported":1769077028,"current_range_meters":2800,"station_id":"ce4bhhp2rcd13ifvqfm0","pricing_plan_id":"cebpf4jnsgd1na2vs0mg"},{"bike_id":"362c135d-7b02-4c6a-8049-9faca3a8c7c9","system_id":"levelo_inurba_marseille","lat":43.24074,"lon":5.37761,"is_reserved":false,"is_disabled":false,"rental_uris":{"android":"levelo://app?vid=362c135d-7b02-4c6a-8049-9faca3a8c7c9","ios":"levelo://app?vid=362c135d-7b02-4c6a-8049-9faca3a8c7c9"},"vehicle_type_id":"4","last_reported":1769077028,"current_range_meters":2800,"station_id":"ce4bhnp2rcd13ifvqgvg","pricing_plan_id":"cebpf4jnsgd1na2vs0mg"},{"bike_id":"aaac608a-0e4d-4a83-94bd-7a1924af0522","system_id":"levelo_inurba_marseille","lat":43.274875,"lon":5.424549,"is_reserved":false,"is_disabled":false,"rental_uris":{"android":"levelo://app?vid=aaac608a-0e4d-4a83-94bd-7a1924af0522","ios":"levelo://app?vid=aaac608a-0e4d-4a83-94bd-7a1924af0522"},"vehicle_type_id":"4","last_reported":1769077028,"current_range_meters":2800,"station_id":"ce4bhn92rcd13ifvqgrg","pricing_plan_id":"cebpf4jnsgd1na2vs0mg"},{"bike_id":"26b54671-0e7d-4bd4-85f4-0f92f6cbb8c9","system_id":"levelo_inurba_marseille","lat":43.30191,"lon":5.366154,"is_reserved":false,"is_disabled":false,"rental_uris":{"android":"levelo://app?vid=26b54671-0e7d-4bd4-85f4-0f92f6cbb8c9","ios":"levelo://app?vid=26b54671-0e7d-4bd4-85f4-0f92f6cbb8c9"},"vehicle_type_id":"4","last_reported":1769077028,"current_range_meters":3200,"station_id":"ce4bgrh2rcd13ifvqc8g","pricing_plan_id":"cebpf4jnsgd1na2vs0mg"},{"bike_id":"9fe9b7fa-bf5e-456b-b148-d56a572e2392","system_id":"levelo_inurba_marseille","lat":43.22564,"lon":5.41628,"is_reserved":false,"is_disabled":false,"rental_uris":{"android":"levelo://app?vid=9fe9b7fa-bf5e-456b-b148-d56a572e2392","ios":"levelo://app?vid=9fe9b7fa-bf5e-456b-b148-d56a572e2392"},"vehicle_type_id":"4","last_reported":1769077028,"current_range_meters":3200,"station_id":"st_d2o4gvlbi1j2169b742g","pricing_plan_id":"cebpf4jnsgd1na2vs0mg"},{"bike_id":"c04e4d62-6c27-4f6c-abd3-a24ebb249ccf","system_id":"levelo_inurba_marseille","lat":43.27492,"lon":5.42476,"is_reserved":false,"is_disabled":false,"rental_uris":{"android":"levelo://app?vid=c04e4d62-6c27-4f6c-abd3-a24ebb249ccf","ios":"levelo://app?vid=c04e4d62-6c27-4f6c-abd3-a24ebb249ccf"},"vehicle_type_id":"4","last_reported":1769077028,"current_range_meters":3200,"station_id":"ce4bhn92rcd13ifvqgrg","pricing_plan_id":"cebpf4jnsgd1na2vs0mg"},{"bike_id":"6ed4374b-eb52-4400-8b6e-dd19e3ab477e","system_id":"levelo_inurba_marseille","lat":43.28611,"lon":5.35114,"is_reserved":false,"is_disabled":false,"rental_uris":{"android":"levelo://app?vid=6ed4374b-eb52-4400-8b6e-dd19e3ab477e","ios":"levelo://app?vid=6ed4374b-eb52-4400-8b6e-dd19e3ab477e"},"vehicle_type_id":"4","last_reported":1769077028,"current_range_meters":3200,"station_id":"ce4bhch2rcd13ifvqeug","pricing_plan_id":"cebpf4jnsgd1na2vs0mg"},{"bike_id":"cb6814fc-ea38-4a95-8242-56aa61d84e9e","system_id":"levelo_inurba_marseille","lat":43.26677,"lon":5.38267,"is_reserved":false,"is_disabled":false,"rental_uris":{"android":"levelo://app?vid=cb6814fc-ea38-4a95-8242-56aa61d84e9e","ios":"levelo://app?vid=cb6814fc-ea38-4a95-8242-56aa61d84e9e"},"vehicle_type_id":"4","last_reported":1769077028,"current_range_meters":3200,"station_id":"ce4bhg92rcd13ifvqf90","pricing_plan_id":"cebpf4jnsgd1na2vs0mg"},{"bike_id":"5676d44b-615e-4f97-a702-88a54990cf48","system_id":"levelo_inurba_marseille","lat":43.26805,"lon":5.4027,"is_reserved":false,"is_disabled":false,"rental_uris":{"android":"levelo://app?vid=5676d44b-615e-4f97-a702-88a54990cf48","ios":"levelo://app?vid=5676d44b-615e-4f97-a702-88a54990cf48"},"vehicle_type_id":"4","last_reported":1769077028,"current_range_meters":3200,"station_id":"ce501612rcd8frsf0b60","pricing_plan_id":"cebpf4jnsgd1na2vs0mg"},{"bike_id":"f09c06aa-a05d-4b00-b228-d8bee2b62b4f","system_id":"levelo_inurba_marseille","lat":43.32358,"lon":5.36738,"is_reserved":false,"is_disabled":false,"rental_uris":{"android":"levelo://app?vid=f09c06aa-a05d-4b00-b228-d8bee2b62b4f","ios":"levelo://app?vid=f09c06aa-a05d-4b00-b228-d8bee2b62b4f"},"vehicle_type_id":"4","last_reported":1769077028,"current_range_meters":3600,"station_id":"ce4bhsh2rcd13ifvqi2g","pricing_plan_id":"cebpf4jnsgd1na2vs0mg"},{"bike_id":"0d073dc4-e542-4a37-9edb-04c8262d5066","system_id":"levelo_inurba_marseille","lat":43.285263,"lon":5.441225,"is_reserved":false,"is_disabled":false,"rental_uris":{"android":"levelo://app?vid=0d073dc4-e542-4a37-9edb-04c8262d5066","ios":"levelo://app?vid=0d073dc4-e542-4a37-9edb-04c8262d5066"},"vehicle_type_id":"4","last_reported":1769077028,"current_range_meters":3600,"station_id":"st_d3j3df2ikq2c7380ej80","pricing_plan_id":"cebpf4jnsgd1na2vs0mg"},{"bike_id":"99d65f09-c0e6-4f0f-b72f-6e110c0f1bd4","system_id":"levelo_inurba_marseille","lat":43.28987,"lon":5.37589,"is_reserved":false,"is_disabled":false,"rental_uris":{"android":"levelo://app?vid=99d65f09-c0e6-4f0f-b72f-6e110c0f1bd4","ios":"levelo://app?vid=99d65f09-c0e6-4f0f-b72f-6e110c0f1bd4"},"vehicle_type_id":"4","last_reported":1769077028,"current_range_meters":3600,"station_id":"","pricing_plan_id":"cebpf4jnsgd1na2vs0mg"},{"bike_id":"5f477738-733e-4c98-961a-33429c5938fd","system_id":"levelo_inurba_marseille","lat":43.260586,"lon":5.393984,"is_reserved":false,"is_disabled":false,"rental_uris":{"android":"levelo://app?vid=5f477738-733e-4c98-961a-33429c5938fd","ios":"levelo://app?vid=5f477738-733e-4c98-961a-33429c5938fd"},"vehicle_type_id":"4","last_reported":1769077028,"current_range_meters":3600,"station_id":"ce4bhh92rcd13ifvqfj0","pricing_plan_id":"cebpf4jnsgd1na2vs0mg"},{"bike_id":"054e163b-1e47-4a0a-a038-a7939885860e","system_id":"levelo_inurba_marseille","lat":43.32339,"lon":5.36739,"is_reserved":false,"is_disabled":false,"rental_uris":{"android":"levelo://app?vid=054e163b-1e47-4a0a-a038-a7939885860e","ios":"levelo://app?vid=054e163b-1e47-4a0a-a038-a7939885860e"},"vehicle_type_id":"4","last_reported":1769077028,"current_range_meters":3600,"station_id":"ce4bhsh2rcd13ifvqi2g","pricing_plan_id":"cebpf4jnsgd1na2vs0mg"},{"bike_id":"ffabd398-f54b-45bd-9851-1b3115defcf6","system_id":"levelo_inurba_marseille","lat":43.24163,"lon":5.39741,"is_reserved":false,"is_disabled":false,"rental_uris":{"android":"levelo://app?vid=ffabd398-f54b-45bd-9851-1b3115defcf6","ios":"levelo://app?vid=ffabd398-f54b-45bd-9851-1b3115defcf6"},"vehicle_type_id":"4","last_reported":1769077028,"current_range_meters":3600,"station_id":"ce4bhn12rcd13ifvqgpg","pricing_plan_id":"cebpf4jnsgd1na2vs0mg"},{"bike_id":"a4e0bc82-a3ca-4377-bace-544218639f46","system_id":"levelo_inurba_marseille","lat":43.30232,"lon":5.36645,"is_reserved":false,"is_disabled":false,"rental_uris":{"android":"levelo://app?vid=a4e0bc82-a3ca-4377-bace-544218639f46","ios":"levelo://app?vid=a4e0bc82-a3ca-4377-bace-544218639f46"},"vehicle_type_id":"4","last_reported":1769077028,"current_range_meters":3600,"station_id":"ce4bgrh2rcd13ifvqc8g","pricing_plan_id":"cebpf4jnsgd1na2vs0mg"},{"bike_id":"e3006b68-2895-43e3-a6a3-f525aa75c699","system_id":"levelo_inurba_marseille","lat":43.24065,"lon":5.37763,"is_reserved":false,"is_disabled":false,"rental_uris":{"android":"levelo://app?vid=e3006b68-2895-43e3-a6a3-f525aa75c699","ios":"levelo://app?vid=e3006b68-2895-43e3-a6a3-f525aa75c699"},"vehicle_type_id":"4","last_reported":1769077028,"current_range_meters":3600,"station_id":"ce4bhnp2rcd13ifvqgvg","pricing_plan_id":"cebpf4jnsgd1na2vs0mg"},{"bike_id":"ddac16df-da7b-4c1e-8c96-25bd2dbc1226","system_id":"levelo_inurba_marseille","lat":43.32378,"lon":5.36727,"is_reserved":false,"is_disabled":false,"rental_uris":{"android":"levelo://app?vid=ddac16df-da7b-4c1e-8c96-25bd2dbc1226","ios":"levelo://app?vid=ddac16df-da7b-4c1e-8c96-25bd2dbc1226"},"vehicle_type_id":"4","last_reported":1769077028,"current_range_meters":3600,"station_id":"","pricing_plan_id":"cebpf4jnsgd1na2vs0mg"},{"bike_id":"5702b7dd-6610-470c-aa4b-9a42ea10f3cc","system_id":"levelo_inurba_marseille","lat":43.3054,"lon":5.36556,"is_reserved":false,"is_disabled":false,"rental_uris":{"android":"levelo://app?vid=5702b7dd-6610-470c-aa4b-9a42ea10f3cc","ios":"levelo://app?vid=5702b7dd-6610-470c-aa4b-9a42ea10f3cc"},"vehicle_type_id":"4","last_reported":1769077028,"current_range_meters":3600,"station_id":"ce4bgs12rcd13ifvqcag","pricing_plan_id":"cebpf4jnsgd1na2vs0mg"},{"bike_id":"64089e70-95ae-4ee4-8be8-a9da03038877","system_id":"levelo_inurba_marseille","lat":43.31376,"lon":5.36779,"is_reserved":false,"is_disabled":false,"rental_uris":{"android":"levelo://app?vid=64089e70-95ae-4ee4-8be8-a9da03038877","ios":"levelo://app?vid=64089e70-95ae-4ee4-8be8-a9da03038877"},"vehicle_type_id":"4","last_reported":1769077028,"current_range_meters":3600,"station_id":"ce4bgr92rcd13ifvqc6g","pricing_plan_id":"cebpf4jnsgd1na2vs0mg"},{"bike_id":"13c816e9-5043-41d0-a44f-0b67121a9c07","system_id":"levelo_inurba_marseille","lat":43.2794,"lon":5.39182,"is_reserved":false,"is_disabled":false,"rental_uris":{"android":"levelo://app?vid=13c816e9-5043-41d0-a44f-0b67121a9c07","ios":"levelo://app?vid=13c816e9-5043-41d0-a44f-0b67121a9c07"},"vehicle_type_id":"4","last_reported":1769077028,"current_range_meters":3600,"station_id":"ce4bhjp2rcd13ifvqga0","pricing_plan_id":"cebpf4jnsgd1na2vs0mg"},{"bike_id":"87376c51-7b52-4611-acd2-49441baafe3f","system_id":"levelo_inurba_marseille","lat":43.24614,"lon":5.40215,"is_reserved":false,"is_disabled":false,"rental_uris":{"android":"levelo://app?vid=87376c51-7b52-4611-acd2-49441baafe3f","ios":"levelo://app?vid=87376c51-7b52-4611-acd2-49441baafe3f"},"vehicle_type_id":"4","last_reported":1769077028,"current_range_meters":3600,"station_id":"","pricing_plan_id":"cebpf4jnsgd1na2vs0mg"},{"bike_id":"12bd883b-612b-4744-aa30-09be7d3e24e5","system_id":"levelo_inurba_marseille","lat":43.290459,"lon":5.39955,"is_reserved":false,"is_disabled":false,"rental_uris":{"android":"levelo://app?vid=12bd883b-612b-4744-aa30-09be7d3e24e5","ios":"levelo://app?vid=12bd883b-612b-4744-aa30-09be7d3e24e5"},"vehicle_type_id":"4","last_reported":1769077028,"current_range_meters":4000,"station_id":"ce4bh392rcd13ifvqdm0","pricing_plan_id":"cebpf4jnsgd1na2vs0mg"},{"bike_id":"e9756676-c689-4152-959c-5d64c60d498f","system_id":"levelo_inurba_marseille","lat":43.28658,"lon":5.36365,"is_reserved":false,"is_disabled":false,"rental_uris":{"android":"levelo://app?vid=e9756676-c689-4152-959c-5d64c60d498f","ios":"levelo://app?vid=e9756676-c689-4152-959c-5d64c60d498f"},"vehicle_type_id":"4","last_reported":1769077028,"current_range_meters":4000,"station_id":"ce4bhah2rcd13ifvqej0","pricing_plan_id":"cebpf4jnsgd1na2vs0mg"},{"bike_id":"47ce0787-22e1-4b29-94df-e39f39ae3a48","system_id":"levelo_inurba_marseille","lat":43.290556,"lon":5.359331,"is_reserved":false,"is_disabled":false,"rental_uris":{"android":"levelo://app?vid=47ce0787-22e1-4b29-94df-e39f39ae3a48","ios":"levelo://app?vid=47ce0787-22e1-4b29-94df-e39f39ae3a48"},"vehicle_type_id":"4","last_reported":1769077028,"current_range_meters":4000,"station_id":"ce4bha92rcd13ifvqeg0","pricing_plan_id":"cebpf4jnsgd1na2vs0mg"},{"bike_id":"8f37b858-03c9-4dc4-9353-016aa6a18d48","system_id":"levelo_inurba_marseille","lat":43.2904,"lon":5.37154,"is_reserved":false,"is_disabled":false,"rental_uris":{"android":"levelo://app?vid=8f37b858-03c9-4dc4-9353-016aa6a18d48","ios":"levelo://app?vid=8f37b858-03c9-4dc4-9353-016aa6a18d48"},"vehicle_type_id":"4","last_reported":1769077028,"current_range_meters":4000,"station_id":"ce4bh5p2rcd13ifvqe4g","pricing_plan_id":"cebpf4jnsgd1na2vs0mg"},{"bike_id":"885c6fbb-d27f-4482-8f94-7fd5d88ec70c","system_id":"levelo_inurba_marseille","lat":43.30311,"lon":5.39204,"is_reserved":false,"is_disabled":false,"rental_uris":{"android":"levelo://app?vid=885c6fbb-d27f-4482-8f94-7fd5d88ec70c","ios":"levelo://app?vid=885c6fbb-d27f-4482-8f94-7fd5d88ec70c"},"vehicle_type_id":"4","last_reported":1769077028,"current_range_meters":4000,"station_id":"ce4bgkh2rcd13ifvqbk0","pricing_plan_id":"cebpf4jnsgd1na2vs0mg"},{"bike_id":"23952ec8-a0f1-4bc7-aad6-a1231657c9e9","system_id":"levelo_inurba_marseille","lat":43.26545,"lon":5.37295,"is_reserved":false,"is_disabled":false,"rental_uris":{"android":"levelo://app?vid=23952ec8-a0f1-4bc7-aad6-a1231657c9e9","ios":"levelo://app?vid=23952ec8-a0f1-4bc7-aad6-a1231657c9e9"},"vehicle_type_id":"4","last_reported":1769077028,"current_range_meters":4000,"station_id":"ce4bhg12rcd13ifvqf70","pricing_plan_id":"cebpf4jnsgd1na2vs0mg"},{"bike_id":"57560f65-e4ea-4eda-9d46-c69dedf142ff","system_id":"levelo_inurba_marseille","lat":43.26387,"lon":5.4107,"is_reserved":false,"is_disabled":false,"rental_uris":{"android":"levelo://app?vid=57560f65-e4ea-4eda-9d46-c69dedf142ff","ios":"levelo://app?vid=57560f65-e4ea-4eda-9d46-c69dedf142ff"},"vehicle_type_id":"4","last_reported":1769077028,"current_range_meters":4000,"station_id":"st_d4e5ca6na9uc73bfl5fg","pricing_plan_id":"cebpf4jnsgd1na2vs0mg"},{"bike_id":"ce33f6ad-f3bd-4953-bd7c-6e1238f24a4f","system_id":"levelo_inurba_marseille","lat":43.246625,"lon":5.381498,"is_reserved":false,"is_disabled":false,"rental_uris":{"android":"levelo://app?vid=ce33f6ad-f3bd-4953-bd7c-6e1238f24a4f","ios":"levelo://app?vid=ce33f6ad-f3bd-4953-bd7c-6e1238f24a4f"},"vehicle_type_id":"4","last_reported":1769077028,"current_range_meters":4000,"station_id":"ce4bhih2rcd13ifvqfr0","pricing_plan_id":"cebpf4jnsgd1na2vs0mg"},{"bike_id":"1faea985-2c7d-46b3-a0c7-11ff4bef455a","system_id":"levelo_inurba_marseille","lat":43.24653,"lon":5.38892,"is_reserved":false,"is_disabled":false,"rental_uris":{"android":"levelo://app?vid=1faea985-2c7d-46b3-a0c7-11ff4bef455a","ios":"levelo://app?vid=1faea985-2c7d-46b3-a0c7-11ff4bef455a"},"vehicle_type_id":"4","last_reported":1769077028,"current_range_meters":4000,"station_id":"ce4bhg12rcd13ifvqf60","pricing_plan_id":"cebpf4jnsgd1na2vs0mg"},{"bike_id":"f9465a2e-13db-45fd-8b28-acb0c86019f3","system_id":"levelo_inurba_marseille","lat":43.30541,"lon":5.3654,"is_reserved":false,"is_disabled":false,"rental_uris":{"android":"levelo://app?vid=f9465a2e-13db-45fd-8b28-acb0c86019f3","ios":"levelo://app?vid=f9465a2e-13db-45fd-8b28-acb0c86019f3"},"vehicle_type_id":"4","last_reported":1769077028,"current_range_meters":4000,"station_id":"ce4bgs12rcd13ifvqcag","pricing_plan_id":"cebpf4jnsgd1na2vs0mg"},{"bike_id":"d0375bf7-1afd-4aa6-8017-82ae9de0814c","system_id":"levelo_inurba_marseille","lat":43.30939,"lon":5.36805,"is_reserved":false,"is_disabled":false,"rental_uris":{"android":"levelo://app?vid=d0375bf7-1afd-4aa6-8017-82ae9de0814c","ios":"levelo://app?vid=d0375bf7-1afd-4aa6-8017-82ae9de0814c"},"vehicle_type_id":"4","last_reported":1769077028,"current_range_meters":4000,"station_id":"ce4bgn92rcd13ifvqbvg","pricing_plan_id":"cebpf4jnsgd1na2vs0mg"},{"bike_id":"c3c9d165-9f18-496b-a420-1a5a46ea337c","system_id":"levelo_inurba_marseille","lat":43.3057,"lon":5.36806,"is_reserved":false,"is_disabled":false,"rental_uris":{"android":"levelo://app?vid=c3c9d165-9f18-496b-a420-1a5a46ea337c","ios":"levelo://app?vid=c3c9d165-9f18-496b-a420-1a5a46ea337c"},"vehicle_type_id":"4","last_reported":1769077028,"current_range_meters":4000,"station_id":"ce4bgrp2rcd13ifvqc9g","pricing_plan_id":"cebpf4jnsgd1na2vs0mg"},{"bike_id":"72e1655d-aec3-4349-93c1-06571442ed3a","system_id":"levelo_inurba_marseille","lat":43.24682,"lon":5.38139,"is_reserved":false,"is_disabled":false,"rental_uris":{"android":"levelo://app?vid=72e1655d-aec3-4349-93c1-06571442ed3a","ios":"levelo://app?vid=72e1655d-aec3-4349-93c1-06571442ed3a"},"vehicle_type_id":"4","last_reported":1769077028,"current_range_meters":4000,"station_id":"ce4bhih2rcd13ifvqfr0","pricing_plan_id":"cebpf4jnsgd1na2vs0mg"},{"bike_id":"4c7ae057-d306-4108-a109-f703240d1f82","system_id":"levelo_inurba_marseille","lat":43.25971,"lon":5.40914,"is_reserved":false,"is_disabled":false,"rental_uris":{"android":"levelo://app?vid=4c7ae057-d306-4108-a109-f703240d1f82","ios":"levelo://app?vid=4c7ae057-d306-4108-a109-f703240d1f82"},"vehicle_type_id":"4","last_reported":1769077028,"current_range_meters":4000,"station_id":"ce4bhm92rcd13ifvqglg","pricing_plan_id":"cebpf4jnsgd1na2vs0mg"},{"bike_id":"94e447ef-188e-4e98-a497-4fbe709caccf","system_id":"levelo_inurba_marseille","lat":43.23967,"lon":5.36652,"is_reserved":false,"is_disabled":false,"rental_uris":{"android":"levelo://app?vid=94e447ef-188e-4e98-a497-4fbe709caccf","ios":"levelo://app?vid=94e447ef-188e-4e98-a497-4fbe709caccf"},"vehicle_type_id":"4","last_reported":1769077028,"current_range_meters":4400,"station_id":"ce4bhi12rcd13ifvqfp0","pricing_plan_id":"cebpf4jnsgd1na2vs0mg"},{"bike_id":"19c9b524-76f1-4e5d-8be9-000b11a19079","system_id":"levelo_inurba_marseille","lat":43.250024,"lon":5.389201,"is_reserved":false,"is_disabled":false,"rental_uris":{"android":"levelo://app?vid=19c9b524-76f1-4e5d-8be9-000b11a19079","ios":"levelo://app?vid=19c9b524-76f1-4e5d-8be9-000b11a19079"},"vehicle_type_id":"4","last_reported":1769077028,"current_range_meters":4400,"station_id":"ce4bhgp2rcd13ifvqfd0","pricing_plan_id":"cebpf4jnsgd1na2vs0mg"},{"bike_id":"6c089fda-8c58-4d9f-ba9f-5b075f1678f2","system_id":"levelo_inurba_marseille","lat":43.29604,"lon":5.37705,"is_reserved":false,"is_disabled":false,"rental_uris":{"android":"levelo://app?vid=6c089fda-8c58-4d9f-ba9f-5b075f1678f2","ios":"levelo://app?vid=6c089fda-8c58-4d9f-ba9f-5b075f1678f2"},"vehicle_type_id":"4","last_reported":1769077028,"current_range_meters":4400,"station_id":"ce4bgi92rcd13ifvqb90","pricing_plan_id":"cebpf4jnsgd1na2vs0mg"},{"bike_id":"bf9df301-dc0d-41cc-96a1-27301e9f819b","system_id":"levelo_inurba_marseille","lat":43.284714,"lon":5.483909,"is_reserved":false,"is_disabled":false,"rental_uris":{"android":"levelo://app?vid=bf9df301-dc0d-41cc-96a1-27301e9f819b","ios":"levelo://app?vid=bf9df301-dc0d-41cc-96a1-27301e9f819b"},"vehicle_type_id":"4","last_reported":1769077028,"current_range_meters":4400,"station_id":"st_d3svhcjqgbts73a3dn0g","pricing_plan_id":"cebpf4jnsgd1na2vs0mg"},{"bike_id":"d8abbe1c-ad8d-49db-bc29-8eb3b908e31a","system_id":"levelo_inurba_marseille","lat":43.29966,"lon":5.37187,"is_reserved":false,"is_disabled":false,"rental_uris":{"android":"levelo://app?vid=d8abbe1c-ad8d-49db-bc29-8eb3b908e31a","ios":"levelo://app?vid=d8abbe1c-ad8d-49db-bc29-8eb3b908e31a"},"vehicle_type_id":"4","last_reported":1769077028,"current_range_meters":4400,"station_id":"ce4bgr92rcd13ifvqc7g","pricing_plan_id":"cebpf4jnsgd1na2vs0mg"},{"bike_id":"07f874f3-5f43-4e3e-8a0f-4f8944820a48","system_id":"levelo_inurba_marseille","lat":43.25556,"lon":5.38252,"is_reserved":false,"is_disabled":false,"rental_uris":{"android":"levelo://app?vid=07f874f3-5f43-4e3e-8a0f-4f8944820a48","ios":"levelo://app?vid=07f874f3-5f43-4e3e-8a0f-4f8944820a48"},"vehicle_type_id":"4","last_reported":1769077028,"current_range_meters":4400,"station_id":"ce4bhih2rcd13ifvqfs0","pricing_plan_id":"cebpf4jnsgd1na2vs0mg"},{"bike_id":"d544c567-3643-4260-aeec-23652ea27476","system_id":"levelo_inurba_marseille","lat":43.273687,"lon":5.362617,"is_reserved":false,"is_disabled":false,"rental_uris":{"android":"levelo://app?vid=d544c567-3643-4260-aeec-23652ea27476","ios":"levelo://app?vid=d544c567-3643-4260-aeec-23652ea27476"},"vehicle_type_id":"4","last_reported":1769077028,"current_range_meters":4400,"station_id":"ce4bhbh2rcd13ifvqeo0","pricing_plan_id":"cebpf4jnsgd1na2vs0mg"},{"bike_id":"da8ce49e-2462-4b71-9793-a1a96c4cd64e","system_id":"levelo_inurba_marseille","lat":43.290381,"lon":5.375648,"is_reserved":false,"is_disabled":false,"rental_uris":{"android":"levelo://app?vid=da8ce49e-2462-4b71-9793-a1a96c4cd64e","ios":"levelo://app?vid=da8ce49e-2462-4b71-9793-a1a96c4cd64e"},"vehicle_type_id":"4","last_reported":1769077028,"current_range_meters":4400,"station_id":"ce4bh692rcd13ifvqe90","pricing_plan_id":"cebpf4jnsgd1na2vs0mg"},{"bike_id":"19f100e7-b629-4937-9dfc-fd2ffdddb939","system_id":"levelo_inurba_marseille","lat":43.24043,"lon":5.37749,"is_reserved":false,"is_disabled":false,"rental_uris":{"android":"levelo://app?vid=19f100e7-b629-4937-9dfc-fd2ffdddb939","ios":"levelo://app?vid=19f100e7-b629-4937-9dfc-fd2ffdddb939"},"vehicle_type_id":"4","last_reported":1769077028,"current_range_meters":4400,"station_id":"ce4bhnp2rcd13ifvqgvg","pricing_plan_id":"cebpf4jnsgd1na2vs0mg"},{"bike_id":"f69320da-d1ab-46a0-a456-74bc2aa6d14b","system_id":"levelo_inurba_marseille","lat":43.265516,"lon":5.372885,"is_reserved":false,"is_disabled":false,"rental_uris":{"android":"levelo://app?vid=f69320da-d1ab-46a0-a456-74bc2aa6d14b","ios":"levelo://app?vid=f69320da-d1ab-46a0-a456-74bc2aa6d14b"},"vehicle_type_id":"4","last_reported":1769077028,"current_range_meters":4400,"station_id":"","pricing_plan_id":"cebpf4jnsgd1na2vs0mg"},{"bike_id":"5af690d8-2c2d-4a1c-8145-2b3161fd06e5","system_id":"levelo_inurba_marseille","lat":43.26666,"lon":5.38276,"is_reserved":false,"is_disabled":false,"rental_uris":{"android":"levelo://app?vid=5af690d8-2c2d-4a1c-8145-2b3161fd06e5","ios":"levelo://app?vid=5af690d8-2c2d-4a1c-8145-2b3161fd06e5"},"vehicle_type_id":"4","last_reported":1769077028,"current_range_meters":4800,"station_id":"ce4bhg92rcd13ifvqf90","pricing_plan_id":"cebpf4jnsgd1na2vs0mg"},{"bike_id":"db3f14e4-220b-415c-9e28-2fe041e49f9a","system_id":"levelo_inurba_marseille","lat":43.26065,"lon":5.39394,"is_reserved":false,"is_disabled":false,"rental_uris":{"android":"levelo://app?vid=db3f14e4-220b-415c-9e28-2fe041e49f9a","ios":"levelo://app?vid=db3f14e4-220b-415c-9e28-2fe041e49f9a"},"vehicle_type_id":"4","last_reported":1769077028,"current_range_meters":4800,"station_id":"ce4bhh92rcd13ifvqfj0","pricing_plan_id":"cebpf4jnsgd1na2vs0mg"},{"bike_id":"0b64e895-792b-4498-9172-5f40249c5668","system_id":"levelo_inurba_marseille","lat":43.26091,"lon":5.39273,"is_reserved":false,"is_disabled":false,"rental_uris":{"android":"levelo://app?vid=0b64e895-792b-4498-9172-5f40249c5668","ios":"levelo://app?vid=0b64e895-792b-4498-9172-5f40249c5668"},"vehicle_type_id":"4","last_reported":1769077028,"current_range_meters":4800,"station_id":"","pricing_plan_id":"cebpf4jnsgd1na2vs0mg"},{"bike_id":"c410668a-fb9f-4d89-8357-51bcc7148eda","system_id":"levelo_inurba_marseille","lat":43.24179,"lon":5.39737,"is_reserved":false,"is_disabled":false,"rental_uris":{"android":"levelo://app?vid=c410668a-fb9f-4d89-8357-51bcc7148eda","ios":"levelo://app?vid=c410668a-fb9f-4d89-8357-51bcc7148eda"},"vehicle_type_id":"4","last_reported":1769077028,"current_range_meters":4800,"station_id":"ce4bhn12rcd13ifvqgpg","pricing_plan_id":"cebpf4jnsgd1na2vs0mg"},{"bike_id":"00eebd42-68c8-4b7b-b6d8-ebd2f3e0ad5f","system_id":"levelo_inurba_marseille","lat":43.29547,"lon":5.37502,"is_reserved":false,"is_disabled":false,"rental_uris":{"android":"levelo://app?vid=00eebd42-68c8-4b7b-b6d8-ebd2f3e0ad5f","ios":"levelo://app?vid=00eebd42-68c8-4b7b-b6d8-ebd2f3e0ad5f"},"vehicle_type_id":"4","last_reported":1769077028,"current_range_meters":4800,"station_id":"ce4bgkp2rcd13ifvqbmg","pricing_plan_id":"cebpf4jnsgd1na2vs0mg"},{"bike_id":"55ab414d-d796-490b-9c28-eb2439477840","system_id":"levelo_inurba_marseille","lat":43.24092,"lon":5.37763,"is_reserved":false,"is_disabled":false,"rental_uris":{"android":"levelo://app?vid=55ab414d-d796-490b-9c28-eb2439477840","ios":"levelo://app?vid=55ab414d-d796-490b-9c28-eb2439477840"},"vehicle_type_id":"4","last_reported":1769077028,"current_range_meters":4800,"station_id":"ce4bhnp2rcd13ifvqgvg","pricing_plan_id":"cebpf4jnsgd1na2vs0mg"},{"bike_id":"f8d42a35-9a08-458a-a2c6-86fbfc52f1f4","system_id":"levelo_inurba_marseille","lat":43.296119,"lon":5.377197,"is_reserved":false,"is_disabled":false,"rental_uris":{"android":"levelo://app?vid=f8d42a35-9a08-458a-a2c6-86fbfc52f1f4","ios":"levelo://app?vid=f8d42a35-9a08-458a-a2c6-86fbfc52f1f4"},"vehicle_type_id":"4","last_reported":1769077028,"current_range_meters":4800,"station_id":"ce4bgi92rcd13ifvqb90","pricing_plan_id":"cebpf4jnsgd1na2vs0mg"},{"bike_id":"e2c75bb6-a8f5-4d10-8f8c-b5c9ff3756c1","system_id":"levelo_inurba_marseille","lat":43.305365,"lon":5.365352,"is_reserved":false,"is_disabled":false,"rental_uris":{"android":"levelo://app?vid=e2c75bb6-a8f5-4d10-8f8c-b5c9ff3756c1","ios":"levelo://app?vid=e2c75bb6-a8f5-4d10-8f8c-b5c9ff3756c1"},"vehicle_type_id":"4","last_reported":1769077028,"current_range_meters":5600,"station_id":"ce4bgs12rcd13ifvqcag","pricing_plan_id":"cebpf4jnsgd1na2vs0mg"},{"bike_id":"6bfbb2b6-3853-4567-b94a-4e6d4c529633","system_id":"levelo_inurba_marseille","lat":43.28529,"lon":5.44125,"is_reserved":false,"is_disabled":false,"rental_uris":{"android":"levelo://app?vid=6bfbb2b6-3853-4567-b94a-4e6d4c529633","ios":"levelo://app?vid=6bfbb2b6-3853-4567-b94a-4e6d4c529633"},"vehicle_type_id":"4","last_reported":1769077028,"current_range_meters":5600,"station_id":"st_d3j3df2ikq2c7380ej80","pricing_plan_id":"cebpf4jnsgd1na2vs0mg"},{"bike_id":"5550a5b9-adf4-46c0-959f-1b39fcd94aad","system_id":"levelo_inurba_marseille","lat":43.29688,"lon":5.37303,"is_reserved":false,"is_disabled":false,"rental_uris":{"android":"levelo://app?vid=5550a5b9-adf4-46c0-959f-1b39fcd94aad","ios":"levelo://app?vid=5550a5b9-adf4-46c0-959f-1b39fcd94aad"},"vehicle_type_id":"4","last_reported":1769077028,"current_range_meters":5600,"station_id":"ce4bgk12rcd13ifvqbj0","pricing_plan_id":"cebpf4jnsgd1na2vs0mg"},{"bike_id":"68226070-db87-4f3a-bcca-d8c5e4b321f8","system_id":"levelo_inurba_marseille","lat":43.30862,"lon":5.37005,"is_reserved":false,"is_disabled":false,"rental_uris":{"android":"levelo://app?vid=68226070-db87-4f3a-bcca-d8c5e4b321f8","ios":"levelo://app?vid=68226070-db87-4f3a-bcca-d8c5e4b321f8"},"vehicle_type_id":"4","last_reported":1769077028,"current_range_meters":5600,"station_id":"","pricing_plan_id":"cebpf4jnsgd1na2vs0mg"},{"bike_id":"d891b86b-9c4a-46fd-b64a-73de9353aaf0","system_id":"levelo_inurba_marseille","lat":43.30965,"lon":5.39046,"is_reserved":false,"is_disabled":false,"rental_uris":{"android":"levelo://app?vid=d891b86b-9c4a-46fd-b64a-73de9353aaf0","ios":"levelo://app?vid=d891b86b-9c4a-46fd-b64a-73de9353aaf0"},"vehicle_type_id":"4","last_reported":1769077028,"current_range_meters":5600,"station_id":"ce4bgup2rcd13ifvqco0","pricing_plan_id":"cebpf4jnsgd1na2vs0mg"},{"bike_id":"206441f8-aeae-4f5a-aba6-5de70a26d57c","system_id":"levelo_inurba_marseille","lat":43.26577,"lon":5.37341,"is_reserved":false,"is_disabled":false,"rental_uris":{"android":"levelo://app?vid=206441f8-aeae-4f5a-aba6-5de70a26d57c","ios":"levelo://app?vid=206441f8-aeae-4f5a-aba6-5de70a26d57c"},"vehicle_type_id":"4","last_reported":1769077028,"current_range_meters":5600,"station_id":"ce4bhg12rcd13ifvqf70","pricing_plan_id":"cebpf4jnsgd1na2vs0mg"},{"bike_id":"39827930-f053-4043-a453-706a64119c3e","system_id":"levelo_inurba_marseille","lat":43.29008,"lon":5.37562,"is_reserved":false,"is_disabled":false,"rental_uris":{"android":"levelo://app?vid=39827930-f053-4043-a453-706a64119c3e","ios":"levelo://app?vid=39827930-f053-4043-a453-706a64119c3e"},"vehicle_type_id":"4","last_reported":1769077028,"current_range_meters":5600,"station_id":"ce4bh692rcd13ifvqe90","pricing_plan_id":"cebpf4jnsgd1na2vs0mg"},{"bike_id":"fe2a828f-710f-491e-b529-f22ca09a8365","system_id":"levelo_inurba_marseille","lat":43.307406,"lon":5.409448,"is_reserved":false,"is_disabled":false,"rental_uris":{"android":"levelo://app?vid=fe2a828f-710f-491e-b529-f22ca09a8365","ios":"levelo://app?vid=fe2a828f-710f-491e-b529-f22ca09a8365"},"vehicle_type_id":"4","last_reported":1769077028,"current_range_meters":5600,"station_id":"","pricing_plan_id":"cebpf4jnsgd1na2vs0mg"},{"bike_id":"f3a01c85-86e9-4a7c-837b-602faf4bbfde","system_id":"levelo_inurba_marseille","lat":43.28013,"lon":5.38732,"is_reserved":false,"is_disabled":false,"rental_uris":{"android":"levelo://app?vid=f3a01c85-86e9-4a7c-837b-602faf4bbfde","ios":"levelo://app?vid=f3a01c85-86e9-4a7c-837b-602faf4bbfde"},"vehicle_type_id":"4","last_reported":1769077028,"current_range_meters":5600,"station_id":"ce4bhg12rcd13ifvqf80","pricing_plan_id":"cebpf4jnsgd1na2vs0mg"},{"bike_id":"55fa735a-cae7-4225-a980-b98e8f81ca14","system_id":"levelo_inurba_marseille","lat":43.29603,"lon":5.36758,"is_reserved":false,"is_disabled":false,"rental_uris":{"android":"levelo://app?vid=55fa735a-cae7-4225-a980-b98e8f81ca14","ios":"levelo://app?vid=55fa735a-cae7-4225-a980-b98e8f81ca14"},"vehicle_type_id":"4","last_reported":1769077028,"current_range_meters":5600,"station_id":"ce4bgph2rcd13ifvqc2g","pricing_plan_id":"cebpf4jnsgd1na2vs0mg"},{"bike_id":"dde7b0e0-bbd1-44de-82f6-999f8e69694c","system_id":"levelo_inurba_marseille","lat":43.25512,"lon":5.37666,"is_reserved":false,"is_disabled":false,"rental_uris":{"android":"levelo://app?vid=dde7b0e0-bbd1-44de-82f6-999f8e69694c","ios":"levelo://app?vid=dde7b0e0-bbd1-44de-82f6-999f8e69694c"},"vehicle_type_id":"4","last_reported":1769077028,"current_range_meters":5600,"station_id":"ce4bhh12rcd13ifvqff0","pricing_plan_id":"cebpf4jnsgd1na2vs0mg"},{"bike_id":"65f96bb7-fd33-4147-9938-36331ce08db5","system_id":"levelo_inurba_marseille","lat":43.264928,"lon":5.395379,"is_reserved":false,"is_disabled":false,"rental_uris":{"android":"levelo://app?vid=65f96bb7-fd33-4147-9938-36331ce08db5","ios":"levelo://app?vid=65f96bb7-fd33-4147-9938-36331ce08db5"},"vehicle_type_id":"4","last_reported":1769077028,"current_range_meters":5600,"station_id":"ce4bhi12rcd13ifvqfq0","pricing_plan_id":"cebpf4jnsgd1na2vs0mg"},{"bike_id":"a9df3bbb-0971-4360-a33a-b9fe3fbf9cca","system_id":"levelo_inurba_marseille","lat":43.30169,"lon":5.37469,"is_reserved":false,"is_disabled":false,"rental_uris":{"android":"levelo://app?vid=a9df3bbb-0971-4360-a33a-b9fe3fbf9cca","ios":"levelo://app?vid=a9df3bbb-0971-4360-a33a-b9fe3fbf9cca"},"vehicle_type_id":"4","last_reported":1769077028,"current_range_meters":5600,"station_id":"","pricing_plan_id":"cebpf4jnsgd1na2vs0mg"},{"bike_id":"3d3c635d-bdc1-420a-92f6-f7730f8a3248","system_id":"levelo_inurba_marseille","lat":43.30906,"lon":5.36849,"is_reserved":false,"is_disabled":false,"rental_uris":{"android":"levelo://app?vid=3d3c635d-bdc1-420a-92f6-f7730f8a3248","ios":"levelo://app?vid=3d3c635d-bdc1-420a-92f6-f7730f8a3248"},"vehicle_type_id":"4","last_reported":1769077028,"current_range_meters":5600,"station_id":"ce4bgn92rcd13ifvqbvg","pricing_plan_id":"cebpf4jnsgd1na2vs0mg"},{"bike_id":"488d3d36-c3f0-4390-80be-f0194a76248a","system_id":"levelo_inurba_marseille","lat":43.25583,"lon":5.40447,"is_reserved":false,"is_disabled":false,"rental_uris":{"android":"levelo://app?vid=488d3d36-c3f0-4390-80be-f0194a76248a","ios":"levelo://app?vid=488d3d36-c3f0-4390-80be-f0194a76248a"},"vehicle_type_id":"4","last_reported":1769077028,"current_range_meters":5600,"station_id":"","pricing_plan_id":"cebpf4jnsgd1na2vs0mg"},{"bike_id":"335b4deb-6220-4fd6-85ab-0630337a9269","system_id":"levelo_inurba_marseille","lat":43.29034,"lon":5.37554,"is_reserved":false,"is_disabled":false,"rental_uris":{"android":"levelo://app?vid=335b4deb-6220-4fd6-85ab-0630337a9269","ios":"levelo://app?vid=335b4deb-6220-4fd6-85ab-0630337a9269"},"vehicle_type_id":"4","last_reported":1769077028,"current_range_meters":5600,"station_id":"ce4bh692rcd13ifvqe90","pricing_plan_id":"cebpf4jnsgd1na2vs0mg"},{"bike_id":"885a9274-4c5d-4437-bf1a-9885def894a3","system_id":"levelo_inurba_marseille","lat":43.25868,"lon":5.39905,"is_reserved":false,"is_disabled":false,"rental_uris":{"android":"levelo://app?vid=885a9274-4c5d-4437-bf1a-9885def894a3","ios":"levelo://app?vid=885a9274-4c5d-4437-bf1a-9885def894a3"},"vehicle_type_id":"4","last_reported":1769077028,"current_range_meters":5600,"station_id":"ce4bhl92rcd13ifvqghg","pricing_plan_id":"cebpf4jnsgd1na2vs0mg"},{"bike_id":"a2424baa-0e5e-4ed2-9ae6-78591e46955c","system_id":"levelo_inurba_marseille","lat":43.28485,"lon":5.48407,"is_reserved":false,"is_disabled":false,"rental_uris":{"android":"levelo://app?vid=a2424baa-0e5e-4ed2-9ae6-78591e46955c","ios":"levelo://app?vid=a2424baa-0e5e-4ed2-9ae6-78591e46955c"},"vehicle_type_id":"4","last_reported":1769077028,"current_range_meters":5600,"station_id":"st_d3svhcjqgbts73a3dn0g","pricing_plan_id":"cebpf4jnsgd1na2vs0mg"},{"bike_id":"f3ca944e-2bbf-43b5-8f36-17ce10fc428d","system_id":"levelo_inurba_marseille","lat":43.28454,"lon":5.38421,"is_reserved":false,"is_disabled":false,"rental_uris":{"android":"levelo://app?vid=f3ca944e-2bbf-43b5-8f36-17ce10fc428d","ios":"levelo://app?vid=f3ca944e-2bbf-43b5-8f36-17ce10fc428d"},"vehicle_type_id":"4","last_reported":1769077028,"current_range_meters":5600,"station_id":"ce4bh512rcd13ifvqe3g","pricing_plan_id":"cebpf4jnsgd1na2vs0mg"},{"bike_id":"27b0016d-c938-4978-b432-1c4621b2dae1","system_id":"levelo_inurba_marseille","lat":43.28674,"lon":5.38655,"is_reserved":false,"is_disabled":false,"rental_uris":{"android":"levelo://app?vid=27b0016d-c938-4978-b432-1c4621b2dae1","ios":"levelo://app?vid=27b0016d-c938-4978-b432-1c4621b2dae1"},"vehicle_type_id":"4","last_reported":1769077028,"current_range_meters":5600,"station_id":"ce4bh492rcd13ifvqdug","pricing_plan_id":"cebpf4jnsgd1na2vs0mg"},{"bike_id":"91c6b80f-ebf8-40dd-9043-2f1efcca7d75","system_id":"levelo_inurba_marseille","lat":43.29506,"lon":5.38551,"is_reserved":false,"is_disabled":true,"rental_uris":{"android":"levelo://app?vid=91c6b80f-ebf8-40dd-9043-2f1efcca7d75","ios":"levelo://app?vid=91c6b80f-ebf8-40dd-9043-2f1efcca7d75"},"vehicle_type_id":"4","last_reported":1769077028,"current_range_meters":5600,"station_id":"ce4bgih2rcd13ifvqba0","pricing_plan_id":"cebpf4jnsgd1na2vs0mg"},{"bike_id":"f0c14022-26c7-4103-b4bb-7e3cc9d98b14","system_id":"levelo_inurba_marseille","lat":43.31327,"lon":5.3969,"is_reserved":false,"is_disabled":false,"rental_uris":{"android":"levelo://app?vid=f0c14022-26c7-4103-b4bb-7e3cc9d98b14","ios":"levelo://app?vid=f0c14022-26c7-4103-b4bb-7e3cc9d98b14"},"vehicle_type_id":"4","last_reported":1769077028,"current_range_meters":5600,"station_id":"ce4bgvp2rcd13ifvqcu0","pricing_plan_id":"cebpf4jnsgd1na2vs0mg"},{"bike_id":"2ff152df-2638-45a4-87e0-67ff6133f732","system_id":"levelo_inurba_marseille","lat":43.290958,"lon":5.38153,"is_reserved":false,"is_disabled":false,"rental_uris":{"android":"levelo://app?vid=2ff152df-2638-45a4-87e0-67ff6133f732","ios":"levelo://app?vid=2ff152df-2638-45a4-87e0-67ff6133f732"},"vehicle_type_id":"4","last_reported":1769077028,"current_range_meters":6000,"station_id":"ce4bh512rcd13ifvqe2g","pricing_plan_id":"cebpf4jnsgd1na2vs0mg"},{"bike_id":"efe98a95-3a21-49ba-9a6d-8fbeddac23c8","system_id":"levelo_inurba_marseille","lat":43.27988,"lon":5.41655,"is_reserved":false,"is_disabled":false,"rental_uris":{"android":"levelo://app?vid=efe98a95-3a21-49ba-9a6d-8fbeddac23c8","ios":"levelo://app?vid=efe98a95-3a21-49ba-9a6d-8fbeddac23c8"},"vehicle_type_id":"4","last_reported":1769077028,"current_range_meters":6000,"station_id":"ce4bho12rcd13ifvqh1g","pricing_plan_id":"cebpf4jnsgd1na2vs0mg"},{"bike_id":"ebc59118-e1a4-482d-84d0-eafb34b0b9ea","system_id":"levelo_inurba_marseille","lat":43.23777,"lon":5.36633,"is_reserved":false,"is_disabled":false,"rental_uris":{"android":"levelo://app?vid=ebc59118-e1a4-482d-84d0-eafb34b0b9ea","ios":"levelo://app?vid=ebc59118-e1a4-482d-84d0-eafb34b0b9ea"},"vehicle_type_id":"4","last_reported":1769077028,"current_range_meters":6000,"station_id":"st_d3nk18o9ro0c73en2l3g","pricing_plan_id":"cebpf4jnsgd1na2vs0mg"},{"bike_id":"fca00d5f-2997-436f-ba8d-58032d11c09e","system_id":"levelo_inurba_marseille","lat":43.2796,"lon":5.38724,"is_reserved":false,"is_disabled":false,"rental_uris":{"android":"levelo://app?vid=fca00d5f-2997-436f-ba8d-58032d11c09e","ios":"levelo://app?vid=fca00d5f-2997-436f-ba8d-58032d11c09e"},"vehicle_type_id":"4","last_reported":1769077028,"current_range_meters":6000,"station_id":"ce4bhg12rcd13ifvqf80","pricing_plan_id":"cebpf4jnsgd1na2vs0mg"},{"bike_id":"89ed926f-3e4d-41cb-9b6e-de7e79cd7586","system_id":"levelo_inurba_marseille","lat":43.29045,"lon":5.39997,"is_reserved":false,"is_disabled":false,"rental_uris":{"android":"levelo://app?vid=89ed926f-3e4d-41cb-9b6e-de7e79cd7586","ios":"levelo://app?vid=89ed926f-3e4d-41cb-9b6e-de7e79cd7586"},"vehicle_type_id":"4","last_reported":1769077028,"current_range_meters":6000,"station_id":"ce4bh392rcd13ifvqdm0","pricing_plan_id":"cebpf4jnsgd1na2vs0mg"},{"bike_id":"abb88afc-d82b-4ba7-ab70-224a7abe4dfa","system_id":"levelo_inurba_marseille","lat":43.32467,"lon":5.38272,"is_reserved":false,"is_disabled":false,"rental_uris":{"android":"levelo://app?vid=abb88afc-d82b-4ba7-ab70-224a7abe4dfa","ios":"levelo://app?vid=abb88afc-d82b-4ba7-ab70-224a7abe4dfa"},"vehicle_type_id":"4","last_reported":1769077028,"current_range_meters":6000,"station_id":"st_d4asgbiv49dc73anf9m0","pricing_plan_id":"cebpf4jnsgd1na2vs0mg"},{"bike_id":"607c435d-5fb0-4f63-b221-a58bdcfdc9c2","system_id":"levelo_inurba_marseille","lat":43.25015,"lon":5.389415,"is_reserved":false,"is_disabled":false,"rental_uris":{"android":"levelo://app?vid=607c435d-5fb0-4f63-b221-a58bdcfdc9c2","ios":"levelo://app?vid=607c435d-5fb0-4f63-b221-a58bdcfdc9c2"},"vehicle_type_id":"4","last_reported":1769077028,"current_range_meters":6000,"station_id":"ce4bhgp2rcd13ifvqfd0","pricing_plan_id":"cebpf4jnsgd1na2vs0mg"},{"bike_id":"24da7d1f-4c31-464c-8591-7c8451c98bcf","system_id":"levelo_inurba_marseille","lat":43.23145,"lon":5.43715,"is_reserved":false,"is_disabled":false,"rental_uris":{"android":"levelo://app?vid=24da7d1f-4c31-464c-8591-7c8451c98bcf","ios":"levelo://app?vid=24da7d1f-4c31-464c-8591-7c8451c98bcf"},"vehicle_type_id":"4","last_reported":1769077028,"current_range_meters":6000,"station_id":"ce4bhmp2rcd13ifvqgog","pricing_plan_id":"cebpf4jnsgd1na2vs0mg"},{"bike_id":"94d782ce-d646-4a15-909c-4c48f4840c8d","system_id":"levelo_inurba_marseille","lat":43.258182,"lon":5.394324,"is_reserved":false,"is_disabled":false,"rental_uris":{"android":"levelo://app?vid=94d782ce-d646-4a15-909c-4c48f4840c8d","ios":"levelo://app?vid=94d782ce-d646-4a15-909c-4c48f4840c8d"},"vehicle_type_id":"4","last_reported":1769077028,"current_range_meters":6000,"station_id":"ce4bhip2rcd13ifvqft0","pricing_plan_id":"cebpf4jnsgd1na2vs0mg"},{"bike_id":"20deef10-ed33-4ec9-9903-ad6ab49b17b3","system_id":"levelo_inurba_marseille","lat":43.24469,"lon":5.42543,"is_reserved":false,"is_disabled":false,"rental_uris":{"android":"levelo://app?vid=20deef10-ed33-4ec9-9903-ad6ab49b17b3","ios":"levelo://app?vid=20deef10-ed33-4ec9-9903-ad6ab49b17b3"},"vehicle_type_id":"4","last_reported":1769077028,"current_range_meters":6000,"station_id":"st_d4a3vfp97mjs738cd8kg","pricing_plan_id":"cebpf4jnsgd1na2vs0mg"},{"bike_id":"30471bf1-4e97-480f-9e18-3f7a93804303","system_id":"levelo_inurba_marseille","lat":43.24083,"lon":5.37763,"is_reserved":false,"is_disabled":false,"rental_uris":{"android":"levelo://app?vid=30471bf1-4e97-480f-9e18-3f7a93804303","ios":"levelo://app?vid=30471bf1-4e97-480f-9e18-3f7a93804303"},"vehicle_type_id":"4","last_reported":1769077028,"current_range_meters":6000,"station_id":"ce4bhnp2rcd13ifvqgvg","pricing_plan_id":"cebpf4jnsgd1na2vs0mg"},{"bike_id":"bf0e1269-679a-49a7-9979-fa1d1e5ab635","system_id":"levelo_inurba_marseille","lat":43.30429,"lon":5.39754,"is_reserved":false,"is_disabled":false,"rental_uris":{"android":"levelo://app?vid=bf0e1269-679a-49a7-9979-fa1d1e5ab635","ios":"levelo://app?vid=bf0e1269-679a-49a7-9979-fa1d1e5ab635"},"vehicle_type_id":"4","last_reported":1769077028,"current_range_meters":6000,"station_id":"ce4bh092rcd13ifvqd20","pricing_plan_id":"cebpf4jnsgd1na2vs0mg"},{"bike_id":"aa2389c6-95b9-4b5c-bc06-f3cfa4609a7d","system_id":"levelo_inurba_marseille","lat":43.24644,"lon":5.382,"is_reserved":false,"is_disabled":false,"rental_uris":{"android":"levelo://app?vid=aa2389c6-95b9-4b5c-bc06-f3cfa4609a7d","ios":"levelo://app?vid=aa2389c6-95b9-4b5c-bc06-f3cfa4609a7d"},"vehicle_type_id":"4","last_reported":1769077028,"current_range_meters":6000,"station_id":"ce4bhih2rcd13ifvqfr0","pricing_plan_id":"cebpf4jnsgd1na2vs0mg"},{"bike_id":"af0a3e3f-9d3a-4dab-b0c6-596d0f48c390","system_id":"levelo_inurba_marseille","lat":43.314987,"lon":5.373168,"is_reserved":false,"is_disabled":false,"rental_uris":{"android":"levelo://app?vid=af0a3e3f-9d3a-4dab-b0c6-596d0f48c390","ios":"levelo://app?vid=af0a3e3f-9d3a-4dab-b0c6-596d0f48c390"},"vehicle_type_id":"4","last_reported":1769077028,"current_range_meters":6400,"station_id":"","pricing_plan_id":"cebpf4jnsgd1na2vs0mg"},{"bike_id":"37a6ba89-0d66-46be-ad14-7de2d3d5b58b","system_id":"levelo_inurba_marseille","lat":43.2706,"lon":5.40256,"is_reserved":false,"is_disabled":false,"rental_uris":{"android":"levelo://app?vid=37a6ba89-0d66-46be-ad14-7de2d3d5b58b","ios":"levelo://app?vid=37a6ba89-0d66-46be-ad14-7de2d3d5b58b"},"vehicle_type_id":"4","last_reported":1769077028,"current_range_meters":6400,"station_id":"ce4bhk92rcd13ifvqgc0","pricing_plan_id":"cebpf4jnsgd1na2vs0mg"},{"bike_id":"bd3222b3-dffe-4214-a25c-da1b23e1c71b","system_id":"levelo_inurba_marseille","lat":43.32348,"lon":5.36744,"is_reserved":false,"is_disabled":false,"rental_uris":{"android":"levelo://app?vid=bd3222b3-dffe-4214-a25c-da1b23e1c71b","ios":"levelo://app?vid=bd3222b3-dffe-4214-a25c-da1b23e1c71b"},"vehicle_type_id":"4","last_reported":1769077028,"current_range_meters":6400,"station_id":"ce4bhsh2rcd13ifvqi2g","pricing_plan_id":"cebpf4jnsgd1na2vs0mg"},{"bike_id":"80551c18-16ce-4a4b-a7ff-5eb753d87f9b","system_id":"levelo_inurba_marseille","lat":43.28925,"lon":5.36662,"is_reserved":false,"is_disabled":false,"rental_uris":{"android":"levelo://app?vid=80551c18-16ce-4a4b-a7ff-5eb753d87f9b","ios":"levelo://app?vid=80551c18-16ce-4a4b-a7ff-5eb753d87f9b"},"vehicle_type_id":"4","last_reported":1769077028,"current_range_meters":6400,"station_id":"ce4bhap2rcd13ifvqek0","pricing_plan_id":"cebpf4jnsgd1na2vs0mg"},{"bike_id":"ffb7bb4c-ac51-420f-a1d1-31accb6b8746","system_id":"levelo_inurba_marseille","lat":43.29527,"lon":5.3854,"is_reserved":false,"is_disabled":false,"rental_uris":{"android":"levelo://app?vid=ffb7bb4c-ac51-420f-a1d1-31accb6b8746","ios":"levelo://app?vid=ffb7bb4c-ac51-420f-a1d1-31accb6b8746"},"vehicle_type_id":"4","last_reported":1769077028,"current_range_meters":6400,"station_id":"ce4bgih2rcd13ifvqba0","pricing_plan_id":"cebpf4jnsgd1na2vs0mg"},{"bike_id":"c5ce8352-3569-43f4-b61c-9c49854b9ea4","system_id":"levelo_inurba_marseille","lat":43.26564,"lon":5.37313,"is_reserved":false,"is_disabled":false,"rental_uris":{"android":"levelo://app?vid=c5ce8352-3569-43f4-b61c-9c49854b9ea4","ios":"levelo://app?vid=c5ce8352-3569-43f4-b61c-9c49854b9ea4"},"vehicle_type_id":"4","last_reported":1769077028,"current_range_meters":6400,"station_id":"ce4bhg12rcd13ifvqf70","pricing_plan_id":"cebpf4jnsgd1na2vs0mg"},{"bike_id":"d8f34b5e-d831-4a3d-8643-93f2f2dfecae","system_id":"levelo_inurba_marseille","lat":43.241647,"lon":5.36407,"is_reserved":false,"is_disabled":true,"rental_uris":{"android":"levelo://app?vid=d8f34b5e-d831-4a3d-8643-93f2f2dfecae","ios":"levelo://app?vid=d8f34b5e-d831-4a3d-8643-93f2f2dfecae"},"vehicle_type_id":"4","last_reported":1769077028,"current_range_meters":6400,"station_id":"cpo36qri1sfpv3e86is0","pricing_plan_id":"cebpf4jnsgd1na2vs0mg"},{"bike_id":"3998b630-1550-4129-b95e-2d12a38501a1","system_id":"levelo_inurba_marseille","lat":43.25592,"lon":5.38224,"is_reserved":false,"is_disabled":false,"rental_uris":{"android":"levelo://app?vid=3998b630-1550-4129-b95e-2d12a38501a1","ios":"levelo://app?vid=3998b630-1550-4129-b95e-2d12a38501a1"},"vehicle_type_id":"4","last_reported":1769077028,"current_range_meters":6400,"station_id":"ce4bhih2rcd13ifvqfs0","pricing_plan_id":"cebpf4jnsgd1na2vs0mg"},{"bike_id":"d14d161e-5e90-4823-979e-452e09a9b254","system_id":"levelo_inurba_marseille","lat":43.30962,"lon":5.39041,"is_reserved":false,"is_disabled":false,"rental_uris":{"android":"levelo://app?vid=d14d161e-5e90-4823-979e-452e09a9b254","ios":"levelo://app?vid=d14d161e-5e90-4823-979e-452e09a9b254"},"vehicle_type_id":"4","last_reported":1769077028,"current_range_meters":6400,"station_id":"ce4bgup2rcd13ifvqco0","pricing_plan_id":"cebpf4jnsgd1na2vs0mg"},{"bike_id":"aec5c08c-9f05-47e9-bb02-2d63b83fc483","system_id":"levelo_inurba_marseille","lat":43.26818,"lon":5.39246,"is_reserved":false,"is_disabled":false,"rental_uris":{"android":"levelo://app?vid=aec5c08c-9f05-47e9-bb02-2d63b83fc483","ios":"levelo://app?vid=aec5c08c-9f05-47e9-bb02-2d63b83fc483"},"vehicle_type_id":"4","last_reported":1769077028,"current_range_meters":6400,"station_id":"","pricing_plan_id":"cebpf4jnsgd1na2vs0mg"},{"bike_id":"1663b26f-83bd-42e7-acef-c5242755b042","system_id":"levelo_inurba_marseille","lat":43.27052,"lon":5.4029,"is_reserved":false,"is_disabled":false,"rental_uris":{"android":"levelo://app?vid=1663b26f-83bd-42e7-acef-c5242755b042","ios":"levelo://app?vid=1663b26f-83bd-42e7-acef-c5242755b042"},"vehicle_type_id":"4","last_reported":1769077028,"current_range_meters":6400,"station_id":"ce4bhk92rcd13ifvqgc0","pricing_plan_id":"cebpf4jnsgd1na2vs0mg"},{"bike_id":"34f1985a-bd26-4e1f-8660-e000031e3ca5","system_id":"levelo_inurba_marseille","lat":43.23073,"lon":5.35494,"is_reserved":false,"is_disabled":false,"rental_uris":{"android":"levelo://app?vid=34f1985a-bd26-4e1f-8660-e000031e3ca5","ios":"levelo://app?vid=34f1985a-bd26-4e1f-8660-e000031e3ca5"},"vehicle_type_id":"4","last_reported":1769077028,"current_range_meters":6400,"station_id":"cpo3342slgdg3j2ifvpg","pricing_plan_id":"cebpf4jnsgd1na2vs0mg"},{"bike_id":"133dd31b-7e8b-494a-b027-d9d75407821f","system_id":"levelo_inurba_marseille","lat":43.32453,"lon":5.3655,"is_reserved":false,"is_disabled":false,"rental_uris":{"android":"levelo://app?vid=133dd31b-7e8b-494a-b027-d9d75407821f","ios":"levelo://app?vid=133dd31b-7e8b-494a-b027-d9d75407821f"},"vehicle_type_id":"4","last_reported":1769077028,"current_range_meters":6400,"station_id":"ce4bhs12rcd13ifvqhvg","pricing_plan_id":"cebpf4jnsgd1na2vs0mg"},{"bike_id":"a7dca984-2a89-4f7d-a4b2-c4b75083a65d","system_id":"levelo_inurba_marseille","lat":43.24649,"lon":5.38882,"is_reserved":false,"is_disabled":false,"rental_uris":{"android":"levelo://app?vid=a7dca984-2a89-4f7d-a4b2-c4b75083a65d","ios":"levelo://app?vid=a7dca984-2a89-4f7d-a4b2-c4b75083a65d"},"vehicle_type_id":"4","last_reported":1769077028,"current_range_meters":6400,"station_id":"ce4bh392rcd13ifvqdl0","pricing_plan_id":"cebpf4jnsgd1na2vs0mg"},{"bike_id":"a96a01db-98ce-4cbc-b9c1-ee02504443ae","system_id":"levelo_inurba_marseille","lat":43.30417,"lon":5.39749,"is_reserved":false,"is_disabled":false,"rental_uris":{"android":"levelo://app?vid=a96a01db-98ce-4cbc-b9c1-ee02504443ae","ios":"levelo://app?vid=a96a01db-98ce-4cbc-b9c1-ee02504443ae"},"vehicle_type_id":"4","last_reported":1769077028,"current_range_meters":6400,"station_id":"ce4bh092rcd13ifvqd20","pricing_plan_id":"cebpf4jnsgd1na2vs0mg"},{"bike_id":"737cdf6e-8c2e-4b43-8e7d-478c69e4c6a4","system_id":"levelo_inurba_marseille","lat":43.33076,"lon":5.39016,"is_reserved":false,"is_disabled":false,"rental_uris":{"android":"levelo://app?vid=737cdf6e-8c2e-4b43-8e7d-478c69e4c6a4","ios":"levelo://app?vid=737cdf6e-8c2e-4b43-8e7d-478c69e4c6a4"},"vehicle_type_id":"4","last_reported":1769077028,"current_range_meters":6400,"station_id":"","pricing_plan_id":"cebpf4jnsgd1na2vs0mg"},{"bike_id":"a9d2cbb9-b682-43b1-9072-2e382fcdc0f1","system_id":"levelo_inurba_marseille","lat":43.2445,"lon":5.42563,"is_reserved":false,"is_disabled":false,"rental_uris":{"android":"levelo://app?vid=a9d2cbb9-b682-43b1-9072-2e382fcdc0f1","ios":"levelo://app?vid=a9d2cbb9-b682-43b1-9072-2e382fcdc0f1"},"vehicle_type_id":"4","last_reported":1769077028,"current_range_meters":6800,"station_id":"st_d4a3vfp97mjs738cd8kg","pricing_plan_id":"cebpf4jnsgd1na2vs0mg"},{"bike_id":"fc5d102e-6a36-4a5b-99d5-23cf30eec9b5","system_id":"levelo_inurba_marseille","lat":43.23199,"lon":5.35555,"is_reserved":false,"is_disabled":false,"rental_uris":{"android":"levelo://app?vid=fc5d102e-6a36-4a5b-99d5-23cf30eec9b5","ios":"levelo://app?vid=fc5d102e-6a36-4a5b-99d5-23cf30eec9b5"},"vehicle_type_id":"4","last_reported":1769077028,"current_range_meters":6800,"station_id":"ce4bhu92rcd13ifvqi70","pricing_plan_id":"cebpf4jnsgd1na2vs0mg"},{"bike_id":"96211231-e125-49f0-8cc9-82b3d3d6626e","system_id":"levelo_inurba_marseille","lat":43.25887,"lon":5.40996,"is_reserved":false,"is_disabled":false,"rental_uris":{"android":"levelo://app?vid=96211231-e125-49f0-8cc9-82b3d3d6626e","ios":"levelo://app?vid=96211231-e125-49f0-8cc9-82b3d3d6626e"},"vehicle_type_id":"4","last_reported":1769077028,"current_range_meters":6800,"station_id":"","pricing_plan_id":"cebpf4jnsgd1na2vs0mg"},{"bike_id":"f6eb85c1-f53f-4dc1-8797-0471cff4e32e","system_id":"levelo_inurba_marseille","lat":43.28528,"lon":5.39084,"is_reserved":false,"is_disabled":false,"rental_uris":{"android":"levelo://app?vid=f6eb85c1-f53f-4dc1-8797-0471cff4e32e","ios":"levelo://app?vid=f6eb85c1-f53f-4dc1-8797-0471cff4e32e"},"vehicle_type_id":"4","last_reported":1769077028,"current_range_meters":6800,"station_id":"","pricing_plan_id":"cebpf4jnsgd1na2vs0mg"},{"bike_id":"01c732cc-5cd6-4f68-aa5b-bba65270e62e","system_id":"levelo_inurba_marseille","lat":43.30965,"lon":5.39069,"is_reserved":false,"is_disabled":false,"rental_uris":{"android":"levelo://app?vid=01c732cc-5cd6-4f68-aa5b-bba65270e62e","ios":"levelo://app?vid=01c732cc-5cd6-4f68-aa5b-bba65270e62e"},"vehicle_type_id":"4","last_reported":1769077028,"current_range_meters":6800,"station_id":"ce4bgup2rcd13ifvqco0","pricing_plan_id":"cebpf4jnsgd1na2vs0mg"},{"bike_id":"811e4109-4554-441e-908e-4c588b5c7adf","system_id":"levelo_inurba_marseille","lat":43.297299,"lon":5.368883,"is_reserved":false,"is_disabled":false,"rental_uris":{"android":"levelo://app?vid=811e4109-4554-441e-908e-4c588b5c7adf","ios":"levelo://app?vid=811e4109-4554-441e-908e-4c588b5c7adf"},"vehicle_type_id":"4","last_reported":1769077028,"current_range_meters":6800,"station_id":"","pricing_plan_id":"cebpf4jnsgd1na2vs0mg"},{"bike_id":"cbb058f5-b371-4f6c-86fd-5605f3c7db55","system_id":"levelo_inurba_marseille","lat":43.30926,"lon":5.40146,"is_reserved":false,"is_disabled":false,"rental_uris":{"android":"levelo://app?vid=cbb058f5-b371-4f6c-86fd-5605f3c7db55","ios":"levelo://app?vid=cbb058f5-b371-4f6c-86fd-5605f3c7db55"},"vehicle_type_id":"4","last_reported":1769077028,"current_range_meters":6800,"station_id":"ce4bgvp2rcd13ifvqct0","pricing_plan_id":"cebpf4jnsgd1na2vs0mg"},{"bike_id":"23a4afae-de50-43f1-9f93-9e3fdc29e476","system_id":"levelo_inurba_marseille","lat":43.31356,"lon":5.3849,"is_reserved":false,"is_disabled":false,"rental_uris":{"android":"levelo://app?vid=23a4afae-de50-43f1-9f93-9e3fdc29e476","ios":"levelo://app?vid=23a4afae-de50-43f1-9f93-9e3fdc29e476"},"vehicle_type_id":"4","last_reported":1769077028,"current_range_meters":6800,"station_id":"ce4bgt92rcd13ifvqcf0","pricing_plan_id":"cebpf4jnsgd1na2vs0mg"},{"bike_id":"33299776-2c9b-4959-8c33-6a412a8deb29","system_id":"levelo_inurba_marseille","lat":43.23149,"lon":5.43739,"is_reserved":false,"is_disabled":false,"rental_uris":{"android":"levelo://app?vid=33299776-2c9b-4959-8c33-6a412a8deb29","ios":"levelo://app?vid=33299776-2c9b-4959-8c33-6a412a8deb29"},"vehicle_type_id":"4","last_reported":1769077028,"current_range_meters":6800,"station_id":"ce4bhmp2rcd13ifvqgog","pricing_plan_id":"cebpf4jnsgd1na2vs0mg"},{"bike_id":"63550df3-d87e-4087-bfb2-31599e2ca646","system_id":"levelo_inurba_marseille","lat":43.25816,"lon":5.394354,"is_reserved":false,"is_disabled":false,"rental_uris":{"android":"levelo://app?vid=63550df3-d87e-4087-bfb2-31599e2ca646","ios":"levelo://app?vid=63550df3-d87e-4087-bfb2-31599e2ca646"},"vehicle_type_id":"4","last_reported":1769077028,"current_range_meters":6800,"station_id":"ce4bhip2rcd13ifvqft0","pricing_plan_id":"cebpf4jnsgd1na2vs0mg"},{"bike_id":"b05d35a6-a4b1-4f68-ab22-eac501a6370f","system_id":"levelo_inurba_marseille","lat":43.32355,"lon":5.36745,"is_reserved":false,"is_disabled":false,"rental_uris":{"android":"levelo://app?vid=b05d35a6-a4b1-4f68-ab22-eac501a6370f","ios":"levelo://app?vid=b05d35a6-a4b1-4f68-ab22-eac501a6370f"},"vehicle_type_id":"4","last_reported":1769077028,"current_range_meters":6800,"station_id":"ce4bhsh2rcd13ifvqi2g","pricing_plan_id":"cebpf4jnsgd1na2vs0mg"},{"bike_id":"1a3a0437-b48a-4c95-9ddc-47cf70ba0ca8","system_id":"levelo_inurba_marseille","lat":43.30946,"lon":5.39052,"is_reserved":false,"is_disabled":false,"rental_uris":{"android":"levelo://app?vid=1a3a0437-b48a-4c95-9ddc-47cf70ba0ca8","ios":"levelo://app?vid=1a3a0437-b48a-4c95-9ddc-47cf70ba0ca8"},"vehicle_type_id":"4","last_reported":1769077028,"current_range_meters":6800,"station_id":"ce4bgup2rcd13ifvqco0","pricing_plan_id":"cebpf4jnsgd1na2vs0mg"},{"bike_id":"e3fe8bab-9b08-44ae-bcfb-5f41b4700269","system_id":"levelo_inurba_marseille","lat":43.24664,"lon":5.38152,"is_reserved":false,"is_disabled":false,"rental_uris":{"android":"levelo://app?vid=e3fe8bab-9b08-44ae-bcfb-5f41b4700269","ios":"levelo://app?vid=e3fe8bab-9b08-44ae-bcfb-5f41b4700269"},"vehicle_type_id":"4","last_reported":1769077028,"current_range_meters":6800,"station_id":"ce4bhih2rcd13ifvqfr0","pricing_plan_id":"cebpf4jnsgd1na2vs0mg"},{"bike_id":"53bcc5bd-2ed3-431d-8ce9-6a3cc9f0faca","system_id":"levelo_inurba_marseille","lat":43.24802,"lon":5.37452,"is_reserved":false,"is_disabled":false,"rental_uris":{"android":"levelo://app?vid=53bcc5bd-2ed3-431d-8ce9-6a3cc9f0faca","ios":"levelo://app?vid=53bcc5bd-2ed3-431d-8ce9-6a3cc9f0faca"},"vehicle_type_id":"4","last_reported":1769077028,"current_range_meters":6800,"station_id":"ce4bhgh2rcd13ifvqfb0","pricing_plan_id":"cebpf4jnsgd1na2vs0mg"},{"bike_id":"232afcd8-1d69-488e-b4c2-da7c066e27b7","system_id":"levelo_inurba_marseille","lat":43.2799,"lon":5.40036,"is_reserved":false,"is_disabled":false,"rental_uris":{"android":"levelo://app?vid=232afcd8-1d69-488e-b4c2-da7c066e27b7","ios":"levelo://app?vid=232afcd8-1d69-488e-b4c2-da7c066e27b7"},"vehicle_type_id":"4","last_reported":1769077028,"current_range_meters":6800,"station_id":"ce4bho92rcd13ifvqh4g","pricing_plan_id":"cebpf4jnsgd1na2vs0mg"},{"bike_id":"62931247-4aff-4f68-9011-cb1aa7863151","system_id":"levelo_inurba_marseille","lat":43.25553,"lon":5.38258,"is_reserved":false,"is_disabled":false,"rental_uris":{"android":"levelo://app?vid=62931247-4aff-4f68-9011-cb1aa7863151","ios":"levelo://app?vid=62931247-4aff-4f68-9011-cb1aa7863151"},"vehicle_type_id":"4","last_reported":1769077028,"current_range_meters":6800,"station_id":"ce4bhih2rcd13ifvqfs0","pricing_plan_id":"cebpf4jnsgd1na2vs0mg"},{"bike_id":"5b8789d8-8a74-46cb-9a03-3650cf54c996","system_id":"levelo_inurba_marseille","lat":43.24644,"lon":5.43166,"is_reserved":false,"is_disabled":false,"rental_uris":{"android":"levelo://app?vid=5b8789d8-8a74-46cb-9a03-3650cf54c996","ios":"levelo://app?vid=5b8789d8-8a74-46cb-9a03-3650cf54c996"},"vehicle_type_id":"4","last_reported":1769077028,"current_range_meters":6800,"station_id":"st_d2m6c4gdas8pm72e190g","pricing_plan_id":"cebpf4jnsgd1na2vs0mg"},{"bike_id":"af3e4ec7-913b-43cf-991c-29cf9d90a50c","system_id":"levelo_inurba_marseille","lat":43.31089,"lon":5.3717,"is_reserved":false,"is_disabled":false,"rental_uris":{"android":"levelo://app?vid=af3e4ec7-913b-43cf-991c-29cf9d90a50c","ios":"levelo://app?vid=af3e4ec7-913b-43cf-991c-29cf9d90a50c"},"vehicle_type_id":"4","last_reported":1769077028,"current_range_meters":6800,"station_id":"st_d4kl2rp97mjs73e7tdfg","pricing_plan_id":"cebpf4jnsgd1na2vs0mg"},{"bike_id":"7cdafa4b-9668-4d06-b7c8-067188a44316","system_id":"levelo_inurba_marseille","lat":43.24665,"lon":5.38171,"is_reserved":false,"is_disabled":false,"rental_uris":{"android":"levelo://app?vid=7cdafa4b-9668-4d06-b7c8-067188a44316","ios":"levelo://app?vid=7cdafa4b-9668-4d06-b7c8-067188a44316"},"vehicle_type_id":"4","last_reported":1769077028,"current_range_meters":6800,"station_id":"ce4bhih2rcd13ifvqfr0","pricing_plan_id":"cebpf4jnsgd1na2vs0mg"},{"bike_id":"756842e0-b53e-46c2-a183-413f67f1a28f","system_id":"levelo_inurba_marseille","lat":43.30462,"lon":5.37914,"is_reserved":false,"is_disabled":false,"rental_uris":{"android":"levelo://app?vid=756842e0-b53e-46c2-a183-413f67f1a28f","ios":"levelo://app?vid=756842e0-b53e-46c2-a183-413f67f1a28f"},"vehicle_type_id":"4","last_reported":1769077028,"current_range_meters":7200,"station_id":"ce4bgup2rcd13ifvqcn0","pricing_plan_id":"cebpf4jnsgd1na2vs0mg"},{"bike_id":"5d7c7859-ff96-4e9c-be77-fd7bfbaff711","system_id":"levelo_inurba_marseille","lat":43.28984,"lon":5.37835,"is_reserved":false,"is_disabled":false,"rental_uris":{"android":"levelo://app?vid=5d7c7859-ff96-4e9c-be77-fd7bfbaff711","ios":"levelo://app?vid=5d7c7859-ff96-4e9c-be77-fd7bfbaff711"},"vehicle_type_id":"4","last_reported":1769077028,"current_range_meters":7200,"station_id":"ce4bh9p2rcd13ifvqed0","pricing_plan_id":"cebpf4jnsgd1na2vs0mg"},{"bike_id":"b1497b8a-91a3-4219-9714-db397e11f82b","system_id":"levelo_inurba_marseille","lat":43.30459,"lon":5.37892,"is_reserved":false,"is_disabled":false,"rental_uris":{"android":"levelo://app?vid=b1497b8a-91a3-4219-9714-db397e11f82b","ios":"levelo://app?vid=b1497b8a-91a3-4219-9714-db397e11f82b"},"vehicle_type_id":"4","last_reported":1769077028,"current_range_meters":7200,"station_id":"ce4bgup2rcd13ifvqcn0","pricing_plan_id":"cebpf4jnsgd1na2vs0mg"},{"bike_id":"d8344329-153b-4a08-9de8-fc84530e10b9","system_id":"levelo_inurba_marseille","lat":43.23762,"lon":5.36643,"is_reserved":false,"is_disabled":false,"rental_uris":{"android":"levelo://app?vid=d8344329-153b-4a08-9de8-fc84530e10b9","ios":"levelo://app?vid=d8344329-153b-4a08-9de8-fc84530e10b9"},"vehicle_type_id":"4","last_reported":1769077028,"current_range_meters":7200,"station_id":"st_d3nk18o9ro0c73en2l3g","pricing_plan_id":"cebpf4jnsgd1na2vs0mg"},{"bike_id":"4b5aa404-a223-4202-a9b4-4364010f0fb4","system_id":"levelo_inurba_marseille","lat":43.33763,"lon":5.37473,"is_reserved":false,"is_disabled":false,"rental_uris":{"android":"levelo://app?vid=4b5aa404-a223-4202-a9b4-4364010f0fb4","ios":"levelo://app?vid=4b5aa404-a223-4202-a9b4-4364010f0fb4"},"vehicle_type_id":"4","last_reported":1769077028,"current_range_meters":7200,"station_id":"","pricing_plan_id":"cebpf4jnsgd1na2vs0mg"},{"bike_id":"d0beaf5f-1f3b-4f97-a0ef-f95a1b765e55","system_id":"levelo_inurba_marseille","lat":43.30149,"lon":5.38082,"is_reserved":false,"is_disabled":false,"rental_uris":{"android":"levelo://app?vid=d0beaf5f-1f3b-4f97-a0ef-f95a1b765e55","ios":"levelo://app?vid=d0beaf5f-1f3b-4f97-a0ef-f95a1b765e55"},"vehicle_type_id":"4","last_reported":1769077028,"current_range_meters":7200,"station_id":"ce4bgjp2rcd13ifvqbh0","pricing_plan_id":"cebpf4jnsgd1na2vs0mg"},{"bike_id":"ccd513f0-682d-43a5-94d9-74b311e185d1","system_id":"levelo_inurba_marseille","lat":43.30515,"lon":5.36534,"is_reserved":false,"is_disabled":false,"rental_uris":{"android":"levelo://app?vid=ccd513f0-682d-43a5-94d9-74b311e185d1","ios":"levelo://app?vid=ccd513f0-682d-43a5-94d9-74b311e185d1"},"vehicle_type_id":"4","last_reported":1769077028,"current_range_meters":7200,"station_id":"","pricing_plan_id":"cebpf4jnsgd1na2vs0mg"},{"bike_id":"f98220fc-889d-44fd-83c4-b74d36c9d0de","system_id":"levelo_inurba_marseille","lat":43.30126,"lon":5.43118,"is_reserved":false,"is_disabled":false,"rental_uris":{"android":"levelo://app?vid=f98220fc-889d-44fd-83c4-b74d36c9d0de","ios":"levelo://app?vid=f98220fc-889d-44fd-83c4-b74d36c9d0de"},"vehicle_type_id":"4","last_reported":1769077028,"current_range_meters":7200,"station_id":"st_d3js3co5814s73ftftug","pricing_plan_id":"cebpf4jnsgd1na2vs0mg"},{"bike_id":"9d86a94f-f259-4bff-8fc3-bc1bf1b477e4","system_id":"levelo_inurba_marseille","lat":43.25861,"lon":5.41819,"is_reserved":false,"is_disabled":false,"rental_uris":{"android":"levelo://app?vid=9d86a94f-f259-4bff-8fc3-bc1bf1b477e4","ios":"levelo://app?vid=9d86a94f-f259-4bff-8fc3-bc1bf1b477e4"},"vehicle_type_id":"4","last_reported":1769077028,"current_range_meters":7200,"station_id":"","pricing_plan_id":"cebpf4jnsgd1na2vs0mg"},{"bike_id":"9442084c-3381-47e8-b2dc-95ca76f97342","system_id":"levelo_inurba_marseille","lat":43.25001,"lon":5.38939,"is_reserved":false,"is_disabled":false,"rental_uris":{"android":"levelo://app?vid=9442084c-3381-47e8-b2dc-95ca76f97342","ios":"levelo://app?vid=9442084c-3381-47e8-b2dc-95ca76f97342"},"vehicle_type_id":"4","last_reported":1769077028,"current_range_meters":7200,"station_id":"ce4bhgp2rcd13ifvqfd0","pricing_plan_id":"cebpf4jnsgd1na2vs0mg"},{"bike_id":"f39628e7-f451-4af8-80af-ee31b074b0b2","system_id":"levelo_inurba_marseille","lat":43.285397,"lon":5.440948,"is_reserved":false,"is_disabled":false,"rental_uris":{"android":"levelo://app?vid=f39628e7-f451-4af8-80af-ee31b074b0b2","ios":"levelo://app?vid=f39628e7-f451-4af8-80af-ee31b074b0b2"},"vehicle_type_id":"4","last_reported":1769077028,"current_range_meters":7200,"station_id":"st_d3j3df2ikq2c7380ej80","pricing_plan_id":"cebpf4jnsgd1na2vs0mg"},{"bike_id":"83c3a2c7-0115-43b5-9acf-ed514a8e39b8","system_id":"levelo_inurba_marseille","lat":43.2918,"lon":5.39348,"is_reserved":false,"is_disabled":false,"rental_uris":{"android":"levelo://app?vid=83c3a2c7-0115-43b5-9acf-ed514a8e39b8","ios":"levelo://app?vid=83c3a2c7-0115-43b5-9acf-ed514a8e39b8"},"vehicle_type_id":"4","last_reported":1769077028,"current_range_meters":7200,"station_id":"ce4bh192rcd13ifvqdd0","pricing_plan_id":"cebpf4jnsgd1na2vs0mg"},{"bike_id":"6fedd87d-43f4-49d4-8c29-92430be6252f","system_id":"levelo_inurba_marseille","lat":43.28074,"lon":5.36674,"is_reserved":false,"is_disabled":false,"rental_uris":{"android":"levelo://app?vid=6fedd87d-43f4-49d4-8c29-92430be6252f","ios":"levelo://app?vid=6fedd87d-43f4-49d4-8c29-92430be6252f"},"vehicle_type_id":"4","last_reported":1769077028,"current_range_meters":7200,"station_id":"","pricing_plan_id":"cebpf4jnsgd1na2vs0mg"},{"bike_id":"66b52710-c980-4dbe-934a-c3e8ffc0f9e1","system_id":"levelo_inurba_marseille","lat":43.33157,"lon":5.37684,"is_reserved":false,"is_disabled":false,"rental_uris":{"android":"levelo://app?vid=66b52710-c980-4dbe-934a-c3e8ffc0f9e1","ios":"levelo://app?vid=66b52710-c980-4dbe-934a-c3e8ffc0f9e1"},"vehicle_type_id":"4","last_reported":1769077028,"current_range_meters":7200,"station_id":"st_d46cu089ee8s73dldbu0","pricing_plan_id":"cebpf4jnsgd1na2vs0mg"},{"bike_id":"22bc6d8e-7e0c-4234-afe0-c88e2589ac70","system_id":"levelo_inurba_marseille","lat":43.27084,"lon":5.39886,"is_reserved":false,"is_disabled":false,"rental_uris":{"android":"levelo://app?vid=22bc6d8e-7e0c-4234-afe0-c88e2589ac70","ios":"levelo://app?vid=22bc6d8e-7e0c-4234-afe0-c88e2589ac70"},"vehicle_type_id":"4","last_reported":1769077028,"current_range_meters":7200,"station_id":"","pricing_plan_id":"cebpf4jnsgd1na2vs0mg"},{"bike_id":"cab66220-3a5f-4db2-a4cc-4d6a96578d3b","system_id":"levelo_inurba_marseille","lat":43.30141,"lon":5.38106,"is_reserved":false,"is_disabled":false,"rental_uris":{"android":"levelo://app?vid=cab66220-3a5f-4db2-a4cc-4d6a96578d3b","ios":"levelo://app?vid=cab66220-3a5f-4db2-a4cc-4d6a96578d3b"},"vehicle_type_id":"4","last_reported":1769077028,"current_range_meters":7200,"station_id":"ce4bgjp2rcd13ifvqbh0","pricing_plan_id":"cebpf4jnsgd1na2vs0mg"},{"bike_id":"d68cd528-87dc-4a28-8471-721b0cea6df0","system_id":"levelo_inurba_marseille","lat":43.281725,"lon":5.392338,"is_reserved":false,"is_disabled":false,"rental_uris":{"android":"levelo://app?vid=d68cd528-87dc-4a28-8471-721b0cea6df0","ios":"levelo://app?vid=d68cd528-87dc-4a28-8471-721b0cea6df0"},"vehicle_type_id":"4","last_reported":1769077028,"current_range_meters":7200,"station_id":"","pricing_plan_id":"cebpf4jnsgd1na2vs0mg"},{"bike_id":"14a8ee4e-79d5-40ba-9f2d-be4d84ed1852","system_id":"levelo_inurba_marseille","lat":43.23151,"lon":5.43724,"is_reserved":false,"is_disabled":false,"rental_uris":{"android":"levelo://app?vid=14a8ee4e-79d5-40ba-9f2d-be4d84ed1852","ios":"levelo://app?vid=14a8ee4e-79d5-40ba-9f2d-be4d84ed1852"},"vehicle_type_id":"4","last_reported":1769077028,"current_range_meters":7200,"station_id":"ce4bhmp2rcd13ifvqgog","pricing_plan_id":"cebpf4jnsgd1na2vs0mg"},{"bike_id":"30f7428d-5c9b-46c4-9d00-dbf16f0f1b3b","system_id":"levelo_inurba_marseille","lat":43.24094,"lon":5.37759,"is_reserved":false,"is_disabled":false,"rental_uris":{"android":"levelo://app?vid=30f7428d-5c9b-46c4-9d00-dbf16f0f1b3b","ios":"levelo://app?vid=30f7428d-5c9b-46c4-9d00-dbf16f0f1b3b"},"vehicle_type_id":"4","last_reported":1769077028,"current_range_meters":7200,"station_id":"ce4bhnp2rcd13ifvqgvg","pricing_plan_id":"cebpf4jnsgd1na2vs0mg"},{"bike_id":"596c41c7-2beb-4c3c-8922-aa97d708cd66","system_id":"levelo_inurba_marseille","lat":43.32353,"lon":5.36757,"is_reserved":false,"is_disabled":false,"rental_uris":{"android":"levelo://app?vid=596c41c7-2beb-4c3c-8922-aa97d708cd66","ios":"levelo://app?vid=596c41c7-2beb-4c3c-8922-aa97d708cd66"},"vehicle_type_id":"4","last_reported":1769077028,"current_range_meters":7200,"station_id":"ce4bhsh2rcd13ifvqi2g","pricing_plan_id":"cebpf4jnsgd1na2vs0mg"},{"bike_id":"3206456b-45fe-4b57-ad6e-10515c2f78b7","system_id":"levelo_inurba_marseille","lat":43.24469,"lon":5.42555,"is_reserved":false,"is_disabled":false,"rental_uris":{"android":"levelo://app?vid=3206456b-45fe-4b57-ad6e-10515c2f78b7","ios":"levelo://app?vid=3206456b-45fe-4b57-ad6e-10515c2f78b7"},"vehicle_type_id":"4","last_reported":1769077028,"current_range_meters":7200,"station_id":"st_d4a3vfp97mjs738cd8kg","pricing_plan_id":"cebpf4jnsgd1na2vs0mg"},{"bike_id":"dfb6b791-badd-4621-9306-ea3c833e2455","system_id":"levelo_inurba_marseille","lat":43.32775,"lon":5.40727,"is_reserved":false,"is_disabled":false,"rental_uris":{"android":"levelo://app?vid=dfb6b791-badd-4621-9306-ea3c833e2455","ios":"levelo://app?vid=dfb6b791-badd-4621-9306-ea3c833e2455"},"vehicle_type_id":"4","last_reported":1769077028,"current_range_meters":7200,"station_id":"","pricing_plan_id":"cebpf4jnsgd1na2vs0mg"},{"bike_id":"9602bfb2-a38b-4065-8c80-dc0f09d03485","system_id":"levelo_inurba_marseille","lat":43.23198,"lon":5.35572,"is_reserved":false,"is_disabled":false,"rental_uris":{"android":"levelo://app?vid=9602bfb2-a38b-4065-8c80-dc0f09d03485","ios":"levelo://app?vid=9602bfb2-a38b-4065-8c80-dc0f09d03485"},"vehicle_type_id":"4","last_reported":1769077028,"current_range_meters":7200,"station_id":"ce4bhu92rcd13ifvqi70","pricing_plan_id":"cebpf4jnsgd1na2vs0mg"},{"bike_id":"53f2879f-b266-431f-832c-1df1cfd5ed6b","system_id":"levelo_inurba_marseille","lat":43.30544,"lon":5.36539,"is_reserved":false,"is_disabled":false,"rental_uris":{"android":"levelo://app?vid=53f2879f-b266-431f-832c-1df1cfd5ed6b","ios":"levelo://app?vid=53f2879f-b266-431f-832c-1df1cfd5ed6b"},"vehicle_type_id":"4","last_reported":1769077028,"current_range_meters":7200,"station_id":"ce4bgs12rcd13ifvqcag","pricing_plan_id":"cebpf4jnsgd1na2vs0mg"},{"bike_id":"6174d709-613f-41f4-8b11-eb9958081e44","system_id":"levelo_inurba_marseille","lat":43.30277,"lon":5.37706,"is_reserved":false,"is_disabled":false,"rental_uris":{"android":"levelo://app?vid=6174d709-613f-41f4-8b11-eb9958081e44","ios":"levelo://app?vid=6174d709-613f-41f4-8b11-eb9958081e44"},"vehicle_type_id":"4","last_reported":1769077028,"current_range_meters":7200,"station_id":"ce4bguh2rcd13ifvqcj0","pricing_plan_id":"cebpf4jnsgd1na2vs0mg"},{"bike_id":"2804df29-35ab-4f63-a109-7d4225e69f19","system_id":"levelo_inurba_marseille","lat":43.240667,"lon":5.377697,"is_reserved":false,"is_disabled":false,"rental_uris":{"android":"levelo://app?vid=2804df29-35ab-4f63-a109-7d4225e69f19","ios":"levelo://app?vid=2804df29-35ab-4f63-a109-7d4225e69f19"},"vehicle_type_id":"4","last_reported":1769077028,"current_range_meters":8000,"station_id":"ce4bhnp2rcd13ifvqgvg","pricing_plan_id":"cebpf4jnsgd1na2vs0mg"},{"bike_id":"b53456d2-0b9c-41b3-9cdb-8499eaa6161f","system_id":"levelo_inurba_marseille","lat":43.30954,"lon":5.39041,"is_reserved":false,"is_disabled":false,"rental_uris":{"android":"levelo://app?vid=b53456d2-0b9c-41b3-9cdb-8499eaa6161f","ios":"levelo://app?vid=b53456d2-0b9c-41b3-9cdb-8499eaa6161f"},"vehicle_type_id":"4","last_reported":1769077028,"current_range_meters":8000,"station_id":"ce4bgup2rcd13ifvqco0","pricing_plan_id":"cebpf4jnsgd1na2vs0mg"},{"bike_id":"f937a57b-876e-4112-8def-d43cc1095f9c","system_id":"levelo_inurba_marseille","lat":43.25911,"lon":5.40862,"is_reserved":false,"is_disabled":false,"rental_uris":{"android":"levelo://app?vid=f937a57b-876e-4112-8def-d43cc1095f9c","ios":"levelo://app?vid=f937a57b-876e-4112-8def-d43cc1095f9c"},"vehicle_type_id":"4","last_reported":1769077028,"current_range_meters":8000,"station_id":"ce4bhm92rcd13ifvqglg","pricing_plan_id":"cebpf4jnsgd1na2vs0mg"},{"bike_id":"0e7da989-bf09-4900-8747-fc51c0a98600","system_id":"levelo_inurba_marseille","lat":43.30886,"lon":5.3719,"is_reserved":false,"is_disabled":false,"rental_uris":{"android":"levelo://app?vid=0e7da989-bf09-4900-8747-fc51c0a98600","ios":"levelo://app?vid=0e7da989-bf09-4900-8747-fc51c0a98600"},"vehicle_type_id":"4","last_reported":1769077028,"current_range_meters":8000,"station_id":"ce4bguh2rcd13ifvqckg","pricing_plan_id":"cebpf4jnsgd1na2vs0mg"},{"bike_id":"6130885e-2c8c-4f8c-a5b7-823493024bd1","system_id":"levelo_inurba_marseille","lat":43.25589,"lon":5.38251,"is_reserved":false,"is_disabled":false,"rental_uris":{"android":"levelo://app?vid=6130885e-2c8c-4f8c-a5b7-823493024bd1","ios":"levelo://app?vid=6130885e-2c8c-4f8c-a5b7-823493024bd1"},"vehicle_type_id":"4","last_reported":1769077028,"current_range_meters":8000,"station_id":"ce4bhih2rcd13ifvqfs0","pricing_plan_id":"cebpf4jnsgd1na2vs0mg"},{"bike_id":"5d14e776-1d07-4b7f-b396-c836b99253da","system_id":"levelo_inurba_marseille","lat":43.26064,"lon":5.39383,"is_reserved":false,"is_disabled":false,"rental_uris":{"android":"levelo://app?vid=5d14e776-1d07-4b7f-b396-c836b99253da","ios":"levelo://app?vid=5d14e776-1d07-4b7f-b396-c836b99253da"},"vehicle_type_id":"4","last_reported":1769077028,"current_range_meters":8000,"station_id":"","pricing_plan_id":"cebpf4jnsgd1na2vs0mg"},{"bike_id":"38500cf7-d381-439e-970e-63b5ac41074b","system_id":"levelo_inurba_marseille","lat":43.24548,"lon":5.39525,"is_reserved":false,"is_disabled":false,"rental_uris":{"android":"levelo://app?vid=38500cf7-d381-439e-970e-63b5ac41074b","ios":"levelo://app?vid=38500cf7-d381-439e-970e-63b5ac41074b"},"vehicle_type_id":"4","last_reported":1769077028,"current_range_meters":8000,"station_id":"ce4bhlp2rcd13ifvqgjg","pricing_plan_id":"cebpf4jnsgd1na2vs0mg"},{"bike_id":"8faea1bc-2bab-43f5-883d-baf4d0b180cc","system_id":"levelo_inurba_marseille","lat":43.3112,"lon":5.37755,"is_reserved":false,"is_disabled":false,"rental_uris":{"android":"levelo://app?vid=8faea1bc-2bab-43f5-883d-baf4d0b180cc","ios":"levelo://app?vid=8faea1bc-2bab-43f5-883d-baf4d0b180cc"},"vehicle_type_id":"4","last_reported":1769077028,"current_range_meters":8000,"station_id":"ce4bgt92rcd13ifvqcg0","pricing_plan_id":"cebpf4jnsgd1na2vs0mg"},{"bike_id":"58cd0ab0-51c6-46d1-aa50-b4fa4e10afad","system_id":"levelo_inurba_marseille","lat":43.29095,"lon":5.38136,"is_reserved":false,"is_disabled":false,"rental_uris":{"android":"levelo://app?vid=58cd0ab0-51c6-46d1-aa50-b4fa4e10afad","ios":"levelo://app?vid=58cd0ab0-51c6-46d1-aa50-b4fa4e10afad"},"vehicle_type_id":"4","last_reported":1769077028,"current_range_meters":8000,"station_id":"ce4bh512rcd13ifvqe2g","pricing_plan_id":"cebpf4jnsgd1na2vs0mg"},{"bike_id":"17617366-1767-4228-9b6e-852d390863df","system_id":"levelo_inurba_marseille","lat":43.292748,"lon":5.368358,"is_reserved":false,"is_disabled":false,"rental_uris":{"android":"levelo://app?vid=17617366-1767-4228-9b6e-852d390863df","ios":"levelo://app?vid=17617366-1767-4228-9b6e-852d390863df"},"vehicle_type_id":"4","last_reported":1769077028,"current_range_meters":8000,"station_id":"ce4bhbp2rcd13ifvqesg","pricing_plan_id":"cebpf4jnsgd1na2vs0mg"},{"bike_id":"f9143ecb-aade-4bb9-990c-9859476787e9","system_id":"levelo_inurba_marseille","lat":43.2381,"lon":5.3663,"is_reserved":false,"is_disabled":false,"rental_uris":{"android":"levelo://app?vid=f9143ecb-aade-4bb9-990c-9859476787e9","ios":"levelo://app?vid=f9143ecb-aade-4bb9-990c-9859476787e9"},"vehicle_type_id":"4","last_reported":1769077028,"current_range_meters":8000,"station_id":"st_d3nk18o9ro0c73en2l3g","pricing_plan_id":"cebpf4jnsgd1na2vs0mg"},{"bike_id":"51da540b-9609-42b3-8d20-df922f5915a2","system_id":"levelo_inurba_marseille","lat":43.24385,"lon":5.37062,"is_reserved":false,"is_disabled":false,"rental_uris":{"android":"levelo://app?vid=51da540b-9609-42b3-8d20-df922f5915a2","ios":"levelo://app?vid=51da540b-9609-42b3-8d20-df922f5915a2"},"vehicle_type_id":"4","last_reported":1769077028,"current_range_meters":8000,"station_id":"ce4bhhh2rcd13ifvqfk0","pricing_plan_id":"cebpf4jnsgd1na2vs0mg"},{"bike_id":"b21b6965-dd65-468d-ba47-84118107ca1a","system_id":"levelo_inurba_marseille","lat":43.29972,"lon":5.37171,"is_reserved":false,"is_disabled":false,"rental_uris":{"android":"levelo://app?vid=b21b6965-dd65-468d-ba47-84118107ca1a","ios":"levelo://app?vid=b21b6965-dd65-468d-ba47-84118107ca1a"},"vehicle_type_id":"4","last_reported":1769077028,"current_range_meters":8000,"station_id":"ce4bgr92rcd13ifvqc7g","pricing_plan_id":"cebpf4jnsgd1na2vs0mg"},{"bike_id":"c9dee47c-00b4-4792-bb20-0e804a11ccd5","system_id":"levelo_inurba_marseille","lat":43.3015,"lon":5.3809,"is_reserved":false,"is_disabled":false,"rental_uris":{"android":"levelo://app?vid=c9dee47c-00b4-4792-bb20-0e804a11ccd5","ios":"levelo://app?vid=c9dee47c-00b4-4792-bb20-0e804a11ccd5"},"vehicle_type_id":"4","last_reported":1769077028,"current_range_meters":8000,"station_id":"ce4bgjp2rcd13ifvqbh0","pricing_plan_id":"cebpf4jnsgd1na2vs0mg"},{"bike_id":"a7fb3316-2e45-4c8a-9c59-45c39f8905da","system_id":"levelo_inurba_marseille","lat":43.30461,"lon":5.37907,"is_reserved":false,"is_disabled":false,"rental_uris":{"android":"levelo://app?vid=a7fb3316-2e45-4c8a-9c59-45c39f8905da","ios":"levelo://app?vid=a7fb3316-2e45-4c8a-9c59-45c39f8905da"},"vehicle_type_id":"4","last_reported":1769077028,"current_range_meters":8000,"station_id":"ce4bgup2rcd13ifvqcn0","pricing_plan_id":"cebpf4jnsgd1na2vs0mg"},{"bike_id":"5630e9f9-70f3-4757-a8dd-7793cc2c1fe2","system_id":"levelo_inurba_marseille","lat":43.25584,"lon":5.38243,"is_reserved":false,"is_disabled":false,"rental_uris":{"android":"levelo://app?vid=5630e9f9-70f3-4757-a8dd-7793cc2c1fe2","ios":"levelo://app?vid=5630e9f9-70f3-4757-a8dd-7793cc2c1fe2"},"vehicle_type_id":"4","last_reported":1769077028,"current_range_meters":8000,"station_id":"ce4bhih2rcd13ifvqfs0","pricing_plan_id":"cebpf4jnsgd1na2vs0mg"},{"bike_id":"d7d9fb29-54a8-4938-ace9-d51c8f316b77","system_id":"levelo_inurba_marseille","lat":43.27216,"lon":5.39183,"is_reserved":false,"is_disabled":false,"rental_uris":{"android":"levelo://app?vid=d7d9fb29-54a8-4938-ace9-d51c8f316b77","ios":"levelo://app?vid=d7d9fb29-54a8-4938-ace9-d51c8f316b77"},"vehicle_type_id":"4","last_reported":1769077028,"current_range_meters":8000,"station_id":"ce4bhhp2rcd13ifvqfm0","pricing_plan_id":"cebpf4jnsgd1na2vs0mg"},{"bike_id":"6cde08db-2d60-4fc0-a7d5-505f4f93c6d4","system_id":"levelo_inurba_marseille","lat":43.33575,"lon":5.37541,"is_reserved":false,"is_disabled":false,"rental_uris":{"android":"levelo://app?vid=6cde08db-2d60-4fc0-a7d5-505f4f93c6d4","ios":"levelo://app?vid=6cde08db-2d60-4fc0-a7d5-505f4f93c6d4"},"vehicle_type_id":"4","last_reported":1769077028,"current_range_meters":8000,"station_id":"","pricing_plan_id":"cebpf4jnsgd1na2vs0mg"},{"bike_id":"ebe96ec5-523d-45fa-ab5f-5846c56fbfbe","system_id":"levelo_inurba_marseille","lat":43.24167,"lon":5.3974,"is_reserved":false,"is_disabled":false,"rental_uris":{"android":"levelo://app?vid=ebe96ec5-523d-45fa-ab5f-5846c56fbfbe","ios":"levelo://app?vid=ebe96ec5-523d-45fa-ab5f-5846c56fbfbe"},"vehicle_type_id":"4","last_reported":1769077028,"current_range_meters":8000,"station_id":"ce4bhn12rcd13ifvqgpg","pricing_plan_id":"cebpf4jnsgd1na2vs0mg"},{"bike_id":"96396a11-871d-4ce7-9bfe-4159c2556b88","system_id":"levelo_inurba_marseille","lat":43.2799,"lon":5.41665,"is_reserved":false,"is_disabled":false,"rental_uris":{"android":"levelo://app?vid=96396a11-871d-4ce7-9bfe-4159c2556b88","ios":"levelo://app?vid=96396a11-871d-4ce7-9bfe-4159c2556b88"},"vehicle_type_id":"4","last_reported":1769077028,"current_range_meters":8000,"station_id":"ce4bho12rcd13ifvqh1g","pricing_plan_id":"cebpf4jnsgd1na2vs0mg"},{"bike_id":"d23c003e-9bf5-4696-aa44-f72b72dd1e2e","system_id":"levelo_inurba_marseille","lat":43.29046,"lon":5.39955,"is_reserved":false,"is_disabled":false,"rental_uris":{"android":"levelo://app?vid=d23c003e-9bf5-4696-aa44-f72b72dd1e2e","ios":"levelo://app?vid=d23c003e-9bf5-4696-aa44-f72b72dd1e2e"},"vehicle_type_id":"4","last_reported":1769077028,"current_range_meters":8000,"station_id":"ce4bh392rcd13ifvqdm0","pricing_plan_id":"cebpf4jnsgd1na2vs0mg"},{"bike_id":"ff0abe3a-541a-4b03-b925-2d332a8f803b","system_id":"levelo_inurba_marseille","lat":43.27205,"lon":5.39198,"is_reserved":false,"is_disabled":false,"rental_uris":{"android":"levelo://app?vid=ff0abe3a-541a-4b03-b925-2d332a8f803b","ios":"levelo://app?vid=ff0abe3a-541a-4b03-b925-2d332a8f803b"},"vehicle_type_id":"4","last_reported":1769077028,"current_range_meters":8000,"station_id":"ce4bhhp2rcd13ifvqfm0","pricing_plan_id":"cebpf4jnsgd1na2vs0mg"},{"bike_id":"090da4bf-e1ff-427c-b741-8d3293006606","system_id":"levelo_inurba_marseille","lat":43.23208,"lon":5.35543,"is_reserved":false,"is_disabled":false,"rental_uris":{"android":"levelo://app?vid=090da4bf-e1ff-427c-b741-8d3293006606","ios":"levelo://app?vid=090da4bf-e1ff-427c-b741-8d3293006606"},"vehicle_type_id":"4","last_reported":1769077028,"current_range_meters":8400,"station_id":"ce4bhu92rcd13ifvqi70","pricing_plan_id":"cebpf4jnsgd1na2vs0mg"},{"bike_id":"53563e6b-7433-47cd-b7e5-a8b0077cc14f","system_id":"levelo_inurba_marseille","lat":43.24083,"lon":5.37785,"is_reserved":false,"is_disabled":false,"rental_uris":{"android":"levelo://app?vid=53563e6b-7433-47cd-b7e5-a8b0077cc14f","ios":"levelo://app?vid=53563e6b-7433-47cd-b7e5-a8b0077cc14f"},"vehicle_type_id":"4","last_reported":1769077028,"current_range_meters":8400,"station_id":"ce4bhnp2rcd13ifvqgvg","pricing_plan_id":"cebpf4jnsgd1na2vs0mg"},{"bike_id":"ae72a7f7-0a78-43a1-a80c-a2893de3e9bb","system_id":"levelo_inurba_marseille","lat":43.24797,"lon":5.37446,"is_reserved":false,"is_disabled":false,"rental_uris":{"android":"levelo://app?vid=ae72a7f7-0a78-43a1-a80c-a2893de3e9bb","ios":"levelo://app?vid=ae72a7f7-0a78-43a1-a80c-a2893de3e9bb"},"vehicle_type_id":"4","last_reported":1769077028,"current_range_meters":8400,"station_id":"ce4bhgh2rcd13ifvqfb0","pricing_plan_id":"cebpf4jnsgd1na2vs0mg"},{"bike_id":"ae227eb2-1fdf-4e8d-a590-394b7c8c9569","system_id":"levelo_inurba_marseille","lat":43.29087,"lon":5.40062,"is_reserved":false,"is_disabled":false,"rental_uris":{"android":"levelo://app?vid=ae227eb2-1fdf-4e8d-a590-394b7c8c9569","ios":"levelo://app?vid=ae227eb2-1fdf-4e8d-a590-394b7c8c9569"},"vehicle_type_id":"4","last_reported":1769077028,"current_range_meters":8400,"station_id":"ce4bh392rcd13ifvqdm0","pricing_plan_id":"cebpf4jnsgd1na2vs0mg"},{"bike_id":"983434e7-b7db-4a47-ba3e-cd485de0f943","system_id":"levelo_inurba_marseille","lat":43.301463,"lon":5.380826,"is_reserved":false,"is_disabled":false,"rental_uris":{"android":"levelo://app?vid=983434e7-b7db-4a47-ba3e-cd485de0f943","ios":"levelo://app?vid=983434e7-b7db-4a47-ba3e-cd485de0f943"},"vehicle_type_id":"4","last_reported":1769077028,"current_range_meters":8400,"station_id":"ce4bgjp2rcd13ifvqbh0","pricing_plan_id":"cebpf4jnsgd1na2vs0mg"},{"bike_id":"f3930ccb-7366-4820-9b16-8e40e47cf10f","system_id":"levelo_inurba_marseille","lat":43.24549,"lon":5.39528,"is_reserved":false,"is_disabled":false,"rental_uris":{"android":"levelo://app?vid=f3930ccb-7366-4820-9b16-8e40e47cf10f","ios":"levelo://app?vid=f3930ccb-7366-4820-9b16-8e40e47cf10f"},"vehicle_type_id":"4","last_reported":1769077028,"current_range_meters":8400,"station_id":"ce4bhlp2rcd13ifvqgjg","pricing_plan_id":"cebpf4jnsgd1na2vs0mg"},{"bike_id":"2bea03e9-5485-4b68-b596-82541de966b5","system_id":"levelo_inurba_marseille","lat":43.30636,"lon":5.40099,"is_reserved":false,"is_disabled":false,"rental_uris":{"android":"levelo://app?vid=2bea03e9-5485-4b68-b596-82541de966b5","ios":"levelo://app?vid=2bea03e9-5485-4b68-b596-82541de966b5"},"vehicle_type_id":"4","last_reported":1769077028,"current_range_meters":8400,"station_id":"","pricing_plan_id":"cebpf4jnsgd1na2vs0mg"},{"bike_id":"546ef6cf-e8ca-4bce-93fd-0ea356be5f62","system_id":"levelo_inurba_marseille","lat":43.27198,"lon":5.39192,"is_reserved":false,"is_disabled":false,"rental_uris":{"android":"levelo://app?vid=546ef6cf-e8ca-4bce-93fd-0ea356be5f62","ios":"levelo://app?vid=546ef6cf-e8ca-4bce-93fd-0ea356be5f62"},"vehicle_type_id":"4","last_reported":1769077028,"current_range_meters":8400,"station_id":"ce4bhhp2rcd13ifvqfm0","pricing_plan_id":"cebpf4jnsgd1na2vs0mg"},{"bike_id":"3b364841-63d1-4d4f-bb34-83c89b251a49","system_id":"levelo_inurba_marseille","lat":43.308905,"lon":5.372013,"is_reserved":false,"is_disabled":false,"rental_uris":{"android":"levelo://app?vid=3b364841-63d1-4d4f-bb34-83c89b251a49","ios":"levelo://app?vid=3b364841-63d1-4d4f-bb34-83c89b251a49"},"vehicle_type_id":"4","last_reported":1769077028,"current_range_meters":8400,"station_id":"ce4bguh2rcd13ifvqckg","pricing_plan_id":"cebpf4jnsgd1na2vs0mg"},{"bike_id":"4568df28-8966-47d1-8aff-4132d45a8570","system_id":"levelo_inurba_marseille","lat":43.29589,"lon":5.37524,"is_reserved":false,"is_disabled":false,"rental_uris":{"android":"levelo://app?vid=4568df28-8966-47d1-8aff-4132d45a8570","ios":"levelo://app?vid=4568df28-8966-47d1-8aff-4132d45a8570"},"vehicle_type_id":"4","last_reported":1769077028,"current_range_meters":8400,"station_id":"ce4bgh92rcd13ifvqb50","pricing_plan_id":"cebpf4jnsgd1na2vs0mg"},{"bike_id":"861bb7de-0e5d-4b2e-aab7-e5d1b3a5eab9","system_id":"levelo_inurba_marseille","lat":43.23149,"lon":5.43726,"is_reserved":false,"is_disabled":false,"rental_uris":{"android":"levelo://app?vid=861bb7de-0e5d-4b2e-aab7-e5d1b3a5eab9","ios":"levelo://app?vid=861bb7de-0e5d-4b2e-aab7-e5d1b3a5eab9"},"vehicle_type_id":"4","last_reported":1769077028,"current_range_meters":8400,"station_id":"ce4bhmp2rcd13ifvqgog","pricing_plan_id":"cebpf4jnsgd1na2vs0mg"},{"bike_id":"fa026bbf-9c12-43b8-a820-2f2ab3922f54","system_id":"levelo_inurba_marseille","lat":43.30897,"lon":5.3685,"is_reserved":false,"is_disabled":false,"rental_uris":{"android":"levelo://app?vid=fa026bbf-9c12-43b8-a820-2f2ab3922f54","ios":"levelo://app?vid=fa026bbf-9c12-43b8-a820-2f2ab3922f54"},"vehicle_type_id":"4","last_reported":1769077028,"current_range_meters":8400,"station_id":"ce4bgn92rcd13ifvqbvg","pricing_plan_id":"cebpf4jnsgd1na2vs0mg"},{"bike_id":"ab9499b3-abff-4421-b1a9-c82468c64280","system_id":"levelo_inurba_marseille","lat":43.26961,"lon":5.38615,"is_reserved":false,"is_disabled":false,"rental_uris":{"android":"levelo://app?vid=ab9499b3-abff-4421-b1a9-c82468c64280","ios":"levelo://app?vid=ab9499b3-abff-4421-b1a9-c82468c64280"},"vehicle_type_id":"4","last_reported":1769077028,"current_range_meters":8400,"station_id":"ce4bhh92rcd13ifvqfh0","pricing_plan_id":"cebpf4jnsgd1na2vs0mg"},{"bike_id":"2fa28398-73c6-40b0-abd2-13b571db7bc0","system_id":"levelo_inurba_marseille","lat":43.26223,"lon":5.37927,"is_reserved":false,"is_disabled":false,"rental_uris":{"android":"levelo://app?vid=2fa28398-73c6-40b0-abd2-13b571db7bc0","ios":"levelo://app?vid=2fa28398-73c6-40b0-abd2-13b571db7bc0"},"vehicle_type_id":"4","last_reported":1769077028,"current_range_meters":8400,"station_id":"ce4bhjp2rcd13ifvqg90","pricing_plan_id":"cebpf4jnsgd1na2vs0mg"},{"bike_id":"fb3ff625-62fd-4ae8-9254-8c4981e04e71","system_id":"levelo_inurba_marseille","lat":43.331636,"lon":5.376971,"is_reserved":false,"is_disabled":false,"rental_uris":{"android":"levelo://app?vid=fb3ff625-62fd-4ae8-9254-8c4981e04e71","ios":"levelo://app?vid=fb3ff625-62fd-4ae8-9254-8c4981e04e71"},"vehicle_type_id":"4","last_reported":1769077028,"current_range_meters":8400,"station_id":"st_d46cu089ee8s73dldbu0","pricing_plan_id":"cebpf4jnsgd1na2vs0mg"},{"bike_id":"2bd7b052-198e-4662-8aa6-61b0cac79738","system_id":"levelo_inurba_marseille","lat":43.272791,"lon":5.390724,"is_reserved":false,"is_disabled":false,"rental_uris":{"android":"levelo://app?vid=2bd7b052-198e-4662-8aa6-61b0cac79738","ios":"levelo://app?vid=2bd7b052-198e-4662-8aa6-61b0cac79738"},"vehicle_type_id":"4","last_reported":1769077028,"current_range_meters":8400,"station_id":"ce4bhgp2rcd13ifvqfe0","pricing_plan_id":"cebpf4jnsgd1na2vs0mg"},{"bike_id":"a9111660-a095-4df0-a96e-e2fc2289d79b","system_id":"levelo_inurba_marseille","lat":43.274952,"lon":5.424531,"is_reserved":false,"is_disabled":false,"rental_uris":{"android":"levelo://app?vid=a9111660-a095-4df0-a96e-e2fc2289d79b","ios":"levelo://app?vid=a9111660-a095-4df0-a96e-e2fc2289d79b"},"vehicle_type_id":"4","last_reported":1769077028,"current_range_meters":8400,"station_id":"ce4bhn92rcd13ifvqgrg","pricing_plan_id":"cebpf4jnsgd1na2vs0mg"},{"bike_id":"cbd6d55e-5809-4853-9878-dbbf6af6a148","system_id":"levelo_inurba_marseille","lat":43.28897,"lon":5.42533,"is_reserved":false,"is_disabled":false,"rental_uris":{"android":"levelo://app?vid=cbd6d55e-5809-4853-9878-dbbf6af6a148","ios":"levelo://app?vid=cbd6d55e-5809-4853-9878-dbbf6af6a148"},"vehicle_type_id":"4","last_reported":1769077028,"current_range_meters":8800,"station_id":"st_d3b462108ojc7389ooeg","pricing_plan_id":"cebpf4jnsgd1na2vs0mg"},{"bike_id":"ee9c53d3-6ef6-43f4-b82e-62b86abb7a44","system_id":"levelo_inurba_marseille","lat":43.27493,"lon":5.42467,"is_reserved":false,"is_disabled":false,"rental_uris":{"android":"levelo://app?vid=ee9c53d3-6ef6-43f4-b82e-62b86abb7a44","ios":"levelo://app?vid=ee9c53d3-6ef6-43f4-b82e-62b86abb7a44"},"vehicle_type_id":"4","last_reported":1769077028,"current_range_meters":8800,"station_id":"ce4bhn92rcd13ifvqgrg","pricing_plan_id":"cebpf4jnsgd1na2vs0mg"},{"bike_id":"6055bb6e-3d5f-4359-bcc3-e96115ee8c1f","system_id":"levelo_inurba_marseille","lat":43.255769,"lon":5.382264,"is_reserved":false,"is_disabled":false,"rental_uris":{"android":"levelo://app?vid=6055bb6e-3d5f-4359-bcc3-e96115ee8c1f","ios":"levelo://app?vid=6055bb6e-3d5f-4359-bcc3-e96115ee8c1f"},"vehicle_type_id":"4","last_reported":1769077028,"current_range_meters":8800,"station_id":"ce4bhih2rcd13ifvqfs0","pricing_plan_id":"cebpf4jnsgd1na2vs0mg"},{"bike_id":"12d65139-8fbd-418b-8523-1b0952363e37","system_id":"levelo_inurba_marseille","lat":43.246387,"lon":5.389356,"is_reserved":false,"is_disabled":false,"rental_uris":{"android":"levelo://app?vid=12d65139-8fbd-418b-8523-1b0952363e37","ios":"levelo://app?vid=12d65139-8fbd-418b-8523-1b0952363e37"},"vehicle_type_id":"4","last_reported":1769077028,"current_range_meters":8800,"station_id":"ce4bhg12rcd13ifvqf60","pricing_plan_id":"cebpf4jnsgd1na2vs0mg"},{"bike_id":"a1cf0267-a9c6-4cb7-b49a-598a4cc67209","system_id":"levelo_inurba_marseille","lat":43.23182,"lon":5.35559,"is_reserved":false,"is_disabled":false,"rental_uris":{"android":"levelo://app?vid=a1cf0267-a9c6-4cb7-b49a-598a4cc67209","ios":"levelo://app?vid=a1cf0267-a9c6-4cb7-b49a-598a4cc67209"},"vehicle_type_id":"4","last_reported":1769077028,"current_range_meters":8800,"station_id":"ce4bhu92rcd13ifvqi70","pricing_plan_id":"cebpf4jnsgd1na2vs0mg"},{"bike_id":"9864eb71-e1a9-41e3-a300-f80070833647","system_id":"levelo_inurba_marseille","lat":43.26585,"lon":5.40331,"is_reserved":false,"is_disabled":false,"rental_uris":{"android":"levelo://app?vid=9864eb71-e1a9-41e3-a300-f80070833647","ios":"levelo://app?vid=9864eb71-e1a9-41e3-a300-f80070833647"},"vehicle_type_id":"4","last_reported":1769077028,"current_range_meters":8800,"station_id":"ce4bhmp2rcd13ifvqgng","pricing_plan_id":"cebpf4jnsgd1na2vs0mg"},{"bike_id":"cc9f4717-497d-46b4-8770-89f5df0571cd","system_id":"levelo_inurba_marseille","lat":43.24391,"lon":5.37075,"is_reserved":false,"is_disabled":false,"rental_uris":{"android":"levelo://app?vid=cc9f4717-497d-46b4-8770-89f5df0571cd","ios":"levelo://app?vid=cc9f4717-497d-46b4-8770-89f5df0571cd"},"vehicle_type_id":"4","last_reported":1769077028,"current_range_meters":8800,"station_id":"ce4bhhh2rcd13ifvqfk0","pricing_plan_id":"cebpf4jnsgd1na2vs0mg"},{"bike_id":"983dfa04-9e71-401d-b498-feaefa1c2d24","system_id":"levelo_inurba_marseille","lat":43.26992,"lon":5.39212,"is_reserved":false,"is_disabled":false,"rental_uris":{"android":"levelo://app?vid=983dfa04-9e71-401d-b498-feaefa1c2d24","ios":"levelo://app?vid=983dfa04-9e71-401d-b498-feaefa1c2d24"},"vehicle_type_id":"4","last_reported":1769077028,"current_range_meters":8800,"station_id":"","pricing_plan_id":"cebpf4jnsgd1na2vs0mg"},{"bike_id":"c462c4a3-3f5e-4fd1-8a2f-56615210c468","system_id":"levelo_inurba_marseille","lat":43.25808,"lon":5.38594,"is_reserved":false,"is_disabled":false,"rental_uris":{"android":"levelo://app?vid=c462c4a3-3f5e-4fd1-8a2f-56615210c468","ios":"levelo://app?vid=c462c4a3-3f5e-4fd1-8a2f-56615210c468"},"vehicle_type_id":"4","last_reported":1769077028,"current_range_meters":8800,"station_id":"","pricing_plan_id":"cebpf4jnsgd1na2vs0mg"},{"bike_id":"2403f0bf-de39-4f6c-b1d8-f725bb90dee3","system_id":"levelo_inurba_marseille","lat":43.24159,"lon":5.36405,"is_reserved":false,"is_disabled":false,"rental_uris":{"android":"levelo://app?vid=2403f0bf-de39-4f6c-b1d8-f725bb90dee3","ios":"levelo://app?vid=2403f0bf-de39-4f6c-b1d8-f725bb90dee3"},"vehicle_type_id":"4","last_reported":1769077028,"current_range_meters":8800,"station_id":"cpo36qri1sfpv3e86is0","pricing_plan_id":"cebpf4jnsgd1na2vs0mg"},{"bike_id":"249a4cf7-06f6-4fea-96cc-c9c6b750c37f","system_id":"levelo_inurba_marseille","lat":43.241605,"lon":5.363957,"is_reserved":false,"is_disabled":false,"rental_uris":{"android":"levelo://app?vid=249a4cf7-06f6-4fea-96cc-c9c6b750c37f","ios":"levelo://app?vid=249a4cf7-06f6-4fea-96cc-c9c6b750c37f"},"vehicle_type_id":"4","last_reported":1769077028,"current_range_meters":8800,"station_id":"cpo36qri1sfpv3e86is0","pricing_plan_id":"cebpf4jnsgd1na2vs0mg"},{"bike_id":"48a13fb2-aa96-4e6e-9601-12ca0a4fdb46","system_id":"levelo_inurba_marseille","lat":43.24648,"lon":5.38933,"is_reserved":false,"is_disabled":false,"rental_uris":{"android":"levelo://app?vid=48a13fb2-aa96-4e6e-9601-12ca0a4fdb46","ios":"levelo://app?vid=48a13fb2-aa96-4e6e-9601-12ca0a4fdb46"},"vehicle_type_id":"4","last_reported":1769077028,"current_range_meters":8800,"station_id":"ce4bhg12rcd13ifvqf60","pricing_plan_id":"cebpf4jnsgd1na2vs0mg"},{"bike_id":"6bd1a5ab-41fd-43c7-adb4-59ab64e7fec3","system_id":"levelo_inurba_marseille","lat":43.2656,"lon":5.37291,"is_reserved":false,"is_disabled":false,"rental_uris":{"android":"levelo://app?vid=6bd1a5ab-41fd-43c7-adb4-59ab64e7fec3","ios":"levelo://app?vid=6bd1a5ab-41fd-43c7-adb4-59ab64e7fec3"},"vehicle_type_id":"4","last_reported":1769077028,"current_range_meters":8800,"station_id":"ce4bhg12rcd13ifvqf70","pricing_plan_id":"cebpf4jnsgd1na2vs0mg"},{"bike_id":"d54acec8-bdc0-490e-8763-0a2554a9bf3f","system_id":"levelo_inurba_marseille","lat":43.29917,"lon":5.3747,"is_reserved":false,"is_disabled":false,"rental_uris":{"android":"levelo://app?vid=d54acec8-bdc0-490e-8763-0a2554a9bf3f","ios":"levelo://app?vid=d54acec8-bdc0-490e-8763-0a2554a9bf3f"},"vehicle_type_id":"4","last_reported":1769077028,"current_range_meters":8800,"station_id":"ce4bgjh2rcd13ifvqbg0","pricing_plan_id":"cebpf4jnsgd1na2vs0mg"},{"bike_id":"dafaf639-8c17-4478-ae89-45f3a4e0f420","system_id":"levelo_inurba_marseille","lat":43.32067,"lon":5.36858,"is_reserved":false,"is_disabled":false,"rental_uris":{"android":"levelo://app?vid=dafaf639-8c17-4478-ae89-45f3a4e0f420","ios":"levelo://app?vid=dafaf639-8c17-4478-ae89-45f3a4e0f420"},"vehicle_type_id":"4","last_reported":1769077028,"current_range_meters":8800,"station_id":"ce4bhrh2rcd13ifvqhug","pricing_plan_id":"cebpf4jnsgd1na2vs0mg"},{"bike_id":"c28a8b53-2ac9-4ea0-ab81-6292a2b417b8","system_id":"levelo_inurba_marseille","lat":43.33588,"lon":5.410282,"is_reserved":false,"is_disabled":false,"rental_uris":{"android":"levelo://app?vid=c28a8b53-2ac9-4ea0-ab81-6292a2b417b8","ios":"levelo://app?vid=c28a8b53-2ac9-4ea0-ab81-6292a2b417b8"},"vehicle_type_id":"4","last_reported":1769077028,"current_range_meters":8800,"station_id":"ce4bhqh2rcd13ifvqhmg","pricing_plan_id":"cebpf4jnsgd1na2vs0mg"},{"bike_id":"87a60ae1-0c1b-4a5c-ab94-43b362e8ec42","system_id":"levelo_inurba_marseille","lat":43.29287,"lon":5.37453,"is_reserved":false,"is_disabled":false,"rental_uris":{"android":"levelo://app?vid=87a60ae1-0c1b-4a5c-ab94-43b362e8ec42","ios":"levelo://app?vid=87a60ae1-0c1b-4a5c-ab94-43b362e8ec42"},"vehicle_type_id":"4","last_reported":1769077028,"current_range_meters":8800,"station_id":"ce4bgi12rcd13ifvqb70","pricing_plan_id":"cebpf4jnsgd1na2vs0mg"},{"bike_id":"b31a5bb2-76ea-4456-9166-4a1bc56acef2","system_id":"levelo_inurba_marseille","lat":43.30321,"lon":5.39081,"is_reserved":false,"is_disabled":false,"rental_uris":{"android":"levelo://app?vid=b31a5bb2-76ea-4456-9166-4a1bc56acef2","ios":"levelo://app?vid=b31a5bb2-76ea-4456-9166-4a1bc56acef2"},"vehicle_type_id":"4","last_reported":1769077028,"current_range_meters":8800,"station_id":"","pricing_plan_id":"cebpf4jnsgd1na2vs0mg"},{"bike_id":"267fb2bb-66f3-4c1f-a624-aae9270030c5","system_id":"levelo_inurba_marseille","lat":43.22935,"lon":5.35378,"is_reserved":false,"is_disabled":false,"rental_uris":{"android":"levelo://app?vid=267fb2bb-66f3-4c1f-a624-aae9270030c5","ios":"levelo://app?vid=267fb2bb-66f3-4c1f-a624-aae9270030c5"},"vehicle_type_id":"4","last_reported":1769077028,"current_range_meters":8800,"station_id":"cpo3532slgdg3j2ikp40","pricing_plan_id":"cebpf4jnsgd1na2vs0mg"},{"bike_id":"003040f3-3c33-4fcd-ac1b-c3cd1aec2434","system_id":"levelo_inurba_marseille","lat":43.25111,"lon":5.39492,"is_reserved":false,"is_disabled":false,"rental_uris":{"android":"levelo://app?vid=003040f3-3c33-4fcd-ac1b-c3cd1aec2434","ios":"levelo://app?vid=003040f3-3c33-4fcd-ac1b-c3cd1aec2434"},"vehicle_type_id":"4","last_reported":1769077028,"current_range_meters":8800,"station_id":"ce4bhm12rcd13ifvqgkg","pricing_plan_id":"cebpf4jnsgd1na2vs0mg"},