{"last_updated":1774038047,"ttl":60,"version":"2.2","data":{"bikes":[{"bike_id":"33eb42bc-48d5-41d9-b570-aa7ee969cd7f","system_id":"levelo_inurba_marseille","lat":43.29884,"lon":5.38903,"is_reserved":false,"is_disabled":false,"rental_uris":{"android":"levelo://app?vid=33eb42bc-48d5-41d9-b570-aa7ee969cd7f","ios":"levelo://app?vid=33eb42bc-48d5-41d9-b570-aa7ee969cd7f"},"vehicle_type_id":"4","last_reported":1774038048,"current_range_meters":2800,"station_id":"ce4bh392rcd13ifvqdl0","pricing_plan_id":"cebpf4jnsgd1na2vs0mg"},{"bike_id":"34fff6b9-99ea-488b-8a97-ef0b80dd2053","system_id":"levelo_inurba_marseille","lat":43.29267,"lon":5.38428,"is_reserved":false,"is_disabled":false,"rental_uris":{"android":"levelo://app?vid=34fff6b9-99ea-488b-8a97-ef0b80dd2053","ios":"levelo://app?vid=34fff6b9-99ea-488b-8a97-ef0b80dd2053"},"vehicle_type_id":"4","last_reported":1774038048,"current_range_meters":2800,"station_id":"ce4bh692rcd13ifvqea0","pricing_plan_id":"cebpf4jnsgd1na2vs0mg"},{"bike_id":"163513a9-cf44-4a3f-b8cb-792a9f3aa129","system_id":"levelo_inurba_marseille","lat":43.26545,"lon":5.37286,"is_reserved":false,"is_disabled":false,"rental_uris":{"android":"levelo://app?vid=163513a9-cf44-4a3f-b8cb-792a9f3aa129","ios":"levelo://app?vid=163513a9-cf44-4a3f-b8cb-792a9f3aa129"},"vehicle_type_id":"4","last_reported":1774038048,"current_range_meters":2800,"station_id":"ce4bhg12rcd13ifvqf70","pricing_plan_id":"cebpf4jnsgd1na2vs0mg"},{"bike_id":"9941b0b8-1d59-49b5-a390-9a58cac39c14","system_id":"levelo_inurba_marseille","lat":43.29888,"lon":5.38887,"is_reserved":false,"is_disabled":false,"rental_uris":{"android":"levelo://app?vid=9941b0b8-1d59-49b5-a390-9a58cac39c14","ios":"levelo://app?vid=9941b0b8-1d59-49b5-a390-9a58cac39c14"},"vehicle_type_id":"4","last_reported":1774038048,"current_range_meters":2800,"station_id":"ce4bh392rcd13ifvqdl0","pricing_plan_id":"cebpf4jnsgd1na2vs0mg"},{"bike_id":"325d7323-9829-4444-84da-ad2b66b7f5d0","system_id":"levelo_inurba_marseille","lat":43.2903,"lon":5.38618,"is_reserved":false,"is_disabled":false,"rental_uris":{"android":"levelo://app?vid=325d7323-9829-4444-84da-ad2b66b7f5d0","ios":"levelo://app?vid=325d7323-9829-4444-84da-ad2b66b7f5d0"},"vehicle_type_id":"4","last_reported":1774038048,"current_range_meters":2800,"station_id":"ce4bh4p2rcd13ifvqe0g","pricing_plan_id":"cebpf4jnsgd1na2vs0mg"},{"bike_id":"5f55fa3f-3695-461c-9ed0-604b233e703a","system_id":"levelo_inurba_marseille","lat":43.28356,"lon":5.38631,"is_reserved":false,"is_disabled":false,"rental_uris":{"android":"levelo://app?vid=5f55fa3f-3695-461c-9ed0-604b233e703a","ios":"levelo://app?vid=5f55fa3f-3695-461c-9ed0-604b233e703a"},"vehicle_type_id":"4","last_reported":1774038048,"current_range_meters":2800,"station_id":"","pricing_plan_id":"cebpf4jnsgd1na2vs0mg"},{"bike_id":"2bbd22cf-686f-461f-b177-5e332cf0cc5c","system_id":"levelo_inurba_marseille","lat":43.31375,"lon":5.38494,"is_reserved":false,"is_disabled":false,"rental_uris":{"android":"levelo://app?vid=2bbd22cf-686f-461f-b177-5e332cf0cc5c","ios":"levelo://app?vid=2bbd22cf-686f-461f-b177-5e332cf0cc5c"},"vehicle_type_id":"4","last_reported":1774038048,"current_range_meters":2800,"station_id":"ce4bgt92rcd13ifvqcf0","pricing_plan_id":"cebpf4jnsgd1na2vs0mg"},{"bike_id":"dd10efc5-28b9-436a-be78-8011941e89fc","system_id":"levelo_inurba_marseille","lat":43.28478,"lon":5.48393,"is_reserved":false,"is_disabled":false,"rental_uris":{"android":"levelo://app?vid=dd10efc5-28b9-436a-be78-8011941e89fc","ios":"levelo://app?vid=dd10efc5-28b9-436a-be78-8011941e89fc"},"vehicle_type_id":"4","last_reported":1774038048,"current_range_meters":2800,"station_id":"st_d3svhcjqgbts73a3dn0g","pricing_plan_id":"cebpf4jnsgd1na2vs0mg"},{"bike_id":"1ee2633f-8207-4a2d-9c23-9c9214423714","system_id":"levelo_inurba_marseille","lat":43.30892,"lon":5.39643,"is_reserved":false,"is_disabled":false,"rental_uris":{"android":"levelo://app?vid=1ee2633f-8207-4a2d-9c23-9c9214423714","ios":"levelo://app?vid=1ee2633f-8207-4a2d-9c23-9c9214423714"},"vehicle_type_id":"4","last_reported":1774038048,"current_range_meters":2800,"station_id":"ce4bh012rcd13ifvqcv0","pricing_plan_id":"cebpf4jnsgd1na2vs0mg"},{"bike_id":"5146c960-7ca9-4930-9eff-809b422c7ba8","system_id":"levelo_inurba_marseille","lat":43.29779,"lon":5.3711,"is_reserved":false,"is_disabled":false,"rental_uris":{"android":"levelo://app?vid=5146c960-7ca9-4930-9eff-809b422c7ba8","ios":"levelo://app?vid=5146c960-7ca9-4930-9eff-809b422c7ba8"},"vehicle_type_id":"4","last_reported":1774038048,"current_range_meters":2800,"station_id":"ce4bgop2rcd13ifvqc1g","pricing_plan_id":"cebpf4jnsgd1na2vs0mg"},{"bike_id":"3ed4bc13-b22d-44b4-aa6f-19f196c483da","system_id":"levelo_inurba_marseille","lat":43.2417,"lon":5.36421,"is_reserved":false,"is_disabled":false,"rental_uris":{"android":"levelo://app?vid=3ed4bc13-b22d-44b4-aa6f-19f196c483da","ios":"levelo://app?vid=3ed4bc13-b22d-44b4-aa6f-19f196c483da"},"vehicle_type_id":"4","last_reported":1774038048,"current_range_meters":2800,"station_id":"cpo36qri1sfpv3e86is0","pricing_plan_id":"cebpf4jnsgd1na2vs0mg"},{"bike_id":"368c9922-f0a4-48aa-a8e4-ec9798de1f1b","system_id":"levelo_inurba_marseille","lat":43.28672,"lon":5.38662,"is_reserved":false,"is_disabled":true,"rental_uris":{"android":"levelo://app?vid=368c9922-f0a4-48aa-a8e4-ec9798de1f1b","ios":"levelo://app?vid=368c9922-f0a4-48aa-a8e4-ec9798de1f1b"},"vehicle_type_id":"4","last_reported":1774038048,"current_range_meters":2800,"station_id":"ce4bh492rcd13ifvqdug","pricing_plan_id":"cebpf4jnsgd1na2vs0mg"},{"bike_id":"638e7b64-9b6b-4711-b32b-50ebc88afca6","system_id":"levelo_inurba_marseille","lat":43.29971,"lon":5.38507,"is_reserved":false,"is_disabled":false,"rental_uris":{"android":"levelo://app?vid=638e7b64-9b6b-4711-b32b-50ebc88afca6","ios":"levelo://app?vid=638e7b64-9b6b-4711-b32b-50ebc88afca6"},"vehicle_type_id":"4","last_reported":1774038048,"current_range_meters":2800,"station_id":"ce4bgj92rcd13ifvqbd0","pricing_plan_id":"cebpf4jnsgd1na2vs0mg"},{"bike_id":"39421cf9-7a72-4fc3-a879-2901ca5d5846","system_id":"levelo_inurba_marseille","lat":43.23782,"lon":5.36646,"is_reserved":false,"is_disabled":false,"rental_uris":{"android":"levelo://app?vid=39421cf9-7a72-4fc3-a879-2901ca5d5846","ios":"levelo://app?vid=39421cf9-7a72-4fc3-a879-2901ca5d5846"},"vehicle_type_id":"4","last_reported":1774038048,"current_range_meters":2800,"station_id":"st_d3nk18o9ro0c73en2l3g","pricing_plan_id":"cebpf4jnsgd1na2vs0mg"},{"bike_id":"36fc14e7-b188-438e-838c-69da638cdac7","system_id":"levelo_inurba_marseille","lat":43.28696,"lon":5.37384,"is_reserved":false,"is_disabled":false,"rental_uris":{"android":"levelo://app?vid=36fc14e7-b188-438e-838c-69da638cdac7","ios":"levelo://app?vid=36fc14e7-b188-438e-838c-69da638cdac7"},"vehicle_type_id":"4","last_reported":1774038048,"current_range_meters":2800,"station_id":"ce4bh3p2rcd13ifvqdq0","pricing_plan_id":"cebpf4jnsgd1na2vs0mg"},{"bike_id":"7a19cacb-f160-4af8-b976-f3c6e4188de2","system_id":"levelo_inurba_marseille","lat":43.31688,"lon":5.40476,"is_reserved":false,"is_disabled":false,"rental_uris":{"android":"levelo://app?vid=7a19cacb-f160-4af8-b976-f3c6e4188de2","ios":"levelo://app?vid=7a19cacb-f160-4af8-b976-f3c6e4188de2"},"vehicle_type_id":"4","last_reported":1774038048,"current_range_meters":2800,"station_id":"ce4bh012rcd13ifvqd00","pricing_plan_id":"cebpf4jnsgd1na2vs0mg"},{"bike_id":"692930df-6ce1-42eb-baeb-4f1bf2f648b0","system_id":"levelo_inurba_marseille","lat":43.2804,"lon":5.36944,"is_reserved":false,"is_disabled":false,"rental_uris":{"android":"levelo://app?vid=692930df-6ce1-42eb-baeb-4f1bf2f648b0","ios":"levelo://app?vid=692930df-6ce1-42eb-baeb-4f1bf2f648b0"},"vehicle_type_id":"4","last_reported":1774038048,"current_range_meters":2800,"station_id":"ce4bha12rcd13ifvqef0","pricing_plan_id":"cebpf4jnsgd1na2vs0mg"},{"bike_id":"27cfd7f2-48c6-4fe4-9d82-e5b76120df75","system_id":"levelo_inurba_marseille","lat":43.29819,"lon":5.44045,"is_reserved":false,"is_disabled":false,"rental_uris":{"android":"levelo://app?vid=27cfd7f2-48c6-4fe4-9d82-e5b76120df75","ios":"levelo://app?vid=27cfd7f2-48c6-4fe4-9d82-e5b76120df75"},"vehicle_type_id":"4","last_reported":1774038048,"current_range_meters":3200,"station_id":"st_d3jp68qikq2c7381ktn0","pricing_plan_id":"cebpf4jnsgd1na2vs0mg"},{"bike_id":"e1d37656-d1f8-4f02-b52c-41722a501097","system_id":"levelo_inurba_marseille","lat":43.29003,"lon":5.35618,"is_reserved":false,"is_disabled":false,"rental_uris":{"android":"levelo://app?vid=e1d37656-d1f8-4f02-b52c-41722a501097","ios":"levelo://app?vid=e1d37656-d1f8-4f02-b52c-41722a501097"},"vehicle_type_id":"4","last_reported":1774038048,"current_range_meters":3200,"station_id":"ce4bhb92rcd13ifvqen0","pricing_plan_id":"cebpf4jnsgd1na2vs0mg"},{"bike_id":"5df8514a-1d2a-48a9-a937-b4aeee447447","system_id":"levelo_inurba_marseille","lat":43.29094,"lon":5.38068,"is_reserved":false,"is_disabled":false,"rental_uris":{"android":"levelo://app?vid=5df8514a-1d2a-48a9-a937-b4aeee447447","ios":"levelo://app?vid=5df8514a-1d2a-48a9-a937-b4aeee447447"},"vehicle_type_id":"4","last_reported":1774038048,"current_range_meters":3200,"station_id":"","pricing_plan_id":"cebpf4jnsgd1na2vs0mg"},{"bike_id":"8a854e0a-3b9f-471d-80f2-bfadb0595e6b","system_id":"levelo_inurba_marseille","lat":43.3132,"lon":5.37611,"is_reserved":false,"is_disabled":false,"rental_uris":{"android":"levelo://app?vid=8a854e0a-3b9f-471d-80f2-bfadb0595e6b","ios":"levelo://app?vid=8a854e0a-3b9f-471d-80f2-bfadb0595e6b"},"vehicle_type_id":"4","last_reported":1774038048,"current_range_meters":3200,"station_id":"","pricing_plan_id":"cebpf4jnsgd1na2vs0mg"},{"bike_id":"b3c35a8e-82e4-4c24-a0bb-50f3ef602711","system_id":"levelo_inurba_marseille","lat":43.29519,"lon":5.39053,"is_reserved":false,"is_disabled":false,"rental_uris":{"android":"levelo://app?vid=b3c35a8e-82e4-4c24-a0bb-50f3ef602711","ios":"levelo://app?vid=b3c35a8e-82e4-4c24-a0bb-50f3ef602711"},"vehicle_type_id":"4","last_reported":1774038048,"current_range_meters":3200,"station_id":"ce4bh3p2rcd13ifvqdp0","pricing_plan_id":"cebpf4jnsgd1na2vs0mg"},{"bike_id":"7bd8d017-c910-446f-a89a-6ed676250d74","system_id":"levelo_inurba_marseille","lat":43.30673,"lon":5.4008,"is_reserved":false,"is_disabled":false,"rental_uris":{"android":"levelo://app?vid=7bd8d017-c910-446f-a89a-6ed676250d74","ios":"levelo://app?vid=7bd8d017-c910-446f-a89a-6ed676250d74"},"vehicle_type_id":"4","last_reported":1774038048,"current_range_meters":3200,"station_id":"ce4bh112rcd13ifvqda0","pricing_plan_id":"cebpf4jnsgd1na2vs0mg"},{"bike_id":"ef9496c7-12d3-4835-b316-30e7646ddff1","system_id":"levelo_inurba_marseille","lat":43.30793,"lon":5.38158,"is_reserved":false,"is_disabled":false,"rental_uris":{"android":"levelo://app?vid=ef9496c7-12d3-4835-b316-30e7646ddff1","ios":"levelo://app?vid=ef9496c7-12d3-4835-b316-30e7646ddff1"},"vehicle_type_id":"4","last_reported":1774038048,"current_range_meters":3200,"station_id":"ce4bgt12rcd13ifvqce0","pricing_plan_id":"cebpf4jnsgd1na2vs0mg"},{"bike_id":"c22ab6dd-b350-41bc-8137-3fa179d57f31","system_id":"levelo_inurba_marseille","lat":43.2952,"lon":5.38558,"is_reserved":false,"is_disabled":false,"rental_uris":{"android":"levelo://app?vid=c22ab6dd-b350-41bc-8137-3fa179d57f31","ios":"levelo://app?vid=c22ab6dd-b350-41bc-8137-3fa179d57f31"},"vehicle_type_id":"4","last_reported":1774038048,"current_range_meters":3200,"station_id":"ce4bgih2rcd13ifvqba0","pricing_plan_id":"cebpf4jnsgd1na2vs0mg"},{"bike_id":"761118ee-02f3-49c7-b816-ce77eb032c9a","system_id":"levelo_inurba_marseille","lat":43.28661,"lon":5.36348,"is_reserved":false,"is_disabled":false,"rental_uris":{"android":"levelo://app?vid=761118ee-02f3-49c7-b816-ce77eb032c9a","ios":"levelo://app?vid=761118ee-02f3-49c7-b816-ce77eb032c9a"},"vehicle_type_id":"4","last_reported":1774038048,"current_range_meters":3200,"station_id":"ce4bhah2rcd13ifvqej0","pricing_plan_id":"cebpf4jnsgd1na2vs0mg"},{"bike_id":"00456695-d732-4f33-93c8-e39b4d4bf96b","system_id":"levelo_inurba_marseille","lat":43.29807,"lon":5.38118,"is_reserved":false,"is_disabled":true,"rental_uris":{"android":"levelo://app?vid=00456695-d732-4f33-93c8-e39b4d4bf96b","ios":"levelo://app?vid=00456695-d732-4f33-93c8-e39b4d4bf96b"},"vehicle_type_id":"4","last_reported":1774038048,"current_range_meters":3200,"station_id":"ce4bgip2rcd13ifvqbb0","pricing_plan_id":"cebpf4jnsgd1na2vs0mg"},{"bike_id":"e193d30c-bc14-428c-aa8b-69aacbc22c20","system_id":"levelo_inurba_marseille","lat":43.32106,"lon":5.36771,"is_reserved":false,"is_disabled":false,"rental_uris":{"android":"levelo://app?vid=e193d30c-bc14-428c-aa8b-69aacbc22c20","ios":"levelo://app?vid=e193d30c-bc14-428c-aa8b-69aacbc22c20"},"vehicle_type_id":"4","last_reported":1774038048,"current_range_meters":3200,"station_id":"ce4bhrh2rcd13ifvqhug","pricing_plan_id":"cebpf4jnsgd1na2vs0mg"},{"bike_id":"06ce4f90-d2c1-4cdf-8e92-af4e6c83cb49","system_id":"levelo_inurba_marseille","lat":43.28991,"lon":5.35604,"is_reserved":false,"is_disabled":true,"rental_uris":{"android":"levelo://app?vid=06ce4f90-d2c1-4cdf-8e92-af4e6c83cb49","ios":"levelo://app?vid=06ce4f90-d2c1-4cdf-8e92-af4e6c83cb49"},"vehicle_type_id":"4","last_reported":1774038048,"current_range_meters":3200,"station_id":"ce4bhb92rcd13ifvqen0","pricing_plan_id":"cebpf4jnsgd1na2vs0mg"},{"bike_id":"744826ba-753a-4ecc-8e5c-e31c07526efd","system_id":"levelo_inurba_marseille","lat":43.27997,"lon":5.41659,"is_reserved":false,"is_disabled":false,"rental_uris":{"android":"levelo://app?vid=744826ba-753a-4ecc-8e5c-e31c07526efd","ios":"levelo://app?vid=744826ba-753a-4ecc-8e5c-e31c07526efd"},"vehicle_type_id":"4","last_reported":1774038048,"current_range_meters":3200,"station_id":"ce4bho12rcd13ifvqh1g","pricing_plan_id":"cebpf4jnsgd1na2vs0mg"},{"bike_id":"6d685847-ceb0-4f79-99f2-cc8153818f13","system_id":"levelo_inurba_marseille","lat":43.27376,"lon":5.36266,"is_reserved":false,"is_disabled":true,"rental_uris":{"android":"levelo://app?vid=6d685847-ceb0-4f79-99f2-cc8153818f13","ios":"levelo://app?vid=6d685847-ceb0-4f79-99f2-cc8153818f13"},"vehicle_type_id":"4","last_reported":1774038048,"current_range_meters":3200,"station_id":"ce4bhbh2rcd13ifvqeo0","pricing_plan_id":"cebpf4jnsgd1na2vs0mg"},{"bike_id":"a1e9de1e-eb6d-49cc-9caf-29cf96c63a28","system_id":"levelo_inurba_marseille","lat":43.27623,"lon":5.36109,"is_reserved":false,"is_disabled":false,"rental_uris":{"android":"levelo://app?vid=a1e9de1e-eb6d-49cc-9caf-29cf96c63a28","ios":"levelo://app?vid=a1e9de1e-eb6d-49cc-9caf-29cf96c63a28"},"vehicle_type_id":"4","last_reported":1774038048,"current_range_meters":3200,"station_id":"ce4bgj92rcd13ifvqbe0","pricing_plan_id":"cebpf4jnsgd1na2vs0mg"},{"bike_id":"bebae7b0-c2c6-4b1d-8855-8b06d4443a00","system_id":"levelo_inurba_marseille","lat":43.28466,"lon":5.48402,"is_reserved":false,"is_disabled":false,"rental_uris":{"android":"levelo://app?vid=bebae7b0-c2c6-4b1d-8855-8b06d4443a00","ios":"levelo://app?vid=bebae7b0-c2c6-4b1d-8855-8b06d4443a00"},"vehicle_type_id":"4","last_reported":1774038048,"current_range_meters":3200,"station_id":"st_d3svhcjqgbts73a3dn0g","pricing_plan_id":"cebpf4jnsgd1na2vs0mg"},{"bike_id":"11db26d7-8ee0-46eb-abd5-821363842081","system_id":"levelo_inurba_marseille","lat":43.30308,"lon":5.39209,"is_reserved":false,"is_disabled":false,"rental_uris":{"android":"levelo://app?vid=11db26d7-8ee0-46eb-abd5-821363842081","ios":"levelo://app?vid=11db26d7-8ee0-46eb-abd5-821363842081"},"vehicle_type_id":"4","last_reported":1774038048,"current_range_meters":3200,"station_id":"ce4bgkh2rcd13ifvqbk0","pricing_plan_id":"cebpf4jnsgd1na2vs0mg"},{"bike_id":"10964380-842c-47fb-8636-5b8a318713b6","system_id":"levelo_inurba_marseille","lat":43.29258,"lon":5.38431,"is_reserved":false,"is_disabled":false,"rental_uris":{"android":"levelo://app?vid=10964380-842c-47fb-8636-5b8a318713b6","ios":"levelo://app?vid=10964380-842c-47fb-8636-5b8a318713b6"},"vehicle_type_id":"4","last_reported":1774038048,"current_range_meters":3200,"station_id":"ce4bh692rcd13ifvqea0","pricing_plan_id":"cebpf4jnsgd1na2vs0mg"},{"bike_id":"81dbe2f5-cb0e-42d9-befe-dc732b5307b0","system_id":"levelo_inurba_marseille","lat":43.30419,"lon":5.41279,"is_reserved":false,"is_disabled":false,"rental_uris":{"android":"levelo://app?vid=81dbe2f5-cb0e-42d9-befe-dc732b5307b0","ios":"levelo://app?vid=81dbe2f5-cb0e-42d9-befe-dc732b5307b0"},"vehicle_type_id":"4","last_reported":1774038048,"current_range_meters":3200,"station_id":"ce4bhop2rcd13ifvqh8g","pricing_plan_id":"cebpf4jnsgd1na2vs0mg"},{"bike_id":"66be2595-d8a5-40d3-b0b9-334f8fbba844","system_id":"levelo_inurba_marseille","lat":43.24637,"lon":5.43158,"is_reserved":false,"is_disabled":false,"rental_uris":{"android":"levelo://app?vid=66be2595-d8a5-40d3-b0b9-334f8fbba844","ios":"levelo://app?vid=66be2595-d8a5-40d3-b0b9-334f8fbba844"},"vehicle_type_id":"4","last_reported":1774038048,"current_range_meters":3600,"station_id":"","pricing_plan_id":"cebpf4jnsgd1na2vs0mg"},{"bike_id":"cf6ea2d9-2c8f-4237-9bb5-c1f63686f907","system_id":"levelo_inurba_marseille","lat":43.27512,"lon":5.4159,"is_reserved":false,"is_disabled":false,"rental_uris":{"android":"levelo://app?vid=cf6ea2d9-2c8f-4237-9bb5-c1f63686f907","ios":"levelo://app?vid=cf6ea2d9-2c8f-4237-9bb5-c1f63686f907"},"vehicle_type_id":"4","last_reported":1774038048,"current_range_meters":3600,"station_id":"st_d6im8g6chgec73a5pndg","pricing_plan_id":"cebpf4jnsgd1na2vs0mg"},{"bike_id":"da8c6426-8dca-4f6d-9cd5-d0564ccdae82","system_id":"levelo_inurba_marseille","lat":43.30595,"lon":5.39353,"is_reserved":false,"is_disabled":false,"rental_uris":{"android":"levelo://app?vid=da8c6426-8dca-4f6d-9cd5-d0564ccdae82","ios":"levelo://app?vid=da8c6426-8dca-4f6d-9cd5-d0564ccdae82"},"vehicle_type_id":"4","last_reported":1774038048,"current_range_meters":3600,"station_id":"ce4bh0p2rcd13ifvqd80","pricing_plan_id":"cebpf4jnsgd1na2vs0mg"},{"bike_id":"52f6a6b9-7af9-4956-b458-baf5061e66bf","system_id":"levelo_inurba_marseille","lat":43.23358,"lon":5.44464,"is_reserved":false,"is_disabled":false,"rental_uris":{"android":"levelo://app?vid=52f6a6b9-7af9-4956-b458-baf5061e66bf","ios":"levelo://app?vid=52f6a6b9-7af9-4956-b458-baf5061e66bf"},"vehicle_type_id":"4","last_reported":1774038048,"current_range_meters":3600,"station_id":"","pricing_plan_id":"cebpf4jnsgd1na2vs0mg"},{"bike_id":"e5e18d51-d281-4feb-b73c-20d80ef4d3b8","system_id":"levelo_inurba_marseille","lat":43.28159,"lon":5.42641,"is_reserved":false,"is_disabled":false,"rental_uris":{"android":"levelo://app?vid=e5e18d51-d281-4feb-b73c-20d80ef4d3b8","ios":"levelo://app?vid=e5e18d51-d281-4feb-b73c-20d80ef4d3b8"},"vehicle_type_id":"4","last_reported":1774038048,"current_range_meters":3600,"station_id":"ce4bhnh2rcd13ifvqgug","pricing_plan_id":"cebpf4jnsgd1na2vs0mg"},{"bike_id":"f4349c00-56c9-40b0-a5e1-956dccf827cf","system_id":"levelo_inurba_marseille","lat":43.30587,"lon":5.39359,"is_reserved":false,"is_disabled":false,"rental_uris":{"android":"levelo://app?vid=f4349c00-56c9-40b0-a5e1-956dccf827cf","ios":"levelo://app?vid=f4349c00-56c9-40b0-a5e1-956dccf827cf"},"vehicle_type_id":"4","last_reported":1774038048,"current_range_meters":3600,"station_id":"ce4bh0p2rcd13ifvqd80","pricing_plan_id":"cebpf4jnsgd1na2vs0mg"},{"bike_id":"8da4d35b-c565-4bf5-957f-ef4f7cc33301","system_id":"levelo_inurba_marseille","lat":43.30879,"lon":5.39647,"is_reserved":false,"is_disabled":false,"rental_uris":{"android":"levelo://app?vid=8da4d35b-c565-4bf5-957f-ef4f7cc33301","ios":"levelo://app?vid=8da4d35b-c565-4bf5-957f-ef4f7cc33301"},"vehicle_type_id":"4","last_reported":1774038048,"current_range_meters":3600,"station_id":"ce4bh012rcd13ifvqcv0","pricing_plan_id":"cebpf4jnsgd1na2vs0mg"},{"bike_id":"acc1d9ad-de67-4bcb-8101-b4d4cbb70a2f","system_id":"levelo_inurba_marseille","lat":43.29271,"lon":5.38433,"is_reserved":false,"is_disabled":false,"rental_uris":{"android":"levelo://app?vid=acc1d9ad-de67-4bcb-8101-b4d4cbb70a2f","ios":"levelo://app?vid=acc1d9ad-de67-4bcb-8101-b4d4cbb70a2f"},"vehicle_type_id":"4","last_reported":1774038048,"current_range_meters":3600,"station_id":"ce4bh692rcd13ifvqea0","pricing_plan_id":"cebpf4jnsgd1na2vs0mg"},{"bike_id":"26ce8e1f-db05-4ba0-acb9-cdbc5d3c8c0d","system_id":"levelo_inurba_marseille","lat":43.284802,"lon":5.384118,"is_reserved":false,"is_disabled":true,"rental_uris":{"android":"levelo://app?vid=26ce8e1f-db05-4ba0-acb9-cdbc5d3c8c0d","ios":"levelo://app?vid=26ce8e1f-db05-4ba0-acb9-cdbc5d3c8c0d"},"vehicle_type_id":"4","last_reported":1774038048,"current_range_meters":3600,"station_id":"","pricing_plan_id":"cebpf4jnsgd1na2vs0mg"},{"bike_id":"a211e788-dcbc-472d-a82f-51bee7dacc89","system_id":"levelo_inurba_marseille","lat":43.29308,"lon":5.3717,"is_reserved":false,"is_disabled":false,"rental_uris":{"android":"levelo://app?vid=a211e788-dcbc-472d-a82f-51bee7dacc89","ios":"levelo://app?vid=a211e788-dcbc-472d-a82f-51bee7dacc89"},"vehicle_type_id":"4","last_reported":1774038048,"current_range_meters":3600,"station_id":"ce4bgh92rcd13ifvqb40","pricing_plan_id":"cebpf4jnsgd1na2vs0mg"},{"bike_id":"9fbfdc7a-8398-40b5-b97f-ba1104c7c96f","system_id":"levelo_inurba_marseille","lat":43.23178,"lon":5.35557,"is_reserved":false,"is_disabled":false,"rental_uris":{"android":"levelo://app?vid=9fbfdc7a-8398-40b5-b97f-ba1104c7c96f","ios":"levelo://app?vid=9fbfdc7a-8398-40b5-b97f-ba1104c7c96f"},"vehicle_type_id":"4","last_reported":1774038048,"current_range_meters":3600,"station_id":"ce4bhu92rcd13ifvqi70","pricing_plan_id":"cebpf4jnsgd1na2vs0mg"},{"bike_id":"c1ddb56e-5872-4146-9097-f7e9b2184454","system_id":"levelo_inurba_marseille","lat":43.29319,"lon":5.3716,"is_reserved":false,"is_disabled":false,"rental_uris":{"android":"levelo://app?vid=c1ddb56e-5872-4146-9097-f7e9b2184454","ios":"levelo://app?vid=c1ddb56e-5872-4146-9097-f7e9b2184454"},"vehicle_type_id":"4","last_reported":1774038048,"current_range_meters":3600,"station_id":"ce4bgh92rcd13ifvqb40","pricing_plan_id":"cebpf4jnsgd1na2vs0mg"},{"bike_id":"eb16a777-6452-4a3d-82a8-3665e2ca5ee1","system_id":"levelo_inurba_marseille","lat":43.29051,"lon":5.38661,"is_reserved":false,"is_disabled":false,"rental_uris":{"android":"levelo://app?vid=eb16a777-6452-4a3d-82a8-3665e2ca5ee1","ios":"levelo://app?vid=eb16a777-6452-4a3d-82a8-3665e2ca5ee1"},"vehicle_type_id":"4","last_reported":1774038048,"current_range_meters":3600,"station_id":"ce4bh4p2rcd13ifvqe0g","pricing_plan_id":"cebpf4jnsgd1na2vs0mg"},{"bike_id":"14e04f51-6012-47f2-a15a-594508b26271","system_id":"levelo_inurba_marseille","lat":43.27483,"lon":5.43686,"is_reserved":false,"is_disabled":false,"rental_uris":{"android":"levelo://app?vid=14e04f51-6012-47f2-a15a-594508b26271","ios":"levelo://app?vid=14e04f51-6012-47f2-a15a-594508b26271"},"vehicle_type_id":"4","last_reported":1774038048,"current_range_meters":3600,"station_id":"ce4bhk92rcd13ifvqgb0","pricing_plan_id":"cebpf4jnsgd1na2vs0mg"},{"bike_id":"b24efd61-5957-4034-9985-644c1e3ae6d7","system_id":"levelo_inurba_marseille","lat":43.29795,"lon":5.37904,"is_reserved":false,"is_disabled":false,"rental_uris":{"android":"levelo://app?vid=b24efd61-5957-4034-9985-644c1e3ae6d7","ios":"levelo://app?vid=b24efd61-5957-4034-9985-644c1e3ae6d7"},"vehicle_type_id":"4","last_reported":1774038048,"current_range_meters":3600,"station_id":"","pricing_plan_id":"cebpf4jnsgd1na2vs0mg"},{"bike_id":"3dd115cf-9577-4889-afa0-0aeda5ca4fae","system_id":"levelo_inurba_marseille","lat":43.29003,"lon":5.3561,"is_reserved":false,"is_disabled":true,"rental_uris":{"android":"levelo://app?vid=3dd115cf-9577-4889-afa0-0aeda5ca4fae","ios":"levelo://app?vid=3dd115cf-9577-4889-afa0-0aeda5ca4fae"},"vehicle_type_id":"4","last_reported":1774038048,"current_range_meters":3600,"station_id":"ce4bhb92rcd13ifvqen0","pricing_plan_id":"cebpf4jnsgd1na2vs0mg"},{"bike_id":"b0868435-b90e-40dc-89b0-e69e4b98db60","system_id":"levelo_inurba_marseille","lat":43.29814,"lon":5.38112,"is_reserved":false,"is_disabled":false,"rental_uris":{"android":"levelo://app?vid=b0868435-b90e-40dc-89b0-e69e4b98db60","ios":"levelo://app?vid=b0868435-b90e-40dc-89b0-e69e4b98db60"},"vehicle_type_id":"4","last_reported":1774038048,"current_range_meters":3600,"station_id":"ce4bgip2rcd13ifvqbb0","pricing_plan_id":"cebpf4jnsgd1na2vs0mg"},{"bike_id":"84d3f1a7-d88d-4546-8c27-c3f1049b09fa","system_id":"levelo_inurba_marseille","lat":43.2594,"lon":5.40899,"is_reserved":false,"is_disabled":false,"rental_uris":{"android":"levelo://app?vid=84d3f1a7-d88d-4546-8c27-c3f1049b09fa","ios":"levelo://app?vid=84d3f1a7-d88d-4546-8c27-c3f1049b09fa"},"vehicle_type_id":"4","last_reported":1774038048,"current_range_meters":3600,"station_id":"ce4bhm92rcd13ifvqglg","pricing_plan_id":"cebpf4jnsgd1na2vs0mg"},{"bike_id":"47a8436c-9b2f-44b6-92e2-20a5fab160f3","system_id":"levelo_inurba_marseille","lat":43.24808,"lon":5.37453,"is_reserved":false,"is_disabled":true,"rental_uris":{"android":"levelo://app?vid=47a8436c-9b2f-44b6-92e2-20a5fab160f3","ios":"levelo://app?vid=47a8436c-9b2f-44b6-92e2-20a5fab160f3"},"vehicle_type_id":"4","last_reported":1774038048,"current_range_meters":3600,"station_id":"ce4bhgh2rcd13ifvqfb0","pricing_plan_id":"cebpf4jnsgd1na2vs0mg"},{"bike_id":"eb1add3e-0fa8-4a8d-8324-ba62c1fc132c","system_id":"levelo_inurba_marseille","lat":43.2909,"lon":5.38129,"is_reserved":false,"is_disabled":false,"rental_uris":{"android":"levelo://app?vid=eb1add3e-0fa8-4a8d-8324-ba62c1fc132c","ios":"levelo://app?vid=eb1add3e-0fa8-4a8d-8324-ba62c1fc132c"},"vehicle_type_id":"4","last_reported":1774038048,"current_range_meters":3600,"station_id":"ce4bh512rcd13ifvqe2g","pricing_plan_id":"cebpf4jnsgd1na2vs0mg"},{"bike_id":"67a8ef71-e5fd-4fcc-b8f5-bed68843cd70","system_id":"levelo_inurba_marseille","lat":43.26494,"lon":5.39541,"is_reserved":false,"is_disabled":false,"rental_uris":{"android":"levelo://app?vid=67a8ef71-e5fd-4fcc-b8f5-bed68843cd70","ios":"levelo://app?vid=67a8ef71-e5fd-4fcc-b8f5-bed68843cd70"},"vehicle_type_id":"4","last_reported":1774038048,"current_range_meters":3600,"station_id":"ce4bhi12rcd13ifvqfq0","pricing_plan_id":"cebpf4jnsgd1na2vs0mg"},{"bike_id":"ec327ac2-9680-48a1-8584-22f43bc41c50","system_id":"levelo_inurba_marseille","lat":43.29259,"lon":5.37642,"is_reserved":false,"is_disabled":true,"rental_uris":{"android":"levelo://app?vid=ec327ac2-9680-48a1-8584-22f43bc41c50","ios":"levelo://app?vid=ec327ac2-9680-48a1-8584-22f43bc41c50"},"vehicle_type_id":"4","last_reported":1774038048,"current_range_meters":3600,"station_id":"ce4bgi12rcd13ifvqb80","pricing_plan_id":"cebpf4jnsgd1na2vs0mg"},{"bike_id":"72e035d0-dcc2-4dcf-8660-2e348be6861e","system_id":"levelo_inurba_marseille","lat":43.31461,"lon":5.45379,"is_reserved":false,"is_disabled":false,"rental_uris":{"android":"levelo://app?vid=72e035d0-dcc2-4dcf-8660-2e348be6861e","ios":"levelo://app?vid=72e035d0-dcc2-4dcf-8660-2e348be6861e"},"vehicle_type_id":"4","last_reported":1774038048,"current_range_meters":4000,"station_id":"","pricing_plan_id":"cebpf4jnsgd1na2vs0mg"},{"bike_id":"addd9e53-bfde-4c2f-8c89-4a891b6a7add","system_id":"levelo_inurba_marseille","lat":43.31342,"lon":5.3792,"is_reserved":false,"is_disabled":false,"rental_uris":{"android":"levelo://app?vid=addd9e53-bfde-4c2f-8c89-4a891b6a7add","ios":"levelo://app?vid=addd9e53-bfde-4c2f-8c89-4a891b6a7add"},"vehicle_type_id":"4","last_reported":1774038048,"current_range_meters":4000,"station_id":"","pricing_plan_id":"cebpf4jnsgd1na2vs0mg"},{"bike_id":"ae8594e7-b6c0-438d-a254-3ca636cf4147","system_id":"levelo_inurba_marseille","lat":43.3031,"lon":5.39204,"is_reserved":false,"is_disabled":false,"rental_uris":{"android":"levelo://app?vid=ae8594e7-b6c0-438d-a254-3ca636cf4147","ios":"levelo://app?vid=ae8594e7-b6c0-438d-a254-3ca636cf4147"},"vehicle_type_id":"4","last_reported":1774038048,"current_range_meters":4000,"station_id":"ce4bgkh2rcd13ifvqbk0","pricing_plan_id":"cebpf4jnsgd1na2vs0mg"},{"bike_id":"347a0133-45d3-4213-ae48-606f4453bbf3","system_id":"levelo_inurba_marseille","lat":43.23054,"lon":5.35492,"is_reserved":false,"is_disabled":false,"rental_uris":{"android":"levelo://app?vid=347a0133-45d3-4213-ae48-606f4453bbf3","ios":"levelo://app?vid=347a0133-45d3-4213-ae48-606f4453bbf3"},"vehicle_type_id":"4","last_reported":1774038048,"current_range_meters":4000,"station_id":"cpo3342slgdg3j2ifvpg","pricing_plan_id":"cebpf4jnsgd1na2vs0mg"},{"bike_id":"13c4f90f-0c2b-450e-80ad-fb83da41ea7f","system_id":"levelo_inurba_marseille","lat":43.30598,"lon":5.39357,"is_reserved":false,"is_disabled":false,"rental_uris":{"android":"levelo://app?vid=13c4f90f-0c2b-450e-80ad-fb83da41ea7f","ios":"levelo://app?vid=13c4f90f-0c2b-450e-80ad-fb83da41ea7f"},"vehicle_type_id":"4","last_reported":1774038048,"current_range_meters":4000,"station_id":"ce4bh0p2rcd13ifvqd80","pricing_plan_id":"cebpf4jnsgd1na2vs0mg"},{"bike_id":"a764b34b-cc97-4a15-ae08-9740c40da581","system_id":"levelo_inurba_marseille","lat":43.24079,"lon":5.37761,"is_reserved":false,"is_disabled":false,"rental_uris":{"android":"levelo://app?vid=a764b34b-cc97-4a15-ae08-9740c40da581","ios":"levelo://app?vid=a764b34b-cc97-4a15-ae08-9740c40da581"},"vehicle_type_id":"4","last_reported":1774038048,"current_range_meters":4000,"station_id":"ce4bhnp2rcd13ifvqgvg","pricing_plan_id":"cebpf4jnsgd1na2vs0mg"},{"bike_id":"09c2457a-1b1f-4989-a1a6-bb0d58c4caef","system_id":"levelo_inurba_marseille","lat":43.29598,"lon":5.38101,"is_reserved":false,"is_disabled":false,"rental_uris":{"android":"levelo://app?vid=09c2457a-1b1f-4989-a1a6-bb0d58c4caef","ios":"levelo://app?vid=09c2457a-1b1f-4989-a1a6-bb0d58c4caef"},"vehicle_type_id":"4","last_reported":1774038048,"current_range_meters":4000,"station_id":"ce4bgl12rcd13ifvqbo0","pricing_plan_id":"cebpf4jnsgd1na2vs0mg"},{"bike_id":"70878cea-5f43-4ddb-af91-69926444210b","system_id":"levelo_inurba_marseille","lat":43.29005,"lon":5.38135,"is_reserved":false,"is_disabled":false,"rental_uris":{"android":"levelo://app?vid=70878cea-5f43-4ddb-af91-69926444210b","ios":"levelo://app?vid=70878cea-5f43-4ddb-af91-69926444210b"},"vehicle_type_id":"4","last_reported":1774038048,"current_range_meters":4000,"station_id":"ce4bh4p2rcd13ifvqe1g","pricing_plan_id":"cebpf4jnsgd1na2vs0mg"},{"bike_id":"62ff937e-689f-4def-8b0f-f0f7271c7beb","system_id":"levelo_inurba_marseille","lat":43.33556,"lon":5.37451,"is_reserved":false,"is_disabled":false,"rental_uris":{"android":"levelo://app?vid=62ff937e-689f-4def-8b0f-f0f7271c7beb","ios":"levelo://app?vid=62ff937e-689f-4def-8b0f-f0f7271c7beb"},"vehicle_type_id":"4","last_reported":1774038048,"current_range_meters":4000,"station_id":"st_d46tts09ee8s73dlu43g","pricing_plan_id":"cebpf4jnsgd1na2vs0mg"},{"bike_id":"6e50a54a-c657-4ef5-9339-4c225154dc0d","system_id":"levelo_inurba_marseille","lat":43.27925,"lon":5.42253,"is_reserved":false,"is_disabled":false,"rental_uris":{"android":"levelo://app?vid=6e50a54a-c657-4ef5-9339-4c225154dc0d","ios":"levelo://app?vid=6e50a54a-c657-4ef5-9339-4c225154dc0d"},"vehicle_type_id":"4","last_reported":1774038048,"current_range_meters":4000,"station_id":"","pricing_plan_id":"cebpf4jnsgd1na2vs0mg"},{"bike_id":"80dc3f63-767d-41c1-a8eb-00854bab220a","system_id":"levelo_inurba_marseille","lat":43.29975,"lon":5.38508,"is_reserved":false,"is_disabled":false,"rental_uris":{"android":"levelo://app?vid=80dc3f63-767d-41c1-a8eb-00854bab220a","ios":"levelo://app?vid=80dc3f63-767d-41c1-a8eb-00854bab220a"},"vehicle_type_id":"4","last_reported":1774038048,"current_range_meters":4000,"station_id":"ce4bgj92rcd13ifvqbd0","pricing_plan_id":"cebpf4jnsgd1na2vs0mg"},{"bike_id":"12f74779-83a8-4490-8b2f-966f642cf8c5","system_id":"levelo_inurba_marseille","lat":43.30309,"lon":5.39208,"is_reserved":false,"is_disabled":false,"rental_uris":{"android":"levelo://app?vid=12f74779-83a8-4490-8b2f-966f642cf8c5","ios":"levelo://app?vid=12f74779-83a8-4490-8b2f-966f642cf8c5"},"vehicle_type_id":"4","last_reported":1774038048,"current_range_meters":4000,"station_id":"ce4bgkh2rcd13ifvqbk0","pricing_plan_id":"cebpf4jnsgd1na2vs0mg"},{"bike_id":"b3c6ee7e-839e-47ca-8bd1-12618e78dd87","system_id":"levelo_inurba_marseille","lat":43.23957,"lon":5.36624,"is_reserved":false,"is_disabled":false,"rental_uris":{"android":"levelo://app?vid=b3c6ee7e-839e-47ca-8bd1-12618e78dd87","ios":"levelo://app?vid=b3c6ee7e-839e-47ca-8bd1-12618e78dd87"},"vehicle_type_id":"4","last_reported":1774038048,"current_range_meters":4000,"station_id":"ce4bhi12rcd13ifvqfp0","pricing_plan_id":"cebpf4jnsgd1na2vs0mg"},{"bike_id":"a810090a-5af1-4382-884a-5ddac15425d2","system_id":"levelo_inurba_marseille","lat":43.2466,"lon":5.38163,"is_reserved":false,"is_disabled":false,"rental_uris":{"android":"levelo://app?vid=a810090a-5af1-4382-884a-5ddac15425d2","ios":"levelo://app?vid=a810090a-5af1-4382-884a-5ddac15425d2"},"vehicle_type_id":"4","last_reported":1774038048,"current_range_meters":4000,"station_id":"ce4bhih2rcd13ifvqfr0","pricing_plan_id":"cebpf4jnsgd1na2vs0mg"},{"bike_id":"cc2b2e8b-fb1d-4616-8447-851c70af165a","system_id":"levelo_inurba_marseille","lat":43.29449,"lon":5.39751,"is_reserved":false,"is_disabled":true,"rental_uris":{"android":"levelo://app?vid=cc2b2e8b-fb1d-4616-8447-851c70af165a","ios":"levelo://app?vid=cc2b2e8b-fb1d-4616-8447-851c70af165a"},"vehicle_type_id":"4","last_reported":1774038048,"current_range_meters":4400,"station_id":"ce4bh3h2rcd13ifvqdo0","pricing_plan_id":"cebpf4jnsgd1na2vs0mg"},{"bike_id":"d4776486-3084-421f-968a-3d6e49dfba03","system_id":"levelo_inurba_marseille","lat":43.28534,"lon":5.44097,"is_reserved":false,"is_disabled":false,"rental_uris":{"android":"levelo://app?vid=d4776486-3084-421f-968a-3d6e49dfba03","ios":"levelo://app?vid=d4776486-3084-421f-968a-3d6e49dfba03"},"vehicle_type_id":"4","last_reported":1774038048,"current_range_meters":4400,"station_id":"st_d3j3df2ikq2c7380ej80","pricing_plan_id":"cebpf4jnsgd1na2vs0mg"},{"bike_id":"6db79295-b2c3-4fad-8b4c-b53220742013","system_id":"levelo_inurba_marseille","lat":43.276219,"lon":5.361039,"is_reserved":false,"is_disabled":false,"rental_uris":{"android":"levelo://app?vid=6db79295-b2c3-4fad-8b4c-b53220742013","ios":"levelo://app?vid=6db79295-b2c3-4fad-8b4c-b53220742013"},"vehicle_type_id":"4","last_reported":1774038048,"current_range_meters":4400,"station_id":"ce4bgj92rcd13ifvqbe0","pricing_plan_id":"cebpf4jnsgd1na2vs0mg"},{"bike_id":"a0468db3-a6ee-4c27-b4cc-b8425f8ccbb9","system_id":"levelo_inurba_marseille","lat":43.29267,"lon":5.3845,"is_reserved":false,"is_disabled":false,"rental_uris":{"android":"levelo://app?vid=a0468db3-a6ee-4c27-b4cc-b8425f8ccbb9","ios":"levelo://app?vid=a0468db3-a6ee-4c27-b4cc-b8425f8ccbb9"},"vehicle_type_id":"4","last_reported":1774038048,"current_range_meters":4400,"station_id":"ce4bh692rcd13ifvqea0","pricing_plan_id":"cebpf4jnsgd1na2vs0mg"},{"bike_id":"3a65cd49-7b08-45c7-a622-b4849fc8260c","system_id":"levelo_inurba_marseille","lat":43.29626,"lon":5.377,"is_reserved":false,"is_disabled":false,"rental_uris":{"android":"levelo://app?vid=3a65cd49-7b08-45c7-a622-b4849fc8260c","ios":"levelo://app?vid=3a65cd49-7b08-45c7-a622-b4849fc8260c"},"vehicle_type_id":"4","last_reported":1774038048,"current_range_meters":4400,"station_id":"ce4bgi92rcd13ifvqb90","pricing_plan_id":"cebpf4jnsgd1na2vs0mg"},{"bike_id":"23df4ccd-eb9e-493b-a161-dbe03a654413","system_id":"levelo_inurba_marseille","lat":43.28002,"lon":5.40016,"is_reserved":false,"is_disabled":false,"rental_uris":{"android":"levelo://app?vid=23df4ccd-eb9e-493b-a161-dbe03a654413","ios":"levelo://app?vid=23df4ccd-eb9e-493b-a161-dbe03a654413"},"vehicle_type_id":"4","last_reported":1774038048,"current_range_meters":4400,"station_id":"ce4bho92rcd13ifvqh4g","pricing_plan_id":"cebpf4jnsgd1na2vs0mg"},{"bike_id":"3ff905df-9cfc-4198-a321-86ecfaa87b21","system_id":"levelo_inurba_marseille","lat":43.29522,"lon":5.39021,"is_reserved":false,"is_disabled":false,"rental_uris":{"android":"levelo://app?vid=3ff905df-9cfc-4198-a321-86ecfaa87b21","ios":"levelo://app?vid=3ff905df-9cfc-4198-a321-86ecfaa87b21"},"vehicle_type_id":"4","last_reported":1774038048,"current_range_meters":4400,"station_id":"ce4bh3p2rcd13ifvqdp0","pricing_plan_id":"cebpf4jnsgd1na2vs0mg"},{"bike_id":"3c1327e4-2307-4d6d-935d-34cbd075fa36","system_id":"levelo_inurba_marseille","lat":43.29806,"lon":5.38092,"is_reserved":false,"is_disabled":false,"rental_uris":{"android":"levelo://app?vid=3c1327e4-2307-4d6d-935d-34cbd075fa36","ios":"levelo://app?vid=3c1327e4-2307-4d6d-935d-34cbd075fa36"},"vehicle_type_id":"4","last_reported":1774038048,"current_range_meters":4400,"station_id":"ce4bgip2rcd13ifvqbb0","pricing_plan_id":"cebpf4jnsgd1na2vs0mg"},{"bike_id":"82c56265-e01c-4257-8b11-cf58ebfc1de9","system_id":"levelo_inurba_marseille","lat":43.30894,"lon":5.36845,"is_reserved":false,"is_disabled":false,"rental_uris":{"android":"levelo://app?vid=82c56265-e01c-4257-8b11-cf58ebfc1de9","ios":"levelo://app?vid=82c56265-e01c-4257-8b11-cf58ebfc1de9"},"vehicle_type_id":"4","last_reported":1774038048,"current_range_meters":4400,"station_id":"ce4bgn92rcd13ifvqbvg","pricing_plan_id":"cebpf4jnsgd1na2vs0mg"},{"bike_id":"0854ab73-31d9-435e-b06d-f34df3c41d61","system_id":"levelo_inurba_marseille","lat":43.25823,"lon":5.39431,"is_reserved":false,"is_disabled":false,"rental_uris":{"android":"levelo://app?vid=0854ab73-31d9-435e-b06d-f34df3c41d61","ios":"levelo://app?vid=0854ab73-31d9-435e-b06d-f34df3c41d61"},"vehicle_type_id":"4","last_reported":1774038048,"current_range_meters":4400,"station_id":"ce4bhip2rcd13ifvqft0","pricing_plan_id":"cebpf4jnsgd1na2vs0mg"},{"bike_id":"d16b4f5e-9b9d-4635-b7ab-14fa4ff08f4b","system_id":"levelo_inurba_marseille","lat":43.24649,"lon":5.43152,"is_reserved":false,"is_disabled":false,"rental_uris":{"android":"levelo://app?vid=d16b4f5e-9b9d-4635-b7ab-14fa4ff08f4b","ios":"levelo://app?vid=d16b4f5e-9b9d-4635-b7ab-14fa4ff08f4b"},"vehicle_type_id":"4","last_reported":1774038048,"current_range_meters":4400,"station_id":"","pricing_plan_id":"cebpf4jnsgd1na2vs0mg"},{"bike_id":"0ed38292-ab19-4024-944a-2b648c0fb4df","system_id":"levelo_inurba_marseille","lat":43.29265,"lon":5.38431,"is_reserved":false,"is_disabled":false,"rental_uris":{"android":"levelo://app?vid=0ed38292-ab19-4024-944a-2b648c0fb4df","ios":"levelo://app?vid=0ed38292-ab19-4024-944a-2b648c0fb4df"},"vehicle_type_id":"4","last_reported":1774038048,"current_range_meters":4400,"station_id":"ce4bh692rcd13ifvqea0","pricing_plan_id":"cebpf4jnsgd1na2vs0mg"},{"bike_id":"5e7b9a09-3ac1-4f98-9aa4-2019151fbf1a","system_id":"levelo_inurba_marseille","lat":43.31983,"lon":5.38154,"is_reserved":false,"is_disabled":false,"rental_uris":{"android":"levelo://app?vid=5e7b9a09-3ac1-4f98-9aa4-2019151fbf1a","ios":"levelo://app?vid=5e7b9a09-3ac1-4f98-9aa4-2019151fbf1a"},"vehicle_type_id":"4","last_reported":1774038048,"current_range_meters":4400,"station_id":"ce4bhr12rcd13ifvqhpg","pricing_plan_id":"cebpf4jnsgd1na2vs0mg"},{"bike_id":"3bcd3f37-7909-4e8a-be03-a9562a2c0e45","system_id":"levelo_inurba_marseille","lat":43.28536,"lon":5.48399,"is_reserved":false,"is_disabled":false,"rental_uris":{"android":"levelo://app?vid=3bcd3f37-7909-4e8a-be03-a9562a2c0e45","ios":"levelo://app?vid=3bcd3f37-7909-4e8a-be03-a9562a2c0e45"},"vehicle_type_id":"4","last_reported":1774038048,"current_range_meters":4800,"station_id":"","pricing_plan_id":"cebpf4jnsgd1na2vs0mg"},{"bike_id":"384adf8d-e4b9-484e-90c8-9ffde0b1cce8","system_id":"levelo_inurba_marseille","lat":43.29546,"lon":5.38528,"is_reserved":false,"is_disabled":false,"rental_uris":{"android":"levelo://app?vid=384adf8d-e4b9-484e-90c8-9ffde0b1cce8","ios":"levelo://app?vid=384adf8d-e4b9-484e-90c8-9ffde0b1cce8"},"vehicle_type_id":"4","last_reported":1774038048,"current_range_meters":4800,"station_id":"ce4bgih2rcd13ifvqba0","pricing_plan_id":"cebpf4jnsgd1na2vs0mg"},{"bike_id":"c18309bc-1386-40bc-8c4e-56b045c0d4ca","system_id":"levelo_inurba_marseille","lat":43.24064,"lon":5.37765,"is_reserved":false,"is_disabled":false,"rental_uris":{"android":"levelo://app?vid=c18309bc-1386-40bc-8c4e-56b045c0d4ca","ios":"levelo://app?vid=c18309bc-1386-40bc-8c4e-56b045c0d4ca"},"vehicle_type_id":"4","last_reported":1774038048,"current_range_meters":4800,"station_id":"ce4bhnp2rcd13ifvqgvg","pricing_plan_id":"cebpf4jnsgd1na2vs0mg"},{"bike_id":"dfa83d50-bd8b-42f8-a134-7f5d1d73e361","system_id":"levelo_inurba_marseille","lat":43.3043,"lon":5.38891,"is_reserved":false,"is_disabled":false,"rental_uris":{"android":"levelo://app?vid=dfa83d50-bd8b-42f8-a134-7f5d1d73e361","ios":"levelo://app?vid=dfa83d50-bd8b-42f8-a134-7f5d1d73e361"},"vehicle_type_id":"4","last_reported":1774038048,"current_range_meters":4800,"station_id":"ce4bgk12rcd13ifvqbi0","pricing_plan_id":"cebpf4jnsgd1na2vs0mg"},{"bike_id":"872ec0b0-abce-437e-9e81-6b3b9736d4c7","system_id":"levelo_inurba_marseille","lat":43.298,"lon":5.3813,"is_reserved":false,"is_disabled":false,"rental_uris":{"android":"levelo://app?vid=872ec0b0-abce-437e-9e81-6b3b9736d4c7","ios":"levelo://app?vid=872ec0b0-abce-437e-9e81-6b3b9736d4c7"},"vehicle_type_id":"4","last_reported":1774038048,"current_range_meters":4800,"station_id":"ce4bgip2rcd13ifvqbb0","pricing_plan_id":"cebpf4jnsgd1na2vs0mg"},{"bike_id":"c403789f-54d1-498d-8a6f-0afb1901503e","system_id":"levelo_inurba_marseille","lat":43.29532,"lon":5.3853,"is_reserved":false,"is_disabled":false,"rental_uris":{"android":"levelo://app?vid=c403789f-54d1-498d-8a6f-0afb1901503e","ios":"levelo://app?vid=c403789f-54d1-498d-8a6f-0afb1901503e"},"vehicle_type_id":"4","last_reported":1774038048,"current_range_meters":4800,"station_id":"ce4bgih2rcd13ifvqba0","pricing_plan_id":"cebpf4jnsgd1na2vs0mg"},{"bike_id":"cefb6fe8-ec6a-4bbc-9b0d-40edbeafb83c","system_id":"levelo_inurba_marseille","lat":43.30372,"lon":5.42489,"is_reserved":false,"is_disabled":false,"rental_uris":{"android":"levelo://app?vid=cefb6fe8-ec6a-4bbc-9b0d-40edbeafb83c","ios":"levelo://app?vid=cefb6fe8-ec6a-4bbc-9b0d-40edbeafb83c"},"vehicle_type_id":"4","last_reported":1774038048,"current_range_meters":4800,"station_id":"ce4bhoh2rcd13ifvqh6g","pricing_plan_id":"cebpf4jnsgd1na2vs0mg"},{"bike_id":"84146acf-c88d-4303-bf69-4ec81db975f7","system_id":"levelo_inurba_marseille","lat":43.25868,"lon":5.39896,"is_reserved":false,"is_disabled":false,"rental_uris":{"android":"levelo://app?vid=84146acf-c88d-4303-bf69-4ec81db975f7","ios":"levelo://app?vid=84146acf-c88d-4303-bf69-4ec81db975f7"},"vehicle_type_id":"4","last_reported":1774038048,"current_range_meters":4800,"station_id":"ce4bhl92rcd13ifvqghg","pricing_plan_id":"cebpf4jnsgd1na2vs0mg"},{"bike_id":"134b2b83-dde3-41c4-b9d7-181e5102d25a","system_id":"levelo_inurba_marseille","lat":43.28966,"lon":5.37844,"is_reserved":false,"is_disabled":false,"rental_uris":{"android":"levelo://app?vid=134b2b83-dde3-41c4-b9d7-181e5102d25a","ios":"levelo://app?vid=134b2b83-dde3-41c4-b9d7-181e5102d25a"},"vehicle_type_id":"4","last_reported":1774038048,"current_range_meters":4800,"station_id":"ce4bh9p2rcd13ifvqed0","pricing_plan_id":"cebpf4jnsgd1na2vs0mg"},{"bike_id":"6b596f47-5f2b-41a1-ba8e-cc3c7bac807e","system_id":"levelo_inurba_marseille","lat":43.22918,"lon":5.35372,"is_reserved":false,"is_disabled":false,"rental_uris":{"android":"levelo://app?vid=6b596f47-5f2b-41a1-ba8e-cc3c7bac807e","ios":"levelo://app?vid=6b596f47-5f2b-41a1-ba8e-cc3c7bac807e"},"vehicle_type_id":"4","last_reported":1774038048,"current_range_meters":4800,"station_id":"cpo3532slgdg3j2ikp40","pricing_plan_id":"cebpf4jnsgd1na2vs0mg"},{"bike_id":"f7f9f07f-4a08-4162-961d-be225ba2a4ea","system_id":"levelo_inurba_marseille","lat":43.2481,"lon":5.37463,"is_reserved":false,"is_disabled":false,"rental_uris":{"android":"levelo://app?vid=f7f9f07f-4a08-4162-961d-be225ba2a4ea","ios":"levelo://app?vid=f7f9f07f-4a08-4162-961d-be225ba2a4ea"},"vehicle_type_id":"4","last_reported":1774038048,"current_range_meters":4800,"station_id":"ce4bhgh2rcd13ifvqfb0","pricing_plan_id":"cebpf4jnsgd1na2vs0mg"},{"bike_id":"21eada7e-0829-4995-9b0d-14ed8d853bdf","system_id":"levelo_inurba_marseille","lat":43.29968,"lon":5.38502,"is_reserved":false,"is_disabled":false,"rental_uris":{"android":"levelo://app?vid=21eada7e-0829-4995-9b0d-14ed8d853bdf","ios":"levelo://app?vid=21eada7e-0829-4995-9b0d-14ed8d853bdf"},"vehicle_type_id":"4","last_reported":1774038048,"current_range_meters":4800,"station_id":"ce4bgj92rcd13ifvqbd0","pricing_plan_id":"cebpf4jnsgd1na2vs0mg"},{"bike_id":"748c5b22-3209-45fe-b52c-269c9ae813e1","system_id":"levelo_inurba_marseille","lat":43.29522,"lon":5.38532,"is_reserved":false,"is_disabled":false,"rental_uris":{"android":"levelo://app?vid=748c5b22-3209-45fe-b52c-269c9ae813e1","ios":"levelo://app?vid=748c5b22-3209-45fe-b52c-269c9ae813e1"},"vehicle_type_id":"4","last_reported":1774038048,"current_range_meters":4800,"station_id":"ce4bgih2rcd13ifvqba0","pricing_plan_id":"cebpf4jnsgd1na2vs0mg"},{"bike_id":"bfcd297d-8eb3-4c95-ac63-338c1f23c812","system_id":"levelo_inurba_marseille","lat":43.26547,"lon":5.37323,"is_reserved":false,"is_disabled":false,"rental_uris":{"android":"levelo://app?vid=bfcd297d-8eb3-4c95-ac63-338c1f23c812","ios":"levelo://app?vid=bfcd297d-8eb3-4c95-ac63-338c1f23c812"},"vehicle_type_id":"4","last_reported":1774038048,"current_range_meters":4800,"station_id":"ce4bhg12rcd13ifvqf70","pricing_plan_id":"cebpf4jnsgd1na2vs0mg"},{"bike_id":"1b36af96-35a0-4a23-840d-c3e49422fa3e","system_id":"levelo_inurba_marseille","lat":43.26377,"lon":5.41073,"is_reserved":false,"is_disabled":false,"rental_uris":{"android":"levelo://app?vid=1b36af96-35a0-4a23-840d-c3e49422fa3e","ios":"levelo://app?vid=1b36af96-35a0-4a23-840d-c3e49422fa3e"},"vehicle_type_id":"4","last_reported":1774038048,"current_range_meters":4800,"station_id":"st_d4e5ca6na9uc73bfl5fg","pricing_plan_id":"cebpf4jnsgd1na2vs0mg"},{"bike_id":"d725c900-b9f2-4885-bb5e-2c21a6be4955","system_id":"levelo_inurba_marseille","lat":43.29256,"lon":5.38435,"is_reserved":false,"is_disabled":false,"rental_uris":{"android":"levelo://app?vid=d725c900-b9f2-4885-bb5e-2c21a6be4955","ios":"levelo://app?vid=d725c900-b9f2-4885-bb5e-2c21a6be4955"},"vehicle_type_id":"4","last_reported":1774038048,"current_range_meters":4800,"station_id":"ce4bh692rcd13ifvqea0","pricing_plan_id":"cebpf4jnsgd1na2vs0mg"},{"bike_id":"e08d225b-8f4a-4ce0-895d-d9f7f842408c","system_id":"levelo_inurba_marseille","lat":43.2417,"lon":5.36403,"is_reserved":false,"is_disabled":false,"rental_uris":{"android":"levelo://app?vid=e08d225b-8f4a-4ce0-895d-d9f7f842408c","ios":"levelo://app?vid=e08d225b-8f4a-4ce0-895d-d9f7f842408c"},"vehicle_type_id":"4","last_reported":1774038048,"current_range_meters":4800,"station_id":"cpo36qri1sfpv3e86is0","pricing_plan_id":"cebpf4jnsgd1na2vs0mg"},{"bike_id":"938f5b2b-699a-47ff-8381-c70adbd93b65","system_id":"levelo_inurba_marseille","lat":43.29774,"lon":5.37134,"is_reserved":false,"is_disabled":true,"rental_uris":{"android":"levelo://app?vid=938f5b2b-699a-47ff-8381-c70adbd93b65","ios":"levelo://app?vid=938f5b2b-699a-47ff-8381-c70adbd93b65"},"vehicle_type_id":"4","last_reported":1774038048,"current_range_meters":4800,"station_id":"ce4bgop2rcd13ifvqc1g","pricing_plan_id":"cebpf4jnsgd1na2vs0mg"},{"bike_id":"7456697c-823f-4bd9-9e96-328a43201c66","system_id":"levelo_inurba_marseille","lat":43.29309,"lon":5.3717,"is_reserved":false,"is_disabled":false,"rental_uris":{"android":"levelo://app?vid=7456697c-823f-4bd9-9e96-328a43201c66","ios":"levelo://app?vid=7456697c-823f-4bd9-9e96-328a43201c66"},"vehicle_type_id":"4","last_reported":1774038048,"current_range_meters":4800,"station_id":"ce4bgh92rcd13ifvqb40","pricing_plan_id":"cebpf4jnsgd1na2vs0mg"},{"bike_id":"f510aab5-c125-407f-aeb0-e610c0cdfef8","system_id":"levelo_inurba_marseille","lat":43.23786,"lon":5.36632,"is_reserved":false,"is_disabled":false,"rental_uris":{"android":"levelo://app?vid=f510aab5-c125-407f-aeb0-e610c0cdfef8","ios":"levelo://app?vid=f510aab5-c125-407f-aeb0-e610c0cdfef8"},"vehicle_type_id":"4","last_reported":1774038048,"current_range_meters":4800,"station_id":"st_d3nk18o9ro0c73en2l3g","pricing_plan_id":"cebpf4jnsgd1na2vs0mg"},{"bike_id":"6528eebf-5319-49e7-ac0e-054aadd64ddf","system_id":"levelo_inurba_marseille","lat":43.27294,"lon":5.3915,"is_reserved":false,"is_disabled":true,"rental_uris":{"android":"levelo://app?vid=6528eebf-5319-49e7-ac0e-054aadd64ddf","ios":"levelo://app?vid=6528eebf-5319-49e7-ac0e-054aadd64ddf"},"vehicle_type_id":"4","last_reported":1774038048,"current_range_meters":4800,"station_id":"","pricing_plan_id":"cebpf4jnsgd1na2vs0mg"},{"bike_id":"bf8b4750-be99-4a7c-be2a-a957e76ecb33","system_id":"levelo_inurba_marseille","lat":43.30557,"lon":5.36708,"is_reserved":false,"is_disabled":false,"rental_uris":{"android":"levelo://app?vid=bf8b4750-be99-4a7c-be2a-a957e76ecb33","ios":"levelo://app?vid=bf8b4750-be99-4a7c-be2a-a957e76ecb33"},"vehicle_type_id":"4","last_reported":1774038048,"current_range_meters":5600,"station_id":"ce4bgrp2rcd13ifvqc9g","pricing_plan_id":"cebpf4jnsgd1na2vs0mg"},{"bike_id":"eb62eec0-df42-4c2c-b11e-912b72ab99e8","system_id":"levelo_inurba_marseille","lat":43.284,"lon":5.3749,"is_reserved":false,"is_disabled":false,"rental_uris":{"android":"levelo://app?vid=eb62eec0-df42-4c2c-b11e-912b72ab99e8","ios":"levelo://app?vid=eb62eec0-df42-4c2c-b11e-912b72ab99e8"},"vehicle_type_id":"4","last_reported":1774038048,"current_range_meters":5600,"station_id":"ce4bh412rcd13ifvqds0","pricing_plan_id":"cebpf4jnsgd1na2vs0mg"},{"bike_id":"9f596673-4d81-45b6-856d-7f45e9dcd63b","system_id":"levelo_inurba_marseille","lat":43.25825,"lon":5.39442,"is_reserved":false,"is_disabled":false,"rental_uris":{"android":"levelo://app?vid=9f596673-4d81-45b6-856d-7f45e9dcd63b","ios":"levelo://app?vid=9f596673-4d81-45b6-856d-7f45e9dcd63b"},"vehicle_type_id":"4","last_reported":1774038048,"current_range_meters":5600,"station_id":"ce4bhip2rcd13ifvqft0","pricing_plan_id":"cebpf4jnsgd1na2vs0mg"},{"bike_id":"64632ede-f49d-4588-ae3f-130b14a444d6","system_id":"levelo_inurba_marseille","lat":43.29576,"lon":5.37532,"is_reserved":false,"is_disabled":false,"rental_uris":{"android":"levelo://app?vid=64632ede-f49d-4588-ae3f-130b14a444d6","ios":"levelo://app?vid=64632ede-f49d-4588-ae3f-130b14a444d6"},"vehicle_type_id":"4","last_reported":1774038048,"current_range_meters":5600,"station_id":"ce4bgh92rcd13ifvqb50","pricing_plan_id":"cebpf4jnsgd1na2vs0mg"},{"bike_id":"e7d52348-570a-4440-8818-e57d451e3dc2","system_id":"levelo_inurba_marseille","lat":43.292612,"lon":5.384293,"is_reserved":false,"is_disabled":false,"rental_uris":{"android":"levelo://app?vid=e7d52348-570a-4440-8818-e57d451e3dc2","ios":"levelo://app?vid=e7d52348-570a-4440-8818-e57d451e3dc2"},"vehicle_type_id":"4","last_reported":1774038048,"current_range_meters":5600,"station_id":"ce4bh692rcd13ifvqea0","pricing_plan_id":"cebpf4jnsgd1na2vs0mg"},{"bike_id":"c48440d7-f4d5-4be3-a842-7dc1a317748e","system_id":"levelo_inurba_marseille","lat":43.33942,"lon":5.35726,"is_reserved":false,"is_disabled":false,"rental_uris":{"android":"levelo://app?vid=c48440d7-f4d5-4be3-a842-7dc1a317748e","ios":"levelo://app?vid=c48440d7-f4d5-4be3-a842-7dc1a317748e"},"vehicle_type_id":"4","last_reported":1774038048,"current_range_meters":5600,"station_id":"","pricing_plan_id":"cebpf4jnsgd1na2vs0mg"},{"bike_id":"c1a96237-9683-4d46-b49f-fd6fbd970e42","system_id":"levelo_inurba_marseille","lat":43.28621,"lon":5.39901,"is_reserved":false,"is_disabled":false,"rental_uris":{"android":"levelo://app?vid=c1a96237-9683-4d46-b49f-fd6fbd970e42","ios":"levelo://app?vid=c1a96237-9683-4d46-b49f-fd6fbd970e42"},"vehicle_type_id":"4","last_reported":1774038048,"current_range_meters":5600,"station_id":"st_d4a7ka997mjs738ck50g","pricing_plan_id":"cebpf4jnsgd1na2vs0mg"},{"bike_id":"c0af0d2d-ef19-456a-8a0f-587d767ce3c1","system_id":"levelo_inurba_marseille","lat":43.28943,"lon":5.36633,"is_reserved":false,"is_disabled":false,"rental_uris":{"android":"levelo://app?vid=c0af0d2d-ef19-456a-8a0f-587d767ce3c1","ios":"levelo://app?vid=c0af0d2d-ef19-456a-8a0f-587d767ce3c1"},"vehicle_type_id":"4","last_reported":1774038048,"current_range_meters":6000,"station_id":"ce4bhap2rcd13ifvqek0","pricing_plan_id":"cebpf4jnsgd1na2vs0mg"},{"bike_id":"ac4ca0f2-f5c2-4c9c-81db-9f7b20e89d0c","system_id":"levelo_inurba_marseille","lat":43.28533,"lon":5.44099,"is_reserved":false,"is_disabled":true,"rental_uris":{"android":"levelo://app?vid=ac4ca0f2-f5c2-4c9c-81db-9f7b20e89d0c","ios":"levelo://app?vid=ac4ca0f2-f5c2-4c9c-81db-9f7b20e89d0c"},"vehicle_type_id":"4","last_reported":1774038048,"current_range_meters":6000,"station_id":"st_d3j3df2ikq2c7380ej80","pricing_plan_id":"cebpf4jnsgd1na2vs0mg"},{"bike_id":"c6b20400-3641-48f3-b609-b110a5527d07","system_id":"levelo_inurba_marseille","lat":43.22567,"lon":5.41623,"is_reserved":false,"is_disabled":false,"rental_uris":{"android":"levelo://app?vid=c6b20400-3641-48f3-b609-b110a5527d07","ios":"levelo://app?vid=c6b20400-3641-48f3-b609-b110a5527d07"},"vehicle_type_id":"4","last_reported":1774038048,"current_range_meters":6000,"station_id":"st_d2o4gvlbi1j2169b742g","pricing_plan_id":"cebpf4jnsgd1na2vs0mg"},{"bike_id":"53ffd145-e808-4874-b669-0ac8a6361161","system_id":"levelo_inurba_marseille","lat":43.24824,"lon":5.37452,"is_reserved":false,"is_disabled":false,"rental_uris":{"android":"levelo://app?vid=53ffd145-e808-4874-b669-0ac8a6361161","ios":"levelo://app?vid=53ffd145-e808-4874-b669-0ac8a6361161"},"vehicle_type_id":"4","last_reported":1774038048,"current_range_meters":6000,"station_id":"ce4bhgh2rcd13ifvqfb0","pricing_plan_id":"cebpf4jnsgd1na2vs0mg"},{"bike_id":"f35291ea-a517-45e6-bccf-54011aa5a0ff","system_id":"levelo_inurba_marseille","lat":43.28019,"lon":5.36954,"is_reserved":false,"is_disabled":false,"rental_uris":{"android":"levelo://app?vid=f35291ea-a517-45e6-bccf-54011aa5a0ff","ios":"levelo://app?vid=f35291ea-a517-45e6-bccf-54011aa5a0ff"},"vehicle_type_id":"4","last_reported":1774038048,"current_range_meters":6000,"station_id":"ce4bha12rcd13ifvqef0","pricing_plan_id":"cebpf4jnsgd1na2vs0mg"},{"bike_id":"119d24bc-e3dd-4e47-a0b9-64bbbcc5b1ee","system_id":"levelo_inurba_marseille","lat":43.21758,"lon":5.34608,"is_reserved":false,"is_disabled":true,"rental_uris":{"android":"levelo://app?vid=119d24bc-e3dd-4e47-a0b9-64bbbcc5b1ee","ios":"levelo://app?vid=119d24bc-e3dd-4e47-a0b9-64bbbcc5b1ee"},"vehicle_type_id":"4","last_reported":1774038048,"current_range_meters":6000,"station_id":"st_cvj6r9ubvosntc0bgbag","pricing_plan_id":"cebpf4jnsgd1na2vs0mg"},{"bike_id":"ba2f8fd0-11ac-4347-b470-23519177c832","system_id":"levelo_inurba_marseille","lat":43.2982,"lon":5.44053,"is_reserved":false,"is_disabled":false,"rental_uris":{"android":"levelo://app?vid=ba2f8fd0-11ac-4347-b470-23519177c832","ios":"levelo://app?vid=ba2f8fd0-11ac-4347-b470-23519177c832"},"vehicle_type_id":"4","last_reported":1774038048,"current_range_meters":6000,"station_id":"st_d3jp68qikq2c7381ktn0","pricing_plan_id":"cebpf4jnsgd1na2vs0mg"},{"bike_id":"b3c6d6a6-3de8-4a56-9364-dd749f0d5086","system_id":"levelo_inurba_marseille","lat":43.28153,"lon":5.42639,"is_reserved":false,"is_disabled":false,"rental_uris":{"android":"levelo://app?vid=b3c6d6a6-3de8-4a56-9364-dd749f0d5086","ios":"levelo://app?vid=b3c6d6a6-3de8-4a56-9364-dd749f0d5086"},"vehicle_type_id":"4","last_reported":1774038048,"current_range_meters":6000,"station_id":"ce4bhnh2rcd13ifvqgug","pricing_plan_id":"cebpf4jnsgd1na2vs0mg"},{"bike_id":"a41de53c-a6b7-4218-a883-add34022c124","system_id":"levelo_inurba_marseille","lat":43.24814,"lon":5.37466,"is_reserved":false,"is_disabled":false,"rental_uris":{"android":"levelo://app?vid=a41de53c-a6b7-4218-a883-add34022c124","ios":"levelo://app?vid=a41de53c-a6b7-4218-a883-add34022c124"},"vehicle_type_id":"4","last_reported":1774038048,"current_range_meters":6000,"station_id":"ce4bhgh2rcd13ifvqfb0","pricing_plan_id":"cebpf4jnsgd1na2vs0mg"},{"bike_id":"3c76fb79-92b3-4803-a35d-7a9a81d21794","system_id":"levelo_inurba_marseille","lat":43.22938,"lon":5.3538,"is_reserved":false,"is_disabled":false,"rental_uris":{"android":"levelo://app?vid=3c76fb79-92b3-4803-a35d-7a9a81d21794","ios":"levelo://app?vid=3c76fb79-92b3-4803-a35d-7a9a81d21794"},"vehicle_type_id":"4","last_reported":1774038048,"current_range_meters":6000,"station_id":"cpo3532slgdg3j2ikp40","pricing_plan_id":"cebpf4jnsgd1na2vs0mg"},{"bike_id":"728828d1-4e09-4be1-90f1-230ea3964f80","system_id":"levelo_inurba_marseille","lat":43.26358,"lon":5.41094,"is_reserved":false,"is_disabled":false,"rental_uris":{"android":"levelo://app?vid=728828d1-4e09-4be1-90f1-230ea3964f80","ios":"levelo://app?vid=728828d1-4e09-4be1-90f1-230ea3964f80"},"vehicle_type_id":"4","last_reported":1774038048,"current_range_meters":6000,"station_id":"st_d4e5ca6na9uc73bfl5fg","pricing_plan_id":"cebpf4jnsgd1na2vs0mg"},{"bike_id":"6af48b78-9264-46e8-acef-b91c65aa129d","system_id":"levelo_inurba_marseille","lat":43.29254,"lon":5.38444,"is_reserved":false,"is_disabled":false,"rental_uris":{"android":"levelo://app?vid=6af48b78-9264-46e8-acef-b91c65aa129d","ios":"levelo://app?vid=6af48b78-9264-46e8-acef-b91c65aa129d"},"vehicle_type_id":"4","last_reported":1774038048,"current_range_meters":6000,"station_id":"ce4bh692rcd13ifvqea0","pricing_plan_id":"cebpf4jnsgd1na2vs0mg"},{"bike_id":"f87abf5d-907a-48bd-958f-a7e7824420eb","system_id":"levelo_inurba_marseille","lat":43.301389,"lon":5.398578,"is_reserved":false,"is_disabled":false,"rental_uris":{"android":"levelo://app?vid=f87abf5d-907a-48bd-958f-a7e7824420eb","ios":"levelo://app?vid=f87abf5d-907a-48bd-958f-a7e7824420eb"},"vehicle_type_id":"4","last_reported":1774038048,"current_range_meters":6000,"station_id":"ce4bh0h2rcd13ifvqd40","pricing_plan_id":"cebpf4jnsgd1na2vs0mg"},{"bike_id":"a8676dec-714d-4196-8ee5-c630f314ac31","system_id":"levelo_inurba_marseille","lat":43.2926,"lon":5.38432,"is_reserved":false,"is_disabled":false,"rental_uris":{"android":"levelo://app?vid=a8676dec-714d-4196-8ee5-c630f314ac31","ios":"levelo://app?vid=a8676dec-714d-4196-8ee5-c630f314ac31"},"vehicle_type_id":"4","last_reported":1774038048,"current_range_meters":6000,"station_id":"ce4bh692rcd13ifvqea0","pricing_plan_id":"cebpf4jnsgd1na2vs0mg"},{"bike_id":"74ebb480-171b-43e5-b0fc-ba46b71dee8d","system_id":"levelo_inurba_marseille","lat":43.25342,"lon":5.42171,"is_reserved":false,"is_disabled":true,"rental_uris":{"android":"levelo://app?vid=74ebb480-171b-43e5-b0fc-ba46b71dee8d","ios":"levelo://app?vid=74ebb480-171b-43e5-b0fc-ba46b71dee8d"},"vehicle_type_id":"4","last_reported":1774038048,"current_range_meters":6000,"station_id":"st_d2m65c5bi1j21697t3ng","pricing_plan_id":"cebpf4jnsgd1na2vs0mg"},{"bike_id":"bd598ed8-ca60-43aa-9f4f-a4ae2817d521","system_id":"levelo_inurba_marseille","lat":43.27819,"lon":5.40734,"is_reserved":false,"is_disabled":false,"rental_uris":{"android":"levelo://app?vid=bd598ed8-ca60-43aa-9f4f-a4ae2817d521","ios":"levelo://app?vid=bd598ed8-ca60-43aa-9f4f-a4ae2817d521"},"vehicle_type_id":"4","last_reported":1774038048,"current_range_meters":6000,"station_id":"ce4bhnh2rcd13ifvqgtg","pricing_plan_id":"cebpf4jnsgd1na2vs0mg"},{"bike_id":"69764ffb-a2a8-40c2-b881-193bb8aef64e","system_id":"levelo_inurba_marseille","lat":43.29178,"lon":5.37135,"is_reserved":false,"is_disabled":false,"rental_uris":{"android":"levelo://app?vid=69764ffb-a2a8-40c2-b881-193bb8aef64e","ios":"levelo://app?vid=69764ffb-a2a8-40c2-b881-193bb8aef64e"},"vehicle_type_id":"4","last_reported":1774038048,"current_range_meters":6400,"station_id":"ce4bha92rcd13ifvqeh0","pricing_plan_id":"cebpf4jnsgd1na2vs0mg"},{"bike_id":"5c37a49c-ab60-4c11-8a61-6592ff444186","system_id":"levelo_inurba_marseille","lat":43.27908,"lon":5.39175,"is_reserved":false,"is_disabled":false,"rental_uris":{"android":"levelo://app?vid=5c37a49c-ab60-4c11-8a61-6592ff444186","ios":"levelo://app?vid=5c37a49c-ab60-4c11-8a61-6592ff444186"},"vehicle_type_id":"4","last_reported":1774038048,"current_range_meters":6400,"station_id":"","pricing_plan_id":"cebpf4jnsgd1na2vs0mg"},{"bike_id":"d99c0162-f6d1-4d2c-acef-490ddcd63ab1","system_id":"levelo_inurba_marseille","lat":43.28969,"lon":5.37836,"is_reserved":false,"is_disabled":false,"rental_uris":{"android":"levelo://app?vid=d99c0162-f6d1-4d2c-acef-490ddcd63ab1","ios":"levelo://app?vid=d99c0162-f6d1-4d2c-acef-490ddcd63ab1"},"vehicle_type_id":"4","last_reported":1774038048,"current_range_meters":6400,"station_id":"ce4bh9p2rcd13ifvqed0","pricing_plan_id":"cebpf4jnsgd1na2vs0mg"},{"bike_id":"0bf6c4b7-8d6d-4be9-8c29-dce2b3d35f54","system_id":"levelo_inurba_marseille","lat":43.309063,"lon":5.368442,"is_reserved":false,"is_disabled":false,"rental_uris":{"android":"levelo://app?vid=0bf6c4b7-8d6d-4be9-8c29-dce2b3d35f54","ios":"levelo://app?vid=0bf6c4b7-8d6d-4be9-8c29-dce2b3d35f54"},"vehicle_type_id":"4","last_reported":1774038048,"current_range_meters":6400,"station_id":"ce4bgn92rcd13ifvqbvg","pricing_plan_id":"cebpf4jnsgd1na2vs0mg"},{"bike_id":"5e4b5793-2c1e-41e8-a298-3408d7bdab5a","system_id":"levelo_inurba_marseille","lat":43.29966,"lon":5.38495,"is_reserved":false,"is_disabled":false,"rental_uris":{"android":"levelo://app?vid=5e4b5793-2c1e-41e8-a298-3408d7bdab5a","ios":"levelo://app?vid=5e4b5793-2c1e-41e8-a298-3408d7bdab5a"},"vehicle_type_id":"4","last_reported":1774038048,"current_range_meters":6400,"station_id":"ce4bgj92rcd13ifvqbd0","pricing_plan_id":"cebpf4jnsgd1na2vs0mg"},{"bike_id":"f7697ba6-47cd-49dc-87b3-4c8a39e051bb","system_id":"levelo_inurba_marseille","lat":43.3056,"lon":5.36595,"is_reserved":false,"is_disabled":false,"rental_uris":{"android":"levelo://app?vid=f7697ba6-47cd-49dc-87b3-4c8a39e051bb","ios":"levelo://app?vid=f7697ba6-47cd-49dc-87b3-4c8a39e051bb"},"vehicle_type_id":"4","last_reported":1774038048,"current_range_meters":6400,"station_id":"ce4bgs12rcd13ifvqcag","pricing_plan_id":"cebpf4jnsgd1na2vs0mg"},{"bike_id":"3e5c7bdb-60ee-4795-a793-9681791a8e87","system_id":"levelo_inurba_marseille","lat":43.29761,"lon":5.42783,"is_reserved":false,"is_disabled":false,"rental_uris":{"android":"levelo://app?vid=3e5c7bdb-60ee-4795-a793-9681791a8e87","ios":"levelo://app?vid=3e5c7bdb-60ee-4795-a793-9681791a8e87"},"vehicle_type_id":"4","last_reported":1774038048,"current_range_meters":6400,"station_id":"st_d3md5207bmas73dh9klg","pricing_plan_id":"cebpf4jnsgd1na2vs0mg"},{"bike_id":"1268dfdb-caaf-41c9-bc15-54ccf71f856d","system_id":"levelo_inurba_marseille","lat":43.24781,"lon":5.37483,"is_reserved":false,"is_disabled":false,"rental_uris":{"android":"levelo://app?vid=1268dfdb-caaf-41c9-bc15-54ccf71f856d","ios":"levelo://app?vid=1268dfdb-caaf-41c9-bc15-54ccf71f856d"},"vehicle_type_id":"4","last_reported":1774038048,"current_range_meters":6400,"station_id":"ce4bhgh2rcd13ifvqfb0","pricing_plan_id":"cebpf4jnsgd1na2vs0mg"},{"bike_id":"31caa62d-cb2c-42fd-aa8e-1e9ca230fd55","system_id":"levelo_inurba_marseille","lat":43.28038,"lon":5.36936,"is_reserved":false,"is_disabled":false,"rental_uris":{"android":"levelo://app?vid=31caa62d-cb2c-42fd-aa8e-1e9ca230fd55","ios":"levelo://app?vid=31caa62d-cb2c-42fd-aa8e-1e9ca230fd55"},"vehicle_type_id":"4","last_reported":1774038048,"current_range_meters":6400,"station_id":"ce4bha12rcd13ifvqef0","pricing_plan_id":"cebpf4jnsgd1na2vs0mg"},{"bike_id":"ea98c126-ecbf-4f2c-9bc3-d44b4729d199","system_id":"levelo_inurba_marseille","lat":43.31252,"lon":5.41339,"is_reserved":false,"is_disabled":false,"rental_uris":{"android":"levelo://app?vid=ea98c126-ecbf-4f2c-9bc3-d44b4729d199","ios":"levelo://app?vid=ea98c126-ecbf-4f2c-9bc3-d44b4729d199"},"vehicle_type_id":"4","last_reported":1774038048,"current_range_meters":6400,"station_id":"","pricing_plan_id":"cebpf4jnsgd1na2vs0mg"},{"bike_id":"51cee39c-bcfa-4eae-8467-838065c31f61","system_id":"levelo_inurba_marseille","lat":43.29552,"lon":5.38539,"is_reserved":false,"is_disabled":false,"rental_uris":{"android":"levelo://app?vid=51cee39c-bcfa-4eae-8467-838065c31f61","ios":"levelo://app?vid=51cee39c-bcfa-4eae-8467-838065c31f61"},"vehicle_type_id":"4","last_reported":1774038048,"current_range_meters":6400,"station_id":"ce4bgih2rcd13ifvqba0","pricing_plan_id":"cebpf4jnsgd1na2vs0mg"},{"bike_id":"29ceb06a-4df8-4e2a-9dd9-b070e185b37f","system_id":"levelo_inurba_marseille","lat":43.28473,"lon":5.48414,"is_reserved":false,"is_disabled":false,"rental_uris":{"android":"levelo://app?vid=29ceb06a-4df8-4e2a-9dd9-b070e185b37f","ios":"levelo://app?vid=29ceb06a-4df8-4e2a-9dd9-b070e185b37f"},"vehicle_type_id":"4","last_reported":1774038048,"current_range_meters":6400,"station_id":"st_d3svhcjqgbts73a3dn0g","pricing_plan_id":"cebpf4jnsgd1na2vs0mg"},{"bike_id":"c142af26-b83c-4aa3-ab8b-699576493d34","system_id":"levelo_inurba_marseille","lat":43.21207,"lon":5.3507,"is_reserved":false,"is_disabled":true,"rental_uris":{"android":"levelo://app?vid=c142af26-b83c-4aa3-ab8b-699576493d34","ios":"levelo://app?vid=c142af26-b83c-4aa3-ab8b-699576493d34"},"vehicle_type_id":"4","last_reported":1774038048,"current_range_meters":6400,"station_id":"st_cvj6sg6p6f1abm77japg","pricing_plan_id":"cebpf4jnsgd1na2vs0mg"},{"bike_id":"29705345-7a8e-4bdd-8b65-5ba8856c877f","system_id":"levelo_inurba_marseille","lat":43.30306,"lon":5.44936,"is_reserved":false,"is_disabled":false,"rental_uris":{"android":"levelo://app?vid=29705345-7a8e-4bdd-8b65-5ba8856c877f","ios":"levelo://app?vid=29705345-7a8e-4bdd-8b65-5ba8856c877f"},"vehicle_type_id":"4","last_reported":1774038048,"current_range_meters":6400,"station_id":"","pricing_plan_id":"cebpf4jnsgd1na2vs0mg"},{"bike_id":"066e1b7f-f865-4116-8c9e-32abc0222760","system_id":"levelo_inurba_marseille","lat":43.31328,"lon":5.39698,"is_reserved":false,"is_disabled":false,"rental_uris":{"android":"levelo://app?vid=066e1b7f-f865-4116-8c9e-32abc0222760","ios":"levelo://app?vid=066e1b7f-f865-4116-8c9e-32abc0222760"},"vehicle_type_id":"4","last_reported":1774038048,"current_range_meters":6400,"station_id":"ce4bgvp2rcd13ifvqcu0","pricing_plan_id":"cebpf4jnsgd1na2vs0mg"},{"bike_id":"b022b9bc-b363-440b-af19-cb6f1734cb1c","system_id":"levelo_inurba_marseille","lat":43.29259,"lon":5.38431,"is_reserved":false,"is_disabled":false,"rental_uris":{"android":"levelo://app?vid=b022b9bc-b363-440b-af19-cb6f1734cb1c","ios":"levelo://app?vid=b022b9bc-b363-440b-af19-cb6f1734cb1c"},"vehicle_type_id":"4","last_reported":1774038048,"current_range_meters":6400,"station_id":"ce4bh692rcd13ifvqea0","pricing_plan_id":"cebpf4jnsgd1na2vs0mg"},{"bike_id":"847f52b5-76c9-4426-9cb4-ca8e9af7a1b0","system_id":"levelo_inurba_marseille","lat":43.31363,"lon":5.38487,"is_reserved":false,"is_disabled":false,"rental_uris":{"android":"levelo://app?vid=847f52b5-76c9-4426-9cb4-ca8e9af7a1b0","ios":"levelo://app?vid=847f52b5-76c9-4426-9cb4-ca8e9af7a1b0"},"vehicle_type_id":"4","last_reported":1774038048,"current_range_meters":6400,"station_id":"ce4bgt92rcd13ifvqcf0","pricing_plan_id":"cebpf4jnsgd1na2vs0mg"},{"bike_id":"73bd80b3-b4ae-4b5f-ac57-681f0f151051","system_id":"levelo_inurba_marseille","lat":43.29702,"lon":5.376961,"is_reserved":false,"is_disabled":false,"rental_uris":{"android":"levelo://app?vid=73bd80b3-b4ae-4b5f-ac57-681f0f151051","ios":"levelo://app?vid=73bd80b3-b4ae-4b5f-ac57-681f0f151051"},"vehicle_type_id":"4","last_reported":1774038048,"current_range_meters":6400,"station_id":"ce4bgkh2rcd13ifvqbl0","pricing_plan_id":"cebpf4jnsgd1na2vs0mg"},{"bike_id":"e2ea75d3-abe2-4f63-a963-106ca74742fa","system_id":"levelo_inurba_marseille","lat":43.30535,"lon":5.36555,"is_reserved":false,"is_disabled":false,"rental_uris":{"android":"levelo://app?vid=e2ea75d3-abe2-4f63-a963-106ca74742fa","ios":"levelo://app?vid=e2ea75d3-abe2-4f63-a963-106ca74742fa"},"vehicle_type_id":"4","last_reported":1774038048,"current_range_meters":6400,"station_id":"ce4bgs12rcd13ifvqcag","pricing_plan_id":"cebpf4jnsgd1na2vs0mg"},{"bike_id":"23c209c6-7d3c-4387-b04a-03a2b9a72d01","system_id":"levelo_inurba_marseille","lat":43.28372,"lon":5.43256,"is_reserved":false,"is_disabled":false,"rental_uris":{"android":"levelo://app?vid=23c209c6-7d3c-4387-b04a-03a2b9a72d01","ios":"levelo://app?vid=23c209c6-7d3c-4387-b04a-03a2b9a72d01"},"vehicle_type_id":"4","last_reported":1774038048,"current_range_meters":6400,"station_id":"","pricing_plan_id":"cebpf4jnsgd1na2vs0mg"},{"bike_id":"a1ce7f88-8f8c-48ff-bc8b-8021c61764ea","system_id":"levelo_inurba_marseille","lat":43.33542,"lon":5.37467,"is_reserved":false,"is_disabled":false,"rental_uris":{"android":"levelo://app?vid=a1ce7f88-8f8c-48ff-bc8b-8021c61764ea","ios":"levelo://app?vid=a1ce7f88-8f8c-48ff-bc8b-8021c61764ea"},"vehicle_type_id":"4","last_reported":1774038048,"current_range_meters":6400,"station_id":"st_d46tts09ee8s73dlu43g","pricing_plan_id":"cebpf4jnsgd1na2vs0mg"},{"bike_id":"2f25180c-d604-427d-a094-e0c4d1040987","system_id":"levelo_inurba_marseille","lat":43.29268,"lon":5.38422,"is_reserved":false,"is_disabled":false,"rental_uris":{"android":"levelo://app?vid=2f25180c-d604-427d-a094-e0c4d1040987","ios":"levelo://app?vid=2f25180c-d604-427d-a094-e0c4d1040987"},"vehicle_type_id":"4","last_reported":1774038048,"current_range_meters":6400,"station_id":"ce4bh692rcd13ifvqea0","pricing_plan_id":"cebpf4jnsgd1na2vs0mg"},{"bike_id":"3d8b9441-846b-4bc6-a99f-7538b53156c2","system_id":"levelo_inurba_marseille","lat":43.29796,"lon":5.38106,"is_reserved":false,"is_disabled":true,"rental_uris":{"android":"levelo://app?vid=3d8b9441-846b-4bc6-a99f-7538b53156c2","ios":"levelo://app?vid=3d8b9441-846b-4bc6-a99f-7538b53156c2"},"vehicle_type_id":"4","last_reported":1774038048,"current_range_meters":6800,"station_id":"ce4bgip2rcd13ifvqbb0","pricing_plan_id":"cebpf4jnsgd1na2vs0mg"},{"bike_id":"55c3fa5b-17ab-470f-bb83-b8ffae49ce3d","system_id":"levelo_inurba_marseille","lat":43.29532,"lon":5.39034,"is_reserved":false,"is_disabled":false,"rental_uris":{"android":"levelo://app?vid=55c3fa5b-17ab-470f-bb83-b8ffae49ce3d","ios":"levelo://app?vid=55c3fa5b-17ab-470f-bb83-b8ffae49ce3d"},"vehicle_type_id":"4","last_reported":1774038048,"current_range_meters":6800,"station_id":"ce4bh3p2rcd13ifvqdp0","pricing_plan_id":"cebpf4jnsgd1na2vs0mg"},{"bike_id":"f328e3b6-a38c-49fe-80e0-c552630893a5","system_id":"levelo_inurba_marseille","lat":43.22928,"lon":5.35393,"is_reserved":false,"is_disabled":false,"rental_uris":{"android":"levelo://app?vid=f328e3b6-a38c-49fe-80e0-c552630893a5","ios":"levelo://app?vid=f328e3b6-a38c-49fe-80e0-c552630893a5"},"vehicle_type_id":"4","last_reported":1774038048,"current_range_meters":6800,"station_id":"cpo3532slgdg3j2ikp40","pricing_plan_id":"cebpf4jnsgd1na2vs0mg"},{"bike_id":"a775511c-9985-4a58-8c4c-775aad7f3e36","system_id":"levelo_inurba_marseille","lat":43.29908,"lon":5.43645,"is_reserved":false,"is_disabled":false,"rental_uris":{"android":"levelo://app?vid=a775511c-9985-4a58-8c4c-775aad7f3e36","ios":"levelo://app?vid=a775511c-9985-4a58-8c4c-775aad7f3e36"},"vehicle_type_id":"4","last_reported":1774038048,"current_range_meters":6800,"station_id":"ce4bhpp2rcd13ifvqhfg","pricing_plan_id":"cebpf4jnsgd1na2vs0mg"},{"bike_id":"0e407d3d-5373-4463-bfd7-ba381d27e0d3","system_id":"levelo_inurba_marseille","lat":43.29528,"lon":5.39403,"is_reserved":false,"is_disabled":false,"rental_uris":{"android":"levelo://app?vid=0e407d3d-5373-4463-bfd7-ba381d27e0d3","ios":"levelo://app?vid=0e407d3d-5373-4463-bfd7-ba381d27e0d3"},"vehicle_type_id":"4","last_reported":1774038048,"current_range_meters":6800,"station_id":"ce4bh292rcd13ifvqdf0","pricing_plan_id":"cebpf4jnsgd1na2vs0mg"},{"bike_id":"7c723f6d-893b-4994-b439-29ac7135ff2e","system_id":"levelo_inurba_marseille","lat":43.29876,"lon":5.39736,"is_reserved":false,"is_disabled":false,"rental_uris":{"android":"levelo://app?vid=7c723f6d-893b-4994-b439-29ac7135ff2e","ios":"levelo://app?vid=7c723f6d-893b-4994-b439-29ac7135ff2e"},"vehicle_type_id":"4","last_reported":1774038048,"current_range_meters":6800,"station_id":"ce4bh0h2rcd13ifvqd50","pricing_plan_id":"cebpf4jnsgd1na2vs0mg"},{"bike_id":"36e90825-0a4c-4783-80db-abf887e1012e","system_id":"levelo_inurba_marseille","lat":43.24839,"lon":5.3744,"is_reserved":false,"is_disabled":false,"rental_uris":{"android":"levelo://app?vid=36e90825-0a4c-4783-80db-abf887e1012e","ios":"levelo://app?vid=36e90825-0a4c-4783-80db-abf887e1012e"},"vehicle_type_id":"4","last_reported":1774038048,"current_range_meters":6800,"station_id":"","pricing_plan_id":"cebpf4jnsgd1na2vs0mg"},{"bike_id":"5ea68d44-1982-470b-b617-05246700513c","system_id":"levelo_inurba_marseille","lat":43.313457,"lon":5.367051,"is_reserved":false,"is_disabled":false,"rental_uris":{"android":"levelo://app?vid=5ea68d44-1982-470b-b617-05246700513c","ios":"levelo://app?vid=5ea68d44-1982-470b-b617-05246700513c"},"vehicle_type_id":"4","last_reported":1774038048,"current_range_meters":6800,"station_id":"ce4bgr92rcd13ifvqc6g","pricing_plan_id":"cebpf4jnsgd1na2vs0mg"},{"bike_id":"f2a1264e-1a0f-4232-99d7-3ea69f966741","system_id":"levelo_inurba_marseille","lat":43.29977,"lon":5.38503,"is_reserved":false,"is_disabled":false,"rental_uris":{"android":"levelo://app?vid=f2a1264e-1a0f-4232-99d7-3ea69f966741","ios":"levelo://app?vid=f2a1264e-1a0f-4232-99d7-3ea69f966741"},"vehicle_type_id":"4","last_reported":1774038048,"current_range_meters":6800,"station_id":"ce4bgj92rcd13ifvqbd0","pricing_plan_id":"cebpf4jnsgd1na2vs0mg"},{"bike_id":"f88beddb-d7c4-4148-9f8c-56ddec396a56","system_id":"levelo_inurba_marseille","lat":43.2481,"lon":5.37454,"is_reserved":false,"is_disabled":false,"rental_uris":{"android":"levelo://app?vid=f88beddb-d7c4-4148-9f8c-56ddec396a56","ios":"levelo://app?vid=f88beddb-d7c4-4148-9f8c-56ddec396a56"},"vehicle_type_id":"4","last_reported":1774038048,"current_range_meters":6800,"station_id":"ce4bhgh2rcd13ifvqfb0","pricing_plan_id":"cebpf4jnsgd1na2vs0mg"},{"bike_id":"e5eba928-e3a4-441b-9540-937747ee47b9","system_id":"levelo_inurba_marseille","lat":43.22568,"lon":5.41628,"is_reserved":false,"is_disabled":false,"rental_uris":{"android":"levelo://app?vid=e5eba928-e3a4-441b-9540-937747ee47b9","ios":"levelo://app?vid=e5eba928-e3a4-441b-9540-937747ee47b9"},"vehicle_type_id":"4","last_reported":1774038048,"current_range_meters":6800,"station_id":"st_d2o4gvlbi1j2169b742g","pricing_plan_id":"cebpf4jnsgd1na2vs0mg"},{"bike_id":"df39463a-2c4e-4d84-b833-2dafcf0a7834","system_id":"levelo_inurba_marseille","lat":43.31358,"lon":5.38496,"is_reserved":false,"is_disabled":false,"rental_uris":{"android":"levelo://app?vid=df39463a-2c4e-4d84-b833-2dafcf0a7834","ios":"levelo://app?vid=df39463a-2c4e-4d84-b833-2dafcf0a7834"},"vehicle_type_id":"4","last_reported":1774038048,"current_range_meters":7200,"station_id":"ce4bgt92rcd13ifvqcf0","pricing_plan_id":"cebpf4jnsgd1na2vs0mg"},{"bike_id":"d4bdd173-78c7-4a96-b0a8-c9b4c4e56d68","system_id":"levelo_inurba_marseille","lat":43.2845,"lon":5.37554,"is_reserved":false,"is_disabled":true,"rental_uris":{"android":"levelo://app?vid=d4bdd173-78c7-4a96-b0a8-c9b4c4e56d68","ios":"levelo://app?vid=d4bdd173-78c7-4a96-b0a8-c9b4c4e56d68"},"vehicle_type_id":"4","last_reported":1774038048,"current_range_meters":7200,"station_id":"","pricing_plan_id":"cebpf4jnsgd1na2vs0mg"},{"bike_id":"53f48266-4564-420b-96ab-d243233055dc","system_id":"levelo_inurba_marseille","lat":43.28465,"lon":5.48402,"is_reserved":false,"is_disabled":false,"rental_uris":{"android":"levelo://app?vid=53f48266-4564-420b-96ab-d243233055dc","ios":"levelo://app?vid=53f48266-4564-420b-96ab-d243233055dc"},"vehicle_type_id":"4","last_reported":1774038048,"current_range_meters":7200,"station_id":"","pricing_plan_id":"cebpf4jnsgd1na2vs0mg"},{"bike_id":"acf97841-6862-4945-9240-4ea1b0920399","system_id":"levelo_inurba_marseille","lat":43.27675,"lon":5.38866,"is_reserved":false,"is_disabled":false,"rental_uris":{"android":"levelo://app?vid=acf97841-6862-4945-9240-4ea1b0920399","ios":"levelo://app?vid=acf97841-6862-4945-9240-4ea1b0920399"},"vehicle_type_id":"4","last_reported":1774038048,"current_range_meters":7200,"station_id":"ce4bhi12rcd13ifvqfo0","pricing_plan_id":"cebpf4jnsgd1na2vs0mg"},{"bike_id":"a9fdb929-da1e-433d-b785-39d9b1b4ade4","system_id":"levelo_inurba_marseille","lat":43.3033,"lon":5.40429,"is_reserved":false,"is_disabled":false,"rental_uris":{"android":"levelo://app?vid=a9fdb929-da1e-433d-b785-39d9b1b4ade4","ios":"levelo://app?vid=a9fdb929-da1e-433d-b785-39d9b1b4ade4"},"vehicle_type_id":"4","last_reported":1774038048,"current_range_meters":7200,"station_id":"ce4bh012rcd13ifvqd10","pricing_plan_id":"cebpf4jnsgd1na2vs0mg"},{"bike_id":"060a17fc-c9dc-4a7f-9c4a-c3774a52d50f","system_id":"levelo_inurba_marseille","lat":43.29519,"lon":5.37505,"is_reserved":false,"is_disabled":false,"rental_uris":{"android":"levelo://app?vid=060a17fc-c9dc-4a7f-9c4a-c3774a52d50f","ios":"levelo://app?vid=060a17fc-c9dc-4a7f-9c4a-c3774a52d50f"},"vehicle_type_id":"4","last_reported":1774038048,"current_range_meters":7200,"station_id":"ce4bgkp2rcd13ifvqbmg","pricing_plan_id":"cebpf4jnsgd1na2vs0mg"},{"bike_id":"c55f3fc5-5edf-4ef9-9d84-f8899b074dbb","system_id":"levelo_inurba_marseille","lat":43.28855,"lon":5.42514,"is_reserved":false,"is_disabled":false,"rental_uris":{"android":"levelo://app?vid=c55f3fc5-5edf-4ef9-9d84-f8899b074dbb","ios":"levelo://app?vid=c55f3fc5-5edf-4ef9-9d84-f8899b074dbb"},"vehicle_type_id":"4","last_reported":1774038048,"current_range_meters":7200,"station_id":"","pricing_plan_id":"cebpf4jnsgd1na2vs0mg"},{"bike_id":"7707cab1-4296-494c-b2ee-1dc0e5366514","system_id":"levelo_inurba_marseille","lat":43.29202,"lon":5.39313,"is_reserved":false,"is_disabled":false,"rental_uris":{"android":"levelo://app?vid=7707cab1-4296-494c-b2ee-1dc0e5366514","ios":"levelo://app?vid=7707cab1-4296-494c-b2ee-1dc0e5366514"},"vehicle_type_id":"4","last_reported":1774038048,"current_range_meters":7200,"station_id":"ce4bh192rcd13ifvqdd0","pricing_plan_id":"cebpf4jnsgd1na2vs0mg"},{"bike_id":"ec805567-1bc2-4aa0-9a36-661edaf8b31c","system_id":"levelo_inurba_marseille","lat":43.29242,"lon":5.39217,"is_reserved":false,"is_disabled":false,"rental_uris":{"android":"levelo://app?vid=ec805567-1bc2-4aa0-9a36-661edaf8b31c","ios":"levelo://app?vid=ec805567-1bc2-4aa0-9a36-661edaf8b31c"},"vehicle_type_id":"4","last_reported":1774038048,"current_range_meters":7200,"station_id":"","pricing_plan_id":"cebpf4jnsgd1na2vs0mg"},{"bike_id":"0229787f-3585-41fd-a359-a19c5bd305b9","system_id":"levelo_inurba_marseille","lat":43.28967,"lon":5.37844,"is_reserved":false,"is_disabled":false,"rental_uris":{"android":"levelo://app?vid=0229787f-3585-41fd-a359-a19c5bd305b9","ios":"levelo://app?vid=0229787f-3585-41fd-a359-a19c5bd305b9"},"vehicle_type_id":"4","last_reported":1774038048,"current_range_meters":7200,"station_id":"ce4bh9p2rcd13ifvqed0","pricing_plan_id":"cebpf4jnsgd1na2vs0mg"},{"bike_id":"89ad46cf-ad84-4e5e-be57-87ac2cebe69c","system_id":"levelo_inurba_marseille","lat":43.28457,"lon":5.48411,"is_reserved":false,"is_disabled":false,"rental_uris":{"android":"levelo://app?vid=89ad46cf-ad84-4e5e-be57-87ac2cebe69c","ios":"levelo://app?vid=89ad46cf-ad84-4e5e-be57-87ac2cebe69c"},"vehicle_type_id":"4","last_reported":1774038048,"current_range_meters":7200,"station_id":"st_d3svhcjqgbts73a3dn0g","pricing_plan_id":"cebpf4jnsgd1na2vs0mg"},{"bike_id":"72bc887f-09fa-4910-916a-ced2a3ade466","system_id":"levelo_inurba_marseille","lat":43.24676,"lon":5.38146,"is_reserved":false,"is_disabled":false,"rental_uris":{"android":"levelo://app?vid=72bc887f-09fa-4910-916a-ced2a3ade466","ios":"levelo://app?vid=72bc887f-09fa-4910-916a-ced2a3ade466"},"vehicle_type_id":"4","last_reported":1774038048,"current_range_meters":7200,"station_id":"ce4bhih2rcd13ifvqfr0","pricing_plan_id":"cebpf4jnsgd1na2vs0mg"},{"bike_id":"e7bfe124-6bd5-429f-868e-470e45ebe762","system_id":"levelo_inurba_marseille","lat":43.31481,"lon":5.36708,"is_reserved":false,"is_disabled":false,"rental_uris":{"android":"levelo://app?vid=e7bfe124-6bd5-429f-868e-470e45ebe762","ios":"levelo://app?vid=e7bfe124-6bd5-429f-868e-470e45ebe762"},"vehicle_type_id":"4","last_reported":1774038048,"current_range_meters":7200,"station_id":"","pricing_plan_id":"cebpf4jnsgd1na2vs0mg"},{"bike_id":"8989811c-4973-4598-80eb-4d16f65eaac1","system_id":"levelo_inurba_marseille","lat":43.27623,"lon":5.36099,"is_reserved":false,"is_disabled":false,"rental_uris":{"android":"levelo://app?vid=8989811c-4973-4598-80eb-4d16f65eaac1","ios":"levelo://app?vid=8989811c-4973-4598-80eb-4d16f65eaac1"},"vehicle_type_id":"4","last_reported":1774038048,"current_range_meters":7200,"station_id":"ce4bgj92rcd13ifvqbe0","pricing_plan_id":"cebpf4jnsgd1na2vs0mg"},{"bike_id":"319f153d-c604-470d-be48-bd6b5ec78f61","system_id":"levelo_inurba_marseille","lat":43.29971,"lon":5.38476,"is_reserved":false,"is_disabled":false,"rental_uris":{"android":"levelo://app?vid=319f153d-c604-470d-be48-bd6b5ec78f61","ios":"levelo://app?vid=319f153d-c604-470d-be48-bd6b5ec78f61"},"vehicle_type_id":"4","last_reported":1774038048,"current_range_meters":7200,"station_id":"ce4bgj92rcd13ifvqbd0","pricing_plan_id":"cebpf4jnsgd1na2vs0mg"},{"bike_id":"83675f3e-fe90-4bf0-8b69-f095eac9e73c","system_id":"levelo_inurba_marseille","lat":43.27051,"lon":5.42255,"is_reserved":false,"is_disabled":false,"rental_uris":{"android":"levelo://app?vid=83675f3e-fe90-4bf0-8b69-f095eac9e73c","ios":"levelo://app?vid=83675f3e-fe90-4bf0-8b69-f095eac9e73c"},"vehicle_type_id":"4","last_reported":1774038048,"current_range_meters":7200,"station_id":"ce4bhk92rcd13ifvqgb0","pricing_plan_id":"cebpf4jnsgd1na2vs0mg"},{"bike_id":"912e5f30-2e0b-48a9-85db-a984611241c9","system_id":"levelo_inurba_marseille","lat":43.29801,"lon":5.44082,"is_reserved":false,"is_disabled":false,"rental_uris":{"android":"levelo://app?vid=912e5f30-2e0b-48a9-85db-a984611241c9","ios":"levelo://app?vid=912e5f30-2e0b-48a9-85db-a984611241c9"},"vehicle_type_id":"4","last_reported":1774038048,"current_range_meters":8000,"station_id":"st_d3jp68qikq2c7381ktn0","pricing_plan_id":"cebpf4jnsgd1na2vs0mg"},{"bike_id":"cb35b956-4400-4517-a338-c40c59225904","system_id":"levelo_inurba_marseille","lat":43.31278,"lon":5.40154,"is_reserved":false,"is_disabled":false,"rental_uris":{"android":"levelo://app?vid=cb35b956-4400-4517-a338-c40c59225904","ios":"levelo://app?vid=cb35b956-4400-4517-a338-c40c59225904"},"vehicle_type_id":"4","last_reported":1774038048,"current_range_meters":8000,"station_id":"ce4bh092rcd13ifvqd30","pricing_plan_id":"cebpf4jnsgd1na2vs0mg"},{"bike_id":"0f699794-8202-4161-a052-1d39a341c5fa","system_id":"levelo_inurba_marseille","lat":43.31223,"lon":5.38692,"is_reserved":false,"is_disabled":true,"rental_uris":{"android":"levelo://app?vid=0f699794-8202-4161-a052-1d39a341c5fa","ios":"levelo://app?vid=0f699794-8202-4161-a052-1d39a341c5fa"},"vehicle_type_id":"4","last_reported":1774038048,"current_range_meters":8000,"station_id":"ce4bgv12rcd13ifvqcp0","pricing_plan_id":"cebpf4jnsgd1na2vs0mg"},{"bike_id":"274cb210-9135-4aa8-9435-ad78a5539720","system_id":"levelo_inurba_marseille","lat":43.28726,"lon":5.36076,"is_reserved":false,"is_disabled":false,"rental_uris":{"android":"levelo://app?vid=274cb210-9135-4aa8-9435-ad78a5539720","ios":"levelo://app?vid=274cb210-9135-4aa8-9435-ad78a5539720"},"vehicle_type_id":"4","last_reported":1774038048,"current_range_meters":8000,"station_id":"cki0cbj6b192h4jlfktg","pricing_plan_id":"cebpf4jnsgd1na2vs0mg"},{"bike_id":"0000eb28-7a39-460e-8edd-af93d734134a","system_id":"levelo_inurba_marseille","lat":43.313494,"lon":5.367044,"is_reserved":false,"is_disabled":false,"rental_uris":{"android":"levelo://app?vid=0000eb28-7a39-460e-8edd-af93d734134a","ios":"levelo://app?vid=0000eb28-7a39-460e-8edd-af93d734134a"},"vehicle_type_id":"4","last_reported":1774038048,"current_range_meters":8000,"station_id":"ce4bgr92rcd13ifvqc6g","pricing_plan_id":"cebpf4jnsgd1na2vs0mg"},{"bike_id":"f12ce399-1654-48f8-a320-211fcab6582c","system_id":"levelo_inurba_marseille","lat":43.23768,"lon":5.36642,"is_reserved":false,"is_disabled":false,"rental_uris":{"android":"levelo://app?vid=f12ce399-1654-48f8-a320-211fcab6582c","ios":"levelo://app?vid=f12ce399-1654-48f8-a320-211fcab6582c"},"vehicle_type_id":"4","last_reported":1774038048,"current_range_meters":8000,"station_id":"st_d3nk18o9ro0c73en2l3g","pricing_plan_id":"cebpf4jnsgd1na2vs0mg"},{"bike_id":"8648ff3d-a49d-4491-be6c-bab3f9812603","system_id":"levelo_inurba_marseille","lat":43.283,"lon":5.4382,"is_reserved":false,"is_disabled":false,"rental_uris":{"android":"levelo://app?vid=8648ff3d-a49d-4491-be6c-bab3f9812603","ios":"levelo://app?vid=8648ff3d-a49d-4491-be6c-bab3f9812603"},"vehicle_type_id":"4","last_reported":1774038048,"current_range_meters":8000,"station_id":"","pricing_plan_id":"cebpf4jnsgd1na2vs0mg"},{"bike_id":"a8c8307b-e1e9-4950-a785-578e1a82f805","system_id":"levelo_inurba_marseille","lat":43.31284,"lon":5.37833,"is_reserved":false,"is_disabled":false,"rental_uris":{"android":"levelo://app?vid=a8c8307b-e1e9-4950-a785-578e1a82f805","ios":"levelo://app?vid=a8c8307b-e1e9-4950-a785-578e1a82f805"},"vehicle_type_id":"4","last_reported":1774038048,"current_range_meters":8000,"station_id":"","pricing_plan_id":"cebpf4jnsgd1na2vs0mg"},{"bike_id":"962e3e51-db50-4f61-a079-9b1c6a103eb5","system_id":"levelo_inurba_marseille","lat":43.30963,"lon":5.36814,"is_reserved":false,"is_disabled":false,"rental_uris":{"android":"levelo://app?vid=962e3e51-db50-4f61-a079-9b1c6a103eb5","ios":"levelo://app?vid=962e3e51-db50-4f61-a079-9b1c6a103eb5"},"vehicle_type_id":"4","last_reported":1774038048,"current_range_meters":8000,"station_id":"","pricing_plan_id":"cebpf4jnsgd1na2vs0mg"},{"bike_id":"619b8d4c-fc96-4a20-8efc-e52a01e0f227","system_id":"levelo_inurba_marseille","lat":43.28406,"lon":5.37506,"is_reserved":false,"is_disabled":false,"rental_uris":{"android":"levelo://app?vid=619b8d4c-fc96-4a20-8efc-e52a01e0f227","ios":"levelo://app?vid=619b8d4c-fc96-4a20-8efc-e52a01e0f227"},"vehicle_type_id":"4","last_reported":1774038048,"current_range_meters":8000,"station_id":"ce4bh412rcd13ifvqds0","pricing_plan_id":"cebpf4jnsgd1na2vs0mg"},{"bike_id":"c8a8235a-3b64-4202-a433-789344106552","system_id":"levelo_inurba_marseille","lat":43.29518,"lon":5.38548,"is_reserved":false,"is_disabled":false,"rental_uris":{"android":"levelo://app?vid=c8a8235a-3b64-4202-a433-789344106552","ios":"levelo://app?vid=c8a8235a-3b64-4202-a433-789344106552"},"vehicle_type_id":"4","last_reported":1774038048,"current_range_meters":8000,"station_id":"ce4bgih2rcd13ifvqba0","pricing_plan_id":"cebpf4jnsgd1na2vs0mg"},{"bike_id":"1af7d1b7-945b-40d6-bf8c-c3e0388024a6","system_id":"levelo_inurba_marseille","lat":43.30532,"lon":5.36562,"is_reserved":false,"is_disabled":false,"rental_uris":{"android":"levelo://app?vid=1af7d1b7-945b-40d6-bf8c-c3e0388024a6","ios":"levelo://app?vid=1af7d1b7-945b-40d6-bf8c-c3e0388024a6"},"vehicle_type_id":"4","last_reported":1774038048,"current_range_meters":8000,"station_id":"ce4bgs12rcd13ifvqcag","pricing_plan_id":"cebpf4jnsgd1na2vs0mg"},{"bike_id":"2d9e4754-9b17-40b5-bbeb-5b1c9c5bbe64","system_id":"levelo_inurba_marseille","lat":43.30141,"lon":5.38788,"is_reserved":false,"is_disabled":true,"rental_uris":{"android":"levelo://app?vid=2d9e4754-9b17-40b5-bbeb-5b1c9c5bbe64","ios":"levelo://app?vid=2d9e4754-9b17-40b5-bbeb-5b1c9c5bbe64"},"vehicle_type_id":"4","last_reported":1774038048,"current_range_meters":8000,"station_id":"ce4bghh2rcd13ifvqb60","pricing_plan_id":"cebpf4jnsgd1na2vs0mg"},{"bike_id":"ae96b572-43ac-41b2-a193-3d97fc7d8bed","system_id":"levelo_inurba_marseille","lat":43.29537,"lon":5.38534,"is_reserved":false,"is_disabled":false,"rental_uris":{"android":"levelo://app?vid=ae96b572-43ac-41b2-a193-3d97fc7d8bed","ios":"levelo://app?vid=ae96b572-43ac-41b2-a193-3d97fc7d8bed"},"vehicle_type_id":"4","last_reported":1774038048,"current_range_meters":8000,"station_id":"ce4bgih2rcd13ifvqba0","pricing_plan_id":"cebpf4jnsgd1na2vs0mg"},{"bike_id":"7fa64d84-cd92-4f02-a79d-c348b129b15f","system_id":"levelo_inurba_marseille","lat":43.24174,"lon":5.36407,"is_reserved":false,"is_disabled":false,"rental_uris":{"android":"levelo://app?vid=7fa64d84-cd92-4f02-a79d-c348b129b15f","ios":"levelo://app?vid=7fa64d84-cd92-4f02-a79d-c348b129b15f"},"vehicle_type_id":"4","last_reported":1774038048,"current_range_meters":8000,"station_id":"cpo36qri1sfpv3e86is0","pricing_plan_id":"cebpf4jnsgd1na2vs0mg"},{"bike_id":"0c744d67-74b3-4bed-8fa1-274d8c3afbea","system_id":"levelo_inurba_marseille","lat":43.23794,"lon":5.36649,"is_reserved":false,"is_disabled":false,"rental_uris":{"android":"levelo://app?vid=0c744d67-74b3-4bed-8fa1-274d8c3afbea","ios":"levelo://app?vid=0c744d67-74b3-4bed-8fa1-274d8c3afbea"},"vehicle_type_id":"4","last_reported":1774038048,"current_range_meters":8000,"station_id":"st_d3nk18o9ro0c73en2l3g","pricing_plan_id":"cebpf4jnsgd1na2vs0mg"},{"bike_id":"8ec3e3f4-990e-454d-b2ec-0c9972d23813","system_id":"levelo_inurba_marseille","lat":43.24668,"lon":5.38168,"is_reserved":false,"is_disabled":false,"rental_uris":{"android":"levelo://app?vid=8ec3e3f4-990e-454d-b2ec-0c9972d23813","ios":"levelo://app?vid=8ec3e3f4-990e-454d-b2ec-0c9972d23813"},"vehicle_type_id":"4","last_reported":1774038048,"current_range_meters":8000,"station_id":"ce4bhih2rcd13ifvqfr0","pricing_plan_id":"cebpf4jnsgd1na2vs0mg"},{"bike_id":"e2420c11-4646-4145-aa2e-baedb91a43dc","system_id":"levelo_inurba_marseille","lat":43.32344,"lon":5.36749,"is_reserved":false,"is_disabled":false,"rental_uris":{"android":"levelo://app?vid=e2420c11-4646-4145-aa2e-baedb91a43dc","ios":"levelo://app?vid=e2420c11-4646-4145-aa2e-baedb91a43dc"},"vehicle_type_id":"4","last_reported":1774038048,"current_range_meters":8400,"station_id":"ce4bhsh2rcd13ifvqi2g","pricing_plan_id":"cebpf4jnsgd1na2vs0mg"},{"bike_id":"d00ce6b1-d263-4644-9ac8-801c3d34ac19","system_id":"levelo_inurba_marseille","lat":43.22565,"lon":5.41623,"is_reserved":false,"is_disabled":false,"rental_uris":{"android":"levelo://app?vid=d00ce6b1-d263-4644-9ac8-801c3d34ac19","ios":"levelo://app?vid=d00ce6b1-d263-4644-9ac8-801c3d34ac19"},"vehicle_type_id":"4","last_reported":1774038048,"current_range_meters":8400,"station_id":"st_d2o4gvlbi1j2169b742g","pricing_plan_id":"cebpf4jnsgd1na2vs0mg"},{"bike_id":"f3414e99-2d7c-4b03-96db-df8c1c6d3f2b","system_id":"levelo_inurba_marseille","lat":43.28491,"lon":5.48395,"is_reserved":false,"is_disabled":false,"rental_uris":{"android":"levelo://app?vid=f3414e99-2d7c-4b03-96db-df8c1c6d3f2b","ios":"levelo://app?vid=f3414e99-2d7c-4b03-96db-df8c1c6d3f2b"},"vehicle_type_id":"4","last_reported":1774038048,"current_range_meters":8400,"station_id":"","pricing_plan_id":"cebpf4jnsgd1na2vs0mg"},{"bike_id":"bfa999de-7a32-454a-b31e-f99ace51a3fc","system_id":"levelo_inurba_marseille","lat":43.28488,"lon":5.48398,"is_reserved":false,"is_disabled":false,"rental_uris":{"android":"levelo://app?vid=bfa999de-7a32-454a-b31e-f99ace51a3fc","ios":"levelo://app?vid=bfa999de-7a32-454a-b31e-f99ace51a3fc"},"vehicle_type_id":"4","last_reported":1774038048,"current_range_meters":8400,"station_id":"","pricing_plan_id":"cebpf4jnsgd1na2vs0mg"},{"bike_id":"e5442f07-fb15-4276-9252-55d9dab8a584","system_id":"levelo_inurba_marseille","lat":43.29026,"lon":5.38646,"is_reserved":false,"is_disabled":false,"rental_uris":{"android":"levelo://app?vid=e5442f07-fb15-4276-9252-55d9dab8a584","ios":"levelo://app?vid=e5442f07-fb15-4276-9252-55d9dab8a584"},"vehicle_type_id":"4","last_reported":1774038048,"current_range_meters":8400,"station_id":"ce4bh4p2rcd13ifvqe0g","pricing_plan_id":"cebpf4jnsgd1na2vs0mg"},{"bike_id":"eea5b844-b303-4614-bdb0-ae897dd307b5","system_id":"levelo_inurba_marseille","lat":43.24793,"lon":5.37466,"is_reserved":false,"is_disabled":false,"rental_uris":{"android":"levelo://app?vid=eea5b844-b303-4614-bdb0-ae897dd307b5","ios":"levelo://app?vid=eea5b844-b303-4614-bdb0-ae897dd307b5"},"vehicle_type_id":"4","last_reported":1774038048,"current_range_meters":8400,"station_id":"ce4bhgh2rcd13ifvqfb0","pricing_plan_id":"cebpf4jnsgd1na2vs0mg"},{"bike_id":"f423ad6a-ff2f-42b0-a321-a9688a91861e","system_id":"levelo_inurba_marseille","lat":43.29271,"lon":5.38424,"is_reserved":false,"is_disabled":false,"rental_uris":{"android":"levelo://app?vid=f423ad6a-ff2f-42b0-a321-a9688a91861e","ios":"levelo://app?vid=f423ad6a-ff2f-42b0-a321-a9688a91861e"},"vehicle_type_id":"4","last_reported":1774038048,"current_range_meters":8400,"station_id":"ce4bh692rcd13ifvqea0","pricing_plan_id":"cebpf4jnsgd1na2vs0mg"},{"bike_id":"b3b3bb0b-fb2d-4490-a557-6f80b344e03f","system_id":"levelo_inurba_marseille","lat":43.28935,"lon":5.39629,"is_reserved":false,"is_disabled":true,"rental_uris":{"android":"levelo://app?vid=b3b3bb0b-fb2d-4490-a557-6f80b344e03f","ios":"levelo://app?vid=b3b3bb0b-fb2d-4490-a557-6f80b344e03f"},"vehicle_type_id":"4","last_reported":1774038048,"current_range_meters":8400,"station_id":"ce4bh3h2rcd13ifvqdn0","pricing_plan_id":"cebpf4jnsgd1na2vs0mg"},{"bike_id":"1decca1c-ba36-4fa2-8f6e-e5ca2a12515b","system_id":"levelo_inurba_marseille","lat":43.24823,"lon":5.3745,"is_reserved":false,"is_disabled":false,"rental_uris":{"android":"levelo://app?vid=1decca1c-ba36-4fa2-8f6e-e5ca2a12515b","ios":"levelo://app?vid=1decca1c-ba36-4fa2-8f6e-e5ca2a12515b"},"vehicle_type_id":"4","last_reported":1774038048,"current_range_meters":8400,"station_id":"ce4bhgh2rcd13ifvqfb0","pricing_plan_id":"cebpf4jnsgd1na2vs0mg"},{"bike_id":"a836fd38-d433-489a-a6c6-63f0c9de9110","system_id":"levelo_inurba_marseille","lat":43.29101,"lon":5.38117,"is_reserved":false,"is_disabled":true,"rental_uris":{"android":"levelo://app?vid=a836fd38-d433-489a-a6c6-63f0c9de9110","ios":"levelo://app?vid=a836fd38-d433-489a-a6c6-63f0c9de9110"},"vehicle_type_id":"4","last_reported":1774038048,"current_range_meters":8400,"station_id":"ce4bh512rcd13ifvqe2g","pricing_plan_id":"cebpf4jnsgd1na2vs0mg"},{"bike_id":"15fb4bb8-4c0f-4ee3-a727-89e0f28d0a52","system_id":"levelo_inurba_marseille","lat":43.23783,"lon":5.36625,"is_reserved":false,"is_disabled":false,"rental_uris":{"android":"levelo://app?vid=15fb4bb8-4c0f-4ee3-a727-89e0f28d0a52","ios":"levelo://app?vid=15fb4bb8-4c0f-4ee3-a727-89e0f28d0a52"},"vehicle_type_id":"4","last_reported":1774038048,"current_range_meters":8400,"station_id":"st_d3nk18o9ro0c73en2l3g","pricing_plan_id":"cebpf4jnsgd1na2vs0mg"},{"bike_id":"ffee91b4-e1f4-4cfe-bfbf-9ca7434cffe2","system_id":"levelo_inurba_marseille","lat":43.27415,"lon":5.394,"is_reserved":false,"is_disabled":true,"rental_uris":{"android":"levelo://app?vid=ffee91b4-e1f4-4cfe-bfbf-9ca7434cffe2","ios":"levelo://app?vid=ffee91b4-e1f4-4cfe-bfbf-9ca7434cffe2"},"vehicle_type_id":"4","last_reported":1774038048,"current_range_meters":8400,"station_id":"ce4bhdp2rcd13ifvqf20","pricing_plan_id":"cebpf4jnsgd1na2vs0mg"},{"bike_id":"6d4adc4d-5e1c-4bca-adc3-709dc5740d66","system_id":"levelo_inurba_marseille","lat":43.28937,"lon":5.36384,"is_reserved":false,"is_disabled":false,"rental_uris":{"android":"levelo://app?vid=6d4adc4d-5e1c-4bca-adc3-709dc5740d66","ios":"levelo://app?vid=6d4adc4d-5e1c-4bca-adc3-709dc5740d66"},"vehicle_type_id":"4","last_reported":1774038048,"current_range_meters":8400,"station_id":"ce4bhc92rcd13ifvqetg","pricing_plan_id":"cebpf4jnsgd1na2vs0mg"},{"bike_id":"9bedb971-6887-4d43-88c8-1762430f453d","system_id":"levelo_inurba_marseille","lat":43.2468,"lon":5.38155,"is_reserved":false,"is_disabled":true,"rental_uris":{"android":"levelo://app?vid=9bedb971-6887-4d43-88c8-1762430f453d","ios":"levelo://app?vid=9bedb971-6887-4d43-88c8-1762430f453d"},"vehicle_type_id":"4","last_reported":1774038048,"current_range_meters":8400,"station_id":"ce4bhih2rcd13ifvqfr0","pricing_plan_id":"cebpf4jnsgd1na2vs0mg"},{"bike_id":"485d18ea-0249-4635-98bb-8652152de738","system_id":"levelo_inurba_marseille","lat":43.23777,"lon":5.36635,"is_reserved":false,"is_disabled":false,"rental_uris":{"android":"levelo://app?vid=485d18ea-0249-4635-98bb-8652152de738","ios":"levelo://app?vid=485d18ea-0249-4635-98bb-8652152de738"},"vehicle_type_id":"4","last_reported":1774038048,"current_range_meters":8400,"station_id":"st_d3nk18o9ro0c73en2l3g","pricing_plan_id":"cebpf4jnsgd1na2vs0mg"},{"bike_id":"c7ca3395-61a6-424a-8b4e-14bb7ddfa33a","system_id":"levelo_inurba_marseille","lat":43.30141,"lon":5.38777,"is_reserved":false,"is_disabled":true,"rental_uris":{"android":"levelo://app?vid=c7ca3395-61a6-424a-8b4e-14bb7ddfa33a","ios":"levelo://app?vid=c7ca3395-61a6-424a-8b4e-14bb7ddfa33a"},"vehicle_type_id":"4","last_reported":1774038048,"current_range_meters":8400,"station_id":"ce4bghh2rcd13ifvqb60","pricing_plan_id":"cebpf4jnsgd1na2vs0mg"},{"bike_id":"890fc00d-d881-4e3f-be5d-aa165c8d97c6","system_id":"levelo_inurba_marseille","lat":43.31352,"lon":5.36723,"is_reserved":false,"is_disabled":false,"rental_uris":{"android":"levelo://app?vid=890fc00d-d881-4e3f-be5d-aa165c8d97c6","ios":"levelo://app?vid=890fc00d-d881-4e3f-be5d-aa165c8d97c6"},"vehicle_type_id":"4","last_reported":1774038048,"current_range_meters":8400,"station_id":"ce4bgr92rcd13ifvqc6g","pricing_plan_id":"cebpf4jnsgd1na2vs0mg"},{"bike_id":"a5aa7d4c-8e7e-4cd9-a63a-f0c4106e8adf","system_id":"levelo_inurba_marseille","lat":43.29238,"lon":5.38444,"is_reserved":false,"is_disabled":false,"rental_uris":{"android":"levelo://app?vid=a5aa7d4c-8e7e-4cd9-a63a-f0c4106e8adf","ios":"levelo://app?vid=a5aa7d4c-8e7e-4cd9-a63a-f0c4106e8adf"},"vehicle_type_id":"4","last_reported":1774038048,"current_range_meters":8400,"station_id":"ce4bh692rcd13ifvqea0","pricing_plan_id":"cebpf4jnsgd1na2vs0mg"},{"bike_id":"685b0ae6-b912-4d09-8a79-913c52f95214","system_id":"levelo_inurba_marseille","lat":43.27807,"lon":5.40728,"is_reserved":false,"is_disabled":false,"rental_uris":{"android":"levelo://app?vid=685b0ae6-b912-4d09-8a79-913c52f95214","ios":"levelo://app?vid=685b0ae6-b912-4d09-8a79-913c52f95214"},"vehicle_type_id":"4","last_reported":1774038048,"current_range_meters":8400,"station_id":"ce4bhnh2rcd13ifvqgtg","pricing_plan_id":"cebpf4jnsgd1na2vs0mg"},{"bike_id":"26f2f2e0-a362-4cb9-bbd9-484ffbb8865b","system_id":"levelo_inurba_marseille","lat":43.29878,"lon":5.38916,"is_reserved":false,"is_disabled":false,"rental_uris":{"android":"levelo://app?vid=26f2f2e0-a362-4cb9-bbd9-484ffbb8865b","ios":"levelo://app?vid=26f2f2e0-a362-4cb9-bbd9-484ffbb8865b"},"vehicle_type_id":"4","last_reported":1774038048,"current_range_meters":8400,"station_id":"ce4bh392rcd13ifvqdl0","pricing_plan_id":"cebpf4jnsgd1na2vs0mg"},{"bike_id":"4cfda525-c1a6-40b6-a6a8-f7d117c609ed","system_id":"levelo_inurba_marseille","lat":43.28852,"lon":5.39315,"is_reserved":false,"is_disabled":false,"rental_uris":{"android":"levelo://app?vid=4cfda525-c1a6-40b6-a6a8-f7d117c609ed","ios":"levelo://app?vid=4cfda525-c1a6-40b6-a6a8-f7d117c609ed"},"vehicle_type_id":"4","last_reported":1774038048,"current_range_meters":8400,"station_id":"ce4bh2p2rcd13ifvqdi0","pricing_plan_id":"cebpf4jnsgd1na2vs0mg"},{"bike_id":"08f6152c-c035-453a-a411-a9ad81d1d629","system_id":"levelo_inurba_marseille","lat":43.28711,"lon":5.37397,"is_reserved":false,"is_disabled":false,"rental_uris":{"android":"levelo://app?vid=08f6152c-c035-453a-a411-a9ad81d1d629","ios":"levelo://app?vid=08f6152c-c035-453a-a411-a9ad81d1d629"},"vehicle_type_id":"4","last_reported":1774038048,"current_range_meters":8400,"station_id":"ce4bh3p2rcd13ifvqdq0","pricing_plan_id":"cebpf4jnsgd1na2vs0mg"},{"bike_id":"7f69ea73-8aff-462b-a819-a0809de4b8a2","system_id":"levelo_inurba_marseille","lat":43.30548,"lon":5.36529,"is_reserved":false,"is_disabled":false,"rental_uris":{"android":"levelo://app?vid=7f69ea73-8aff-462b-a819-a0809de4b8a2","ios":"levelo://app?vid=7f69ea73-8aff-462b-a819-a0809de4b8a2"},"vehicle_type_id":"4","last_reported":1774038048,"current_range_meters":8800,"station_id":"ce4bgs12rcd13ifvqcag","pricing_plan_id":"cebpf4jnsgd1na2vs0mg"},{"bike_id":"cc777a7e-f3d4-4026-819d-66c6f1a5d2b6","system_id":"levelo_inurba_marseille","lat":43.29202,"lon":5.42596,"is_reserved":false,"is_disabled":false,"rental_uris":{"android":"levelo://app?vid=cc777a7e-f3d4-4026-819d-66c6f1a5d2b6","ios":"levelo://app?vid=cc777a7e-f3d4-4026-819d-66c6f1a5d2b6"},"vehicle_type_id":"4","last_reported":1774038048,"current_range_meters":8800,"station_id":"","pricing_plan_id":"cebpf4jnsgd1na2vs0mg"},{"bike_id":"92f32112-8a58-4a2d-8380-c50aa46da344","system_id":"levelo_inurba_marseille","lat":43.24083,"lon":5.36401,"is_reserved":false,"is_disabled":false,"rental_uris":{"android":"levelo://app?vid=92f32112-8a58-4a2d-8380-c50aa46da344","ios":"levelo://app?vid=92f32112-8a58-4a2d-8380-c50aa46da344"},"vehicle_type_id":"4","last_reported":1774038048,"current_range_meters":8800,"station_id":"","pricing_plan_id":"cebpf4jnsgd1na2vs0mg"},