{"last_updated":1733386418,"ttl":60,"version":"2.2","data":{"bikes":[{"bike_id":"ded4ccce-ef33-4150-be34-864d499fb5c3","system_id":"levelo_inurba_marseille","lat":43.30532,"lon":5.36528,"is_reserved":false,"is_disabled":false,"rental_uris":{"android":"levelo://app?vid=ded4ccce-ef33-4150-be34-864d499fb5c3","ios":"levelo://app?vid=ded4ccce-ef33-4150-be34-864d499fb5c3"},"vehicle_type_id":"4","last_reported":1733386418,"current_range_meters":22400,"station_id":"ce4bgs12rcd13ifvqcag","pricing_plan_id":"cebpf4jnsgd1na2vs0mg"},{"bike_id":"a91fa1e8-32b4-471d-9ab1-72d0db7092c4","system_id":"levelo_inurba_marseille","lat":43.25934,"lon":5.40913,"is_reserved":false,"is_disabled":false,"rental_uris":{"android":"levelo://app?vid=a91fa1e8-32b4-471d-9ab1-72d0db7092c4","ios":"levelo://app?vid=a91fa1e8-32b4-471d-9ab1-72d0db7092c4"},"vehicle_type_id":"4","last_reported":1733386418,"current_range_meters":34800,"station_id":"ce4bhm92rcd13ifvqglg","pricing_plan_id":"cebpf4jnsgd1na2vs0mg"},{"bike_id":"0cf0807f-cf9d-426b-8e27-d8e56c8da0a7","system_id":"levelo_inurba_marseille","lat":43.29794,"lon":5.38112,"is_reserved":false,"is_disabled":false,"rental_uris":{"android":"levelo://app?vid=0cf0807f-cf9d-426b-8e27-d8e56c8da0a7","ios":"levelo://app?vid=0cf0807f-cf9d-426b-8e27-d8e56c8da0a7"},"vehicle_type_id":"4","last_reported":1733386418,"current_range_meters":28400,"station_id":"ce4bgip2rcd13ifvqbb0","pricing_plan_id":"cebpf4jnsgd1na2vs0mg"},{"bike_id":"df479c2c-35ac-44ad-b9d6-81c89ed769ce","system_id":"levelo_inurba_marseille","lat":43.29699,"lon":5.37054,"is_reserved":false,"is_disabled":true,"rental_uris":{"android":"levelo://app?vid=df479c2c-35ac-44ad-b9d6-81c89ed769ce","ios":"levelo://app?vid=df479c2c-35ac-44ad-b9d6-81c89ed769ce"},"vehicle_type_id":"4","last_reported":1733386418,"current_range_meters":0,"station_id":"","pricing_plan_id":"cebpf4jnsgd1na2vs0mg"},{"bike_id":"8e029eaf-e104-4c5d-858d-6cd39de73d09","system_id":"levelo_inurba_marseille","lat":43.241686,"lon":5.363962,"is_reserved":false,"is_disabled":false,"rental_uris":{"android":"levelo://app?vid=8e029eaf-e104-4c5d-858d-6cd39de73d09","ios":"levelo://app?vid=8e029eaf-e104-4c5d-858d-6cd39de73d09"},"vehicle_type_id":"4","last_reported":1733386418,"current_range_meters":6800,"station_id":"cpo36qri1sfpv3e86is0","pricing_plan_id":"cebpf4jnsgd1na2vs0mg"},{"bike_id":"e00b4e6b-695c-49c1-a7d5-b6b0ae9c113e","system_id":"levelo_inurba_marseille","lat":43.27311,"lon":5.39094,"is_reserved":false,"is_disabled":false,"rental_uris":{"android":"levelo://app?vid=e00b4e6b-695c-49c1-a7d5-b6b0ae9c113e","ios":"levelo://app?vid=e00b4e6b-695c-49c1-a7d5-b6b0ae9c113e"},"vehicle_type_id":"4","last_reported":1733386418,"current_range_meters":36000,"station_id":"ce4bhgp2rcd13ifvqfe0","pricing_plan_id":"cebpf4jnsgd1na2vs0mg"},{"bike_id":"ddeccbb2-9a2c-4590-9250-7631bbef2077","system_id":"levelo_inurba_marseille","lat":43.31347,"lon":5.36712,"is_reserved":false,"is_disabled":false,"rental_uris":{"android":"levelo://app?vid=ddeccbb2-9a2c-4590-9250-7631bbef2077","ios":"levelo://app?vid=ddeccbb2-9a2c-4590-9250-7631bbef2077"},"vehicle_type_id":"4","last_reported":1733386418,"current_range_meters":19600,"station_id":"ce4bgr92rcd13ifvqc6g","pricing_plan_id":"cebpf4jnsgd1na2vs0mg"},{"bike_id":"aff2adcb-3de2-4d68-b8e0-337c3f8b9fe2","system_id":"levelo_inurba_marseille","lat":43.26553,"lon":5.37289,"is_reserved":false,"is_disabled":false,"rental_uris":{"android":"levelo://app?vid=aff2adcb-3de2-4d68-b8e0-337c3f8b9fe2","ios":"levelo://app?vid=aff2adcb-3de2-4d68-b8e0-337c3f8b9fe2"},"vehicle_type_id":"4","last_reported":1733386418,"current_range_meters":11200,"station_id":"ce4bhg12rcd13ifvqf70","pricing_plan_id":"cebpf4jnsgd1na2vs0mg"},{"bike_id":"09016331-8199-4b96-8644-9fffcf138801","system_id":"levelo_inurba_marseille","lat":43.28157,"lon":5.42649,"is_reserved":false,"is_disabled":false,"rental_uris":{"android":"levelo://app?vid=09016331-8199-4b96-8644-9fffcf138801","ios":"levelo://app?vid=09016331-8199-4b96-8644-9fffcf138801"},"vehicle_type_id":"4","last_reported":1733386418,"current_range_meters":14000,"station_id":"ce4bhnh2rcd13ifvqgug","pricing_plan_id":"cebpf4jnsgd1na2vs0mg"},{"bike_id":"b03a6a4e-535b-4e1a-a28b-ae3d5f12709c","system_id":"levelo_inurba_marseille","lat":43.3027,"lon":5.38928,"is_reserved":false,"is_disabled":false,"rental_uris":{"android":"levelo://app?vid=b03a6a4e-535b-4e1a-a28b-ae3d5f12709c","ios":"levelo://app?vid=b03a6a4e-535b-4e1a-a28b-ae3d5f12709c"},"vehicle_type_id":"4","last_reported":1733386418,"current_range_meters":16800,"station_id":"","pricing_plan_id":"cebpf4jnsgd1na2vs0mg"},{"bike_id":"be407bbe-d1ce-48de-8db2-09114af9efd7","system_id":"levelo_inurba_marseille","lat":43.32364,"lon":5.36749,"is_reserved":false,"is_disabled":false,"rental_uris":{"android":"levelo://app?vid=be407bbe-d1ce-48de-8db2-09114af9efd7","ios":"levelo://app?vid=be407bbe-d1ce-48de-8db2-09114af9efd7"},"vehicle_type_id":"4","last_reported":1733386418,"current_range_meters":30000,"station_id":"ce4bhsh2rcd13ifvqi2g","pricing_plan_id":"cebpf4jnsgd1na2vs0mg"},{"bike_id":"6e9419b7-ce6d-4c9c-abdc-b6e4707d4576","system_id":"levelo_inurba_marseille","lat":43.25934,"lon":5.4091,"is_reserved":false,"is_disabled":true,"rental_uris":{"android":"levelo://app?vid=6e9419b7-ce6d-4c9c-abdc-b6e4707d4576","ios":"levelo://app?vid=6e9419b7-ce6d-4c9c-abdc-b6e4707d4576"},"vehicle_type_id":"4","last_reported":1733386418,"current_range_meters":1200,"station_id":"ce4bhm92rcd13ifvqglg","pricing_plan_id":"cebpf4jnsgd1na2vs0mg"},{"bike_id":"f3bad640-db68-47b8-8f51-4546567c6911","system_id":"levelo_inurba_marseille","lat":43.25933,"lon":5.40919,"is_reserved":false,"is_disabled":false,"rental_uris":{"android":"levelo://app?vid=f3bad640-db68-47b8-8f51-4546567c6911","ios":"levelo://app?vid=f3bad640-db68-47b8-8f51-4546567c6911"},"vehicle_type_id":"4","last_reported":1733386418,"current_range_meters":16400,"station_id":"ce4bhm92rcd13ifvqglg","pricing_plan_id":"cebpf4jnsgd1na2vs0mg"},{"bike_id":"ee657618-550c-461c-9b03-1cff4d1b841a","system_id":"levelo_inurba_marseille","lat":43.30457,"lon":5.37908,"is_reserved":false,"is_disabled":false,"rental_uris":{"android":"levelo://app?vid=ee657618-550c-461c-9b03-1cff4d1b841a","ios":"levelo://app?vid=ee657618-550c-461c-9b03-1cff4d1b841a"},"vehicle_type_id":"4","last_reported":1733386418,"current_range_meters":9200,"station_id":"ce4bgup2rcd13ifvqcn0","pricing_plan_id":"cebpf4jnsgd1na2vs0mg"},{"bike_id":"8bd642b2-0279-44c7-9ee2-fc3b57332c83","system_id":"levelo_inurba_marseille","lat":43.27455,"lon":5.40073,"is_reserved":false,"is_disabled":true,"rental_uris":{"android":"levelo://app?vid=8bd642b2-0279-44c7-9ee2-fc3b57332c83","ios":"levelo://app?vid=8bd642b2-0279-44c7-9ee2-fc3b57332c83"},"vehicle_type_id":"4","last_reported":1733386418,"current_range_meters":0,"station_id":"","pricing_plan_id":"cebpf4jnsgd1na2vs0mg"},{"bike_id":"e092f375-5b54-4e37-b620-820befc91920","system_id":"levelo_inurba_marseille","lat":43.257211,"lon":5.411086,"is_reserved":false,"is_disabled":false,"rental_uris":{"android":"levelo://app?vid=e092f375-5b54-4e37-b620-820befc91920","ios":"levelo://app?vid=e092f375-5b54-4e37-b620-820befc91920"},"vehicle_type_id":"4","last_reported":1733386418,"current_range_meters":38800,"station_id":"ce4bhkp2rcd13ifvqgd0","pricing_plan_id":"cebpf4jnsgd1na2vs0mg"},{"bike_id":"1bbeae92-cefc-46b4-977d-11d14aaecf5b","system_id":"levelo_inurba_marseille","lat":43.29291,"lon":5.3744,"is_reserved":false,"is_disabled":false,"rental_uris":{"android":"levelo://app?vid=1bbeae92-cefc-46b4-977d-11d14aaecf5b","ios":"levelo://app?vid=1bbeae92-cefc-46b4-977d-11d14aaecf5b"},"vehicle_type_id":"4","last_reported":1733386418,"current_range_meters":25600,"station_id":"ce4bgi12rcd13ifvqb70","pricing_plan_id":"cebpf4jnsgd1na2vs0mg"},{"bike_id":"a38d416c-c733-49a8-b698-89470c0b9587","system_id":"levelo_inurba_marseille","lat":43.30466,"lon":5.37906,"is_reserved":false,"is_disabled":false,"rental_uris":{"android":"levelo://app?vid=a38d416c-c733-49a8-b698-89470c0b9587","ios":"levelo://app?vid=a38d416c-c733-49a8-b698-89470c0b9587"},"vehicle_type_id":"4","last_reported":1733386418,"current_range_meters":9600,"station_id":"ce4bgup2rcd13ifvqcn0","pricing_plan_id":"cebpf4jnsgd1na2vs0mg"},{"bike_id":"c246314e-713d-4233-9c85-8823606d28f8","system_id":"levelo_inurba_marseille","lat":43.29227,"lon":5.36062,"is_reserved":false,"is_disabled":false,"rental_uris":{"android":"levelo://app?vid=c246314e-713d-4233-9c85-8823606d28f8","ios":"levelo://app?vid=c246314e-713d-4233-9c85-8823606d28f8"},"vehicle_type_id":"4","last_reported":1733386418,"current_range_meters":14000,"station_id":"ce4bhbh2rcd13ifvqeqg","pricing_plan_id":"cebpf4jnsgd1na2vs0mg"},{"bike_id":"d388679b-ab2a-4818-b7c1-c42d71da239b","system_id":"levelo_inurba_marseille","lat":43.25717,"lon":5.4112,"is_reserved":false,"is_disabled":false,"rental_uris":{"android":"levelo://app?vid=d388679b-ab2a-4818-b7c1-c42d71da239b","ios":"levelo://app?vid=d388679b-ab2a-4818-b7c1-c42d71da239b"},"vehicle_type_id":"4","last_reported":1733386418,"current_range_meters":8000,"station_id":"ce4bhkp2rcd13ifvqgd0","pricing_plan_id":"cebpf4jnsgd1na2vs0mg"},{"bike_id":"387192c7-8c32-4972-b158-c19d91b7aafd","system_id":"levelo_inurba_marseille","lat":43.31228,"lon":5.36857,"is_reserved":false,"is_disabled":false,"rental_uris":{"android":"levelo://app?vid=387192c7-8c32-4972-b158-c19d91b7aafd","ios":"levelo://app?vid=387192c7-8c32-4972-b158-c19d91b7aafd"},"vehicle_type_id":"4","last_reported":1733386418,"current_range_meters":26000,"station_id":"ce4bgl92rcd13ifvqbq0","pricing_plan_id":"cebpf4jnsgd1na2vs0mg"},{"bike_id":"a18b4934-8c0c-4c61-b008-883eebb45560","system_id":"levelo_inurba_marseille","lat":43.23185,"lon":5.3996,"is_reserved":false,"is_disabled":false,"rental_uris":{"android":"levelo://app?vid=a18b4934-8c0c-4c61-b008-883eebb45560","ios":"levelo://app?vid=a18b4934-8c0c-4c61-b008-883eebb45560"},"vehicle_type_id":"4","last_reported":1733386418,"current_range_meters":38800,"station_id":"ce4bhn12rcd13ifvqgqg","pricing_plan_id":"cebpf4jnsgd1na2vs0mg"},{"bike_id":"276dc8d0-d07c-4097-ade0-8d3c2e00a69d","system_id":"levelo_inurba_marseille","lat":43.309785,"lon":5.375321,"is_reserved":false,"is_disabled":true,"rental_uris":{"android":"levelo://app?vid=276dc8d0-d07c-4097-ade0-8d3c2e00a69d","ios":"levelo://app?vid=276dc8d0-d07c-4097-ade0-8d3c2e00a69d"},"vehicle_type_id":"4","last_reported":1733386418,"current_range_meters":0,"station_id":"","pricing_plan_id":"cebpf4jnsgd1na2vs0mg"},{"bike_id":"31a98090-f50c-44c3-ad02-5f7e348fa507","system_id":"levelo_inurba_marseille","lat":43.25729,"lon":5.41107,"is_reserved":false,"is_disabled":false,"rental_uris":{"android":"levelo://app?vid=31a98090-f50c-44c3-ad02-5f7e348fa507","ios":"levelo://app?vid=31a98090-f50c-44c3-ad02-5f7e348fa507"},"vehicle_type_id":"4","last_reported":1733386418,"current_range_meters":26800,"station_id":"ce4bhkp2rcd13ifvqgd0","pricing_plan_id":"cebpf4jnsgd1na2vs0mg"},{"bike_id":"28b52837-d828-49e4-b4be-cfbac010c328","system_id":"levelo_inurba_marseille","lat":43.337192,"lon":5.39201,"is_reserved":false,"is_disabled":false,"rental_uris":{"android":"levelo://app?vid=28b52837-d828-49e4-b4be-cfbac010c328","ios":"levelo://app?vid=28b52837-d828-49e4-b4be-cfbac010c328"},"vehicle_type_id":"4","last_reported":1733386418,"current_range_meters":30800,"station_id":"ce4bhr92rcd13ifvqhsg","pricing_plan_id":"cebpf4jnsgd1na2vs0mg"},{"bike_id":"b3f478ac-3b05-4edf-bdbf-76399090f8e9","system_id":"levelo_inurba_marseille","lat":43.29994,"lon":5.37639,"is_reserved":false,"is_disabled":true,"rental_uris":{"android":"levelo://app?vid=b3f478ac-3b05-4edf-bdbf-76399090f8e9","ios":"levelo://app?vid=b3f478ac-3b05-4edf-bdbf-76399090f8e9"},"vehicle_type_id":"4","last_reported":1733386418,"current_range_meters":0,"station_id":"","pricing_plan_id":"cebpf4jnsgd1na2vs0mg"},{"bike_id":"c3587c28-5435-41c6-a9b7-aa468e6b19aa","system_id":"levelo_inurba_marseille","lat":43.29746,"lon":5.37916,"is_reserved":false,"is_disabled":true,"rental_uris":{"android":"levelo://app?vid=c3587c28-5435-41c6-a9b7-aa468e6b19aa","ios":"levelo://app?vid=c3587c28-5435-41c6-a9b7-aa468e6b19aa"},"vehicle_type_id":"4","last_reported":1733386418,"current_range_meters":0,"station_id":"","pricing_plan_id":"cebpf4jnsgd1na2vs0mg"},{"bike_id":"75c4f34a-89f4-4145-a2e2-7dafbc1cdf90","system_id":"levelo_inurba_marseille","lat":43.29025,"lon":5.3724,"is_reserved":false,"is_disabled":true,"rental_uris":{"android":"levelo://app?vid=75c4f34a-89f4-4145-a2e2-7dafbc1cdf90","ios":"levelo://app?vid=75c4f34a-89f4-4145-a2e2-7dafbc1cdf90"},"vehicle_type_id":"4","last_reported":1733386418,"current_range_meters":0,"station_id":"","pricing_plan_id":"cebpf4jnsgd1na2vs0mg"},{"bike_id":"04b15e96-21a8-4366-bef8-330005e05091","system_id":"levelo_inurba_marseille","lat":43.30269,"lon":5.37717,"is_reserved":false,"is_disabled":false,"rental_uris":{"android":"levelo://app?vid=04b15e96-21a8-4366-bef8-330005e05091","ios":"levelo://app?vid=04b15e96-21a8-4366-bef8-330005e05091"},"vehicle_type_id":"4","last_reported":1733386418,"current_range_meters":35200,"station_id":"ce4bguh2rcd13ifvqcj0","pricing_plan_id":"cebpf4jnsgd1na2vs0mg"},{"bike_id":"e8d9fcd3-6c4c-4c2e-a87e-41c5e4dfa6d0","system_id":"levelo_inurba_marseille","lat":43.25438,"lon":5.38158,"is_reserved":false,"is_disabled":true,"rental_uris":{"android":"levelo://app?vid=e8d9fcd3-6c4c-4c2e-a87e-41c5e4dfa6d0","ios":"levelo://app?vid=e8d9fcd3-6c4c-4c2e-a87e-41c5e4dfa6d0"},"vehicle_type_id":"4","last_reported":1733386418,"current_range_meters":0,"station_id":"","pricing_plan_id":"cebpf4jnsgd1na2vs0mg"},{"bike_id":"e7c2b082-ef91-42b1-9ef0-9e4329cee9cb","system_id":"levelo_inurba_marseille","lat":43.2992,"lon":5.40347,"is_reserved":false,"is_disabled":true,"rental_uris":{"android":"levelo://app?vid=e7c2b082-ef91-42b1-9ef0-9e4329cee9cb","ios":"levelo://app?vid=e7c2b082-ef91-42b1-9ef0-9e4329cee9cb"},"vehicle_type_id":"4","last_reported":1733386418,"current_range_meters":0,"station_id":"","pricing_plan_id":"cebpf4jnsgd1na2vs0mg"},{"bike_id":"1193e2de-f4a1-40ed-9859-1770abcb2343","system_id":"levelo_inurba_marseille","lat":43.29551,"lon":5.42291,"is_reserved":false,"is_disabled":false,"rental_uris":{"android":"levelo://app?vid=1193e2de-f4a1-40ed-9859-1770abcb2343","ios":"levelo://app?vid=1193e2de-f4a1-40ed-9859-1770abcb2343"},"vehicle_type_id":"4","last_reported":1733386418,"current_range_meters":14000,"station_id":"ce4bhph2rcd13ifvqhdg","pricing_plan_id":"cebpf4jnsgd1na2vs0mg"},{"bike_id":"7e8fc6cf-f0f2-4700-8557-beaab027395f","system_id":"levelo_inurba_marseille","lat":43.31485,"lon":5.37306,"is_reserved":false,"is_disabled":false,"rental_uris":{"android":"levelo://app?vid=7e8fc6cf-f0f2-4700-8557-beaab027395f","ios":"levelo://app?vid=7e8fc6cf-f0f2-4700-8557-beaab027395f"},"vehicle_type_id":"4","last_reported":1733386418,"current_range_meters":10800,"station_id":"ce4bgt12rcd13ifvqcd0","pricing_plan_id":"cebpf4jnsgd1na2vs0mg"},{"bike_id":"73e8f36e-50b0-4a7f-9c48-396fbf305bd6","system_id":"levelo_inurba_marseille","lat":43.26951,"lon":5.38629,"is_reserved":false,"is_disabled":false,"rental_uris":{"android":"levelo://app?vid=73e8f36e-50b0-4a7f-9c48-396fbf305bd6","ios":"levelo://app?vid=73e8f36e-50b0-4a7f-9c48-396fbf305bd6"},"vehicle_type_id":"4","last_reported":1733386418,"current_range_meters":36400,"station_id":"ce4bhh92rcd13ifvqfh0","pricing_plan_id":"cebpf4jnsgd1na2vs0mg"},{"bike_id":"4a116253-96aa-4bc7-9dd6-fad740af4a82","system_id":"levelo_inurba_marseille","lat":43.30446,"lon":5.3791,"is_reserved":false,"is_disabled":true,"rental_uris":{"android":"levelo://app?vid=4a116253-96aa-4bc7-9dd6-fad740af4a82","ios":"levelo://app?vid=4a116253-96aa-4bc7-9dd6-fad740af4a82"},"vehicle_type_id":"4","last_reported":1733386418,"current_range_meters":17600,"station_id":"ce4bgup2rcd13ifvqcn0","pricing_plan_id":"cebpf4jnsgd1na2vs0mg"},{"bike_id":"0e362fdf-2190-4f82-92dc-6596ff333c58","system_id":"levelo_inurba_marseille","lat":43.30313,"lon":5.36887,"is_reserved":false,"is_disabled":false,"rental_uris":{"android":"levelo://app?vid=0e362fdf-2190-4f82-92dc-6596ff333c58","ios":"levelo://app?vid=0e362fdf-2190-4f82-92dc-6596ff333c58"},"vehicle_type_id":"4","last_reported":1733386418,"current_range_meters":38800,"station_id":"ce4bgqh2rcd13ifvqc5g","pricing_plan_id":"cebpf4jnsgd1na2vs0mg"},{"bike_id":"47446314-3377-4eeb-ac99-7c7c1d340bea","system_id":"levelo_inurba_marseille","lat":43.27813,"lon":5.40713,"is_reserved":false,"is_disabled":true,"rental_uris":{"android":"levelo://app?vid=47446314-3377-4eeb-ac99-7c7c1d340bea","ios":"levelo://app?vid=47446314-3377-4eeb-ac99-7c7c1d340bea"},"vehicle_type_id":"4","last_reported":1733386418,"current_range_meters":0,"station_id":"ce4bhnh2rcd13ifvqgtg","pricing_plan_id":"cebpf4jnsgd1na2vs0mg"},{"bike_id":"680b9480-a55a-480a-84f6-88ab7051ee96","system_id":"levelo_inurba_marseille","lat":43.32543,"lon":5.41436,"is_reserved":false,"is_disabled":false,"rental_uris":{"android":"levelo://app?vid=680b9480-a55a-480a-84f6-88ab7051ee96","ios":"levelo://app?vid=680b9480-a55a-480a-84f6-88ab7051ee96"},"vehicle_type_id":"4","last_reported":1733386418,"current_range_meters":32000,"station_id":"ce4bhq12rcd13ifvqhhg","pricing_plan_id":"cebpf4jnsgd1na2vs0mg"},{"bike_id":"cb4971b5-85df-427d-b261-76491f1f2b32","system_id":"levelo_inurba_marseille","lat":43.33763,"lon":5.37428,"is_reserved":false,"is_disabled":false,"rental_uris":{"android":"levelo://app?vid=cb4971b5-85df-427d-b261-76491f1f2b32","ios":"levelo://app?vid=cb4971b5-85df-427d-b261-76491f1f2b32"},"vehicle_type_id":"4","last_reported":1733386418,"current_range_meters":38400,"station_id":"","pricing_plan_id":"cebpf4jnsgd1na2vs0mg"},{"bike_id":"0780444d-b233-4706-a0b1-ed71fb01357b","system_id":"levelo_inurba_marseille","lat":43.28851,"lon":5.39322,"is_reserved":false,"is_disabled":false,"rental_uris":{"android":"levelo://app?vid=0780444d-b233-4706-a0b1-ed71fb01357b","ios":"levelo://app?vid=0780444d-b233-4706-a0b1-ed71fb01357b"},"vehicle_type_id":"4","last_reported":1733386418,"current_range_meters":38800,"station_id":"ce4bh2p2rcd13ifvqdi0","pricing_plan_id":"cebpf4jnsgd1na2vs0mg"},{"bike_id":"1f8a5368-b879-4af8-9345-1a18e1bea70b","system_id":"levelo_inurba_marseille","lat":43.29011,"lon":5.35613,"is_reserved":false,"is_disabled":true,"rental_uris":{"android":"levelo://app?vid=1f8a5368-b879-4af8-9345-1a18e1bea70b","ios":"levelo://app?vid=1f8a5368-b879-4af8-9345-1a18e1bea70b"},"vehicle_type_id":"4","last_reported":1733386418,"current_range_meters":2000,"station_id":"ce4bhb92rcd13ifvqen0","pricing_plan_id":"cebpf4jnsgd1na2vs0mg"},{"bike_id":"dfdab842-6863-4af8-9afd-054176295b2d","system_id":"levelo_inurba_marseille","lat":43.24671,"lon":5.3817,"is_reserved":false,"is_disabled":false,"rental_uris":{"android":"levelo://app?vid=dfdab842-6863-4af8-9afd-054176295b2d","ios":"levelo://app?vid=dfdab842-6863-4af8-9afd-054176295b2d"},"vehicle_type_id":"4","last_reported":1733386418,"current_range_meters":36800,"station_id":"ce4bhih2rcd13ifvqfr0","pricing_plan_id":"cebpf4jnsgd1na2vs0mg"},{"bike_id":"132970a3-ee02-48dc-a0cb-b3140e3325a4","system_id":"levelo_inurba_marseille","lat":43.26677,"lon":5.38267,"is_reserved":false,"is_disabled":false,"rental_uris":{"android":"levelo://app?vid=132970a3-ee02-48dc-a0cb-b3140e3325a4","ios":"levelo://app?vid=132970a3-ee02-48dc-a0cb-b3140e3325a4"},"vehicle_type_id":"4","last_reported":1733386418,"current_range_meters":38400,"station_id":"ce4bhg92rcd13ifvqf90","pricing_plan_id":"cebpf4jnsgd1na2vs0mg"},{"bike_id":"2f3968e7-9336-4ee4-ba78-8e92c0a818cc","system_id":"levelo_inurba_marseille","lat":43.31322,"lon":5.36647,"is_reserved":false,"is_disabled":true,"rental_uris":{"android":"levelo://app?vid=2f3968e7-9336-4ee4-ba78-8e92c0a818cc","ios":"levelo://app?vid=2f3968e7-9336-4ee4-ba78-8e92c0a818cc"},"vehicle_type_id":"4","last_reported":1733386418,"current_range_meters":0,"station_id":"","pricing_plan_id":"cebpf4jnsgd1na2vs0mg"},{"bike_id":"dbf5d124-e352-4ec1-a9e5-5afd09b8179f","system_id":"levelo_inurba_marseille","lat":43.31232,"lon":5.36845,"is_reserved":false,"is_disabled":false,"rental_uris":{"android":"levelo://app?vid=dbf5d124-e352-4ec1-a9e5-5afd09b8179f","ios":"levelo://app?vid=dbf5d124-e352-4ec1-a9e5-5afd09b8179f"},"vehicle_type_id":"4","last_reported":1733386418,"current_range_meters":25600,"station_id":"ce4bgl92rcd13ifvqbq0","pricing_plan_id":"cebpf4jnsgd1na2vs0mg"},{"bike_id":"16bea42d-3248-41fd-8b51-39fb3d7ec2c4","system_id":"levelo_inurba_marseille","lat":43.26471,"lon":5.38525,"is_reserved":false,"is_disabled":true,"rental_uris":{"android":"levelo://app?vid=16bea42d-3248-41fd-8b51-39fb3d7ec2c4","ios":"levelo://app?vid=16bea42d-3248-41fd-8b51-39fb3d7ec2c4"},"vehicle_type_id":"4","last_reported":1733386418,"current_range_meters":0,"station_id":"","pricing_plan_id":"cebpf4jnsgd1na2vs0mg"},{"bike_id":"0b503009-3823-4b0d-a1c4-9afb598eaf5c","system_id":"levelo_inurba_marseille","lat":43.30462,"lon":5.37899,"is_reserved":false,"is_disabled":false,"rental_uris":{"android":"levelo://app?vid=0b503009-3823-4b0d-a1c4-9afb598eaf5c","ios":"levelo://app?vid=0b503009-3823-4b0d-a1c4-9afb598eaf5c"},"vehicle_type_id":"4","last_reported":1733386418,"current_range_meters":5600,"station_id":"ce4bgup2rcd13ifvqcn0","pricing_plan_id":"cebpf4jnsgd1na2vs0mg"},{"bike_id":"6da3a031-8c98-4c7a-b1cb-4d9ae7dada45","system_id":"levelo_inurba_marseille","lat":43.27324,"lon":5.39067,"is_reserved":false,"is_disabled":false,"rental_uris":{"android":"levelo://app?vid=6da3a031-8c98-4c7a-b1cb-4d9ae7dada45","ios":"levelo://app?vid=6da3a031-8c98-4c7a-b1cb-4d9ae7dada45"},"vehicle_type_id":"4","last_reported":1733386418,"current_range_meters":22800,"station_id":"ce4bhgp2rcd13ifvqfe0","pricing_plan_id":"cebpf4jnsgd1na2vs0mg"},{"bike_id":"fefed06f-f77c-4003-83aa-4b7097b9e66e","system_id":"levelo_inurba_marseille","lat":43.25561,"lon":5.40982,"is_reserved":false,"is_disabled":false,"rental_uris":{"android":"levelo://app?vid=fefed06f-f77c-4003-83aa-4b7097b9e66e","ios":"levelo://app?vid=fefed06f-f77c-4003-83aa-4b7097b9e66e"},"vehicle_type_id":"4","last_reported":1733386418,"current_range_meters":34800,"station_id":"","pricing_plan_id":"cebpf4jnsgd1na2vs0mg"},{"bike_id":"ed9dd64e-da9f-4b22-b95d-b51038d3880c","system_id":"levelo_inurba_marseille","lat":43.30124,"lon":5.39868,"is_reserved":false,"is_disabled":false,"rental_uris":{"android":"levelo://app?vid=ed9dd64e-da9f-4b22-b95d-b51038d3880c","ios":"levelo://app?vid=ed9dd64e-da9f-4b22-b95d-b51038d3880c"},"vehicle_type_id":"4","last_reported":1733386418,"current_range_meters":30400,"station_id":"ce4bh0h2rcd13ifvqd40","pricing_plan_id":"cebpf4jnsgd1na2vs0mg"},{"bike_id":"69041c9e-37be-4061-9ab1-6d96ce31a2c0","system_id":"levelo_inurba_marseille","lat":43.27212,"lon":5.39175,"is_reserved":false,"is_disabled":false,"rental_uris":{"android":"levelo://app?vid=69041c9e-37be-4061-9ab1-6d96ce31a2c0","ios":"levelo://app?vid=69041c9e-37be-4061-9ab1-6d96ce31a2c0"},"vehicle_type_id":"4","last_reported":1733386418,"current_range_meters":24800,"station_id":"ce4bhhp2rcd13ifvqfm0","pricing_plan_id":"cebpf4jnsgd1na2vs0mg"},{"bike_id":"bc17f359-3933-45c8-ad56-9925f6a38dca","system_id":"levelo_inurba_marseille","lat":43.32348,"lon":5.40622,"is_reserved":false,"is_disabled":false,"rental_uris":{"android":"levelo://app?vid=bc17f359-3933-45c8-ad56-9925f6a38dca","ios":"levelo://app?vid=bc17f359-3933-45c8-ad56-9925f6a38dca"},"vehicle_type_id":"4","last_reported":1733386418,"current_range_meters":24000,"station_id":"ce4bhq92rcd13ifvqhjg","pricing_plan_id":"cebpf4jnsgd1na2vs0mg"},{"bike_id":"da9cfd76-5796-4c48-8486-043fb1d4045d","system_id":"levelo_inurba_marseille","lat":43.27062,"lon":5.40258,"is_reserved":false,"is_disabled":true,"rental_uris":{"android":"levelo://app?vid=da9cfd76-5796-4c48-8486-043fb1d4045d","ios":"levelo://app?vid=da9cfd76-5796-4c48-8486-043fb1d4045d"},"vehicle_type_id":"4","last_reported":1733386418,"current_range_meters":0,"station_id":"ce4bhk92rcd13ifvqgc0","pricing_plan_id":"cebpf4jnsgd1na2vs0mg"},{"bike_id":"b0025f03-f4b7-4e1f-b2ae-d738bfb01f75","system_id":"levelo_inurba_marseille","lat":43.31766,"lon":5.3902,"is_reserved":false,"is_disabled":true,"rental_uris":{"android":"levelo://app?vid=b0025f03-f4b7-4e1f-b2ae-d738bfb01f75","ios":"levelo://app?vid=b0025f03-f4b7-4e1f-b2ae-d738bfb01f75"},"vehicle_type_id":"4","last_reported":1733386418,"current_range_meters":37600,"station_id":"ce4bhqp2rcd13ifvqhng","pricing_plan_id":"cebpf4jnsgd1na2vs0mg"},{"bike_id":"d4aaeee4-0910-47c2-955b-8701b29d8ec7","system_id":"levelo_inurba_marseille","lat":43.3014,"lon":5.3742,"is_reserved":false,"is_disabled":false,"rental_uris":{"android":"levelo://app?vid=d4aaeee4-0910-47c2-955b-8701b29d8ec7","ios":"levelo://app?vid=d4aaeee4-0910-47c2-955b-8701b29d8ec7"},"vehicle_type_id":"4","last_reported":1733386418,"current_range_meters":28000,"station_id":"ce4bgs92rcd13ifvqcc0","pricing_plan_id":"cebpf4jnsgd1na2vs0mg"},{"bike_id":"df769f2f-58ec-4273-9d2f-fe7f0d2c9fd9","system_id":"levelo_inurba_marseille","lat":43.297093,"lon":5.365929,"is_reserved":false,"is_disabled":false,"rental_uris":{"android":"levelo://app?vid=df769f2f-58ec-4273-9d2f-fe7f0d2c9fd9","ios":"levelo://app?vid=df769f2f-58ec-4273-9d2f-fe7f0d2c9fd9"},"vehicle_type_id":"4","last_reported":1733386418,"current_range_meters":33200,"station_id":"ce4bguh2rcd13ifvqcj0","pricing_plan_id":"cebpf4jnsgd1na2vs0mg"},{"bike_id":"5a50557a-331c-47f8-82cc-e12807c908db","system_id":"levelo_inurba_marseille","lat":43.330224,"lon":5.390396,"is_reserved":false,"is_disabled":false,"rental_uris":{"android":"levelo://app?vid=5a50557a-331c-47f8-82cc-e12807c908db","ios":"levelo://app?vid=5a50557a-331c-47f8-82cc-e12807c908db"},"vehicle_type_id":"4","last_reported":1733386418,"current_range_meters":38000,"station_id":"ce4bhr92rcd13ifvqhrg","pricing_plan_id":"cebpf4jnsgd1na2vs0mg"},{"bike_id":"64cef5ac-e0ad-43ec-8d81-ef1e6eb0acd4","system_id":"levelo_inurba_marseille","lat":43.29963,"lon":5.3702,"is_reserved":false,"is_disabled":false,"rental_uris":{"android":"levelo://app?vid=64cef5ac-e0ad-43ec-8d81-ef1e6eb0acd4","ios":"levelo://app?vid=64cef5ac-e0ad-43ec-8d81-ef1e6eb0acd4"},"vehicle_type_id":"4","last_reported":1733386418,"current_range_meters":4800,"station_id":"","pricing_plan_id":"cebpf4jnsgd1na2vs0mg"},{"bike_id":"966d9c99-3fda-4fff-ac09-5f037d552b07","system_id":"levelo_inurba_marseille","lat":43.27678,"lon":5.389,"is_reserved":false,"is_disabled":false,"rental_uris":{"android":"levelo://app?vid=966d9c99-3fda-4fff-ac09-5f037d552b07","ios":"levelo://app?vid=966d9c99-3fda-4fff-ac09-5f037d552b07"},"vehicle_type_id":"4","last_reported":1733386418,"current_range_meters":38800,"station_id":"ce4bhi12rcd13ifvqfo0","pricing_plan_id":"cebpf4jnsgd1na2vs0mg"},{"bike_id":"083c0f74-65cd-4a47-a359-33d01e265a9c","system_id":"levelo_inurba_marseille","lat":43.28707,"lon":5.37933,"is_reserved":false,"is_disabled":false,"rental_uris":{"android":"levelo://app?vid=083c0f74-65cd-4a47-a359-33d01e265a9c","ios":"levelo://app?vid=083c0f74-65cd-4a47-a359-33d01e265a9c"},"vehicle_type_id":"4","last_reported":1733386418,"current_range_meters":26800,"station_id":"ce4bh9p2rcd13ifvqec0","pricing_plan_id":"cebpf4jnsgd1na2vs0mg"},{"bike_id":"ef8dccf7-5c02-4648-910c-2c64ce488a65","system_id":"levelo_inurba_marseille","lat":43.28156,"lon":5.42794,"is_reserved":false,"is_disabled":false,"rental_uris":{"android":"levelo://app?vid=ef8dccf7-5c02-4648-910c-2c64ce488a65","ios":"levelo://app?vid=ef8dccf7-5c02-4648-910c-2c64ce488a65"},"vehicle_type_id":"4","last_reported":1733386418,"current_range_meters":8000,"station_id":"","pricing_plan_id":"cebpf4jnsgd1na2vs0mg"},{"bike_id":"afddb0ff-7658-4984-b285-b427f08dacd1","system_id":"levelo_inurba_marseille","lat":43.25109,"lon":5.40323,"is_reserved":false,"is_disabled":false,"rental_uris":{"android":"levelo://app?vid=afddb0ff-7658-4984-b285-b427f08dacd1","ios":"levelo://app?vid=afddb0ff-7658-4984-b285-b427f08dacd1"},"vehicle_type_id":"4","last_reported":1733386418,"current_range_meters":37600,"station_id":"ce4bhlh2rcd13ifvqgig","pricing_plan_id":"cebpf4jnsgd1na2vs0mg"},{"bike_id":"b73386f2-fa04-4fae-98be-ff0e17efea9c","system_id":"levelo_inurba_marseille","lat":43.32364,"lon":5.38882,"is_reserved":false,"is_disabled":false,"rental_uris":{"android":"levelo://app?vid=b73386f2-fa04-4fae-98be-ff0e17efea9c","ios":"levelo://app?vid=b73386f2-fa04-4fae-98be-ff0e17efea9c"},"vehicle_type_id":"4","last_reported":1733386418,"current_range_meters":38400,"station_id":"ce4bhqp2rcd13ifvqhog","pricing_plan_id":"cebpf4jnsgd1na2vs0mg"},{"bike_id":"22c8311a-70da-4d48-9cb9-b8e0f298fa7d","system_id":"levelo_inurba_marseille","lat":43.24081,"lon":5.3775,"is_reserved":false,"is_disabled":false,"rental_uris":{"android":"levelo://app?vid=22c8311a-70da-4d48-9cb9-b8e0f298fa7d","ios":"levelo://app?vid=22c8311a-70da-4d48-9cb9-b8e0f298fa7d"},"vehicle_type_id":"4","last_reported":1733386418,"current_range_meters":8000,"station_id":"ce4bhnp2rcd13ifvqgvg","pricing_plan_id":"cebpf4jnsgd1na2vs0mg"},{"bike_id":"5cef358c-4d33-4f46-b1a1-56f6f4f255fd","system_id":"levelo_inurba_marseille","lat":43.29573,"lon":5.43928,"is_reserved":false,"is_disabled":true,"rental_uris":{"android":"levelo://app?vid=5cef358c-4d33-4f46-b1a1-56f6f4f255fd","ios":"levelo://app?vid=5cef358c-4d33-4f46-b1a1-56f6f4f255fd"},"vehicle_type_id":"4","last_reported":1733386418,"current_range_meters":0,"station_id":"","pricing_plan_id":"cebpf4jnsgd1na2vs0mg"},{"bike_id":"b15815ad-6059-4ce6-a659-ba40f47b1260","system_id":"levelo_inurba_marseille","lat":43.3123,"lon":5.36864,"is_reserved":false,"is_disabled":false,"rental_uris":{"android":"levelo://app?vid=b15815ad-6059-4ce6-a659-ba40f47b1260","ios":"levelo://app?vid=b15815ad-6059-4ce6-a659-ba40f47b1260"},"vehicle_type_id":"4","last_reported":1733386418,"current_range_meters":6400,"station_id":"ce4bgl92rcd13ifvqbq0","pricing_plan_id":"cebpf4jnsgd1na2vs0mg"},{"bike_id":"734d07dc-217f-41dd-93a2-1bef235667d0","system_id":"levelo_inurba_marseille","lat":43.24392,"lon":5.37063,"is_reserved":false,"is_disabled":true,"rental_uris":{"android":"levelo://app?vid=734d07dc-217f-41dd-93a2-1bef235667d0","ios":"levelo://app?vid=734d07dc-217f-41dd-93a2-1bef235667d0"},"vehicle_type_id":"4","last_reported":1733386418,"current_range_meters":6800,"station_id":"ce4bhhh2rcd13ifvqfk0","pricing_plan_id":"cebpf4jnsgd1na2vs0mg"},{"bike_id":"aa0a0e06-e37e-472e-95a0-ff950e287659","system_id":"levelo_inurba_marseille","lat":43.2669,"lon":5.38274,"is_reserved":false,"is_disabled":false,"rental_uris":{"android":"levelo://app?vid=aa0a0e06-e37e-472e-95a0-ff950e287659","ios":"levelo://app?vid=aa0a0e06-e37e-472e-95a0-ff950e287659"},"vehicle_type_id":"4","last_reported":1733386418,"current_range_meters":38000,"station_id":"ce4bhg92rcd13ifvqf90","pricing_plan_id":"cebpf4jnsgd1na2vs0mg"},{"bike_id":"defb080e-3eac-4e06-86c3-1d6ecd891b5c","system_id":"levelo_inurba_marseille","lat":43.29273,"lon":5.36848,"is_reserved":false,"is_disabled":false,"rental_uris":{"android":"levelo://app?vid=defb080e-3eac-4e06-86c3-1d6ecd891b5c","ios":"levelo://app?vid=defb080e-3eac-4e06-86c3-1d6ecd891b5c"},"vehicle_type_id":"4","last_reported":1733386418,"current_range_meters":22400,"station_id":"ce4bhbp2rcd13ifvqesg","pricing_plan_id":"cebpf4jnsgd1na2vs0mg"},{"bike_id":"cdfe6590-4984-4014-86c8-6dd70747c27a","system_id":"levelo_inurba_marseille","lat":43.29737,"lon":5.37434,"is_reserved":false,"is_disabled":true,"rental_uris":{"android":"levelo://app?vid=cdfe6590-4984-4014-86c8-6dd70747c27a","ios":"levelo://app?vid=cdfe6590-4984-4014-86c8-6dd70747c27a"},"vehicle_type_id":"4","last_reported":1733386418,"current_range_meters":0,"station_id":"","pricing_plan_id":"cebpf4jnsgd1na2vs0mg"},{"bike_id":"9fdcdbe3-d1df-41e6-b800-7660a3418182","system_id":"levelo_inurba_marseille","lat":43.29295,"lon":5.37454,"is_reserved":false,"is_disabled":false,"rental_uris":{"android":"levelo://app?vid=9fdcdbe3-d1df-41e6-b800-7660a3418182","ios":"levelo://app?vid=9fdcdbe3-d1df-41e6-b800-7660a3418182"},"vehicle_type_id":"4","last_reported":1733386418,"current_range_meters":4400,"station_id":"ce4bgi12rcd13ifvqb70","pricing_plan_id":"cebpf4jnsgd1na2vs0mg"},{"bike_id":"9309313e-316d-4707-816e-67df9a39a867","system_id":"levelo_inurba_marseille","lat":43.28922,"lon":5.36405,"is_reserved":false,"is_disabled":true,"rental_uris":{"android":"levelo://app?vid=9309313e-316d-4707-816e-67df9a39a867","ios":"levelo://app?vid=9309313e-316d-4707-816e-67df9a39a867"},"vehicle_type_id":"4","last_reported":1733386418,"current_range_meters":5600,"station_id":"ce4bhc92rcd13ifvqetg","pricing_plan_id":"cebpf4jnsgd1na2vs0mg"},{"bike_id":"0d5000f2-19a7-4349-90ca-e5df8bdccda2","system_id":"levelo_inurba_marseille","lat":43.31335,"lon":5.36721,"is_reserved":false,"is_disabled":false,"rental_uris":{"android":"levelo://app?vid=0d5000f2-19a7-4349-90ca-e5df8bdccda2","ios":"levelo://app?vid=0d5000f2-19a7-4349-90ca-e5df8bdccda2"},"vehicle_type_id":"4","last_reported":1733386418,"current_range_meters":12800,"station_id":"ce4bgr92rcd13ifvqc6g","pricing_plan_id":"cebpf4jnsgd1na2vs0mg"},{"bike_id":"f44193ca-7108-4797-a8c9-660fffa00020","system_id":"levelo_inurba_marseille","lat":43.29014,"lon":5.35631,"is_reserved":false,"is_disabled":false,"rental_uris":{"android":"levelo://app?vid=f44193ca-7108-4797-a8c9-660fffa00020","ios":"levelo://app?vid=f44193ca-7108-4797-a8c9-660fffa00020"},"vehicle_type_id":"4","last_reported":1733386418,"current_range_meters":32400,"station_id":"ce4bhb92rcd13ifvqen0","pricing_plan_id":"cebpf4jnsgd1na2vs0mg"},{"bike_id":"189d41e8-50bb-4f05-9a34-8bbecbbc54a5","system_id":"levelo_inurba_marseille","lat":43.26029,"lon":5.37553,"is_reserved":false,"is_disabled":false,"rental_uris":{"android":"levelo://app?vid=189d41e8-50bb-4f05-9a34-8bbecbbc54a5","ios":"levelo://app?vid=189d41e8-50bb-4f05-9a34-8bbecbbc54a5"},"vehicle_type_id":"4","last_reported":1733386418,"current_range_meters":17200,"station_id":"ce4bhgh2rcd13ifvqfa0","pricing_plan_id":"cebpf4jnsgd1na2vs0mg"},{"bike_id":"987a5ab4-d60c-480c-94b6-7cab38975402","system_id":"levelo_inurba_marseille","lat":43.29748,"lon":5.37971,"is_reserved":false,"is_disabled":true,"rental_uris":{"android":"levelo://app?vid=987a5ab4-d60c-480c-94b6-7cab38975402","ios":"levelo://app?vid=987a5ab4-d60c-480c-94b6-7cab38975402"},"vehicle_type_id":"4","last_reported":1733386418,"current_range_meters":0,"station_id":"","pricing_plan_id":"cebpf4jnsgd1na2vs0mg"},{"bike_id":"2c4596ad-0ad9-4016-b92b-0093349de2b4","system_id":"levelo_inurba_marseille","lat":43.30755,"lon":5.38187,"is_reserved":false,"is_disabled":true,"rental_uris":{"android":"levelo://app?vid=2c4596ad-0ad9-4016-b92b-0093349de2b4","ios":"levelo://app?vid=2c4596ad-0ad9-4016-b92b-0093349de2b4"},"vehicle_type_id":"4","last_reported":1733386418,"current_range_meters":0,"station_id":"","pricing_plan_id":"cebpf4jnsgd1na2vs0mg"},{"bike_id":"00221bb3-43f4-4b93-97f7-7c625e48c6c0","system_id":"levelo_inurba_marseille","lat":43.25931,"lon":5.40912,"is_reserved":false,"is_disabled":false,"rental_uris":{"android":"levelo://app?vid=00221bb3-43f4-4b93-97f7-7c625e48c6c0","ios":"levelo://app?vid=00221bb3-43f4-4b93-97f7-7c625e48c6c0"},"vehicle_type_id":"4","last_reported":1733386418,"current_range_meters":35600,"station_id":"ce4bhm92rcd13ifvqglg","pricing_plan_id":"cebpf4jnsgd1na2vs0mg"},{"bike_id":"b7ab8c01-033f-4395-8276-23c850ad3d02","system_id":"levelo_inurba_marseille","lat":43.30348,"lon":5.36626,"is_reserved":false,"is_disabled":true,"rental_uris":{"android":"levelo://app?vid=b7ab8c01-033f-4395-8276-23c850ad3d02","ios":"levelo://app?vid=b7ab8c01-033f-4395-8276-23c850ad3d02"},"vehicle_type_id":"4","last_reported":1733386418,"current_range_meters":0,"station_id":"","pricing_plan_id":"cebpf4jnsgd1na2vs0mg"},{"bike_id":"3e5094fe-36c8-4f4a-9a18-d38d46ff20f4","system_id":"levelo_inurba_marseille","lat":43.32367,"lon":5.38882,"is_reserved":false,"is_disabled":false,"rental_uris":{"android":"levelo://app?vid=3e5094fe-36c8-4f4a-9a18-d38d46ff20f4","ios":"levelo://app?vid=3e5094fe-36c8-4f4a-9a18-d38d46ff20f4"},"vehicle_type_id":"4","last_reported":1733386418,"current_range_meters":9200,"station_id":"ce4bhqp2rcd13ifvqhog","pricing_plan_id":"cebpf4jnsgd1na2vs0mg"},{"bike_id":"9af467f5-837b-4396-a718-83ffe6577be8","system_id":"levelo_inurba_marseille","lat":43.25002,"lon":5.38923,"is_reserved":false,"is_disabled":false,"rental_uris":{"android":"levelo://app?vid=9af467f5-837b-4396-a718-83ffe6577be8","ios":"levelo://app?vid=9af467f5-837b-4396-a718-83ffe6577be8"},"vehicle_type_id":"4","last_reported":1733386418,"current_range_meters":38800,"station_id":"ce4bhgp2rcd13ifvqfd0","pricing_plan_id":"cebpf4jnsgd1na2vs0mg"},{"bike_id":"18c6d740-a02e-48b1-9a46-5686162d1dab","system_id":"levelo_inurba_marseille","lat":43.2455,"lon":5.39535,"is_reserved":false,"is_disabled":false,"rental_uris":{"android":"levelo://app?vid=18c6d740-a02e-48b1-9a46-5686162d1dab","ios":"levelo://app?vid=18c6d740-a02e-48b1-9a46-5686162d1dab"},"vehicle_type_id":"4","last_reported":1733386418,"current_range_meters":38000,"station_id":"ce4bhlp2rcd13ifvqgjg","pricing_plan_id":"cebpf4jnsgd1na2vs0mg"},{"bike_id":"19d2ce59-2b75-48a1-9810-172e15ca151e","system_id":"levelo_inurba_marseille","lat":43.23198,"lon":5.35544,"is_reserved":false,"is_disabled":false,"rental_uris":{"android":"levelo://app?vid=19d2ce59-2b75-48a1-9810-172e15ca151e","ios":"levelo://app?vid=19d2ce59-2b75-48a1-9810-172e15ca151e"},"vehicle_type_id":"4","last_reported":1733386418,"current_range_meters":4000,"station_id":"ce4bhu92rcd13ifvqi70","pricing_plan_id":"cebpf4jnsgd1na2vs0mg"},{"bike_id":"fb29d2b4-ef5f-40bf-a63d-1ea02a78ccb8","system_id":"levelo_inurba_marseille","lat":43.33593,"lon":5.41021,"is_reserved":false,"is_disabled":false,"rental_uris":{"android":"levelo://app?vid=fb29d2b4-ef5f-40bf-a63d-1ea02a78ccb8","ios":"levelo://app?vid=fb29d2b4-ef5f-40bf-a63d-1ea02a78ccb8"},"vehicle_type_id":"4","last_reported":1733386418,"current_range_meters":22400,"station_id":"ce4bhqh2rcd13ifvqhmg","pricing_plan_id":"cebpf4jnsgd1na2vs0mg"},{"bike_id":"378952a2-85f3-464c-9bab-772f724a98fa","system_id":"levelo_inurba_marseille","lat":43.24867,"lon":5.38167,"is_reserved":false,"is_disabled":false,"rental_uris":{"android":"levelo://app?vid=378952a2-85f3-464c-9bab-772f724a98fa","ios":"levelo://app?vid=378952a2-85f3-464c-9bab-772f724a98fa"},"vehicle_type_id":"4","last_reported":1733386418,"current_range_meters":23200,"station_id":"ce4bhih2rcd13ifvqfr0","pricing_plan_id":"cebpf4jnsgd1na2vs0mg"},{"bike_id":"206b2f4e-e657-4f55-b71a-763491639205","system_id":"levelo_inurba_marseille","lat":43.290342,"lon":5.399722,"is_reserved":false,"is_disabled":true,"rental_uris":{"android":"levelo://app?vid=206b2f4e-e657-4f55-b71a-763491639205","ios":"levelo://app?vid=206b2f4e-e657-4f55-b71a-763491639205"},"vehicle_type_id":"4","last_reported":1733386418,"current_range_meters":31200,"station_id":"ce4bh392rcd13ifvqdm0","pricing_plan_id":"cebpf4jnsgd1na2vs0mg"},{"bike_id":"d1b0a557-0ad4-412d-8ea9-d3487aa67051","system_id":"levelo_inurba_marseille","lat":43.25936,"lon":5.40909,"is_reserved":false,"is_disabled":false,"rental_uris":{"android":"levelo://app?vid=d1b0a557-0ad4-412d-8ea9-d3487aa67051","ios":"levelo://app?vid=d1b0a557-0ad4-412d-8ea9-d3487aa67051"},"vehicle_type_id":"4","last_reported":1733386418,"current_range_meters":28400,"station_id":"ce4bhm92rcd13ifvqglg","pricing_plan_id":"cebpf4jnsgd1na2vs0mg"},{"bike_id":"6cc6805f-c0ca-4585-bdf1-b5a0339762b0","system_id":"levelo_inurba_marseille","lat":43.29013,"lon":5.42789,"is_reserved":false,"is_disabled":true,"rental_uris":{"android":"levelo://app?vid=6cc6805f-c0ca-4585-bdf1-b5a0339762b0","ios":"levelo://app?vid=6cc6805f-c0ca-4585-bdf1-b5a0339762b0"},"vehicle_type_id":"4","last_reported":1733386418,"current_range_meters":0,"station_id":"","pricing_plan_id":"cebpf4jnsgd1na2vs0mg"},{"bike_id":"cf26f892-3bd7-4b93-a408-aafdf27f6657","system_id":"levelo_inurba_marseille","lat":43.27497,"lon":5.42449,"is_reserved":false,"is_disabled":false,"rental_uris":{"android":"levelo://app?vid=cf26f892-3bd7-4b93-a408-aafdf27f6657","ios":"levelo://app?vid=cf26f892-3bd7-4b93-a408-aafdf27f6657"},"vehicle_type_id":"4","last_reported":1733386418,"current_range_meters":28400,"station_id":"ce4bhn92rcd13ifvqgrg","pricing_plan_id":"cebpf4jnsgd1na2vs0mg"},{"bike_id":"0bfb3d4e-359d-4927-881b-5e84aa873cc8","system_id":"levelo_inurba_marseille","lat":43.32359,"lon":5.36753,"is_reserved":false,"is_disabled":false,"rental_uris":{"android":"levelo://app?vid=0bfb3d4e-359d-4927-881b-5e84aa873cc8","ios":"levelo://app?vid=0bfb3d4e-359d-4927-881b-5e84aa873cc8"},"vehicle_type_id":"4","last_reported":1733386418,"current_range_meters":15200,"station_id":"ce4bhsh2rcd13ifvqi2g","pricing_plan_id":"cebpf4jnsgd1na2vs0mg"},{"bike_id":"8d1c8b92-79bb-4181-b0d2-5e94db1a14d0","system_id":"levelo_inurba_marseille","lat":43.300115,"lon":5.382636,"is_reserved":false,"is_disabled":true,"rental_uris":{"android":"levelo://app?vid=8d1c8b92-79bb-4181-b0d2-5e94db1a14d0","ios":"levelo://app?vid=8d1c8b92-79bb-4181-b0d2-5e94db1a14d0"},"vehicle_type_id":"4","last_reported":1733386418,"current_range_meters":0,"station_id":"","pricing_plan_id":"cebpf4jnsgd1na2vs0mg"},{"bike_id":"db942038-d876-4ebf-b3ad-a28104a80de2","system_id":"levelo_inurba_marseille","lat":43.337444,"lon":5.374475,"is_reserved":false,"is_disabled":false,"rental_uris":{"android":"levelo://app?vid=db942038-d876-4ebf-b3ad-a28104a80de2","ios":"levelo://app?vid=db942038-d876-4ebf-b3ad-a28104a80de2"},"vehicle_type_id":"4","last_reported":1733386418,"current_range_meters":17600,"station_id":"","pricing_plan_id":"cebpf4jnsgd1na2vs0mg"},{"bike_id":"6f0b16fc-b89e-492b-b913-0d7f6f04b518","system_id":"levelo_inurba_marseille","lat":43.30538,"lon":5.36533,"is_reserved":false,"is_disabled":false,"rental_uris":{"android":"levelo://app?vid=6f0b16fc-b89e-492b-b913-0d7f6f04b518","ios":"levelo://app?vid=6f0b16fc-b89e-492b-b913-0d7f6f04b518"},"vehicle_type_id":"4","last_reported":1733386418,"current_range_meters":22800,"station_id":"ce4bgs12rcd13ifvqcag","pricing_plan_id":"cebpf4jnsgd1na2vs0mg"},{"bike_id":"fc7f5784-ffba-4002-a14e-bac3f330ea26","system_id":"levelo_inurba_marseille","lat":43.24082,"lon":5.37751,"is_reserved":false,"is_disabled":false,"rental_uris":{"android":"levelo://app?vid=fc7f5784-ffba-4002-a14e-bac3f330ea26","ios":"levelo://app?vid=fc7f5784-ffba-4002-a14e-bac3f330ea26"},"vehicle_type_id":"4","last_reported":1733386418,"current_range_meters":25600,"station_id":"ce4bhnp2rcd13ifvqgvg","pricing_plan_id":"cebpf4jnsgd1na2vs0mg"},{"bike_id":"1cc8faab-1cfd-4f40-aa9c-799020c62065","system_id":"levelo_inurba_marseille","lat":43.30798,"lon":5.38159,"is_reserved":false,"is_disabled":true,"rental_uris":{"android":"levelo://app?vid=1cc8faab-1cfd-4f40-aa9c-799020c62065","ios":"levelo://app?vid=1cc8faab-1cfd-4f40-aa9c-799020c62065"},"vehicle_type_id":"4","last_reported":1733386418,"current_range_meters":2000,"station_id":"ce4bgt12rcd13ifvqce0","pricing_plan_id":"cebpf4jnsgd1na2vs0mg"},{"bike_id":"568aa5ad-cde1-4f8a-9dcc-f1b44e1162ce","system_id":"levelo_inurba_marseille","lat":43.26957,"lon":5.38636,"is_reserved":false,"is_disabled":false,"rental_uris":{"android":"levelo://app?vid=568aa5ad-cde1-4f8a-9dcc-f1b44e1162ce","ios":"levelo://app?vid=568aa5ad-cde1-4f8a-9dcc-f1b44e1162ce"},"vehicle_type_id":"4","last_reported":1733386418,"current_range_meters":26800,"station_id":"ce4bhh92rcd13ifvqfh0","pricing_plan_id":"cebpf4jnsgd1na2vs0mg"},{"bike_id":"ebdb7320-d42f-43cc-8b32-56b3376ac61d","system_id":"levelo_inurba_marseille","lat":43.33758,"lon":5.37437,"is_reserved":false,"is_disabled":false,"rental_uris":{"android":"levelo://app?vid=ebdb7320-d42f-43cc-8b32-56b3376ac61d","ios":"levelo://app?vid=ebdb7320-d42f-43cc-8b32-56b3376ac61d"},"vehicle_type_id":"4","last_reported":1733386418,"current_range_meters":38800,"station_id":"","pricing_plan_id":"cebpf4jnsgd1na2vs0mg"},{"bike_id":"cca5fab4-9de8-4bd4-abd1-f13506a8eb83","system_id":"levelo_inurba_marseille","lat":43.28984,"lon":5.39842,"is_reserved":false,"is_disabled":false,"rental_uris":{"android":"levelo://app?vid=cca5fab4-9de8-4bd4-abd1-f13506a8eb83","ios":"levelo://app?vid=cca5fab4-9de8-4bd4-abd1-f13506a8eb83"},"vehicle_type_id":"4","last_reported":1733386418,"current_range_meters":13600,"station_id":"ce4bgs92rcd13ifvqcc0","pricing_plan_id":"cebpf4jnsgd1na2vs0mg"},{"bike_id":"a9e4e6c1-371c-48c2-a3c3-04f2bcfd31a1","system_id":"levelo_inurba_marseille","lat":43.29533,"lon":5.38546,"is_reserved":false,"is_disabled":true,"rental_uris":{"android":"levelo://app?vid=a9e4e6c1-371c-48c2-a3c3-04f2bcfd31a1","ios":"levelo://app?vid=a9e4e6c1-371c-48c2-a3c3-04f2bcfd31a1"},"vehicle_type_id":"4","last_reported":1733386418,"current_range_meters":4400,"station_id":"ce4bgih2rcd13ifvqba0","pricing_plan_id":"cebpf4jnsgd1na2vs0mg"},{"bike_id":"b494ab65-4cd4-46d8-ab61-ebcade8d01c4","system_id":"levelo_inurba_marseille","lat":43.313507,"lon":5.367401,"is_reserved":false,"is_disabled":false,"rental_uris":{"android":"levelo://app?vid=b494ab65-4cd4-46d8-ab61-ebcade8d01c4","ios":"levelo://app?vid=b494ab65-4cd4-46d8-ab61-ebcade8d01c4"},"vehicle_type_id":"4","last_reported":1733386418,"current_range_meters":22000,"station_id":"ce4bgr92rcd13ifvqc6g","pricing_plan_id":"cebpf4jnsgd1na2vs0mg"},{"bike_id":"f68b1531-8064-4de3-b65e-b3705a4a29e2","system_id":"levelo_inurba_marseille","lat":43.27373,"lon":5.36262,"is_reserved":false,"is_disabled":false,"rental_uris":{"android":"levelo://app?vid=f68b1531-8064-4de3-b65e-b3705a4a29e2","ios":"levelo://app?vid=f68b1531-8064-4de3-b65e-b3705a4a29e2"},"vehicle_type_id":"4","last_reported":1733386418,"current_range_meters":18000,"station_id":"ce4bhbh2rcd13ifvqeo0","pricing_plan_id":"cebpf4jnsgd1na2vs0mg"},{"bike_id":"a94fdaac-1e6d-4150-92d3-032e3a1477a3","system_id":"levelo_inurba_marseille","lat":43.28356,"lon":5.38106,"is_reserved":false,"is_disabled":false,"rental_uris":{"android":"levelo://app?vid=a94fdaac-1e6d-4150-92d3-032e3a1477a3","ios":"levelo://app?vid=a94fdaac-1e6d-4150-92d3-032e3a1477a3"},"vehicle_type_id":"4","last_reported":1733386418,"current_range_meters":32800,"station_id":"ce4bh412rcd13ifvqdr0","pricing_plan_id":"cebpf4jnsgd1na2vs0mg"},{"bike_id":"1ca0aca0-4ca4-4bf8-9b1d-054345c3a341","system_id":"levelo_inurba_marseille","lat":43.28887,"lon":5.39996,"is_reserved":false,"is_disabled":false,"rental_uris":{"android":"levelo://app?vid=1ca0aca0-4ca4-4bf8-9b1d-054345c3a341","ios":"levelo://app?vid=1ca0aca0-4ca4-4bf8-9b1d-054345c3a341"},"vehicle_type_id":"4","last_reported":1733386418,"current_range_meters":24800,"station_id":"","pricing_plan_id":"cebpf4jnsgd1na2vs0mg"},{"bike_id":"92084026-ab9b-407b-bdd8-05f7e42d52f1","system_id":"levelo_inurba_marseille","lat":43.27496,"lon":5.42448,"is_reserved":false,"is_disabled":false,"rental_uris":{"android":"levelo://app?vid=92084026-ab9b-407b-bdd8-05f7e42d52f1","ios":"levelo://app?vid=92084026-ab9b-407b-bdd8-05f7e42d52f1"},"vehicle_type_id":"4","last_reported":1733386418,"current_range_meters":22800,"station_id":"ce4bhn92rcd13ifvqgrg","pricing_plan_id":"cebpf4jnsgd1na2vs0mg"},{"bike_id":"870c36ea-4962-487a-ac9e-bf4bc7d7730c","system_id":"levelo_inurba_marseille","lat":43.30906,"lon":5.36839,"is_reserved":false,"is_disabled":false,"rental_uris":{"android":"levelo://app?vid=870c36ea-4962-487a-ac9e-bf4bc7d7730c","ios":"levelo://app?vid=870c36ea-4962-487a-ac9e-bf4bc7d7730c"},"vehicle_type_id":"4","last_reported":1733386418,"current_range_meters":24000,"station_id":"ce4bgn92rcd13ifvqbvg","pricing_plan_id":"cebpf4jnsgd1na2vs0mg"},{"bike_id":"31e6fc3b-f821-47c0-8265-070531f4b97c","system_id":"levelo_inurba_marseille","lat":43.24179,"lon":5.39726,"is_reserved":false,"is_disabled":false,"rental_uris":{"android":"levelo://app?vid=31e6fc3b-f821-47c0-8265-070531f4b97c","ios":"levelo://app?vid=31e6fc3b-f821-47c0-8265-070531f4b97c"},"vehicle_type_id":"4","last_reported":1733386418,"current_range_meters":36000,"station_id":"ce4bhn12rcd13ifvqgpg","pricing_plan_id":"cebpf4jnsgd1na2vs0mg"},{"bike_id":"d7658314-ceb9-49f4-863a-363c3b3a08ea","system_id":"levelo_inurba_marseille","lat":43.26688,"lon":5.38271,"is_reserved":false,"is_disabled":false,"rental_uris":{"android":"levelo://app?vid=d7658314-ceb9-49f4-863a-363c3b3a08ea","ios":"levelo://app?vid=d7658314-ceb9-49f4-863a-363c3b3a08ea"},"vehicle_type_id":"4","last_reported":1733386418,"current_range_meters":24000,"station_id":"ce4bhg92rcd13ifvqf90","pricing_plan_id":"cebpf4jnsgd1na2vs0mg"},{"bike_id":"cc97291d-dd54-42f5-bf82-a33e785df71f","system_id":"levelo_inurba_marseille","lat":43.29225,"lon":5.36057,"is_reserved":false,"is_disabled":false,"rental_uris":{"android":"levelo://app?vid=cc97291d-dd54-42f5-bf82-a33e785df71f","ios":"levelo://app?vid=cc97291d-dd54-42f5-bf82-a33e785df71f"},"vehicle_type_id":"4","last_reported":1733386418,"current_range_meters":24800,"station_id":"ce4bhbh2rcd13ifvqeqg","pricing_plan_id":"cebpf4jnsgd1na2vs0mg"},{"bike_id":"ab05039b-da25-4171-883f-dbeac8d952e7","system_id":"levelo_inurba_marseille","lat":43.323649,"lon":5.388914,"is_reserved":false,"is_disabled":false,"rental_uris":{"android":"levelo://app?vid=ab05039b-da25-4171-883f-dbeac8d952e7","ios":"levelo://app?vid=ab05039b-da25-4171-883f-dbeac8d952e7"},"vehicle_type_id":"4","last_reported":1733386418,"current_range_meters":22800,"station_id":"ce4bhqp2rcd13ifvqhog","pricing_plan_id":"cebpf4jnsgd1na2vs0mg"},{"bike_id":"bb6b53dd-4494-4182-a216-6003a45ab165","system_id":"levelo_inurba_marseille","lat":43.25001,"lon":5.38924,"is_reserved":false,"is_disabled":false,"rental_uris":{"android":"levelo://app?vid=bb6b53dd-4494-4182-a216-6003a45ab165","ios":"levelo://app?vid=bb6b53dd-4494-4182-a216-6003a45ab165"},"vehicle_type_id":"4","last_reported":1733386418,"current_range_meters":38800,"station_id":"ce4bhgp2rcd13ifvqfd0","pricing_plan_id":"cebpf4jnsgd1na2vs0mg"},{"bike_id":"9c77a68d-2e99-44e9-b903-950fb6644d35","system_id":"levelo_inurba_marseille","lat":43.25265,"lon":5.39465,"is_reserved":false,"is_disabled":true,"rental_uris":{"android":"levelo://app?vid=9c77a68d-2e99-44e9-b903-950fb6644d35","ios":"levelo://app?vid=9c77a68d-2e99-44e9-b903-950fb6644d35"},"vehicle_type_id":"4","last_reported":1733386418,"current_range_meters":0,"station_id":"","pricing_plan_id":"cebpf4jnsgd1na2vs0mg"},{"bike_id":"ac7f87b7-a26f-4a3d-aac9-8dad0fe1a145","system_id":"levelo_inurba_marseille","lat":43.26956,"lon":5.38632,"is_reserved":false,"is_disabled":false,"rental_uris":{"android":"levelo://app?vid=ac7f87b7-a26f-4a3d-aac9-8dad0fe1a145","ios":"levelo://app?vid=ac7f87b7-a26f-4a3d-aac9-8dad0fe1a145"},"vehicle_type_id":"4","last_reported":1733386418,"current_range_meters":7200,"station_id":"ce4bhh92rcd13ifvqfh0","pricing_plan_id":"cebpf4jnsgd1na2vs0mg"},{"bike_id":"dce3be87-90c1-4c6d-92e0-cf09314d921e","system_id":"levelo_inurba_marseille","lat":43.2979,"lon":5.38101,"is_reserved":false,"is_disabled":true,"rental_uris":{"android":"levelo://app?vid=dce3be87-90c1-4c6d-92e0-cf09314d921e","ios":"levelo://app?vid=dce3be87-90c1-4c6d-92e0-cf09314d921e"},"vehicle_type_id":"4","last_reported":1733386418,"current_range_meters":22400,"station_id":"ce4bgip2rcd13ifvqbb0","pricing_plan_id":"cebpf4jnsgd1na2vs0mg"},{"bike_id":"58650582-f8e9-49b9-8dc5-fce796e3df79","system_id":"levelo_inurba_marseille","lat":43.25719,"lon":5.41108,"is_reserved":false,"is_disabled":false,"rental_uris":{"android":"levelo://app?vid=58650582-f8e9-49b9-8dc5-fce796e3df79","ios":"levelo://app?vid=58650582-f8e9-49b9-8dc5-fce796e3df79"},"vehicle_type_id":"4","last_reported":1733386418,"current_range_meters":14000,"station_id":"ce4bhkp2rcd13ifvqgd0","pricing_plan_id":"cebpf4jnsgd1na2vs0mg"},{"bike_id":"6ed6104a-cb7d-4889-82fa-acac97c6f644","system_id":"levelo_inurba_marseille","lat":43.32335,"lon":5.406227,"is_reserved":false,"is_disabled":false,"rental_uris":{"android":"levelo://app?vid=6ed6104a-cb7d-4889-82fa-acac97c6f644","ios":"levelo://app?vid=6ed6104a-cb7d-4889-82fa-acac97c6f644"},"vehicle_type_id":"4","last_reported":1733386418,"current_range_meters":34800,"station_id":"ce4bhq92rcd13ifvqhjg","pricing_plan_id":"cebpf4jnsgd1na2vs0mg"},{"bike_id":"83985555-c848-4b28-808f-8a7e7cf8519e","system_id":"levelo_inurba_marseille","lat":43.28115,"lon":5.43955,"is_reserved":false,"is_disabled":true,"rental_uris":{"android":"levelo://app?vid=83985555-c848-4b28-808f-8a7e7cf8519e","ios":"levelo://app?vid=83985555-c848-4b28-808f-8a7e7cf8519e"},"vehicle_type_id":"4","last_reported":1733386418,"current_range_meters":0,"station_id":"","pricing_plan_id":"cebpf4jnsgd1na2vs0mg"},{"bike_id":"4196eaa3-c6cb-4626-b36d-05a017992676","system_id":"levelo_inurba_marseille","lat":43.30457,"lon":5.37909,"is_reserved":false,"is_disabled":false,"rental_uris":{"android":"levelo://app?vid=4196eaa3-c6cb-4626-b36d-05a017992676","ios":"levelo://app?vid=4196eaa3-c6cb-4626-b36d-05a017992676"},"vehicle_type_id":"4","last_reported":1733386418,"current_range_meters":18000,"station_id":"ce4bgup2rcd13ifvqcn0","pricing_plan_id":"cebpf4jnsgd1na2vs0mg"},{"bike_id":"9525b765-9372-4b25-8442-47ecddf2e176","system_id":"levelo_inurba_marseille","lat":43.29161,"lon":5.37159,"is_reserved":false,"is_disabled":true,"rental_uris":{"android":"levelo://app?vid=9525b765-9372-4b25-8442-47ecddf2e176","ios":"levelo://app?vid=9525b765-9372-4b25-8442-47ecddf2e176"},"vehicle_type_id":"4","last_reported":1733386418,"current_range_meters":0,"station_id":"ce4bha92rcd13ifvqeh0","pricing_plan_id":"cebpf4jnsgd1na2vs0mg"},{"bike_id":"903ec8f1-f4c3-441f-a117-ff7454fcb959","system_id":"levelo_inurba_marseille","lat":43.29467,"lon":5.39434,"is_reserved":false,"is_disabled":true,"rental_uris":{"android":"levelo://app?vid=903ec8f1-f4c3-441f-a117-ff7454fcb959","ios":"levelo://app?vid=903ec8f1-f4c3-441f-a117-ff7454fcb959"},"vehicle_type_id":"4","last_reported":1733386418,"current_range_meters":0,"station_id":"","pricing_plan_id":"cebpf4jnsgd1na2vs0mg"},{"bike_id":"07a60b7f-80b7-470a-9515-22fa33d21dee","system_id":"levelo_inurba_marseille","lat":43.30289,"lon":5.39665,"is_reserved":false,"is_disabled":true,"rental_uris":{"android":"levelo://app?vid=07a60b7f-80b7-470a-9515-22fa33d21dee","ios":"levelo://app?vid=07a60b7f-80b7-470a-9515-22fa33d21dee"},"vehicle_type_id":"4","last_reported":1733386418,"current_range_meters":0,"station_id":"","pricing_plan_id":"cebpf4jnsgd1na2vs0mg"},{"bike_id":"3647223e-5f63-4bec-8c2b-7be8725af3a7","system_id":"levelo_inurba_marseille","lat":43.29033,"lon":5.37571,"is_reserved":false,"is_disabled":false,"rental_uris":{"android":"levelo://app?vid=3647223e-5f63-4bec-8c2b-7be8725af3a7","ios":"levelo://app?vid=3647223e-5f63-4bec-8c2b-7be8725af3a7"},"vehicle_type_id":"4","last_reported":1733386418,"current_range_meters":10000,"station_id":"ce4bh692rcd13ifvqe90","pricing_plan_id":"cebpf4jnsgd1na2vs0mg"},{"bike_id":"bde0d1f0-39ea-41b8-8689-2e0fad029a40","system_id":"levelo_inurba_marseille","lat":43.29303,"lon":5.37446,"is_reserved":false,"is_disabled":true,"rental_uris":{"android":"levelo://app?vid=bde0d1f0-39ea-41b8-8689-2e0fad029a40","ios":"levelo://app?vid=bde0d1f0-39ea-41b8-8689-2e0fad029a40"},"vehicle_type_id":"4","last_reported":1733386418,"current_range_meters":38400,"station_id":"ce4bgi12rcd13ifvqb70","pricing_plan_id":"cebpf4jnsgd1na2vs0mg"},{"bike_id":"eb21963f-de7e-4534-aca6-bda405f0be1e","system_id":"levelo_inurba_marseille","lat":43.298726,"lon":5.397572,"is_reserved":false,"is_disabled":false,"rental_uris":{"android":"levelo://app?vid=eb21963f-de7e-4534-aca6-bda405f0be1e","ios":"levelo://app?vid=eb21963f-de7e-4534-aca6-bda405f0be1e"},"vehicle_type_id":"4","last_reported":1733386418,"current_range_meters":32000,"station_id":"ce4bh0h2rcd13ifvqd50","pricing_plan_id":"cebpf4jnsgd1na2vs0mg"},{"bike_id":"020719d4-c29b-4e35-be4b-81ca932ddaa9","system_id":"levelo_inurba_marseille","lat":43.30238,"lon":5.40067,"is_reserved":false,"is_disabled":true,"rental_uris":{"android":"levelo://app?vid=020719d4-c29b-4e35-be4b-81ca932ddaa9","ios":"levelo://app?vid=020719d4-c29b-4e35-be4b-81ca932ddaa9"},"vehicle_type_id":"4","last_reported":1733386418,"current_range_meters":32400,"station_id":"ce4bgvh2rcd13ifvqcs0","pricing_plan_id":"cebpf4jnsgd1na2vs0mg"},{"bike_id":"83492766-92d1-48db-9f06-231702f40e6c","system_id":"levelo_inurba_marseille","lat":43.26169,"lon":5.3792,"is_reserved":false,"is_disabled":false,"rental_uris":{"android":"levelo://app?vid=83492766-92d1-48db-9f06-231702f40e6c","ios":"levelo://app?vid=83492766-92d1-48db-9f06-231702f40e6c"},"vehicle_type_id":"4","last_reported":1733386418,"current_range_meters":38800,"station_id":"ce4bhjp2rcd13ifvqg90","pricing_plan_id":"cebpf4jnsgd1na2vs0mg"},{"bike_id":"7ab26eca-d448-4b83-b5a5-997b9168de19","system_id":"levelo_inurba_marseille","lat":43.30876,"lon":5.37197,"is_reserved":false,"is_disabled":false,"rental_uris":{"android":"levelo://app?vid=7ab26eca-d448-4b83-b5a5-997b9168de19","ios":"levelo://app?vid=7ab26eca-d448-4b83-b5a5-997b9168de19"},"vehicle_type_id":"4","last_reported":1733386418,"current_range_meters":38800,"station_id":"ce4bguh2rcd13ifvqckg","pricing_plan_id":"cebpf4jnsgd1na2vs0mg"},{"bike_id":"2cd8bcc2-6973-4bbb-a4df-236cf5858163","system_id":"levelo_inurba_marseille","lat":43.23198,"lon":5.35547,"is_reserved":false,"is_disabled":false,"rental_uris":{"android":"levelo://app?vid=2cd8bcc2-6973-4bbb-a4df-236cf5858163","ios":"levelo://app?vid=2cd8bcc2-6973-4bbb-a4df-236cf5858163"},"vehicle_type_id":"4","last_reported":1733386418,"current_range_meters":38800,"station_id":"ce4bhu92rcd13ifvqi70","pricing_plan_id":"cebpf4jnsgd1na2vs0mg"},{"bike_id":"bc355e08-5dbf-4adb-a402-88d99158c2fe","system_id":"levelo_inurba_marseille","lat":43.28445,"lon":5.39179,"is_reserved":false,"is_disabled":false,"rental_uris":{"android":"levelo://app?vid=bc355e08-5dbf-4adb-a402-88d99158c2fe","ios":"levelo://app?vid=bc355e08-5dbf-4adb-a402-88d99158c2fe"},"vehicle_type_id":"4","last_reported":1733386418,"current_range_meters":25200,"station_id":"ce4bhoh2rcd13ifvqh5g","pricing_plan_id":"cebpf4jnsgd1na2vs0mg"},{"bike_id":"3cc14027-900a-4445-9474-19e24d14668f","system_id":"levelo_inurba_marseille","lat":43.28342,"lon":5.38109,"is_reserved":false,"is_disabled":true,"rental_uris":{"android":"levelo://app?vid=3cc14027-900a-4445-9474-19e24d14668f","ios":"levelo://app?vid=3cc14027-900a-4445-9474-19e24d14668f"},"vehicle_type_id":"4","last_reported":1733386418,"current_range_meters":0,"station_id":"ce4bh412rcd13ifvqdr0","pricing_plan_id":"cebpf4jnsgd1na2vs0mg"},{"bike_id":"86e0770a-7d53-4f07-bfce-77b15f85fac6","system_id":"levelo_inurba_marseille","lat":43.29598,"lon":5.381,"is_reserved":false,"is_disabled":true,"rental_uris":{"android":"levelo://app?vid=86e0770a-7d53-4f07-bfce-77b15f85fac6","ios":"levelo://app?vid=86e0770a-7d53-4f07-bfce-77b15f85fac6"},"vehicle_type_id":"4","last_reported":1733386418,"current_range_meters":2800,"station_id":"ce4bgl12rcd13ifvqbo0","pricing_plan_id":"cebpf4jnsgd1na2vs0mg"},{"bike_id":"dc24279f-f126-4126-97d7-1ef0fe43b4e9","system_id":"levelo_inurba_marseille","lat":43.2737,"lon":5.36251,"is_reserved":false,"is_disabled":false,"rental_uris":{"android":"levelo://app?vid=dc24279f-f126-4126-97d7-1ef0fe43b4e9","ios":"levelo://app?vid=dc24279f-f126-4126-97d7-1ef0fe43b4e9"},"vehicle_type_id":"4","last_reported":1733386418,"current_range_meters":24000,"station_id":"ce4bhbh2rcd13ifvqeo0","pricing_plan_id":"cebpf4jnsgd1na2vs0mg"},{"bike_id":"1a9c3581-331f-42e7-8b9f-2cdd7828100c","system_id":"levelo_inurba_marseille","lat":43.26949,"lon":5.38629,"is_reserved":false,"is_disabled":false,"rental_uris":{"android":"levelo://app?vid=1a9c3581-331f-42e7-8b9f-2cdd7828100c","ios":"levelo://app?vid=1a9c3581-331f-42e7-8b9f-2cdd7828100c"},"vehicle_type_id":"4","last_reported":1733386418,"current_range_meters":39200,"station_id":"ce4bhh92rcd13ifvqfh0","pricing_plan_id":"cebpf4jnsgd1na2vs0mg"},{"bike_id":"506c09f4-6c9b-4fb3-996c-4c7f86dd75a8","system_id":"levelo_inurba_marseille","lat":43.25492,"lon":5.37652,"is_reserved":false,"is_disabled":true,"rental_uris":{"android":"levelo://app?vid=506c09f4-6c9b-4fb3-996c-4c7f86dd75a8","ios":"levelo://app?vid=506c09f4-6c9b-4fb3-996c-4c7f86dd75a8"},"vehicle_type_id":"4","last_reported":1733386418,"current_range_meters":0,"station_id":"","pricing_plan_id":"cebpf4jnsgd1na2vs0mg"},{"bike_id":"91ce04db-2714-450f-b5b6-ab07058eade5","system_id":"levelo_inurba_marseille","lat":43.29631,"lon":5.40597,"is_reserved":false,"is_disabled":true,"rental_uris":{"android":"levelo://app?vid=91ce04db-2714-450f-b5b6-ab07058eade5","ios":"levelo://app?vid=91ce04db-2714-450f-b5b6-ab07058eade5"},"vehicle_type_id":"4","last_reported":1733386418,"current_range_meters":0,"station_id":"ce4bh0h2rcd13ifvqd60","pricing_plan_id":"cebpf4jnsgd1na2vs0mg"},{"bike_id":"9202c63e-372c-4469-a5c1-8e35757d1940","system_id":"levelo_inurba_marseille","lat":43.30053,"lon":5.38832,"is_reserved":false,"is_disabled":true,"rental_uris":{"android":"levelo://app?vid=9202c63e-372c-4469-a5c1-8e35757d1940","ios":"levelo://app?vid=9202c63e-372c-4469-a5c1-8e35757d1940"},"vehicle_type_id":"4","last_reported":1733386418,"current_range_meters":0,"station_id":"","pricing_plan_id":"cebpf4jnsgd1na2vs0mg"},{"bike_id":"fb669fc9-1ad6-46f8-9a6e-c301ceec0398","system_id":"levelo_inurba_marseille","lat":43.25078,"lon":5.39516,"is_reserved":false,"is_disabled":false,"rental_uris":{"android":"levelo://app?vid=fb669fc9-1ad6-46f8-9a6e-c301ceec0398","ios":"levelo://app?vid=fb669fc9-1ad6-46f8-9a6e-c301ceec0398"},"vehicle_type_id":"4","last_reported":1733386418,"current_range_meters":39200,"station_id":"ce4bhm12rcd13ifvqgkg","pricing_plan_id":"cebpf4jnsgd1na2vs0mg"},{"bike_id":"a2558c71-a0bc-41cc-940d-9103b29d2cf2","system_id":"levelo_inurba_marseille","lat":43.29008,"lon":5.35612,"is_reserved":false,"is_disabled":false,"rental_uris":{"android":"levelo://app?vid=a2558c71-a0bc-41cc-940d-9103b29d2cf2","ios":"levelo://app?vid=a2558c71-a0bc-41cc-940d-9103b29d2cf2"},"vehicle_type_id":"4","last_reported":1733386418,"current_range_meters":38800,"station_id":"ce4bhb92rcd13ifvqen0","pricing_plan_id":"cebpf4jnsgd1na2vs0mg"},{"bike_id":"1d1e223d-f3f8-4945-8923-f4bdebc5ab9c","system_id":"levelo_inurba_marseille","lat":43.32086,"lon":5.41547,"is_reserved":false,"is_disabled":true,"rental_uris":{"android":"levelo://app?vid=1d1e223d-f3f8-4945-8923-f4bdebc5ab9c","ios":"levelo://app?vid=1d1e223d-f3f8-4945-8923-f4bdebc5ab9c"},"vehicle_type_id":"4","last_reported":1733386418,"current_range_meters":39200,"station_id":"ce4bhq92rcd13ifvqhkg","pricing_plan_id":"cebpf4jnsgd1na2vs0mg"},{"bike_id":"d875f333-e2f5-475b-ae03-4c704dd9d012","system_id":"levelo_inurba_marseille","lat":43.30949,"lon":5.39029,"is_reserved":false,"is_disabled":false,"rental_uris":{"android":"levelo://app?vid=d875f333-e2f5-475b-ae03-4c704dd9d012","ios":"levelo://app?vid=d875f333-e2f5-475b-ae03-4c704dd9d012"},"vehicle_type_id":"4","last_reported":1733386418,"current_range_meters":24000,"station_id":"ce4bgup2rcd13ifvqco0","pricing_plan_id":"cebpf4jnsgd1na2vs0mg"},{"bike_id":"f4baaaf3-5729-45c6-81a9-b069f42d75d5","system_id":"levelo_inurba_marseille","lat":43.28939,"lon":5.39637,"is_reserved":false,"is_disabled":true,"rental_uris":{"android":"levelo://app?vid=f4baaaf3-5729-45c6-81a9-b069f42d75d5","ios":"levelo://app?vid=f4baaaf3-5729-45c6-81a9-b069f42d75d5"},"vehicle_type_id":"4","last_reported":1733386418,"current_range_meters":0,"station_id":"ce4bh3h2rcd13ifvqdn0","pricing_plan_id":"cebpf4jnsgd1na2vs0mg"},{"bike_id":"cf3e6ea0-09ff-406c-b357-28a6a6117f94","system_id":"levelo_inurba_marseille","lat":43.22933,"lon":5.35383,"is_reserved":false,"is_disabled":false,"rental_uris":{"android":"levelo://app?vid=cf3e6ea0-09ff-406c-b357-28a6a6117f94","ios":"levelo://app?vid=cf3e6ea0-09ff-406c-b357-28a6a6117f94"},"vehicle_type_id":"4","last_reported":1733386418,"current_range_meters":38800,"station_id":"cpo3532slgdg3j2ikp40","pricing_plan_id":"cebpf4jnsgd1na2vs0mg"},{"bike_id":"fd7dea6a-aa83-4656-baae-4085b6e7d8d6","system_id":"levelo_inurba_marseille","lat":43.33727,"lon":5.391824,"is_reserved":false,"is_disabled":false,"rental_uris":{"android":"levelo://app?vid=fd7dea6a-aa83-4656-baae-4085b6e7d8d6","ios":"levelo://app?vid=fd7dea6a-aa83-4656-baae-4085b6e7d8d6"},"vehicle_type_id":"4","last_reported":1733386418,"current_range_meters":18000,"station_id":"ce4bhr92rcd13ifvqhsg","pricing_plan_id":"cebpf4jnsgd1na2vs0mg"},{"bike_id":"33b6defc-0259-40c1-8c7c-b5f4200fa144","system_id":"levelo_inurba_marseille","lat":43.23967,"lon":5.36633,"is_reserved":false,"is_disabled":false,"rental_uris":{"android":"levelo://app?vid=33b6defc-0259-40c1-8c7c-b5f4200fa144","ios":"levelo://app?vid=33b6defc-0259-40c1-8c7c-b5f4200fa144"},"vehicle_type_id":"4","last_reported":1733386418,"current_range_meters":8400,"station_id":"ce4bhi12rcd13ifvqfp0","pricing_plan_id":"cebpf4jnsgd1na2vs0mg"},{"bike_id":"32e3b939-48c3-4ea5-b418-6c25d78f8737","system_id":"levelo_inurba_marseille","lat":43.23974,"lon":5.36623,"is_reserved":false,"is_disabled":true,"rental_uris":{"android":"levelo://app?vid=32e3b939-48c3-4ea5-b418-6c25d78f8737","ios":"levelo://app?vid=32e3b939-48c3-4ea5-b418-6c25d78f8737"},"vehicle_type_id":"4","last_reported":1733386418,"current_range_meters":1200,"station_id":"ce4bhi12rcd13ifvqfp0","pricing_plan_id":"cebpf4jnsgd1na2vs0mg"},{"bike_id":"719e509a-25e4-4b1b-9830-f708d85d7593","system_id":"levelo_inurba_marseille","lat":43.29283,"lon":5.37397,"is_reserved":false,"is_disabled":true,"rental_uris":{"android":"levelo://app?vid=719e509a-25e4-4b1b-9830-f708d85d7593","ios":"levelo://app?vid=719e509a-25e4-4b1b-9830-f708d85d7593"},"vehicle_type_id":"4","last_reported":1733386418,"current_range_meters":0,"station_id":"","pricing_plan_id":"cebpf4jnsgd1na2vs0mg"},{"bike_id":"78b86d60-b25a-4760-b201-4c9ff2e9ac05","system_id":"levelo_inurba_marseille","lat":43.29043,"lon":5.39963,"is_reserved":false,"is_disabled":false,"rental_uris":{"android":"levelo://app?vid=78b86d60-b25a-4760-b201-4c9ff2e9ac05","ios":"levelo://app?vid=78b86d60-b25a-4760-b201-4c9ff2e9ac05"},"vehicle_type_id":"4","last_reported":1733386418,"current_range_meters":25200,"station_id":"ce4bh392rcd13ifvqdm0","pricing_plan_id":"cebpf4jnsgd1na2vs0mg"},{"bike_id":"4ce5e9dd-fcf4-431e-a2c4-7595eb3f4fed","system_id":"levelo_inurba_marseille","lat":43.29846,"lon":5.36269,"is_reserved":false,"is_disabled":false,"rental_uris":{"android":"levelo://app?vid=4ce5e9dd-fcf4-431e-a2c4-7595eb3f4fed","ios":"levelo://app?vid=4ce5e9dd-fcf4-431e-a2c4-7595eb3f4fed"},"vehicle_type_id":"4","last_reported":1733386418,"current_range_meters":38400,"station_id":"ce4bgpp2rcd13ifvqc3g","pricing_plan_id":"cebpf4jnsgd1na2vs0mg"},{"bike_id":"58280f48-f176-40ae-b2d3-88afe3de9d89","system_id":"levelo_inurba_marseille","lat":43.30961,"lon":5.3904,"is_reserved":false,"is_disabled":false,"rental_uris":{"android":"levelo://app?vid=58280f48-f176-40ae-b2d3-88afe3de9d89","ios":"levelo://app?vid=58280f48-f176-40ae-b2d3-88afe3de9d89"},"vehicle_type_id":"4","last_reported":1733386418,"current_range_meters":32400,"station_id":"ce4bgup2rcd13ifvqco0","pricing_plan_id":"cebpf4jnsgd1na2vs0mg"},{"bike_id":"8f29d0b4-a369-4bf4-a7e4-66462f797d71","system_id":"levelo_inurba_marseille","lat":43.3054,"lon":5.38432,"is_reserved":false,"is_disabled":true,"rental_uris":{"android":"levelo://app?vid=8f29d0b4-a369-4bf4-a7e4-66462f797d71","ios":"levelo://app?vid=8f29d0b4-a369-4bf4-a7e4-66462f797d71"},"vehicle_type_id":"4","last_reported":1733386418,"current_range_meters":0,"station_id":"ce4bgg92rcd13ifvqb30","pricing_plan_id":"cebpf4jnsgd1na2vs0mg"},{"bike_id":"41e3c599-574c-4364-8f23-61919647a94f","system_id":"levelo_inurba_marseille","lat":43.24069,"lon":5.37764,"is_reserved":false,"is_disabled":false,"rental_uris":{"android":"levelo://app?vid=41e3c599-574c-4364-8f23-61919647a94f","ios":"levelo://app?vid=41e3c599-574c-4364-8f23-61919647a94f"},"vehicle_type_id":"4","last_reported":1733386418,"current_range_meters":33200,"station_id":"ce4bhnp2rcd13ifvqgvg","pricing_plan_id":"cebpf4jnsgd1na2vs0mg"},{"bike_id":"fe431fc4-1f18-44bb-97c9-f1bc2984a518","system_id":"levelo_inurba_marseille","lat":43.27988,"lon":5.41661,"is_reserved":false,"is_disabled":false,"rental_uris":{"android":"levelo://app?vid=fe431fc4-1f18-44bb-97c9-f1bc2984a518","ios":"levelo://app?vid=fe431fc4-1f18-44bb-97c9-f1bc2984a518"},"vehicle_type_id":"4","last_reported":1733386418,"current_range_meters":18800,"station_id":"ce4bho12rcd13ifvqh1g","pricing_plan_id":"cebpf4jnsgd1na2vs0mg"},{"bike_id":"9357e64c-2656-46e7-aea5-e3b270eb4f69","system_id":"levelo_inurba_marseille","lat":43.29842,"lon":5.36265,"is_reserved":false,"is_disabled":false,"rental_uris":{"android":"levelo://app?vid=9357e64c-2656-46e7-aea5-e3b270eb4f69","ios":"levelo://app?vid=9357e64c-2656-46e7-aea5-e3b270eb4f69"},"vehicle_type_id":"4","last_reported":1733386418,"current_range_meters":26000,"station_id":"ce4bgpp2rcd13ifvqc3g","pricing_plan_id":"cebpf4jnsgd1na2vs0mg"},{"bike_id":"91d392a2-2fa0-4138-844b-2778296cb275","system_id":"levelo_inurba_marseille","lat":43.28435,"lon":5.39183,"is_reserved":false,"is_disabled":false,"rental_uris":{"android":"levelo://app?vid=91d392a2-2fa0-4138-844b-2778296cb275","ios":"levelo://app?vid=91d392a2-2fa0-4138-844b-2778296cb275"},"vehicle_type_id":"4","last_reported":1733386418,"current_range_meters":39200,"station_id":"ce4bhoh2rcd13ifvqh5g","pricing_plan_id":"cebpf4jnsgd1na2vs0mg"},{"bike_id":"1ba97078-4c6a-480a-be85-1ef122b04685","system_id":"levelo_inurba_marseille","lat":43.30475,"lon":5.37909,"is_reserved":false,"is_disabled":false,"rental_uris":{"android":"levelo://app?vid=1ba97078-4c6a-480a-be85-1ef122b04685","ios":"levelo://app?vid=1ba97078-4c6a-480a-be85-1ef122b04685"},"vehicle_type_id":"4","last_reported":1733386418,"current_range_meters":17600,"station_id":"ce4bgup2rcd13ifvqcn0","pricing_plan_id":"cebpf4jnsgd1na2vs0mg"},{"bike_id":"885d3b99-a0ad-4264-8f35-ecc30393a36f","system_id":"levelo_inurba_marseille","lat":43.28042,"lon":5.36942,"is_reserved":false,"is_disabled":false,"rental_uris":{"android":"levelo://app?vid=885d3b99-a0ad-4264-8f35-ecc30393a36f","ios":"levelo://app?vid=885d3b99-a0ad-4264-8f35-ecc30393a36f"},"vehicle_type_id":"4","last_reported":1733386418,"current_range_meters":34000,"station_id":"ce4bha12rcd13ifvqef0","pricing_plan_id":"cebpf4jnsgd1na2vs0mg"},{"bike_id":"b01ba929-1580-401b-973d-e4a15d746d4a","system_id":"levelo_inurba_marseille","lat":43.22934,"lon":5.35369,"is_reserved":false,"is_disabled":false,"rental_uris":{"android":"levelo://app?vid=b01ba929-1580-401b-973d-e4a15d746d4a","ios":"levelo://app?vid=b01ba929-1580-401b-973d-e4a15d746d4a"},"vehicle_type_id":"4","last_reported":1733386418,"current_range_meters":16800,"station_id":"cpo3532slgdg3j2ikp40","pricing_plan_id":"cebpf4jnsgd1na2vs0mg"},{"bike_id":"65b1570a-eadc-4af8-b87d-808b3e63f2e8","system_id":"levelo_inurba_marseille","lat":43.28861,"lon":5.39309,"is_reserved":false,"is_disabled":false,"rental_uris":{"android":"levelo://app?vid=65b1570a-eadc-4af8-b87d-808b3e63f2e8","ios":"levelo://app?vid=65b1570a-eadc-4af8-b87d-808b3e63f2e8"},"vehicle_type_id":"4","last_reported":1733386418,"current_range_meters":22000,"station_id":"ce4bh2p2rcd13ifvqdi0","pricing_plan_id":"cebpf4jnsgd1na2vs0mg"},{"bike_id":"4ed560de-88d9-4456-b849-a4040ff17392","system_id":"levelo_inurba_marseille","lat":43.27964,"lon":5.41052,"is_reserved":false,"is_disabled":false,"rental_uris":{"android":"levelo://app?vid=4ed560de-88d9-4456-b849-a4040ff17392","ios":"levelo://app?vid=4ed560de-88d9-4456-b849-a4040ff17392"},"vehicle_type_id":"4","last_reported":1733386418,"current_range_meters":8000,"station_id":"ce4bhnp2rcd13ifvqh0g","pricing_plan_id":"cebpf4jnsgd1na2vs0mg"},{"bike_id":"9356919c-6328-49ea-b909-565b08129cf4","system_id":"levelo_inurba_marseille","lat":43.25933,"lon":5.40907,"is_reserved":false,"is_disabled":false,"rental_uris":{"android":"levelo://app?vid=9356919c-6328-49ea-b909-565b08129cf4","ios":"levelo://app?vid=9356919c-6328-49ea-b909-565b08129cf4"},"vehicle_type_id":"4","last_reported":1733386418,"current_range_meters":16400,"station_id":"ce4bhm92rcd13ifvqglg","pricing_plan_id":"cebpf4jnsgd1na2vs0mg"},{"bike_id":"4ce24450-aa59-4a55-986c-8d5868e9af3c","system_id":"levelo_inurba_marseille","lat":43.26956,"lon":5.38634,"is_reserved":false,"is_disabled":false,"rental_uris":{"android":"levelo://app?vid=4ce24450-aa59-4a55-986c-8d5868e9af3c","ios":"levelo://app?vid=4ce24450-aa59-4a55-986c-8d5868e9af3c"},"vehicle_type_id":"4","last_reported":1733386418,"current_range_meters":34000,"station_id":"ce4bhh92rcd13ifvqfh0","pricing_plan_id":"cebpf4jnsgd1na2vs0mg"},{"bike_id":"39fb8aca-6d92-4bb3-a3d5-ec93bb1cad52","system_id":"levelo_inurba_marseille","lat":43.24668,"lon":5.38169,"is_reserved":false,"is_disabled":false,"rental_uris":{"android":"levelo://app?vid=39fb8aca-6d92-4bb3-a3d5-ec93bb1cad52","ios":"levelo://app?vid=39fb8aca-6d92-4bb3-a3d5-ec93bb1cad52"},"vehicle_type_id":"4","last_reported":1733386418,"current_range_meters":37600,"station_id":"ce4bhih2rcd13ifvqfr0","pricing_plan_id":"cebpf4jnsgd1na2vs0mg"},{"bike_id":"010f1ddc-a5dd-4595-9905-ebf82317a65f","system_id":"levelo_inurba_marseille","lat":43.33019,"lon":5.39037,"is_reserved":false,"is_disabled":false,"rental_uris":{"android":"levelo://app?vid=010f1ddc-a5dd-4595-9905-ebf82317a65f","ios":"levelo://app?vid=010f1ddc-a5dd-4595-9905-ebf82317a65f"},"vehicle_type_id":"4","last_reported":1733386418,"current_range_meters":38800,"station_id":"ce4bhr92rcd13ifvqhrg","pricing_plan_id":"cebpf4jnsgd1na2vs0mg"},{"bike_id":"c03e15fe-1fa9-45ab-8749-9b85acac2715","system_id":"levelo_inurba_marseille","lat":43.30141,"lon":5.37423,"is_reserved":false,"is_disabled":false,"rental_uris":{"android":"levelo://app?vid=c03e15fe-1fa9-45ab-8749-9b85acac2715","ios":"levelo://app?vid=c03e15fe-1fa9-45ab-8749-9b85acac2715"},"vehicle_type_id":"4","last_reported":1733386418,"current_range_meters":36800,"station_id":"ce4bgs92rcd13ifvqcc0","pricing_plan_id":"cebpf4jnsgd1na2vs0mg"},{"bike_id":"5c117aab-b7d1-467d-a209-f54bdce85fbd","system_id":"levelo_inurba_marseille","lat":43.3092,"lon":5.36844,"is_reserved":false,"is_disabled":false,"rental_uris":{"android":"levelo://app?vid=5c117aab-b7d1-467d-a209-f54bdce85fbd","ios":"levelo://app?vid=5c117aab-b7d1-467d-a209-f54bdce85fbd"},"vehicle_type_id":"4","last_reported":1733386418,"current_range_meters":30000,"station_id":"ce4bgn92rcd13ifvqbvg","pricing_plan_id":"cebpf4jnsgd1na2vs0mg"},{"bike_id":"a21808ea-c7b7-4f34-a3f7-99c41f4c35a7","system_id":"levelo_inurba_marseille","lat":43.30966,"lon":5.3903,"is_reserved":false,"is_disabled":false,"rental_uris":{"android":"levelo://app?vid=a21808ea-c7b7-4f34-a3f7-99c41f4c35a7","ios":"levelo://app?vid=a21808ea-c7b7-4f34-a3f7-99c41f4c35a7"},"vehicle_type_id":"4","last_reported":1733386418,"current_range_meters":38000,"station_id":"ce4bgup2rcd13ifvqco0","pricing_plan_id":"cebpf4jnsgd1na2vs0mg"},{"bike_id":"d5d85f9f-a0ad-420c-b735-16273f277a96","system_id":"levelo_inurba_marseille","lat":43.2293,"lon":5.35375,"is_reserved":false,"is_disabled":false,"rental_uris":{"android":"levelo://app?vid=d5d85f9f-a0ad-420c-b735-16273f277a96","ios":"levelo://app?vid=d5d85f9f-a0ad-420c-b735-16273f277a96"},"vehicle_type_id":"4","last_reported":1733386418,"current_range_meters":26800,"station_id":"cpo3532slgdg3j2ikp40","pricing_plan_id":"cebpf4jnsgd1na2vs0mg"},{"bike_id":"97615b37-6288-4cca-b418-3c096a2081d3","system_id":"levelo_inurba_marseille","lat":43.298028,"lon":5.370744,"is_reserved":false,"is_disabled":false,"rental_uris":{"android":"levelo://app?vid=97615b37-6288-4cca-b418-3c096a2081d3","ios":"levelo://app?vid=97615b37-6288-4cca-b418-3c096a2081d3"},"vehicle_type_id":"4","last_reported":1733386418,"current_range_meters":30800,"station_id":"ce4bgop2rcd13ifvqc1g","pricing_plan_id":"cebpf4jnsgd1na2vs0mg"},{"bike_id":"79c8ea6d-5102-4a1e-b941-afdabc095945","system_id":"levelo_inurba_marseille","lat":43.290685,"lon":5.383422,"is_reserved":false,"is_disabled":true,"rental_uris":{"android":"levelo://app?vid=79c8ea6d-5102-4a1e-b941-afdabc095945","ios":"levelo://app?vid=79c8ea6d-5102-4a1e-b941-afdabc095945"},"vehicle_type_id":"4","last_reported":1733386418,"current_range_meters":15200,"station_id":"","pricing_plan_id":"cebpf4jnsgd1na2vs0mg"},{"bike_id":"84a2915d-c6ef-4af0-8c6d-2fcd615fa6c7","system_id":"levelo_inurba_marseille","lat":43.33335,"lon":5.42004,"is_reserved":false,"is_disabled":true,"rental_uris":{"android":"levelo://app?vid=84a2915d-c6ef-4af0-8c6d-2fcd615fa6c7","ios":"levelo://app?vid=84a2915d-c6ef-4af0-8c6d-2fcd615fa6c7"},"vehicle_type_id":"4","last_reported":1733386418,"current_range_meters":0,"station_id":"","pricing_plan_id":"cebpf4jnsgd1na2vs0mg"},{"bike_id":"fc3bb84f-59cf-428d-89b4-9ec25fea430a","system_id":"levelo_inurba_marseille","lat":43.28484,"lon":5.38561,"is_reserved":false,"is_disabled":true,"rental_uris":{"android":"levelo://app?vid=fc3bb84f-59cf-428d-89b4-9ec25fea430a","ios":"levelo://app?vid=fc3bb84f-59cf-428d-89b4-9ec25fea430a"},"vehicle_type_id":"4","last_reported":1733386418,"current_range_meters":1200,"station_id":"ce4bh8p2rcd13ifvqeb0","pricing_plan_id":"cebpf4jnsgd1na2vs0mg"},{"bike_id":"26e65ad5-9424-44ba-80f8-0dfd72878eef","system_id":"levelo_inurba_marseille","lat":43.29006,"lon":5.35615,"is_reserved":false,"is_disabled":false,"rental_uris":{"android":"levelo://app?vid=26e65ad5-9424-44ba-80f8-0dfd72878eef","ios":"levelo://app?vid=26e65ad5-9424-44ba-80f8-0dfd72878eef"},"vehicle_type_id":"4","last_reported":1733386418,"current_range_meters":37600,"station_id":"ce4bhb92rcd13ifvqen0","pricing_plan_id":"cebpf4jnsgd1na2vs0mg"},{"bike_id":"db6c3c15-f860-4ed9-a653-670dca70a50a","system_id":"levelo_inurba_marseille","lat":43.31487,"lon":5.37268,"is_reserved":false,"is_disabled":false,"rental_uris":{"android":"levelo://app?vid=db6c3c15-f860-4ed9-a653-670dca70a50a","ios":"levelo://app?vid=db6c3c15-f860-4ed9-a653-670dca70a50a"},"vehicle_type_id":"4","last_reported":1733386418,"current_range_meters":24800,"station_id":"ce4bgt12rcd13ifvqcd0","pricing_plan_id":"cebpf4jnsgd1na2vs0mg"},{"bike_id":"f9af7297-60c8-43d7-a968-0426c218f11f","system_id":"levelo_inurba_marseille","lat":43.25491,"lon":5.37653,"is_reserved":false,"is_disabled":true,"rental_uris":{"android":"levelo://app?vid=f9af7297-60c8-43d7-a968-0426c218f11f","ios":"levelo://app?vid=f9af7297-60c8-43d7-a968-0426c218f11f"},"vehicle_type_id":"4","last_reported":1733386418,"current_range_meters":11600,"station_id":"ce4bhh12rcd13ifvqff0","pricing_plan_id":"cebpf4jnsgd1na2vs0mg"},{"bike_id":"3e592e74-64b6-427b-a9f3-9c85b0d07de7","system_id":"levelo_inurba_marseille","lat":43.23188,"lon":5.39984,"is_reserved":false,"is_disabled":false,"rental_uris":{"android":"levelo://app?vid=3e592e74-64b6-427b-a9f3-9c85b0d07de7","ios":"levelo://app?vid=3e592e74-64b6-427b-a9f3-9c85b0d07de7"},"vehicle_type_id":"4","last_reported":1733386418,"current_range_meters":30400,"station_id":"ce4bhn12rcd13ifvqgqg","pricing_plan_id":"cebpf4jnsgd1na2vs0mg"},{"bike_id":"bd1f85b5-1ade-4264-9243-4e0007387b34","system_id":"levelo_inurba_marseille","lat":43.30545,"lon":5.36561,"is_reserved":false,"is_disabled":false,"rental_uris":{"android":"levelo://app?vid=bd1f85b5-1ade-4264-9243-4e0007387b34","ios":"levelo://app?vid=bd1f85b5-1ade-4264-9243-4e0007387b34"},"vehicle_type_id":"4","last_reported":1733386418,"current_range_meters":34000,"station_id":"ce4bgs12rcd13ifvqcag","pricing_plan_id":"cebpf4jnsgd1na2vs0mg"},{"bike_id":"704edf0a-9774-4ca2-8fd4-44a2b86045e9","system_id":"levelo_inurba_marseille","lat":43.27373,"lon":5.36251,"is_reserved":false,"is_disabled":false,"rental_uris":{"android":"levelo://app?vid=704edf0a-9774-4ca2-8fd4-44a2b86045e9","ios":"levelo://app?vid=704edf0a-9774-4ca2-8fd4-44a2b86045e9"},"vehicle_type_id":"4","last_reported":1733386418,"current_range_meters":20400,"station_id":"ce4bhbh2rcd13ifvqeo0","pricing_plan_id":"cebpf4jnsgd1na2vs0mg"},{"bike_id":"6cbba370-4cb2-4753-957d-8c3113d16189","system_id":"levelo_inurba_marseille","lat":43.32483,"lon":5.36552,"is_reserved":false,"is_disabled":false,"rental_uris":{"android":"levelo://app?vid=6cbba370-4cb2-4753-957d-8c3113d16189","ios":"levelo://app?vid=6cbba370-4cb2-4753-957d-8c3113d16189"},"vehicle_type_id":"4","last_reported":1733386418,"current_range_meters":38800,"station_id":"ce4bhs12rcd13ifvqhvg","pricing_plan_id":"cebpf4jnsgd1na2vs0mg"},{"bike_id":"27e860cd-f460-4a14-acba-b000dac2a36f","system_id":"levelo_inurba_marseille","lat":43.3414,"lon":5.40904,"is_reserved":false,"is_disabled":false,"rental_uris":{"android":"levelo://app?vid=27e860cd-f460-4a14-acba-b000dac2a36f","ios":"levelo://app?vid=27e860cd-f460-4a14-acba-b000dac2a36f"},"vehicle_type_id":"4","last_reported":1733386418,"current_range_meters":7200,"station_id":"ce4bhqh2rcd13ifvqhlg","pricing_plan_id":"cebpf4jnsgd1na2vs0mg"},{"bike_id":"a4b9e425-64b8-4ce2-a5ab-5fcc5d1230a4","system_id":"levelo_inurba_marseille","lat":43.32109,"lon":5.36769,"is_reserved":false,"is_disabled":false,"rental_uris":{"android":"levelo://app?vid=a4b9e425-64b8-4ce2-a5ab-5fcc5d1230a4","ios":"levelo://app?vid=a4b9e425-64b8-4ce2-a5ab-5fcc5d1230a4"},"vehicle_type_id":"4","last_reported":1733386418,"current_range_meters":36400,"station_id":"ce4bhrh2rcd13ifvqhug","pricing_plan_id":"cebpf4jnsgd1na2vs0mg"},{"bike_id":"c2c60ae5-8a06-46dd-8518-74b6fd30f85e","system_id":"levelo_inurba_marseille","lat":43.26593,"lon":5.39039,"is_reserved":false,"is_disabled":false,"rental_uris":{"android":"levelo://app?vid=c2c60ae5-8a06-46dd-8518-74b6fd30f85e","ios":"levelo://app?vid=c2c60ae5-8a06-46dd-8518-74b6fd30f85e"},"vehicle_type_id":"4","last_reported":1733386418,"current_range_meters":28800,"station_id":"ce4bhe12rcd13ifvqf30","pricing_plan_id":"cebpf4jnsgd1na2vs0mg"},{"bike_id":"fd98eaa9-4d55-4e7b-aa90-0d14707466d9","system_id":"levelo_inurba_marseille","lat":43.337444,"lon":5.374475,"is_reserved":false,"is_disabled":true,"rental_uris":{"android":"levelo://app?vid=fd98eaa9-4d55-4e7b-aa90-0d14707466d9","ios":"levelo://app?vid=fd98eaa9-4d55-4e7b-aa90-0d14707466d9"},"vehicle_type_id":"4","last_reported":1733386418,"current_range_meters":0,"station_id":"","pricing_plan_id":"cebpf4jnsgd1na2vs0mg"},{"bike_id":"24bfd189-37cf-4650-9954-e3c36accef56","system_id":"levelo_inurba_marseille","lat":43.27673,"lon":5.38878,"is_reserved":false,"is_disabled":false,"rental_uris":{"android":"levelo://app?vid=24bfd189-37cf-4650-9954-e3c36accef56","ios":"levelo://app?vid=24bfd189-37cf-4650-9954-e3c36accef56"},"vehicle_type_id":"4","last_reported":1733386418,"current_range_meters":38000,"station_id":"ce4bhi12rcd13ifvqfo0","pricing_plan_id":"cebpf4jnsgd1na2vs0mg"},{"bike_id":"e9825e22-a219-4419-9c42-05f082b516ed","system_id":"levelo_inurba_marseille","lat":43.29794,"lon":5.39351,"is_reserved":false,"is_disabled":true,"rental_uris":{"android":"levelo://app?vid=e9825e22-a219-4419-9c42-05f082b516ed","ios":"levelo://app?vid=e9825e22-a219-4419-9c42-05f082b516ed"},"vehicle_type_id":"4","last_reported":1733386418,"current_range_meters":0,"station_id":"chh1huq6cuj3fo74tm60","pricing_plan_id":"cebpf4jnsgd1na2vs0mg"},{"bike_id":"fc02bf7c-fa30-4850-9eb4-c1c04eeef081","system_id":"levelo_inurba_marseille","lat":43.330211,"lon":5.390402,"is_reserved":false,"is_disabled":false,"rental_uris":{"android":"levelo://app?vid=fc02bf7c-fa30-4850-9eb4-c1c04eeef081","ios":"levelo://app?vid=fc02bf7c-fa30-4850-9eb4-c1c04eeef081"},"vehicle_type_id":"4","last_reported":1733386418,"current_range_meters":25600,"station_id":"ce4bhr92rcd13ifvqhrg","pricing_plan_id":"cebpf4jnsgd1na2vs0mg"},{"bike_id":"c2d8a1c2-d166-4a36-b32f-beec95c93bd5","system_id":"levelo_inurba_marseille","lat":43.33756,"lon":5.37459,"is_reserved":false,"is_disabled":false,"rental_uris":{"android":"levelo://app?vid=c2d8a1c2-d166-4a36-b32f-beec95c93bd5","ios":"levelo://app?vid=c2d8a1c2-d166-4a36-b32f-beec95c93bd5"},"vehicle_type_id":"4","last_reported":1733386418,"current_range_meters":10000,"station_id":"","pricing_plan_id":"cebpf4jnsgd1na2vs0mg"},{"bike_id":"628bd8c1-3b95-44f0-b3c0-6a57d77a81f2","system_id":"levelo_inurba_marseille","lat":43.27495,"lon":5.42456,"is_reserved":false,"is_disabled":false,"rental_uris":{"android":"levelo://app?vid=628bd8c1-3b95-44f0-b3c0-6a57d77a81f2","ios":"levelo://app?vid=628bd8c1-3b95-44f0-b3c0-6a57d77a81f2"},"vehicle_type_id":"4","last_reported":1733386418,"current_range_meters":25600,"station_id":"ce4bhn92rcd13ifvqgrg","pricing_plan_id":"cebpf4jnsgd1na2vs0mg"},{"bike_id":"aae6bf83-f63a-4e64-8e81-1ce3dc360841","system_id":"levelo_inurba_marseille","lat":43.2768,"lon":5.38876,"is_reserved":false,"is_disabled":true,"rental_uris":{"android":"levelo://app?vid=aae6bf83-f63a-4e64-8e81-1ce3dc360841","ios":"levelo://app?vid=aae6bf83-f63a-4e64-8e81-1ce3dc360841"},"vehicle_type_id":"4","last_reported":1733386418,"current_range_meters":0,"station_id":"ce4bhi12rcd13ifvqfo0","pricing_plan_id":"cebpf4jnsgd1na2vs0mg"},{"bike_id":"460ec171-3843-41d5-8f4e-34f1342cace5","system_id":"levelo_inurba_marseille","lat":43.30132,"lon":5.37425,"is_reserved":false,"is_disabled":false,"rental_uris":{"android":"levelo://app?vid=460ec171-3843-41d5-8f4e-34f1342cace5","ios":"levelo://app?vid=460ec171-3843-41d5-8f4e-34f1342cace5"},"vehicle_type_id":"4","last_reported":1733386418,"current_range_meters":38800,"station_id":"ce4bgs92rcd13ifvqcc0","pricing_plan_id":"cebpf4jnsgd1na2vs0mg"},{"bike_id":"5f4b7b33-9066-484c-9c20-b70c39338231","system_id":"levelo_inurba_marseille","lat":43.26804,"lon":5.40268,"is_reserved":false,"is_disabled":false,"rental_uris":{"android":"levelo://app?vid=5f4b7b33-9066-484c-9c20-b70c39338231","ios":"levelo://app?vid=5f4b7b33-9066-484c-9c20-b70c39338231"},"vehicle_type_id":"4","last_reported":1733386418,"current_range_meters":5600,"station_id":"ce501612rcd8frsf0b60","pricing_plan_id":"cebpf4jnsgd1na2vs0mg"},{"bike_id":"e60a457d-df2c-4b2b-873f-d60a7fb1ac30","system_id":"levelo_inurba_marseille","lat":43.24073,"lon":5.3776,"is_reserved":false,"is_disabled":false,"rental_uris":{"android":"levelo://app?vid=e60a457d-df2c-4b2b-873f-d60a7fb1ac30","ios":"levelo://app?vid=e60a457d-df2c-4b2b-873f-d60a7fb1ac30"},"vehicle_type_id":"4","last_reported":1733386418,"current_range_meters":38800,"station_id":"ce4bhnp2rcd13ifvqgvg","pricing_plan_id":"cebpf4jnsgd1na2vs0mg"},{"bike_id":"5605d362-7a6b-439d-b82f-b1eebcb406f8","system_id":"levelo_inurba_marseille","lat":43.26678,"lon":5.38264,"is_reserved":false,"is_disabled":false,"rental_uris":{"android":"levelo://app?vid=5605d362-7a6b-439d-b82f-b1eebcb406f8","ios":"levelo://app?vid=5605d362-7a6b-439d-b82f-b1eebcb406f8"},"vehicle_type_id":"4","last_reported":1733386418,"current_range_meters":38800,"station_id":"ce4bhg92rcd13ifvqf90","pricing_plan_id":"cebpf4jnsgd1na2vs0mg"},{"bike_id":"b7ec7519-16d4-4bc8-8207-42c1cc7571ff","system_id":"levelo_inurba_marseille","lat":43.25933,"lon":5.40908,"is_reserved":false,"is_disabled":false,"rental_uris":{"android":"levelo://app?vid=b7ec7519-16d4-4bc8-8207-42c1cc7571ff","ios":"levelo://app?vid=b7ec7519-16d4-4bc8-8207-42c1cc7571ff"},"vehicle_type_id":"4","last_reported":1733386418,"current_range_meters":37600,"station_id":"ce4bhm92rcd13ifvqglg","pricing_plan_id":"cebpf4jnsgd1na2vs0mg"},{"bike_id":"37727576-2d28-4525-b065-40affdaee0f8","system_id":"levelo_inurba_marseille","lat":43.3238,"lon":5.38888,"is_reserved":false,"is_disabled":false,"rental_uris":{"android":"levelo://app?vid=37727576-2d28-4525-b065-40affdaee0f8","ios":"levelo://app?vid=37727576-2d28-4525-b065-40affdaee0f8"},"vehicle_type_id":"4","last_reported":1733386418,"current_range_meters":38800,"station_id":"ce4bhqp2rcd13ifvqhog","pricing_plan_id":"cebpf4jnsgd1na2vs0mg"},{"bike_id":"32ffac43-1183-4b55-94c4-819aa1f8e38a","system_id":"levelo_inurba_marseille","lat":43.24989,"lon":5.38935,"is_reserved":false,"is_disabled":false,"rental_uris":{"android":"levelo://app?vid=32ffac43-1183-4b55-94c4-819aa1f8e38a","ios":"levelo://app?vid=32ffac43-1183-4b55-94c4-819aa1f8e38a"},"vehicle_type_id":"4","last_reported":1733386418,"current_range_meters":20000,"station_id":"ce4bhgp2rcd13ifvqfd0","pricing_plan_id":"cebpf4jnsgd1na2vs0mg"},{"bike_id":"b84be679-5b1f-48c3-976b-26533c3ca5c4","system_id":"levelo_inurba_marseille","lat":43.2984,"lon":5.36267,"is_reserved":false,"is_disabled":false,"rental_uris":{"android":"levelo://app?vid=b84be679-5b1f-48c3-976b-26533c3ca5c4","ios":"levelo://app?vid=b84be679-5b1f-48c3-976b-26533c3ca5c4"},"vehicle_type_id":"4","last_reported":1733386418,"current_range_meters":38800,"station_id":"ce4bgpp2rcd13ifvqc3g","pricing_plan_id":"cebpf4jnsgd1na2vs0mg"},{"bike_id":"d227cda3-0a9d-4602-9dbe-ed98b927ad10","system_id":"levelo_inurba_marseille","lat":43.30182,"lon":5.36938,"is_reserved":false,"is_disabled":false,"rental_uris":{"android":"levelo://app?vid=d227cda3-0a9d-4602-9dbe-ed98b927ad10","ios":"levelo://app?vid=d227cda3-0a9d-4602-9dbe-ed98b927ad10"},"vehicle_type_id":"4","last_reported":1733386418,"current_range_meters":32800,"station_id":"ce4bgr92rcd13ifvqc6g","pricing_plan_id":"cebpf4jnsgd1na2vs0mg"},{"bike_id":"0cfd4186-700f-496a-af26-593edb713541","system_id":"levelo_inurba_marseille","lat":43.30456,"lon":5.37898,"is_reserved":false,"is_disabled":false,"rental_uris":{"android":"levelo://app?vid=0cfd4186-700f-496a-af26-593edb713541","ios":"levelo://app?vid=0cfd4186-700f-496a-af26-593edb713541"},"vehicle_type_id":"4","last_reported":1733386418,"current_range_meters":36000,"station_id":"ce4bgup2rcd13ifvqcn0","pricing_plan_id":"cebpf4jnsgd1na2vs0mg"},{"bike_id":"637a2191-0b99-4ddd-8d5c-313c825e67ee","system_id":"levelo_inurba_marseille","lat":43.33023,"lon":5.39038,"is_reserved":false,"is_disabled":false,"rental_uris":{"android":"levelo://app?vid=637a2191-0b99-4ddd-8d5c-313c825e67ee","ios":"levelo://app?vid=637a2191-0b99-4ddd-8d5c-313c825e67ee"},"vehicle_type_id":"4","last_reported":1733386418,"current_range_meters":38000,"station_id":"ce4bhr92rcd13ifvqhrg","pricing_plan_id":"cebpf4jnsgd1na2vs0mg"},{"bike_id":"e93e82ee-f4f4-485f-a49f-6ea9b2abcc3e","system_id":"levelo_inurba_marseille","lat":43.30547,"lon":5.36541,"is_reserved":false,"is_disabled":false,"rental_uris":{"android":"levelo://app?vid=e93e82ee-f4f4-485f-a49f-6ea9b2abcc3e","ios":"levelo://app?vid=e93e82ee-f4f4-485f-a49f-6ea9b2abcc3e"},"vehicle_type_id":"4","last_reported":1733386418,"current_range_meters":6400,"station_id":"ce4bgs12rcd13ifvqcag","pricing_plan_id":"cebpf4jnsgd1na2vs0mg"},{"bike_id":"b2720ed4-d69c-485f-b32b-ad166751ada6","system_id":"levelo_inurba_marseille","lat":43.31372,"lon":5.36734,"is_reserved":false,"is_disabled":false,"rental_uris":{"android":"levelo://app?vid=b2720ed4-d69c-485f-b32b-ad166751ada6","ios":"levelo://app?vid=b2720ed4-d69c-485f-b32b-ad166751ada6"},"vehicle_type_id":"4","last_reported":1733386418,"current_range_meters":38800,"station_id":"ce4bgr92rcd13ifvqc6g","pricing_plan_id":"cebpf4jnsgd1na2vs0mg"},{"bike_id":"566d3863-5d3d-46e1-8560-48de365cc9d0","system_id":"levelo_inurba_marseille","lat":43.26552,"lon":5.37283,"is_reserved":false,"is_disabled":false,"rental_uris":{"android":"levelo://app?vid=566d3863-5d3d-46e1-8560-48de365cc9d0","ios":"levelo://app?vid=566d3863-5d3d-46e1-8560-48de365cc9d0"},"vehicle_type_id":"4","last_reported":1733386418,"current_range_meters":38800,"station_id":"ce4bhg12rcd13ifvqf70","pricing_plan_id":"cebpf4jnsgd1na2vs0mg"},{"bike_id":"09a9b2c6-5eab-4c52-9569-32783780597f","system_id":"levelo_inurba_marseille","lat":43.24081,"lon":5.37749,"is_reserved":false,"is_disabled":false,"rental_uris":{"android":"levelo://app?vid=09a9b2c6-5eab-4c52-9569-32783780597f","ios":"levelo://app?vid=09a9b2c6-5eab-4c52-9569-32783780597f"},"vehicle_type_id":"4","last_reported":1733386418,"current_range_meters":22000,"station_id":"ce4bhnp2rcd13ifvqgvg","pricing_plan_id":"cebpf4jnsgd1na2vs0mg"},{"bike_id":"75c675ce-a86a-4efa-8cb3-a54e393ad2c3","system_id":"levelo_inurba_marseille","lat":43.30883,"lon":5.378,"is_reserved":false,"is_disabled":false,"rental_uris":{"android":"levelo://app?vid=75c675ce-a86a-4efa-8cb3-a54e393ad2c3","ios":"levelo://app?vid=75c675ce-a86a-4efa-8cb3-a54e393ad2c3"},"vehicle_type_id":"4","last_reported":1733386418,"current_range_meters":16800,"station_id":"","pricing_plan_id":"cebpf4jnsgd1na2vs0mg"},{"bike_id":"cd342d72-f7df-46ae-944f-05a32948e2bf","system_id":"levelo_inurba_marseille","lat":43.30472,"lon":5.40171,"is_reserved":false,"is_disabled":false,"rental_uris":{"android":"levelo://app?vid=cd342d72-f7df-46ae-944f-05a32948e2bf","ios":"levelo://app?vid=cd342d72-f7df-46ae-944f-05a32948e2bf"},"vehicle_type_id":"4","last_reported":1733386418,"current_range_meters":6800,"station_id":"","pricing_plan_id":"cebpf4jnsgd1na2vs0mg"},{"bike_id":"21c61b3f-2ae1-41ed-96e8-21fc1b01a387","system_id":"levelo_inurba_marseille","lat":43.300866,"lon":5.372561,"is_reserved":false,"is_disabled":false,"rental_uris":{"android":"levelo://app?vid=21c61b3f-2ae1-41ed-96e8-21fc1b01a387","ios":"levelo://app?vid=21c61b3f-2ae1-41ed-96e8-21fc1b01a387"},"vehicle_type_id":"4","last_reported":1733386418,"current_range_meters":17200,"station_id":"","pricing_plan_id":"cebpf4jnsgd1na2vs0mg"},{"bike_id":"65d9c2e9-bc97-494b-b0aa-cb1dd139a7e7","system_id":"levelo_inurba_marseille","lat":43.24695,"lon":5.39421,"is_reserved":false,"is_disabled":false,"rental_uris":{"android":"levelo://app?vid=65d9c2e9-bc97-494b-b0aa-cb1dd139a7e7","ios":"levelo://app?vid=65d9c2e9-bc97-494b-b0aa-cb1dd139a7e7"},"vehicle_type_id":"4","last_reported":1733386418,"current_range_meters":32000,"station_id":"","pricing_plan_id":"cebpf4jnsgd1na2vs0mg"},{"bike_id":"7e87d4f8-01df-4475-b68f-dae3809122d2","system_id":"levelo_inurba_marseille","lat":43.30993,"lon":5.37539,"is_reserved":false,"is_disabled":false,"rental_uris":{"android":"levelo://app?vid=7e87d4f8-01df-4475-b68f-dae3809122d2","ios":"levelo://app?vid=7e87d4f8-01df-4475-b68f-dae3809122d2"},"vehicle_type_id":"4","last_reported":1733386418,"current_range_meters":12400,"station_id":"","pricing_plan_id":"cebpf4jnsgd1na2vs0mg"},{"bike_id":"3a9149f3-357c-4d0a-859b-18382ef024a5","system_id":"levelo_inurba_marseille","lat":43.32109,"lon":5.36758,"is_reserved":false,"is_disabled":false,"rental_uris":{"android":"levelo://app?vid=3a9149f3-357c-4d0a-859b-18382ef024a5","ios":"levelo://app?vid=3a9149f3-357c-4d0a-859b-18382ef024a5"},"vehicle_type_id":"4","last_reported":1733386418,"current_range_meters":24800,"station_id":"ce4bhrh2rcd13ifvqhug","pricing_plan_id":"cebpf4jnsgd1na2vs0mg"},{"bike_id":"06af860e-477f-4827-a6e8-9e0a735c2efc","system_id":"levelo_inurba_marseille","lat":43.26206,"lon":5.37928,"is_reserved":false,"is_disabled":false,"rental_uris":{"android":"levelo://app?vid=06af860e-477f-4827-a6e8-9e0a735c2efc","ios":"levelo://app?vid=06af860e-477f-4827-a6e8-9e0a735c2efc"},"vehicle_type_id":"4","last_reported":1733386418,"current_range_meters":28400,"station_id":"ce4bhjp2rcd13ifvqg90","pricing_plan_id":"cebpf4jnsgd1na2vs0mg"},{"bike_id":"5db6be04-1880-42e1-a499-257cc94032e0","system_id":"levelo_inurba_marseille","lat":43.299835,"lon":5.384936,"is_reserved":false,"is_disabled":false,"rental_uris":{"android":"levelo://app?vid=5db6be04-1880-42e1-a499-257cc94032e0","ios":"levelo://app?vid=5db6be04-1880-42e1-a499-257cc94032e0"},"vehicle_type_id":"4","last_reported":1733386418,"current_range_meters":33200,"station_id":"ce4bgj92rcd13ifvqbd0","pricing_plan_id":"cebpf4jnsgd1na2vs0mg"},{"bike_id":"c9238a0e-77ab-4be7-9c1d-6cb5dccde5c8","system_id":"levelo_inurba_marseille","lat":43.24076,"lon":5.37753,"is_reserved":false,"is_disabled":false,"rental_uris":{"android":"levelo://app?vid=c9238a0e-77ab-4be7-9c1d-6cb5dccde5c8","ios":"levelo://app?vid=c9238a0e-77ab-4be7-9c1d-6cb5dccde5c8"},"vehicle_type_id":"4","last_reported":1733386418,"current_range_meters":28000,"station_id":"ce4bhnp2rcd13ifvqgvg","pricing_plan_id":"cebpf4jnsgd1na2vs0mg"},{"bike_id":"caf0dbbf-46fc-446d-b33a-0cca617bcd28","system_id":"levelo_inurba_marseille","lat":43.27501,"lon":5.42447,"is_reserved":false,"is_disabled":false,"rental_uris":{"android":"levelo://app?vid=caf0dbbf-46fc-446d-b33a-0cca617bcd28","ios":"levelo://app?vid=caf0dbbf-46fc-446d-b33a-0cca617bcd28"},"vehicle_type_id":"4","last_reported":1733386418,"current_range_meters":36800,"station_id":"ce4bhn92rcd13ifvqgrg","pricing_plan_id":"cebpf4jnsgd1na2vs0mg"},{"bike_id":"d9468dab-d34a-4d32-b342-3acea6ab896a","system_id":"levelo_inurba_marseille","lat":43.30143,"lon":5.37401,"is_reserved":false,"is_disabled":false,"rental_uris":{"android":"levelo://app?vid=d9468dab-d34a-4d32-b342-3acea6ab896a","ios":"levelo://app?vid=d9468dab-d34a-4d32-b342-3acea6ab896a"},"vehicle_type_id":"4","last_reported":1733386418,"current_range_meters":38000,"station_id":"ce4bgs92rcd13ifvqcc0","pricing_plan_id":"cebpf4jnsgd1na2vs0mg"},{"bike_id":"15cdf4ab-064e-45e0-9dfa-bdbf7e7a61f6","system_id":"levelo_inurba_marseille","lat":43.27531,"lon":5.41639,"is_reserved":false,"is_disabled":false,"rental_uris":{"android":"levelo://app?vid=15cdf4ab-064e-45e0-9dfa-bdbf7e7a61f6","ios":"levelo://app?vid=15cdf4ab-064e-45e0-9dfa-bdbf7e7a61f6"},"vehicle_type_id":"4","last_reported":1733386418,"current_range_meters":33600,"station_id":"ce4bhn92rcd13ifvqgrg","pricing_plan_id":"cebpf4jnsgd1na2vs0mg"},{"bike_id":"721f5feb-b378-4dac-af39-7801c98d73b6","system_id":"levelo_inurba_marseille","lat":43.30152,"lon":5.38099,"is_reserved":false,"is_disabled":true,"rental_uris":{"android":"levelo://app?vid=721f5feb-b378-4dac-af39-7801c98d73b6","ios":"levelo://app?vid=721f5feb-b378-4dac-af39-7801c98d73b6"},"vehicle_type_id":"4","last_reported":1733386418,"current_range_meters":0,"station_id":"ce4bgjp2rcd13ifvqbh0","pricing_plan_id":"cebpf4jnsgd1na2vs0mg"},{"bike_id":"da6a7a1d-e653-4950-af8c-8137b06f7d40","system_id":"levelo_inurba_marseille","lat":43.3004,"lon":5.37551,"is_reserved":false,"is_disabled":true,"rental_uris":{"android":"levelo://app?vid=da6a7a1d-e653-4950-af8c-8137b06f7d40","ios":"levelo://app?vid=da6a7a1d-e653-4950-af8c-8137b06f7d40"},"vehicle_type_id":"4","last_reported":1733386418,"current_range_meters":0,"station_id":"","pricing_plan_id":"cebpf4jnsgd1na2vs0mg"},{"bike_id":"83e01318-977b-4110-bff7-2466f25e4777","system_id":"levelo_inurba_marseille","lat":43.2594,"lon":5.40905,"is_reserved":false,"is_disabled":false,"rental_uris":{"android":"levelo://app?vid=83e01318-977b-4110-bff7-2466f25e4777","ios":"levelo://app?vid=83e01318-977b-4110-bff7-2466f25e4777"},"vehicle_type_id":"4","last_reported":1733386418,"current_range_meters":18800,"station_id":"ce4bhm92rcd13ifvqglg","pricing_plan_id":"cebpf4jnsgd1na2vs0mg"},{"bike_id":"10f45c91-d85a-4e94-8537-27e902b68779","system_id":"levelo_inurba_marseille","lat":43.25935,"lon":5.40911,"is_reserved":false,"is_disabled":false,"rental_uris":{"android":"levelo://app?vid=10f45c91-d85a-4e94-8537-27e902b68779","ios":"levelo://app?vid=10f45c91-d85a-4e94-8537-27e902b68779"},"vehicle_type_id":"4","last_reported":1733386418,"current_range_meters":18800,"station_id":"ce4bhm92rcd13ifvqglg","pricing_plan_id":"cebpf4jnsgd1na2vs0mg"},{"bike_id":"055f094c-d378-4f0a-bb86-072811811d59","system_id":"levelo_inurba_marseille","lat":43.25963,"lon":5.40879,"is_reserved":false,"is_disabled":false,"rental_uris":{"android":"levelo://app?vid=055f094c-d378-4f0a-bb86-072811811d59","ios":"levelo://app?vid=055f094c-d378-4f0a-bb86-072811811d59"},"vehicle_type_id":"4","last_reported":1733386418,"current_range_meters":38000,"station_id":"ce4bhm92rcd13ifvqglg","pricing_plan_id":"cebpf4jnsgd1na2vs0mg"},{"bike_id":"ea32da4e-bdd3-4cc0-95cd-754ac251d9d2","system_id":"levelo_inurba_marseille","lat":43.32486,"lon":5.36561,"is_reserved":false,"is_disabled":false,"rental_uris":{"android":"levelo://app?vid=ea32da4e-bdd3-4cc0-95cd-754ac251d9d2","ios":"levelo://app?vid=ea32da4e-bdd3-4cc0-95cd-754ac251d9d2"},"vehicle_type_id":"4","last_reported":1733386418,"current_range_meters":26800,"station_id":"ce4bhs12rcd13ifvqhvg","pricing_plan_id":"cebpf4jnsgd1na2vs0mg"},{"bike_id":"3dc3bbfc-7a8e-4230-9bd4-cf0c0009f96d","system_id":"levelo_inurba_marseille","lat":43.30531,"lon":5.36531,"is_reserved":false,"is_disabled":false,"rental_uris":{"android":"levelo://app?vid=3dc3bbfc-7a8e-4230-9bd4-cf0c0009f96d","ios":"levelo://app?vid=3dc3bbfc-7a8e-4230-9bd4-cf0c0009f96d"},"vehicle_type_id":"4","last_reported":1733386418,"current_range_meters":39200,"station_id":"ce4bgs12rcd13ifvqcag","pricing_plan_id":"cebpf4jnsgd1na2vs0mg"},