{"last_updated":1743156660,"ttl":60,"version":"2.2","data":{"bikes":[{"bike_id":"bf6d3711-68f5-4721-8ea8-2d0601182f38","system_id":"levelo_inurba_marseille","lat":43.33746,"lon":5.3745,"is_reserved":false,"is_disabled":true,"rental_uris":{"android":"levelo://app?vid=bf6d3711-68f5-4721-8ea8-2d0601182f38","ios":"levelo://app?vid=bf6d3711-68f5-4721-8ea8-2d0601182f38"},"vehicle_type_id":"4","last_reported":1743156661,"current_range_meters":0,"station_id":"","pricing_plan_id":"cebpf4jnsgd1na2vs0mg"},{"bike_id":"fc8e8371-f4e9-4721-bc19-563801e389dc","system_id":"levelo_inurba_marseille","lat":43.337444,"lon":5.374475,"is_reserved":false,"is_disabled":false,"rental_uris":{"android":"levelo://app?vid=fc8e8371-f4e9-4721-bc19-563801e389dc","ios":"levelo://app?vid=fc8e8371-f4e9-4721-bc19-563801e389dc"},"vehicle_type_id":"4","last_reported":1743156661,"current_range_meters":7200,"station_id":"","pricing_plan_id":"cebpf4jnsgd1na2vs0mg"},{"bike_id":"7f9d372a-e6f4-41de-bfd4-626023e27690","system_id":"levelo_inurba_marseille","lat":43.28172,"lon":5.44264,"is_reserved":false,"is_disabled":true,"rental_uris":{"android":"levelo://app?vid=7f9d372a-e6f4-41de-bfd4-626023e27690","ios":"levelo://app?vid=7f9d372a-e6f4-41de-bfd4-626023e27690"},"vehicle_type_id":"4","last_reported":1743156661,"current_range_meters":0,"station_id":"","pricing_plan_id":"cebpf4jnsgd1na2vs0mg"},{"bike_id":"306bbe1b-255e-465f-9c82-619129be6b5a","system_id":"levelo_inurba_marseille","lat":43.26581,"lon":5.39608,"is_reserved":false,"is_disabled":true,"rental_uris":{"android":"levelo://app?vid=306bbe1b-255e-465f-9c82-619129be6b5a","ios":"levelo://app?vid=306bbe1b-255e-465f-9c82-619129be6b5a"},"vehicle_type_id":"4","last_reported":1743156661,"current_range_meters":0,"station_id":"","pricing_plan_id":"cebpf4jnsgd1na2vs0mg"},{"bike_id":"90ca1ee2-57da-464e-a41f-c7dbaf7e93f9","system_id":"levelo_inurba_marseille","lat":43.28122,"lon":5.39857,"is_reserved":false,"is_disabled":true,"rental_uris":{"android":"levelo://app?vid=90ca1ee2-57da-464e-a41f-c7dbaf7e93f9","ios":"levelo://app?vid=90ca1ee2-57da-464e-a41f-c7dbaf7e93f9"},"vehicle_type_id":"4","last_reported":1743156661,"current_range_meters":0,"station_id":"","pricing_plan_id":"cebpf4jnsgd1na2vs0mg"},{"bike_id":"be6725c0-5c09-4663-99b8-0b7371d27e21","system_id":"levelo_inurba_marseille","lat":43.25506,"lon":5.37515,"is_reserved":false,"is_disabled":true,"rental_uris":{"android":"levelo://app?vid=be6725c0-5c09-4663-99b8-0b7371d27e21","ios":"levelo://app?vid=be6725c0-5c09-4663-99b8-0b7371d27e21"},"vehicle_type_id":"4","last_reported":1743156661,"current_range_meters":0,"station_id":"","pricing_plan_id":"cebpf4jnsgd1na2vs0mg"},{"bike_id":"39132323-c731-49ab-98e3-c68cfd77b0de","system_id":"levelo_inurba_marseille","lat":43.26409,"lon":5.40388,"is_reserved":false,"is_disabled":true,"rental_uris":{"android":"levelo://app?vid=39132323-c731-49ab-98e3-c68cfd77b0de","ios":"levelo://app?vid=39132323-c731-49ab-98e3-c68cfd77b0de"},"vehicle_type_id":"4","last_reported":1743156661,"current_range_meters":0,"station_id":"","pricing_plan_id":"cebpf4jnsgd1na2vs0mg"},{"bike_id":"e01b37d2-694f-4478-b219-216c31b79260","system_id":"levelo_inurba_marseille","lat":43.25232,"lon":5.38065,"is_reserved":false,"is_disabled":true,"rental_uris":{"android":"levelo://app?vid=e01b37d2-694f-4478-b219-216c31b79260","ios":"levelo://app?vid=e01b37d2-694f-4478-b219-216c31b79260"},"vehicle_type_id":"4","last_reported":1743156661,"current_range_meters":0,"station_id":"","pricing_plan_id":"cebpf4jnsgd1na2vs0mg"},{"bike_id":"72e5db2b-9562-475e-acb8-d0f54f5a254a","system_id":"levelo_inurba_marseille","lat":43.26061,"lon":5.41551,"is_reserved":false,"is_disabled":true,"rental_uris":{"android":"levelo://app?vid=72e5db2b-9562-475e-acb8-d0f54f5a254a","ios":"levelo://app?vid=72e5db2b-9562-475e-acb8-d0f54f5a254a"},"vehicle_type_id":"4","last_reported":1743156661,"current_range_meters":0,"station_id":"","pricing_plan_id":"cebpf4jnsgd1na2vs0mg"},{"bike_id":"ec7470fc-d51b-44a8-9599-98eca0c1d334","system_id":"levelo_inurba_marseille","lat":43.27155,"lon":5.40018,"is_reserved":false,"is_disabled":true,"rental_uris":{"android":"levelo://app?vid=ec7470fc-d51b-44a8-9599-98eca0c1d334","ios":"levelo://app?vid=ec7470fc-d51b-44a8-9599-98eca0c1d334"},"vehicle_type_id":"4","last_reported":1743156661,"current_range_meters":0,"station_id":"","pricing_plan_id":"cebpf4jnsgd1na2vs0mg"},{"bike_id":"3af976d6-9f5c-400a-b5c7-e87b43c8ed6b","system_id":"levelo_inurba_marseille","lat":43.28106,"lon":5.37845,"is_reserved":false,"is_disabled":true,"rental_uris":{"android":"levelo://app?vid=3af976d6-9f5c-400a-b5c7-e87b43c8ed6b","ios":"levelo://app?vid=3af976d6-9f5c-400a-b5c7-e87b43c8ed6b"},"vehicle_type_id":"4","last_reported":1743156661,"current_range_meters":0,"station_id":"ce4bha12rcd13ifvqee0","pricing_plan_id":"cebpf4jnsgd1na2vs0mg"},{"bike_id":"4dfcaaa1-8753-4f83-8b93-0636560b5cff","system_id":"levelo_inurba_marseille","lat":43.265558,"lon":5.390254,"is_reserved":false,"is_disabled":true,"rental_uris":{"android":"levelo://app?vid=4dfcaaa1-8753-4f83-8b93-0636560b5cff","ios":"levelo://app?vid=4dfcaaa1-8753-4f83-8b93-0636560b5cff"},"vehicle_type_id":"4","last_reported":1743156661,"current_range_meters":0,"station_id":"ce4bhe12rcd13ifvqf30","pricing_plan_id":"cebpf4jnsgd1na2vs0mg"},{"bike_id":"8c7b7a52-13f6-4692-9d8d-1de79d71995a","system_id":"levelo_inurba_marseille","lat":43.27932,"lon":5.39589,"is_reserved":false,"is_disabled":true,"rental_uris":{"android":"levelo://app?vid=8c7b7a52-13f6-4692-9d8d-1de79d71995a","ios":"levelo://app?vid=8c7b7a52-13f6-4692-9d8d-1de79d71995a"},"vehicle_type_id":"4","last_reported":1743156661,"current_range_meters":0,"station_id":"ce4bhf92rcd13ifvqf40","pricing_plan_id":"cebpf4jnsgd1na2vs0mg"},{"bike_id":"0af0eec2-36ad-47c0-aa96-bd3dd4adcc01","system_id":"levelo_inurba_marseille","lat":43.23201,"lon":5.39986,"is_reserved":false,"is_disabled":true,"rental_uris":{"android":"levelo://app?vid=0af0eec2-36ad-47c0-aa96-bd3dd4adcc01","ios":"levelo://app?vid=0af0eec2-36ad-47c0-aa96-bd3dd4adcc01"},"vehicle_type_id":"4","last_reported":1743156661,"current_range_meters":0,"station_id":"ce4bhn12rcd13ifvqgqg","pricing_plan_id":"cebpf4jnsgd1na2vs0mg"},{"bike_id":"e8a1701d-988c-4f0d-bfd0-da824da1c553","system_id":"levelo_inurba_marseille","lat":43.2294,"lon":5.35383,"is_reserved":false,"is_disabled":true,"rental_uris":{"android":"levelo://app?vid=e8a1701d-988c-4f0d-bfd0-da824da1c553","ios":"levelo://app?vid=e8a1701d-988c-4f0d-bfd0-da824da1c553"},"vehicle_type_id":"4","last_reported":1743156661,"current_range_meters":0,"station_id":"cpo3532slgdg3j2ikp40","pricing_plan_id":"cebpf4jnsgd1na2vs0mg"},{"bike_id":"7b8f7a8a-dfcc-4fdc-8856-4aec0b02d06b","system_id":"levelo_inurba_marseille","lat":43.31249,"lon":5.36876,"is_reserved":false,"is_disabled":true,"rental_uris":{"android":"levelo://app?vid=7b8f7a8a-dfcc-4fdc-8856-4aec0b02d06b","ios":"levelo://app?vid=7b8f7a8a-dfcc-4fdc-8856-4aec0b02d06b"},"vehicle_type_id":"4","last_reported":1743156661,"current_range_meters":400,"station_id":"ce4bgl92rcd13ifvqbq0","pricing_plan_id":"cebpf4jnsgd1na2vs0mg"},{"bike_id":"ce298a89-241b-4600-8aed-b1c4dc839739","system_id":"levelo_inurba_marseille","lat":43.28339,"lon":5.381054,"is_reserved":false,"is_disabled":true,"rental_uris":{"android":"levelo://app?vid=ce298a89-241b-4600-8aed-b1c4dc839739","ios":"levelo://app?vid=ce298a89-241b-4600-8aed-b1c4dc839739"},"vehicle_type_id":"4","last_reported":1743156661,"current_range_meters":800,"station_id":"ce4bh412rcd13ifvqdr0","pricing_plan_id":"cebpf4jnsgd1na2vs0mg"},{"bike_id":"c594992a-370a-4cc3-a1d3-58ca53efe89e","system_id":"levelo_inurba_marseille","lat":43.25131,"lon":5.40358,"is_reserved":false,"is_disabled":true,"rental_uris":{"android":"levelo://app?vid=c594992a-370a-4cc3-a1d3-58ca53efe89e","ios":"levelo://app?vid=c594992a-370a-4cc3-a1d3-58ca53efe89e"},"vehicle_type_id":"4","last_reported":1743156661,"current_range_meters":800,"station_id":"ce4bhlh2rcd13ifvqgig","pricing_plan_id":"cebpf4jnsgd1na2vs0mg"},{"bike_id":"ad62863a-40aa-47e0-8c22-a591e5b0dafa","system_id":"levelo_inurba_marseille","lat":43.28619,"lon":5.35101,"is_reserved":false,"is_disabled":true,"rental_uris":{"android":"levelo://app?vid=ad62863a-40aa-47e0-8c22-a591e5b0dafa","ios":"levelo://app?vid=ad62863a-40aa-47e0-8c22-a591e5b0dafa"},"vehicle_type_id":"4","last_reported":1743156661,"current_range_meters":1200,"station_id":"ce4bhch2rcd13ifvqeug","pricing_plan_id":"cebpf4jnsgd1na2vs0mg"},{"bike_id":"524f1196-3ba6-4f11-b9cd-1c10781086a1","system_id":"levelo_inurba_marseille","lat":43.25007,"lon":5.38929,"is_reserved":false,"is_disabled":true,"rental_uris":{"android":"levelo://app?vid=524f1196-3ba6-4f11-b9cd-1c10781086a1","ios":"levelo://app?vid=524f1196-3ba6-4f11-b9cd-1c10781086a1"},"vehicle_type_id":"4","last_reported":1743156661,"current_range_meters":1200,"station_id":"ce4bhgp2rcd13ifvqfd0","pricing_plan_id":"cebpf4jnsgd1na2vs0mg"},{"bike_id":"954e2c87-52f7-42f9-9e09-900e4e97a5a8","system_id":"levelo_inurba_marseille","lat":43.25947,"lon":5.40885,"is_reserved":false,"is_disabled":true,"rental_uris":{"android":"levelo://app?vid=954e2c87-52f7-42f9-9e09-900e4e97a5a8","ios":"levelo://app?vid=954e2c87-52f7-42f9-9e09-900e4e97a5a8"},"vehicle_type_id":"4","last_reported":1743156661,"current_range_meters":1200,"station_id":"ce4bhm92rcd13ifvqglg","pricing_plan_id":"cebpf4jnsgd1na2vs0mg"},{"bike_id":"d69380a6-3c5d-4c3f-9845-3111f5e0f290","system_id":"levelo_inurba_marseille","lat":43.25943,"lon":5.40884,"is_reserved":false,"is_disabled":true,"rental_uris":{"android":"levelo://app?vid=d69380a6-3c5d-4c3f-9845-3111f5e0f290","ios":"levelo://app?vid=d69380a6-3c5d-4c3f-9845-3111f5e0f290"},"vehicle_type_id":"4","last_reported":1743156661,"current_range_meters":1200,"station_id":"ce4bhm92rcd13ifvqglg","pricing_plan_id":"cebpf4jnsgd1na2vs0mg"},{"bike_id":"7d6a8a7b-2459-41ac-912e-bc4251c121ed","system_id":"levelo_inurba_marseille","lat":43.27502,"lon":5.42452,"is_reserved":false,"is_disabled":true,"rental_uris":{"android":"levelo://app?vid=7d6a8a7b-2459-41ac-912e-bc4251c121ed","ios":"levelo://app?vid=7d6a8a7b-2459-41ac-912e-bc4251c121ed"},"vehicle_type_id":"4","last_reported":1743156661,"current_range_meters":1200,"station_id":"ce4bhn92rcd13ifvqgrg","pricing_plan_id":"cebpf4jnsgd1na2vs0mg"},{"bike_id":"f52d54ce-a9c2-49a4-b1c1-c68f8a9c828d","system_id":"levelo_inurba_marseille","lat":43.27987,"lon":5.41673,"is_reserved":false,"is_disabled":true,"rental_uris":{"android":"levelo://app?vid=f52d54ce-a9c2-49a4-b1c1-c68f8a9c828d","ios":"levelo://app?vid=f52d54ce-a9c2-49a4-b1c1-c68f8a9c828d"},"vehicle_type_id":"4","last_reported":1743156661,"current_range_meters":1200,"station_id":"ce4bho12rcd13ifvqh1g","pricing_plan_id":"cebpf4jnsgd1na2vs0mg"},{"bike_id":"1dd765a9-64b4-439c-a196-df55419cc971","system_id":"levelo_inurba_marseille","lat":43.24192,"lon":5.36381,"is_reserved":false,"is_disabled":true,"rental_uris":{"android":"levelo://app?vid=1dd765a9-64b4-439c-a196-df55419cc971","ios":"levelo://app?vid=1dd765a9-64b4-439c-a196-df55419cc971"},"vehicle_type_id":"4","last_reported":1743156661,"current_range_meters":1200,"station_id":"cpo36qri1sfpv3e86is0","pricing_plan_id":"cebpf4jnsgd1na2vs0mg"},{"bike_id":"2b9f1001-4605-4fac-9826-5f54f041ce0c","system_id":"levelo_inurba_marseille","lat":43.30967,"lon":5.39056,"is_reserved":false,"is_disabled":true,"rental_uris":{"android":"levelo://app?vid=2b9f1001-4605-4fac-9826-5f54f041ce0c","ios":"levelo://app?vid=2b9f1001-4605-4fac-9826-5f54f041ce0c"},"vehicle_type_id":"4","last_reported":1743156661,"current_range_meters":1600,"station_id":"ce4bgup2rcd13ifvqco0","pricing_plan_id":"cebpf4jnsgd1na2vs0mg"},{"bike_id":"dc9d8145-b21f-47a9-838d-11594b0c33bf","system_id":"levelo_inurba_marseille","lat":43.30131,"lon":5.39861,"is_reserved":false,"is_disabled":true,"rental_uris":{"android":"levelo://app?vid=dc9d8145-b21f-47a9-838d-11594b0c33bf","ios":"levelo://app?vid=dc9d8145-b21f-47a9-838d-11594b0c33bf"},"vehicle_type_id":"4","last_reported":1743156661,"current_range_meters":1600,"station_id":"ce4bh0h2rcd13ifvqd40","pricing_plan_id":"cebpf4jnsgd1na2vs0mg"},{"bike_id":"44156654-a4cf-4f20-b992-8a27bbcc69ed","system_id":"levelo_inurba_marseille","lat":43.23197,"lon":5.3998,"is_reserved":false,"is_disabled":true,"rental_uris":{"android":"levelo://app?vid=44156654-a4cf-4f20-b992-8a27bbcc69ed","ios":"levelo://app?vid=44156654-a4cf-4f20-b992-8a27bbcc69ed"},"vehicle_type_id":"4","last_reported":1743156661,"current_range_meters":1600,"station_id":"ce4bhn12rcd13ifvqgqg","pricing_plan_id":"cebpf4jnsgd1na2vs0mg"},{"bike_id":"c30b4351-a752-4c84-8bf9-e20988da7341","system_id":"levelo_inurba_marseille","lat":43.31493,"lon":5.3733,"is_reserved":false,"is_disabled":true,"rental_uris":{"android":"levelo://app?vid=c30b4351-a752-4c84-8bf9-e20988da7341","ios":"levelo://app?vid=c30b4351-a752-4c84-8bf9-e20988da7341"},"vehicle_type_id":"4","last_reported":1743156661,"current_range_meters":2000,"station_id":"ce4bgt12rcd13ifvqcd0","pricing_plan_id":"cebpf4jnsgd1na2vs0mg"},{"bike_id":"d9b71597-196d-4a6d-b3e8-fc24fed8aee6","system_id":"levelo_inurba_marseille","lat":43.29568,"lon":5.39956,"is_reserved":false,"is_disabled":true,"rental_uris":{"android":"levelo://app?vid=d9b71597-196d-4a6d-b3e8-fc24fed8aee6","ios":"levelo://app?vid=d9b71597-196d-4a6d-b3e8-fc24fed8aee6"},"vehicle_type_id":"4","last_reported":1743156661,"current_range_meters":2000,"station_id":"ce4bh312rcd13ifvqdj0","pricing_plan_id":"cebpf4jnsgd1na2vs0mg"},{"bike_id":"e0c7a8fa-b141-41f8-b89e-528b1365f29e","system_id":"levelo_inurba_marseille","lat":43.28268,"lon":5.35064,"is_reserved":false,"is_disabled":true,"rental_uris":{"android":"levelo://app?vid=e0c7a8fa-b141-41f8-b89e-528b1365f29e","ios":"levelo://app?vid=e0c7a8fa-b141-41f8-b89e-528b1365f29e"},"vehicle_type_id":"4","last_reported":1743156661,"current_range_meters":2000,"station_id":"ce4bhbp2rcd13ifvqerg","pricing_plan_id":"cebpf4jnsgd1na2vs0mg"},{"bike_id":"9b0db4f1-c6a1-4ca7-86c5-ec1daffe0ea2","system_id":"levelo_inurba_marseille","lat":43.25092,"lon":5.39503,"is_reserved":false,"is_disabled":true,"rental_uris":{"android":"levelo://app?vid=9b0db4f1-c6a1-4ca7-86c5-ec1daffe0ea2","ios":"levelo://app?vid=9b0db4f1-c6a1-4ca7-86c5-ec1daffe0ea2"},"vehicle_type_id":"4","last_reported":1743156661,"current_range_meters":2000,"station_id":"ce4bhm12rcd13ifvqgkg","pricing_plan_id":"cebpf4jnsgd1na2vs0mg"},{"bike_id":"dc8ccdc9-a018-4504-b0a9-676297905591","system_id":"levelo_inurba_marseille","lat":43.29304,"lon":5.36986,"is_reserved":false,"is_disabled":false,"rental_uris":{"android":"levelo://app?vid=dc8ccdc9-a018-4504-b0a9-676297905591","ios":"levelo://app?vid=dc8ccdc9-a018-4504-b0a9-676297905591"},"vehicle_type_id":"4","last_reported":1743156661,"current_range_meters":2800,"station_id":"","pricing_plan_id":"cebpf4jnsgd1na2vs0mg"},{"bike_id":"dc108e1b-e281-40c5-838a-ca34dfbb0b83","system_id":"levelo_inurba_marseille","lat":43.29273,"lon":5.37638,"is_reserved":false,"is_disabled":true,"rental_uris":{"android":"levelo://app?vid=dc108e1b-e281-40c5-838a-ca34dfbb0b83","ios":"levelo://app?vid=dc108e1b-e281-40c5-838a-ca34dfbb0b83"},"vehicle_type_id":"4","last_reported":1743156661,"current_range_meters":2800,"station_id":"ce4bgi12rcd13ifvqb80","pricing_plan_id":"cebpf4jnsgd1na2vs0mg"},{"bike_id":"b718af25-2947-4d4a-a557-bae14ad75132","system_id":"levelo_inurba_marseille","lat":43.29801,"lon":5.3809,"is_reserved":false,"is_disabled":false,"rental_uris":{"android":"levelo://app?vid=b718af25-2947-4d4a-a557-bae14ad75132","ios":"levelo://app?vid=b718af25-2947-4d4a-a557-bae14ad75132"},"vehicle_type_id":"4","last_reported":1743156661,"current_range_meters":2800,"station_id":"ce4bgip2rcd13ifvqbb0","pricing_plan_id":"cebpf4jnsgd1na2vs0mg"},{"bike_id":"c9b2c00c-c382-4db2-8582-a86a0684c224","system_id":"levelo_inurba_marseille","lat":43.31493,"lon":5.37336,"is_reserved":false,"is_disabled":false,"rental_uris":{"android":"levelo://app?vid=c9b2c00c-c382-4db2-8582-a86a0684c224","ios":"levelo://app?vid=c9b2c00c-c382-4db2-8582-a86a0684c224"},"vehicle_type_id":"4","last_reported":1743156661,"current_range_meters":2800,"station_id":"ce4bgt12rcd13ifvqcd0","pricing_plan_id":"cebpf4jnsgd1na2vs0mg"},{"bike_id":"c0761820-48ed-4025-824f-e5778322c6a5","system_id":"levelo_inurba_marseille","lat":43.3095,"lon":5.39027,"is_reserved":false,"is_disabled":false,"rental_uris":{"android":"levelo://app?vid=c0761820-48ed-4025-824f-e5778322c6a5","ios":"levelo://app?vid=c0761820-48ed-4025-824f-e5778322c6a5"},"vehicle_type_id":"4","last_reported":1743156661,"current_range_meters":2800,"station_id":"ce4bgup2rcd13ifvqco0","pricing_plan_id":"cebpf4jnsgd1na2vs0mg"},{"bike_id":"745db27b-7d09-42e9-857e-1a3c13cd5302","system_id":"levelo_inurba_marseille","lat":43.231966,"lon":5.355548,"is_reserved":false,"is_disabled":false,"rental_uris":{"android":"levelo://app?vid=745db27b-7d09-42e9-857e-1a3c13cd5302","ios":"levelo://app?vid=745db27b-7d09-42e9-857e-1a3c13cd5302"},"vehicle_type_id":"4","last_reported":1743156661,"current_range_meters":2800,"station_id":"ce4bhu92rcd13ifvqi70","pricing_plan_id":"cebpf4jnsgd1na2vs0mg"},{"bike_id":"a02f1b0a-c21f-4ed4-8bc0-3a683a422f94","system_id":"levelo_inurba_marseille","lat":43.29568,"lon":5.37509,"is_reserved":false,"is_disabled":false,"rental_uris":{"android":"levelo://app?vid=a02f1b0a-c21f-4ed4-8bc0-3a683a422f94","ios":"levelo://app?vid=a02f1b0a-c21f-4ed4-8bc0-3a683a422f94"},"vehicle_type_id":"4","last_reported":1743156661,"current_range_meters":3200,"station_id":"ce4bgh92rcd13ifvqb50","pricing_plan_id":"cebpf4jnsgd1na2vs0mg"},{"bike_id":"fb13262d-068e-48a7-8009-6b2a59f50d25","system_id":"levelo_inurba_marseille","lat":43.24545,"lon":5.39519,"is_reserved":false,"is_disabled":false,"rental_uris":{"android":"levelo://app?vid=fb13262d-068e-48a7-8009-6b2a59f50d25","ios":"levelo://app?vid=fb13262d-068e-48a7-8009-6b2a59f50d25"},"vehicle_type_id":"4","last_reported":1743156661,"current_range_meters":3200,"station_id":"ce4bhlp2rcd13ifvqgjg","pricing_plan_id":"cebpf4jnsgd1na2vs0mg"},{"bike_id":"745a7421-2967-47d1-be3f-28700442013c","system_id":"levelo_inurba_marseille","lat":43.31329,"lon":5.3665,"is_reserved":false,"is_disabled":false,"rental_uris":{"android":"levelo://app?vid=745a7421-2967-47d1-be3f-28700442013c","ios":"levelo://app?vid=745a7421-2967-47d1-be3f-28700442013c"},"vehicle_type_id":"4","last_reported":1743156661,"current_range_meters":3600,"station_id":"ce4bgr92rcd13ifvqc6g","pricing_plan_id":"cebpf4jnsgd1na2vs0mg"},{"bike_id":"a49bc79d-3c1c-41aa-a0ba-40d5ff70cdad","system_id":"levelo_inurba_marseille","lat":43.27063,"lon":5.40272,"is_reserved":false,"is_disabled":false,"rental_uris":{"android":"levelo://app?vid=a49bc79d-3c1c-41aa-a0ba-40d5ff70cdad","ios":"levelo://app?vid=a49bc79d-3c1c-41aa-a0ba-40d5ff70cdad"},"vehicle_type_id":"4","last_reported":1743156661,"current_range_meters":3600,"station_id":"ce4bhk92rcd13ifvqgc0","pricing_plan_id":"cebpf4jnsgd1na2vs0mg"},{"bike_id":"c752cc87-456e-4134-9a44-62eff5dadbd0","system_id":"levelo_inurba_marseille","lat":43.27817,"lon":5.40709,"is_reserved":false,"is_disabled":false,"rental_uris":{"android":"levelo://app?vid=c752cc87-456e-4134-9a44-62eff5dadbd0","ios":"levelo://app?vid=c752cc87-456e-4134-9a44-62eff5dadbd0"},"vehicle_type_id":"4","last_reported":1743156661,"current_range_meters":3600,"station_id":"ce4bhnh2rcd13ifvqgtg","pricing_plan_id":"cebpf4jnsgd1na2vs0mg"},{"bike_id":"38b6247d-7a08-4407-867b-6e9cb2228b7f","system_id":"levelo_inurba_marseille","lat":43.240794,"lon":5.37753,"is_reserved":false,"is_disabled":false,"rental_uris":{"android":"levelo://app?vid=38b6247d-7a08-4407-867b-6e9cb2228b7f","ios":"levelo://app?vid=38b6247d-7a08-4407-867b-6e9cb2228b7f"},"vehicle_type_id":"4","last_reported":1743156661,"current_range_meters":3600,"station_id":"ce4bhnp2rcd13ifvqgvg","pricing_plan_id":"cebpf4jnsgd1na2vs0mg"},{"bike_id":"32e57e81-b647-4cf3-bc50-8bfc15522e5a","system_id":"levelo_inurba_marseille","lat":43.2705,"lon":5.40262,"is_reserved":false,"is_disabled":false,"rental_uris":{"android":"levelo://app?vid=32e57e81-b647-4cf3-bc50-8bfc15522e5a","ios":"levelo://app?vid=32e57e81-b647-4cf3-bc50-8bfc15522e5a"},"vehicle_type_id":"4","last_reported":1743156661,"current_range_meters":4000,"station_id":"ce4bhk92rcd13ifvqgc0","pricing_plan_id":"cebpf4jnsgd1na2vs0mg"},{"bike_id":"1480555f-1248-4ead-8131-93a0e352e223","system_id":"levelo_inurba_marseille","lat":43.2595,"lon":5.40913,"is_reserved":false,"is_disabled":false,"rental_uris":{"android":"levelo://app?vid=1480555f-1248-4ead-8131-93a0e352e223","ios":"levelo://app?vid=1480555f-1248-4ead-8131-93a0e352e223"},"vehicle_type_id":"4","last_reported":1743156661,"current_range_meters":4000,"station_id":"ce4bhm92rcd13ifvqglg","pricing_plan_id":"cebpf4jnsgd1na2vs0mg"},{"bike_id":"84a7a785-5392-42bc-8088-fb903bcc7f5c","system_id":"levelo_inurba_marseille","lat":43.23061,"lon":5.35487,"is_reserved":false,"is_disabled":false,"rental_uris":{"android":"levelo://app?vid=84a7a785-5392-42bc-8088-fb903bcc7f5c","ios":"levelo://app?vid=84a7a785-5392-42bc-8088-fb903bcc7f5c"},"vehicle_type_id":"4","last_reported":1743156661,"current_range_meters":4000,"station_id":"cpo3342slgdg3j2ifvpg","pricing_plan_id":"cebpf4jnsgd1na2vs0mg"},{"bike_id":"de335aac-dab3-4be1-a955-98b996918b60","system_id":"levelo_inurba_marseille","lat":43.30882,"lon":5.39656,"is_reserved":false,"is_disabled":false,"rental_uris":{"android":"levelo://app?vid=de335aac-dab3-4be1-a955-98b996918b60","ios":"levelo://app?vid=de335aac-dab3-4be1-a955-98b996918b60"},"vehicle_type_id":"4","last_reported":1743156661,"current_range_meters":4400,"station_id":"ce4bh012rcd13ifvqcv0","pricing_plan_id":"cebpf4jnsgd1na2vs0mg"},{"bike_id":"c756d32d-efcb-4a9e-8494-37e13de07e39","system_id":"levelo_inurba_marseille","lat":43.26949,"lon":5.38635,"is_reserved":false,"is_disabled":false,"rental_uris":{"android":"levelo://app?vid=c756d32d-efcb-4a9e-8494-37e13de07e39","ios":"levelo://app?vid=c756d32d-efcb-4a9e-8494-37e13de07e39"},"vehicle_type_id":"4","last_reported":1743156661,"current_range_meters":4800,"station_id":"ce4bhh92rcd13ifvqfh0","pricing_plan_id":"cebpf4jnsgd1na2vs0mg"},{"bike_id":"72407b9c-71b7-4feb-83e9-97e5f2a36163","system_id":"levelo_inurba_marseille","lat":43.241673,"lon":5.363919,"is_reserved":false,"is_disabled":false,"rental_uris":{"android":"levelo://app?vid=72407b9c-71b7-4feb-83e9-97e5f2a36163","ios":"levelo://app?vid=72407b9c-71b7-4feb-83e9-97e5f2a36163"},"vehicle_type_id":"4","last_reported":1743156661,"current_range_meters":4800,"station_id":"cpo36qri1sfpv3e86is0","pricing_plan_id":"cebpf4jnsgd1na2vs0mg"},{"bike_id":"2e38502e-cf58-4b44-af1e-82e2e21f92e8","system_id":"levelo_inurba_marseille","lat":43.30556,"lon":5.36553,"is_reserved":false,"is_disabled":false,"rental_uris":{"android":"levelo://app?vid=2e38502e-cf58-4b44-af1e-82e2e21f92e8","ios":"levelo://app?vid=2e38502e-cf58-4b44-af1e-82e2e21f92e8"},"vehicle_type_id":"4","last_reported":1743156661,"current_range_meters":5600,"station_id":"ce4bgs12rcd13ifvqcag","pricing_plan_id":"cebpf4jnsgd1na2vs0mg"},{"bike_id":"5e7d515b-946e-40cf-99c1-3c51f2270c80","system_id":"levelo_inurba_marseille","lat":43.2737,"lon":5.36244,"is_reserved":false,"is_disabled":false,"rental_uris":{"android":"levelo://app?vid=5e7d515b-946e-40cf-99c1-3c51f2270c80","ios":"levelo://app?vid=5e7d515b-946e-40cf-99c1-3c51f2270c80"},"vehicle_type_id":"4","last_reported":1743156661,"current_range_meters":5600,"station_id":"ce4bhbh2rcd13ifvqeo0","pricing_plan_id":"cebpf4jnsgd1na2vs0mg"},{"bike_id":"3e31430f-7ea4-44c6-9fc1-3ce71b892105","system_id":"levelo_inurba_marseille","lat":43.24548,"lon":5.39528,"is_reserved":false,"is_disabled":false,"rental_uris":{"android":"levelo://app?vid=3e31430f-7ea4-44c6-9fc1-3ce71b892105","ios":"levelo://app?vid=3e31430f-7ea4-44c6-9fc1-3ce71b892105"},"vehicle_type_id":"4","last_reported":1743156661,"current_range_meters":5600,"station_id":"ce4bhlp2rcd13ifvqgjg","pricing_plan_id":"cebpf4jnsgd1na2vs0mg"},{"bike_id":"0e173472-5a4b-4021-b0c5-dd55f1f57390","system_id":"levelo_inurba_marseille","lat":43.25092,"lon":5.39517,"is_reserved":false,"is_disabled":false,"rental_uris":{"android":"levelo://app?vid=0e173472-5a4b-4021-b0c5-dd55f1f57390","ios":"levelo://app?vid=0e173472-5a4b-4021-b0c5-dd55f1f57390"},"vehicle_type_id":"4","last_reported":1743156661,"current_range_meters":5600,"station_id":"ce4bhm12rcd13ifvqgkg","pricing_plan_id":"cebpf4jnsgd1na2vs0mg"},{"bike_id":"a3da10bc-b067-4a00-b60a-7be6ff45323e","system_id":"levelo_inurba_marseille","lat":43.32107,"lon":5.36768,"is_reserved":false,"is_disabled":false,"rental_uris":{"android":"levelo://app?vid=a3da10bc-b067-4a00-b60a-7be6ff45323e","ios":"levelo://app?vid=a3da10bc-b067-4a00-b60a-7be6ff45323e"},"vehicle_type_id":"4","last_reported":1743156661,"current_range_meters":5600,"station_id":"ce4bhrh2rcd13ifvqhug","pricing_plan_id":"cebpf4jnsgd1na2vs0mg"},{"bike_id":"40046afd-c6aa-43ea-88bd-183a4d2ec61c","system_id":"levelo_inurba_marseille","lat":43.31603,"lon":5.41657,"is_reserved":false,"is_disabled":false,"rental_uris":{"android":"levelo://app?vid=40046afd-c6aa-43ea-88bd-183a4d2ec61c","ios":"levelo://app?vid=40046afd-c6aa-43ea-88bd-183a4d2ec61c"},"vehicle_type_id":"4","last_reported":1743156661,"current_range_meters":6000,"station_id":"","pricing_plan_id":"cebpf4jnsgd1na2vs0mg"},{"bike_id":"b1d038cf-8f8e-4f0a-a753-84ebf9de9c82","system_id":"levelo_inurba_marseille","lat":43.261972,"lon":5.379345,"is_reserved":false,"is_disabled":false,"rental_uris":{"android":"levelo://app?vid=b1d038cf-8f8e-4f0a-a753-84ebf9de9c82","ios":"levelo://app?vid=b1d038cf-8f8e-4f0a-a753-84ebf9de9c82"},"vehicle_type_id":"4","last_reported":1743156661,"current_range_meters":6000,"station_id":"","pricing_plan_id":"cebpf4jnsgd1na2vs0mg"},{"bike_id":"ca1a6c50-0178-49a6-87ee-c0bb57eebc7b","system_id":"levelo_inurba_marseille","lat":43.29259,"lon":5.37596,"is_reserved":false,"is_disabled":false,"rental_uris":{"android":"levelo://app?vid=ca1a6c50-0178-49a6-87ee-c0bb57eebc7b","ios":"levelo://app?vid=ca1a6c50-0178-49a6-87ee-c0bb57eebc7b"},"vehicle_type_id":"4","last_reported":1743156661,"current_range_meters":6000,"station_id":"ce4bgi12rcd13ifvqb80","pricing_plan_id":"cebpf4jnsgd1na2vs0mg"},{"bike_id":"10474b18-d564-4d68-8ffa-69b08f2adb8e","system_id":"levelo_inurba_marseille","lat":43.29258,"lon":5.40899,"is_reserved":false,"is_disabled":false,"rental_uris":{"android":"levelo://app?vid=10474b18-d564-4d68-8ffa-69b08f2adb8e","ios":"levelo://app?vid=10474b18-d564-4d68-8ffa-69b08f2adb8e"},"vehicle_type_id":"4","last_reported":1743156661,"current_range_meters":6000,"station_id":"ce4bh192rcd13ifvqdc0","pricing_plan_id":"cebpf4jnsgd1na2vs0mg"},{"bike_id":"2c1cc164-7890-4d7c-b916-a74cfa28561d","system_id":"levelo_inurba_marseille","lat":43.283324,"lon":5.381122,"is_reserved":false,"is_disabled":false,"rental_uris":{"android":"levelo://app?vid=2c1cc164-7890-4d7c-b916-a74cfa28561d","ios":"levelo://app?vid=2c1cc164-7890-4d7c-b916-a74cfa28561d"},"vehicle_type_id":"4","last_reported":1743156661,"current_range_meters":6000,"station_id":"ce4bh412rcd13ifvqdr0","pricing_plan_id":"cebpf4jnsgd1na2vs0mg"},{"bike_id":"fa17a2cd-3d84-4325-b1c8-c608e6f0acce","system_id":"levelo_inurba_marseille","lat":43.24944,"lon":5.40221,"is_reserved":false,"is_disabled":false,"rental_uris":{"android":"levelo://app?vid=fa17a2cd-3d84-4325-b1c8-c608e6f0acce","ios":"levelo://app?vid=fa17a2cd-3d84-4325-b1c8-c608e6f0acce"},"vehicle_type_id":"4","last_reported":1743156661,"current_range_meters":6400,"station_id":"","pricing_plan_id":"cebpf4jnsgd1na2vs0mg"},{"bike_id":"709a3755-e29b-49a3-baf1-58f3bab872b4","system_id":"levelo_inurba_marseille","lat":43.30428,"lon":5.39761,"is_reserved":false,"is_disabled":false,"rental_uris":{"android":"levelo://app?vid=709a3755-e29b-49a3-baf1-58f3bab872b4","ios":"levelo://app?vid=709a3755-e29b-49a3-baf1-58f3bab872b4"},"vehicle_type_id":"4","last_reported":1743156661,"current_range_meters":6400,"station_id":"","pricing_plan_id":"cebpf4jnsgd1na2vs0mg"},{"bike_id":"99ba283f-adaa-4f97-a965-4d928786afc7","system_id":"levelo_inurba_marseille","lat":43.26893,"lon":5.40248,"is_reserved":false,"is_disabled":false,"rental_uris":{"android":"levelo://app?vid=99ba283f-adaa-4f97-a965-4d928786afc7","ios":"levelo://app?vid=99ba283f-adaa-4f97-a965-4d928786afc7"},"vehicle_type_id":"4","last_reported":1743156661,"current_range_meters":6400,"station_id":"","pricing_plan_id":"cebpf4jnsgd1na2vs0mg"},{"bike_id":"838d50a4-3fd3-48ba-a9af-423ab5abce88","system_id":"levelo_inurba_marseille","lat":43.30941,"lon":5.39041,"is_reserved":false,"is_disabled":false,"rental_uris":{"android":"levelo://app?vid=838d50a4-3fd3-48ba-a9af-423ab5abce88","ios":"levelo://app?vid=838d50a4-3fd3-48ba-a9af-423ab5abce88"},"vehicle_type_id":"4","last_reported":1743156661,"current_range_meters":6400,"station_id":"ce4bgup2rcd13ifvqco0","pricing_plan_id":"cebpf4jnsgd1na2vs0mg"},{"bike_id":"ef77da61-263f-4861-b789-72167714262d","system_id":"levelo_inurba_marseille","lat":43.27313,"lon":5.39071,"is_reserved":false,"is_disabled":false,"rental_uris":{"android":"levelo://app?vid=ef77da61-263f-4861-b789-72167714262d","ios":"levelo://app?vid=ef77da61-263f-4861-b789-72167714262d"},"vehicle_type_id":"4","last_reported":1743156661,"current_range_meters":6400,"station_id":"ce4bhgp2rcd13ifvqfe0","pricing_plan_id":"cebpf4jnsgd1na2vs0mg"},{"bike_id":"46066b18-564d-4f18-b71c-0abd1e09ec82","system_id":"levelo_inurba_marseille","lat":43.26512,"lon":5.39546,"is_reserved":false,"is_disabled":false,"rental_uris":{"android":"levelo://app?vid=46066b18-564d-4f18-b71c-0abd1e09ec82","ios":"levelo://app?vid=46066b18-564d-4f18-b71c-0abd1e09ec82"},"vehicle_type_id":"4","last_reported":1743156661,"current_range_meters":6400,"station_id":"ce4bhi12rcd13ifvqfq0","pricing_plan_id":"cebpf4jnsgd1na2vs0mg"},{"bike_id":"da76ef48-2f92-41cb-b7ea-11e6bb0bc372","system_id":"levelo_inurba_marseille","lat":43.25931,"lon":5.40908,"is_reserved":false,"is_disabled":false,"rental_uris":{"android":"levelo://app?vid=da76ef48-2f92-41cb-b7ea-11e6bb0bc372","ios":"levelo://app?vid=da76ef48-2f92-41cb-b7ea-11e6bb0bc372"},"vehicle_type_id":"4","last_reported":1743156661,"current_range_meters":6400,"station_id":"ce4bhm92rcd13ifvqglg","pricing_plan_id":"cebpf4jnsgd1na2vs0mg"},{"bike_id":"c18155db-65c7-4d5a-8c5b-923eb75c675d","system_id":"levelo_inurba_marseille","lat":43.32103,"lon":5.36773,"is_reserved":false,"is_disabled":false,"rental_uris":{"android":"levelo://app?vid=c18155db-65c7-4d5a-8c5b-923eb75c675d","ios":"levelo://app?vid=c18155db-65c7-4d5a-8c5b-923eb75c675d"},"vehicle_type_id":"4","last_reported":1743156661,"current_range_meters":6400,"station_id":"ce4bhrh2rcd13ifvqhug","pricing_plan_id":"cebpf4jnsgd1na2vs0mg"},{"bike_id":"ad68bb84-3d68-4128-8805-42c8860dcca1","system_id":"levelo_inurba_marseille","lat":43.29242,"lon":5.37595,"is_reserved":false,"is_disabled":false,"rental_uris":{"android":"levelo://app?vid=ad68bb84-3d68-4128-8805-42c8860dcca1","ios":"levelo://app?vid=ad68bb84-3d68-4128-8805-42c8860dcca1"},"vehicle_type_id":"4","last_reported":1743156661,"current_range_meters":6800,"station_id":"ce4bgi12rcd13ifvqb80","pricing_plan_id":"cebpf4jnsgd1na2vs0mg"},{"bike_id":"88fc2327-758a-460e-ba27-0b1912acb605","system_id":"levelo_inurba_marseille","lat":43.29921,"lon":5.3747,"is_reserved":false,"is_disabled":false,"rental_uris":{"android":"levelo://app?vid=88fc2327-758a-460e-ba27-0b1912acb605","ios":"levelo://app?vid=88fc2327-758a-460e-ba27-0b1912acb605"},"vehicle_type_id":"4","last_reported":1743156661,"current_range_meters":6800,"station_id":"ce4bgjh2rcd13ifvqbg0","pricing_plan_id":"cebpf4jnsgd1na2vs0mg"},{"bike_id":"ed7ca865-6b33-4515-af38-bd3eca84b8bd","system_id":"levelo_inurba_marseille","lat":43.24167,"lon":5.39716,"is_reserved":false,"is_disabled":false,"rental_uris":{"android":"levelo://app?vid=ed7ca865-6b33-4515-af38-bd3eca84b8bd","ios":"levelo://app?vid=ed7ca865-6b33-4515-af38-bd3eca84b8bd"},"vehicle_type_id":"4","last_reported":1743156661,"current_range_meters":6800,"station_id":"ce4bhn12rcd13ifvqgpg","pricing_plan_id":"cebpf4jnsgd1na2vs0mg"},{"bike_id":"2079e143-15fb-4fca-b428-1dcdbd2da2aa","system_id":"levelo_inurba_marseille","lat":43.27818,"lon":5.40716,"is_reserved":false,"is_disabled":false,"rental_uris":{"android":"levelo://app?vid=2079e143-15fb-4fca-b428-1dcdbd2da2aa","ios":"levelo://app?vid=2079e143-15fb-4fca-b428-1dcdbd2da2aa"},"vehicle_type_id":"4","last_reported":1743156661,"current_range_meters":6800,"station_id":"ce4bhnh2rcd13ifvqgtg","pricing_plan_id":"cebpf4jnsgd1na2vs0mg"},{"bike_id":"c5d17eb8-cde1-49a3-9672-ac8d8cf34632","system_id":"levelo_inurba_marseille","lat":43.33425,"lon":5.39984,"is_reserved":false,"is_disabled":false,"rental_uris":{"android":"levelo://app?vid=c5d17eb8-cde1-49a3-9672-ac8d8cf34632","ios":"levelo://app?vid=c5d17eb8-cde1-49a3-9672-ac8d8cf34632"},"vehicle_type_id":"4","last_reported":1743156661,"current_range_meters":7200,"station_id":"","pricing_plan_id":"cebpf4jnsgd1na2vs0mg"},{"bike_id":"65159b24-7618-4a12-bc42-4942920d95a6","system_id":"levelo_inurba_marseille","lat":43.30949,"lon":5.3903,"is_reserved":false,"is_disabled":false,"rental_uris":{"android":"levelo://app?vid=65159b24-7618-4a12-bc42-4942920d95a6","ios":"levelo://app?vid=65159b24-7618-4a12-bc42-4942920d95a6"},"vehicle_type_id":"4","last_reported":1743156661,"current_range_meters":7200,"station_id":"ce4bgup2rcd13ifvqco0","pricing_plan_id":"cebpf4jnsgd1na2vs0mg"},{"bike_id":"cadeac6e-3236-4f63-b5cf-69882fd52025","system_id":"levelo_inurba_marseille","lat":43.29082,"lon":5.38178,"is_reserved":false,"is_disabled":false,"rental_uris":{"android":"levelo://app?vid=cadeac6e-3236-4f63-b5cf-69882fd52025","ios":"levelo://app?vid=cadeac6e-3236-4f63-b5cf-69882fd52025"},"vehicle_type_id":"4","last_reported":1743156661,"current_range_meters":7200,"station_id":"ce4bh512rcd13ifvqe2g","pricing_plan_id":"cebpf4jnsgd1na2vs0mg"},{"bike_id":"f7af7278-4dd4-4ae0-b1f9-972ee37c2718","system_id":"levelo_inurba_marseille","lat":43.27952,"lon":5.38731,"is_reserved":false,"is_disabled":false,"rental_uris":{"android":"levelo://app?vid=f7af7278-4dd4-4ae0-b1f9-972ee37c2718","ios":"levelo://app?vid=f7af7278-4dd4-4ae0-b1f9-972ee37c2718"},"vehicle_type_id":"4","last_reported":1743156661,"current_range_meters":7200,"station_id":"ce4bhg12rcd13ifvqf80","pricing_plan_id":"cebpf4jnsgd1na2vs0mg"},{"bike_id":"830dfc03-a493-431f-a352-206d93efd128","system_id":"levelo_inurba_marseille","lat":43.26492,"lon":5.39541,"is_reserved":false,"is_disabled":false,"rental_uris":{"android":"levelo://app?vid=830dfc03-a493-431f-a352-206d93efd128","ios":"levelo://app?vid=830dfc03-a493-431f-a352-206d93efd128"},"vehicle_type_id":"4","last_reported":1743156661,"current_range_meters":7200,"station_id":"ce4bhi12rcd13ifvqfq0","pricing_plan_id":"cebpf4jnsgd1na2vs0mg"},{"bike_id":"cda3078a-2d37-41a5-946f-aad062afbf12","system_id":"levelo_inurba_marseille","lat":43.24545,"lon":5.39526,"is_reserved":false,"is_disabled":false,"rental_uris":{"android":"levelo://app?vid=cda3078a-2d37-41a5-946f-aad062afbf12","ios":"levelo://app?vid=cda3078a-2d37-41a5-946f-aad062afbf12"},"vehicle_type_id":"4","last_reported":1743156661,"current_range_meters":7200,"station_id":"ce4bhlp2rcd13ifvqgjg","pricing_plan_id":"cebpf4jnsgd1na2vs0mg"},{"bike_id":"aa34ab5b-69d8-4cbe-a70f-dc0a0c19d148","system_id":"levelo_inurba_marseille","lat":43.24178,"lon":5.39723,"is_reserved":false,"is_disabled":false,"rental_uris":{"android":"levelo://app?vid=aa34ab5b-69d8-4cbe-a70f-dc0a0c19d148","ios":"levelo://app?vid=aa34ab5b-69d8-4cbe-a70f-dc0a0c19d148"},"vehicle_type_id":"4","last_reported":1743156661,"current_range_meters":7200,"station_id":"ce4bhn12rcd13ifvqgpg","pricing_plan_id":"cebpf4jnsgd1na2vs0mg"},{"bike_id":"8035e55e-e35d-4ce4-9f48-11c298b2ecfa","system_id":"levelo_inurba_marseille","lat":43.28615,"lon":5.37057,"is_reserved":false,"is_disabled":false,"rental_uris":{"android":"levelo://app?vid=8035e55e-e35d-4ce4-9f48-11c298b2ecfa","ios":"levelo://app?vid=8035e55e-e35d-4ce4-9f48-11c298b2ecfa"},"vehicle_type_id":"4","last_reported":1743156661,"current_range_meters":7200,"station_id":"ce4bht12rcd13ifvqi60","pricing_plan_id":"cebpf4jnsgd1na2vs0mg"},{"bike_id":"b2d9411a-8e43-4af1-ad0c-67d1577d2b3d","system_id":"levelo_inurba_marseille","lat":43.30135,"lon":5.37419,"is_reserved":false,"is_disabled":false,"rental_uris":{"android":"levelo://app?vid=b2d9411a-8e43-4af1-ad0c-67d1577d2b3d","ios":"levelo://app?vid=b2d9411a-8e43-4af1-ad0c-67d1577d2b3d"},"vehicle_type_id":"4","last_reported":1743156661,"current_range_meters":8000,"station_id":"ce4bgs92rcd13ifvqcc0","pricing_plan_id":"cebpf4jnsgd1na2vs0mg"},{"bike_id":"3bb3f478-8198-43bb-8c0b-9e060386ea5e","system_id":"levelo_inurba_marseille","lat":43.28488,"lon":5.38402,"is_reserved":false,"is_disabled":false,"rental_uris":{"android":"levelo://app?vid=3bb3f478-8198-43bb-8c0b-9e060386ea5e","ios":"levelo://app?vid=3bb3f478-8198-43bb-8c0b-9e060386ea5e"},"vehicle_type_id":"4","last_reported":1743156661,"current_range_meters":8000,"station_id":"ce4bh512rcd13ifvqe3g","pricing_plan_id":"cebpf4jnsgd1na2vs0mg"},{"bike_id":"14047aa8-f0ab-4e97-9be1-0de655be94b5","system_id":"levelo_inurba_marseille","lat":43.2594,"lon":5.409,"is_reserved":false,"is_disabled":false,"rental_uris":{"android":"levelo://app?vid=14047aa8-f0ab-4e97-9be1-0de655be94b5","ios":"levelo://app?vid=14047aa8-f0ab-4e97-9be1-0de655be94b5"},"vehicle_type_id":"4","last_reported":1743156661,"current_range_meters":8000,"station_id":"ce4bhm92rcd13ifvqglg","pricing_plan_id":"cebpf4jnsgd1na2vs0mg"},{"bike_id":"597c4159-84ca-4ec5-b4f4-125fbc1c07ee","system_id":"levelo_inurba_marseille","lat":43.31994,"lon":5.38148,"is_reserved":false,"is_disabled":false,"rental_uris":{"android":"levelo://app?vid=597c4159-84ca-4ec5-b4f4-125fbc1c07ee","ios":"levelo://app?vid=597c4159-84ca-4ec5-b4f4-125fbc1c07ee"},"vehicle_type_id":"4","last_reported":1743156661,"current_range_meters":8000,"station_id":"ce4bhr12rcd13ifvqhpg","pricing_plan_id":"cebpf4jnsgd1na2vs0mg"},{"bike_id":"19221227-42ec-4f4b-8f04-42a0818e22f5","system_id":"levelo_inurba_marseille","lat":43.3211,"lon":5.36785,"is_reserved":false,"is_disabled":false,"rental_uris":{"android":"levelo://app?vid=19221227-42ec-4f4b-8f04-42a0818e22f5","ios":"levelo://app?vid=19221227-42ec-4f4b-8f04-42a0818e22f5"},"vehicle_type_id":"4","last_reported":1743156661,"current_range_meters":8000,"station_id":"ce4bhrh2rcd13ifvqhug","pricing_plan_id":"cebpf4jnsgd1na2vs0mg"},{"bike_id":"0ac88cdf-dd3a-494f-aaa5-2b24d1ce393f","system_id":"levelo_inurba_marseille","lat":43.231905,"lon":5.355579,"is_reserved":false,"is_disabled":false,"rental_uris":{"android":"levelo://app?vid=0ac88cdf-dd3a-494f-aaa5-2b24d1ce393f","ios":"levelo://app?vid=0ac88cdf-dd3a-494f-aaa5-2b24d1ce393f"},"vehicle_type_id":"4","last_reported":1743156661,"current_range_meters":8000,"station_id":"ce4bhu92rcd13ifvqi70","pricing_plan_id":"cebpf4jnsgd1na2vs0mg"},{"bike_id":"ec940620-2a09-4eae-aace-1a0a72b62180","system_id":"levelo_inurba_marseille","lat":43.30289,"lon":5.40065,"is_reserved":false,"is_disabled":false,"rental_uris":{"android":"levelo://app?vid=ec940620-2a09-4eae-aace-1a0a72b62180","ios":"levelo://app?vid=ec940620-2a09-4eae-aace-1a0a72b62180"},"vehicle_type_id":"4","last_reported":1743156661,"current_range_meters":8400,"station_id":"ce4bgvh2rcd13ifvqcs0","pricing_plan_id":"cebpf4jnsgd1na2vs0mg"},{"bike_id":"33252521-acee-4dd2-90bf-db8d27abb04c","system_id":"levelo_inurba_marseille","lat":43.2828,"lon":5.35078,"is_reserved":false,"is_disabled":false,"rental_uris":{"android":"levelo://app?vid=33252521-acee-4dd2-90bf-db8d27abb04c","ios":"levelo://app?vid=33252521-acee-4dd2-90bf-db8d27abb04c"},"vehicle_type_id":"4","last_reported":1743156661,"current_range_meters":8400,"station_id":"ce4bhbp2rcd13ifvqerg","pricing_plan_id":"cebpf4jnsgd1na2vs0mg"},{"bike_id":"88753c20-1be7-4d37-b663-7fcc34f696c6","system_id":"levelo_inurba_marseille","lat":43.25025,"lon":5.38939,"is_reserved":false,"is_disabled":false,"rental_uris":{"android":"levelo://app?vid=88753c20-1be7-4d37-b663-7fcc34f696c6","ios":"levelo://app?vid=88753c20-1be7-4d37-b663-7fcc34f696c6"},"vehicle_type_id":"4","last_reported":1743156661,"current_range_meters":8400,"station_id":"ce4bhgp2rcd13ifvqfd0","pricing_plan_id":"cebpf4jnsgd1na2vs0mg"},{"bike_id":"aac1584d-7a59-4d95-8bad-c8ebe9b0c822","system_id":"levelo_inurba_marseille","lat":43.33628,"lon":5.41029,"is_reserved":false,"is_disabled":false,"rental_uris":{"android":"levelo://app?vid=aac1584d-7a59-4d95-8bad-c8ebe9b0c822","ios":"levelo://app?vid=aac1584d-7a59-4d95-8bad-c8ebe9b0c822"},"vehicle_type_id":"4","last_reported":1743156661,"current_range_meters":8400,"station_id":"ce4bhqh2rcd13ifvqhmg","pricing_plan_id":"cebpf4jnsgd1na2vs0mg"},{"bike_id":"37703b88-0681-4fe0-a352-8323ebd0e7ba","system_id":"levelo_inurba_marseille","lat":43.286134,"lon":5.370658,"is_reserved":false,"is_disabled":false,"rental_uris":{"android":"levelo://app?vid=37703b88-0681-4fe0-a352-8323ebd0e7ba","ios":"levelo://app?vid=37703b88-0681-4fe0-a352-8323ebd0e7ba"},"vehicle_type_id":"4","last_reported":1743156661,"current_range_meters":8400,"station_id":"ce4bht12rcd13ifvqi60","pricing_plan_id":"cebpf4jnsgd1na2vs0mg"},{"bike_id":"25c93242-72e6-4525-aea7-7d96e2cd1825","system_id":"levelo_inurba_marseille","lat":43.33075,"lon":5.40828,"is_reserved":false,"is_disabled":false,"rental_uris":{"android":"levelo://app?vid=25c93242-72e6-4525-aea7-7d96e2cd1825","ios":"levelo://app?vid=25c93242-72e6-4525-aea7-7d96e2cd1825"},"vehicle_type_id":"4","last_reported":1743156661,"current_range_meters":8800,"station_id":"","pricing_plan_id":"cebpf4jnsgd1na2vs0mg"},{"bike_id":"a4e7e5cb-cd86-4ff0-b25a-f8ef958fee3e","system_id":"levelo_inurba_marseille","lat":43.295998,"lon":5.381024,"is_reserved":false,"is_disabled":false,"rental_uris":{"android":"levelo://app?vid=a4e7e5cb-cd86-4ff0-b25a-f8ef958fee3e","ios":"levelo://app?vid=a4e7e5cb-cd86-4ff0-b25a-f8ef958fee3e"},"vehicle_type_id":"4","last_reported":1743156661,"current_range_meters":8800,"station_id":"ce4bgl12rcd13ifvqbo0","pricing_plan_id":"cebpf4jnsgd1na2vs0mg"},{"bike_id":"7c99ff69-1a64-476c-a2a3-967dff6c5393","system_id":"levelo_inurba_marseille","lat":43.290266,"lon":5.386511,"is_reserved":false,"is_disabled":false,"rental_uris":{"android":"levelo://app?vid=7c99ff69-1a64-476c-a2a3-967dff6c5393","ios":"levelo://app?vid=7c99ff69-1a64-476c-a2a3-967dff6c5393"},"vehicle_type_id":"4","last_reported":1743156661,"current_range_meters":8800,"station_id":"ce4bgt12rcd13ifvqcd0","pricing_plan_id":"cebpf4jnsgd1na2vs0mg"},{"bike_id":"3d4ed003-5dd7-48c7-9d12-308f7b625f65","system_id":"levelo_inurba_marseille","lat":43.28427,"lon":5.349773,"is_reserved":false,"is_disabled":false,"rental_uris":{"android":"levelo://app?vid=3d4ed003-5dd7-48c7-9d12-308f7b625f65","ios":"levelo://app?vid=3d4ed003-5dd7-48c7-9d12-308f7b625f65"},"vehicle_type_id":"4","last_reported":1743156661,"current_range_meters":8800,"station_id":"ce4bhbh2rcd13ifvqepg","pricing_plan_id":"cebpf4jnsgd1na2vs0mg"},{"bike_id":"b75654f6-0356-4515-bc6b-f9c13aa3c11a","system_id":"levelo_inurba_marseille","lat":43.27834,"lon":5.39207,"is_reserved":false,"is_disabled":false,"rental_uris":{"android":"levelo://app?vid=b75654f6-0356-4515-bc6b-f9c13aa3c11a","ios":"levelo://app?vid=b75654f6-0356-4515-bc6b-f9c13aa3c11a"},"vehicle_type_id":"4","last_reported":1743156661,"current_range_meters":8800,"station_id":"ce4bhjp2rcd13ifvqga0","pricing_plan_id":"cebpf4jnsgd1na2vs0mg"},{"bike_id":"961245ca-8d90-4d71-b735-61afea929100","system_id":"levelo_inurba_marseille","lat":43.24169,"lon":5.36413,"is_reserved":false,"is_disabled":false,"rental_uris":{"android":"levelo://app?vid=961245ca-8d90-4d71-b735-61afea929100","ios":"levelo://app?vid=961245ca-8d90-4d71-b735-61afea929100"},"vehicle_type_id":"4","last_reported":1743156661,"current_range_meters":8800,"station_id":"cpo36qri1sfpv3e86is0","pricing_plan_id":"cebpf4jnsgd1na2vs0mg"},{"bike_id":"a7b42a67-c447-42fb-9dd8-7e3f11f8d41e","system_id":"levelo_inurba_marseille","lat":43.29542,"lon":5.38547,"is_reserved":false,"is_disabled":false,"rental_uris":{"android":"levelo://app?vid=a7b42a67-c447-42fb-9dd8-7e3f11f8d41e","ios":"levelo://app?vid=a7b42a67-c447-42fb-9dd8-7e3f11f8d41e"},"vehicle_type_id":"4","last_reported":1743156661,"current_range_meters":9200,"station_id":"ce4bgih2rcd13ifvqba0","pricing_plan_id":"cebpf4jnsgd1na2vs0mg"},{"bike_id":"babbd8be-b3d3-4166-80e3-fd5f8229a555","system_id":"levelo_inurba_marseille","lat":43.30148,"lon":5.37409,"is_reserved":false,"is_disabled":false,"rental_uris":{"android":"levelo://app?vid=babbd8be-b3d3-4166-80e3-fd5f8229a555","ios":"levelo://app?vid=babbd8be-b3d3-4166-80e3-fd5f8229a555"},"vehicle_type_id":"4","last_reported":1743156661,"current_range_meters":9200,"station_id":"ce4bgs92rcd13ifvqcc0","pricing_plan_id":"cebpf4jnsgd1na2vs0mg"},{"bike_id":"d2d4ec15-da64-4305-85c8-c60dd8964b05","system_id":"levelo_inurba_marseille","lat":43.30153,"lon":5.37418,"is_reserved":false,"is_disabled":false,"rental_uris":{"android":"levelo://app?vid=d2d4ec15-da64-4305-85c8-c60dd8964b05","ios":"levelo://app?vid=d2d4ec15-da64-4305-85c8-c60dd8964b05"},"vehicle_type_id":"4","last_reported":1743156661,"current_range_meters":9200,"station_id":"ce4bgs92rcd13ifvqcc0","pricing_plan_id":"cebpf4jnsgd1na2vs0mg"},{"bike_id":"02be6c79-b3a8-4b2c-879f-de6f44bc31ed","system_id":"levelo_inurba_marseille","lat":43.306815,"lon":5.394943,"is_reserved":false,"is_disabled":false,"rental_uris":{"android":"levelo://app?vid=02be6c79-b3a8-4b2c-879f-de6f44bc31ed","ios":"levelo://app?vid=02be6c79-b3a8-4b2c-879f-de6f44bc31ed"},"vehicle_type_id":"4","last_reported":1743156661,"current_range_meters":9200,"station_id":"ce4bh012rcd13ifvqd00","pricing_plan_id":"cebpf4jnsgd1na2vs0mg"},{"bike_id":"809e3837-7e44-4a14-a099-0b02ec29b9fc","system_id":"levelo_inurba_marseille","lat":43.28931,"lon":5.36629,"is_reserved":false,"is_disabled":false,"rental_uris":{"android":"levelo://app?vid=809e3837-7e44-4a14-a099-0b02ec29b9fc","ios":"levelo://app?vid=809e3837-7e44-4a14-a099-0b02ec29b9fc"},"vehicle_type_id":"4","last_reported":1743156661,"current_range_meters":9200,"station_id":"ce4bhap2rcd13ifvqek0","pricing_plan_id":"cebpf4jnsgd1na2vs0mg"},{"bike_id":"bc77c38e-7ac8-4135-8642-96b1dae3bdef","system_id":"levelo_inurba_marseille","lat":43.27994,"lon":5.38726,"is_reserved":false,"is_disabled":false,"rental_uris":{"android":"levelo://app?vid=bc77c38e-7ac8-4135-8642-96b1dae3bdef","ios":"levelo://app?vid=bc77c38e-7ac8-4135-8642-96b1dae3bdef"},"vehicle_type_id":"4","last_reported":1743156661,"current_range_meters":9200,"station_id":"ce4bhg12rcd13ifvqf80","pricing_plan_id":"cebpf4jnsgd1na2vs0mg"},{"bike_id":"4a7f2086-416a-43c5-9a30-0b76c387595f","system_id":"levelo_inurba_marseille","lat":43.26064,"lon":5.39397,"is_reserved":false,"is_disabled":false,"rental_uris":{"android":"levelo://app?vid=4a7f2086-416a-43c5-9a30-0b76c387595f","ios":"levelo://app?vid=4a7f2086-416a-43c5-9a30-0b76c387595f"},"vehicle_type_id":"4","last_reported":1743156661,"current_range_meters":9200,"station_id":"ce4bhh92rcd13ifvqfj0","pricing_plan_id":"cebpf4jnsgd1na2vs0mg"},{"bike_id":"2fe844dc-8ce8-4c5e-8278-fcb6909e0a34","system_id":"levelo_inurba_marseille","lat":43.25866,"lon":5.39897,"is_reserved":false,"is_disabled":false,"rental_uris":{"android":"levelo://app?vid=2fe844dc-8ce8-4c5e-8278-fcb6909e0a34","ios":"levelo://app?vid=2fe844dc-8ce8-4c5e-8278-fcb6909e0a34"},"vehicle_type_id":"4","last_reported":1743156661,"current_range_meters":9200,"station_id":"ce4bhl92rcd13ifvqghg","pricing_plan_id":"cebpf4jnsgd1na2vs0mg"},{"bike_id":"39082d30-e1a8-43ec-b492-205d44cd7abd","system_id":"levelo_inurba_marseille","lat":43.251158,"lon":5.403133,"is_reserved":false,"is_disabled":false,"rental_uris":{"android":"levelo://app?vid=39082d30-e1a8-43ec-b492-205d44cd7abd","ios":"levelo://app?vid=39082d30-e1a8-43ec-b492-205d44cd7abd"},"vehicle_type_id":"4","last_reported":1743156661,"current_range_meters":9200,"station_id":"ce4bhn12rcd13ifvqgqg","pricing_plan_id":"cebpf4jnsgd1na2vs0mg"},{"bike_id":"813634ed-e21d-4b9e-88e8-aa8b87581eb3","system_id":"levelo_inurba_marseille","lat":43.32117,"lon":5.36793,"is_reserved":false,"is_disabled":false,"rental_uris":{"android":"levelo://app?vid=813634ed-e21d-4b9e-88e8-aa8b87581eb3","ios":"levelo://app?vid=813634ed-e21d-4b9e-88e8-aa8b87581eb3"},"vehicle_type_id":"4","last_reported":1743156661,"current_range_meters":9200,"station_id":"ce4bhrh2rcd13ifvqhug","pricing_plan_id":"cebpf4jnsgd1na2vs0mg"},{"bike_id":"9973f8e2-048f-4796-a477-fd4ec1771463","system_id":"levelo_inurba_marseille","lat":43.28718,"lon":5.36097,"is_reserved":false,"is_disabled":false,"rental_uris":{"android":"levelo://app?vid=9973f8e2-048f-4796-a477-fd4ec1771463","ios":"levelo://app?vid=9973f8e2-048f-4796-a477-fd4ec1771463"},"vehicle_type_id":"4","last_reported":1743156661,"current_range_meters":9200,"station_id":"cki0cbj6b192h4jlfktg","pricing_plan_id":"cebpf4jnsgd1na2vs0mg"},{"bike_id":"58bbe779-0bb3-4285-9a89-5310df6eee00","system_id":"levelo_inurba_marseille","lat":43.29851,"lon":5.3626,"is_reserved":false,"is_disabled":false,"rental_uris":{"android":"levelo://app?vid=58bbe779-0bb3-4285-9a89-5310df6eee00","ios":"levelo://app?vid=58bbe779-0bb3-4285-9a89-5310df6eee00"},"vehicle_type_id":"4","last_reported":1743156661,"current_range_meters":9600,"station_id":"ce4bgpp2rcd13ifvqc3g","pricing_plan_id":"cebpf4jnsgd1na2vs0mg"},{"bike_id":"3dd691de-19a8-4db5-8853-83ae91ff9c7b","system_id":"levelo_inurba_marseille","lat":43.30561,"lon":5.36541,"is_reserved":false,"is_disabled":false,"rental_uris":{"android":"levelo://app?vid=3dd691de-19a8-4db5-8853-83ae91ff9c7b","ios":"levelo://app?vid=3dd691de-19a8-4db5-8853-83ae91ff9c7b"},"vehicle_type_id":"4","last_reported":1743156661,"current_range_meters":9600,"station_id":"ce4bgs12rcd13ifvqcag","pricing_plan_id":"cebpf4jnsgd1na2vs0mg"},{"bike_id":"39bd3213-cb54-452a-82c9-76db17bf74d5","system_id":"levelo_inurba_marseille","lat":43.30547,"lon":5.36538,"is_reserved":false,"is_disabled":false,"rental_uris":{"android":"levelo://app?vid=39bd3213-cb54-452a-82c9-76db17bf74d5","ios":"levelo://app?vid=39bd3213-cb54-452a-82c9-76db17bf74d5"},"vehicle_type_id":"4","last_reported":1743156661,"current_range_meters":9600,"station_id":"ce4bgs12rcd13ifvqcag","pricing_plan_id":"cebpf4jnsgd1na2vs0mg"},{"bike_id":"fcf5f158-cfc8-43cf-a683-a9cd5c3b7365","system_id":"levelo_inurba_marseille","lat":43.30166,"lon":5.37415,"is_reserved":false,"is_disabled":false,"rental_uris":{"android":"levelo://app?vid=fcf5f158-cfc8-43cf-a683-a9cd5c3b7365","ios":"levelo://app?vid=fcf5f158-cfc8-43cf-a683-a9cd5c3b7365"},"vehicle_type_id":"4","last_reported":1743156661,"current_range_meters":9600,"station_id":"ce4bgs92rcd13ifvqcc0","pricing_plan_id":"cebpf4jnsgd1na2vs0mg"},{"bike_id":"706a1c19-2815-4115-881f-f39c33bbc89c","system_id":"levelo_inurba_marseille","lat":43.25947,"lon":5.4089,"is_reserved":false,"is_disabled":false,"rental_uris":{"android":"levelo://app?vid=706a1c19-2815-4115-881f-f39c33bbc89c","ios":"levelo://app?vid=706a1c19-2815-4115-881f-f39c33bbc89c"},"vehicle_type_id":"4","last_reported":1743156661,"current_range_meters":9600,"station_id":"ce4bhm92rcd13ifvqglg","pricing_plan_id":"cebpf4jnsgd1na2vs0mg"},{"bike_id":"2e919ca5-ce98-4c47-a9d7-66e6ab7584e4","system_id":"levelo_inurba_marseille","lat":43.32098,"lon":5.36772,"is_reserved":false,"is_disabled":false,"rental_uris":{"android":"levelo://app?vid=2e919ca5-ce98-4c47-a9d7-66e6ab7584e4","ios":"levelo://app?vid=2e919ca5-ce98-4c47-a9d7-66e6ab7584e4"},"vehicle_type_id":"4","last_reported":1743156661,"current_range_meters":9600,"station_id":"ce4bhrh2rcd13ifvqhug","pricing_plan_id":"cebpf4jnsgd1na2vs0mg"},{"bike_id":"861ae205-c318-4688-ac53-947993e1b65f","system_id":"levelo_inurba_marseille","lat":43.24165,"lon":5.36396,"is_reserved":false,"is_disabled":false,"rental_uris":{"android":"levelo://app?vid=861ae205-c318-4688-ac53-947993e1b65f","ios":"levelo://app?vid=861ae205-c318-4688-ac53-947993e1b65f"},"vehicle_type_id":"4","last_reported":1743156661,"current_range_meters":9600,"station_id":"cpo36qri1sfpv3e86is0","pricing_plan_id":"cebpf4jnsgd1na2vs0mg"},{"bike_id":"c1540b6f-0cf6-4e50-be6f-ad7ad9bb9404","system_id":"levelo_inurba_marseille","lat":43.305396,"lon":5.365643,"is_reserved":false,"is_disabled":false,"rental_uris":{"android":"levelo://app?vid=c1540b6f-0cf6-4e50-be6f-ad7ad9bb9404","ios":"levelo://app?vid=c1540b6f-0cf6-4e50-be6f-ad7ad9bb9404"},"vehicle_type_id":"4","last_reported":1743156661,"current_range_meters":10000,"station_id":"","pricing_plan_id":"cebpf4jnsgd1na2vs0mg"},{"bike_id":"1c14bf9c-ada4-4a36-8853-740a1a2c000a","system_id":"levelo_inurba_marseille","lat":43.23169,"lon":5.35469,"is_reserved":false,"is_disabled":false,"rental_uris":{"android":"levelo://app?vid=1c14bf9c-ada4-4a36-8853-740a1a2c000a","ios":"levelo://app?vid=1c14bf9c-ada4-4a36-8853-740a1a2c000a"},"vehicle_type_id":"4","last_reported":1743156661,"current_range_meters":10000,"station_id":"","pricing_plan_id":"cebpf4jnsgd1na2vs0mg"},{"bike_id":"14e00f19-48fc-4b76-bb6e-3eee4c46cff1","system_id":"levelo_inurba_marseille","lat":43.313293,"lon":5.367474,"is_reserved":false,"is_disabled":false,"rental_uris":{"android":"levelo://app?vid=14e00f19-48fc-4b76-bb6e-3eee4c46cff1","ios":"levelo://app?vid=14e00f19-48fc-4b76-bb6e-3eee4c46cff1"},"vehicle_type_id":"4","last_reported":1743156661,"current_range_meters":10000,"station_id":"ce4bgr92rcd13ifvqc6g","pricing_plan_id":"cebpf4jnsgd1na2vs0mg"},{"bike_id":"8ad61237-3a27-4a56-a7be-b18f7b46e3b2","system_id":"levelo_inurba_marseille","lat":43.29852,"lon":5.38904,"is_reserved":false,"is_disabled":false,"rental_uris":{"android":"levelo://app?vid=8ad61237-3a27-4a56-a7be-b18f7b46e3b2","ios":"levelo://app?vid=8ad61237-3a27-4a56-a7be-b18f7b46e3b2"},"vehicle_type_id":"4","last_reported":1743156661,"current_range_meters":10000,"station_id":"ce4bh392rcd13ifvqdl0","pricing_plan_id":"cebpf4jnsgd1na2vs0mg"},{"bike_id":"897c5ac3-57de-4861-915f-d8c3e3e79b59","system_id":"levelo_inurba_marseille","lat":43.28271,"lon":5.35068,"is_reserved":false,"is_disabled":false,"rental_uris":{"android":"levelo://app?vid=897c5ac3-57de-4861-915f-d8c3e3e79b59","ios":"levelo://app?vid=897c5ac3-57de-4861-915f-d8c3e3e79b59"},"vehicle_type_id":"4","last_reported":1743156661,"current_range_meters":10000,"station_id":"ce4bhbp2rcd13ifvqerg","pricing_plan_id":"cebpf4jnsgd1na2vs0mg"},{"bike_id":"6387c7e2-b356-4ed9-a010-261115dc73f5","system_id":"levelo_inurba_marseille","lat":43.28274,"lon":5.35066,"is_reserved":false,"is_disabled":false,"rental_uris":{"android":"levelo://app?vid=6387c7e2-b356-4ed9-a010-261115dc73f5","ios":"levelo://app?vid=6387c7e2-b356-4ed9-a010-261115dc73f5"},"vehicle_type_id":"4","last_reported":1743156661,"current_range_meters":10000,"station_id":"ce4bhbp2rcd13ifvqerg","pricing_plan_id":"cebpf4jnsgd1na2vs0mg"},{"bike_id":"0c7c8c97-c432-41cd-96f5-01a03f56e852","system_id":"levelo_inurba_marseille","lat":43.24165,"lon":5.36388,"is_reserved":false,"is_disabled":false,"rental_uris":{"android":"levelo://app?vid=0c7c8c97-c432-41cd-96f5-01a03f56e852","ios":"levelo://app?vid=0c7c8c97-c432-41cd-96f5-01a03f56e852"},"vehicle_type_id":"4","last_reported":1743156661,"current_range_meters":10000,"station_id":"cpo36qri1sfpv3e86is0","pricing_plan_id":"cebpf4jnsgd1na2vs0mg"},{"bike_id":"b30f95ac-b828-44d6-b742-4883a6572fc6","system_id":"levelo_inurba_marseille","lat":43.27096,"lon":5.42736,"is_reserved":false,"is_disabled":false,"rental_uris":{"android":"levelo://app?vid=b30f95ac-b828-44d6-b742-4883a6572fc6","ios":"levelo://app?vid=b30f95ac-b828-44d6-b742-4883a6572fc6"},"vehicle_type_id":"4","last_reported":1743156661,"current_range_meters":10800,"station_id":"","pricing_plan_id":"cebpf4jnsgd1na2vs0mg"},{"bike_id":"c97c28c1-e7cb-4889-9178-00aaca494e86","system_id":"levelo_inurba_marseille","lat":43.29617,"lon":5.38076,"is_reserved":false,"is_disabled":false,"rental_uris":{"android":"levelo://app?vid=c97c28c1-e7cb-4889-9178-00aaca494e86","ios":"levelo://app?vid=c97c28c1-e7cb-4889-9178-00aaca494e86"},"vehicle_type_id":"4","last_reported":1743156661,"current_range_meters":10800,"station_id":"ce4bgl12rcd13ifvqbo0","pricing_plan_id":"cebpf4jnsgd1na2vs0mg"},{"bike_id":"b3e7a910-d0a2-4ee6-bf1d-61008af6cd7b","system_id":"levelo_inurba_marseille","lat":43.30984,"lon":5.36399,"is_reserved":false,"is_disabled":false,"rental_uris":{"android":"levelo://app?vid=b3e7a910-d0a2-4ee6-bf1d-61008af6cd7b","ios":"levelo://app?vid=b3e7a910-d0a2-4ee6-bf1d-61008af6cd7b"},"vehicle_type_id":"4","last_reported":1743156661,"current_range_meters":10800,"station_id":"ce4bgl92rcd13ifvqbq0","pricing_plan_id":"cebpf4jnsgd1na2vs0mg"},{"bike_id":"2562fd30-2017-4006-8376-64771967de5b","system_id":"levelo_inurba_marseille","lat":43.30313,"lon":5.36898,"is_reserved":false,"is_disabled":false,"rental_uris":{"android":"levelo://app?vid=2562fd30-2017-4006-8376-64771967de5b","ios":"levelo://app?vid=2562fd30-2017-4006-8376-64771967de5b"},"vehicle_type_id":"4","last_reported":1743156661,"current_range_meters":10800,"station_id":"ce4bgqh2rcd13ifvqc5g","pricing_plan_id":"cebpf4jnsgd1na2vs0mg"},{"bike_id":"a7ee5c12-ff58-4e6a-b9c7-1334ae66252b","system_id":"levelo_inurba_marseille","lat":43.3055,"lon":5.36557,"is_reserved":false,"is_disabled":false,"rental_uris":{"android":"levelo://app?vid=a7ee5c12-ff58-4e6a-b9c7-1334ae66252b","ios":"levelo://app?vid=a7ee5c12-ff58-4e6a-b9c7-1334ae66252b"},"vehicle_type_id":"4","last_reported":1743156661,"current_range_meters":10800,"station_id":"ce4bgs12rcd13ifvqcag","pricing_plan_id":"cebpf4jnsgd1na2vs0mg"},{"bike_id":"2487664b-6ca6-4300-b86d-a9ce75c31f9e","system_id":"levelo_inurba_marseille","lat":43.30525,"lon":5.36527,"is_reserved":false,"is_disabled":false,"rental_uris":{"android":"levelo://app?vid=2487664b-6ca6-4300-b86d-a9ce75c31f9e","ios":"levelo://app?vid=2487664b-6ca6-4300-b86d-a9ce75c31f9e"},"vehicle_type_id":"4","last_reported":1743156661,"current_range_meters":10800,"station_id":"ce4bgs12rcd13ifvqcag","pricing_plan_id":"cebpf4jnsgd1na2vs0mg"},{"bike_id":"a32dfed9-fff9-4956-8d3a-cbc08255ae84","system_id":"levelo_inurba_marseille","lat":43.30157,"lon":5.37411,"is_reserved":false,"is_disabled":false,"rental_uris":{"android":"levelo://app?vid=a32dfed9-fff9-4956-8d3a-cbc08255ae84","ios":"levelo://app?vid=a32dfed9-fff9-4956-8d3a-cbc08255ae84"},"vehicle_type_id":"4","last_reported":1743156661,"current_range_meters":10800,"station_id":"ce4bgs92rcd13ifvqcc0","pricing_plan_id":"cebpf4jnsgd1na2vs0mg"},{"bike_id":"9ef42804-2b13-43c8-9419-a09a6310f258","system_id":"levelo_inurba_marseille","lat":43.29065,"lon":5.39995,"is_reserved":false,"is_disabled":false,"rental_uris":{"android":"levelo://app?vid=9ef42804-2b13-43c8-9419-a09a6310f258","ios":"levelo://app?vid=9ef42804-2b13-43c8-9419-a09a6310f258"},"vehicle_type_id":"4","last_reported":1743156661,"current_range_meters":10800,"station_id":"ce4bh392rcd13ifvqdm0","pricing_plan_id":"cebpf4jnsgd1na2vs0mg"},{"bike_id":"48e2c67c-4fa3-4736-980a-045d96890ea2","system_id":"levelo_inurba_marseille","lat":43.28743,"lon":5.37924,"is_reserved":false,"is_disabled":false,"rental_uris":{"android":"levelo://app?vid=48e2c67c-4fa3-4736-980a-045d96890ea2","ios":"levelo://app?vid=48e2c67c-4fa3-4736-980a-045d96890ea2"},"vehicle_type_id":"4","last_reported":1743156661,"current_range_meters":10800,"station_id":"ce4bh9p2rcd13ifvqec0","pricing_plan_id":"cebpf4jnsgd1na2vs0mg"},{"bike_id":"d14293dd-eee5-4018-b3b4-7516aab779d9","system_id":"levelo_inurba_marseille","lat":43.289779,"lon":5.378363,"is_reserved":false,"is_disabled":false,"rental_uris":{"android":"levelo://app?vid=d14293dd-eee5-4018-b3b4-7516aab779d9","ios":"levelo://app?vid=d14293dd-eee5-4018-b3b4-7516aab779d9"},"vehicle_type_id":"4","last_reported":1743156661,"current_range_meters":10800,"station_id":"ce4bh9p2rcd13ifvqed0","pricing_plan_id":"cebpf4jnsgd1na2vs0mg"},{"bike_id":"8098bbc3-a65f-453c-8767-2e3df5232689","system_id":"levelo_inurba_marseille","lat":43.24165,"lon":5.36393,"is_reserved":false,"is_disabled":false,"rental_uris":{"android":"levelo://app?vid=8098bbc3-a65f-453c-8767-2e3df5232689","ios":"levelo://app?vid=8098bbc3-a65f-453c-8767-2e3df5232689"},"vehicle_type_id":"4","last_reported":1743156661,"current_range_meters":10800,"station_id":"cpo36qri1sfpv3e86is0","pricing_plan_id":"cebpf4jnsgd1na2vs0mg"},{"bike_id":"0baa6180-a396-4889-b60b-2fa7dd2051e3","system_id":"levelo_inurba_marseille","lat":43.31357,"lon":5.38485,"is_reserved":false,"is_disabled":false,"rental_uris":{"android":"levelo://app?vid=0baa6180-a396-4889-b60b-2fa7dd2051e3","ios":"levelo://app?vid=0baa6180-a396-4889-b60b-2fa7dd2051e3"},"vehicle_type_id":"4","last_reported":1743156661,"current_range_meters":11200,"station_id":"ce4bgt92rcd13ifvqcf0","pricing_plan_id":"cebpf4jnsgd1na2vs0mg"},{"bike_id":"0b720bc5-5877-43f5-9e93-0128bc35670c","system_id":"levelo_inurba_marseille","lat":43.30465,"lon":5.37903,"is_reserved":false,"is_disabled":false,"rental_uris":{"android":"levelo://app?vid=0b720bc5-5877-43f5-9e93-0128bc35670c","ios":"levelo://app?vid=0b720bc5-5877-43f5-9e93-0128bc35670c"},"vehicle_type_id":"4","last_reported":1743156661,"current_range_meters":11200,"station_id":"ce4bgup2rcd13ifvqcn0","pricing_plan_id":"cebpf4jnsgd1na2vs0mg"},{"bike_id":"4f52466c-29c3-4eab-bb2d-2e4d5b61dbce","system_id":"levelo_inurba_marseille","lat":43.28273,"lon":5.35072,"is_reserved":false,"is_disabled":false,"rental_uris":{"android":"levelo://app?vid=4f52466c-29c3-4eab-bb2d-2e4d5b61dbce","ios":"levelo://app?vid=4f52466c-29c3-4eab-bb2d-2e4d5b61dbce"},"vehicle_type_id":"4","last_reported":1743156661,"current_range_meters":11200,"station_id":"ce4bhbp2rcd13ifvqerg","pricing_plan_id":"cebpf4jnsgd1na2vs0mg"},{"bike_id":"aeee719e-56c9-4414-9561-e5b2a78b28a9","system_id":"levelo_inurba_marseille","lat":43.25077,"lon":5.39502,"is_reserved":false,"is_disabled":false,"rental_uris":{"android":"levelo://app?vid=aeee719e-56c9-4414-9561-e5b2a78b28a9","ios":"levelo://app?vid=aeee719e-56c9-4414-9561-e5b2a78b28a9"},"vehicle_type_id":"4","last_reported":1743156661,"current_range_meters":11200,"station_id":"ce4bhm12rcd13ifvqgkg","pricing_plan_id":"cebpf4jnsgd1na2vs0mg"},{"bike_id":"97cf7ede-3bcc-4de6-accb-375196156c51","system_id":"levelo_inurba_marseille","lat":43.29783,"lon":5.38103,"is_reserved":false,"is_disabled":false,"rental_uris":{"android":"levelo://app?vid=97cf7ede-3bcc-4de6-accb-375196156c51","ios":"levelo://app?vid=97cf7ede-3bcc-4de6-accb-375196156c51"},"vehicle_type_id":"4","last_reported":1743156661,"current_range_meters":11600,"station_id":"ce4bgip2rcd13ifvqbb0","pricing_plan_id":"cebpf4jnsgd1na2vs0mg"},{"bike_id":"e6c17d3c-9c18-404e-916c-fed90568fee2","system_id":"levelo_inurba_marseille","lat":43.31357,"lon":5.36702,"is_reserved":false,"is_disabled":false,"rental_uris":{"android":"levelo://app?vid=e6c17d3c-9c18-404e-916c-fed90568fee2","ios":"levelo://app?vid=e6c17d3c-9c18-404e-916c-fed90568fee2"},"vehicle_type_id":"4","last_reported":1743156661,"current_range_meters":11600,"station_id":"ce4bgr92rcd13ifvqc6g","pricing_plan_id":"cebpf4jnsgd1na2vs0mg"},{"bike_id":"6a2fe348-6cb0-44ff-8dd8-1710cf23e712","system_id":"levelo_inurba_marseille","lat":43.29078,"lon":5.37165,"is_reserved":false,"is_disabled":false,"rental_uris":{"android":"levelo://app?vid=6a2fe348-6cb0-44ff-8dd8-1710cf23e712","ios":"levelo://app?vid=6a2fe348-6cb0-44ff-8dd8-1710cf23e712"},"vehicle_type_id":"4","last_reported":1743156661,"current_range_meters":11600,"station_id":"ce4bh5p2rcd13ifvqe4g","pricing_plan_id":"cebpf4jnsgd1na2vs0mg"},{"bike_id":"64f5f101-b622-4bb9-a866-9c8317b34488","system_id":"levelo_inurba_marseille","lat":43.27082,"lon":5.40259,"is_reserved":false,"is_disabled":false,"rental_uris":{"android":"levelo://app?vid=64f5f101-b622-4bb9-a866-9c8317b34488","ios":"levelo://app?vid=64f5f101-b622-4bb9-a866-9c8317b34488"},"vehicle_type_id":"4","last_reported":1743156661,"current_range_meters":11600,"station_id":"ce4bhk92rcd13ifvqgc0","pricing_plan_id":"cebpf4jnsgd1na2vs0mg"},{"bike_id":"3fbcdfd8-5176-471d-aa84-e8e20bb4418e","system_id":"levelo_inurba_marseille","lat":43.32098,"lon":5.36774,"is_reserved":false,"is_disabled":false,"rental_uris":{"android":"levelo://app?vid=3fbcdfd8-5176-471d-aa84-e8e20bb4418e","ios":"levelo://app?vid=3fbcdfd8-5176-471d-aa84-e8e20bb4418e"},"vehicle_type_id":"4","last_reported":1743156661,"current_range_meters":11600,"station_id":"ce4bhrh2rcd13ifvqhug","pricing_plan_id":"cebpf4jnsgd1na2vs0mg"},{"bike_id":"23740949-7e79-4b56-98ee-1d6fbb724564","system_id":"levelo_inurba_marseille","lat":43.29582,"lon":5.37505,"is_reserved":false,"is_disabled":false,"rental_uris":{"android":"levelo://app?vid=23740949-7e79-4b56-98ee-1d6fbb724564","ios":"levelo://app?vid=23740949-7e79-4b56-98ee-1d6fbb724564"},"vehicle_type_id":"4","last_reported":1743156661,"current_range_meters":12000,"station_id":"ce4bgh92rcd13ifvqb50","pricing_plan_id":"cebpf4jnsgd1na2vs0mg"},{"bike_id":"666754fe-4743-4afe-abb2-10e0bfd88001","system_id":"levelo_inurba_marseille","lat":43.29913,"lon":5.37471,"is_reserved":false,"is_disabled":false,"rental_uris":{"android":"levelo://app?vid=666754fe-4743-4afe-abb2-10e0bfd88001","ios":"levelo://app?vid=666754fe-4743-4afe-abb2-10e0bfd88001"},"vehicle_type_id":"4","last_reported":1743156661,"current_range_meters":12000,"station_id":"ce4bgjh2rcd13ifvqbg0","pricing_plan_id":"cebpf4jnsgd1na2vs0mg"},{"bike_id":"8835044a-99dc-4a56-8143-58ba6080e224","system_id":"levelo_inurba_marseille","lat":43.30541,"lon":5.3654,"is_reserved":false,"is_disabled":false,"rental_uris":{"android":"levelo://app?vid=8835044a-99dc-4a56-8143-58ba6080e224","ios":"levelo://app?vid=8835044a-99dc-4a56-8143-58ba6080e224"},"vehicle_type_id":"4","last_reported":1743156661,"current_range_meters":12000,"station_id":"ce4bgs12rcd13ifvqcag","pricing_plan_id":"cebpf4jnsgd1na2vs0mg"},{"bike_id":"58643b71-d571-418b-bdee-cb649d06c3ca","system_id":"levelo_inurba_marseille","lat":43.29056,"lon":5.39988,"is_reserved":false,"is_disabled":false,"rental_uris":{"android":"levelo://app?vid=58643b71-d571-418b-bdee-cb649d06c3ca","ios":"levelo://app?vid=58643b71-d571-418b-bdee-cb649d06c3ca"},"vehicle_type_id":"4","last_reported":1743156661,"current_range_meters":12000,"station_id":"ce4bh392rcd13ifvqdm0","pricing_plan_id":"cebpf4jnsgd1na2vs0mg"},{"bike_id":"39ea9b72-b36d-4fca-9b38-2d6234508e2b","system_id":"levelo_inurba_marseille","lat":43.2737,"lon":5.36246,"is_reserved":false,"is_disabled":false,"rental_uris":{"android":"levelo://app?vid=39ea9b72-b36d-4fca-9b38-2d6234508e2b","ios":"levelo://app?vid=39ea9b72-b36d-4fca-9b38-2d6234508e2b"},"vehicle_type_id":"4","last_reported":1743156661,"current_range_meters":12000,"station_id":"ce4bhbh2rcd13ifvqeo0","pricing_plan_id":"cebpf4jnsgd1na2vs0mg"},{"bike_id":"8c740aa7-c288-4bee-bba3-bfa8560b37ac","system_id":"levelo_inurba_marseille","lat":43.26198,"lon":5.3793,"is_reserved":false,"is_disabled":false,"rental_uris":{"android":"levelo://app?vid=8c740aa7-c288-4bee-bba3-bfa8560b37ac","ios":"levelo://app?vid=8c740aa7-c288-4bee-bba3-bfa8560b37ac"},"vehicle_type_id":"4","last_reported":1743156661,"current_range_meters":12000,"station_id":"ce4bhjp2rcd13ifvqg90","pricing_plan_id":"cebpf4jnsgd1na2vs0mg"},{"bike_id":"67fed4e3-1acb-48c1-9e11-11d9c5d5413b","system_id":"levelo_inurba_marseille","lat":43.23156,"lon":5.43711,"is_reserved":false,"is_disabled":false,"rental_uris":{"android":"levelo://app?vid=67fed4e3-1acb-48c1-9e11-11d9c5d5413b","ios":"levelo://app?vid=67fed4e3-1acb-48c1-9e11-11d9c5d5413b"},"vehicle_type_id":"4","last_reported":1743156661,"current_range_meters":12000,"station_id":"ce4bhmp2rcd13ifvqgog","pricing_plan_id":"cebpf4jnsgd1na2vs0mg"},{"bike_id":"c527ac51-4362-4d1f-b9e1-306c1ebece74","system_id":"levelo_inurba_marseille","lat":43.29895,"lon":5.43679,"is_reserved":false,"is_disabled":false,"rental_uris":{"android":"levelo://app?vid=c527ac51-4362-4d1f-b9e1-306c1ebece74","ios":"levelo://app?vid=c527ac51-4362-4d1f-b9e1-306c1ebece74"},"vehicle_type_id":"4","last_reported":1743156661,"current_range_meters":12000,"station_id":"ce4bhpp2rcd13ifvqhfg","pricing_plan_id":"cebpf4jnsgd1na2vs0mg"},{"bike_id":"6cbddcc1-9609-4503-9874-4b78c26df24e","system_id":"levelo_inurba_marseille","lat":43.32108,"lon":5.3676,"is_reserved":false,"is_disabled":false,"rental_uris":{"android":"levelo://app?vid=6cbddcc1-9609-4503-9874-4b78c26df24e","ios":"levelo://app?vid=6cbddcc1-9609-4503-9874-4b78c26df24e"},"vehicle_type_id":"4","last_reported":1743156661,"current_range_meters":12000,"station_id":"ce4bhrh2rcd13ifvqhug","pricing_plan_id":"cebpf4jnsgd1na2vs0mg"},{"bike_id":"68e9fc26-8998-4bf7-8da8-af47209f9b7c","system_id":"levelo_inurba_marseille","lat":43.32091,"lon":5.36758,"is_reserved":false,"is_disabled":false,"rental_uris":{"android":"levelo://app?vid=68e9fc26-8998-4bf7-8da8-af47209f9b7c","ios":"levelo://app?vid=68e9fc26-8998-4bf7-8da8-af47209f9b7c"},"vehicle_type_id":"4","last_reported":1743156661,"current_range_meters":12000,"station_id":"ce4bhrh2rcd13ifvqhug","pricing_plan_id":"cebpf4jnsgd1na2vs0mg"},{"bike_id":"65c86302-8ef0-46f4-ab6e-bac7149a2865","system_id":"levelo_inurba_marseille","lat":43.32091,"lon":5.36753,"is_reserved":false,"is_disabled":false,"rental_uris":{"android":"levelo://app?vid=65c86302-8ef0-46f4-ab6e-bac7149a2865","ios":"levelo://app?vid=65c86302-8ef0-46f4-ab6e-bac7149a2865"},"vehicle_type_id":"4","last_reported":1743156661,"current_range_meters":12000,"station_id":"ce4bhrh2rcd13ifvqhug","pricing_plan_id":"cebpf4jnsgd1na2vs0mg"},{"bike_id":"4215d03c-19c0-49eb-b61f-da2d6ee28213","system_id":"levelo_inurba_marseille","lat":43.26944,"lon":5.40256,"is_reserved":false,"is_disabled":false,"rental_uris":{"android":"levelo://app?vid=4215d03c-19c0-49eb-b61f-da2d6ee28213","ios":"levelo://app?vid=4215d03c-19c0-49eb-b61f-da2d6ee28213"},"vehicle_type_id":"4","last_reported":1743156661,"current_range_meters":12000,"station_id":"cjm6bp8fraef2m0cb0m0","pricing_plan_id":"cebpf4jnsgd1na2vs0mg"},{"bike_id":"26c381c1-d5b0-473d-ab61-dddc39be4dc8","system_id":"levelo_inurba_marseille","lat":43.30153,"lon":5.38777,"is_reserved":false,"is_disabled":false,"rental_uris":{"android":"levelo://app?vid=26c381c1-d5b0-473d-ab61-dddc39be4dc8","ios":"levelo://app?vid=26c381c1-d5b0-473d-ab61-dddc39be4dc8"},"vehicle_type_id":"4","last_reported":1743156661,"current_range_meters":12400,"station_id":"ce4bghh2rcd13ifvqb60","pricing_plan_id":"cebpf4jnsgd1na2vs0mg"},{"bike_id":"0c0c65a9-6aa7-49b7-a45d-3a4b49cda458","system_id":"levelo_inurba_marseille","lat":43.29622,"lon":5.38105,"is_reserved":false,"is_disabled":false,"rental_uris":{"android":"levelo://app?vid=0c0c65a9-6aa7-49b7-a45d-3a4b49cda458","ios":"levelo://app?vid=0c0c65a9-6aa7-49b7-a45d-3a4b49cda458"},"vehicle_type_id":"4","last_reported":1743156661,"current_range_meters":12400,"station_id":"ce4bgl12rcd13ifvqbo0","pricing_plan_id":"cebpf4jnsgd1na2vs0mg"},{"bike_id":"80c93746-ab1e-4258-9005-eff6559b7617","system_id":"levelo_inurba_marseille","lat":43.28607,"lon":5.35092,"is_reserved":false,"is_disabled":false,"rental_uris":{"android":"levelo://app?vid=80c93746-ab1e-4258-9005-eff6559b7617","ios":"levelo://app?vid=80c93746-ab1e-4258-9005-eff6559b7617"},"vehicle_type_id":"4","last_reported":1743156661,"current_range_meters":12400,"station_id":"ce4bhch2rcd13ifvqeug","pricing_plan_id":"cebpf4jnsgd1na2vs0mg"},{"bike_id":"f4e06974-3aa7-4322-ae82-e37b599bd573","system_id":"levelo_inurba_marseille","lat":43.274159,"lon":5.394264,"is_reserved":false,"is_disabled":false,"rental_uris":{"android":"levelo://app?vid=f4e06974-3aa7-4322-ae82-e37b599bd573","ios":"levelo://app?vid=f4e06974-3aa7-4322-ae82-e37b599bd573"},"vehicle_type_id":"4","last_reported":1743156661,"current_range_meters":12400,"station_id":"ce4bhdp2rcd13ifvqf20","pricing_plan_id":"cebpf4jnsgd1na2vs0mg"},{"bike_id":"d2be6ce3-8e79-4804-b0d3-008c875e7b9d","system_id":"levelo_inurba_marseille","lat":43.26198,"lon":5.37926,"is_reserved":false,"is_disabled":false,"rental_uris":{"android":"levelo://app?vid=d2be6ce3-8e79-4804-b0d3-008c875e7b9d","ios":"levelo://app?vid=d2be6ce3-8e79-4804-b0d3-008c875e7b9d"},"vehicle_type_id":"4","last_reported":1743156661,"current_range_meters":12400,"station_id":"ce4bhjp2rcd13ifvqg90","pricing_plan_id":"cebpf4jnsgd1na2vs0mg"},{"bike_id":"09c7d7fe-5f38-4c9c-8139-ebed1c3ab803","system_id":"levelo_inurba_marseille","lat":43.25921,"lon":5.40871,"is_reserved":false,"is_disabled":false,"rental_uris":{"android":"levelo://app?vid=09c7d7fe-5f38-4c9c-8139-ebed1c3ab803","ios":"levelo://app?vid=09c7d7fe-5f38-4c9c-8139-ebed1c3ab803"},"vehicle_type_id":"4","last_reported":1743156661,"current_range_meters":12400,"station_id":"ce4bhm92rcd13ifvqglg","pricing_plan_id":"cebpf4jnsgd1na2vs0mg"},{"bike_id":"ed5b343e-8271-4d1b-9996-58c77ddfc219","system_id":"levelo_inurba_marseille","lat":43.25937,"lon":5.4091,"is_reserved":false,"is_disabled":false,"rental_uris":{"android":"levelo://app?vid=ed5b343e-8271-4d1b-9996-58c77ddfc219","ios":"levelo://app?vid=ed5b343e-8271-4d1b-9996-58c77ddfc219"},"vehicle_type_id":"4","last_reported":1743156661,"current_range_meters":12400,"station_id":"ce4bhm92rcd13ifvqglg","pricing_plan_id":"cebpf4jnsgd1na2vs0mg"},{"bike_id":"aed2caaf-e63e-4d9f-9fab-effd4b56045d","system_id":"levelo_inurba_marseille","lat":43.26229,"lon":5.40456,"is_reserved":false,"is_disabled":false,"rental_uris":{"android":"levelo://app?vid=aed2caaf-e63e-4d9f-9fab-effd4b56045d","ios":"levelo://app?vid=aed2caaf-e63e-4d9f-9fab-effd4b56045d"},"vehicle_type_id":"4","last_reported":1743156661,"current_range_meters":12400,"station_id":"ce4bhmh2rcd13ifvqgmg","pricing_plan_id":"cebpf4jnsgd1na2vs0mg"},{"bike_id":"f1a2373e-4523-4bac-9c0d-f1963f1648a1","system_id":"levelo_inurba_marseille","lat":43.33605,"lon":5.41026,"is_reserved":false,"is_disabled":false,"rental_uris":{"android":"levelo://app?vid=f1a2373e-4523-4bac-9c0d-f1963f1648a1","ios":"levelo://app?vid=f1a2373e-4523-4bac-9c0d-f1963f1648a1"},"vehicle_type_id":"4","last_reported":1743156661,"current_range_meters":12400,"station_id":"ce4bhqh2rcd13ifvqhmg","pricing_plan_id":"cebpf4jnsgd1na2vs0mg"},{"bike_id":"9f2583cf-461d-4d57-8c37-99ef1e89cade","system_id":"levelo_inurba_marseille","lat":43.232015,"lon":5.355601,"is_reserved":false,"is_disabled":false,"rental_uris":{"android":"levelo://app?vid=9f2583cf-461d-4d57-8c37-99ef1e89cade","ios":"levelo://app?vid=9f2583cf-461d-4d57-8c37-99ef1e89cade"},"vehicle_type_id":"4","last_reported":1743156661,"current_range_meters":12400,"station_id":"ce4bhu92rcd13ifvqi70","pricing_plan_id":"cebpf4jnsgd1na2vs0mg"},{"bike_id":"eb51819c-988b-483b-b41b-6e554c39b30e","system_id":"levelo_inurba_marseille","lat":43.29358,"lon":5.3784,"is_reserved":false,"is_disabled":false,"rental_uris":{"android":"levelo://app?vid=eb51819c-988b-483b-b41b-6e554c39b30e","ios":"levelo://app?vid=eb51819c-988b-483b-b41b-6e554c39b30e"},"vehicle_type_id":"4","last_reported":1743156661,"current_range_meters":12800,"station_id":"ce4bgjh2rcd13ifvqbf0","pricing_plan_id":"cebpf4jnsgd1na2vs0mg"},{"bike_id":"cbb0a97e-e113-4b33-be49-7726752e7f63","system_id":"levelo_inurba_marseille","lat":43.30308,"lon":5.36892,"is_reserved":false,"is_disabled":false,"rental_uris":{"android":"levelo://app?vid=cbb0a97e-e113-4b33-be49-7726752e7f63","ios":"levelo://app?vid=cbb0a97e-e113-4b33-be49-7726752e7f63"},"vehicle_type_id":"4","last_reported":1743156661,"current_range_meters":12800,"station_id":"ce4bgqh2rcd13ifvqc5g","pricing_plan_id":"cebpf4jnsgd1na2vs0mg"},{"bike_id":"52d3653b-04a8-4ed6-bc62-5cef2a068b3e","system_id":"levelo_inurba_marseille","lat":43.290474,"lon":5.399731,"is_reserved":false,"is_disabled":false,"rental_uris":{"android":"levelo://app?vid=52d3653b-04a8-4ed6-bc62-5cef2a068b3e","ios":"levelo://app?vid=52d3653b-04a8-4ed6-bc62-5cef2a068b3e"},"vehicle_type_id":"4","last_reported":1743156661,"current_range_meters":12800,"station_id":"ce4bh392rcd13ifvqdm0","pricing_plan_id":"cebpf4jnsgd1na2vs0mg"},{"bike_id":"fbd57be8-12a1-45d0-921b-90333f7acdfe","system_id":"levelo_inurba_marseille","lat":43.29052,"lon":5.39941,"is_reserved":false,"is_disabled":false,"rental_uris":{"android":"levelo://app?vid=fbd57be8-12a1-45d0-921b-90333f7acdfe","ios":"levelo://app?vid=fbd57be8-12a1-45d0-921b-90333f7acdfe"},"vehicle_type_id":"4","last_reported":1743156661,"current_range_meters":12800,"station_id":"ce4bh392rcd13ifvqdm0","pricing_plan_id":"cebpf4jnsgd1na2vs0mg"},{"bike_id":"73035fb5-ca83-4287-8a39-387c9a8b8df0","system_id":"levelo_inurba_marseille","lat":43.25014,"lon":5.38942,"is_reserved":false,"is_disabled":false,"rental_uris":{"android":"levelo://app?vid=73035fb5-ca83-4287-8a39-387c9a8b8df0","ios":"levelo://app?vid=73035fb5-ca83-4287-8a39-387c9a8b8df0"},"vehicle_type_id":"4","last_reported":1743156661,"current_range_meters":12800,"station_id":"ce4bhgp2rcd13ifvqfd0","pricing_plan_id":"cebpf4jnsgd1na2vs0mg"},{"bike_id":"a805ce19-e2cd-467e-88c9-cbd42ac61988","system_id":"levelo_inurba_marseille","lat":43.26794,"lon":5.3942,"is_reserved":false,"is_disabled":false,"rental_uris":{"android":"levelo://app?vid=a805ce19-e2cd-467e-88c9-cbd42ac61988","ios":"levelo://app?vid=a805ce19-e2cd-467e-88c9-cbd42ac61988"},"vehicle_type_id":"4","last_reported":1743156661,"current_range_meters":12800,"station_id":"ce4bhh12rcd13ifvqfg0","pricing_plan_id":"cebpf4jnsgd1na2vs0mg"},{"bike_id":"e1d099e7-ea2d-4275-b2ce-48b7b119ac6c","system_id":"levelo_inurba_marseille","lat":43.26931,"lon":5.38899,"is_reserved":false,"is_disabled":false,"rental_uris":{"android":"levelo://app?vid=e1d099e7-ea2d-4275-b2ce-48b7b119ac6c","ios":"levelo://app?vid=e1d099e7-ea2d-4275-b2ce-48b7b119ac6c"},"vehicle_type_id":"4","last_reported":1743156661,"current_range_meters":12800,"station_id":"ce4bhhh2rcd13ifvqfl0","pricing_plan_id":"cebpf4jnsgd1na2vs0mg"},{"bike_id":"e292ccc6-c8e0-41e5-a88f-cbc53184cb32","system_id":"levelo_inurba_marseille","lat":43.26202,"lon":5.37928,"is_reserved":false,"is_disabled":false,"rental_uris":{"android":"levelo://app?vid=e292ccc6-c8e0-41e5-a88f-cbc53184cb32","ios":"levelo://app?vid=e292ccc6-c8e0-41e5-a88f-cbc53184cb32"},"vehicle_type_id":"4","last_reported":1743156661,"current_range_meters":12800,"station_id":"ce4bhjp2rcd13ifvqg90","pricing_plan_id":"cebpf4jnsgd1na2vs0mg"},{"bike_id":"686fc418-c334-45ca-864e-831bc5025762","system_id":"levelo_inurba_marseille","lat":43.231455,"lon":5.436938,"is_reserved":false,"is_disabled":false,"rental_uris":{"android":"levelo://app?vid=686fc418-c334-45ca-864e-831bc5025762","ios":"levelo://app?vid=686fc418-c334-45ca-864e-831bc5025762"},"vehicle_type_id":"4","last_reported":1743156661,"current_range_meters":12800,"station_id":"ce4bhmp2rcd13ifvqgog","pricing_plan_id":"cebpf4jnsgd1na2vs0mg"},{"bike_id":"fb348b09-6abb-47a4-a266-91f2eeaee291","system_id":"levelo_inurba_marseille","lat":43.32125,"lon":5.36791,"is_reserved":false,"is_disabled":false,"rental_uris":{"android":"levelo://app?vid=fb348b09-6abb-47a4-a266-91f2eeaee291","ios":"levelo://app?vid=fb348b09-6abb-47a4-a266-91f2eeaee291"},"vehicle_type_id":"4","last_reported":1743156661,"current_range_meters":12800,"station_id":"ce4bhrh2rcd13ifvqhug","pricing_plan_id":"cebpf4jnsgd1na2vs0mg"},{"bike_id":"c6c8fb31-86de-4758-859b-e74b70125ab7","system_id":"levelo_inurba_marseille","lat":43.32092,"lon":5.36757,"is_reserved":false,"is_disabled":false,"rental_uris":{"android":"levelo://app?vid=c6c8fb31-86de-4758-859b-e74b70125ab7","ios":"levelo://app?vid=c6c8fb31-86de-4758-859b-e74b70125ab7"},"vehicle_type_id":"4","last_reported":1743156661,"current_range_meters":12800,"station_id":"ce4bhrh2rcd13ifvqhug","pricing_plan_id":"cebpf4jnsgd1na2vs0mg"},{"bike_id":"a14d2f5b-a67f-4531-9cee-0daafb3a3757","system_id":"levelo_inurba_marseille","lat":43.300901,"lon":5.390793,"is_reserved":false,"is_disabled":false,"rental_uris":{"android":"levelo://app?vid=a14d2f5b-a67f-4531-9cee-0daafb3a3757","ios":"levelo://app?vid=a14d2f5b-a67f-4531-9cee-0daafb3a3757"},"vehicle_type_id":"4","last_reported":1743156661,"current_range_meters":13600,"station_id":"ce4bgi92rcd13ifvqb90","pricing_plan_id":"cebpf4jnsgd1na2vs0mg"},{"bike_id":"63bdbaa3-010b-4c23-9629-cc39dc98d485","system_id":"levelo_inurba_marseille","lat":43.29797,"lon":5.38105,"is_reserved":false,"is_disabled":false,"rental_uris":{"android":"levelo://app?vid=63bdbaa3-010b-4c23-9629-cc39dc98d485","ios":"levelo://app?vid=63bdbaa3-010b-4c23-9629-cc39dc98d485"},"vehicle_type_id":"4","last_reported":1743156661,"current_range_meters":13600,"station_id":"ce4bgip2rcd13ifvqbb0","pricing_plan_id":"cebpf4jnsgd1na2vs0mg"},{"bike_id":"08f0510e-f9c3-48ba-9acd-b312aefc5502","system_id":"levelo_inurba_marseille","lat":43.30538,"lon":5.36555,"is_reserved":false,"is_disabled":false,"rental_uris":{"android":"levelo://app?vid=08f0510e-f9c3-48ba-9acd-b312aefc5502","ios":"levelo://app?vid=08f0510e-f9c3-48ba-9acd-b312aefc5502"},"vehicle_type_id":"4","last_reported":1743156661,"current_range_meters":13600,"station_id":"ce4bgs12rcd13ifvqcag","pricing_plan_id":"cebpf4jnsgd1na2vs0mg"},{"bike_id":"028741e1-3189-41b4-85e1-82106cb670d4","system_id":"levelo_inurba_marseille","lat":43.29188,"lon":5.39313,"is_reserved":false,"is_disabled":false,"rental_uris":{"android":"levelo://app?vid=028741e1-3189-41b4-85e1-82106cb670d4","ios":"levelo://app?vid=028741e1-3189-41b4-85e1-82106cb670d4"},"vehicle_type_id":"4","last_reported":1743156661,"current_range_meters":13600,"station_id":"ce4bh192rcd13ifvqdd0","pricing_plan_id":"cebpf4jnsgd1na2vs0mg"},{"bike_id":"9f4a7ed6-290f-4ac1-b05e-471b2f21c37d","system_id":"levelo_inurba_marseille","lat":43.27372,"lon":5.3625,"is_reserved":false,"is_disabled":false,"rental_uris":{"android":"levelo://app?vid=9f4a7ed6-290f-4ac1-b05e-471b2f21c37d","ios":"levelo://app?vid=9f4a7ed6-290f-4ac1-b05e-471b2f21c37d"},"vehicle_type_id":"4","last_reported":1743156661,"current_range_meters":13600,"station_id":"ce4bhbh2rcd13ifvqeo0","pricing_plan_id":"cebpf4jnsgd1na2vs0mg"},{"bike_id":"7cc049d6-6698-492b-81cd-895e04248353","system_id":"levelo_inurba_marseille","lat":43.2721,"lon":5.39161,"is_reserved":false,"is_disabled":false,"rental_uris":{"android":"levelo://app?vid=7cc049d6-6698-492b-81cd-895e04248353","ios":"levelo://app?vid=7cc049d6-6698-492b-81cd-895e04248353"},"vehicle_type_id":"4","last_reported":1743156661,"current_range_meters":13600,"station_id":"ce4bhhp2rcd13ifvqfm0","pricing_plan_id":"cebpf4jnsgd1na2vs0mg"},{"bike_id":"3faa97ce-3ba0-4e77-8bb2-6312c3dcea55","system_id":"levelo_inurba_marseille","lat":43.27995,"lon":5.4002,"is_reserved":false,"is_disabled":false,"rental_uris":{"android":"levelo://app?vid=3faa97ce-3ba0-4e77-8bb2-6312c3dcea55","ios":"levelo://app?vid=3faa97ce-3ba0-4e77-8bb2-6312c3dcea55"},"vehicle_type_id":"4","last_reported":1743156661,"current_range_meters":13600,"station_id":"ce4bho92rcd13ifvqh4g","pricing_plan_id":"cebpf4jnsgd1na2vs0mg"},{"bike_id":"e343c8e4-e2d7-4590-a6ec-f0d62953f2a4","system_id":"levelo_inurba_marseille","lat":43.29033,"lon":5.38655,"is_reserved":false,"is_disabled":false,"rental_uris":{"android":"levelo://app?vid=e343c8e4-e2d7-4590-a6ec-f0d62953f2a4","ios":"levelo://app?vid=e343c8e4-e2d7-4590-a6ec-f0d62953f2a4"},"vehicle_type_id":"4","last_reported":1743156661,"current_range_meters":14000,"station_id":"ce4bh4p2rcd13ifvqe0g","pricing_plan_id":"cebpf4jnsgd1na2vs0mg"},{"bike_id":"5d9847a2-5282-43b5-82c8-402b1d0a35a7","system_id":"levelo_inurba_marseille","lat":43.27819,"lon":5.40711,"is_reserved":false,"is_disabled":false,"rental_uris":{"android":"levelo://app?vid=5d9847a2-5282-43b5-82c8-402b1d0a35a7","ios":"levelo://app?vid=5d9847a2-5282-43b5-82c8-402b1d0a35a7"},"vehicle_type_id":"4","last_reported":1743156661,"current_range_meters":14000,"station_id":"ce4bhnh2rcd13ifvqgtg","pricing_plan_id":"cebpf4jnsgd1na2vs0mg"},{"bike_id":"548bc682-8245-484f-aa04-a5cf929d5369","system_id":"levelo_inurba_marseille","lat":43.33609,"lon":5.41024,"is_reserved":false,"is_disabled":false,"rental_uris":{"android":"levelo://app?vid=548bc682-8245-484f-aa04-a5cf929d5369","ios":"levelo://app?vid=548bc682-8245-484f-aa04-a5cf929d5369"},"vehicle_type_id":"4","last_reported":1743156661,"current_range_meters":14000,"station_id":"ce4bhqh2rcd13ifvqhmg","pricing_plan_id":"cebpf4jnsgd1na2vs0mg"},{"bike_id":"c14b619a-d8da-4bbf-846f-02b7c7eb6274","system_id":"levelo_inurba_marseille","lat":43.32096,"lon":5.36776,"is_reserved":false,"is_disabled":false,"rental_uris":{"android":"levelo://app?vid=c14b619a-d8da-4bbf-846f-02b7c7eb6274","ios":"levelo://app?vid=c14b619a-d8da-4bbf-846f-02b7c7eb6274"},"vehicle_type_id":"4","last_reported":1743156661,"current_range_meters":14000,"station_id":"ce4bhrh2rcd13ifvqhug","pricing_plan_id":"cebpf4jnsgd1na2vs0mg"},{"bike_id":"bb032d41-f8f4-4589-adfd-2ec26ea48751","system_id":"levelo_inurba_marseille","lat":43.30313,"lon":5.36892,"is_reserved":false,"is_disabled":false,"rental_uris":{"android":"levelo://app?vid=bb032d41-f8f4-4589-adfd-2ec26ea48751","ios":"levelo://app?vid=bb032d41-f8f4-4589-adfd-2ec26ea48751"},"vehicle_type_id":"4","last_reported":1743156661,"current_range_meters":14400,"station_id":"ce4bgqh2rcd13ifvqc5g","pricing_plan_id":"cebpf4jnsgd1na2vs0mg"},{"bike_id":"eb05348b-a94a-445f-a5dc-25d7e3b15011","system_id":"levelo_inurba_marseille","lat":43.30136,"lon":5.37419,"is_reserved":false,"is_disabled":false,"rental_uris":{"android":"levelo://app?vid=eb05348b-a94a-445f-a5dc-25d7e3b15011","ios":"levelo://app?vid=eb05348b-a94a-445f-a5dc-25d7e3b15011"},"vehicle_type_id":"4","last_reported":1743156661,"current_range_meters":14400,"station_id":"ce4bgs92rcd13ifvqcc0","pricing_plan_id":"cebpf4jnsgd1na2vs0mg"},{"bike_id":"a5e58861-fe45-4871-8b8e-3d30e7aad627","system_id":"levelo_inurba_marseille","lat":43.25091,"lon":5.39523,"is_reserved":false,"is_disabled":false,"rental_uris":{"android":"levelo://app?vid=a5e58861-fe45-4871-8b8e-3d30e7aad627","ios":"levelo://app?vid=a5e58861-fe45-4871-8b8e-3d30e7aad627"},"vehicle_type_id":"4","last_reported":1743156661,"current_range_meters":14400,"station_id":"ce4bhm12rcd13ifvqgkg","pricing_plan_id":"cebpf4jnsgd1na2vs0mg"},{"bike_id":"aceadaa2-db7b-4a54-8776-2e3d27bd71ec","system_id":"levelo_inurba_marseille","lat":43.25913,"lon":5.4089,"is_reserved":false,"is_disabled":false,"rental_uris":{"android":"levelo://app?vid=aceadaa2-db7b-4a54-8776-2e3d27bd71ec","ios":"levelo://app?vid=aceadaa2-db7b-4a54-8776-2e3d27bd71ec"},"vehicle_type_id":"4","last_reported":1743156661,"current_range_meters":14400,"station_id":"ce4bhm92rcd13ifvqglg","pricing_plan_id":"cebpf4jnsgd1na2vs0mg"},{"bike_id":"78e15e74-3315-4ccd-afab-ef4e34b4ae70","system_id":"levelo_inurba_marseille","lat":43.33598,"lon":5.41,"is_reserved":false,"is_disabled":false,"rental_uris":{"android":"levelo://app?vid=78e15e74-3315-4ccd-afab-ef4e34b4ae70","ios":"levelo://app?vid=78e15e74-3315-4ccd-afab-ef4e34b4ae70"},"vehicle_type_id":"4","last_reported":1743156661,"current_range_meters":14400,"station_id":"ce4bhqh2rcd13ifvqhmg","pricing_plan_id":"cebpf4jnsgd1na2vs0mg"},{"bike_id":"d67d8652-0f04-45a0-b34d-bbd8839b9d56","system_id":"levelo_inurba_marseille","lat":43.2629,"lon":5.38817,"is_reserved":false,"is_disabled":false,"rental_uris":{"android":"levelo://app?vid=d67d8652-0f04-45a0-b34d-bbd8839b9d56","ios":"levelo://app?vid=d67d8652-0f04-45a0-b34d-bbd8839b9d56"},"vehicle_type_id":"4","last_reported":1743156661,"current_range_meters":14800,"station_id":"","pricing_plan_id":"cebpf4jnsgd1na2vs0mg"},{"bike_id":"2a4898bb-c41c-470a-8887-9f71b827c168","system_id":"levelo_inurba_marseille","lat":43.29792,"lon":5.38081,"is_reserved":false,"is_disabled":false,"rental_uris":{"android":"levelo://app?vid=2a4898bb-c41c-470a-8887-9f71b827c168","ios":"levelo://app?vid=2a4898bb-c41c-470a-8887-9f71b827c168"},"vehicle_type_id":"4","last_reported":1743156661,"current_range_meters":14800,"station_id":"ce4bgip2rcd13ifvqbb0","pricing_plan_id":"cebpf4jnsgd1na2vs0mg"},{"bike_id":"212c8e98-dbd0-430f-965c-a5211ae16902","system_id":"levelo_inurba_marseille","lat":43.25087,"lon":5.395,"is_reserved":false,"is_disabled":false,"rental_uris":{"android":"levelo://app?vid=212c8e98-dbd0-430f-965c-a5211ae16902","ios":"levelo://app?vid=212c8e98-dbd0-430f-965c-a5211ae16902"},"vehicle_type_id":"4","last_reported":1743156661,"current_range_meters":14800,"station_id":"ce4bhm12rcd13ifvqgkg","pricing_plan_id":"cebpf4jnsgd1na2vs0mg"},{"bike_id":"983c4c9f-ee1a-4d13-8ce7-bfd36c479f46","system_id":"levelo_inurba_marseille","lat":43.24177,"lon":5.3638,"is_reserved":false,"is_disabled":false,"rental_uris":{"android":"levelo://app?vid=983c4c9f-ee1a-4d13-8ce7-bfd36c479f46","ios":"levelo://app?vid=983c4c9f-ee1a-4d13-8ce7-bfd36c479f46"},"vehicle_type_id":"4","last_reported":1743156661,"current_range_meters":14800,"station_id":"cpo36qri1sfpv3e86is0","pricing_plan_id":"cebpf4jnsgd1na2vs0mg"},{"bike_id":"b70f080a-4a2b-4cf7-8754-c10d7972e2dc","system_id":"levelo_inurba_marseille","lat":43.26756,"lon":5.38352,"is_reserved":false,"is_disabled":false,"rental_uris":{"android":"levelo://app?vid=b70f080a-4a2b-4cf7-8754-c10d7972e2dc","ios":"levelo://app?vid=b70f080a-4a2b-4cf7-8754-c10d7972e2dc"},"vehicle_type_id":"4","last_reported":1743156661,"current_range_meters":15200,"station_id":"","pricing_plan_id":"cebpf4jnsgd1na2vs0mg"},{"bike_id":"1ee86d82-7672-41b2-8221-fde658f47b61","system_id":"levelo_inurba_marseille","lat":43.30306,"lon":5.37705,"is_reserved":false,"is_disabled":false,"rental_uris":{"android":"levelo://app?vid=1ee86d82-7672-41b2-8221-fde658f47b61","ios":"levelo://app?vid=1ee86d82-7672-41b2-8221-fde658f47b61"},"vehicle_type_id":"4","last_reported":1743156661,"current_range_meters":15200,"station_id":"ce4bguh2rcd13ifvqcj0","pricing_plan_id":"cebpf4jnsgd1na2vs0mg"},{"bike_id":"fd60e020-01f8-467b-b113-a845188fc32b","system_id":"levelo_inurba_marseille","lat":43.27982,"lon":5.38746,"is_reserved":false,"is_disabled":false,"rental_uris":{"android":"levelo://app?vid=fd60e020-01f8-467b-b113-a845188fc32b","ios":"levelo://app?vid=fd60e020-01f8-467b-b113-a845188fc32b"},"vehicle_type_id":"4","last_reported":1743156661,"current_range_meters":15200,"station_id":"ce4bhg12rcd13ifvqf80","pricing_plan_id":"cebpf4jnsgd1na2vs0mg"},{"bike_id":"b0e58752-d151-4446-9b1b-4d8b4235b96c","system_id":"levelo_inurba_marseille","lat":43.269575,"lon":5.386293,"is_reserved":false,"is_disabled":false,"rental_uris":{"android":"levelo://app?vid=b0e58752-d151-4446-9b1b-4d8b4235b96c","ios":"levelo://app?vid=b0e58752-d151-4446-9b1b-4d8b4235b96c"},"vehicle_type_id":"4","last_reported":1743156661,"current_range_meters":15200,"station_id":"ce4bhh92rcd13ifvqfh0","pricing_plan_id":"cebpf4jnsgd1na2vs0mg"},{"bike_id":"b8098953-6354-4d53-9ce8-97f5fb928a09","system_id":"levelo_inurba_marseille","lat":43.23966,"lon":5.36633,"is_reserved":false,"is_disabled":false,"rental_uris":{"android":"levelo://app?vid=b8098953-6354-4d53-9ce8-97f5fb928a09","ios":"levelo://app?vid=b8098953-6354-4d53-9ce8-97f5fb928a09"},"vehicle_type_id":"4","last_reported":1743156661,"current_range_meters":15200,"station_id":"ce4bhi12rcd13ifvqfp0","pricing_plan_id":"cebpf4jnsgd1na2vs0mg"},{"bike_id":"b6b90b3a-d30a-4973-b307-5dcbb8c8394d","system_id":"levelo_inurba_marseille","lat":43.31329,"lon":5.36721,"is_reserved":false,"is_disabled":false,"rental_uris":{"android":"levelo://app?vid=b6b90b3a-d30a-4973-b307-5dcbb8c8394d","ios":"levelo://app?vid=b6b90b3a-d30a-4973-b307-5dcbb8c8394d"},"vehicle_type_id":"4","last_reported":1743156661,"current_range_meters":16000,"station_id":"ce4bgr92rcd13ifvqc6g","pricing_plan_id":"cebpf4jnsgd1na2vs0mg"},{"bike_id":"764de028-4bd2-43a5-a92b-03a3f04685fc","system_id":"levelo_inurba_marseille","lat":43.30888,"lon":5.37184,"is_reserved":false,"is_disabled":false,"rental_uris":{"android":"levelo://app?vid=764de028-4bd2-43a5-a92b-03a3f04685fc","ios":"levelo://app?vid=764de028-4bd2-43a5-a92b-03a3f04685fc"},"vehicle_type_id":"4","last_reported":1743156661,"current_range_meters":16000,"station_id":"ce4bguh2rcd13ifvqckg","pricing_plan_id":"cebpf4jnsgd1na2vs0mg"},{"bike_id":"21c23e58-1912-4f71-a00e-f6c0c41af9d9","system_id":"levelo_inurba_marseille","lat":43.29251,"lon":5.40904,"is_reserved":false,"is_disabled":false,"rental_uris":{"android":"levelo://app?vid=21c23e58-1912-4f71-a00e-f6c0c41af9d9","ios":"levelo://app?vid=21c23e58-1912-4f71-a00e-f6c0c41af9d9"},"vehicle_type_id":"4","last_reported":1743156661,"current_range_meters":16000,"station_id":"ce4bh192rcd13ifvqdc0","pricing_plan_id":"cebpf4jnsgd1na2vs0mg"},{"bike_id":"8ac9d3fc-b5b4-478d-9fa0-5fa8c9fadaae","system_id":"levelo_inurba_marseille","lat":43.28845,"lon":5.39315,"is_reserved":false,"is_disabled":false,"rental_uris":{"android":"levelo://app?vid=8ac9d3fc-b5b4-478d-9fa0-5fa8c9fadaae","ios":"levelo://app?vid=8ac9d3fc-b5b4-478d-9fa0-5fa8c9fadaae"},"vehicle_type_id":"4","last_reported":1743156661,"current_range_meters":16000,"station_id":"ce4bh2p2rcd13ifvqdi0","pricing_plan_id":"cebpf4jnsgd1na2vs0mg"},{"bike_id":"0a42498a-b286-4411-8d5d-28cd201e0b61","system_id":"levelo_inurba_marseille","lat":43.28939,"lon":5.39628,"is_reserved":false,"is_disabled":false,"rental_uris":{"android":"levelo://app?vid=0a42498a-b286-4411-8d5d-28cd201e0b61","ios":"levelo://app?vid=0a42498a-b286-4411-8d5d-28cd201e0b61"},"vehicle_type_id":"4","last_reported":1743156661,"current_range_meters":16000,"station_id":"ce4bh3h2rcd13ifvqdn0","pricing_plan_id":"cebpf4jnsgd1na2vs0mg"},{"bike_id":"1cf4bf45-680f-4136-b109-dc4a6fe1ab6f","system_id":"levelo_inurba_marseille","lat":43.283378,"lon":5.38105,"is_reserved":false,"is_disabled":false,"rental_uris":{"android":"levelo://app?vid=1cf4bf45-680f-4136-b109-dc4a6fe1ab6f","ios":"levelo://app?vid=1cf4bf45-680f-4136-b109-dc4a6fe1ab6f"},"vehicle_type_id":"4","last_reported":1743156661,"current_range_meters":16000,"station_id":"ce4bh412rcd13ifvqdr0","pricing_plan_id":"cebpf4jnsgd1na2vs0mg"},{"bike_id":"16eff94a-4fbb-43d5-8ab4-3805ed7d1e24","system_id":"levelo_inurba_marseille","lat":43.2679,"lon":5.39411,"is_reserved":false,"is_disabled":false,"rental_uris":{"android":"levelo://app?vid=16eff94a-4fbb-43d5-8ab4-3805ed7d1e24","ios":"levelo://app?vid=16eff94a-4fbb-43d5-8ab4-3805ed7d1e24"},"vehicle_type_id":"4","last_reported":1743156661,"current_range_meters":16000,"station_id":"ce4bhh12rcd13ifvqfg0","pricing_plan_id":"cebpf4jnsgd1na2vs0mg"},{"bike_id":"76265638-2c2d-475b-b655-ccffc71b9390","system_id":"levelo_inurba_marseille","lat":43.25919,"lon":5.40886,"is_reserved":false,"is_disabled":false,"rental_uris":{"android":"levelo://app?vid=76265638-2c2d-475b-b655-ccffc71b9390","ios":"levelo://app?vid=76265638-2c2d-475b-b655-ccffc71b9390"},"vehicle_type_id":"4","last_reported":1743156661,"current_range_meters":16000,"station_id":"ce4bhm92rcd13ifvqglg","pricing_plan_id":"cebpf4jnsgd1na2vs0mg"},{"bike_id":"e53cf5c5-da21-4b78-8255-bd634deb9652","system_id":"levelo_inurba_marseille","lat":43.32004,"lon":5.381573,"is_reserved":false,"is_disabled":false,"rental_uris":{"android":"levelo://app?vid=e53cf5c5-da21-4b78-8255-bd634deb9652","ios":"levelo://app?vid=e53cf5c5-da21-4b78-8255-bd634deb9652"},"vehicle_type_id":"4","last_reported":1743156661,"current_range_meters":16000,"station_id":"ce4bhr12rcd13ifvqhpg","pricing_plan_id":"cebpf4jnsgd1na2vs0mg"},{"bike_id":"63451bdb-c97c-4a77-9b6d-fde74434e469","system_id":"levelo_inurba_marseille","lat":43.30413,"lon":5.37085,"is_reserved":false,"is_disabled":false,"rental_uris":{"android":"levelo://app?vid=63451bdb-c97c-4a77-9b6d-fde74434e469","ios":"levelo://app?vid=63451bdb-c97c-4a77-9b6d-fde74434e469"},"vehicle_type_id":"4","last_reported":1743156661,"current_range_meters":16400,"station_id":"","pricing_plan_id":"cebpf4jnsgd1na2vs0mg"},{"bike_id":"c50deeac-7a4d-4689-8e28-ece097936c26","system_id":"levelo_inurba_marseille","lat":43.30531,"lon":5.36691,"is_reserved":false,"is_disabled":false,"rental_uris":{"android":"levelo://app?vid=c50deeac-7a4d-4689-8e28-ece097936c26","ios":"levelo://app?vid=c50deeac-7a4d-4689-8e28-ece097936c26"},"vehicle_type_id":"4","last_reported":1743156661,"current_range_meters":16400,"station_id":"ce4bgrp2rcd13ifvqc9g","pricing_plan_id":"cebpf4jnsgd1na2vs0mg"},{"bike_id":"9bc6dc90-11a0-4f56-aaeb-0ec0d8dc7153","system_id":"levelo_inurba_marseille","lat":43.31375,"lon":5.3849,"is_reserved":false,"is_disabled":false,"rental_uris":{"android":"levelo://app?vid=9bc6dc90-11a0-4f56-aaeb-0ec0d8dc7153","ios":"levelo://app?vid=9bc6dc90-11a0-4f56-aaeb-0ec0d8dc7153"},"vehicle_type_id":"4","last_reported":1743156661,"current_range_meters":16400,"station_id":"ce4bgt92rcd13ifvqcf0","pricing_plan_id":"cebpf4jnsgd1na2vs0mg"},{"bike_id":"de44689e-fe5e-48e1-b0a4-35937d716bc0","system_id":"levelo_inurba_marseille","lat":43.30894,"lon":5.37184,"is_reserved":false,"is_disabled":false,"rental_uris":{"android":"levelo://app?vid=de44689e-fe5e-48e1-b0a4-35937d716bc0","ios":"levelo://app?vid=de44689e-fe5e-48e1-b0a4-35937d716bc0"},"vehicle_type_id":"4","last_reported":1743156661,"current_range_meters":16400,"station_id":"ce4bguh2rcd13ifvqckg","pricing_plan_id":"cebpf4jnsgd1na2vs0mg"},{"bike_id":"21e54a11-4d2f-4f5f-aa93-462037636249","system_id":"levelo_inurba_marseille","lat":43.29037,"lon":5.4,"is_reserved":false,"is_disabled":false,"rental_uris":{"android":"levelo://app?vid=21e54a11-4d2f-4f5f-aa93-462037636249","ios":"levelo://app?vid=21e54a11-4d2f-4f5f-aa93-462037636249"},"vehicle_type_id":"4","last_reported":1743156661,"current_range_meters":16400,"station_id":"ce4bh392rcd13ifvqdm0","pricing_plan_id":"cebpf4jnsgd1na2vs0mg"},{"bike_id":"cc2feb73-2143-4a27-844c-53e99e42e37f","system_id":"levelo_inurba_marseille","lat":43.26946,"lon":5.38647,"is_reserved":false,"is_disabled":false,"rental_uris":{"android":"levelo://app?vid=cc2feb73-2143-4a27-844c-53e99e42e37f","ios":"levelo://app?vid=cc2feb73-2143-4a27-844c-53e99e42e37f"},"vehicle_type_id":"4","last_reported":1743156661,"current_range_meters":16400,"station_id":"ce4bhh92rcd13ifvqfh0","pricing_plan_id":"cebpf4jnsgd1na2vs0mg"},{"bike_id":"ab09535c-1b16-4b07-9859-2ccc1dbeae8a","system_id":"levelo_inurba_marseille","lat":43.25922,"lon":5.40892,"is_reserved":false,"is_disabled":false,"rental_uris":{"android":"levelo://app?vid=ab09535c-1b16-4b07-9859-2ccc1dbeae8a","ios":"levelo://app?vid=ab09535c-1b16-4b07-9859-2ccc1dbeae8a"},"vehicle_type_id":"4","last_reported":1743156661,"current_range_meters":16400,"station_id":"ce4bhm92rcd13ifvqglg","pricing_plan_id":"cebpf4jnsgd1na2vs0mg"},{"bike_id":"147140e3-4a0b-49e4-a9bb-a323f85a932b","system_id":"levelo_inurba_marseille","lat":43.23205,"lon":5.39986,"is_reserved":false,"is_disabled":false,"rental_uris":{"android":"levelo://app?vid=147140e3-4a0b-49e4-a9bb-a323f85a932b","ios":"levelo://app?vid=147140e3-4a0b-49e4-a9bb-a323f85a932b"},"vehicle_type_id":"4","last_reported":1743156661,"current_range_meters":16400,"station_id":"ce4bhn12rcd13ifvqgqg","pricing_plan_id":"cebpf4jnsgd1na2vs0mg"},{"bike_id":"1bf6a983-2362-4d52-a710-cee871b9d2a4","system_id":"levelo_inurba_marseille","lat":43.32099,"lon":5.36773,"is_reserved":false,"is_disabled":false,"rental_uris":{"android":"levelo://app?vid=1bf6a983-2362-4d52-a710-cee871b9d2a4","ios":"levelo://app?vid=1bf6a983-2362-4d52-a710-cee871b9d2a4"},"vehicle_type_id":"4","last_reported":1743156661,"current_range_meters":16400,"station_id":"ce4bhrh2rcd13ifvqhug","pricing_plan_id":"cebpf4jnsgd1na2vs0mg"},{"bike_id":"36a49bbf-172b-4fe2-a9d0-a2e62ab94281","system_id":"levelo_inurba_marseille","lat":43.32349,"lon":5.36703,"is_reserved":false,"is_disabled":false,"rental_uris":{"android":"levelo://app?vid=36a49bbf-172b-4fe2-a9d0-a2e62ab94281","ios":"levelo://app?vid=36a49bbf-172b-4fe2-a9d0-a2e62ab94281"},"vehicle_type_id":"4","last_reported":1743156661,"current_range_meters":16400,"station_id":"ce4bhsh2rcd13ifvqi2g","pricing_plan_id":"cebpf4jnsgd1na2vs0mg"},{"bike_id":"4586e23a-2d77-446c-8e8c-a15b6ae5de02","system_id":"levelo_inurba_marseille","lat":43.28608,"lon":5.38109,"is_reserved":false,"is_disabled":false,"rental_uris":{"android":"levelo://app?vid=4586e23a-2d77-446c-8e8c-a15b6ae5de02","ios":"levelo://app?vid=4586e23a-2d77-446c-8e8c-a15b6ae5de02"},"vehicle_type_id":"4","last_reported":1743156661,"current_range_meters":16800,"station_id":"","pricing_plan_id":"cebpf4jnsgd1na2vs0mg"},