{"last_updated":1762794566,"ttl":60,"version":"2.2","data":{"bikes":[{"bike_id":"a22621ed-dce3-441e-82fa-0978db9d5cc0","system_id":"levelo_inurba_marseille","lat":43.337444,"lon":5.374475,"is_reserved":false,"is_disabled":false,"rental_uris":{"android":"levelo://app?vid=a22621ed-dce3-441e-82fa-0978db9d5cc0","ios":"levelo://app?vid=a22621ed-dce3-441e-82fa-0978db9d5cc0"},"vehicle_type_id":"4","last_reported":1762794566,"current_range_meters":0,"station_id":"","pricing_plan_id":"cebpf4jnsgd1na2vs0mg"},{"bike_id":"6e5385ec-b386-4310-9c74-294f09fda7d7","system_id":"levelo_inurba_marseille","lat":43.263488,"lon":5.373994,"is_reserved":false,"is_disabled":false,"rental_uris":{"android":"levelo://app?vid=6e5385ec-b386-4310-9c74-294f09fda7d7","ios":"levelo://app?vid=6e5385ec-b386-4310-9c74-294f09fda7d7"},"vehicle_type_id":"4","last_reported":1762794566,"current_range_meters":2800,"station_id":"ce4bh9p2rcd13ifvqec0","pricing_plan_id":"cebpf4jnsgd1na2vs0mg"},{"bike_id":"70d582e5-55e6-4b2b-9440-5c71060effba","system_id":"levelo_inurba_marseille","lat":43.29009,"lon":5.35611,"is_reserved":false,"is_disabled":true,"rental_uris":{"android":"levelo://app?vid=70d582e5-55e6-4b2b-9440-5c71060effba","ios":"levelo://app?vid=70d582e5-55e6-4b2b-9440-5c71060effba"},"vehicle_type_id":"4","last_reported":1762794566,"current_range_meters":2800,"station_id":"ce4bhb92rcd13ifvqen0","pricing_plan_id":"cebpf4jnsgd1na2vs0mg"},{"bike_id":"7e883ee1-aa5d-41ab-8b57-91f64c9b26d6","system_id":"levelo_inurba_marseille","lat":43.281553,"lon":5.426409,"is_reserved":false,"is_disabled":false,"rental_uris":{"android":"levelo://app?vid=7e883ee1-aa5d-41ab-8b57-91f64c9b26d6","ios":"levelo://app?vid=7e883ee1-aa5d-41ab-8b57-91f64c9b26d6"},"vehicle_type_id":"4","last_reported":1762794566,"current_range_meters":2800,"station_id":"ce4bhnh2rcd13ifvqgug","pricing_plan_id":"cebpf4jnsgd1na2vs0mg"},{"bike_id":"d58162db-574a-44f0-b573-b59c9312a09d","system_id":"levelo_inurba_marseille","lat":43.282725,"lon":5.350756,"is_reserved":false,"is_disabled":true,"rental_uris":{"android":"levelo://app?vid=d58162db-574a-44f0-b573-b59c9312a09d","ios":"levelo://app?vid=d58162db-574a-44f0-b573-b59c9312a09d"},"vehicle_type_id":"4","last_reported":1762794566,"current_range_meters":3200,"station_id":"ce4bhbp2rcd13ifvqerg","pricing_plan_id":"cebpf4jnsgd1na2vs0mg"},{"bike_id":"e5ae4a41-9b40-4241-98ff-b5e2d3a4ed17","system_id":"levelo_inurba_marseille","lat":43.30898,"lon":5.37196,"is_reserved":false,"is_disabled":false,"rental_uris":{"android":"levelo://app?vid=e5ae4a41-9b40-4241-98ff-b5e2d3a4ed17","ios":"levelo://app?vid=e5ae4a41-9b40-4241-98ff-b5e2d3a4ed17"},"vehicle_type_id":"4","last_reported":1762794566,"current_range_meters":3200,"station_id":"ce4bguh2rcd13ifvqckg","pricing_plan_id":"cebpf4jnsgd1na2vs0mg"},{"bike_id":"870a9ad1-db35-4ab0-bc9a-84476efc6571","system_id":"levelo_inurba_marseille","lat":43.32794,"lon":5.42651,"is_reserved":false,"is_disabled":false,"rental_uris":{"android":"levelo://app?vid=870a9ad1-db35-4ab0-bc9a-84476efc6571","ios":"levelo://app?vid=870a9ad1-db35-4ab0-bc9a-84476efc6571"},"vehicle_type_id":"4","last_reported":1762794566,"current_range_meters":3200,"station_id":"","pricing_plan_id":"cebpf4jnsgd1na2vs0mg"},{"bike_id":"dc81f1b1-7c62-45ee-a7df-39e833017c7d","system_id":"levelo_inurba_marseille","lat":43.28462,"lon":5.35892,"is_reserved":false,"is_disabled":false,"rental_uris":{"android":"levelo://app?vid=dc81f1b1-7c62-45ee-a7df-39e833017c7d","ios":"levelo://app?vid=dc81f1b1-7c62-45ee-a7df-39e833017c7d"},"vehicle_type_id":"4","last_reported":1762794566,"current_range_meters":3200,"station_id":"ce4bhah2rcd13ifvqei0","pricing_plan_id":"cebpf4jnsgd1na2vs0mg"},{"bike_id":"d4891127-6467-46d9-8824-7c273b406f6c","system_id":"levelo_inurba_marseille","lat":43.29964,"lon":5.38501,"is_reserved":false,"is_disabled":false,"rental_uris":{"android":"levelo://app?vid=d4891127-6467-46d9-8824-7c273b406f6c","ios":"levelo://app?vid=d4891127-6467-46d9-8824-7c273b406f6c"},"vehicle_type_id":"4","last_reported":1762794566,"current_range_meters":3200,"station_id":"ce4bgj92rcd13ifvqbd0","pricing_plan_id":"cebpf4jnsgd1na2vs0mg"},{"bike_id":"8298846b-4beb-464e-ae72-19bc05be9ad3","system_id":"levelo_inurba_marseille","lat":43.26029,"lon":5.41741,"is_reserved":false,"is_disabled":false,"rental_uris":{"android":"levelo://app?vid=8298846b-4beb-464e-ae72-19bc05be9ad3","ios":"levelo://app?vid=8298846b-4beb-464e-ae72-19bc05be9ad3"},"vehicle_type_id":"4","last_reported":1762794566,"current_range_meters":3200,"station_id":"","pricing_plan_id":"cebpf4jnsgd1na2vs0mg"},{"bike_id":"d0b3d9ab-c91e-4fcc-b729-39ba35b73dda","system_id":"levelo_inurba_marseille","lat":43.26548,"lon":5.37286,"is_reserved":false,"is_disabled":false,"rental_uris":{"android":"levelo://app?vid=d0b3d9ab-c91e-4fcc-b729-39ba35b73dda","ios":"levelo://app?vid=d0b3d9ab-c91e-4fcc-b729-39ba35b73dda"},"vehicle_type_id":"4","last_reported":1762794566,"current_range_meters":3600,"station_id":"ce4bhg12rcd13ifvqf70","pricing_plan_id":"cebpf4jnsgd1na2vs0mg"},{"bike_id":"37c060ef-aadf-49e8-87e9-38f12dc45081","system_id":"levelo_inurba_marseille","lat":43.296184,"lon":5.371552,"is_reserved":false,"is_disabled":false,"rental_uris":{"android":"levelo://app?vid=37c060ef-aadf-49e8-87e9-38f12dc45081","ios":"levelo://app?vid=37c060ef-aadf-49e8-87e9-38f12dc45081"},"vehicle_type_id":"4","last_reported":1762794566,"current_range_meters":3600,"station_id":"ce4bgnh2rcd13ifvqc0g","pricing_plan_id":"cebpf4jnsgd1na2vs0mg"},{"bike_id":"be678bf7-d31f-4b9b-b200-8dde00609ee0","system_id":"levelo_inurba_marseille","lat":43.288601,"lon":5.393029,"is_reserved":false,"is_disabled":false,"rental_uris":{"android":"levelo://app?vid=be678bf7-d31f-4b9b-b200-8dde00609ee0","ios":"levelo://app?vid=be678bf7-d31f-4b9b-b200-8dde00609ee0"},"vehicle_type_id":"4","last_reported":1762794566,"current_range_meters":3600,"station_id":"ce4bh2p2rcd13ifvqdi0","pricing_plan_id":"cebpf4jnsgd1na2vs0mg"},{"bike_id":"ef0c8746-08ab-4457-adf1-f9827d0d9c9a","system_id":"levelo_inurba_marseille","lat":43.30423,"lon":5.38889,"is_reserved":false,"is_disabled":false,"rental_uris":{"android":"levelo://app?vid=ef0c8746-08ab-4457-adf1-f9827d0d9c9a","ios":"levelo://app?vid=ef0c8746-08ab-4457-adf1-f9827d0d9c9a"},"vehicle_type_id":"4","last_reported":1762794566,"current_range_meters":3600,"station_id":"ce4bgk12rcd13ifvqbi0","pricing_plan_id":"cebpf4jnsgd1na2vs0mg"},{"bike_id":"5d073ee7-2c3e-4cdc-a8f8-a1cf3a4c2792","system_id":"levelo_inurba_marseille","lat":43.287231,"lon":5.379385,"is_reserved":false,"is_disabled":false,"rental_uris":{"android":"levelo://app?vid=5d073ee7-2c3e-4cdc-a8f8-a1cf3a4c2792","ios":"levelo://app?vid=5d073ee7-2c3e-4cdc-a8f8-a1cf3a4c2792"},"vehicle_type_id":"4","last_reported":1762794566,"current_range_meters":3600,"station_id":"ce4bh9p2rcd13ifvqec0","pricing_plan_id":"cebpf4jnsgd1na2vs0mg"},{"bike_id":"8040d437-b793-4c7c-83dd-8a60b4a68d3a","system_id":"levelo_inurba_marseille","lat":43.25913,"lon":5.4089,"is_reserved":false,"is_disabled":true,"rental_uris":{"android":"levelo://app?vid=8040d437-b793-4c7c-83dd-8a60b4a68d3a","ios":"levelo://app?vid=8040d437-b793-4c7c-83dd-8a60b4a68d3a"},"vehicle_type_id":"4","last_reported":1762794566,"current_range_meters":3600,"station_id":"ce4bhm92rcd13ifvqglg","pricing_plan_id":"cebpf4jnsgd1na2vs0mg"},{"bike_id":"5ed2aa9f-b070-46ba-8bdc-ca0b86079902","system_id":"levelo_inurba_marseille","lat":43.312219,"lon":5.368488,"is_reserved":false,"is_disabled":false,"rental_uris":{"android":"levelo://app?vid=5ed2aa9f-b070-46ba-8bdc-ca0b86079902","ios":"levelo://app?vid=5ed2aa9f-b070-46ba-8bdc-ca0b86079902"},"vehicle_type_id":"4","last_reported":1762794566,"current_range_meters":4000,"station_id":"ce4bgl92rcd13ifvqbq0","pricing_plan_id":"cebpf4jnsgd1na2vs0mg"},{"bike_id":"229f7404-255e-4c04-84aa-254ebbbd7e69","system_id":"levelo_inurba_marseille","lat":43.27677,"lon":5.38866,"is_reserved":false,"is_disabled":false,"rental_uris":{"android":"levelo://app?vid=229f7404-255e-4c04-84aa-254ebbbd7e69","ios":"levelo://app?vid=229f7404-255e-4c04-84aa-254ebbbd7e69"},"vehicle_type_id":"4","last_reported":1762794566,"current_range_meters":4000,"station_id":"ce4bhi12rcd13ifvqfo0","pricing_plan_id":"cebpf4jnsgd1na2vs0mg"},{"bike_id":"363ee27e-7d42-4392-8678-4c4cb6a8aef7","system_id":"levelo_inurba_marseille","lat":43.281541,"lon":5.426422,"is_reserved":false,"is_disabled":false,"rental_uris":{"android":"levelo://app?vid=363ee27e-7d42-4392-8678-4c4cb6a8aef7","ios":"levelo://app?vid=363ee27e-7d42-4392-8678-4c4cb6a8aef7"},"vehicle_type_id":"4","last_reported":1762794566,"current_range_meters":4000,"station_id":"ce4bhnh2rcd13ifvqgug","pricing_plan_id":"cebpf4jnsgd1na2vs0mg"},{"bike_id":"d91af300-6fc9-41fb-acef-980faed46d34","system_id":"levelo_inurba_marseille","lat":43.28712,"lon":5.37934,"is_reserved":false,"is_disabled":false,"rental_uris":{"android":"levelo://app?vid=d91af300-6fc9-41fb-acef-980faed46d34","ios":"levelo://app?vid=d91af300-6fc9-41fb-acef-980faed46d34"},"vehicle_type_id":"4","last_reported":1762794566,"current_range_meters":4000,"station_id":"ce4bh9p2rcd13ifvqec0","pricing_plan_id":"cebpf4jnsgd1na2vs0mg"},{"bike_id":"e344177e-bc5a-4346-b014-958fd2489218","system_id":"levelo_inurba_marseille","lat":43.28699,"lon":5.39992,"is_reserved":false,"is_disabled":false,"rental_uris":{"android":"levelo://app?vid=e344177e-bc5a-4346-b014-958fd2489218","ios":"levelo://app?vid=e344177e-bc5a-4346-b014-958fd2489218"},"vehicle_type_id":"4","last_reported":1762794566,"current_range_meters":4000,"station_id":"ce4bho92rcd13ifvqh3g","pricing_plan_id":"cebpf4jnsgd1na2vs0mg"},{"bike_id":"f8482979-094d-45f5-bb71-2c9d737e33e6","system_id":"levelo_inurba_marseille","lat":43.28432,"lon":5.37521,"is_reserved":false,"is_disabled":false,"rental_uris":{"android":"levelo://app?vid=f8482979-094d-45f5-bb71-2c9d737e33e6","ios":"levelo://app?vid=f8482979-094d-45f5-bb71-2c9d737e33e6"},"vehicle_type_id":"4","last_reported":1762794566,"current_range_meters":4400,"station_id":"ce4bh412rcd13ifvqds0","pricing_plan_id":"cebpf4jnsgd1na2vs0mg"},{"bike_id":"7c1dd25f-4196-4c32-bc8c-ff8f45cdf807","system_id":"levelo_inurba_marseille","lat":43.26778,"lon":5.39422,"is_reserved":false,"is_disabled":false,"rental_uris":{"android":"levelo://app?vid=7c1dd25f-4196-4c32-bc8c-ff8f45cdf807","ios":"levelo://app?vid=7c1dd25f-4196-4c32-bc8c-ff8f45cdf807"},"vehicle_type_id":"4","last_reported":1762794566,"current_range_meters":4400,"station_id":"ce4bhh12rcd13ifvqfg0","pricing_plan_id":"cebpf4jnsgd1na2vs0mg"},{"bike_id":"2533def8-3b6d-43e7-9557-03c970e60d70","system_id":"levelo_inurba_marseille","lat":43.27908,"lon":5.380149,"is_reserved":false,"is_disabled":false,"rental_uris":{"android":"levelo://app?vid=2533def8-3b6d-43e7-9557-03c970e60d70","ios":"levelo://app?vid=2533def8-3b6d-43e7-9557-03c970e60d70"},"vehicle_type_id":"4","last_reported":1762794566,"current_range_meters":4400,"station_id":"ce4bhf92rcd13ifvqf50","pricing_plan_id":"cebpf4jnsgd1na2vs0mg"},{"bike_id":"9a31649c-edcd-4f1b-a37e-6c41f562cb27","system_id":"levelo_inurba_marseille","lat":43.29008,"lon":5.35602,"is_reserved":false,"is_disabled":false,"rental_uris":{"android":"levelo://app?vid=9a31649c-edcd-4f1b-a37e-6c41f562cb27","ios":"levelo://app?vid=9a31649c-edcd-4f1b-a37e-6c41f562cb27"},"vehicle_type_id":"4","last_reported":1762794566,"current_range_meters":4400,"station_id":"ce4bhb92rcd13ifvqen0","pricing_plan_id":"cebpf4jnsgd1na2vs0mg"},{"bike_id":"1244d5ac-9d8a-47d4-bb37-95e680bcef84","system_id":"levelo_inurba_marseille","lat":43.24805,"lon":5.37456,"is_reserved":false,"is_disabled":false,"rental_uris":{"android":"levelo://app?vid=1244d5ac-9d8a-47d4-bb37-95e680bcef84","ios":"levelo://app?vid=1244d5ac-9d8a-47d4-bb37-95e680bcef84"},"vehicle_type_id":"4","last_reported":1762794566,"current_range_meters":4800,"station_id":"ce4bhgh2rcd13ifvqfb0","pricing_plan_id":"cebpf4jnsgd1na2vs0mg"},{"bike_id":"6b89a41f-def0-48b7-829d-96876dc7aadd","system_id":"levelo_inurba_marseille","lat":43.30936,"lon":5.4014,"is_reserved":false,"is_disabled":false,"rental_uris":{"android":"levelo://app?vid=6b89a41f-def0-48b7-829d-96876dc7aadd","ios":"levelo://app?vid=6b89a41f-def0-48b7-829d-96876dc7aadd"},"vehicle_type_id":"4","last_reported":1762794566,"current_range_meters":4800,"station_id":"ce4bgvp2rcd13ifvqct0","pricing_plan_id":"cebpf4jnsgd1na2vs0mg"},{"bike_id":"df2b99be-e494-4049-bddd-5b1db7dafdfa","system_id":"levelo_inurba_marseille","lat":43.26572,"lon":5.39011,"is_reserved":false,"is_disabled":false,"rental_uris":{"android":"levelo://app?vid=df2b99be-e494-4049-bddd-5b1db7dafdfa","ios":"levelo://app?vid=df2b99be-e494-4049-bddd-5b1db7dafdfa"},"vehicle_type_id":"4","last_reported":1762794566,"current_range_meters":4800,"station_id":"ce4bhe12rcd13ifvqf30","pricing_plan_id":"cebpf4jnsgd1na2vs0mg"},{"bike_id":"391375d7-1dae-4559-9e21-25def440cded","system_id":"levelo_inurba_marseille","lat":43.29673,"lon":5.37298,"is_reserved":false,"is_disabled":false,"rental_uris":{"android":"levelo://app?vid=391375d7-1dae-4559-9e21-25def440cded","ios":"levelo://app?vid=391375d7-1dae-4559-9e21-25def440cded"},"vehicle_type_id":"4","last_reported":1762794566,"current_range_meters":4800,"station_id":"ce4bgk12rcd13ifvqbj0","pricing_plan_id":"cebpf4jnsgd1na2vs0mg"},{"bike_id":"acff9d2e-c728-4d94-8291-eab9fef5d8a9","system_id":"levelo_inurba_marseille","lat":43.31707,"lon":5.37738,"is_reserved":false,"is_disabled":false,"rental_uris":{"android":"levelo://app?vid=acff9d2e-c728-4d94-8291-eab9fef5d8a9","ios":"levelo://app?vid=acff9d2e-c728-4d94-8291-eab9fef5d8a9"},"vehicle_type_id":"4","last_reported":1762794566,"current_range_meters":4800,"station_id":"ce4bgth2rcd13ifvqch0","pricing_plan_id":"cebpf4jnsgd1na2vs0mg"},{"bike_id":"71dc252c-d7d9-4c5d-804b-008b086ec7e2","system_id":"levelo_inurba_marseille","lat":43.30601,"lon":5.37218,"is_reserved":false,"is_disabled":false,"rental_uris":{"android":"levelo://app?vid=71dc252c-d7d9-4c5d-804b-008b086ec7e2","ios":"levelo://app?vid=71dc252c-d7d9-4c5d-804b-008b086ec7e2"},"vehicle_type_id":"4","last_reported":1762794566,"current_range_meters":4800,"station_id":"ce4bgqh2rcd13ifvqc4g","pricing_plan_id":"cebpf4jnsgd1na2vs0mg"},{"bike_id":"c270c8b0-5b74-4f50-b61d-4738cf0f4d07","system_id":"levelo_inurba_marseille","lat":43.285631,"lon":5.373635,"is_reserved":false,"is_disabled":false,"rental_uris":{"android":"levelo://app?vid=c270c8b0-5b74-4f50-b61d-4738cf0f4d07","ios":"levelo://app?vid=c270c8b0-5b74-4f50-b61d-4738cf0f4d07"},"vehicle_type_id":"4","last_reported":1762794566,"current_range_meters":4800,"station_id":"ce4bhf92rcd13ifvqf50","pricing_plan_id":"cebpf4jnsgd1na2vs0mg"},{"bike_id":"330b8e29-56fd-4c80-b824-7dc9d7cfe83e","system_id":"levelo_inurba_marseille","lat":43.26939,"lon":5.40255,"is_reserved":false,"is_disabled":false,"rental_uris":{"android":"levelo://app?vid=330b8e29-56fd-4c80-b824-7dc9d7cfe83e","ios":"levelo://app?vid=330b8e29-56fd-4c80-b824-7dc9d7cfe83e"},"vehicle_type_id":"4","last_reported":1762794566,"current_range_meters":5600,"station_id":"cjm6bp8fraef2m0cb0m0","pricing_plan_id":"cebpf4jnsgd1na2vs0mg"},{"bike_id":"67b85fe3-fee3-483e-ac32-529a1257e888","system_id":"levelo_inurba_marseille","lat":43.26613,"lon":5.39047,"is_reserved":false,"is_disabled":false,"rental_uris":{"android":"levelo://app?vid=67b85fe3-fee3-483e-ac32-529a1257e888","ios":"levelo://app?vid=67b85fe3-fee3-483e-ac32-529a1257e888"},"vehicle_type_id":"4","last_reported":1762794566,"current_range_meters":5600,"station_id":"ce4bhe12rcd13ifvqf30","pricing_plan_id":"cebpf4jnsgd1na2vs0mg"},{"bike_id":"15db09df-59b0-446a-87c5-e354a3319258","system_id":"levelo_inurba_marseille","lat":43.28492,"lon":5.4839,"is_reserved":false,"is_disabled":false,"rental_uris":{"android":"levelo://app?vid=15db09df-59b0-446a-87c5-e354a3319258","ios":"levelo://app?vid=15db09df-59b0-446a-87c5-e354a3319258"},"vehicle_type_id":"4","last_reported":1762794566,"current_range_meters":5600,"station_id":"","pricing_plan_id":"cebpf4jnsgd1na2vs0mg"},{"bike_id":"6f98b7a7-ae98-40be-aded-6fe2b547bfca","system_id":"levelo_inurba_marseille","lat":43.28483,"lon":5.48402,"is_reserved":false,"is_disabled":false,"rental_uris":{"android":"levelo://app?vid=6f98b7a7-ae98-40be-aded-6fe2b547bfca","ios":"levelo://app?vid=6f98b7a7-ae98-40be-aded-6fe2b547bfca"},"vehicle_type_id":"4","last_reported":1762794566,"current_range_meters":5600,"station_id":"","pricing_plan_id":"cebpf4jnsgd1na2vs0mg"},{"bike_id":"abf18691-d35d-47e9-99a1-0522637a63d4","system_id":"levelo_inurba_marseille","lat":43.30417,"lon":5.41283,"is_reserved":false,"is_disabled":false,"rental_uris":{"android":"levelo://app?vid=abf18691-d35d-47e9-99a1-0522637a63d4","ios":"levelo://app?vid=abf18691-d35d-47e9-99a1-0522637a63d4"},"vehicle_type_id":"4","last_reported":1762794566,"current_range_meters":5600,"station_id":"ce4bhop2rcd13ifvqh8g","pricing_plan_id":"cebpf4jnsgd1na2vs0mg"},{"bike_id":"c1a8951c-0b8b-4e04-9556-ddc347871e56","system_id":"levelo_inurba_marseille","lat":43.33619,"lon":5.35428,"is_reserved":false,"is_disabled":false,"rental_uris":{"android":"levelo://app?vid=c1a8951c-0b8b-4e04-9556-ddc347871e56","ios":"levelo://app?vid=c1a8951c-0b8b-4e04-9556-ddc347871e56"},"vehicle_type_id":"4","last_reported":1762794566,"current_range_meters":5600,"station_id":"","pricing_plan_id":"cebpf4jnsgd1na2vs0mg"},{"bike_id":"28fb636e-d483-4233-9277-49d049661169","system_id":"levelo_inurba_marseille","lat":43.33021,"lon":5.39037,"is_reserved":false,"is_disabled":false,"rental_uris":{"android":"levelo://app?vid=28fb636e-d483-4233-9277-49d049661169","ios":"levelo://app?vid=28fb636e-d483-4233-9277-49d049661169"},"vehicle_type_id":"4","last_reported":1762794566,"current_range_meters":5600,"station_id":"ce4bhr92rcd13ifvqhrg","pricing_plan_id":"cebpf4jnsgd1na2vs0mg"},{"bike_id":"ba08140f-f8d1-45e8-b072-245cf705356d","system_id":"levelo_inurba_marseille","lat":43.29099,"lon":5.38135,"is_reserved":false,"is_disabled":false,"rental_uris":{"android":"levelo://app?vid=ba08140f-f8d1-45e8-b072-245cf705356d","ios":"levelo://app?vid=ba08140f-f8d1-45e8-b072-245cf705356d"},"vehicle_type_id":"4","last_reported":1762794566,"current_range_meters":6000,"station_id":"ce4bh512rcd13ifvqe2g","pricing_plan_id":"cebpf4jnsgd1na2vs0mg"},{"bike_id":"1d60c185-dcc1-4ad5-8367-5012e8d72794","system_id":"levelo_inurba_marseille","lat":43.2957,"lon":5.37526,"is_reserved":false,"is_disabled":false,"rental_uris":{"android":"levelo://app?vid=1d60c185-dcc1-4ad5-8367-5012e8d72794","ios":"levelo://app?vid=1d60c185-dcc1-4ad5-8367-5012e8d72794"},"vehicle_type_id":"4","last_reported":1762794566,"current_range_meters":6000,"station_id":"ce4bgh92rcd13ifvqb50","pricing_plan_id":"cebpf4jnsgd1na2vs0mg"},{"bike_id":"a468abfc-41a1-4cf8-84ac-466c31dd44ec","system_id":"levelo_inurba_marseille","lat":43.268003,"lon":5.390334,"is_reserved":false,"is_disabled":false,"rental_uris":{"android":"levelo://app?vid=a468abfc-41a1-4cf8-84ac-466c31dd44ec","ios":"levelo://app?vid=a468abfc-41a1-4cf8-84ac-466c31dd44ec"},"vehicle_type_id":"4","last_reported":1762794566,"current_range_meters":6000,"station_id":"","pricing_plan_id":"cebpf4jnsgd1na2vs0mg"},{"bike_id":"6a5cb119-1a64-415c-a949-ec0bb54d8799","system_id":"levelo_inurba_marseille","lat":43.33138,"lon":5.37682,"is_reserved":false,"is_disabled":false,"rental_uris":{"android":"levelo://app?vid=6a5cb119-1a64-415c-a949-ec0bb54d8799","ios":"levelo://app?vid=6a5cb119-1a64-415c-a949-ec0bb54d8799"},"vehicle_type_id":"4","last_reported":1762794566,"current_range_meters":6000,"station_id":"st_d46cu089ee8s73dldbu0","pricing_plan_id":"cebpf4jnsgd1na2vs0mg"},{"bike_id":"da625628-62e8-438c-898f-3b119ad5d4aa","system_id":"levelo_inurba_marseille","lat":43.29442,"lon":5.39748,"is_reserved":false,"is_disabled":false,"rental_uris":{"android":"levelo://app?vid=da625628-62e8-438c-898f-3b119ad5d4aa","ios":"levelo://app?vid=da625628-62e8-438c-898f-3b119ad5d4aa"},"vehicle_type_id":"4","last_reported":1762794566,"current_range_meters":6000,"station_id":"ce4bh3h2rcd13ifvqdo0","pricing_plan_id":"cebpf4jnsgd1na2vs0mg"},{"bike_id":"22d07c9b-0e8d-4544-8f4a-4bc643914096","system_id":"levelo_inurba_marseille","lat":43.28617,"lon":5.35111,"is_reserved":false,"is_disabled":false,"rental_uris":{"android":"levelo://app?vid=22d07c9b-0e8d-4544-8f4a-4bc643914096","ios":"levelo://app?vid=22d07c9b-0e8d-4544-8f4a-4bc643914096"},"vehicle_type_id":"4","last_reported":1762794566,"current_range_meters":6000,"station_id":"ce4bhch2rcd13ifvqeug","pricing_plan_id":"cebpf4jnsgd1na2vs0mg"},{"bike_id":"ce64c67d-5e37-41ae-989e-80e836b114df","system_id":"levelo_inurba_marseille","lat":43.2293,"lon":5.35377,"is_reserved":false,"is_disabled":false,"rental_uris":{"android":"levelo://app?vid=ce64c67d-5e37-41ae-989e-80e836b114df","ios":"levelo://app?vid=ce64c67d-5e37-41ae-989e-80e836b114df"},"vehicle_type_id":"4","last_reported":1762794566,"current_range_meters":6400,"station_id":"cpo3532slgdg3j2ikp40","pricing_plan_id":"cebpf4jnsgd1na2vs0mg"},{"bike_id":"37046d5c-5e99-459d-805d-dfaf6fcb80d0","system_id":"levelo_inurba_marseille","lat":43.31324,"lon":5.39709,"is_reserved":false,"is_disabled":false,"rental_uris":{"android":"levelo://app?vid=37046d5c-5e99-459d-805d-dfaf6fcb80d0","ios":"levelo://app?vid=37046d5c-5e99-459d-805d-dfaf6fcb80d0"},"vehicle_type_id":"4","last_reported":1762794566,"current_range_meters":6400,"station_id":"ce4bgvp2rcd13ifvqcu0","pricing_plan_id":"cebpf4jnsgd1na2vs0mg"},{"bike_id":"2b856ea4-2939-4d0e-93d3-44d40d19a5d5","system_id":"levelo_inurba_marseille","lat":43.243869,"lon":5.370703,"is_reserved":false,"is_disabled":false,"rental_uris":{"android":"levelo://app?vid=2b856ea4-2939-4d0e-93d3-44d40d19a5d5","ios":"levelo://app?vid=2b856ea4-2939-4d0e-93d3-44d40d19a5d5"},"vehicle_type_id":"4","last_reported":1762794566,"current_range_meters":6400,"station_id":"ce4bhhh2rcd13ifvqfk0","pricing_plan_id":"cebpf4jnsgd1na2vs0mg"},{"bike_id":"e536f661-5b07-4f76-b36b-db03addc30f2","system_id":"levelo_inurba_marseille","lat":43.286987,"lon":5.373857,"is_reserved":false,"is_disabled":false,"rental_uris":{"android":"levelo://app?vid=e536f661-5b07-4f76-b36b-db03addc30f2","ios":"levelo://app?vid=e536f661-5b07-4f76-b36b-db03addc30f2"},"vehicle_type_id":"4","last_reported":1762794566,"current_range_meters":6400,"station_id":"ce4bh3p2rcd13ifvqdq0","pricing_plan_id":"cebpf4jnsgd1na2vs0mg"},{"bike_id":"25916406-a331-4ad7-98b9-7ffeb3e31fd6","system_id":"levelo_inurba_marseille","lat":43.30309,"lon":5.39245,"is_reserved":false,"is_disabled":false,"rental_uris":{"android":"levelo://app?vid=25916406-a331-4ad7-98b9-7ffeb3e31fd6","ios":"levelo://app?vid=25916406-a331-4ad7-98b9-7ffeb3e31fd6"},"vehicle_type_id":"4","last_reported":1762794566,"current_range_meters":6400,"station_id":"ce4bgkh2rcd13ifvqbk0","pricing_plan_id":"cebpf4jnsgd1na2vs0mg"},{"bike_id":"470bd852-f35e-4033-a390-a05e23c87a9e","system_id":"levelo_inurba_marseille","lat":43.293078,"lon":5.374586,"is_reserved":false,"is_disabled":false,"rental_uris":{"android":"levelo://app?vid=470bd852-f35e-4033-a390-a05e23c87a9e","ios":"levelo://app?vid=470bd852-f35e-4033-a390-a05e23c87a9e"},"vehicle_type_id":"4","last_reported":1762794566,"current_range_meters":6400,"station_id":"ce4bhu92rcd13ifvqi70","pricing_plan_id":"cebpf4jnsgd1na2vs0mg"},{"bike_id":"18e985ad-a5fa-42c5-b154-f8875761bb59","system_id":"levelo_inurba_marseille","lat":43.32361,"lon":5.3675,"is_reserved":false,"is_disabled":false,"rental_uris":{"android":"levelo://app?vid=18e985ad-a5fa-42c5-b154-f8875761bb59","ios":"levelo://app?vid=18e985ad-a5fa-42c5-b154-f8875761bb59"},"vehicle_type_id":"4","last_reported":1762794566,"current_range_meters":6400,"station_id":"ce4bhsh2rcd13ifvqi2g","pricing_plan_id":"cebpf4jnsgd1na2vs0mg"},{"bike_id":"690d1ddd-9c17-4548-ac02-188ffc98e34c","system_id":"levelo_inurba_marseille","lat":43.29549,"lon":5.42296,"is_reserved":false,"is_disabled":false,"rental_uris":{"android":"levelo://app?vid=690d1ddd-9c17-4548-ac02-188ffc98e34c","ios":"levelo://app?vid=690d1ddd-9c17-4548-ac02-188ffc98e34c"},"vehicle_type_id":"4","last_reported":1762794566,"current_range_meters":6800,"station_id":"ce4bhph2rcd13ifvqhdg","pricing_plan_id":"cebpf4jnsgd1na2vs0mg"},{"bike_id":"c800ebad-a272-41db-8a34-7264782ee17b","system_id":"levelo_inurba_marseille","lat":43.28711,"lon":5.39978,"is_reserved":false,"is_disabled":false,"rental_uris":{"android":"levelo://app?vid=c800ebad-a272-41db-8a34-7264782ee17b","ios":"levelo://app?vid=c800ebad-a272-41db-8a34-7264782ee17b"},"vehicle_type_id":"4","last_reported":1762794566,"current_range_meters":6800,"station_id":"ce4bho92rcd13ifvqh3g","pricing_plan_id":"cebpf4jnsgd1na2vs0mg"},{"bike_id":"5bf65788-5f0a-41ac-9363-600dbef65c0f","system_id":"levelo_inurba_marseille","lat":43.3008,"lon":5.39078,"is_reserved":false,"is_disabled":false,"rental_uris":{"android":"levelo://app?vid=5bf65788-5f0a-41ac-9363-600dbef65c0f","ios":"levelo://app?vid=5bf65788-5f0a-41ac-9363-600dbef65c0f"},"vehicle_type_id":"4","last_reported":1762794566,"current_range_meters":6800,"station_id":"ce4bh192rcd13ifvqdb0","pricing_plan_id":"cebpf4jnsgd1na2vs0mg"},{"bike_id":"b1f29b78-e103-42e3-8377-e6162a95c45f","system_id":"levelo_inurba_marseille","lat":43.28442,"lon":5.39205,"is_reserved":false,"is_disabled":false,"rental_uris":{"android":"levelo://app?vid=b1f29b78-e103-42e3-8377-e6162a95c45f","ios":"levelo://app?vid=b1f29b78-e103-42e3-8377-e6162a95c45f"},"vehicle_type_id":"4","last_reported":1762794566,"current_range_meters":6800,"station_id":"ce4bhoh2rcd13ifvqh5g","pricing_plan_id":"cebpf4jnsgd1na2vs0mg"},{"bike_id":"71fd8cd4-7a6e-4692-86f4-7f61362b5035","system_id":"levelo_inurba_marseille","lat":43.309478,"lon":5.390343,"is_reserved":false,"is_disabled":false,"rental_uris":{"android":"levelo://app?vid=71fd8cd4-7a6e-4692-86f4-7f61362b5035","ios":"levelo://app?vid=71fd8cd4-7a6e-4692-86f4-7f61362b5035"},"vehicle_type_id":"4","last_reported":1762794566,"current_range_meters":6800,"station_id":"ce4bgup2rcd13ifvqco0","pricing_plan_id":"cebpf4jnsgd1na2vs0mg"},{"bike_id":"b2df9ef4-f26f-447a-b09b-2e43ebe64223","system_id":"levelo_inurba_marseille","lat":43.30171,"lon":5.36629,"is_reserved":false,"is_disabled":false,"rental_uris":{"android":"levelo://app?vid=b2df9ef4-f26f-447a-b09b-2e43ebe64223","ios":"levelo://app?vid=b2df9ef4-f26f-447a-b09b-2e43ebe64223"},"vehicle_type_id":"4","last_reported":1762794566,"current_range_meters":6800,"station_id":"ce4bgrh2rcd13ifvqc8g","pricing_plan_id":"cebpf4jnsgd1na2vs0mg"},{"bike_id":"9c4afee9-1cf3-4be5-85db-835e16ba0247","system_id":"levelo_inurba_marseille","lat":43.23199,"lon":5.39966,"is_reserved":false,"is_disabled":false,"rental_uris":{"android":"levelo://app?vid=9c4afee9-1cf3-4be5-85db-835e16ba0247","ios":"levelo://app?vid=9c4afee9-1cf3-4be5-85db-835e16ba0247"},"vehicle_type_id":"4","last_reported":1762794566,"current_range_meters":6800,"station_id":"ce4bhn12rcd13ifvqgqg","pricing_plan_id":"cebpf4jnsgd1na2vs0mg"},{"bike_id":"b46fda2a-a529-4554-8b6b-61acb69be997","system_id":"levelo_inurba_marseille","lat":43.28493,"lon":5.38564,"is_reserved":false,"is_disabled":false,"rental_uris":{"android":"levelo://app?vid=b46fda2a-a529-4554-8b6b-61acb69be997","ios":"levelo://app?vid=b46fda2a-a529-4554-8b6b-61acb69be997"},"vehicle_type_id":"4","last_reported":1762794566,"current_range_meters":6800,"station_id":"ce4bh8p2rcd13ifvqeb0","pricing_plan_id":"cebpf4jnsgd1na2vs0mg"},{"bike_id":"0a7a7ffb-e78b-4891-b972-39a6fdb8c9e4","system_id":"levelo_inurba_marseille","lat":43.29529,"lon":5.385603,"is_reserved":false,"is_disabled":false,"rental_uris":{"android":"levelo://app?vid=0a7a7ffb-e78b-4891-b972-39a6fdb8c9e4","ios":"levelo://app?vid=0a7a7ffb-e78b-4891-b972-39a6fdb8c9e4"},"vehicle_type_id":"4","last_reported":1762794566,"current_range_meters":6800,"station_id":"ce4bgih2rcd13ifvqba0","pricing_plan_id":"cebpf4jnsgd1na2vs0mg"},{"bike_id":"35712c7b-9b5a-4b38-9f27-d0f612918c3a","system_id":"levelo_inurba_marseille","lat":43.32285,"lon":5.38275,"is_reserved":false,"is_disabled":false,"rental_uris":{"android":"levelo://app?vid=35712c7b-9b5a-4b38-9f27-d0f612918c3a","ios":"levelo://app?vid=35712c7b-9b5a-4b38-9f27-d0f612918c3a"},"vehicle_type_id":"4","last_reported":1762794566,"current_range_meters":6800,"station_id":"ce4bhr12rcd13ifvqhqg","pricing_plan_id":"cebpf4jnsgd1na2vs0mg"},{"bike_id":"e9e81f9c-82fe-4b6f-a30c-8fbb12782382","system_id":"levelo_inurba_marseille","lat":43.245451,"lon":5.395248,"is_reserved":false,"is_disabled":false,"rental_uris":{"android":"levelo://app?vid=e9e81f9c-82fe-4b6f-a30c-8fbb12782382","ios":"levelo://app?vid=e9e81f9c-82fe-4b6f-a30c-8fbb12782382"},"vehicle_type_id":"4","last_reported":1762794566,"current_range_meters":6800,"station_id":"ce4bhlp2rcd13ifvqgjg","pricing_plan_id":"cebpf4jnsgd1na2vs0mg"},{"bike_id":"cc64b289-643a-42f8-b480-750d1907471c","system_id":"levelo_inurba_marseille","lat":43.297068,"lon":5.366109,"is_reserved":false,"is_disabled":false,"rental_uris":{"android":"levelo://app?vid=cc64b289-643a-42f8-b480-750d1907471c","ios":"levelo://app?vid=cc64b289-643a-42f8-b480-750d1907471c"},"vehicle_type_id":"4","last_reported":1762794566,"current_range_meters":7200,"station_id":"ce4bgn12rcd13ifvqbt0","pricing_plan_id":"cebpf4jnsgd1na2vs0mg"},{"bike_id":"830dfab2-560a-4e3a-aca8-b8435992583b","system_id":"levelo_inurba_marseille","lat":43.31169,"lon":5.38725,"is_reserved":false,"is_disabled":false,"rental_uris":{"android":"levelo://app?vid=830dfab2-560a-4e3a-aca8-b8435992583b","ios":"levelo://app?vid=830dfab2-560a-4e3a-aca8-b8435992583b"},"vehicle_type_id":"4","last_reported":1762794566,"current_range_meters":7200,"station_id":"ce4bgv12rcd13ifvqcp0","pricing_plan_id":"cebpf4jnsgd1na2vs0mg"},{"bike_id":"70510216-2029-40be-9731-181d6b8ce1d8","system_id":"levelo_inurba_marseille","lat":43.28938,"lon":5.39637,"is_reserved":false,"is_disabled":false,"rental_uris":{"android":"levelo://app?vid=70510216-2029-40be-9731-181d6b8ce1d8","ios":"levelo://app?vid=70510216-2029-40be-9731-181d6b8ce1d8"},"vehicle_type_id":"4","last_reported":1762794566,"current_range_meters":7200,"station_id":"ce4bh3h2rcd13ifvqdn0","pricing_plan_id":"cebpf4jnsgd1na2vs0mg"},{"bike_id":"bcb7664a-39c2-46f8-930f-41cebd3d0b86","system_id":"levelo_inurba_marseille","lat":43.21175,"lon":5.35109,"is_reserved":false,"is_disabled":true,"rental_uris":{"android":"levelo://app?vid=bcb7664a-39c2-46f8-930f-41cebd3d0b86","ios":"levelo://app?vid=bcb7664a-39c2-46f8-930f-41cebd3d0b86"},"vehicle_type_id":"4","last_reported":1762794566,"current_range_meters":7200,"station_id":"st_cvj6sg6p6f1abm77japg","pricing_plan_id":"cebpf4jnsgd1na2vs0mg"},{"bike_id":"4235869e-e646-431b-9230-dfc11b9a35e5","system_id":"levelo_inurba_marseille","lat":43.29674,"lon":5.37294,"is_reserved":false,"is_disabled":false,"rental_uris":{"android":"levelo://app?vid=4235869e-e646-431b-9230-dfc11b9a35e5","ios":"levelo://app?vid=4235869e-e646-431b-9230-dfc11b9a35e5"},"vehicle_type_id":"4","last_reported":1762794566,"current_range_meters":8000,"station_id":"ce4bgk12rcd13ifvqbj0","pricing_plan_id":"cebpf4jnsgd1na2vs0mg"},{"bike_id":"f40250da-596c-46fc-83b3-5de1830d4d06","system_id":"levelo_inurba_marseille","lat":43.29525,"lon":5.39401,"is_reserved":false,"is_disabled":false,"rental_uris":{"android":"levelo://app?vid=f40250da-596c-46fc-83b3-5de1830d4d06","ios":"levelo://app?vid=f40250da-596c-46fc-83b3-5de1830d4d06"},"vehicle_type_id":"4","last_reported":1762794566,"current_range_meters":8000,"station_id":"ce4bh292rcd13ifvqdf0","pricing_plan_id":"cebpf4jnsgd1na2vs0mg"},{"bike_id":"a3b87c2d-2db1-4073-97f0-1a56f58e1b2e","system_id":"levelo_inurba_marseille","lat":43.27922,"lon":5.39598,"is_reserved":false,"is_disabled":false,"rental_uris":{"android":"levelo://app?vid=a3b87c2d-2db1-4073-97f0-1a56f58e1b2e","ios":"levelo://app?vid=a3b87c2d-2db1-4073-97f0-1a56f58e1b2e"},"vehicle_type_id":"4","last_reported":1762794566,"current_range_meters":8000,"station_id":"ce4bhf92rcd13ifvqf40","pricing_plan_id":"cebpf4jnsgd1na2vs0mg"},{"bike_id":"9d8a5496-572e-46d4-8701-39365889ed0d","system_id":"levelo_inurba_marseille","lat":43.29767,"lon":5.37106,"is_reserved":false,"is_disabled":false,"rental_uris":{"android":"levelo://app?vid=9d8a5496-572e-46d4-8701-39365889ed0d","ios":"levelo://app?vid=9d8a5496-572e-46d4-8701-39365889ed0d"},"vehicle_type_id":"4","last_reported":1762794566,"current_range_meters":8000,"station_id":"ce4bgop2rcd13ifvqc1g","pricing_plan_id":"cebpf4jnsgd1na2vs0mg"},{"bike_id":"34a1d4f1-be9b-4328-93f1-e367a5a30247","system_id":"levelo_inurba_marseille","lat":43.30131,"lon":5.38943,"is_reserved":false,"is_disabled":false,"rental_uris":{"android":"levelo://app?vid=34a1d4f1-be9b-4328-93f1-e367a5a30247","ios":"levelo://app?vid=34a1d4f1-be9b-4328-93f1-e367a5a30247"},"vehicle_type_id":"4","last_reported":1762794566,"current_range_meters":8000,"station_id":"","pricing_plan_id":"cebpf4jnsgd1na2vs0mg"},{"bike_id":"52346ca4-deb3-4252-b7a9-2bb8b689216f","system_id":"levelo_inurba_marseille","lat":43.28717,"lon":5.379349,"is_reserved":false,"is_disabled":false,"rental_uris":{"android":"levelo://app?vid=52346ca4-deb3-4252-b7a9-2bb8b689216f","ios":"levelo://app?vid=52346ca4-deb3-4252-b7a9-2bb8b689216f"},"vehicle_type_id":"4","last_reported":1762794566,"current_range_meters":8000,"station_id":"ce4bh9p2rcd13ifvqec0","pricing_plan_id":"cebpf4jnsgd1na2vs0mg"},{"bike_id":"8ed2498b-d6d1-4d57-a110-88cc7ec45b13","system_id":"levelo_inurba_marseille","lat":43.27809,"lon":5.40706,"is_reserved":false,"is_disabled":false,"rental_uris":{"android":"levelo://app?vid=8ed2498b-d6d1-4d57-a110-88cc7ec45b13","ios":"levelo://app?vid=8ed2498b-d6d1-4d57-a110-88cc7ec45b13"},"vehicle_type_id":"4","last_reported":1762794566,"current_range_meters":8000,"station_id":"ce4bhnh2rcd13ifvqgtg","pricing_plan_id":"cebpf4jnsgd1na2vs0mg"},{"bike_id":"81537e7e-7e7d-4385-9974-9c805522d98f","system_id":"levelo_inurba_marseille","lat":43.29917,"lon":5.365503,"is_reserved":false,"is_disabled":false,"rental_uris":{"android":"levelo://app?vid=81537e7e-7e7d-4385-9974-9c805522d98f","ios":"levelo://app?vid=81537e7e-7e7d-4385-9974-9c805522d98f"},"vehicle_type_id":"4","last_reported":1762794566,"current_range_meters":8000,"station_id":"ce4bgm92rcd13ifvqbr0","pricing_plan_id":"cebpf4jnsgd1na2vs0mg"},{"bike_id":"5997c6b0-b0f4-4848-a8f1-63ca201df211","system_id":"levelo_inurba_marseille","lat":43.33942,"lon":5.41503,"is_reserved":false,"is_disabled":false,"rental_uris":{"android":"levelo://app?vid=5997c6b0-b0f4-4848-a8f1-63ca201df211","ios":"levelo://app?vid=5997c6b0-b0f4-4848-a8f1-63ca201df211"},"vehicle_type_id":"4","last_reported":1762794566,"current_range_meters":8000,"station_id":"","pricing_plan_id":"cebpf4jnsgd1na2vs0mg"},{"bike_id":"1aaa3e55-070b-4ad8-bc5f-7c204f320be3","system_id":"levelo_inurba_marseille","lat":43.28395,"lon":5.3752,"is_reserved":false,"is_disabled":false,"rental_uris":{"android":"levelo://app?vid=1aaa3e55-070b-4ad8-bc5f-7c204f320be3","ios":"levelo://app?vid=1aaa3e55-070b-4ad8-bc5f-7c204f320be3"},"vehicle_type_id":"4","last_reported":1762794566,"current_range_meters":8400,"station_id":"ce4bh412rcd13ifvqds0","pricing_plan_id":"cebpf4jnsgd1na2vs0mg"},{"bike_id":"e56bb510-27a9-4440-9384-ee2ea6b7aa66","system_id":"levelo_inurba_marseille","lat":43.30149,"lon":5.39846,"is_reserved":false,"is_disabled":false,"rental_uris":{"android":"levelo://app?vid=e56bb510-27a9-4440-9384-ee2ea6b7aa66","ios":"levelo://app?vid=e56bb510-27a9-4440-9384-ee2ea6b7aa66"},"vehicle_type_id":"4","last_reported":1762794566,"current_range_meters":8400,"station_id":"ce4bh0h2rcd13ifvqd40","pricing_plan_id":"cebpf4jnsgd1na2vs0mg"},{"bike_id":"65a11e93-c6ac-45f6-8b2d-4e2be71674e9","system_id":"levelo_inurba_marseille","lat":43.303016,"lon":5.368764,"is_reserved":false,"is_disabled":false,"rental_uris":{"android":"levelo://app?vid=65a11e93-c6ac-45f6-8b2d-4e2be71674e9","ios":"levelo://app?vid=65a11e93-c6ac-45f6-8b2d-4e2be71674e9"},"vehicle_type_id":"4","last_reported":1762794566,"current_range_meters":8400,"station_id":"ce4bgqh2rcd13ifvqc5g","pricing_plan_id":"cebpf4jnsgd1na2vs0mg"},{"bike_id":"f1d04910-a1e7-4229-a6a7-9e76c7e6bb00","system_id":"levelo_inurba_marseille","lat":43.31489,"lon":5.37312,"is_reserved":false,"is_disabled":false,"rental_uris":{"android":"levelo://app?vid=f1d04910-a1e7-4229-a6a7-9e76c7e6bb00","ios":"levelo://app?vid=f1d04910-a1e7-4229-a6a7-9e76c7e6bb00"},"vehicle_type_id":"4","last_reported":1762794566,"current_range_meters":8400,"station_id":"ce4bgt12rcd13ifvqcd0","pricing_plan_id":"cebpf4jnsgd1na2vs0mg"},{"bike_id":"24f52fdf-4bb3-45c7-9abc-807b1796f731","system_id":"levelo_inurba_marseille","lat":43.289211,"lon":5.359431,"is_reserved":false,"is_disabled":false,"rental_uris":{"android":"levelo://app?vid=24f52fdf-4bb3-45c7-9abc-807b1796f731","ios":"levelo://app?vid=24f52fdf-4bb3-45c7-9abc-807b1796f731"},"vehicle_type_id":"4","last_reported":1762794566,"current_range_meters":8400,"station_id":"ce4bgvp2rcd13ifvqct0","pricing_plan_id":"cebpf4jnsgd1na2vs0mg"},{"bike_id":"f4bc1d7f-757b-42f5-aa58-f310968238a8","system_id":"levelo_inurba_marseille","lat":43.27936,"lon":5.41065,"is_reserved":false,"is_disabled":false,"rental_uris":{"android":"levelo://app?vid=f4bc1d7f-757b-42f5-aa58-f310968238a8","ios":"levelo://app?vid=f4bc1d7f-757b-42f5-aa58-f310968238a8"},"vehicle_type_id":"4","last_reported":1762794566,"current_range_meters":8400,"station_id":"ce4bhnp2rcd13ifvqh0g","pricing_plan_id":"cebpf4jnsgd1na2vs0mg"},{"bike_id":"afcd4fb3-3008-4f22-a360-690fe957e5a2","system_id":"levelo_inurba_marseille","lat":43.25577,"lon":5.38236,"is_reserved":false,"is_disabled":false,"rental_uris":{"android":"levelo://app?vid=afcd4fb3-3008-4f22-a360-690fe957e5a2","ios":"levelo://app?vid=afcd4fb3-3008-4f22-a360-690fe957e5a2"},"vehicle_type_id":"4","last_reported":1762794566,"current_range_meters":8400,"station_id":"ce4bhih2rcd13ifvqfs0","pricing_plan_id":"cebpf4jnsgd1na2vs0mg"},{"bike_id":"809b90b6-9486-481e-9c43-fd166b11ee7c","system_id":"levelo_inurba_marseille","lat":43.294491,"lon":5.396886,"is_reserved":false,"is_disabled":false,"rental_uris":{"android":"levelo://app?vid=809b90b6-9486-481e-9c43-fd166b11ee7c","ios":"levelo://app?vid=809b90b6-9486-481e-9c43-fd166b11ee7c"},"vehicle_type_id":"4","last_reported":1762794566,"current_range_meters":8400,"station_id":"","pricing_plan_id":"cebpf4jnsgd1na2vs0mg"},{"bike_id":"6c311e29-6110-4066-b266-e0a617db7ab9","system_id":"levelo_inurba_marseille","lat":43.26199,"lon":5.37931,"is_reserved":false,"is_disabled":false,"rental_uris":{"android":"levelo://app?vid=6c311e29-6110-4066-b266-e0a617db7ab9","ios":"levelo://app?vid=6c311e29-6110-4066-b266-e0a617db7ab9"},"vehicle_type_id":"4","last_reported":1762794566,"current_range_meters":8800,"station_id":"ce4bhjp2rcd13ifvqg90","pricing_plan_id":"cebpf4jnsgd1na2vs0mg"},{"bike_id":"ec19e67f-5a21-41b6-ae83-289ed94e487c","system_id":"levelo_inurba_marseille","lat":43.30217,"lon":5.39467,"is_reserved":false,"is_disabled":false,"rental_uris":{"android":"levelo://app?vid=ec19e67f-5a21-41b6-ae83-289ed94e487c","ios":"levelo://app?vid=ec19e67f-5a21-41b6-ae83-289ed94e487c"},"vehicle_type_id":"4","last_reported":1762794566,"current_range_meters":8800,"station_id":"ce4bh0p2rcd13ifvqd70","pricing_plan_id":"cebpf4jnsgd1na2vs0mg"},{"bike_id":"296b35f4-bf34-48bd-a614-0084f905815f","system_id":"levelo_inurba_marseille","lat":43.29922,"lon":5.36389,"is_reserved":false,"is_disabled":false,"rental_uris":{"android":"levelo://app?vid=296b35f4-bf34-48bd-a614-0084f905815f","ios":"levelo://app?vid=296b35f4-bf34-48bd-a614-0084f905815f"},"vehicle_type_id":"4","last_reported":1762794566,"current_range_meters":8800,"station_id":"","pricing_plan_id":"cebpf4jnsgd1na2vs0mg"},{"bike_id":"a2edf73b-294e-4e03-876a-1f2fcc69ddc3","system_id":"levelo_inurba_marseille","lat":43.331617,"lon":5.376813,"is_reserved":false,"is_disabled":false,"rental_uris":{"android":"levelo://app?vid=a2edf73b-294e-4e03-876a-1f2fcc69ddc3","ios":"levelo://app?vid=a2edf73b-294e-4e03-876a-1f2fcc69ddc3"},"vehicle_type_id":"4","last_reported":1762794566,"current_range_meters":9200,"station_id":"st_d46cu089ee8s73dldbu0","pricing_plan_id":"cebpf4jnsgd1na2vs0mg"},{"bike_id":"d3a71c4b-c93f-49f8-ae58-edafdb52b0cb","system_id":"levelo_inurba_marseille","lat":43.297051,"lon":5.376501,"is_reserved":false,"is_disabled":false,"rental_uris":{"android":"levelo://app?vid=d3a71c4b-c93f-49f8-ae58-edafdb52b0cb","ios":"levelo://app?vid=d3a71c4b-c93f-49f8-ae58-edafdb52b0cb"},"vehicle_type_id":"4","last_reported":1762794566,"current_range_meters":9200,"station_id":"ce4bgkh2rcd13ifvqbl0","pricing_plan_id":"cebpf4jnsgd1na2vs0mg"},{"bike_id":"d32acf6f-21aa-4fbf-bed6-33d296ca0f9f","system_id":"levelo_inurba_marseille","lat":43.21755,"lon":5.34611,"is_reserved":false,"is_disabled":false,"rental_uris":{"android":"levelo://app?vid=d32acf6f-21aa-4fbf-bed6-33d296ca0f9f","ios":"levelo://app?vid=d32acf6f-21aa-4fbf-bed6-33d296ca0f9f"},"vehicle_type_id":"4","last_reported":1762794566,"current_range_meters":9200,"station_id":"st_cvj6r9ubvosntc0bgbag","pricing_plan_id":"cebpf4jnsgd1na2vs0mg"},{"bike_id":"eb451913-43c9-42dc-b9a4-197c52fcc202","system_id":"levelo_inurba_marseille","lat":43.299827,"lon":5.384984,"is_reserved":false,"is_disabled":false,"rental_uris":{"android":"levelo://app?vid=eb451913-43c9-42dc-b9a4-197c52fcc202","ios":"levelo://app?vid=eb451913-43c9-42dc-b9a4-197c52fcc202"},"vehicle_type_id":"4","last_reported":1762794566,"current_range_meters":9200,"station_id":"ce4bh4p2rcd13ifvqe1g","pricing_plan_id":"cebpf4jnsgd1na2vs0mg"},{"bike_id":"1331e9c4-6168-4050-93b6-f48d79ff037c","system_id":"levelo_inurba_marseille","lat":43.28367,"lon":5.38626,"is_reserved":false,"is_disabled":false,"rental_uris":{"android":"levelo://app?vid=1331e9c4-6168-4050-93b6-f48d79ff037c","ios":"levelo://app?vid=1331e9c4-6168-4050-93b6-f48d79ff037c"},"vehicle_type_id":"4","last_reported":1762794566,"current_range_meters":9200,"station_id":"ce4bh492rcd13ifvqdvg","pricing_plan_id":"cebpf4jnsgd1na2vs0mg"},{"bike_id":"f08621f1-92b2-4985-8a3a-96dd283a7c2b","system_id":"levelo_inurba_marseille","lat":43.31354,"lon":5.37932,"is_reserved":false,"is_disabled":false,"rental_uris":{"android":"levelo://app?vid=f08621f1-92b2-4985-8a3a-96dd283a7c2b","ios":"levelo://app?vid=f08621f1-92b2-4985-8a3a-96dd283a7c2b"},"vehicle_type_id":"4","last_reported":1762794566,"current_range_meters":9200,"station_id":"","pricing_plan_id":"cebpf4jnsgd1na2vs0mg"},{"bike_id":"d07a336d-fb3c-4acc-b386-14e8c0075042","system_id":"levelo_inurba_marseille","lat":43.27914,"lon":5.39586,"is_reserved":false,"is_disabled":false,"rental_uris":{"android":"levelo://app?vid=d07a336d-fb3c-4acc-b386-14e8c0075042","ios":"levelo://app?vid=d07a336d-fb3c-4acc-b386-14e8c0075042"},"vehicle_type_id":"4","last_reported":1762794566,"current_range_meters":9200,"station_id":"ce4bhf92rcd13ifvqf40","pricing_plan_id":"cebpf4jnsgd1na2vs0mg"},{"bike_id":"46748178-17b8-4dc8-80b3-39159ff743e0","system_id":"levelo_inurba_marseille","lat":43.3005,"lon":5.38345,"is_reserved":false,"is_disabled":false,"rental_uris":{"android":"levelo://app?vid=46748178-17b8-4dc8-80b3-39159ff743e0","ios":"levelo://app?vid=46748178-17b8-4dc8-80b3-39159ff743e0"},"vehicle_type_id":"4","last_reported":1762794566,"current_range_meters":9600,"station_id":"","pricing_plan_id":"cebpf4jnsgd1na2vs0mg"},{"bike_id":"a217b403-0e0e-406f-8550-0ae8a12787cc","system_id":"levelo_inurba_marseille","lat":43.30803,"lon":5.38137,"is_reserved":false,"is_disabled":false,"rental_uris":{"android":"levelo://app?vid=a217b403-0e0e-406f-8550-0ae8a12787cc","ios":"levelo://app?vid=a217b403-0e0e-406f-8550-0ae8a12787cc"},"vehicle_type_id":"4","last_reported":1762794566,"current_range_meters":9600,"station_id":"ce4bgt12rcd13ifvqce0","pricing_plan_id":"cebpf4jnsgd1na2vs0mg"},{"bike_id":"b0b9a86d-71d8-45a1-822e-818891eebf25","system_id":"levelo_inurba_marseille","lat":43.28406,"lon":5.37515,"is_reserved":false,"is_disabled":false,"rental_uris":{"android":"levelo://app?vid=b0b9a86d-71d8-45a1-822e-818891eebf25","ios":"levelo://app?vid=b0b9a86d-71d8-45a1-822e-818891eebf25"},"vehicle_type_id":"4","last_reported":1762794566,"current_range_meters":9600,"station_id":"ce4bh412rcd13ifvqds0","pricing_plan_id":"cebpf4jnsgd1na2vs0mg"},{"bike_id":"b4cb9bc3-2674-422b-8c74-5594292dd02e","system_id":"levelo_inurba_marseille","lat":43.27532,"lon":5.37503,"is_reserved":false,"is_disabled":false,"rental_uris":{"android":"levelo://app?vid=b4cb9bc3-2674-422b-8c74-5594292dd02e","ios":"levelo://app?vid=b4cb9bc3-2674-422b-8c74-5594292dd02e"},"vehicle_type_id":"4","last_reported":1762794566,"current_range_meters":9600,"station_id":"","pricing_plan_id":"cebpf4jnsgd1na2vs0mg"},{"bike_id":"9396bf77-32e3-43d5-bc70-e539c74aef98","system_id":"levelo_inurba_marseille","lat":43.25726,"lon":5.41106,"is_reserved":false,"is_disabled":false,"rental_uris":{"android":"levelo://app?vid=9396bf77-32e3-43d5-bc70-e539c74aef98","ios":"levelo://app?vid=9396bf77-32e3-43d5-bc70-e539c74aef98"},"vehicle_type_id":"4","last_reported":1762794566,"current_range_meters":9600,"station_id":"ce4bhkp2rcd13ifvqgd0","pricing_plan_id":"cebpf4jnsgd1na2vs0mg"},{"bike_id":"084c6da6-d167-440b-9229-7b484799eab4","system_id":"levelo_inurba_marseille","lat":43.2835,"lon":5.38095,"is_reserved":false,"is_disabled":false,"rental_uris":{"android":"levelo://app?vid=084c6da6-d167-440b-9229-7b484799eab4","ios":"levelo://app?vid=084c6da6-d167-440b-9229-7b484799eab4"},"vehicle_type_id":"4","last_reported":1762794566,"current_range_meters":10000,"station_id":"ce4bh412rcd13ifvqdr0","pricing_plan_id":"cebpf4jnsgd1na2vs0mg"},{"bike_id":"dcd82a54-2f9a-4090-9ddf-2ced71287934","system_id":"levelo_inurba_marseille","lat":43.28461,"lon":5.35893,"is_reserved":false,"is_disabled":false,"rental_uris":{"android":"levelo://app?vid=dcd82a54-2f9a-4090-9ddf-2ced71287934","ios":"levelo://app?vid=dcd82a54-2f9a-4090-9ddf-2ced71287934"},"vehicle_type_id":"4","last_reported":1762794566,"current_range_meters":10000,"station_id":"ce4bhah2rcd13ifvqei0","pricing_plan_id":"cebpf4jnsgd1na2vs0mg"},{"bike_id":"23c4cccc-5fa8-4268-9366-d2863b53e129","system_id":"levelo_inurba_marseille","lat":43.28937,"lon":5.3664,"is_reserved":false,"is_disabled":false,"rental_uris":{"android":"levelo://app?vid=23c4cccc-5fa8-4268-9366-d2863b53e129","ios":"levelo://app?vid=23c4cccc-5fa8-4268-9366-d2863b53e129"},"vehicle_type_id":"4","last_reported":1762794566,"current_range_meters":10000,"station_id":"ce4bhap2rcd13ifvqek0","pricing_plan_id":"cebpf4jnsgd1na2vs0mg"},{"bike_id":"07618fb4-fdf4-452a-a76e-4b0defae3541","system_id":"levelo_inurba_marseille","lat":43.225361,"lon":5.348313,"is_reserved":false,"is_disabled":false,"rental_uris":{"android":"levelo://app?vid=07618fb4-fdf4-452a-a76e-4b0defae3541","ios":"levelo://app?vid=07618fb4-fdf4-452a-a76e-4b0defae3541"},"vehicle_type_id":"4","last_reported":1762794566,"current_range_meters":10000,"station_id":"","pricing_plan_id":"cebpf4jnsgd1na2vs0mg"},{"bike_id":"4720db16-8b2a-4715-b38e-881890595c85","system_id":"levelo_inurba_marseille","lat":43.2466,"lon":5.43144,"is_reserved":false,"is_disabled":false,"rental_uris":{"android":"levelo://app?vid=4720db16-8b2a-4715-b38e-881890595c85","ios":"levelo://app?vid=4720db16-8b2a-4715-b38e-881890595c85"},"vehicle_type_id":"4","last_reported":1762794566,"current_range_meters":10000,"station_id":"st_d2m6c4gdas8pm72e190g","pricing_plan_id":"cebpf4jnsgd1na2vs0mg"},{"bike_id":"bac82b38-5b75-4b4a-a000-ad5083a8fd94","system_id":"levelo_inurba_marseille","lat":43.28465,"lon":5.38414,"is_reserved":false,"is_disabled":false,"rental_uris":{"android":"levelo://app?vid=bac82b38-5b75-4b4a-a000-ad5083a8fd94","ios":"levelo://app?vid=bac82b38-5b75-4b4a-a000-ad5083a8fd94"},"vehicle_type_id":"4","last_reported":1762794566,"current_range_meters":10000,"station_id":"ce4bh512rcd13ifvqe3g","pricing_plan_id":"cebpf4jnsgd1na2vs0mg"},{"bike_id":"87524a3f-48c2-4e95-9608-7652abaa9a53","system_id":"levelo_inurba_marseille","lat":43.306881,"lon":5.367596,"is_reserved":false,"is_disabled":false,"rental_uris":{"android":"levelo://app?vid=87524a3f-48c2-4e95-9608-7652abaa9a53","ios":"levelo://app?vid=87524a3f-48c2-4e95-9608-7652abaa9a53"},"vehicle_type_id":"4","last_reported":1762794566,"current_range_meters":10800,"station_id":"","pricing_plan_id":"cebpf4jnsgd1na2vs0mg"},{"bike_id":"5734fe58-ea38-4e7c-9f0c-78bf4b96dada","system_id":"levelo_inurba_marseille","lat":43.295397,"lon":5.393667,"is_reserved":false,"is_disabled":false,"rental_uris":{"android":"levelo://app?vid=5734fe58-ea38-4e7c-9f0c-78bf4b96dada","ios":"levelo://app?vid=5734fe58-ea38-4e7c-9f0c-78bf4b96dada"},"vehicle_type_id":"4","last_reported":1762794566,"current_range_meters":10800,"station_id":"ce4bh292rcd13ifvqdf0","pricing_plan_id":"cebpf4jnsgd1na2vs0mg"},{"bike_id":"ab4ac132-5519-4aac-ac12-8b8c2929bb7e","system_id":"levelo_inurba_marseille","lat":43.32302,"lon":5.38493,"is_reserved":false,"is_disabled":false,"rental_uris":{"android":"levelo://app?vid=ab4ac132-5519-4aac-ac12-8b8c2929bb7e","ios":"levelo://app?vid=ab4ac132-5519-4aac-ac12-8b8c2929bb7e"},"vehicle_type_id":"4","last_reported":1762794566,"current_range_meters":10800,"station_id":"st_d45171o9ee8s73djdqug","pricing_plan_id":"cebpf4jnsgd1na2vs0mg"},{"bike_id":"67c51bb9-c92a-4d1b-b3a7-1791599a7a36","system_id":"levelo_inurba_marseille","lat":43.296108,"lon":5.377236,"is_reserved":false,"is_disabled":false,"rental_uris":{"android":"levelo://app?vid=67c51bb9-c92a-4d1b-b3a7-1791599a7a36","ios":"levelo://app?vid=67c51bb9-c92a-4d1b-b3a7-1791599a7a36"},"vehicle_type_id":"4","last_reported":1762794566,"current_range_meters":10800,"station_id":"ce4bgi92rcd13ifvqb90","pricing_plan_id":"cebpf4jnsgd1na2vs0mg"},{"bike_id":"be3d8650-9293-46bc-b0c9-a47bad563b96","system_id":"levelo_inurba_marseille","lat":43.21744,"lon":5.34599,"is_reserved":false,"is_disabled":false,"rental_uris":{"android":"levelo://app?vid=be3d8650-9293-46bc-b0c9-a47bad563b96","ios":"levelo://app?vid=be3d8650-9293-46bc-b0c9-a47bad563b96"},"vehicle_type_id":"4","last_reported":1762794566,"current_range_meters":10800,"station_id":"st_cvj6r9ubvosntc0bgbag","pricing_plan_id":"cebpf4jnsgd1na2vs0mg"},{"bike_id":"fd513886-05bf-441a-8bc4-814625ad9695","system_id":"levelo_inurba_marseille","lat":43.28943,"lon":5.36631,"is_reserved":false,"is_disabled":false,"rental_uris":{"android":"levelo://app?vid=fd513886-05bf-441a-8bc4-814625ad9695","ios":"levelo://app?vid=fd513886-05bf-441a-8bc4-814625ad9695"},"vehicle_type_id":"4","last_reported":1762794566,"current_range_meters":10800,"station_id":"ce4bhap2rcd13ifvqek0","pricing_plan_id":"cebpf4jnsgd1na2vs0mg"},{"bike_id":"e9f6cd81-eca4-472a-9f43-6d8cda46a91a","system_id":"levelo_inurba_marseille","lat":43.29631,"lon":5.40593,"is_reserved":false,"is_disabled":false,"rental_uris":{"android":"levelo://app?vid=e9f6cd81-eca4-472a-9f43-6d8cda46a91a","ios":"levelo://app?vid=e9f6cd81-eca4-472a-9f43-6d8cda46a91a"},"vehicle_type_id":"4","last_reported":1762794566,"current_range_meters":10800,"station_id":"ce4bh0h2rcd13ifvqd60","pricing_plan_id":"cebpf4jnsgd1na2vs0mg"},{"bike_id":"77dd386a-c491-4903-b512-c2486567c465","system_id":"levelo_inurba_marseille","lat":43.28927,"lon":5.36627,"is_reserved":false,"is_disabled":false,"rental_uris":{"android":"levelo://app?vid=77dd386a-c491-4903-b512-c2486567c465","ios":"levelo://app?vid=77dd386a-c491-4903-b512-c2486567c465"},"vehicle_type_id":"4","last_reported":1762794566,"current_range_meters":10800,"station_id":"ce4bhap2rcd13ifvqek0","pricing_plan_id":"cebpf4jnsgd1na2vs0mg"},{"bike_id":"39ff6a52-7c15-4e36-9056-950efe8be9ca","system_id":"levelo_inurba_marseille","lat":43.28481,"lon":5.48396,"is_reserved":false,"is_disabled":false,"rental_uris":{"android":"levelo://app?vid=39ff6a52-7c15-4e36-9056-950efe8be9ca","ios":"levelo://app?vid=39ff6a52-7c15-4e36-9056-950efe8be9ca"},"vehicle_type_id":"4","last_reported":1762794566,"current_range_meters":10800,"station_id":"","pricing_plan_id":"cebpf4jnsgd1na2vs0mg"},{"bike_id":"a906f7c6-e9b7-42af-8bd2-6e1feeb979a5","system_id":"levelo_inurba_marseille","lat":43.28832,"lon":5.39566,"is_reserved":false,"is_disabled":false,"rental_uris":{"android":"levelo://app?vid=a906f7c6-e9b7-42af-8bd2-6e1feeb979a5","ios":"levelo://app?vid=a906f7c6-e9b7-42af-8bd2-6e1feeb979a5"},"vehicle_type_id":"4","last_reported":1762794566,"current_range_meters":11200,"station_id":"","pricing_plan_id":"cebpf4jnsgd1na2vs0mg"},{"bike_id":"7565d69b-137a-440b-a1f8-3d71053d1475","system_id":"levelo_inurba_marseille","lat":43.270589,"lon":5.402549,"is_reserved":false,"is_disabled":false,"rental_uris":{"android":"levelo://app?vid=7565d69b-137a-440b-a1f8-3d71053d1475","ios":"levelo://app?vid=7565d69b-137a-440b-a1f8-3d71053d1475"},"vehicle_type_id":"4","last_reported":1762794566,"current_range_meters":11600,"station_id":"","pricing_plan_id":"cebpf4jnsgd1na2vs0mg"},{"bike_id":"96807a8e-1b45-4a36-b7ed-92091f4bcaf6","system_id":"levelo_inurba_marseille","lat":43.309306,"lon":5.401424,"is_reserved":false,"is_disabled":false,"rental_uris":{"android":"levelo://app?vid=96807a8e-1b45-4a36-b7ed-92091f4bcaf6","ios":"levelo://app?vid=96807a8e-1b45-4a36-b7ed-92091f4bcaf6"},"vehicle_type_id":"4","last_reported":1762794566,"current_range_meters":11600,"station_id":"","pricing_plan_id":"cebpf4jnsgd1na2vs0mg"},{"bike_id":"cc5223b7-a0f3-494b-a98e-f5e6f3829f44","system_id":"levelo_inurba_marseille","lat":43.297441,"lon":5.427794,"is_reserved":false,"is_disabled":false,"rental_uris":{"android":"levelo://app?vid=cc5223b7-a0f3-494b-a98e-f5e6f3829f44","ios":"levelo://app?vid=cc5223b7-a0f3-494b-a98e-f5e6f3829f44"},"vehicle_type_id":"4","last_reported":1762794566,"current_range_meters":11600,"station_id":"st_d3md5207bmas73dh9klg","pricing_plan_id":"cebpf4jnsgd1na2vs0mg"},{"bike_id":"118bf030-f7aa-4e3a-ab59-cf35c67c2257","system_id":"levelo_inurba_marseille","lat":43.28708,"lon":5.37394,"is_reserved":false,"is_disabled":false,"rental_uris":{"android":"levelo://app?vid=118bf030-f7aa-4e3a-ab59-cf35c67c2257","ios":"levelo://app?vid=118bf030-f7aa-4e3a-ab59-cf35c67c2257"},"vehicle_type_id":"4","last_reported":1762794566,"current_range_meters":11600,"station_id":"ce4bh3p2rcd13ifvqdq0","pricing_plan_id":"cebpf4jnsgd1na2vs0mg"},{"bike_id":"93b49ebf-d9fa-49cd-9da3-22e867a810f3","system_id":"levelo_inurba_marseille","lat":43.29743,"lon":5.411149,"is_reserved":false,"is_disabled":false,"rental_uris":{"android":"levelo://app?vid=93b49ebf-d9fa-49cd-9da3-22e867a810f3","ios":"levelo://app?vid=93b49ebf-d9fa-49cd-9da3-22e867a810f3"},"vehicle_type_id":"4","last_reported":1762794566,"current_range_meters":11600,"station_id":"","pricing_plan_id":"cebpf4jnsgd1na2vs0mg"},{"bike_id":"ffe050e8-e964-43f0-affe-fdb013a22c0b","system_id":"levelo_inurba_marseille","lat":43.28469,"lon":5.48406,"is_reserved":false,"is_disabled":false,"rental_uris":{"android":"levelo://app?vid=ffe050e8-e964-43f0-affe-fdb013a22c0b","ios":"levelo://app?vid=ffe050e8-e964-43f0-affe-fdb013a22c0b"},"vehicle_type_id":"4","last_reported":1762794566,"current_range_meters":11600,"station_id":"","pricing_plan_id":"cebpf4jnsgd1na2vs0mg"},{"bike_id":"ac8a8750-1d87-4cf8-9c77-e78b99da5512","system_id":"levelo_inurba_marseille","lat":43.23605,"lon":5.361713,"is_reserved":false,"is_disabled":false,"rental_uris":{"android":"levelo://app?vid=ac8a8750-1d87-4cf8-9c77-e78b99da5512","ios":"levelo://app?vid=ac8a8750-1d87-4cf8-9c77-e78b99da5512"},"vehicle_type_id":"4","last_reported":1762794566,"current_range_meters":12000,"station_id":"","pricing_plan_id":"cebpf4jnsgd1na2vs0mg"},{"bike_id":"896a0fc4-e98e-425f-b646-7db4d5ace172","system_id":"levelo_inurba_marseille","lat":43.3199,"lon":5.38155,"is_reserved":false,"is_disabled":false,"rental_uris":{"android":"levelo://app?vid=896a0fc4-e98e-425f-b646-7db4d5ace172","ios":"levelo://app?vid=896a0fc4-e98e-425f-b646-7db4d5ace172"},"vehicle_type_id":"4","last_reported":1762794566,"current_range_meters":12000,"station_id":"ce4bhr12rcd13ifvqhpg","pricing_plan_id":"cebpf4jnsgd1na2vs0mg"},{"bike_id":"30a9322c-9fb4-42e5-bc73-b5c79ddce154","system_id":"levelo_inurba_marseille","lat":43.28936,"lon":5.36639,"is_reserved":false,"is_disabled":false,"rental_uris":{"android":"levelo://app?vid=30a9322c-9fb4-42e5-bc73-b5c79ddce154","ios":"levelo://app?vid=30a9322c-9fb4-42e5-bc73-b5c79ddce154"},"vehicle_type_id":"4","last_reported":1762794566,"current_range_meters":12000,"station_id":"ce4bhap2rcd13ifvqek0","pricing_plan_id":"cebpf4jnsgd1na2vs0mg"},{"bike_id":"24de70df-9b80-4721-8771-f61cb7be1ef9","system_id":"levelo_inurba_marseille","lat":43.3192,"lon":5.38126,"is_reserved":false,"is_disabled":false,"rental_uris":{"android":"levelo://app?vid=24de70df-9b80-4721-8771-f61cb7be1ef9","ios":"levelo://app?vid=24de70df-9b80-4721-8771-f61cb7be1ef9"},"vehicle_type_id":"4","last_reported":1762794566,"current_range_meters":12000,"station_id":"","pricing_plan_id":"cebpf4jnsgd1na2vs0mg"},{"bike_id":"ef5ad43b-b148-44b0-8470-8c88393b6338","system_id":"levelo_inurba_marseille","lat":43.29798,"lon":5.38092,"is_reserved":false,"is_disabled":false,"rental_uris":{"android":"levelo://app?vid=ef5ad43b-b148-44b0-8470-8c88393b6338","ios":"levelo://app?vid=ef5ad43b-b148-44b0-8470-8c88393b6338"},"vehicle_type_id":"4","last_reported":1762794566,"current_range_meters":12000,"station_id":"ce4bgip2rcd13ifvqbb0","pricing_plan_id":"cebpf4jnsgd1na2vs0mg"},{"bike_id":"71267bf9-85bb-4ed4-9579-6b051400b6fb","system_id":"levelo_inurba_marseille","lat":43.28486,"lon":5.38544,"is_reserved":false,"is_disabled":false,"rental_uris":{"android":"levelo://app?vid=71267bf9-85bb-4ed4-9579-6b051400b6fb","ios":"levelo://app?vid=71267bf9-85bb-4ed4-9579-6b051400b6fb"},"vehicle_type_id":"4","last_reported":1762794566,"current_range_meters":12000,"station_id":"ce4bh8p2rcd13ifvqeb0","pricing_plan_id":"cebpf4jnsgd1na2vs0mg"},{"bike_id":"bb816589-0d32-45db-b2bc-85b9feb905a7","system_id":"levelo_inurba_marseille","lat":43.22133,"lon":5.34566,"is_reserved":false,"is_disabled":false,"rental_uris":{"android":"levelo://app?vid=bb816589-0d32-45db-b2bc-85b9feb905a7","ios":"levelo://app?vid=bb816589-0d32-45db-b2bc-85b9feb905a7"},"vehicle_type_id":"4","last_reported":1762794566,"current_range_meters":12000,"station_id":"","pricing_plan_id":"cebpf4jnsgd1na2vs0mg"},{"bike_id":"aa8fa0f8-ea5e-4193-b26c-027982143826","system_id":"levelo_inurba_marseille","lat":43.30127,"lon":5.4312,"is_reserved":false,"is_disabled":false,"rental_uris":{"android":"levelo://app?vid=aa8fa0f8-ea5e-4193-b26c-027982143826","ios":"levelo://app?vid=aa8fa0f8-ea5e-4193-b26c-027982143826"},"vehicle_type_id":"4","last_reported":1762794566,"current_range_meters":12000,"station_id":"st_d3js3co5814s73ftftug","pricing_plan_id":"cebpf4jnsgd1na2vs0mg"},{"bike_id":"efbbbe52-08d0-4f35-a175-c5b6c37caafe","system_id":"levelo_inurba_marseille","lat":43.31318,"lon":5.39693,"is_reserved":false,"is_disabled":false,"rental_uris":{"android":"levelo://app?vid=efbbbe52-08d0-4f35-a175-c5b6c37caafe","ios":"levelo://app?vid=efbbbe52-08d0-4f35-a175-c5b6c37caafe"},"vehicle_type_id":"4","last_reported":1762794566,"current_range_meters":12000,"station_id":"ce4bgvp2rcd13ifvqcu0","pricing_plan_id":"cebpf4jnsgd1na2vs0mg"},{"bike_id":"e976c19a-f278-4164-bcf8-7aa762d97a47","system_id":"levelo_inurba_marseille","lat":43.298822,"lon":5.364747,"is_reserved":false,"is_disabled":false,"rental_uris":{"android":"levelo://app?vid=e976c19a-f278-4164-bcf8-7aa762d97a47","ios":"levelo://app?vid=e976c19a-f278-4164-bcf8-7aa762d97a47"},"vehicle_type_id":"4","last_reported":1762794566,"current_range_meters":12400,"station_id":"ce4bhgp2rcd13ifvqfe0","pricing_plan_id":"cebpf4jnsgd1na2vs0mg"},{"bike_id":"2d003246-289e-4235-87e3-d86a55465f5e","system_id":"levelo_inurba_marseille","lat":43.29892,"lon":5.37537,"is_reserved":false,"is_disabled":false,"rental_uris":{"android":"levelo://app?vid=2d003246-289e-4235-87e3-d86a55465f5e","ios":"levelo://app?vid=2d003246-289e-4235-87e3-d86a55465f5e"},"vehicle_type_id":"4","last_reported":1762794566,"current_range_meters":12400,"station_id":"","pricing_plan_id":"cebpf4jnsgd1na2vs0mg"},{"bike_id":"d331b58f-0754-4181-93f7-d4d5e2f8b496","system_id":"levelo_inurba_marseille","lat":43.225347,"lon":5.348291,"is_reserved":false,"is_disabled":false,"rental_uris":{"android":"levelo://app?vid=d331b58f-0754-4181-93f7-d4d5e2f8b496","ios":"levelo://app?vid=d331b58f-0754-4181-93f7-d4d5e2f8b496"},"vehicle_type_id":"4","last_reported":1762794566,"current_range_meters":12400,"station_id":"","pricing_plan_id":"cebpf4jnsgd1na2vs0mg"},{"bike_id":"19d97750-977b-4379-8bf5-4d571f1f6aec","system_id":"levelo_inurba_marseille","lat":43.34114,"lon":5.40715,"is_reserved":false,"is_disabled":false,"rental_uris":{"android":"levelo://app?vid=19d97750-977b-4379-8bf5-4d571f1f6aec","ios":"levelo://app?vid=19d97750-977b-4379-8bf5-4d571f1f6aec"},"vehicle_type_id":"4","last_reported":1762794566,"current_range_meters":12400,"station_id":"","pricing_plan_id":"cebpf4jnsgd1na2vs0mg"},{"bike_id":"f380af75-6b2f-45da-a5fd-a449a135b9fb","system_id":"levelo_inurba_marseille","lat":43.29533,"lon":5.39394,"is_reserved":false,"is_disabled":false,"rental_uris":{"android":"levelo://app?vid=f380af75-6b2f-45da-a5fd-a449a135b9fb","ios":"levelo://app?vid=f380af75-6b2f-45da-a5fd-a449a135b9fb"},"vehicle_type_id":"4","last_reported":1762794566,"current_range_meters":12400,"station_id":"ce4bh292rcd13ifvqdf0","pricing_plan_id":"cebpf4jnsgd1na2vs0mg"},{"bike_id":"b85ae06d-8211-45c1-91c3-6cd6434fe268","system_id":"levelo_inurba_marseille","lat":43.29435,"lon":5.4333,"is_reserved":false,"is_disabled":false,"rental_uris":{"android":"levelo://app?vid=b85ae06d-8211-45c1-91c3-6cd6434fe268","ios":"levelo://app?vid=b85ae06d-8211-45c1-91c3-6cd6434fe268"},"vehicle_type_id":"4","last_reported":1762794566,"current_range_meters":12800,"station_id":"","pricing_plan_id":"cebpf4jnsgd1na2vs0mg"},{"bike_id":"81ae76cc-b801-4759-b58f-2b51d812735a","system_id":"levelo_inurba_marseille","lat":43.217505,"lon":5.346039,"is_reserved":false,"is_disabled":false,"rental_uris":{"android":"levelo://app?vid=81ae76cc-b801-4759-b58f-2b51d812735a","ios":"levelo://app?vid=81ae76cc-b801-4759-b58f-2b51d812735a"},"vehicle_type_id":"4","last_reported":1762794566,"current_range_meters":12800,"station_id":"st_cvj6r9ubvosntc0bgbag","pricing_plan_id":"cebpf4jnsgd1na2vs0mg"},{"bike_id":"a2261492-19dd-44fa-8c32-b4eeed495387","system_id":"levelo_inurba_marseille","lat":43.29854,"lon":5.3629,"is_reserved":false,"is_disabled":false,"rental_uris":{"android":"levelo://app?vid=a2261492-19dd-44fa-8c32-b4eeed495387","ios":"levelo://app?vid=a2261492-19dd-44fa-8c32-b4eeed495387"},"vehicle_type_id":"4","last_reported":1762794566,"current_range_meters":12800,"station_id":"ce4bgpp2rcd13ifvqc3g","pricing_plan_id":"cebpf4jnsgd1na2vs0mg"},{"bike_id":"887191d7-5598-4945-87f9-798f28865afd","system_id":"levelo_inurba_marseille","lat":43.26555,"lon":5.37284,"is_reserved":false,"is_disabled":false,"rental_uris":{"android":"levelo://app?vid=887191d7-5598-4945-87f9-798f28865afd","ios":"levelo://app?vid=887191d7-5598-4945-87f9-798f28865afd"},"vehicle_type_id":"4","last_reported":1762794566,"current_range_meters":12800,"station_id":"ce4bhg12rcd13ifvqf70","pricing_plan_id":"cebpf4jnsgd1na2vs0mg"},{"bike_id":"3abbb1f3-344f-4e62-875d-37a6a86248f6","system_id":"levelo_inurba_marseille","lat":43.26682,"lon":5.38252,"is_reserved":false,"is_disabled":false,"rental_uris":{"android":"levelo://app?vid=3abbb1f3-344f-4e62-875d-37a6a86248f6","ios":"levelo://app?vid=3abbb1f3-344f-4e62-875d-37a6a86248f6"},"vehicle_type_id":"4","last_reported":1762794566,"current_range_meters":12800,"station_id":"ce4bhg92rcd13ifvqf90","pricing_plan_id":"cebpf4jnsgd1na2vs0mg"},{"bike_id":"dacc266e-3f5f-4f02-8fc8-70b64c43fa1c","system_id":"levelo_inurba_marseille","lat":43.28931,"lon":5.36404,"is_reserved":false,"is_disabled":false,"rental_uris":{"android":"levelo://app?vid=dacc266e-3f5f-4f02-8fc8-70b64c43fa1c","ios":"levelo://app?vid=dacc266e-3f5f-4f02-8fc8-70b64c43fa1c"},"vehicle_type_id":"4","last_reported":1762794566,"current_range_meters":12800,"station_id":"ce4bhc92rcd13ifvqetg","pricing_plan_id":"cebpf4jnsgd1na2vs0mg"},{"bike_id":"fb0e6bea-d078-4452-905b-07db49a4858c","system_id":"levelo_inurba_marseille","lat":43.28478,"lon":5.48401,"is_reserved":false,"is_disabled":false,"rental_uris":{"android":"levelo://app?vid=fb0e6bea-d078-4452-905b-07db49a4858c","ios":"levelo://app?vid=fb0e6bea-d078-4452-905b-07db49a4858c"},"vehicle_type_id":"4","last_reported":1762794566,"current_range_meters":12800,"station_id":"","pricing_plan_id":"cebpf4jnsgd1na2vs0mg"},{"bike_id":"9778b994-32b1-414b-b3d2-74abe2925ec7","system_id":"levelo_inurba_marseille","lat":43.31316,"lon":5.39711,"is_reserved":false,"is_disabled":false,"rental_uris":{"android":"levelo://app?vid=9778b994-32b1-414b-b3d2-74abe2925ec7","ios":"levelo://app?vid=9778b994-32b1-414b-b3d2-74abe2925ec7"},"vehicle_type_id":"4","last_reported":1762794566,"current_range_meters":12800,"station_id":"ce4bgvp2rcd13ifvqcu0","pricing_plan_id":"cebpf4jnsgd1na2vs0mg"},{"bike_id":"33382fd9-7369-4606-a4d3-9ef89d743f75","system_id":"levelo_inurba_marseille","lat":43.293154,"lon":5.371395,"is_reserved":false,"is_disabled":false,"rental_uris":{"android":"levelo://app?vid=33382fd9-7369-4606-a4d3-9ef89d743f75","ios":"levelo://app?vid=33382fd9-7369-4606-a4d3-9ef89d743f75"},"vehicle_type_id":"4","last_reported":1762794566,"current_range_meters":13600,"station_id":"ce4bgh92rcd13ifvqb40","pricing_plan_id":"cebpf4jnsgd1na2vs0mg"},{"bike_id":"adc15e44-30cd-455d-818a-4eef5519dcbd","system_id":"levelo_inurba_marseille","lat":43.3025,"lon":5.40063,"is_reserved":false,"is_disabled":false,"rental_uris":{"android":"levelo://app?vid=adc15e44-30cd-455d-818a-4eef5519dcbd","ios":"levelo://app?vid=adc15e44-30cd-455d-818a-4eef5519dcbd"},"vehicle_type_id":"4","last_reported":1762794566,"current_range_meters":13600,"station_id":"ce4bgvh2rcd13ifvqcs0","pricing_plan_id":"cebpf4jnsgd1na2vs0mg"},{"bike_id":"bb673994-b9ec-4ca4-a388-67c43209657a","system_id":"levelo_inurba_marseille","lat":43.30709,"lon":5.36827,"is_reserved":false,"is_disabled":false,"rental_uris":{"android":"levelo://app?vid=bb673994-b9ec-4ca4-a388-67c43209657a","ios":"levelo://app?vid=bb673994-b9ec-4ca4-a388-67c43209657a"},"vehicle_type_id":"4","last_reported":1762794566,"current_range_meters":13600,"station_id":"","pricing_plan_id":"cebpf4jnsgd1na2vs0mg"},{"bike_id":"9c241647-20ac-4941-8d18-01a6e3add973","system_id":"levelo_inurba_marseille","lat":43.24543,"lon":5.39514,"is_reserved":false,"is_disabled":true,"rental_uris":{"android":"levelo://app?vid=9c241647-20ac-4941-8d18-01a6e3add973","ios":"levelo://app?vid=9c241647-20ac-4941-8d18-01a6e3add973"},"vehicle_type_id":"4","last_reported":1762794566,"current_range_meters":13600,"station_id":"ce4bhlp2rcd13ifvqgjg","pricing_plan_id":"cebpf4jnsgd1na2vs0mg"},{"bike_id":"9fc59d22-8e56-48e1-b7b6-6b21b0982bb9","system_id":"levelo_inurba_marseille","lat":43.23193,"lon":5.35549,"is_reserved":false,"is_disabled":false,"rental_uris":{"android":"levelo://app?vid=9fc59d22-8e56-48e1-b7b6-6b21b0982bb9","ios":"levelo://app?vid=9fc59d22-8e56-48e1-b7b6-6b21b0982bb9"},"vehicle_type_id":"4","last_reported":1762794566,"current_range_meters":13600,"station_id":"ce4bhu92rcd13ifvqi70","pricing_plan_id":"cebpf4jnsgd1na2vs0mg"},{"bike_id":"fe53f30a-f235-4b9a-b297-6c4aedc17b2d","system_id":"levelo_inurba_marseille","lat":43.3137,"lon":5.38495,"is_reserved":false,"is_disabled":false,"rental_uris":{"android":"levelo://app?vid=fe53f30a-f235-4b9a-b297-6c4aedc17b2d","ios":"levelo://app?vid=fe53f30a-f235-4b9a-b297-6c4aedc17b2d"},"vehicle_type_id":"4","last_reported":1762794566,"current_range_meters":13600,"station_id":"ce4bgt92rcd13ifvqcf0","pricing_plan_id":"cebpf4jnsgd1na2vs0mg"},{"bike_id":"d1e4261f-49e3-4043-9dc8-26139b7858dd","system_id":"levelo_inurba_marseille","lat":43.27996,"lon":5.40027,"is_reserved":false,"is_disabled":false,"rental_uris":{"android":"levelo://app?vid=d1e4261f-49e3-4043-9dc8-26139b7858dd","ios":"levelo://app?vid=d1e4261f-49e3-4043-9dc8-26139b7858dd"},"vehicle_type_id":"4","last_reported":1762794566,"current_range_meters":14000,"station_id":"ce4bho92rcd13ifvqh4g","pricing_plan_id":"cebpf4jnsgd1na2vs0mg"},{"bike_id":"e3ca31e7-8c60-464d-95fd-3aad12a4aaf3","system_id":"levelo_inurba_marseille","lat":43.30962,"lon":5.38294,"is_reserved":false,"is_disabled":false,"rental_uris":{"android":"levelo://app?vid=e3ca31e7-8c60-464d-95fd-3aad12a4aaf3","ios":"levelo://app?vid=e3ca31e7-8c60-464d-95fd-3aad12a4aaf3"},"vehicle_type_id":"4","last_reported":1762794566,"current_range_meters":14000,"station_id":"","pricing_plan_id":"cebpf4jnsgd1na2vs0mg"},{"bike_id":"9579c44d-a78d-42fe-b520-84c173f6d4b9","system_id":"levelo_inurba_marseille","lat":43.31488,"lon":5.37307,"is_reserved":false,"is_disabled":false,"rental_uris":{"android":"levelo://app?vid=9579c44d-a78d-42fe-b520-84c173f6d4b9","ios":"levelo://app?vid=9579c44d-a78d-42fe-b520-84c173f6d4b9"},"vehicle_type_id":"4","last_reported":1762794566,"current_range_meters":14000,"station_id":"ce4bgt12rcd13ifvqcd0","pricing_plan_id":"cebpf4jnsgd1na2vs0mg"},{"bike_id":"1086c95b-b74f-4e99-9e15-ae33be8101e5","system_id":"levelo_inurba_marseille","lat":43.30145,"lon":5.3763,"is_reserved":false,"is_disabled":false,"rental_uris":{"android":"levelo://app?vid=1086c95b-b74f-4e99-9e15-ae33be8101e5","ios":"levelo://app?vid=1086c95b-b74f-4e99-9e15-ae33be8101e5"},"vehicle_type_id":"4","last_reported":1762794566,"current_range_meters":14000,"station_id":"","pricing_plan_id":"cebpf4jnsgd1na2vs0mg"},{"bike_id":"a33005c1-f643-4adb-8bee-fa011c7be68c","system_id":"levelo_inurba_marseille","lat":43.22532,"lon":5.34831,"is_reserved":false,"is_disabled":false,"rental_uris":{"android":"levelo://app?vid=a33005c1-f643-4adb-8bee-fa011c7be68c","ios":"levelo://app?vid=a33005c1-f643-4adb-8bee-fa011c7be68c"},"vehicle_type_id":"4","last_reported":1762794566,"current_range_meters":14000,"station_id":"","pricing_plan_id":"cebpf4jnsgd1na2vs0mg"},{"bike_id":"e2b0c165-8514-4433-9a73-488c0c2dffa5","system_id":"levelo_inurba_marseille","lat":43.26554,"lon":5.37288,"is_reserved":false,"is_disabled":false,"rental_uris":{"android":"levelo://app?vid=e2b0c165-8514-4433-9a73-488c0c2dffa5","ios":"levelo://app?vid=e2b0c165-8514-4433-9a73-488c0c2dffa5"},"vehicle_type_id":"4","last_reported":1762794566,"current_range_meters":14000,"station_id":"ce4bhg12rcd13ifvqf70","pricing_plan_id":"cebpf4jnsgd1na2vs0mg"},{"bike_id":"7f14d21d-9e16-4961-9d70-b10fd067921a","system_id":"levelo_inurba_marseille","lat":43.21761,"lon":5.34603,"is_reserved":false,"is_disabled":false,"rental_uris":{"android":"levelo://app?vid=7f14d21d-9e16-4961-9d70-b10fd067921a","ios":"levelo://app?vid=7f14d21d-9e16-4961-9d70-b10fd067921a"},"vehicle_type_id":"4","last_reported":1762794566,"current_range_meters":14000,"station_id":"st_cvj6r9ubvosntc0bgbag","pricing_plan_id":"cebpf4jnsgd1na2vs0mg"},{"bike_id":"bab1d297-0aed-4c46-b021-bc1fc4ba390c","system_id":"levelo_inurba_marseille","lat":43.21746,"lon":5.346,"is_reserved":false,"is_disabled":false,"rental_uris":{"android":"levelo://app?vid=bab1d297-0aed-4c46-b021-bc1fc4ba390c","ios":"levelo://app?vid=bab1d297-0aed-4c46-b021-bc1fc4ba390c"},"vehicle_type_id":"4","last_reported":1762794566,"current_range_meters":14000,"station_id":"st_cvj6r9ubvosntc0bgbag","pricing_plan_id":"cebpf4jnsgd1na2vs0mg"},{"bike_id":"4ef56f27-b618-4191-843e-9c861890082c","system_id":"levelo_inurba_marseille","lat":43.28535,"lon":5.39269,"is_reserved":false,"is_disabled":true,"rental_uris":{"android":"levelo://app?vid=4ef56f27-b618-4191-843e-9c861890082c","ios":"levelo://app?vid=4ef56f27-b618-4191-843e-9c861890082c"},"vehicle_type_id":"4","last_reported":1762794566,"current_range_meters":14000,"station_id":"","pricing_plan_id":"cebpf4jnsgd1na2vs0mg"},{"bike_id":"74caae33-6319-42a5-9522-da554ae2a294","system_id":"levelo_inurba_marseille","lat":43.30079,"lon":5.37934,"is_reserved":false,"is_disabled":false,"rental_uris":{"android":"levelo://app?vid=74caae33-6319-42a5-9522-da554ae2a294","ios":"levelo://app?vid=74caae33-6319-42a5-9522-da554ae2a294"},"vehicle_type_id":"4","last_reported":1762794566,"current_range_meters":14000,"station_id":"ce4bgjp2rcd13ifvqbh0","pricing_plan_id":"cebpf4jnsgd1na2vs0mg"},{"bike_id":"9be94b56-15ef-463f-ba7e-e63df6171cb1","system_id":"levelo_inurba_marseille","lat":43.21747,"lon":5.34603,"is_reserved":false,"is_disabled":false,"rental_uris":{"android":"levelo://app?vid=9be94b56-15ef-463f-ba7e-e63df6171cb1","ios":"levelo://app?vid=9be94b56-15ef-463f-ba7e-e63df6171cb1"},"vehicle_type_id":"4","last_reported":1762794566,"current_range_meters":14000,"station_id":"st_cvj6r9ubvosntc0bgbag","pricing_plan_id":"cebpf4jnsgd1na2vs0mg"},{"bike_id":"b7589c36-c725-4ae0-a367-12f6a2c5f1ef","system_id":"levelo_inurba_marseille","lat":43.298127,"lon":5.440731,"is_reserved":false,"is_disabled":false,"rental_uris":{"android":"levelo://app?vid=b7589c36-c725-4ae0-a367-12f6a2c5f1ef","ios":"levelo://app?vid=b7589c36-c725-4ae0-a367-12f6a2c5f1ef"},"vehicle_type_id":"4","last_reported":1762794566,"current_range_meters":14400,"station_id":"st_d3jp68qikq2c7381ktn0","pricing_plan_id":"cebpf4jnsgd1na2vs0mg"},{"bike_id":"14ae8280-220d-4b5f-b74a-98c3bf5b5927","system_id":"levelo_inurba_marseille","lat":43.29603,"lon":5.37709,"is_reserved":false,"is_disabled":true,"rental_uris":{"android":"levelo://app?vid=14ae8280-220d-4b5f-b74a-98c3bf5b5927","ios":"levelo://app?vid=14ae8280-220d-4b5f-b74a-98c3bf5b5927"},"vehicle_type_id":"4","last_reported":1762794566,"current_range_meters":14400,"station_id":"ce4bgi92rcd13ifvqb90","pricing_plan_id":"cebpf4jnsgd1na2vs0mg"},{"bike_id":"6789ed7d-24fc-4c1a-8b59-22bdba95377c","system_id":"levelo_inurba_marseille","lat":43.275205,"lon":5.38463,"is_reserved":false,"is_disabled":false,"rental_uris":{"android":"levelo://app?vid=6789ed7d-24fc-4c1a-8b59-22bdba95377c","ios":"levelo://app?vid=6789ed7d-24fc-4c1a-8b59-22bdba95377c"},"vehicle_type_id":"4","last_reported":1762794566,"current_range_meters":14400,"station_id":"ce4bhh92rcd13ifvqfi0","pricing_plan_id":"cebpf4jnsgd1na2vs0mg"},{"bike_id":"d8ac40a1-5305-4a73-abea-59e9144e8033","system_id":"levelo_inurba_marseille","lat":43.24167,"lon":5.36391,"is_reserved":false,"is_disabled":false,"rental_uris":{"android":"levelo://app?vid=d8ac40a1-5305-4a73-abea-59e9144e8033","ios":"levelo://app?vid=d8ac40a1-5305-4a73-abea-59e9144e8033"},"vehicle_type_id":"4","last_reported":1762794566,"current_range_meters":14400,"station_id":"cpo36qri1sfpv3e86is0","pricing_plan_id":"cebpf4jnsgd1na2vs0mg"},{"bike_id":"dd34ae66-5af5-474c-a50c-29142630c4e6","system_id":"levelo_inurba_marseille","lat":43.31222,"lon":5.36843,"is_reserved":false,"is_disabled":false,"rental_uris":{"android":"levelo://app?vid=dd34ae66-5af5-474c-a50c-29142630c4e6","ios":"levelo://app?vid=dd34ae66-5af5-474c-a50c-29142630c4e6"},"vehicle_type_id":"4","last_reported":1762794566,"current_range_meters":14400,"station_id":"ce4bgl92rcd13ifvqbq0","pricing_plan_id":"cebpf4jnsgd1na2vs0mg"},{"bike_id":"85ab1a67-80d9-485f-babe-90014171962d","system_id":"levelo_inurba_marseille","lat":43.3171,"lon":5.37742,"is_reserved":false,"is_disabled":false,"rental_uris":{"android":"levelo://app?vid=85ab1a67-80d9-485f-babe-90014171962d","ios":"levelo://app?vid=85ab1a67-80d9-485f-babe-90014171962d"},"vehicle_type_id":"4","last_reported":1762794566,"current_range_meters":14400,"station_id":"ce4bgth2rcd13ifvqch0","pricing_plan_id":"cebpf4jnsgd1na2vs0mg"},{"bike_id":"df71f488-9f79-4ae2-ad49-0f0aa9704986","system_id":"levelo_inurba_marseille","lat":43.28864,"lon":5.42523,"is_reserved":false,"is_disabled":false,"rental_uris":{"android":"levelo://app?vid=df71f488-9f79-4ae2-ad49-0f0aa9704986","ios":"levelo://app?vid=df71f488-9f79-4ae2-ad49-0f0aa9704986"},"vehicle_type_id":"4","last_reported":1762794566,"current_range_meters":14400,"station_id":"st_d3b462108ojc7389ooeg","pricing_plan_id":"cebpf4jnsgd1na2vs0mg"},{"bike_id":"91ba40a7-9933-4e55-be79-d495cb970c51","system_id":"levelo_inurba_marseille","lat":43.26782,"lon":5.39417,"is_reserved":false,"is_disabled":false,"rental_uris":{"android":"levelo://app?vid=91ba40a7-9933-4e55-be79-d495cb970c51","ios":"levelo://app?vid=91ba40a7-9933-4e55-be79-d495cb970c51"},"vehicle_type_id":"4","last_reported":1762794566,"current_range_meters":14800,"station_id":"ce4bhh12rcd13ifvqfg0","pricing_plan_id":"cebpf4jnsgd1na2vs0mg"},{"bike_id":"3062b1d2-c39d-40b2-bc04-27ace86a19da","system_id":"levelo_inurba_marseille","lat":43.28034,"lon":5.36947,"is_reserved":false,"is_disabled":false,"rental_uris":{"android":"levelo://app?vid=3062b1d2-c39d-40b2-bc04-27ace86a19da","ios":"levelo://app?vid=3062b1d2-c39d-40b2-bc04-27ace86a19da"},"vehicle_type_id":"4","last_reported":1762794566,"current_range_meters":14800,"station_id":"ce4bha12rcd13ifvqef0","pricing_plan_id":"cebpf4jnsgd1na2vs0mg"},{"bike_id":"3c9291ef-a315-45c7-b68c-4f1310e35432","system_id":"levelo_inurba_marseille","lat":43.29611,"lon":5.37736,"is_reserved":false,"is_disabled":false,"rental_uris":{"android":"levelo://app?vid=3c9291ef-a315-45c7-b68c-4f1310e35432","ios":"levelo://app?vid=3c9291ef-a315-45c7-b68c-4f1310e35432"},"vehicle_type_id":"4","last_reported":1762794566,"current_range_meters":14800,"station_id":"ce4bgi92rcd13ifvqb90","pricing_plan_id":"cebpf4jnsgd1na2vs0mg"},{"bike_id":"50bd906f-f66c-4773-8e69-65d41802e55d","system_id":"levelo_inurba_marseille","lat":43.22533,"lon":5.34834,"is_reserved":false,"is_disabled":false,"rental_uris":{"android":"levelo://app?vid=50bd906f-f66c-4773-8e69-65d41802e55d","ios":"levelo://app?vid=50bd906f-f66c-4773-8e69-65d41802e55d"},"vehicle_type_id":"4","last_reported":1762794566,"current_range_meters":15200,"station_id":"","pricing_plan_id":"cebpf4jnsgd1na2vs0mg"},{"bike_id":"924b2ed5-9af2-405b-bb49-14c189ee0a90","system_id":"levelo_inurba_marseille","lat":43.31704,"lon":5.37729,"is_reserved":false,"is_disabled":false,"rental_uris":{"android":"levelo://app?vid=924b2ed5-9af2-405b-bb49-14c189ee0a90","ios":"levelo://app?vid=924b2ed5-9af2-405b-bb49-14c189ee0a90"},"vehicle_type_id":"4","last_reported":1762794566,"current_range_meters":15200,"station_id":"ce4bgth2rcd13ifvqch0","pricing_plan_id":"cebpf4jnsgd1na2vs0mg"},{"bike_id":"cef0a5f6-8125-45a4-a1a5-9b4b0892b4d8","system_id":"levelo_inurba_marseille","lat":43.299935,"lon":5.365626,"is_reserved":false,"is_disabled":false,"rental_uris":{"android":"levelo://app?vid=cef0a5f6-8125-45a4-a1a5-9b4b0892b4d8","ios":"levelo://app?vid=cef0a5f6-8125-45a4-a1a5-9b4b0892b4d8"},"vehicle_type_id":"4","last_reported":1762794566,"current_range_meters":15200,"station_id":"ce4bgm92rcd13ifvqbr0","pricing_plan_id":"cebpf4jnsgd1na2vs0mg"},{"bike_id":"47c7500c-f040-46c5-be1a-8da16f3b80fd","system_id":"levelo_inurba_marseille","lat":43.31717,"lon":5.37741,"is_reserved":false,"is_disabled":false,"rental_uris":{"android":"levelo://app?vid=47c7500c-f040-46c5-be1a-8da16f3b80fd","ios":"levelo://app?vid=47c7500c-f040-46c5-be1a-8da16f3b80fd"},"vehicle_type_id":"4","last_reported":1762794566,"current_range_meters":15200,"station_id":"ce4bgth2rcd13ifvqch0","pricing_plan_id":"cebpf4jnsgd1na2vs0mg"},{"bike_id":"534699ab-2424-4ac3-8e45-108744b27402","system_id":"levelo_inurba_marseille","lat":43.29025,"lon":5.38128,"is_reserved":false,"is_disabled":false,"rental_uris":{"android":"levelo://app?vid=534699ab-2424-4ac3-8e45-108744b27402","ios":"levelo://app?vid=534699ab-2424-4ac3-8e45-108744b27402"},"vehicle_type_id":"4","last_reported":1762794566,"current_range_meters":15200,"station_id":"ce4bh4p2rcd13ifvqe1g","pricing_plan_id":"cebpf4jnsgd1na2vs0mg"},{"bike_id":"99d9d76d-d94f-48e3-abc3-f50dd41e3269","system_id":"levelo_inurba_marseille","lat":43.31154,"lon":5.38335,"is_reserved":false,"is_disabled":false,"rental_uris":{"android":"levelo://app?vid=99d9d76d-d94f-48e3-abc3-f50dd41e3269","ios":"levelo://app?vid=99d9d76d-d94f-48e3-abc3-f50dd41e3269"},"vehicle_type_id":"4","last_reported":1762794566,"current_range_meters":15200,"station_id":"","pricing_plan_id":"cebpf4jnsgd1na2vs0mg"},{"bike_id":"9e0a01a6-a037-44c8-9e6a-9fe856216f86","system_id":"levelo_inurba_marseille","lat":43.21757,"lon":5.3461,"is_reserved":false,"is_disabled":false,"rental_uris":{"android":"levelo://app?vid=9e0a01a6-a037-44c8-9e6a-9fe856216f86","ios":"levelo://app?vid=9e0a01a6-a037-44c8-9e6a-9fe856216f86"},"vehicle_type_id":"4","last_reported":1762794566,"current_range_meters":15200,"station_id":"st_cvj6r9ubvosntc0bgbag","pricing_plan_id":"cebpf4jnsgd1na2vs0mg"},{"bike_id":"bb82e371-c2a3-4d41-8471-ccf91ded04d8","system_id":"levelo_inurba_marseille","lat":43.31999,"lon":5.38158,"is_reserved":false,"is_disabled":false,"rental_uris":{"android":"levelo://app?vid=bb82e371-c2a3-4d41-8471-ccf91ded04d8","ios":"levelo://app?vid=bb82e371-c2a3-4d41-8471-ccf91ded04d8"},"vehicle_type_id":"4","last_reported":1762794566,"current_range_meters":15200,"station_id":"ce4bhr12rcd13ifvqhpg","pricing_plan_id":"cebpf4jnsgd1na2vs0mg"},{"bike_id":"c88172e6-9ca8-4917-9fec-dae0082b9849","system_id":"levelo_inurba_marseille","lat":43.23056,"lon":5.35493,"is_reserved":false,"is_disabled":false,"rental_uris":{"android":"levelo://app?vid=c88172e6-9ca8-4917-9fec-dae0082b9849","ios":"levelo://app?vid=c88172e6-9ca8-4917-9fec-dae0082b9849"},"vehicle_type_id":"4","last_reported":1762794566,"current_range_meters":15200,"station_id":"cpo3342slgdg3j2ifvpg","pricing_plan_id":"cebpf4jnsgd1na2vs0mg"},{"bike_id":"be86220c-6cab-43c0-bc05-fd5e693109a4","system_id":"levelo_inurba_marseille","lat":43.295312,"lon":5.385407,"is_reserved":false,"is_disabled":false,"rental_uris":{"android":"levelo://app?vid=be86220c-6cab-43c0-bc05-fd5e693109a4","ios":"levelo://app?vid=be86220c-6cab-43c0-bc05-fd5e693109a4"},"vehicle_type_id":"4","last_reported":1762794566,"current_range_meters":15200,"station_id":"ce4bgih2rcd13ifvqba0","pricing_plan_id":"cebpf4jnsgd1na2vs0mg"},{"bike_id":"544f6aec-d212-4c1b-8fb6-22b00bfbba59","system_id":"levelo_inurba_marseille","lat":43.28534,"lon":5.44102,"is_reserved":false,"is_disabled":false,"rental_uris":{"android":"levelo://app?vid=544f6aec-d212-4c1b-8fb6-22b00bfbba59","ios":"levelo://app?vid=544f6aec-d212-4c1b-8fb6-22b00bfbba59"},"vehicle_type_id":"4","last_reported":1762794566,"current_range_meters":15200,"station_id":"ce4bhbh2rcd13ifvqepg","pricing_plan_id":"cebpf4jnsgd1na2vs0mg"},{"bike_id":"8746ee26-c15a-4e99-a9a2-50ae618fccb0","system_id":"levelo_inurba_marseille","lat":43.279354,"lon":5.410356,"is_reserved":false,"is_disabled":false,"rental_uris":{"android":"levelo://app?vid=8746ee26-c15a-4e99-a9a2-50ae618fccb0","ios":"levelo://app?vid=8746ee26-c15a-4e99-a9a2-50ae618fccb0"},"vehicle_type_id":"4","last_reported":1762794566,"current_range_meters":16000,"station_id":"ce4bhnp2rcd13ifvqh0g","pricing_plan_id":"cebpf4jnsgd1na2vs0mg"},{"bike_id":"4b68d13f-f5d9-4b23-871f-a9d0ced8871b","system_id":"levelo_inurba_marseille","lat":43.312732,"lon":5.378109,"is_reserved":false,"is_disabled":false,"rental_uris":{"android":"levelo://app?vid=4b68d13f-f5d9-4b23-871f-a9d0ced8871b","ios":"levelo://app?vid=4b68d13f-f5d9-4b23-871f-a9d0ced8871b"},"vehicle_type_id":"4","last_reported":1762794566,"current_range_meters":16000,"station_id":"","pricing_plan_id":"cebpf4jnsgd1na2vs0mg"},{"bike_id":"a3ed76c2-bbc3-4203-a1f7-853d0f36b5bc","system_id":"levelo_inurba_marseille","lat":43.2953,"lon":5.38541,"is_reserved":false,"is_disabled":false,"rental_uris":{"android":"levelo://app?vid=a3ed76c2-bbc3-4203-a1f7-853d0f36b5bc","ios":"levelo://app?vid=a3ed76c2-bbc3-4203-a1f7-853d0f36b5bc"},"vehicle_type_id":"4","last_reported":1762794566,"current_range_meters":16000,"station_id":"ce4bgih2rcd13ifvqba0","pricing_plan_id":"cebpf4jnsgd1na2vs0mg"},{"bike_id":"f6d47fb7-db41-4e96-ba28-8326c8ac0ede","system_id":"levelo_inurba_marseille","lat":43.309322,"lon":5.401366,"is_reserved":false,"is_disabled":false,"rental_uris":{"android":"levelo://app?vid=f6d47fb7-db41-4e96-ba28-8326c8ac0ede","ios":"levelo://app?vid=f6d47fb7-db41-4e96-ba28-8326c8ac0ede"},"vehicle_type_id":"4","last_reported":1762794566,"current_range_meters":16000,"station_id":"","pricing_plan_id":"cebpf4jnsgd1na2vs0mg"},{"bike_id":"61dce50e-6510-4945-af49-a43ad9d82ef9","system_id":"levelo_inurba_marseille","lat":43.291962,"lon":5.393301,"is_reserved":false,"is_disabled":false,"rental_uris":{"android":"levelo://app?vid=61dce50e-6510-4945-af49-a43ad9d82ef9","ios":"levelo://app?vid=61dce50e-6510-4945-af49-a43ad9d82ef9"},"vehicle_type_id":"4","last_reported":1762794566,"current_range_meters":16000,"station_id":"","pricing_plan_id":"cebpf4jnsgd1na2vs0mg"},{"bike_id":"32b8f67a-28f2-469a-b4c2-2f85dec4011b","system_id":"levelo_inurba_marseille","lat":43.2991,"lon":5.37499,"is_reserved":false,"is_disabled":false,"rental_uris":{"android":"levelo://app?vid=32b8f67a-28f2-469a-b4c2-2f85dec4011b","ios":"levelo://app?vid=32b8f67a-28f2-469a-b4c2-2f85dec4011b"},"vehicle_type_id":"4","last_reported":1762794566,"current_range_meters":16000,"station_id":"ce4bgjh2rcd13ifvqbg0","pricing_plan_id":"cebpf4jnsgd1na2vs0mg"},{"bike_id":"675f4883-536a-456f-90e8-e119da4092a6","system_id":"levelo_inurba_marseille","lat":43.2964,"lon":5.40598,"is_reserved":false,"is_disabled":false,"rental_uris":{"android":"levelo://app?vid=675f4883-536a-456f-90e8-e119da4092a6","ios":"levelo://app?vid=675f4883-536a-456f-90e8-e119da4092a6"},"vehicle_type_id":"4","last_reported":1762794566,"current_range_meters":16000,"station_id":"ce4bh0h2rcd13ifvqd60","pricing_plan_id":"cebpf4jnsgd1na2vs0mg"},{"bike_id":"0001f610-ee0b-4dfa-a101-19ef82b4afb7","system_id":"levelo_inurba_marseille","lat":43.29812,"lon":5.44064,"is_reserved":false,"is_disabled":false,"rental_uris":{"android":"levelo://app?vid=0001f610-ee0b-4dfa-a101-19ef82b4afb7","ios":"levelo://app?vid=0001f610-ee0b-4dfa-a101-19ef82b4afb7"},"vehicle_type_id":"4","last_reported":1762794566,"current_range_meters":16000,"station_id":"st_d3jp68qikq2c7381ktn0","pricing_plan_id":"cebpf4jnsgd1na2vs0mg"},{"bike_id":"096cdd72-f6cf-4a1a-9fed-102492f9041f","system_id":"levelo_inurba_marseille","lat":43.23183,"lon":5.39975,"is_reserved":false,"is_disabled":false,"rental_uris":{"android":"levelo://app?vid=096cdd72-f6cf-4a1a-9fed-102492f9041f","ios":"levelo://app?vid=096cdd72-f6cf-4a1a-9fed-102492f9041f"},"vehicle_type_id":"4","last_reported":1762794566,"current_range_meters":16000,"station_id":"ce4bhn12rcd13ifvqgqg","pricing_plan_id":"cebpf4jnsgd1na2vs0mg"},{"bike_id":"adafb581-b24c-4b4d-ac05-00c9ea596ca2","system_id":"levelo_inurba_marseille","lat":43.27993,"lon":5.41652,"is_reserved":false,"is_disabled":false,"rental_uris":{"android":"levelo://app?vid=adafb581-b24c-4b4d-ac05-00c9ea596ca2","ios":"levelo://app?vid=adafb581-b24c-4b4d-ac05-00c9ea596ca2"},"vehicle_type_id":"4","last_reported":1762794566,"current_range_meters":16400,"station_id":"ce4bho12rcd13ifvqh1g","pricing_plan_id":"cebpf4jnsgd1na2vs0mg"},{"bike_id":"c80766a6-aa9a-4c09-88b6-397546065fcc","system_id":"levelo_inurba_marseille","lat":43.23192,"lon":5.35563,"is_reserved":false,"is_disabled":false,"rental_uris":{"android":"levelo://app?vid=c80766a6-aa9a-4c09-88b6-397546065fcc","ios":"levelo://app?vid=c80766a6-aa9a-4c09-88b6-397546065fcc"},"vehicle_type_id":"4","last_reported":1762794566,"current_range_meters":16400,"station_id":"ce4bhu92rcd13ifvqi70","pricing_plan_id":"cebpf4jnsgd1na2vs0mg"},{"bike_id":"42bbdb4f-c9b7-4299-b4a6-0178a6a32bf3","system_id":"levelo_inurba_marseille","lat":43.31828,"lon":5.37424,"is_reserved":false,"is_disabled":false,"rental_uris":{"android":"levelo://app?vid=42bbdb4f-c9b7-4299-b4a6-0178a6a32bf3","ios":"levelo://app?vid=42bbdb4f-c9b7-4299-b4a6-0178a6a32bf3"},"vehicle_type_id":"4","last_reported":1762794566,"current_range_meters":16400,"station_id":"","pricing_plan_id":"cebpf4jnsgd1na2vs0mg"},{"bike_id":"1016aac3-b163-4bd4-b914-896c361c935b","system_id":"levelo_inurba_marseille","lat":43.321237,"lon":5.38846,"is_reserved":false,"is_disabled":false,"rental_uris":{"android":"levelo://app?vid=1016aac3-b163-4bd4-b914-896c361c935b","ios":"levelo://app?vid=1016aac3-b163-4bd4-b914-896c361c935b"},"vehicle_type_id":"4","last_reported":1762794566,"current_range_meters":16400,"station_id":"","pricing_plan_id":"cebpf4jnsgd1na2vs0mg"},{"bike_id":"180a70a9-8924-4885-9ca3-10c578c02589","system_id":"levelo_inurba_marseille","lat":43.225256,"lon":5.348423,"is_reserved":false,"is_disabled":false,"rental_uris":{"android":"levelo://app?vid=180a70a9-8924-4885-9ca3-10c578c02589","ios":"levelo://app?vid=180a70a9-8924-4885-9ca3-10c578c02589"},"vehicle_type_id":"4","last_reported":1762794566,"current_range_meters":16400,"station_id":"","pricing_plan_id":"cebpf4jnsgd1na2vs0mg"},{"bike_id":"dc47d1eb-9ec6-4613-ab39-f3b11abcc07b","system_id":"levelo_inurba_marseille","lat":43.30256,"lon":5.4008,"is_reserved":false,"is_disabled":false,"rental_uris":{"android":"levelo://app?vid=dc47d1eb-9ec6-4613-ab39-f3b11abcc07b","ios":"levelo://app?vid=dc47d1eb-9ec6-4613-ab39-f3b11abcc07b"},"vehicle_type_id":"4","last_reported":1762794566,"current_range_meters":16800,"station_id":"ce4bgvh2rcd13ifvqcs0","pricing_plan_id":"cebpf4jnsgd1na2vs0mg"},{"bike_id":"4cae9d5c-a24c-41f1-9f54-aaa487e732a6","system_id":"levelo_inurba_marseille","lat":43.29963,"lon":5.3819,"is_reserved":false,"is_disabled":false,"rental_uris":{"android":"levelo://app?vid=4cae9d5c-a24c-41f1-9f54-aaa487e732a6","ios":"levelo://app?vid=4cae9d5c-a24c-41f1-9f54-aaa487e732a6"},"vehicle_type_id":"4","last_reported":1762794566,"current_range_meters":16800,"station_id":"","pricing_plan_id":"cebpf4jnsgd1na2vs0mg"},{"bike_id":"89ae5e55-2b8f-435e-9cb1-d7960701b77b","system_id":"levelo_inurba_marseille","lat":43.25108,"lon":5.40321,"is_reserved":false,"is_disabled":false,"rental_uris":{"android":"levelo://app?vid=89ae5e55-2b8f-435e-9cb1-d7960701b77b","ios":"levelo://app?vid=89ae5e55-2b8f-435e-9cb1-d7960701b77b"},"vehicle_type_id":"4","last_reported":1762794566,"current_range_meters":16800,"station_id":"ce4bhlh2rcd13ifvqgig","pricing_plan_id":"cebpf4jnsgd1na2vs0mg"},{"bike_id":"7ab9f50c-fe33-422d-9108-7c4207ec1290","system_id":"levelo_inurba_marseille","lat":43.28703,"lon":5.37383,"is_reserved":false,"is_disabled":false,"rental_uris":{"android":"levelo://app?vid=7ab9f50c-fe33-422d-9108-7c4207ec1290","ios":"levelo://app?vid=7ab9f50c-fe33-422d-9108-7c4207ec1290"},"vehicle_type_id":"4","last_reported":1762794566,"current_range_meters":16800,"station_id":"ce4bh3p2rcd13ifvqdq0","pricing_plan_id":"cebpf4jnsgd1na2vs0mg"},{"bike_id":"1439f4dc-7e23-4a90-b591-cbf02ce0c6dd","system_id":"levelo_inurba_marseille","lat":43.290438,"lon":5.359135,"is_reserved":false,"is_disabled":false,"rental_uris":{"android":"levelo://app?vid=1439f4dc-7e23-4a90-b591-cbf02ce0c6dd","ios":"levelo://app?vid=1439f4dc-7e23-4a90-b591-cbf02ce0c6dd"},"vehicle_type_id":"4","last_reported":1762794566,"current_range_meters":16800,"station_id":"ce4bha92rcd13ifvqeg0","pricing_plan_id":"cebpf4jnsgd1na2vs0mg"},{"bike_id":"6ae87b41-3981-4b69-b43c-0b6bde62265a","system_id":"levelo_inurba_marseille","lat":43.33777,"lon":5.37436,"is_reserved":false,"is_disabled":false,"rental_uris":{"android":"levelo://app?vid=6ae87b41-3981-4b69-b43c-0b6bde62265a","ios":"levelo://app?vid=6ae87b41-3981-4b69-b43c-0b6bde62265a"},"vehicle_type_id":"4","last_reported":1762794566,"current_range_meters":16800,"station_id":"","pricing_plan_id":"cebpf4jnsgd1na2vs0mg"},{"bike_id":"71a4db39-13b5-4ad2-a6d2-50dbaa41784f","system_id":"levelo_inurba_marseille","lat":43.30464,"lon":5.37899,"is_reserved":false,"is_disabled":true,"rental_uris":{"android":"levelo://app?vid=71a4db39-13b5-4ad2-a6d2-50dbaa41784f","ios":"levelo://app?vid=71a4db39-13b5-4ad2-a6d2-50dbaa41784f"},"vehicle_type_id":"4","last_reported":1762794566,"current_range_meters":16800,"station_id":"ce4bgup2rcd13ifvqcn0","pricing_plan_id":"cebpf4jnsgd1na2vs0mg"},{"bike_id":"0cd796a8-0c8c-478b-8200-5117948e80d5","system_id":"levelo_inurba_marseille","lat":43.28611,"lon":5.37059,"is_reserved":false,"is_disabled":false,"rental_uris":{"android":"levelo://app?vid=0cd796a8-0c8c-478b-8200-5117948e80d5","ios":"levelo://app?vid=0cd796a8-0c8c-478b-8200-5117948e80d5"},"vehicle_type_id":"4","last_reported":1762794566,"current_range_meters":16800,"station_id":"ce4bht12rcd13ifvqi60","pricing_plan_id":"cebpf4jnsgd1na2vs0mg"},{"bike_id":"122bdab4-68f6-41de-a130-9cd3d01ccdfd","system_id":"levelo_inurba_marseille","lat":43.22533,"lon":5.34829,"is_reserved":false,"is_disabled":false,"rental_uris":{"android":"levelo://app?vid=122bdab4-68f6-41de-a130-9cd3d01ccdfd","ios":"levelo://app?vid=122bdab4-68f6-41de-a130-9cd3d01ccdfd"},"vehicle_type_id":"4","last_reported":1762794566,"current_range_meters":16800,"station_id":"","pricing_plan_id":"cebpf4jnsgd1na2vs0mg"},{"bike_id":"4291ba13-9136-4881-8cb2-ecd3257b20c9","system_id":"levelo_inurba_marseille","lat":43.31703,"lon":5.37751,"is_reserved":false,"is_disabled":false,"rental_uris":{"android":"levelo://app?vid=4291ba13-9136-4881-8cb2-ecd3257b20c9","ios":"levelo://app?vid=4291ba13-9136-4881-8cb2-ecd3257b20c9"},"vehicle_type_id":"4","last_reported":1762794566,"current_range_meters":16800,"station_id":"ce4bgth2rcd13ifvqch0","pricing_plan_id":"cebpf4jnsgd1na2vs0mg"},{"bike_id":"65417ce1-2776-4dc6-8aca-118ed3563d0f","system_id":"levelo_inurba_marseille","lat":43.22566,"lon":5.41621,"is_reserved":false,"is_disabled":false,"rental_uris":{"android":"levelo://app?vid=65417ce1-2776-4dc6-8aca-118ed3563d0f","ios":"levelo://app?vid=65417ce1-2776-4dc6-8aca-118ed3563d0f"},"vehicle_type_id":"4","last_reported":1762794566,"current_range_meters":16800,"station_id":"st_d2o4gvlbi1j2169b742g","pricing_plan_id":"cebpf4jnsgd1na2vs0mg"},{"bike_id":"7ec1566d-305c-4203-8f56-5b2fce2cd810","system_id":"levelo_inurba_marseille","lat":43.29368,"lon":5.37829,"is_reserved":false,"is_disabled":false,"rental_uris":{"android":"levelo://app?vid=7ec1566d-305c-4203-8f56-5b2fce2cd810","ios":"levelo://app?vid=7ec1566d-305c-4203-8f56-5b2fce2cd810"},"vehicle_type_id":"4","last_reported":1762794566,"current_range_meters":16800,"station_id":"ce4bgjh2rcd13ifvqbf0","pricing_plan_id":"cebpf4jnsgd1na2vs0mg"},{"bike_id":"a0403846-bd44-4cd5-9875-d96a459ec077","system_id":"levelo_inurba_marseille","lat":43.286662,"lon":5.386856,"is_reserved":false,"is_disabled":false,"rental_uris":{"android":"levelo://app?vid=a0403846-bd44-4cd5-9875-d96a459ec077","ios":"levelo://app?vid=a0403846-bd44-4cd5-9875-d96a459ec077"},"vehicle_type_id":"4","last_reported":1762794566,"current_range_meters":16800,"station_id":"ce4bh492rcd13ifvqdug","pricing_plan_id":"cebpf4jnsgd1na2vs0mg"},{"bike_id":"3f5c9451-19d2-4288-b602-7b6ce37afbc6","system_id":"levelo_inurba_marseille","lat":43.30131,"lon":5.3878,"is_reserved":false,"is_disabled":false,"rental_uris":{"android":"levelo://app?vid=3f5c9451-19d2-4288-b602-7b6ce37afbc6","ios":"levelo://app?vid=3f5c9451-19d2-4288-b602-7b6ce37afbc6"},"vehicle_type_id":"4","last_reported":1762794566,"current_range_meters":17200,"station_id":"ce4bghh2rcd13ifvqb60","pricing_plan_id":"cebpf4jnsgd1na2vs0mg"},{"bike_id":"02f0a393-62c4-47e9-a956-304d811e2cf3","system_id":"levelo_inurba_marseille","lat":43.2511,"lon":5.40321,"is_reserved":false,"is_disabled":false,"rental_uris":{"android":"levelo://app?vid=02f0a393-62c4-47e9-a956-304d811e2cf3","ios":"levelo://app?vid=02f0a393-62c4-47e9-a956-304d811e2cf3"},"vehicle_type_id":"4","last_reported":1762794566,"current_range_meters":17200,"station_id":"ce4bhlh2rcd13ifvqgig","pricing_plan_id":"cebpf4jnsgd1na2vs0mg"},{"bike_id":"5eb28dc9-1056-4fe2-a3f0-4c13efc57df0","system_id":"levelo_inurba_marseille","lat":43.2592,"lon":5.4092,"is_reserved":false,"is_disabled":true,"rental_uris":{"android":"levelo://app?vid=5eb28dc9-1056-4fe2-a3f0-4c13efc57df0","ios":"levelo://app?vid=5eb28dc9-1056-4fe2-a3f0-4c13efc57df0"},"vehicle_type_id":"4","last_reported":1762794566,"current_range_meters":17200,"station_id":"ce4bhm92rcd13ifvqglg","pricing_plan_id":"cebpf4jnsgd1na2vs0mg"},{"bike_id":"7177c944-2e3a-4e1f-b479-66d7a9727a4d","system_id":"levelo_inurba_marseille","lat":43.3315,"lon":5.37701,"is_reserved":false,"is_disabled":false,"rental_uris":{"android":"levelo://app?vid=7177c944-2e3a-4e1f-b479-66d7a9727a4d","ios":"levelo://app?vid=7177c944-2e3a-4e1f-b479-66d7a9727a4d"},"vehicle_type_id":"4","last_reported":1762794566,"current_range_meters":17200,"station_id":"st_d46cu089ee8s73dldbu0","pricing_plan_id":"cebpf4jnsgd1na2vs0mg"},{"bike_id":"1576b9c9-e39b-4da5-b72e-352a7055245f","system_id":"levelo_inurba_marseille","lat":43.25113,"lon":5.4032,"is_reserved":false,"is_disabled":false,"rental_uris":{"android":"levelo://app?vid=1576b9c9-e39b-4da5-b72e-352a7055245f","ios":"levelo://app?vid=1576b9c9-e39b-4da5-b72e-352a7055245f"},"vehicle_type_id":"4","last_reported":1762794566,"current_range_meters":17200,"station_id":"ce4bhlh2rcd13ifvqgig","pricing_plan_id":"cebpf4jnsgd1na2vs0mg"},{"bike_id":"5f390cff-b9cf-4b0f-ac36-2c78575e12b3","system_id":"levelo_inurba_marseille","lat":43.29268,"lon":5.3685,"is_reserved":false,"is_disabled":false,"rental_uris":{"android":"levelo://app?vid=5f390cff-b9cf-4b0f-ac36-2c78575e12b3","ios":"levelo://app?vid=5f390cff-b9cf-4b0f-ac36-2c78575e12b3"},"vehicle_type_id":"4","last_reported":1762794566,"current_range_meters":17200,"station_id":"ce4bhbp2rcd13ifvqesg","pricing_plan_id":"cebpf4jnsgd1na2vs0mg"},{"bike_id":"851e52a7-7701-41a2-9335-4b4a9404896b","system_id":"levelo_inurba_marseille","lat":43.29818,"lon":5.44073,"is_reserved":false,"is_disabled":false,"rental_uris":{"android":"levelo://app?vid=851e52a7-7701-41a2-9335-4b4a9404896b","ios":"levelo://app?vid=851e52a7-7701-41a2-9335-4b4a9404896b"},"vehicle_type_id":"4","last_reported":1762794566,"current_range_meters":17200,"station_id":"st_d3jp68qikq2c7381ktn0","pricing_plan_id":"cebpf4jnsgd1na2vs0mg"},{"bike_id":"7af415e4-1d38-4bbc-9c7e-70e40c3c370b","system_id":"levelo_inurba_marseille","lat":43.30594,"lon":5.39348,"is_reserved":false,"is_disabled":false,"rental_uris":{"android":"levelo://app?vid=7af415e4-1d38-4bbc-9c7e-70e40c3c370b","ios":"levelo://app?vid=7af415e4-1d38-4bbc-9c7e-70e40c3c370b"},"vehicle_type_id":"4","last_reported":1762794566,"current_range_meters":17200,"station_id":"ce4bh0p2rcd13ifvqd80","pricing_plan_id":"cebpf4jnsgd1na2vs0mg"},{"bike_id":"fc37895e-d7ed-428b-9a48-ad65c8a66c44","system_id":"levelo_inurba_marseille","lat":43.28231,"lon":5.39066,"is_reserved":false,"is_disabled":false,"rental_uris":{"android":"levelo://app?vid=fc37895e-d7ed-428b-9a48-ad65c8a66c44","ios":"levelo://app?vid=fc37895e-d7ed-428b-9a48-ad65c8a66c44"},"vehicle_type_id":"4","last_reported":1762794566,"current_range_meters":17600,"station_id":"ce4bhn92rcd13ifvqgsg","pricing_plan_id":"cebpf4jnsgd1na2vs0mg"},{"bike_id":"14c01898-a6eb-4ac2-a2da-19b79bdacf65","system_id":"levelo_inurba_marseille","lat":43.286525,"lon":5.39985,"is_reserved":false,"is_disabled":false,"rental_uris":{"android":"levelo://app?vid=14c01898-a6eb-4ac2-a2da-19b79bdacf65","ios":"levelo://app?vid=14c01898-a6eb-4ac2-a2da-19b79bdacf65"},"vehicle_type_id":"4","last_reported":1762794566,"current_range_meters":17600,"station_id":"ce4bho92rcd13ifvqh3g","pricing_plan_id":"cebpf4jnsgd1na2vs0mg"},{"bike_id":"d610cd16-c813-406e-bee7-295ec8ce6047","system_id":"levelo_inurba_marseille","lat":43.33777,"lon":5.37478,"is_reserved":false,"is_disabled":false,"rental_uris":{"android":"levelo://app?vid=d610cd16-c813-406e-bee7-295ec8ce6047","ios":"levelo://app?vid=d610cd16-c813-406e-bee7-295ec8ce6047"},"vehicle_type_id":"4","last_reported":1762794566,"current_range_meters":17600,"station_id":"","pricing_plan_id":"cebpf4jnsgd1na2vs0mg"},{"bike_id":"d900c339-5489-4108-89e5-9b53f0f4d1db","system_id":"levelo_inurba_marseille","lat":43.225329,"lon":5.348353,"is_reserved":false,"is_disabled":false,"rental_uris":{"android":"levelo://app?vid=d900c339-5489-4108-89e5-9b53f0f4d1db","ios":"levelo://app?vid=d900c339-5489-4108-89e5-9b53f0f4d1db"},"vehicle_type_id":"4","last_reported":1762794566,"current_range_meters":17600,"station_id":"","pricing_plan_id":"cebpf4jnsgd1na2vs0mg"},{"bike_id":"a47d0baf-287b-4814-b490-4a1b87f1d163","system_id":"levelo_inurba_marseille","lat":43.2816,"lon":5.42636,"is_reserved":false,"is_disabled":false,"rental_uris":{"android":"levelo://app?vid=a47d0baf-287b-4814-b490-4a1b87f1d163","ios":"levelo://app?vid=a47d0baf-287b-4814-b490-4a1b87f1d163"},