{"last_updated":1735297623,"ttl":60,"version":"2.2","data":{"bikes":[{"bike_id":"a46135c9-1f06-4781-be23-a2741a288fd3","system_id":"levelo_inurba_marseille","lat":43.29891,"lon":5.38157,"is_reserved":false,"is_disabled":false,"rental_uris":{"android":"levelo://app?vid=a46135c9-1f06-4781-be23-a2741a288fd3","ios":"levelo://app?vid=a46135c9-1f06-4781-be23-a2741a288fd3"},"vehicle_type_id":"4","last_reported":1735297624,"current_range_meters":32800,"station_id":"ce4bgj12rcd13ifvqbc0","pricing_plan_id":"cebpf4jnsgd1na2vs0mg"},{"bike_id":"d041f2f2-9068-4e64-b5bd-8f32d02eb035","system_id":"levelo_inurba_marseille","lat":43.29586,"lon":5.36746,"is_reserved":false,"is_disabled":false,"rental_uris":{"android":"levelo://app?vid=d041f2f2-9068-4e64-b5bd-8f32d02eb035","ios":"levelo://app?vid=d041f2f2-9068-4e64-b5bd-8f32d02eb035"},"vehicle_type_id":"4","last_reported":1735297624,"current_range_meters":38800,"station_id":"ce4bgph2rcd13ifvqc2g","pricing_plan_id":"cebpf4jnsgd1na2vs0mg"},{"bike_id":"f52c2897-0e1e-4374-ae77-9ce773cee8d5","system_id":"levelo_inurba_marseille","lat":43.27913,"lon":5.3801,"is_reserved":false,"is_disabled":false,"rental_uris":{"android":"levelo://app?vid=f52c2897-0e1e-4374-ae77-9ce773cee8d5","ios":"levelo://app?vid=f52c2897-0e1e-4374-ae77-9ce773cee8d5"},"vehicle_type_id":"4","last_reported":1735297624,"current_range_meters":34800,"station_id":"ce4bhf92rcd13ifvqf50","pricing_plan_id":"cebpf4jnsgd1na2vs0mg"},{"bike_id":"015f3506-0edf-4591-879e-490275f7a7d2","system_id":"levelo_inurba_marseille","lat":43.23964,"lon":5.36635,"is_reserved":false,"is_disabled":false,"rental_uris":{"android":"levelo://app?vid=015f3506-0edf-4591-879e-490275f7a7d2","ios":"levelo://app?vid=015f3506-0edf-4591-879e-490275f7a7d2"},"vehicle_type_id":"4","last_reported":1735297624,"current_range_meters":25600,"station_id":"ce4bhi12rcd13ifvqfp0","pricing_plan_id":"cebpf4jnsgd1na2vs0mg"},{"bike_id":"f232ab45-64c0-4166-baa3-458a69058558","system_id":"levelo_inurba_marseille","lat":43.3172,"lon":5.42427,"is_reserved":false,"is_disabled":false,"rental_uris":{"android":"levelo://app?vid=f232ab45-64c0-4166-baa3-458a69058558","ios":"levelo://app?vid=f232ab45-64c0-4166-baa3-458a69058558"},"vehicle_type_id":"4","last_reported":1735297624,"current_range_meters":38000,"station_id":"ce4bhp92rcd13ifvqhbg","pricing_plan_id":"cebpf4jnsgd1na2vs0mg"},{"bike_id":"7ace2682-fd21-434c-807a-20ec337b5bc4","system_id":"levelo_inurba_marseille","lat":43.33024,"lon":5.39035,"is_reserved":false,"is_disabled":false,"rental_uris":{"android":"levelo://app?vid=7ace2682-fd21-434c-807a-20ec337b5bc4","ios":"levelo://app?vid=7ace2682-fd21-434c-807a-20ec337b5bc4"},"vehicle_type_id":"4","last_reported":1735297624,"current_range_meters":24800,"station_id":"ce4bhr92rcd13ifvqhrg","pricing_plan_id":"cebpf4jnsgd1na2vs0mg"},{"bike_id":"3991aac2-ec7f-43c8-801f-23e11845f2d6","system_id":"levelo_inurba_marseille","lat":43.28153,"lon":5.42645,"is_reserved":false,"is_disabled":false,"rental_uris":{"android":"levelo://app?vid=3991aac2-ec7f-43c8-801f-23e11845f2d6","ios":"levelo://app?vid=3991aac2-ec7f-43c8-801f-23e11845f2d6"},"vehicle_type_id":"4","last_reported":1735297624,"current_range_meters":38800,"station_id":"ce4bhnh2rcd13ifvqgug","pricing_plan_id":"cebpf4jnsgd1na2vs0mg"},{"bike_id":"dfb0bbfb-6325-4973-b572-9ab1c60278a0","system_id":"levelo_inurba_marseille","lat":43.28409,"lon":5.37518,"is_reserved":false,"is_disabled":false,"rental_uris":{"android":"levelo://app?vid=dfb0bbfb-6325-4973-b572-9ab1c60278a0","ios":"levelo://app?vid=dfb0bbfb-6325-4973-b572-9ab1c60278a0"},"vehicle_type_id":"4","last_reported":1735297624,"current_range_meters":26800,"station_id":"ce4bh412rcd13ifvqds0","pricing_plan_id":"cebpf4jnsgd1na2vs0mg"},{"bike_id":"aa910906-3ca2-4107-80e1-4fe46d1472a6","system_id":"levelo_inurba_marseille","lat":43.32048,"lon":5.41581,"is_reserved":false,"is_disabled":false,"rental_uris":{"android":"levelo://app?vid=aa910906-3ca2-4107-80e1-4fe46d1472a6","ios":"levelo://app?vid=aa910906-3ca2-4107-80e1-4fe46d1472a6"},"vehicle_type_id":"4","last_reported":1735297624,"current_range_meters":35600,"station_id":"ce4bhq92rcd13ifvqhkg","pricing_plan_id":"cebpf4jnsgd1na2vs0mg"},{"bike_id":"6ce1c022-acc8-490f-a6d1-40494c9ad385","system_id":"levelo_inurba_marseille","lat":43.25728,"lon":5.4111,"is_reserved":false,"is_disabled":false,"rental_uris":{"android":"levelo://app?vid=6ce1c022-acc8-490f-a6d1-40494c9ad385","ios":"levelo://app?vid=6ce1c022-acc8-490f-a6d1-40494c9ad385"},"vehicle_type_id":"4","last_reported":1735297624,"current_range_meters":36000,"station_id":"ce4bhkp2rcd13ifvqgd0","pricing_plan_id":"cebpf4jnsgd1na2vs0mg"},{"bike_id":"e45c49e3-49ca-412f-af12-72d43dbe3193","system_id":"levelo_inurba_marseille","lat":43.24671,"lon":5.3816,"is_reserved":false,"is_disabled":false,"rental_uris":{"android":"levelo://app?vid=e45c49e3-49ca-412f-af12-72d43dbe3193","ios":"levelo://app?vid=e45c49e3-49ca-412f-af12-72d43dbe3193"},"vehicle_type_id":"4","last_reported":1735297624,"current_range_meters":9600,"station_id":"ce4bhih2rcd13ifvqfr0","pricing_plan_id":"cebpf4jnsgd1na2vs0mg"},{"bike_id":"cb35f7d8-c204-4a7f-801e-8a8f1f547ed7","system_id":"levelo_inurba_marseille","lat":43.27206,"lon":5.39175,"is_reserved":false,"is_disabled":false,"rental_uris":{"android":"levelo://app?vid=cb35f7d8-c204-4a7f-801e-8a8f1f547ed7","ios":"levelo://app?vid=cb35f7d8-c204-4a7f-801e-8a8f1f547ed7"},"vehicle_type_id":"4","last_reported":1735297624,"current_range_meters":38800,"station_id":"ce4bhhp2rcd13ifvqfm0","pricing_plan_id":"cebpf4jnsgd1na2vs0mg"},{"bike_id":"d8d49bfd-d5d6-4333-a6c7-247868cbdfc9","system_id":"levelo_inurba_marseille","lat":43.31523,"lon":5.38044,"is_reserved":false,"is_disabled":false,"rental_uris":{"android":"levelo://app?vid=d8d49bfd-d5d6-4333-a6c7-247868cbdfc9","ios":"levelo://app?vid=d8d49bfd-d5d6-4333-a6c7-247868cbdfc9"},"vehicle_type_id":"4","last_reported":1735297624,"current_range_meters":20800,"station_id":"ce4bhsp2rcd13ifvqi50","pricing_plan_id":"cebpf4jnsgd1na2vs0mg"},{"bike_id":"4312ef7a-f4f5-400e-aa5f-856511014ea9","system_id":"levelo_inurba_marseille","lat":43.27209,"lon":5.39211,"is_reserved":false,"is_disabled":false,"rental_uris":{"android":"levelo://app?vid=4312ef7a-f4f5-400e-aa5f-856511014ea9","ios":"levelo://app?vid=4312ef7a-f4f5-400e-aa5f-856511014ea9"},"vehicle_type_id":"4","last_reported":1735297624,"current_range_meters":39200,"station_id":"ce4bhhp2rcd13ifvqfm0","pricing_plan_id":"cebpf4jnsgd1na2vs0mg"},{"bike_id":"5bee95f1-fdd3-4371-a9d2-156b6c2cb6af","system_id":"levelo_inurba_marseille","lat":43.26951,"lon":5.38641,"is_reserved":false,"is_disabled":false,"rental_uris":{"android":"levelo://app?vid=5bee95f1-fdd3-4371-a9d2-156b6c2cb6af","ios":"levelo://app?vid=5bee95f1-fdd3-4371-a9d2-156b6c2cb6af"},"vehicle_type_id":"4","last_reported":1735297624,"current_range_meters":16000,"station_id":"ce4bhh92rcd13ifvqfh0","pricing_plan_id":"cebpf4jnsgd1na2vs0mg"},{"bike_id":"4b0fd93f-ab44-4d17-9609-4abb396d054c","system_id":"levelo_inurba_marseille","lat":43.231942,"lon":5.355492,"is_reserved":false,"is_disabled":false,"rental_uris":{"android":"levelo://app?vid=4b0fd93f-ab44-4d17-9609-4abb396d054c","ios":"levelo://app?vid=4b0fd93f-ab44-4d17-9609-4abb396d054c"},"vehicle_type_id":"4","last_reported":1735297624,"current_range_meters":38800,"station_id":"ce4bhu92rcd13ifvqi70","pricing_plan_id":"cebpf4jnsgd1na2vs0mg"},{"bike_id":"0d1a290a-5fe1-4374-9cc0-659193d3d110","system_id":"levelo_inurba_marseille","lat":43.27324,"lon":5.39126,"is_reserved":false,"is_disabled":false,"rental_uris":{"android":"levelo://app?vid=0d1a290a-5fe1-4374-9cc0-659193d3d110","ios":"levelo://app?vid=0d1a290a-5fe1-4374-9cc0-659193d3d110"},"vehicle_type_id":"4","last_reported":1735297624,"current_range_meters":20400,"station_id":"ce4bhgp2rcd13ifvqfe0","pricing_plan_id":"cebpf4jnsgd1na2vs0mg"},{"bike_id":"fac7a9f4-3c75-429e-9c75-1d5300c409ac","system_id":"levelo_inurba_marseille","lat":43.28709,"lon":5.37939,"is_reserved":false,"is_disabled":false,"rental_uris":{"android":"levelo://app?vid=fac7a9f4-3c75-429e-9c75-1d5300c409ac","ios":"levelo://app?vid=fac7a9f4-3c75-429e-9c75-1d5300c409ac"},"vehicle_type_id":"4","last_reported":1735297624,"current_range_meters":36800,"station_id":"ce4bh9p2rcd13ifvqec0","pricing_plan_id":"cebpf4jnsgd1na2vs0mg"},{"bike_id":"bf2f3c3f-62fa-423b-81cd-7b9fac09c63c","system_id":"levelo_inurba_marseille","lat":43.29257,"lon":5.3845,"is_reserved":false,"is_disabled":false,"rental_uris":{"android":"levelo://app?vid=bf2f3c3f-62fa-423b-81cd-7b9fac09c63c","ios":"levelo://app?vid=bf2f3c3f-62fa-423b-81cd-7b9fac09c63c"},"vehicle_type_id":"4","last_reported":1735297624,"current_range_meters":27200,"station_id":"ce4bh692rcd13ifvqea0","pricing_plan_id":"cebpf4jnsgd1na2vs0mg"},{"bike_id":"6b4749fc-5a7e-4b73-bd3b-c0a898a72612","system_id":"levelo_inurba_marseille","lat":43.30534,"lon":5.366,"is_reserved":false,"is_disabled":false,"rental_uris":{"android":"levelo://app?vid=6b4749fc-5a7e-4b73-bd3b-c0a898a72612","ios":"levelo://app?vid=6b4749fc-5a7e-4b73-bd3b-c0a898a72612"},"vehicle_type_id":"4","last_reported":1735297624,"current_range_meters":28400,"station_id":"ce4bgs12rcd13ifvqcag","pricing_plan_id":"cebpf4jnsgd1na2vs0mg"},{"bike_id":"ff891e39-252b-4d4e-8692-37efe0bea514","system_id":"levelo_inurba_marseille","lat":43.27942,"lon":5.41033,"is_reserved":false,"is_disabled":false,"rental_uris":{"android":"levelo://app?vid=ff891e39-252b-4d4e-8692-37efe0bea514","ios":"levelo://app?vid=ff891e39-252b-4d4e-8692-37efe0bea514"},"vehicle_type_id":"4","last_reported":1735297624,"current_range_meters":36800,"station_id":"ce4bhnp2rcd13ifvqh0g","pricing_plan_id":"cebpf4jnsgd1na2vs0mg"},{"bike_id":"3fcb2f6f-39f4-445d-a829-8626c3812c7e","system_id":"levelo_inurba_marseille","lat":43.27668,"lon":5.38913,"is_reserved":false,"is_disabled":false,"rental_uris":{"android":"levelo://app?vid=3fcb2f6f-39f4-445d-a829-8626c3812c7e","ios":"levelo://app?vid=3fcb2f6f-39f4-445d-a829-8626c3812c7e"},"vehicle_type_id":"4","last_reported":1735297624,"current_range_meters":26800,"station_id":"ce4bhi12rcd13ifvqfo0","pricing_plan_id":"cebpf4jnsgd1na2vs0mg"},{"bike_id":"54e82adf-653a-40bc-8212-b0e67d34d16f","system_id":"levelo_inurba_marseille","lat":43.29931,"lon":5.36539,"is_reserved":false,"is_disabled":false,"rental_uris":{"android":"levelo://app?vid=54e82adf-653a-40bc-8212-b0e67d34d16f","ios":"levelo://app?vid=54e82adf-653a-40bc-8212-b0e67d34d16f"},"vehicle_type_id":"4","last_reported":1735297624,"current_range_meters":38800,"station_id":"ce4bgm92rcd13ifvqbr0","pricing_plan_id":"cebpf4jnsgd1na2vs0mg"},{"bike_id":"e67c65e3-d55f-486d-8549-56855d0f2c21","system_id":"levelo_inurba_marseille","lat":43.26928,"lon":5.38925,"is_reserved":false,"is_disabled":false,"rental_uris":{"android":"levelo://app?vid=e67c65e3-d55f-486d-8549-56855d0f2c21","ios":"levelo://app?vid=e67c65e3-d55f-486d-8549-56855d0f2c21"},"vehicle_type_id":"4","last_reported":1735297624,"current_range_meters":23200,"station_id":"ce4bhhh2rcd13ifvqfl0","pricing_plan_id":"cebpf4jnsgd1na2vs0mg"},{"bike_id":"857344dd-6be1-4d34-90e7-6f62afbbef2e","system_id":"levelo_inurba_marseille","lat":43.32109,"lon":5.3677,"is_reserved":false,"is_disabled":false,"rental_uris":{"android":"levelo://app?vid=857344dd-6be1-4d34-90e7-6f62afbbef2e","ios":"levelo://app?vid=857344dd-6be1-4d34-90e7-6f62afbbef2e"},"vehicle_type_id":"4","last_reported":1735297624,"current_range_meters":37600,"station_id":"ce4bhrh2rcd13ifvqhug","pricing_plan_id":"cebpf4jnsgd1na2vs0mg"},{"bike_id":"21f525c4-5059-4561-861f-f6fb304f8aee","system_id":"levelo_inurba_marseille","lat":43.29312,"lon":5.37171,"is_reserved":false,"is_disabled":false,"rental_uris":{"android":"levelo://app?vid=21f525c4-5059-4561-861f-f6fb304f8aee","ios":"levelo://app?vid=21f525c4-5059-4561-861f-f6fb304f8aee"},"vehicle_type_id":"4","last_reported":1735297624,"current_range_meters":27600,"station_id":"ce4bgh92rcd13ifvqb40","pricing_plan_id":"cebpf4jnsgd1na2vs0mg"},{"bike_id":"7146693c-4360-4059-b624-9195f9c574ac","system_id":"levelo_inurba_marseille","lat":43.31349,"lon":5.36717,"is_reserved":false,"is_disabled":false,"rental_uris":{"android":"levelo://app?vid=7146693c-4360-4059-b624-9195f9c574ac","ios":"levelo://app?vid=7146693c-4360-4059-b624-9195f9c574ac"},"vehicle_type_id":"4","last_reported":1735297624,"current_range_meters":27600,"station_id":"ce4bgr92rcd13ifvqc6g","pricing_plan_id":"cebpf4jnsgd1na2vs0mg"},{"bike_id":"897abce6-717e-48e4-862c-1c4fe53da8d7","system_id":"levelo_inurba_marseille","lat":43.30637,"lon":5.40081,"is_reserved":false,"is_disabled":false,"rental_uris":{"android":"levelo://app?vid=897abce6-717e-48e4-862c-1c4fe53da8d7","ios":"levelo://app?vid=897abce6-717e-48e4-862c-1c4fe53da8d7"},"vehicle_type_id":"4","last_reported":1735297624,"current_range_meters":34000,"station_id":"ce4bh112rcd13ifvqda0","pricing_plan_id":"cebpf4jnsgd1na2vs0mg"},{"bike_id":"4bd7f16b-a13a-408c-8f0b-645b687ee475","system_id":"levelo_inurba_marseille","lat":43.24081,"lon":5.37756,"is_reserved":false,"is_disabled":false,"rental_uris":{"android":"levelo://app?vid=4bd7f16b-a13a-408c-8f0b-645b687ee475","ios":"levelo://app?vid=4bd7f16b-a13a-408c-8f0b-645b687ee475"},"vehicle_type_id":"4","last_reported":1735297624,"current_range_meters":36800,"station_id":"ce4bhnp2rcd13ifvqgvg","pricing_plan_id":"cebpf4jnsgd1na2vs0mg"},{"bike_id":"d8ea974a-4a73-4aa7-892d-99d6b6bac9b7","system_id":"levelo_inurba_marseille","lat":43.29529,"lon":5.38529,"is_reserved":false,"is_disabled":false,"rental_uris":{"android":"levelo://app?vid=d8ea974a-4a73-4aa7-892d-99d6b6bac9b7","ios":"levelo://app?vid=d8ea974a-4a73-4aa7-892d-99d6b6bac9b7"},"vehicle_type_id":"4","last_reported":1735297624,"current_range_meters":20000,"station_id":"ce4bgih2rcd13ifvqba0","pricing_plan_id":"cebpf4jnsgd1na2vs0mg"},{"bike_id":"ad66ce9d-e2b2-4064-ae7f-fe87403c632b","system_id":"levelo_inurba_marseille","lat":43.2307,"lon":5.35492,"is_reserved":false,"is_disabled":false,"rental_uris":{"android":"levelo://app?vid=ad66ce9d-e2b2-4064-ae7f-fe87403c632b","ios":"levelo://app?vid=ad66ce9d-e2b2-4064-ae7f-fe87403c632b"},"vehicle_type_id":"4","last_reported":1735297624,"current_range_meters":25200,"station_id":"cpo3342slgdg3j2ifvpg","pricing_plan_id":"cebpf4jnsgd1na2vs0mg"},{"bike_id":"86c67b44-7a3f-423b-a5f9-71291d4ccb38","system_id":"levelo_inurba_marseille","lat":43.33009,"lon":5.39054,"is_reserved":false,"is_disabled":false,"rental_uris":{"android":"levelo://app?vid=86c67b44-7a3f-423b-a5f9-71291d4ccb38","ios":"levelo://app?vid=86c67b44-7a3f-423b-a5f9-71291d4ccb38"},"vehicle_type_id":"4","last_reported":1735297624,"current_range_meters":38400,"station_id":"ce4bhr92rcd13ifvqhrg","pricing_plan_id":"cebpf4jnsgd1na2vs0mg"},{"bike_id":"3ce543c7-ea66-4c21-8ec9-d58f312bd323","system_id":"levelo_inurba_marseille","lat":43.29149,"lon":5.37165,"is_reserved":false,"is_disabled":false,"rental_uris":{"android":"levelo://app?vid=3ce543c7-ea66-4c21-8ec9-d58f312bd323","ios":"levelo://app?vid=3ce543c7-ea66-4c21-8ec9-d58f312bd323"},"vehicle_type_id":"4","last_reported":1735297624,"current_range_meters":38800,"station_id":"ce4bha92rcd13ifvqeh0","pricing_plan_id":"cebpf4jnsgd1na2vs0mg"},{"bike_id":"56b6b8fe-7ba0-44c1-9ed1-0f7ea82c8919","system_id":"levelo_inurba_marseille","lat":43.29577,"lon":5.37498,"is_reserved":false,"is_disabled":false,"rental_uris":{"android":"levelo://app?vid=56b6b8fe-7ba0-44c1-9ed1-0f7ea82c8919","ios":"levelo://app?vid=56b6b8fe-7ba0-44c1-9ed1-0f7ea82c8919"},"vehicle_type_id":"4","last_reported":1735297624,"current_range_meters":38800,"station_id":"ce4bgh92rcd13ifvqb50","pricing_plan_id":"cebpf4jnsgd1na2vs0mg"},{"bike_id":"ced76378-03ce-491e-8851-299c9e2a0e28","system_id":"levelo_inurba_marseille","lat":43.27209,"lon":5.39187,"is_reserved":false,"is_disabled":false,"rental_uris":{"android":"levelo://app?vid=ced76378-03ce-491e-8851-299c9e2a0e28","ios":"levelo://app?vid=ced76378-03ce-491e-8851-299c9e2a0e28"},"vehicle_type_id":"4","last_reported":1735297624,"current_range_meters":39200,"station_id":"ce4bhhp2rcd13ifvqfm0","pricing_plan_id":"cebpf4jnsgd1na2vs0mg"},{"bike_id":"01a5ff22-84d7-4c4a-8c16-3a738f5156aa","system_id":"levelo_inurba_marseille","lat":43.30542,"lon":5.36536,"is_reserved":false,"is_disabled":false,"rental_uris":{"android":"levelo://app?vid=01a5ff22-84d7-4c4a-8c16-3a738f5156aa","ios":"levelo://app?vid=01a5ff22-84d7-4c4a-8c16-3a738f5156aa"},"vehicle_type_id":"4","last_reported":1735297624,"current_range_meters":39200,"station_id":"ce4bgs12rcd13ifvqcag","pricing_plan_id":"cebpf4jnsgd1na2vs0mg"},{"bike_id":"d0533ccb-11ce-46dc-9cca-daa9f7a4985a","system_id":"levelo_inurba_marseille","lat":43.29532,"lon":5.42306,"is_reserved":false,"is_disabled":false,"rental_uris":{"android":"levelo://app?vid=d0533ccb-11ce-46dc-9cca-daa9f7a4985a","ios":"levelo://app?vid=d0533ccb-11ce-46dc-9cca-daa9f7a4985a"},"vehicle_type_id":"4","last_reported":1735297624,"current_range_meters":38800,"station_id":"ce4bhph2rcd13ifvqhdg","pricing_plan_id":"cebpf4jnsgd1na2vs0mg"},{"bike_id":"df1a88a7-93e2-4ba6-94bc-1737c3e6bf78","system_id":"levelo_inurba_marseille","lat":43.29365,"lon":5.37841,"is_reserved":false,"is_disabled":false,"rental_uris":{"android":"levelo://app?vid=df1a88a7-93e2-4ba6-94bc-1737c3e6bf78","ios":"levelo://app?vid=df1a88a7-93e2-4ba6-94bc-1737c3e6bf78"},"vehicle_type_id":"4","last_reported":1735297624,"current_range_meters":37600,"station_id":"ce4bgjh2rcd13ifvqbf0","pricing_plan_id":"cebpf4jnsgd1na2vs0mg"},{"bike_id":"1363291b-cac3-4b84-b0a4-e6e5991bfd97","system_id":"levelo_inurba_marseille","lat":43.29535,"lon":5.38543,"is_reserved":false,"is_disabled":false,"rental_uris":{"android":"levelo://app?vid=1363291b-cac3-4b84-b0a4-e6e5991bfd97","ios":"levelo://app?vid=1363291b-cac3-4b84-b0a4-e6e5991bfd97"},"vehicle_type_id":"4","last_reported":1735297624,"current_range_meters":22400,"station_id":"ce4bgih2rcd13ifvqba0","pricing_plan_id":"cebpf4jnsgd1na2vs0mg"},{"bike_id":"648f7b41-6558-4508-9484-4305a1485141","system_id":"levelo_inurba_marseille","lat":43.30431,"lon":5.38885,"is_reserved":false,"is_disabled":false,"rental_uris":{"android":"levelo://app?vid=648f7b41-6558-4508-9484-4305a1485141","ios":"levelo://app?vid=648f7b41-6558-4508-9484-4305a1485141"},"vehicle_type_id":"4","last_reported":1735297624,"current_range_meters":38800,"station_id":"ce4bgk12rcd13ifvqbi0","pricing_plan_id":"cebpf4jnsgd1na2vs0mg"},{"bike_id":"b32fb18a-c8a8-4404-98aa-9a585746a89d","system_id":"levelo_inurba_marseille","lat":43.3222,"lon":5.41219,"is_reserved":false,"is_disabled":false,"rental_uris":{"android":"levelo://app?vid=b32fb18a-c8a8-4404-98aa-9a585746a89d","ios":"levelo://app?vid=b32fb18a-c8a8-4404-98aa-9a585746a89d"},"vehicle_type_id":"4","last_reported":1735297624,"current_range_meters":28800,"station_id":"","pricing_plan_id":"cebpf4jnsgd1na2vs0mg"},{"bike_id":"fb65f68e-01b9-464f-abae-a60e8b871ed3","system_id":"levelo_inurba_marseille","lat":43.27913,"lon":5.395896,"is_reserved":false,"is_disabled":false,"rental_uris":{"android":"levelo://app?vid=fb65f68e-01b9-464f-abae-a60e8b871ed3","ios":"levelo://app?vid=fb65f68e-01b9-464f-abae-a60e8b871ed3"},"vehicle_type_id":"4","last_reported":1735297624,"current_range_meters":28000,"station_id":"ce4bhf92rcd13ifvqf40","pricing_plan_id":"cebpf4jnsgd1na2vs0mg"},{"bike_id":"3fec794f-0ecb-4b20-a90d-b9b6d1bb5efb","system_id":"levelo_inurba_marseille","lat":43.25859,"lon":5.39924,"is_reserved":false,"is_disabled":false,"rental_uris":{"android":"levelo://app?vid=3fec794f-0ecb-4b20-a90d-b9b6d1bb5efb","ios":"levelo://app?vid=3fec794f-0ecb-4b20-a90d-b9b6d1bb5efb"},"vehicle_type_id":"4","last_reported":1735297624,"current_range_meters":38000,"station_id":"ce4bhl92rcd13ifvqghg","pricing_plan_id":"cebpf4jnsgd1na2vs0mg"},{"bike_id":"61b6d437-e950-46a2-8cbf-76c4bc393d6f","system_id":"levelo_inurba_marseille","lat":43.27061,"lon":5.42266,"is_reserved":false,"is_disabled":false,"rental_uris":{"android":"levelo://app?vid=61b6d437-e950-46a2-8cbf-76c4bc393d6f","ios":"levelo://app?vid=61b6d437-e950-46a2-8cbf-76c4bc393d6f"},"vehicle_type_id":"4","last_reported":1735297624,"current_range_meters":6800,"station_id":"ce4bhk92rcd13ifvqgb0","pricing_plan_id":"cebpf4jnsgd1na2vs0mg"},{"bike_id":"575ae1b2-c9a1-4f0e-8945-587d3735113f","system_id":"levelo_inurba_marseille","lat":43.29528,"lon":5.39041,"is_reserved":false,"is_disabled":false,"rental_uris":{"android":"levelo://app?vid=575ae1b2-c9a1-4f0e-8945-587d3735113f","ios":"levelo://app?vid=575ae1b2-c9a1-4f0e-8945-587d3735113f"},"vehicle_type_id":"4","last_reported":1735297624,"current_range_meters":36000,"station_id":"ce4bh3p2rcd13ifvqdp0","pricing_plan_id":"cebpf4jnsgd1na2vs0mg"},{"bike_id":"417a3b93-35ae-43df-b252-fc6e1dccb29d","system_id":"levelo_inurba_marseille","lat":43.30123,"lon":5.39894,"is_reserved":false,"is_disabled":false,"rental_uris":{"android":"levelo://app?vid=417a3b93-35ae-43df-b252-fc6e1dccb29d","ios":"levelo://app?vid=417a3b93-35ae-43df-b252-fc6e1dccb29d"},"vehicle_type_id":"4","last_reported":1735297624,"current_range_meters":38800,"station_id":"ce4bh0h2rcd13ifvqd40","pricing_plan_id":"cebpf4jnsgd1na2vs0mg"},{"bike_id":"71d370eb-36d3-4b16-a166-aa4873ad2504","system_id":"levelo_inurba_marseille","lat":43.27314,"lon":5.39083,"is_reserved":false,"is_disabled":false,"rental_uris":{"android":"levelo://app?vid=71d370eb-36d3-4b16-a166-aa4873ad2504","ios":"levelo://app?vid=71d370eb-36d3-4b16-a166-aa4873ad2504"},"vehicle_type_id":"4","last_reported":1735297624,"current_range_meters":6800,"station_id":"ce4bhgp2rcd13ifvqfe0","pricing_plan_id":"cebpf4jnsgd1na2vs0mg"},{"bike_id":"2b08ca99-c6f3-4395-ab2d-aeebc3305aa4","system_id":"levelo_inurba_marseille","lat":43.3376,"lon":5.37445,"is_reserved":false,"is_disabled":false,"rental_uris":{"android":"levelo://app?vid=2b08ca99-c6f3-4395-ab2d-aeebc3305aa4","ios":"levelo://app?vid=2b08ca99-c6f3-4395-ab2d-aeebc3305aa4"},"vehicle_type_id":"4","last_reported":1735297624,"current_range_meters":38800,"station_id":"","pricing_plan_id":"cebpf4jnsgd1na2vs0mg"},{"bike_id":"23e25e04-dd29-4836-8ab5-f117edae0dca","system_id":"levelo_inurba_marseille","lat":43.30118,"lon":5.37429,"is_reserved":false,"is_disabled":false,"rental_uris":{"android":"levelo://app?vid=23e25e04-dd29-4836-8ab5-f117edae0dca","ios":"levelo://app?vid=23e25e04-dd29-4836-8ab5-f117edae0dca"},"vehicle_type_id":"4","last_reported":1735297624,"current_range_meters":39200,"station_id":"ce4bgs92rcd13ifvqcc0","pricing_plan_id":"cebpf4jnsgd1na2vs0mg"},{"bike_id":"02f185e7-524f-4e9f-8b64-577298a65a8a","system_id":"levelo_inurba_marseille","lat":43.28103,"lon":5.37843,"is_reserved":false,"is_disabled":false,"rental_uris":{"android":"levelo://app?vid=02f185e7-524f-4e9f-8b64-577298a65a8a","ios":"levelo://app?vid=02f185e7-524f-4e9f-8b64-577298a65a8a"},"vehicle_type_id":"4","last_reported":1735297624,"current_range_meters":29600,"station_id":"ce4bha12rcd13ifvqee0","pricing_plan_id":"cebpf4jnsgd1na2vs0mg"},{"bike_id":"b127a35d-b7ce-4f77-8d9a-e00b19875b1d","system_id":"levelo_inurba_marseille","lat":43.29534,"lon":5.37499,"is_reserved":false,"is_disabled":false,"rental_uris":{"android":"levelo://app?vid=b127a35d-b7ce-4f77-8d9a-e00b19875b1d","ios":"levelo://app?vid=b127a35d-b7ce-4f77-8d9a-e00b19875b1d"},"vehicle_type_id":"4","last_reported":1735297624,"current_range_meters":28000,"station_id":"ce4bgkp2rcd13ifvqbmg","pricing_plan_id":"cebpf4jnsgd1na2vs0mg"},{"bike_id":"33e4c278-497a-4992-9269-3f4bd7a2ca60","system_id":"levelo_inurba_marseille","lat":43.29908,"lon":5.37469,"is_reserved":false,"is_disabled":false,"rental_uris":{"android":"levelo://app?vid=33e4c278-497a-4992-9269-3f4bd7a2ca60","ios":"levelo://app?vid=33e4c278-497a-4992-9269-3f4bd7a2ca60"},"vehicle_type_id":"4","last_reported":1735297624,"current_range_meters":39200,"station_id":"ce4bgjh2rcd13ifvqbg0","pricing_plan_id":"cebpf4jnsgd1na2vs0mg"},{"bike_id":"e1a11227-e418-4e25-acdd-4f7154c5af89","system_id":"levelo_inurba_marseille","lat":43.32064,"lon":5.41556,"is_reserved":false,"is_disabled":false,"rental_uris":{"android":"levelo://app?vid=e1a11227-e418-4e25-acdd-4f7154c5af89","ios":"levelo://app?vid=e1a11227-e418-4e25-acdd-4f7154c5af89"},"vehicle_type_id":"4","last_reported":1735297624,"current_range_meters":38800,"station_id":"ce4bhq92rcd13ifvqhkg","pricing_plan_id":"cebpf4jnsgd1na2vs0mg"},{"bike_id":"33835a9f-6ecd-448b-809c-5ea4ada6bcf8","system_id":"levelo_inurba_marseille","lat":43.32364,"lon":5.38882,"is_reserved":false,"is_disabled":false,"rental_uris":{"android":"levelo://app?vid=33835a9f-6ecd-448b-809c-5ea4ada6bcf8","ios":"levelo://app?vid=33835a9f-6ecd-448b-809c-5ea4ada6bcf8"},"vehicle_type_id":"4","last_reported":1735297624,"current_range_meters":12800,"station_id":"ce4bhqp2rcd13ifvqhog","pricing_plan_id":"cebpf4jnsgd1na2vs0mg"},{"bike_id":"3c05e8da-d803-4ee1-9e38-b3f9d89e9be8","system_id":"levelo_inurba_marseille","lat":43.2293,"lon":5.35382,"is_reserved":false,"is_disabled":false,"rental_uris":{"android":"levelo://app?vid=3c05e8da-d803-4ee1-9e38-b3f9d89e9be8","ios":"levelo://app?vid=3c05e8da-d803-4ee1-9e38-b3f9d89e9be8"},"vehicle_type_id":"4","last_reported":1735297624,"current_range_meters":29600,"station_id":"cpo3532slgdg3j2ikp40","pricing_plan_id":"cebpf4jnsgd1na2vs0mg"},{"bike_id":"91578b32-8e49-475c-afdb-723832a8801d","system_id":"levelo_inurba_marseille","lat":43.26799,"lon":5.40269,"is_reserved":false,"is_disabled":false,"rental_uris":{"android":"levelo://app?vid=91578b32-8e49-475c-afdb-723832a8801d","ios":"levelo://app?vid=91578b32-8e49-475c-afdb-723832a8801d"},"vehicle_type_id":"4","last_reported":1735297624,"current_range_meters":34000,"station_id":"ce501612rcd8frsf0b60","pricing_plan_id":"cebpf4jnsgd1na2vs0mg"},{"bike_id":"b5656570-3315-4cb5-bf48-7ff14d1a0a27","system_id":"levelo_inurba_marseille","lat":43.29526,"lon":5.3751,"is_reserved":false,"is_disabled":false,"rental_uris":{"android":"levelo://app?vid=b5656570-3315-4cb5-bf48-7ff14d1a0a27","ios":"levelo://app?vid=b5656570-3315-4cb5-bf48-7ff14d1a0a27"},"vehicle_type_id":"4","last_reported":1735297624,"current_range_meters":12000,"station_id":"ce4bgkp2rcd13ifvqbmg","pricing_plan_id":"cebpf4jnsgd1na2vs0mg"},{"bike_id":"a0898d4b-2086-47da-9ba0-4953b8186d9a","system_id":"levelo_inurba_marseille","lat":43.23958,"lon":5.3663,"is_reserved":false,"is_disabled":false,"rental_uris":{"android":"levelo://app?vid=a0898d4b-2086-47da-9ba0-4953b8186d9a","ios":"levelo://app?vid=a0898d4b-2086-47da-9ba0-4953b8186d9a"},"vehicle_type_id":"4","last_reported":1735297624,"current_range_meters":16400,"station_id":"ce4bhi12rcd13ifvqfp0","pricing_plan_id":"cebpf4jnsgd1na2vs0mg"},{"bike_id":"ec31cf3c-cb5a-4639-89ed-66c774666725","system_id":"levelo_inurba_marseille","lat":43.25721,"lon":5.41115,"is_reserved":false,"is_disabled":false,"rental_uris":{"android":"levelo://app?vid=ec31cf3c-cb5a-4639-89ed-66c774666725","ios":"levelo://app?vid=ec31cf3c-cb5a-4639-89ed-66c774666725"},"vehicle_type_id":"4","last_reported":1735297624,"current_range_meters":27200,"station_id":"ce4bhkp2rcd13ifvqgd0","pricing_plan_id":"cebpf4jnsgd1na2vs0mg"},{"bike_id":"08838da2-af1c-4419-8720-c1bf075f4c73","system_id":"levelo_inurba_marseille","lat":43.30146,"lon":5.38768,"is_reserved":false,"is_disabled":false,"rental_uris":{"android":"levelo://app?vid=08838da2-af1c-4419-8720-c1bf075f4c73","ios":"levelo://app?vid=08838da2-af1c-4419-8720-c1bf075f4c73"},"vehicle_type_id":"4","last_reported":1735297624,"current_range_meters":38800,"station_id":"ce4bhoh2rcd13ifvqh6g","pricing_plan_id":"cebpf4jnsgd1na2vs0mg"},{"bike_id":"a64720cc-75ea-4ee1-a6f6-7fbbb0f8e25c","system_id":"levelo_inurba_marseille","lat":43.292943,"lon":5.374347,"is_reserved":false,"is_disabled":false,"rental_uris":{"android":"levelo://app?vid=a64720cc-75ea-4ee1-a6f6-7fbbb0f8e25c","ios":"levelo://app?vid=a64720cc-75ea-4ee1-a6f6-7fbbb0f8e25c"},"vehicle_type_id":"4","last_reported":1735297624,"current_range_meters":27600,"station_id":"ce4bgi12rcd13ifvqb70","pricing_plan_id":"cebpf4jnsgd1na2vs0mg"},{"bike_id":"eea32e2a-a16f-42dc-b19b-869205fe5bfa","system_id":"levelo_inurba_marseille","lat":43.30134,"lon":5.37425,"is_reserved":false,"is_disabled":false,"rental_uris":{"android":"levelo://app?vid=eea32e2a-a16f-42dc-b19b-869205fe5bfa","ios":"levelo://app?vid=eea32e2a-a16f-42dc-b19b-869205fe5bfa"},"vehicle_type_id":"4","last_reported":1735297624,"current_range_meters":36000,"station_id":"ce4bgs92rcd13ifvqcc0","pricing_plan_id":"cebpf4jnsgd1na2vs0mg"},{"bike_id":"e49de1cd-0acd-4a78-8121-d4a34beac4ee","system_id":"levelo_inurba_marseille","lat":43.29267,"lon":5.38449,"is_reserved":false,"is_disabled":false,"rental_uris":{"android":"levelo://app?vid=e49de1cd-0acd-4a78-8121-d4a34beac4ee","ios":"levelo://app?vid=e49de1cd-0acd-4a78-8121-d4a34beac4ee"},"vehicle_type_id":"4","last_reported":1735297624,"current_range_meters":35600,"station_id":"ce4bh692rcd13ifvqea0","pricing_plan_id":"cebpf4jnsgd1na2vs0mg"},{"bike_id":"cf072019-0aed-4b2c-b722-238c44377df2","system_id":"levelo_inurba_marseille","lat":43.29847,"lon":5.36286,"is_reserved":false,"is_disabled":false,"rental_uris":{"android":"levelo://app?vid=cf072019-0aed-4b2c-b722-238c44377df2","ios":"levelo://app?vid=cf072019-0aed-4b2c-b722-238c44377df2"},"vehicle_type_id":"4","last_reported":1735297624,"current_range_meters":20800,"station_id":"ce4bgpp2rcd13ifvqc3g","pricing_plan_id":"cebpf4jnsgd1na2vs0mg"},{"bike_id":"51380689-00d9-4638-9e8c-ba05d22870af","system_id":"levelo_inurba_marseille","lat":43.30141,"lon":5.3986,"is_reserved":false,"is_disabled":false,"rental_uris":{"android":"levelo://app?vid=51380689-00d9-4638-9e8c-ba05d22870af","ios":"levelo://app?vid=51380689-00d9-4638-9e8c-ba05d22870af"},"vehicle_type_id":"4","last_reported":1735297624,"current_range_meters":27200,"station_id":"ce4bh0h2rcd13ifvqd40","pricing_plan_id":"cebpf4jnsgd1na2vs0mg"},{"bike_id":"f840b96d-d338-42a3-8560-e3f6a1ab7480","system_id":"levelo_inurba_marseille","lat":43.28924,"lon":5.38393,"is_reserved":false,"is_disabled":false,"rental_uris":{"android":"levelo://app?vid=f840b96d-d338-42a3-8560-e3f6a1ab7480","ios":"levelo://app?vid=f840b96d-d338-42a3-8560-e3f6a1ab7480"},"vehicle_type_id":"4","last_reported":1735297624,"current_range_meters":30400,"station_id":"ce4bh612rcd13ifvqe6g","pricing_plan_id":"cebpf4jnsgd1na2vs0mg"},{"bike_id":"58b71b68-5ff1-4301-9641-5b8d62d9056f","system_id":"levelo_inurba_marseille","lat":43.28467,"lon":5.38421,"is_reserved":false,"is_disabled":false,"rental_uris":{"android":"levelo://app?vid=58b71b68-5ff1-4301-9641-5b8d62d9056f","ios":"levelo://app?vid=58b71b68-5ff1-4301-9641-5b8d62d9056f"},"vehicle_type_id":"4","last_reported":1735297624,"current_range_meters":24000,"station_id":"ce4bh512rcd13ifvqe3g","pricing_plan_id":"cebpf4jnsgd1na2vs0mg"},{"bike_id":"b9596caa-1cb9-4a6e-8f74-2063d561793d","system_id":"levelo_inurba_marseille","lat":43.29921,"lon":5.37474,"is_reserved":false,"is_disabled":false,"rental_uris":{"android":"levelo://app?vid=b9596caa-1cb9-4a6e-8f74-2063d561793d","ios":"levelo://app?vid=b9596caa-1cb9-4a6e-8f74-2063d561793d"},"vehicle_type_id":"4","last_reported":1735297624,"current_range_meters":37600,"station_id":"ce4bgjh2rcd13ifvqbg0","pricing_plan_id":"cebpf4jnsgd1na2vs0mg"},{"bike_id":"a47214be-42ca-4886-ab83-630ec790a343","system_id":"levelo_inurba_marseille","lat":43.29789,"lon":5.38108,"is_reserved":false,"is_disabled":false,"rental_uris":{"android":"levelo://app?vid=a47214be-42ca-4886-ab83-630ec790a343","ios":"levelo://app?vid=a47214be-42ca-4886-ab83-630ec790a343"},"vehicle_type_id":"4","last_reported":1735297624,"current_range_meters":38000,"station_id":"ce4bgip2rcd13ifvqbb0","pricing_plan_id":"cebpf4jnsgd1na2vs0mg"},{"bike_id":"09898dd2-84ad-4911-a21d-d1f0823964b3","system_id":"levelo_inurba_marseille","lat":43.296141,"lon":5.377399,"is_reserved":false,"is_disabled":false,"rental_uris":{"android":"levelo://app?vid=09898dd2-84ad-4911-a21d-d1f0823964b3","ios":"levelo://app?vid=09898dd2-84ad-4911-a21d-d1f0823964b3"},"vehicle_type_id":"4","last_reported":1735297624,"current_range_meters":38800,"station_id":"ce4bgi92rcd13ifvqb90","pricing_plan_id":"cebpf4jnsgd1na2vs0mg"},{"bike_id":"60968da4-eb7b-45c8-944b-65c3601ac59f","system_id":"levelo_inurba_marseille","lat":43.29588,"lon":5.38126,"is_reserved":false,"is_disabled":false,"rental_uris":{"android":"levelo://app?vid=60968da4-eb7b-45c8-944b-65c3601ac59f","ios":"levelo://app?vid=60968da4-eb7b-45c8-944b-65c3601ac59f"},"vehicle_type_id":"4","last_reported":1735297624,"current_range_meters":22800,"station_id":"ce4bgl12rcd13ifvqbo0","pricing_plan_id":"cebpf4jnsgd1na2vs0mg"},{"bike_id":"40eee063-b95d-4d32-aca8-c581cf8477cf","system_id":"levelo_inurba_marseille","lat":43.24997,"lon":5.38922,"is_reserved":false,"is_disabled":false,"rental_uris":{"android":"levelo://app?vid=40eee063-b95d-4d32-aca8-c581cf8477cf","ios":"levelo://app?vid=40eee063-b95d-4d32-aca8-c581cf8477cf"},"vehicle_type_id":"4","last_reported":1735297624,"current_range_meters":29600,"station_id":"ce4bhgp2rcd13ifvqfd0","pricing_plan_id":"cebpf4jnsgd1na2vs0mg"},{"bike_id":"244d4ade-4fc4-4115-b8a5-196794b226c5","system_id":"levelo_inurba_marseille","lat":43.33022,"lon":5.39042,"is_reserved":false,"is_disabled":false,"rental_uris":{"android":"levelo://app?vid=244d4ade-4fc4-4115-b8a5-196794b226c5","ios":"levelo://app?vid=244d4ade-4fc4-4115-b8a5-196794b226c5"},"vehicle_type_id":"4","last_reported":1735297624,"current_range_meters":38800,"station_id":"ce4bhr92rcd13ifvqhrg","pricing_plan_id":"cebpf4jnsgd1na2vs0mg"},{"bike_id":"0bdc7275-7d56-4e4a-9983-ff4f39d3d7b9","system_id":"levelo_inurba_marseille","lat":43.30134,"lon":5.38783,"is_reserved":false,"is_disabled":false,"rental_uris":{"android":"levelo://app?vid=0bdc7275-7d56-4e4a-9983-ff4f39d3d7b9","ios":"levelo://app?vid=0bdc7275-7d56-4e4a-9983-ff4f39d3d7b9"},"vehicle_type_id":"4","last_reported":1735297624,"current_range_meters":38400,"station_id":"ce4bghh2rcd13ifvqb60","pricing_plan_id":"cebpf4jnsgd1na2vs0mg"},{"bike_id":"31abe7e6-d9fc-48c0-80b2-0987631fd5ea","system_id":"levelo_inurba_marseille","lat":43.24386,"lon":5.37063,"is_reserved":false,"is_disabled":false,"rental_uris":{"android":"levelo://app?vid=31abe7e6-d9fc-48c0-80b2-0987631fd5ea","ios":"levelo://app?vid=31abe7e6-d9fc-48c0-80b2-0987631fd5ea"},"vehicle_type_id":"4","last_reported":1735297624,"current_range_meters":39200,"station_id":"ce4bhhh2rcd13ifvqfk0","pricing_plan_id":"cebpf4jnsgd1na2vs0mg"},{"bike_id":"6fc39219-982d-4feb-9b3b-e1ba4db40afe","system_id":"levelo_inurba_marseille","lat":43.29601,"lon":5.3809,"is_reserved":false,"is_disabled":false,"rental_uris":{"android":"levelo://app?vid=6fc39219-982d-4feb-9b3b-e1ba4db40afe","ios":"levelo://app?vid=6fc39219-982d-4feb-9b3b-e1ba4db40afe"},"vehicle_type_id":"4","last_reported":1735297624,"current_range_meters":38800,"station_id":"ce4bgl12rcd13ifvqbo0","pricing_plan_id":"cebpf4jnsgd1na2vs0mg"},{"bike_id":"e73e6057-e6e9-407b-a17e-f4e119a96aba","system_id":"levelo_inurba_marseille","lat":43.32109,"lon":5.36773,"is_reserved":false,"is_disabled":false,"rental_uris":{"android":"levelo://app?vid=e73e6057-e6e9-407b-a17e-f4e119a96aba","ios":"levelo://app?vid=e73e6057-e6e9-407b-a17e-f4e119a96aba"},"vehicle_type_id":"4","last_reported":1735297624,"current_range_meters":22800,"station_id":"ce4bhrh2rcd13ifvqhug","pricing_plan_id":"cebpf4jnsgd1na2vs0mg"},{"bike_id":"509e7976-8960-4ea9-8a48-e22836c6447f","system_id":"levelo_inurba_marseille","lat":43.29269,"lon":5.38441,"is_reserved":false,"is_disabled":false,"rental_uris":{"android":"levelo://app?vid=509e7976-8960-4ea9-8a48-e22836c6447f","ios":"levelo://app?vid=509e7976-8960-4ea9-8a48-e22836c6447f"},"vehicle_type_id":"4","last_reported":1735297624,"current_range_meters":38400,"station_id":"ce4bh692rcd13ifvqea0","pricing_plan_id":"cebpf4jnsgd1na2vs0mg"},{"bike_id":"4457ac0b-5759-4724-82b6-65c4e675216e","system_id":"levelo_inurba_marseille","lat":43.27809,"lon":5.40712,"is_reserved":false,"is_disabled":false,"rental_uris":{"android":"levelo://app?vid=4457ac0b-5759-4724-82b6-65c4e675216e","ios":"levelo://app?vid=4457ac0b-5759-4724-82b6-65c4e675216e"},"vehicle_type_id":"4","last_reported":1735297624,"current_range_meters":6000,"station_id":"ce4bhnh2rcd13ifvqgtg","pricing_plan_id":"cebpf4jnsgd1na2vs0mg"},{"bike_id":"34b8090c-19a0-45c5-a2d5-6f9467bc44c2","system_id":"levelo_inurba_marseille","lat":43.30956,"lon":5.39089,"is_reserved":false,"is_disabled":false,"rental_uris":{"android":"levelo://app?vid=34b8090c-19a0-45c5-a2d5-6f9467bc44c2","ios":"levelo://app?vid=34b8090c-19a0-45c5-a2d5-6f9467bc44c2"},"vehicle_type_id":"4","last_reported":1735297624,"current_range_meters":39200,"station_id":"ce4bgup2rcd13ifvqco0","pricing_plan_id":"cebpf4jnsgd1na2vs0mg"},{"bike_id":"f96d2b69-703e-4114-821f-e57494f0f80a","system_id":"levelo_inurba_marseille","lat":43.2992,"lon":5.37473,"is_reserved":false,"is_disabled":false,"rental_uris":{"android":"levelo://app?vid=f96d2b69-703e-4114-821f-e57494f0f80a","ios":"levelo://app?vid=f96d2b69-703e-4114-821f-e57494f0f80a"},"vehicle_type_id":"4","last_reported":1735297624,"current_range_meters":30800,"station_id":"ce4bgjh2rcd13ifvqbg0","pricing_plan_id":"cebpf4jnsgd1na2vs0mg"},{"bike_id":"39c2c987-3b88-4998-bc24-3c208058baed","system_id":"levelo_inurba_marseille","lat":43.29919,"lon":5.37478,"is_reserved":false,"is_disabled":false,"rental_uris":{"android":"levelo://app?vid=39c2c987-3b88-4998-bc24-3c208058baed","ios":"levelo://app?vid=39c2c987-3b88-4998-bc24-3c208058baed"},"vehicle_type_id":"4","last_reported":1735297624,"current_range_meters":29600,"station_id":"ce4bgjh2rcd13ifvqbg0","pricing_plan_id":"cebpf4jnsgd1na2vs0mg"},{"bike_id":"731ba9de-00dd-4cec-ab12-769c3978dcf6","system_id":"levelo_inurba_marseille","lat":43.32033,"lon":5.41574,"is_reserved":false,"is_disabled":false,"rental_uris":{"android":"levelo://app?vid=731ba9de-00dd-4cec-ab12-769c3978dcf6","ios":"levelo://app?vid=731ba9de-00dd-4cec-ab12-769c3978dcf6"},"vehicle_type_id":"4","last_reported":1735297624,"current_range_meters":37600,"station_id":"ce4bhq92rcd13ifvqhkg","pricing_plan_id":"cebpf4jnsgd1na2vs0mg"},{"bike_id":"3bc9fe10-7d88-457e-ba60-ab2886e1fb90","system_id":"levelo_inurba_marseille","lat":43.32113,"lon":5.36776,"is_reserved":false,"is_disabled":false,"rental_uris":{"android":"levelo://app?vid=3bc9fe10-7d88-457e-ba60-ab2886e1fb90","ios":"levelo://app?vid=3bc9fe10-7d88-457e-ba60-ab2886e1fb90"},"vehicle_type_id":"4","last_reported":1735297624,"current_range_meters":32800,"station_id":"ce4bhrh2rcd13ifvqhug","pricing_plan_id":"cebpf4jnsgd1na2vs0mg"},{"bike_id":"9f576878-23a3-4310-aa90-24356ecb1249","system_id":"levelo_inurba_marseille","lat":43.29566,"lon":5.37527,"is_reserved":false,"is_disabled":false,"rental_uris":{"android":"levelo://app?vid=9f576878-23a3-4310-aa90-24356ecb1249","ios":"levelo://app?vid=9f576878-23a3-4310-aa90-24356ecb1249"},"vehicle_type_id":"4","last_reported":1735297624,"current_range_meters":30800,"station_id":"ce4bgh92rcd13ifvqb50","pricing_plan_id":"cebpf4jnsgd1na2vs0mg"},{"bike_id":"ea418be2-b096-47ed-970d-8eff98e86cbc","system_id":"levelo_inurba_marseille","lat":43.31282,"lon":5.40169,"is_reserved":false,"is_disabled":false,"rental_uris":{"android":"levelo://app?vid=ea418be2-b096-47ed-970d-8eff98e86cbc","ios":"levelo://app?vid=ea418be2-b096-47ed-970d-8eff98e86cbc"},"vehicle_type_id":"4","last_reported":1735297624,"current_range_meters":38800,"station_id":"ce4bh092rcd13ifvqd30","pricing_plan_id":"cebpf4jnsgd1na2vs0mg"},{"bike_id":"8703ddc2-abd8-4ed3-8052-d2dedbc6fd5c","system_id":"levelo_inurba_marseille","lat":43.26958,"lon":5.38635,"is_reserved":false,"is_disabled":false,"rental_uris":{"android":"levelo://app?vid=8703ddc2-abd8-4ed3-8052-d2dedbc6fd5c","ios":"levelo://app?vid=8703ddc2-abd8-4ed3-8052-d2dedbc6fd5c"},"vehicle_type_id":"4","last_reported":1735297624,"current_range_meters":38800,"station_id":"ce4bhh92rcd13ifvqfh0","pricing_plan_id":"cebpf4jnsgd1na2vs0mg"},{"bike_id":"5f900647-c14e-451e-b352-f30b00097dda","system_id":"levelo_inurba_marseille","lat":43.30538,"lon":5.36705,"is_reserved":false,"is_disabled":false,"rental_uris":{"android":"levelo://app?vid=5f900647-c14e-451e-b352-f30b00097dda","ios":"levelo://app?vid=5f900647-c14e-451e-b352-f30b00097dda"},"vehicle_type_id":"4","last_reported":1735297624,"current_range_meters":38800,"station_id":"ce4bgrp2rcd13ifvqc9g","pricing_plan_id":"cebpf4jnsgd1na2vs0mg"},{"bike_id":"d31240d3-9979-449f-a2b4-47db9b31346e","system_id":"levelo_inurba_marseille","lat":43.28476,"lon":5.38554,"is_reserved":false,"is_disabled":false,"rental_uris":{"android":"levelo://app?vid=d31240d3-9979-449f-a2b4-47db9b31346e","ios":"levelo://app?vid=d31240d3-9979-449f-a2b4-47db9b31346e"},"vehicle_type_id":"4","last_reported":1735297624,"current_range_meters":38800,"station_id":"ce4bh8p2rcd13ifvqeb0","pricing_plan_id":"cebpf4jnsgd1na2vs0mg"},{"bike_id":"dad6db58-f5bc-4da2-b0b4-3d5d1002166b","system_id":"levelo_inurba_marseille","lat":43.32117,"lon":5.36774,"is_reserved":false,"is_disabled":false,"rental_uris":{"android":"levelo://app?vid=dad6db58-f5bc-4da2-b0b4-3d5d1002166b","ios":"levelo://app?vid=dad6db58-f5bc-4da2-b0b4-3d5d1002166b"},"vehicle_type_id":"4","last_reported":1735297624,"current_range_meters":16800,"station_id":"ce4bhrh2rcd13ifvqhug","pricing_plan_id":"cebpf4jnsgd1na2vs0mg"},{"bike_id":"91c34002-8e31-42ad-9084-4cff46de691d","system_id":"levelo_inurba_marseille","lat":43.29907,"lon":5.38142,"is_reserved":false,"is_disabled":false,"rental_uris":{"android":"levelo://app?vid=91c34002-8e31-42ad-9084-4cff46de691d","ios":"levelo://app?vid=91c34002-8e31-42ad-9084-4cff46de691d"},"vehicle_type_id":"4","last_reported":1735297624,"current_range_meters":35600,"station_id":"ce4bgj12rcd13ifvqbc0","pricing_plan_id":"cebpf4jnsgd1na2vs0mg"},{"bike_id":"b172311e-fb2d-4a1c-855e-83ce59db8212","system_id":"levelo_inurba_marseille","lat":43.28441,"lon":5.39207,"is_reserved":false,"is_disabled":false,"rental_uris":{"android":"levelo://app?vid=b172311e-fb2d-4a1c-855e-83ce59db8212","ios":"levelo://app?vid=b172311e-fb2d-4a1c-855e-83ce59db8212"},"vehicle_type_id":"4","last_reported":1735297624,"current_range_meters":24800,"station_id":"ce4bhoh2rcd13ifvqh5g","pricing_plan_id":"cebpf4jnsgd1na2vs0mg"},{"bike_id":"c4d90cb8-8ccf-4cc4-828a-b9406ae0d439","system_id":"levelo_inurba_marseille","lat":43.27367,"lon":5.36254,"is_reserved":false,"is_disabled":false,"rental_uris":{"android":"levelo://app?vid=c4d90cb8-8ccf-4cc4-828a-b9406ae0d439","ios":"levelo://app?vid=c4d90cb8-8ccf-4cc4-828a-b9406ae0d439"},"vehicle_type_id":"4","last_reported":1735297624,"current_range_meters":16000,"station_id":"ce4bhbh2rcd13ifvqeo0","pricing_plan_id":"cebpf4jnsgd1na2vs0mg"},{"bike_id":"a3b5e29c-4425-483d-9fe4-2d25fea7803f","system_id":"levelo_inurba_marseille","lat":43.25004,"lon":5.3892,"is_reserved":false,"is_disabled":true,"rental_uris":{"android":"levelo://app?vid=a3b5e29c-4425-483d-9fe4-2d25fea7803f","ios":"levelo://app?vid=a3b5e29c-4425-483d-9fe4-2d25fea7803f"},"vehicle_type_id":"4","last_reported":1735297624,"current_range_meters":32400,"station_id":"ce4bhgp2rcd13ifvqfd0","pricing_plan_id":"cebpf4jnsgd1na2vs0mg"},{"bike_id":"396c5533-5cfa-4087-be42-c0b4bf33858d","system_id":"levelo_inurba_marseille","lat":43.32653,"lon":5.40994,"is_reserved":false,"is_disabled":false,"rental_uris":{"android":"levelo://app?vid=396c5533-5cfa-4087-be42-c0b4bf33858d","ios":"levelo://app?vid=396c5533-5cfa-4087-be42-c0b4bf33858d"},"vehicle_type_id":"4","last_reported":1735297624,"current_range_meters":11600,"station_id":"ce4bhpp2rcd13ifvqhgg","pricing_plan_id":"cebpf4jnsgd1na2vs0mg"},{"bike_id":"6c845133-d324-4733-bdd1-5616d8af0159","system_id":"levelo_inurba_marseille","lat":43.29316,"lon":5.37193,"is_reserved":false,"is_disabled":false,"rental_uris":{"android":"levelo://app?vid=6c845133-d324-4733-bdd1-5616d8af0159","ios":"levelo://app?vid=6c845133-d324-4733-bdd1-5616d8af0159"},"vehicle_type_id":"4","last_reported":1735297624,"current_range_meters":34000,"station_id":"ce4bgh92rcd13ifvqb40","pricing_plan_id":"cebpf4jnsgd1na2vs0mg"},{"bike_id":"8d01eb90-bc0e-47b8-a7e1-4bdcd2bfe599","system_id":"levelo_inurba_marseille","lat":43.28472,"lon":5.38408,"is_reserved":false,"is_disabled":false,"rental_uris":{"android":"levelo://app?vid=8d01eb90-bc0e-47b8-a7e1-4bdcd2bfe599","ios":"levelo://app?vid=8d01eb90-bc0e-47b8-a7e1-4bdcd2bfe599"},"vehicle_type_id":"4","last_reported":1735297624,"current_range_meters":14000,"station_id":"ce4bh512rcd13ifvqe3g","pricing_plan_id":"cebpf4jnsgd1na2vs0mg"},{"bike_id":"e50d6dde-6c6a-41a0-9143-477400f14690","system_id":"levelo_inurba_marseille","lat":43.27675,"lon":5.38877,"is_reserved":false,"is_disabled":false,"rental_uris":{"android":"levelo://app?vid=e50d6dde-6c6a-41a0-9143-477400f14690","ios":"levelo://app?vid=e50d6dde-6c6a-41a0-9143-477400f14690"},"vehicle_type_id":"4","last_reported":1735297624,"current_range_meters":22400,"station_id":"ce4bhi12rcd13ifvqfo0","pricing_plan_id":"cebpf4jnsgd1na2vs0mg"},{"bike_id":"81a96c9a-a123-46c9-b2c0-c91b31dae98c","system_id":"levelo_inurba_marseille","lat":43.30599,"lon":5.3722,"is_reserved":false,"is_disabled":false,"rental_uris":{"android":"levelo://app?vid=81a96c9a-a123-46c9-b2c0-c91b31dae98c","ios":"levelo://app?vid=81a96c9a-a123-46c9-b2c0-c91b31dae98c"},"vehicle_type_id":"4","last_reported":1735297624,"current_range_meters":33600,"station_id":"ce4bgqh2rcd13ifvqc4g","pricing_plan_id":"cebpf4jnsgd1na2vs0mg"},{"bike_id":"5d78fcac-8516-413f-aee0-8e19d04556bb","system_id":"levelo_inurba_marseille","lat":43.28261,"lon":5.35067,"is_reserved":false,"is_disabled":false,"rental_uris":{"android":"levelo://app?vid=5d78fcac-8516-413f-aee0-8e19d04556bb","ios":"levelo://app?vid=5d78fcac-8516-413f-aee0-8e19d04556bb"},"vehicle_type_id":"4","last_reported":1735297624,"current_range_meters":32000,"station_id":"ce4bhbp2rcd13ifvqerg","pricing_plan_id":"cebpf4jnsgd1na2vs0mg"},{"bike_id":"3aea4b09-1c52-448e-9026-8c47430b110c","system_id":"levelo_inurba_marseille","lat":43.2867,"lon":5.36332,"is_reserved":false,"is_disabled":false,"rental_uris":{"android":"levelo://app?vid=3aea4b09-1c52-448e-9026-8c47430b110c","ios":"levelo://app?vid=3aea4b09-1c52-448e-9026-8c47430b110c"},"vehicle_type_id":"4","last_reported":1735297624,"current_range_meters":28800,"station_id":"ce4bhah2rcd13ifvqej0","pricing_plan_id":"cebpf4jnsgd1na2vs0mg"},{"bike_id":"341738ef-5889-4ad9-9747-8c8fe8e1f661","system_id":"levelo_inurba_marseille","lat":43.29971,"lon":5.38491,"is_reserved":false,"is_disabled":false,"rental_uris":{"android":"levelo://app?vid=341738ef-5889-4ad9-9747-8c8fe8e1f661","ios":"levelo://app?vid=341738ef-5889-4ad9-9747-8c8fe8e1f661"},"vehicle_type_id":"4","last_reported":1735297624,"current_range_meters":38000,"station_id":"ce4bgj92rcd13ifvqbd0","pricing_plan_id":"cebpf4jnsgd1na2vs0mg"},{"bike_id":"821d987d-d104-4e4b-b2f2-ae7d66aa4bb2","system_id":"levelo_inurba_marseille","lat":43.28978,"lon":5.37827,"is_reserved":false,"is_disabled":false,"rental_uris":{"android":"levelo://app?vid=821d987d-d104-4e4b-b2f2-ae7d66aa4bb2","ios":"levelo://app?vid=821d987d-d104-4e4b-b2f2-ae7d66aa4bb2"},"vehicle_type_id":"4","last_reported":1735297624,"current_range_meters":39200,"station_id":"ce4bh9p2rcd13ifvqed0","pricing_plan_id":"cebpf4jnsgd1na2vs0mg"},{"bike_id":"ca049452-ab87-4154-a37e-a13d001acce4","system_id":"levelo_inurba_marseille","lat":43.31083,"lon":5.42428,"is_reserved":false,"is_disabled":false,"rental_uris":{"android":"levelo://app?vid=ca049452-ab87-4154-a37e-a13d001acce4","ios":"levelo://app?vid=ca049452-ab87-4154-a37e-a13d001acce4"},"vehicle_type_id":"4","last_reported":1735297624,"current_range_meters":38000,"station_id":"ce4bhp92rcd13ifvqhag","pricing_plan_id":"cebpf4jnsgd1na2vs0mg"},{"bike_id":"1f03e07b-50b0-4a9e-bd03-dc766534a5b3","system_id":"levelo_inurba_marseille","lat":43.25581,"lon":5.38246,"is_reserved":false,"is_disabled":false,"rental_uris":{"android":"levelo://app?vid=1f03e07b-50b0-4a9e-bd03-dc766534a5b3","ios":"levelo://app?vid=1f03e07b-50b0-4a9e-bd03-dc766534a5b3"},"vehicle_type_id":"4","last_reported":1735297624,"current_range_meters":30800,"station_id":"ce4bhih2rcd13ifvqfs0","pricing_plan_id":"cebpf4jnsgd1na2vs0mg"},{"bike_id":"c6834b76-82f1-466a-8b2d-118839d142cc","system_id":"levelo_inurba_marseille","lat":43.29894,"lon":5.43662,"is_reserved":false,"is_disabled":false,"rental_uris":{"android":"levelo://app?vid=c6834b76-82f1-466a-8b2d-118839d142cc","ios":"levelo://app?vid=c6834b76-82f1-466a-8b2d-118839d142cc"},"vehicle_type_id":"4","last_reported":1735297624,"current_range_meters":38000,"station_id":"ce4bhpp2rcd13ifvqhfg","pricing_plan_id":"cebpf4jnsgd1na2vs0mg"},{"bike_id":"1107b56a-98a5-4a01-8449-9eba086fee5a","system_id":"levelo_inurba_marseille","lat":43.29073,"lon":5.39883,"is_reserved":false,"is_disabled":false,"rental_uris":{"android":"levelo://app?vid=1107b56a-98a5-4a01-8449-9eba086fee5a","ios":"levelo://app?vid=1107b56a-98a5-4a01-8449-9eba086fee5a"},"vehicle_type_id":"4","last_reported":1735297624,"current_range_meters":22800,"station_id":"","pricing_plan_id":"cebpf4jnsgd1na2vs0mg"},{"bike_id":"4e4277ec-b79e-43a1-bae0-d0f951c20956","system_id":"levelo_inurba_marseille","lat":43.29791,"lon":5.39352,"is_reserved":false,"is_disabled":false,"rental_uris":{"android":"levelo://app?vid=4e4277ec-b79e-43a1-bae0-d0f951c20956","ios":"levelo://app?vid=4e4277ec-b79e-43a1-bae0-d0f951c20956"},"vehicle_type_id":"4","last_reported":1735297624,"current_range_meters":38800,"station_id":"chh1huq6cuj3fo74tm60","pricing_plan_id":"cebpf4jnsgd1na2vs0mg"},{"bike_id":"6f68edfd-fb24-4919-b968-971a44d10505","system_id":"levelo_inurba_marseille","lat":43.337252,"lon":5.391794,"is_reserved":false,"is_disabled":false,"rental_uris":{"android":"levelo://app?vid=6f68edfd-fb24-4919-b968-971a44d10505","ios":"levelo://app?vid=6f68edfd-fb24-4919-b968-971a44d10505"},"vehicle_type_id":"4","last_reported":1735297624,"current_range_meters":38800,"station_id":"ce4bhr92rcd13ifvqhsg","pricing_plan_id":"cebpf4jnsgd1na2vs0mg"},{"bike_id":"1ba22deb-a0a1-4994-900b-4b7721109cf4","system_id":"levelo_inurba_marseille","lat":43.28939,"lon":5.39621,"is_reserved":false,"is_disabled":false,"rental_uris":{"android":"levelo://app?vid=1ba22deb-a0a1-4994-900b-4b7721109cf4","ios":"levelo://app?vid=1ba22deb-a0a1-4994-900b-4b7721109cf4"},"vehicle_type_id":"4","last_reported":1735297624,"current_range_meters":12400,"station_id":"ce4bh3h2rcd13ifvqdn0","pricing_plan_id":"cebpf4jnsgd1na2vs0mg"},{"bike_id":"e00dfb05-17e3-4fe6-bb2e-302de9c485a7","system_id":"levelo_inurba_marseille","lat":43.29604,"lon":5.38093,"is_reserved":false,"is_disabled":false,"rental_uris":{"android":"levelo://app?vid=e00dfb05-17e3-4fe6-bb2e-302de9c485a7","ios":"levelo://app?vid=e00dfb05-17e3-4fe6-bb2e-302de9c485a7"},"vehicle_type_id":"4","last_reported":1735297624,"current_range_meters":32000,"station_id":"ce4bgl12rcd13ifvqbo0","pricing_plan_id":"cebpf4jnsgd1na2vs0mg"},{"bike_id":"5608df94-b66e-460e-9f45-682a8f36b500","system_id":"levelo_inurba_marseille","lat":43.26934,"lon":5.38942,"is_reserved":false,"is_disabled":false,"rental_uris":{"android":"levelo://app?vid=5608df94-b66e-460e-9f45-682a8f36b500","ios":"levelo://app?vid=5608df94-b66e-460e-9f45-682a8f36b500"},"vehicle_type_id":"4","last_reported":1735297624,"current_range_meters":38000,"station_id":"ce4bhhh2rcd13ifvqfl0","pricing_plan_id":"cebpf4jnsgd1na2vs0mg"},{"bike_id":"3fbbac4e-077e-476b-9b1a-9cc6e989ecb0","system_id":"levelo_inurba_marseille","lat":43.25006,"lon":5.38921,"is_reserved":false,"is_disabled":false,"rental_uris":{"android":"levelo://app?vid=3fbbac4e-077e-476b-9b1a-9cc6e989ecb0","ios":"levelo://app?vid=3fbbac4e-077e-476b-9b1a-9cc6e989ecb0"},"vehicle_type_id":"4","last_reported":1735297624,"current_range_meters":38400,"station_id":"ce4bhgp2rcd13ifvqfd0","pricing_plan_id":"cebpf4jnsgd1na2vs0mg"},{"bike_id":"d0ac690d-0efe-47fa-9059-f0f7881223f1","system_id":"levelo_inurba_marseille","lat":43.29727,"lon":5.37698,"is_reserved":false,"is_disabled":false,"rental_uris":{"android":"levelo://app?vid=d0ac690d-0efe-47fa-9059-f0f7881223f1","ios":"levelo://app?vid=d0ac690d-0efe-47fa-9059-f0f7881223f1"},"vehicle_type_id":"4","last_reported":1735297624,"current_range_meters":36400,"station_id":"ce4bgkh2rcd13ifvqbl0","pricing_plan_id":"cebpf4jnsgd1na2vs0mg"},{"bike_id":"e203eede-93d4-4367-be9a-c6d93cdc799f","system_id":"levelo_inurba_marseille","lat":43.29936,"lon":5.36549,"is_reserved":false,"is_disabled":false,"rental_uris":{"android":"levelo://app?vid=e203eede-93d4-4367-be9a-c6d93cdc799f","ios":"levelo://app?vid=e203eede-93d4-4367-be9a-c6d93cdc799f"},"vehicle_type_id":"4","last_reported":1735297624,"current_range_meters":22400,"station_id":"ce4bgm92rcd13ifvqbr0","pricing_plan_id":"cebpf4jnsgd1na2vs0mg"},{"bike_id":"afa27d6a-abd2-4d2c-929e-aec0ed9e6183","system_id":"levelo_inurba_marseille","lat":43.27428,"lon":5.3942,"is_reserved":false,"is_disabled":false,"rental_uris":{"android":"levelo://app?vid=afa27d6a-abd2-4d2c-929e-aec0ed9e6183","ios":"levelo://app?vid=afa27d6a-abd2-4d2c-929e-aec0ed9e6183"},"vehicle_type_id":"4","last_reported":1735297624,"current_range_meters":38800,"station_id":"ce4bhdp2rcd13ifvqf20","pricing_plan_id":"cebpf4jnsgd1na2vs0mg"},{"bike_id":"ca2d264f-9288-43d1-a694-b08703928d67","system_id":"levelo_inurba_marseille","lat":43.29811,"lon":5.37136,"is_reserved":false,"is_disabled":false,"rental_uris":{"android":"levelo://app?vid=ca2d264f-9288-43d1-a694-b08703928d67","ios":"levelo://app?vid=ca2d264f-9288-43d1-a694-b08703928d67"},"vehicle_type_id":"4","last_reported":1735297624,"current_range_meters":38800,"station_id":"ce4bgop2rcd13ifvqc1g","pricing_plan_id":"cebpf4jnsgd1na2vs0mg"},{"bike_id":"41e441a8-4ad2-4bf0-81ba-96c35feaf6d8","system_id":"levelo_inurba_marseille","lat":43.28153,"lon":5.42639,"is_reserved":false,"is_disabled":false,"rental_uris":{"android":"levelo://app?vid=41e441a8-4ad2-4bf0-81ba-96c35feaf6d8","ios":"levelo://app?vid=41e441a8-4ad2-4bf0-81ba-96c35feaf6d8"},"vehicle_type_id":"4","last_reported":1735297624,"current_range_meters":38800,"station_id":"ce4bhnh2rcd13ifvqgug","pricing_plan_id":"cebpf4jnsgd1na2vs0mg"},{"bike_id":"3fb7305d-5d51-4a69-90c5-988847744b01","system_id":"levelo_inurba_marseille","lat":43.30597,"lon":5.37225,"is_reserved":false,"is_disabled":false,"rental_uris":{"android":"levelo://app?vid=3fb7305d-5d51-4a69-90c5-988847744b01","ios":"levelo://app?vid=3fb7305d-5d51-4a69-90c5-988847744b01"},"vehicle_type_id":"4","last_reported":1735297624,"current_range_meters":24400,"station_id":"ce4bgqh2rcd13ifvqc4g","pricing_plan_id":"cebpf4jnsgd1na2vs0mg"},{"bike_id":"04cc700b-a7e7-4c95-8b1c-54025bdc39ee","system_id":"levelo_inurba_marseille","lat":43.31116,"lon":5.37775,"is_reserved":false,"is_disabled":false,"rental_uris":{"android":"levelo://app?vid=04cc700b-a7e7-4c95-8b1c-54025bdc39ee","ios":"levelo://app?vid=04cc700b-a7e7-4c95-8b1c-54025bdc39ee"},"vehicle_type_id":"4","last_reported":1735297624,"current_range_meters":35200,"station_id":"ce4bgt92rcd13ifvqcg0","pricing_plan_id":"cebpf4jnsgd1na2vs0mg"},{"bike_id":"57d65774-f73c-4be4-b79d-df6c62563381","system_id":"levelo_inurba_marseille","lat":43.28094,"lon":5.37849,"is_reserved":false,"is_disabled":false,"rental_uris":{"android":"levelo://app?vid=57d65774-f73c-4be4-b79d-df6c62563381","ios":"levelo://app?vid=57d65774-f73c-4be4-b79d-df6c62563381"},"vehicle_type_id":"4","last_reported":1735297624,"current_range_meters":24400,"station_id":"ce4bha12rcd13ifvqee0","pricing_plan_id":"cebpf4jnsgd1na2vs0mg"},{"bike_id":"4e04e3c8-bad8-47c2-a784-0c5eba8b5d4f","system_id":"levelo_inurba_marseille","lat":43.27064,"lon":5.4229,"is_reserved":false,"is_disabled":false,"rental_uris":{"android":"levelo://app?vid=4e04e3c8-bad8-47c2-a784-0c5eba8b5d4f","ios":"levelo://app?vid=4e04e3c8-bad8-47c2-a784-0c5eba8b5d4f"},"vehicle_type_id":"4","last_reported":1735297624,"current_range_meters":30400,"station_id":"ce4bhk92rcd13ifvqgb0","pricing_plan_id":"cebpf4jnsgd1na2vs0mg"},{"bike_id":"9987d476-df72-47f2-a4c3-811ebc02e9bc","system_id":"levelo_inurba_marseille","lat":43.30546,"lon":5.36528,"is_reserved":false,"is_disabled":false,"rental_uris":{"android":"levelo://app?vid=9987d476-df72-47f2-a4c3-811ebc02e9bc","ios":"levelo://app?vid=9987d476-df72-47f2-a4c3-811ebc02e9bc"},"vehicle_type_id":"4","last_reported":1735297624,"current_range_meters":38800,"station_id":"ce4bgs12rcd13ifvqcag","pricing_plan_id":"cebpf4jnsgd1na2vs0mg"},{"bike_id":"7e3dfa95-7c7d-4daa-904d-8e20c1b28f87","system_id":"levelo_inurba_marseille","lat":43.30548,"lon":5.36552,"is_reserved":false,"is_disabled":false,"rental_uris":{"android":"levelo://app?vid=7e3dfa95-7c7d-4daa-904d-8e20c1b28f87","ios":"levelo://app?vid=7e3dfa95-7c7d-4daa-904d-8e20c1b28f87"},"vehicle_type_id":"4","last_reported":1735297624,"current_range_meters":30400,"station_id":"ce4bgs12rcd13ifvqcag","pricing_plan_id":"cebpf4jnsgd1na2vs0mg"},{"bike_id":"03350f70-f6b0-4c73-9b04-89800e70085e","system_id":"levelo_inurba_marseille","lat":43.29595,"lon":5.36756,"is_reserved":false,"is_disabled":false,"rental_uris":{"android":"levelo://app?vid=03350f70-f6b0-4c73-9b04-89800e70085e","ios":"levelo://app?vid=03350f70-f6b0-4c73-9b04-89800e70085e"},"vehicle_type_id":"4","last_reported":1735297624,"current_range_meters":39200,"station_id":"ce4bgph2rcd13ifvqc2g","pricing_plan_id":"cebpf4jnsgd1na2vs0mg"},{"bike_id":"4bcf10ad-362a-4ec7-b2bf-29ae747cbd4e","system_id":"levelo_inurba_marseille","lat":43.27173,"lon":5.41006,"is_reserved":false,"is_disabled":false,"rental_uris":{"android":"levelo://app?vid=4bcf10ad-362a-4ec7-b2bf-29ae747cbd4e","ios":"levelo://app?vid=4bcf10ad-362a-4ec7-b2bf-29ae747cbd4e"},"vehicle_type_id":"4","last_reported":1735297624,"current_range_meters":30400,"station_id":"ce4bhl12rcd13ifvqgf0","pricing_plan_id":"cebpf4jnsgd1na2vs0mg"},{"bike_id":"68748034-e5dc-43d6-9c47-2c8088710c68","system_id":"levelo_inurba_marseille","lat":43.29541,"lon":5.42307,"is_reserved":false,"is_disabled":false,"rental_uris":{"android":"levelo://app?vid=68748034-e5dc-43d6-9c47-2c8088710c68","ios":"levelo://app?vid=68748034-e5dc-43d6-9c47-2c8088710c68"},"vehicle_type_id":"4","last_reported":1735297624,"current_range_meters":38000,"station_id":"ce4bhph2rcd13ifvqhdg","pricing_plan_id":"cebpf4jnsgd1na2vs0mg"},{"bike_id":"f2f91b7c-af31-49df-af15-35bc0e323143","system_id":"levelo_inurba_marseille","lat":43.278133,"lon":5.407155,"is_reserved":false,"is_disabled":false,"rental_uris":{"android":"levelo://app?vid=f2f91b7c-af31-49df-af15-35bc0e323143","ios":"levelo://app?vid=f2f91b7c-af31-49df-af15-35bc0e323143"},"vehicle_type_id":"4","last_reported":1735297624,"current_range_meters":38800,"station_id":"ce4bhnh2rcd13ifvqgtg","pricing_plan_id":"cebpf4jnsgd1na2vs0mg"},{"bike_id":"356fd92d-e963-40e6-b40e-58fc72ac9553","system_id":"levelo_inurba_marseille","lat":43.32106,"lon":5.36768,"is_reserved":false,"is_disabled":false,"rental_uris":{"android":"levelo://app?vid=356fd92d-e963-40e6-b40e-58fc72ac9553","ios":"levelo://app?vid=356fd92d-e963-40e6-b40e-58fc72ac9553"},"vehicle_type_id":"4","last_reported":1735297624,"current_range_meters":20400,"station_id":"ce4bhrh2rcd13ifvqhug","pricing_plan_id":"cebpf4jnsgd1na2vs0mg"},{"bike_id":"093ea325-05ba-493a-9614-250e339137b8","system_id":"levelo_inurba_marseille","lat":43.24803,"lon":5.37462,"is_reserved":false,"is_disabled":false,"rental_uris":{"android":"levelo://app?vid=093ea325-05ba-493a-9614-250e339137b8","ios":"levelo://app?vid=093ea325-05ba-493a-9614-250e339137b8"},"vehicle_type_id":"4","last_reported":1735297624,"current_range_meters":38800,"station_id":"ce4bhgh2rcd13ifvqfb0","pricing_plan_id":"cebpf4jnsgd1na2vs0mg"},{"bike_id":"1022f0fc-ae62-4d19-8ecf-320d2ab1b80d","system_id":"levelo_inurba_marseille","lat":43.27194,"lon":5.39175,"is_reserved":false,"is_disabled":false,"rental_uris":{"android":"levelo://app?vid=1022f0fc-ae62-4d19-8ecf-320d2ab1b80d","ios":"levelo://app?vid=1022f0fc-ae62-4d19-8ecf-320d2ab1b80d"},"vehicle_type_id":"4","last_reported":1735297624,"current_range_meters":39200,"station_id":"ce4bhhp2rcd13ifvqfm0","pricing_plan_id":"cebpf4jnsgd1na2vs0mg"},{"bike_id":"8106d14b-0ca3-4f0c-b5cc-44e19e67f08a","system_id":"levelo_inurba_marseille","lat":43.26212,"lon":5.37442,"is_reserved":false,"is_disabled":true,"rental_uris":{"android":"levelo://app?vid=8106d14b-0ca3-4f0c-b5cc-44e19e67f08a","ios":"levelo://app?vid=8106d14b-0ca3-4f0c-b5cc-44e19e67f08a"},"vehicle_type_id":"4","last_reported":1735297624,"current_range_meters":0,"station_id":"ce4bhgp2rcd13ifvqfc0","pricing_plan_id":"cebpf4jnsgd1na2vs0mg"},{"bike_id":"8fd1d9e5-4f18-41f3-9a57-11e52a7ff9c6","system_id":"levelo_inurba_marseille","lat":43.30912,"lon":5.36856,"is_reserved":false,"is_disabled":false,"rental_uris":{"android":"levelo://app?vid=8fd1d9e5-4f18-41f3-9a57-11e52a7ff9c6","ios":"levelo://app?vid=8fd1d9e5-4f18-41f3-9a57-11e52a7ff9c6"},"vehicle_type_id":"4","last_reported":1735297624,"current_range_meters":38800,"station_id":"ce4bgn92rcd13ifvqbvg","pricing_plan_id":"cebpf4jnsgd1na2vs0mg"},{"bike_id":"6b2815f5-7db7-43e6-8328-792fbcd8259b","system_id":"levelo_inurba_marseille","lat":43.29577,"lon":5.37514,"is_reserved":false,"is_disabled":false,"rental_uris":{"android":"levelo://app?vid=6b2815f5-7db7-43e6-8328-792fbcd8259b","ios":"levelo://app?vid=6b2815f5-7db7-43e6-8328-792fbcd8259b"},"vehicle_type_id":"4","last_reported":1735297624,"current_range_meters":17600,"station_id":"ce4bgh92rcd13ifvqb50","pricing_plan_id":"cebpf4jnsgd1na2vs0mg"},{"bike_id":"eb70c629-c191-4542-94c5-394ac4724d43","system_id":"levelo_inurba_marseille","lat":43.28465,"lon":5.38574,"is_reserved":false,"is_disabled":false,"rental_uris":{"android":"levelo://app?vid=eb70c629-c191-4542-94c5-394ac4724d43","ios":"levelo://app?vid=eb70c629-c191-4542-94c5-394ac4724d43"},"vehicle_type_id":"4","last_reported":1735297624,"current_range_meters":38400,"station_id":"ce4bh8p2rcd13ifvqeb0","pricing_plan_id":"cebpf4jnsgd1na2vs0mg"},{"bike_id":"f9d7a6aa-83a7-4384-8969-5637dd508436","system_id":"levelo_inurba_marseille","lat":43.2781,"lon":5.40709,"is_reserved":false,"is_disabled":false,"rental_uris":{"android":"levelo://app?vid=f9d7a6aa-83a7-4384-8969-5637dd508436","ios":"levelo://app?vid=f9d7a6aa-83a7-4384-8969-5637dd508436"},"vehicle_type_id":"4","last_reported":1735297624,"current_range_meters":38800,"station_id":"ce4bhnh2rcd13ifvqgtg","pricing_plan_id":"cebpf4jnsgd1na2vs0mg"},{"bike_id":"01fed048-1469-43f6-badd-acb5b8823391","system_id":"levelo_inurba_marseille","lat":43.30913,"lon":5.40155,"is_reserved":false,"is_disabled":false,"rental_uris":{"android":"levelo://app?vid=01fed048-1469-43f6-badd-acb5b8823391","ios":"levelo://app?vid=01fed048-1469-43f6-badd-acb5b8823391"},"vehicle_type_id":"4","last_reported":1735297624,"current_range_meters":27200,"station_id":"ce4bgvp2rcd13ifvqct0","pricing_plan_id":"cebpf4jnsgd1na2vs0mg"},{"bike_id":"673ed0fe-3027-4e1f-9efc-2804b0e32190","system_id":"levelo_inurba_marseille","lat":43.26688,"lon":5.38276,"is_reserved":false,"is_disabled":false,"rental_uris":{"android":"levelo://app?vid=673ed0fe-3027-4e1f-9efc-2804b0e32190","ios":"levelo://app?vid=673ed0fe-3027-4e1f-9efc-2804b0e32190"},"vehicle_type_id":"4","last_reported":1735297624,"current_range_meters":19200,"station_id":"ce4bhg92rcd13ifvqf90","pricing_plan_id":"cebpf4jnsgd1na2vs0mg"},{"bike_id":"16dce88e-6947-485f-87a2-d3975a189eb3","system_id":"levelo_inurba_marseille","lat":43.29563,"lon":5.37501,"is_reserved":false,"is_disabled":false,"rental_uris":{"android":"levelo://app?vid=16dce88e-6947-485f-87a2-d3975a189eb3","ios":"levelo://app?vid=16dce88e-6947-485f-87a2-d3975a189eb3"},"vehicle_type_id":"4","last_reported":1735297624,"current_range_meters":38800,"station_id":"ce4bgh92rcd13ifvqb50","pricing_plan_id":"cebpf4jnsgd1na2vs0mg"},{"bike_id":"e5da7a22-3d35-4225-a91e-7c6df686c633","system_id":"levelo_inurba_marseille","lat":43.28491,"lon":5.38551,"is_reserved":false,"is_disabled":false,"rental_uris":{"android":"levelo://app?vid=e5da7a22-3d35-4225-a91e-7c6df686c633","ios":"levelo://app?vid=e5da7a22-3d35-4225-a91e-7c6df686c633"},"vehicle_type_id":"4","last_reported":1735297624,"current_range_meters":38400,"station_id":"ce4bh8p2rcd13ifvqeb0","pricing_plan_id":"cebpf4jnsgd1na2vs0mg"},{"bike_id":"a5d526bb-a757-4be3-975b-76bfce10ea48","system_id":"levelo_inurba_marseille","lat":43.28841,"lon":5.35851,"is_reserved":false,"is_disabled":false,"rental_uris":{"android":"levelo://app?vid=a5d526bb-a757-4be3-975b-76bfce10ea48","ios":"levelo://app?vid=a5d526bb-a757-4be3-975b-76bfce10ea48"},"vehicle_type_id":"4","last_reported":1735297624,"current_range_meters":26800,"station_id":"ce4bhb12rcd13ifvqem0","pricing_plan_id":"cebpf4jnsgd1na2vs0mg"},{"bike_id":"1a623009-ffeb-49aa-8bdd-d01b1feb2702","system_id":"levelo_inurba_marseille","lat":43.292,"lon":5.39336,"is_reserved":false,"is_disabled":false,"rental_uris":{"android":"levelo://app?vid=1a623009-ffeb-49aa-8bdd-d01b1feb2702","ios":"levelo://app?vid=1a623009-ffeb-49aa-8bdd-d01b1feb2702"},"vehicle_type_id":"4","last_reported":1735297624,"current_range_meters":39200,"station_id":"ce4bh192rcd13ifvqdd0","pricing_plan_id":"cebpf4jnsgd1na2vs0mg"},{"bike_id":"67f50bf3-d16a-4dbd-a640-5544a66eaff5","system_id":"levelo_inurba_marseille","lat":43.30282,"lon":5.37697,"is_reserved":false,"is_disabled":false,"rental_uris":{"android":"levelo://app?vid=67f50bf3-d16a-4dbd-a640-5544a66eaff5","ios":"levelo://app?vid=67f50bf3-d16a-4dbd-a640-5544a66eaff5"},"vehicle_type_id":"4","last_reported":1735297624,"current_range_meters":9600,"station_id":"ce4bguh2rcd13ifvqcj0","pricing_plan_id":"cebpf4jnsgd1na2vs0mg"},{"bike_id":"cadf8335-6df2-49c1-9678-5228c753266c","system_id":"levelo_inurba_marseille","lat":43.28085,"lon":5.39661,"is_reserved":false,"is_disabled":true,"rental_uris":{"android":"levelo://app?vid=cadf8335-6df2-49c1-9678-5228c753266c","ios":"levelo://app?vid=cadf8335-6df2-49c1-9678-5228c753266c"},"vehicle_type_id":"4","last_reported":1735297624,"current_range_meters":1200,"station_id":"ce4bho12rcd13ifvqh2g","pricing_plan_id":"cebpf4jnsgd1na2vs0mg"},{"bike_id":"af5219a6-3ed9-4c37-ad2c-5b0df701a749","system_id":"levelo_inurba_marseille","lat":43.31492,"lon":5.3731,"is_reserved":false,"is_disabled":false,"rental_uris":{"android":"levelo://app?vid=af5219a6-3ed9-4c37-ad2c-5b0df701a749","ios":"levelo://app?vid=af5219a6-3ed9-4c37-ad2c-5b0df701a749"},"vehicle_type_id":"4","last_reported":1735297624,"current_range_meters":38800,"station_id":"ce4bgt12rcd13ifvqcd0","pricing_plan_id":"cebpf4jnsgd1na2vs0mg"},{"bike_id":"7fa60e51-b540-45b0-aa9f-35cfb04d90db","system_id":"levelo_inurba_marseille","lat":43.23149,"lon":5.43713,"is_reserved":false,"is_disabled":false,"rental_uris":{"android":"levelo://app?vid=7fa60e51-b540-45b0-aa9f-35cfb04d90db","ios":"levelo://app?vid=7fa60e51-b540-45b0-aa9f-35cfb04d90db"},"vehicle_type_id":"4","last_reported":1735297624,"current_range_meters":8400,"station_id":"ce4bhmp2rcd13ifvqgog","pricing_plan_id":"cebpf4jnsgd1na2vs0mg"},{"bike_id":"0d356a97-93db-4905-a410-a6d23d3b385c","system_id":"levelo_inurba_marseille","lat":43.28843,"lon":5.35847,"is_reserved":false,"is_disabled":false,"rental_uris":{"android":"levelo://app?vid=0d356a97-93db-4905-a410-a6d23d3b385c","ios":"levelo://app?vid=0d356a97-93db-4905-a410-a6d23d3b385c"},"vehicle_type_id":"4","last_reported":1735297624,"current_range_meters":15200,"station_id":"ce4bhb12rcd13ifvqem0","pricing_plan_id":"cebpf4jnsgd1na2vs0mg"},{"bike_id":"e3084541-f18a-4fe3-b206-cf1666698a75","system_id":"levelo_inurba_marseille","lat":43.26686,"lon":5.38268,"is_reserved":false,"is_disabled":false,"rental_uris":{"android":"levelo://app?vid=e3084541-f18a-4fe3-b206-cf1666698a75","ios":"levelo://app?vid=e3084541-f18a-4fe3-b206-cf1666698a75"},"vehicle_type_id":"4","last_reported":1735297624,"current_range_meters":36400,"station_id":"ce4bhg92rcd13ifvqf90","pricing_plan_id":"cebpf4jnsgd1na2vs0mg"},{"bike_id":"9fc3294f-3e25-4874-9355-2e9be97a41fa","system_id":"levelo_inurba_marseille","lat":43.28471,"lon":5.38543,"is_reserved":false,"is_disabled":false,"rental_uris":{"android":"levelo://app?vid=9fc3294f-3e25-4874-9355-2e9be97a41fa","ios":"levelo://app?vid=9fc3294f-3e25-4874-9355-2e9be97a41fa"},"vehicle_type_id":"4","last_reported":1735297624,"current_range_meters":32000,"station_id":"ce4bh8p2rcd13ifvqeb0","pricing_plan_id":"cebpf4jnsgd1na2vs0mg"},{"bike_id":"2ee1a73a-0ebb-4b47-b30d-6cd2a5bbe97c","system_id":"levelo_inurba_marseille","lat":43.26939,"lon":5.3868,"is_reserved":false,"is_disabled":false,"rental_uris":{"android":"levelo://app?vid=2ee1a73a-0ebb-4b47-b30d-6cd2a5bbe97c","ios":"levelo://app?vid=2ee1a73a-0ebb-4b47-b30d-6cd2a5bbe97c"},"vehicle_type_id":"4","last_reported":1735297624,"current_range_meters":26000,"station_id":"ce4bhh92rcd13ifvqfh0","pricing_plan_id":"cebpf4jnsgd1na2vs0mg"},{"bike_id":"d36bb8df-822e-49e3-adc4-c36f4503a77d","system_id":"levelo_inurba_marseille","lat":43.27496,"lon":5.42451,"is_reserved":false,"is_disabled":false,"rental_uris":{"android":"levelo://app?vid=d36bb8df-822e-49e3-adc4-c36f4503a77d","ios":"levelo://app?vid=d36bb8df-822e-49e3-adc4-c36f4503a77d"},"vehicle_type_id":"4","last_reported":1735297624,"current_range_meters":6400,"station_id":"ce4bhn92rcd13ifvqgrg","pricing_plan_id":"cebpf4jnsgd1na2vs0mg"},{"bike_id":"811f696f-7096-4917-b2dc-fe3e5fef95af","system_id":"levelo_inurba_marseille","lat":43.25119,"lon":5.40334,"is_reserved":false,"is_disabled":true,"rental_uris":{"android":"levelo://app?vid=811f696f-7096-4917-b2dc-fe3e5fef95af","ios":"levelo://app?vid=811f696f-7096-4917-b2dc-fe3e5fef95af"},"vehicle_type_id":"4","last_reported":1735297624,"current_range_meters":0,"station_id":"ce4bhlh2rcd13ifvqgig","pricing_plan_id":"cebpf4jnsgd1na2vs0mg"},{"bike_id":"4f5db02c-99f9-460e-a880-3ca7100df048","system_id":"levelo_inurba_marseille","lat":43.27399,"lon":5.39395,"is_reserved":false,"is_disabled":false,"rental_uris":{"android":"levelo://app?vid=4f5db02c-99f9-460e-a880-3ca7100df048","ios":"levelo://app?vid=4f5db02c-99f9-460e-a880-3ca7100df048"},"vehicle_type_id":"4","last_reported":1735297624,"current_range_meters":36400,"station_id":"ce4bhdp2rcd13ifvqf20","pricing_plan_id":"cebpf4jnsgd1na2vs0mg"},{"bike_id":"9614a1b7-206a-4b8e-a9ea-82a7dc613839","system_id":"levelo_inurba_marseille","lat":43.3258,"lon":5.41504,"is_reserved":false,"is_disabled":true,"rental_uris":{"android":"levelo://app?vid=9614a1b7-206a-4b8e-a9ea-82a7dc613839","ios":"levelo://app?vid=9614a1b7-206a-4b8e-a9ea-82a7dc613839"},"vehicle_type_id":"4","last_reported":1735297624,"current_range_meters":30400,"station_id":"ce4bhq12rcd13ifvqhhg","pricing_plan_id":"cebpf4jnsgd1na2vs0mg"},{"bike_id":"2a3969cc-4e7f-40ab-9e06-92d5a45ba912","system_id":"levelo_inurba_marseille","lat":43.29974,"lon":5.37179,"is_reserved":false,"is_disabled":false,"rental_uris":{"android":"levelo://app?vid=2a3969cc-4e7f-40ab-9e06-92d5a45ba912","ios":"levelo://app?vid=2a3969cc-4e7f-40ab-9e06-92d5a45ba912"},"vehicle_type_id":"4","last_reported":1735297624,"current_range_meters":36000,"station_id":"ce4bgr92rcd13ifvqc7g","pricing_plan_id":"cebpf4jnsgd1na2vs0mg"},{"bike_id":"195abfaa-dc62-4c27-9e76-de3accfa56e2","system_id":"levelo_inurba_marseille","lat":43.25121,"lon":5.40326,"is_reserved":false,"is_disabled":false,"rental_uris":{"android":"levelo://app?vid=195abfaa-dc62-4c27-9e76-de3accfa56e2","ios":"levelo://app?vid=195abfaa-dc62-4c27-9e76-de3accfa56e2"},"vehicle_type_id":"4","last_reported":1735297624,"current_range_meters":9200,"station_id":"ce4bhlh2rcd13ifvqgig","pricing_plan_id":"cebpf4jnsgd1na2vs0mg"},{"bike_id":"785bd057-9143-46c6-90a2-af1a18ac69d9","system_id":"levelo_inurba_marseille","lat":43.29308,"lon":5.37162,"is_reserved":false,"is_disabled":false,"rental_uris":{"android":"levelo://app?vid=785bd057-9143-46c6-90a2-af1a18ac69d9","ios":"levelo://app?vid=785bd057-9143-46c6-90a2-af1a18ac69d9"},"vehicle_type_id":"4","last_reported":1735297624,"current_range_meters":26800,"station_id":"ce4bgh92rcd13ifvqb40","pricing_plan_id":"cebpf4jnsgd1na2vs0mg"},{"bike_id":"e6278b4f-c638-433f-b5de-bcd45d589e8f","system_id":"levelo_inurba_marseille","lat":43.29033,"lon":5.37567,"is_reserved":false,"is_disabled":false,"rental_uris":{"android":"levelo://app?vid=e6278b4f-c638-433f-b5de-bcd45d589e8f","ios":"levelo://app?vid=e6278b4f-c638-433f-b5de-bcd45d589e8f"},"vehicle_type_id":"4","last_reported":1735297624,"current_range_meters":24400,"station_id":"ce4bh692rcd13ifvqe90","pricing_plan_id":"cebpf4jnsgd1na2vs0mg"},{"bike_id":"02372d24-c804-4944-8038-275945fcd361","system_id":"levelo_inurba_marseille","lat":43.29566,"lon":5.3751,"is_reserved":false,"is_disabled":false,"rental_uris":{"android":"levelo://app?vid=02372d24-c804-4944-8038-275945fcd361","ios":"levelo://app?vid=02372d24-c804-4944-8038-275945fcd361"},"vehicle_type_id":"4","last_reported":1735297624,"current_range_meters":34800,"station_id":"ce4bgh92rcd13ifvqb50","pricing_plan_id":"cebpf4jnsgd1na2vs0mg"},{"bike_id":"d051bf13-7445-45ad-86d7-0bc2c858622c","system_id":"levelo_inurba_marseille","lat":43.29178,"lon":5.35783,"is_reserved":false,"is_disabled":false,"rental_uris":{"android":"levelo://app?vid=d051bf13-7445-45ad-86d7-0bc2c858622c","ios":"levelo://app?vid=d051bf13-7445-45ad-86d7-0bc2c858622c"},"vehicle_type_id":"4","last_reported":1735297624,"current_range_meters":24000,"station_id":"ce4bhb12rcd13ifvqel0","pricing_plan_id":"cebpf4jnsgd1na2vs0mg"},{"bike_id":"1786334d-2721-40c5-be60-f94ab6a924f7","system_id":"levelo_inurba_marseille","lat":43.26196,"lon":5.37936,"is_reserved":false,"is_disabled":false,"rental_uris":{"android":"levelo://app?vid=1786334d-2721-40c5-be60-f94ab6a924f7","ios":"levelo://app?vid=1786334d-2721-40c5-be60-f94ab6a924f7"},"vehicle_type_id":"4","last_reported":1735297624,"current_range_meters":38800,"station_id":"ce4bhjp2rcd13ifvqg90","pricing_plan_id":"cebpf4jnsgd1na2vs0mg"},{"bike_id":"43f7e734-263c-460e-a5d5-9f3194a8a7de","system_id":"levelo_inurba_marseille","lat":43.301411,"lon":5.398755,"is_reserved":false,"is_disabled":false,"rental_uris":{"android":"levelo://app?vid=43f7e734-263c-460e-a5d5-9f3194a8a7de","ios":"levelo://app?vid=43f7e734-263c-460e-a5d5-9f3194a8a7de"},"vehicle_type_id":"4","last_reported":1735297624,"current_range_meters":38800,"station_id":"ce4bh0h2rcd13ifvqd40","pricing_plan_id":"cebpf4jnsgd1na2vs0mg"},{"bike_id":"71160096-1f78-4a01-8bd7-5e65b9e0ac95","system_id":"levelo_inurba_marseille","lat":43.26196,"lon":5.37934,"is_reserved":false,"is_disabled":false,"rental_uris":{"android":"levelo://app?vid=71160096-1f78-4a01-8bd7-5e65b9e0ac95","ios":"levelo://app?vid=71160096-1f78-4a01-8bd7-5e65b9e0ac95"},"vehicle_type_id":"4","last_reported":1735297624,"current_range_meters":38800,"station_id":"ce4bhjp2rcd13ifvqg90","pricing_plan_id":"cebpf4jnsgd1na2vs0mg"},{"bike_id":"498c46b1-b214-4ec5-b7cb-f99e10a10477","system_id":"levelo_inurba_marseille","lat":43.29277,"lon":5.40183,"is_reserved":false,"is_disabled":false,"rental_uris":{"android":"levelo://app?vid=498c46b1-b214-4ec5-b7cb-f99e10a10477","ios":"levelo://app?vid=498c46b1-b214-4ec5-b7cb-f99e10a10477"},"vehicle_type_id":"4","last_reported":1735297624,"current_range_meters":20400,"station_id":"","pricing_plan_id":"cebpf4jnsgd1na2vs0mg"},{"bike_id":"1db2767a-f1e1-4f0a-b7e3-3e0c4d85a1a9","system_id":"levelo_inurba_marseille","lat":43.29262,"lon":5.38448,"is_reserved":false,"is_disabled":false,"rental_uris":{"android":"levelo://app?vid=1db2767a-f1e1-4f0a-b7e3-3e0c4d85a1a9","ios":"levelo://app?vid=1db2767a-f1e1-4f0a-b7e3-3e0c4d85a1a9"},"vehicle_type_id":"4","last_reported":1735297624,"current_range_meters":13600,"station_id":"ce4bh692rcd13ifvqea0","pricing_plan_id":"cebpf4jnsgd1na2vs0mg"},{"bike_id":"4c561fe5-8cf0-4c70-befb-f4afd4dc4933","system_id":"levelo_inurba_marseille","lat":43.29037,"lon":5.37591,"is_reserved":false,"is_disabled":false,"rental_uris":{"android":"levelo://app?vid=4c561fe5-8cf0-4c70-befb-f4afd4dc4933","ios":"levelo://app?vid=4c561fe5-8cf0-4c70-befb-f4afd4dc4933"},"vehicle_type_id":"4","last_reported":1735297624,"current_range_meters":39200,"station_id":"ce4bh692rcd13ifvqe90","pricing_plan_id":"cebpf4jnsgd1na2vs0mg"},{"bike_id":"a32cd1e7-cc87-4292-9d06-455d298daf7c","system_id":"levelo_inurba_marseille","lat":43.30421,"lon":5.39749,"is_reserved":false,"is_disabled":false,"rental_uris":{"android":"levelo://app?vid=a32cd1e7-cc87-4292-9d06-455d298daf7c","ios":"levelo://app?vid=a32cd1e7-cc87-4292-9d06-455d298daf7c"},"vehicle_type_id":"4","last_reported":1735297624,"current_range_meters":38000,"station_id":"ce4bh092rcd13ifvqd20","pricing_plan_id":"cebpf4jnsgd1na2vs0mg"},{"bike_id":"28bd3904-ffcb-4595-8c51-c947161caafc","system_id":"levelo_inurba_marseille","lat":43.29608,"lon":5.3774,"is_reserved":false,"is_disabled":false,"rental_uris":{"android":"levelo://app?vid=28bd3904-ffcb-4595-8c51-c947161caafc","ios":"levelo://app?vid=28bd3904-ffcb-4595-8c51-c947161caafc"},"vehicle_type_id":"4","last_reported":1735297624,"current_range_meters":22400,"station_id":"ce4bgi92rcd13ifvqb90","pricing_plan_id":"cebpf4jnsgd1na2vs0mg"},{"bike_id":"aa41f6f0-cb8e-449e-9786-1f20cafd73ba","system_id":"levelo_inurba_marseille","lat":43.29011,"lon":5.35607,"is_reserved":false,"is_disabled":false,"rental_uris":{"android":"levelo://app?vid=aa41f6f0-cb8e-449e-9786-1f20cafd73ba","ios":"levelo://app?vid=aa41f6f0-cb8e-449e-9786-1f20cafd73ba"},"vehicle_type_id":"4","last_reported":1735297624,"current_range_meters":37600,"station_id":"ce4bhb92rcd13ifvqen0","pricing_plan_id":"cebpf4jnsgd1na2vs0mg"},{"bike_id":"697e83a0-44c6-488a-8c71-96d439adfe24","system_id":"levelo_inurba_marseille","lat":43.30798,"lon":5.38155,"is_reserved":false,"is_disabled":false,"rental_uris":{"android":"levelo://app?vid=697e83a0-44c6-488a-8c71-96d439adfe24","ios":"levelo://app?vid=697e83a0-44c6-488a-8c71-96d439adfe24"},"vehicle_type_id":"4","last_reported":1735297624,"current_range_meters":21600,"station_id":"ce4bgt12rcd13ifvqce0","pricing_plan_id":"cebpf4jnsgd1na2vs0mg"},{"bike_id":"68cc728b-4da1-4ae5-a176-fd3fb61a64ab","system_id":"levelo_inurba_marseille","lat":43.2794,"lon":5.41044,"is_reserved":false,"is_disabled":false,"rental_uris":{"android":"levelo://app?vid=68cc728b-4da1-4ae5-a176-fd3fb61a64ab","ios":"levelo://app?vid=68cc728b-4da1-4ae5-a176-fd3fb61a64ab"},"vehicle_type_id":"4","last_reported":1735297624,"current_range_meters":24800,"station_id":"ce4bhnp2rcd13ifvqh0g","pricing_plan_id":"cebpf4jnsgd1na2vs0mg"},{"bike_id":"10ee00e2-6a8d-468b-a9fd-bf9edcde657c","system_id":"levelo_inurba_marseille","lat":43.29849,"lon":5.3628,"is_reserved":false,"is_disabled":false,"rental_uris":{"android":"levelo://app?vid=10ee00e2-6a8d-468b-a9fd-bf9edcde657c","ios":"levelo://app?vid=10ee00e2-6a8d-468b-a9fd-bf9edcde657c"},"vehicle_type_id":"4","last_reported":1735297624,"current_range_meters":30000,"station_id":"ce4bgpp2rcd13ifvqc3g","pricing_plan_id":"cebpf4jnsgd1na2vs0mg"},{"bike_id":"ba2866cc-be07-4bbe-8b91-3215bdfe55c3","system_id":"levelo_inurba_marseille","lat":43.31364,"lon":5.36754,"is_reserved":false,"is_disabled":false,"rental_uris":{"android":"levelo://app?vid=ba2866cc-be07-4bbe-8b91-3215bdfe55c3","ios":"levelo://app?vid=ba2866cc-be07-4bbe-8b91-3215bdfe55c3"},"vehicle_type_id":"4","last_reported":1735297624,"current_range_meters":30800,"station_id":"ce4bgr92rcd13ifvqc6g","pricing_plan_id":"cebpf4jnsgd1na2vs0mg"},{"bike_id":"ecc3069f-ed87-41d9-ac7d-367b2e369d31","system_id":"levelo_inurba_marseille","lat":43.29254,"lon":5.38442,"is_reserved":false,"is_disabled":false,"rental_uris":{"android":"levelo://app?vid=ecc3069f-ed87-41d9-ac7d-367b2e369d31","ios":"levelo://app?vid=ecc3069f-ed87-41d9-ac7d-367b2e369d31"},"vehicle_type_id":"4","last_reported":1735297624,"current_range_meters":16400,"station_id":"ce4bh692rcd13ifvqea0","pricing_plan_id":"cebpf4jnsgd1na2vs0mg"},{"bike_id":"a1fe4665-de83-4204-a5a3-f25973a1b151","system_id":"levelo_inurba_marseille","lat":43.30536,"lon":5.36555,"is_reserved":false,"is_disabled":false,"rental_uris":{"android":"levelo://app?vid=a1fe4665-de83-4204-a5a3-f25973a1b151","ios":"levelo://app?vid=a1fe4665-de83-4204-a5a3-f25973a1b151"},"vehicle_type_id":"4","last_reported":1735297624,"current_range_meters":36000,"station_id":"ce4bgs12rcd13ifvqcag","pricing_plan_id":"cebpf4jnsgd1na2vs0mg"},{"bike_id":"3da3df4b-f8e9-4306-b14c-18e8f4938303","system_id":"levelo_inurba_marseille","lat":43.28108,"lon":5.37849,"is_reserved":false,"is_disabled":false,"rental_uris":{"android":"levelo://app?vid=3da3df4b-f8e9-4306-b14c-18e8f4938303","ios":"levelo://app?vid=3da3df4b-f8e9-4306-b14c-18e8f4938303"},"vehicle_type_id":"4","last_reported":1735297624,"current_range_meters":32400,"station_id":"ce4bha12rcd13ifvqee0","pricing_plan_id":"cebpf4jnsgd1na2vs0mg"},{"bike_id":"7969fb78-a9fa-4c1b-9b8b-c7be5d5f8e20","system_id":"levelo_inurba_marseille","lat":43.29295,"lon":5.37458,"is_reserved":false,"is_disabled":false,"rental_uris":{"android":"levelo://app?vid=7969fb78-a9fa-4c1b-9b8b-c7be5d5f8e20","ios":"levelo://app?vid=7969fb78-a9fa-4c1b-9b8b-c7be5d5f8e20"},"vehicle_type_id":"4","last_reported":1735297624,"current_range_meters":12000,"station_id":"ce4bgi12rcd13ifvqb70","pricing_plan_id":"cebpf4jnsgd1na2vs0mg"},{"bike_id":"f91d41be-51ed-459c-b67e-2e7259fde805","system_id":"levelo_inurba_marseille","lat":43.26935,"lon":5.38918,"is_reserved":false,"is_disabled":false,"rental_uris":{"android":"levelo://app?vid=f91d41be-51ed-459c-b67e-2e7259fde805","ios":"levelo://app?vid=f91d41be-51ed-459c-b67e-2e7259fde805"},"vehicle_type_id":"4","last_reported":1735297624,"current_range_meters":38800,"station_id":"ce4bhhh2rcd13ifvqfl0","pricing_plan_id":"cebpf4jnsgd1na2vs0mg"},{"bike_id":"28614f0f-83c7-4a5e-aa82-6698d8d0f203","system_id":"levelo_inurba_marseille","lat":43.24804,"lon":5.37452,"is_reserved":false,"is_disabled":false,"rental_uris":{"android":"levelo://app?vid=28614f0f-83c7-4a5e-aa82-6698d8d0f203","ios":"levelo://app?vid=28614f0f-83c7-4a5e-aa82-6698d8d0f203"},"vehicle_type_id":"4","last_reported":1735297624,"current_range_meters":38400,"station_id":"ce4bhgh2rcd13ifvqfb0","pricing_plan_id":"cebpf4jnsgd1na2vs0mg"},{"bike_id":"64f979ed-5d65-4090-a4c0-8957b5e62fb2","system_id":"levelo_inurba_marseille","lat":43.29025,"lon":5.38652,"is_reserved":false,"is_disabled":false,"rental_uris":{"android":"levelo://app?vid=64f979ed-5d65-4090-a4c0-8957b5e62fb2","ios":"levelo://app?vid=64f979ed-5d65-4090-a4c0-8957b5e62fb2"},"vehicle_type_id":"4","last_reported":1735297624,"current_range_meters":26800,"station_id":"ce4bh4p2rcd13ifvqe0g","pricing_plan_id":"cebpf4jnsgd1na2vs0mg"},{"bike_id":"c9e5d6c6-5601-4769-be5c-20fef93ca121","system_id":"levelo_inurba_marseille","lat":43.24165,"lon":5.36396,"is_reserved":false,"is_disabled":false,"rental_uris":{"android":"levelo://app?vid=c9e5d6c6-5601-4769-be5c-20fef93ca121","ios":"levelo://app?vid=c9e5d6c6-5601-4769-be5c-20fef93ca121"},"vehicle_type_id":"4","last_reported":1735297624,"current_range_meters":23200,"station_id":"cpo36qri1sfpv3e86is0","pricing_plan_id":"cebpf4jnsgd1na2vs0mg"},{"bike_id":"aba4b75d-e266-4f65-9a41-33e5f798b937","system_id":"levelo_inurba_marseille","lat":43.27902,"lon":5.39588,"is_reserved":false,"is_disabled":false,"rental_uris":{"android":"levelo://app?vid=aba4b75d-e266-4f65-9a41-33e5f798b937","ios":"levelo://app?vid=aba4b75d-e266-4f65-9a41-33e5f798b937"},"vehicle_type_id":"4","last_reported":1735297624,"current_range_meters":37600,"station_id":"ce4bhf92rcd13ifvqf40","pricing_plan_id":"cebpf4jnsgd1na2vs0mg"},{"bike_id":"69965e05-3ff1-4807-a3fd-18bc35fa9075","system_id":"levelo_inurba_marseille","lat":43.28998,"lon":5.38138,"is_reserved":false,"is_disabled":false,"rental_uris":{"android":"levelo://app?vid=69965e05-3ff1-4807-a3fd-18bc35fa9075","ios":"levelo://app?vid=69965e05-3ff1-4807-a3fd-18bc35fa9075"},"vehicle_type_id":"4","last_reported":1735297624,"current_range_meters":38800,"station_id":"ce4bh4p2rcd13ifvqe1g","pricing_plan_id":"cebpf4jnsgd1na2vs0mg"},{"bike_id":"e7101e0e-f266-4408-b1e5-60c2bdfd15ab","system_id":"levelo_inurba_marseille","lat":43.30869,"lon":5.37205,"is_reserved":false,"is_disabled":false,"rental_uris":{"android":"levelo://app?vid=e7101e0e-f266-4408-b1e5-60c2bdfd15ab","ios":"levelo://app?vid=e7101e0e-f266-4408-b1e5-60c2bdfd15ab"},"vehicle_type_id":"4","last_reported":1735297624,"current_range_meters":36000,"station_id":"ce4bguh2rcd13ifvqckg","pricing_plan_id":"cebpf4jnsgd1na2vs0mg"},{"bike_id":"2cca7a4c-2861-4c49-80ab-3fd5edea29ec","system_id":"levelo_inurba_marseille","lat":43.28407,"lon":5.37523,"is_reserved":false,"is_disabled":false,"rental_uris":{"android":"levelo://app?vid=2cca7a4c-2861-4c49-80ab-3fd5edea29ec","ios":"levelo://app?vid=2cca7a4c-2861-4c49-80ab-3fd5edea29ec"},"vehicle_type_id":"4","last_reported":1735297624,"current_range_meters":16800,"station_id":"ce4bh412rcd13ifvqds0","pricing_plan_id":"cebpf4jnsgd1na2vs0mg"},{"bike_id":"4e7c8620-84dc-4bc7-8f9b-4ff4d2d3c951","system_id":"levelo_inurba_marseille","lat":43.27379,"lon":5.3627,"is_reserved":false,"is_disabled":false,"rental_uris":{"android":"levelo://app?vid=4e7c8620-84dc-4bc7-8f9b-4ff4d2d3c951","ios":"levelo://app?vid=4e7c8620-84dc-4bc7-8f9b-4ff4d2d3c951"},"vehicle_type_id":"4","last_reported":1735297624,"current_range_meters":29600,"station_id":"ce4bhbh2rcd13ifvqeo0","pricing_plan_id":"cebpf4jnsgd1na2vs0mg"},{"bike_id":"5fc30973-bbec-426d-a601-031e5bd67e70","system_id":"levelo_inurba_marseille","lat":43.301459,"lon":5.387799,"is_reserved":false,"is_disabled":false,"rental_uris":{"android":"levelo://app?vid=5fc30973-bbec-426d-a601-031e5bd67e70","ios":"levelo://app?vid=5fc30973-bbec-426d-a601-031e5bd67e70"},"vehicle_type_id":"4","last_reported":1735297624,"current_range_meters":13600,"station_id":"ce4bhoh2rcd13ifvqh6g","pricing_plan_id":"cebpf4jnsgd1na2vs0mg"},{"bike_id":"772f8c90-106c-4dd1-81fc-372dfa7d2ea9","system_id":"levelo_inurba_marseille","lat":43.27664,"lon":5.3892,"is_reserved":false,"is_disabled":false,"rental_uris":{"android":"levelo://app?vid=772f8c90-106c-4dd1-81fc-372dfa7d2ea9","ios":"levelo://app?vid=772f8c90-106c-4dd1-81fc-372dfa7d2ea9"},"vehicle_type_id":"4","last_reported":1735297624,"current_range_meters":28000,"station_id":"ce4bhi12rcd13ifvqfo0","pricing_plan_id":"cebpf4jnsgd1na2vs0mg"},{"bike_id":"74875ae6-f3ec-45be-aafa-67a4ee45b32a","system_id":"levelo_inurba_marseille","lat":43.29003,"lon":5.35596,"is_reserved":false,"is_disabled":false,"rental_uris":{"android":"levelo://app?vid=74875ae6-f3ec-45be-aafa-67a4ee45b32a","ios":"levelo://app?vid=74875ae6-f3ec-45be-aafa-67a4ee45b32a"},"vehicle_type_id":"4","last_reported":1735297624,"current_range_meters":32400,"station_id":"ce4bhb92rcd13ifvqen0","pricing_plan_id":"cebpf4jnsgd1na2vs0mg"},{"bike_id":"416ba99e-1bb9-405f-a8e0-6899c73a3d41","system_id":"levelo_inurba_marseille","lat":43.26549,"lon":5.39016,"is_reserved":false,"is_disabled":false,"rental_uris":{"android":"levelo://app?vid=416ba99e-1bb9-405f-a8e0-6899c73a3d41","ios":"levelo://app?vid=416ba99e-1bb9-405f-a8e0-6899c73a3d41"},"vehicle_type_id":"4","last_reported":1735297624,"current_range_meters":38800,"station_id":"ce4bhe12rcd13ifvqf30","pricing_plan_id":"cebpf4jnsgd1na2vs0mg"},{"bike_id":"3d3e43cc-c4d5-4e55-9c75-0f11a5e50178","system_id":"levelo_inurba_marseille","lat":43.29032,"lon":5.37567,"is_reserved":false,"is_disabled":false,"rental_uris":{"android":"levelo://app?vid=3d3e43cc-c4d5-4e55-9c75-0f11a5e50178","ios":"levelo://app?vid=3d3e43cc-c4d5-4e55-9c75-0f11a5e50178"},"vehicle_type_id":"4","last_reported":1735297624,"current_range_meters":29600,"station_id":"ce4bh692rcd13ifvqe90","pricing_plan_id":"cebpf4jnsgd1na2vs0mg"},{"bike_id":"a9045e1b-5702-4d95-8cc5-0b675246e39d","system_id":"levelo_inurba_marseille","lat":43.2929,"lon":5.37449,"is_reserved":false,"is_disabled":false,"rental_uris":{"android":"levelo://app?vid=a9045e1b-5702-4d95-8cc5-0b675246e39d","ios":"levelo://app?vid=a9045e1b-5702-4d95-8cc5-0b675246e39d"},"vehicle_type_id":"4","last_reported":1735297624,"current_range_meters":38800,"station_id":"ce4bgi12rcd13ifvqb70","pricing_plan_id":"cebpf4jnsgd1na2vs0mg"},{"bike_id":"6c195860-b457-4abf-b17b-3f9ea8633123","system_id":"levelo_inurba_marseille","lat":43.30311,"lon":5.36911,"is_reserved":false,"is_disabled":false,"rental_uris":{"android":"levelo://app?vid=6c195860-b457-4abf-b17b-3f9ea8633123","ios":"levelo://app?vid=6c195860-b457-4abf-b17b-3f9ea8633123"},"vehicle_type_id":"4","last_reported":1735297624,"current_range_meters":38800,"station_id":"ce4bgqh2rcd13ifvqc5g","pricing_plan_id":"cebpf4jnsgd1na2vs0mg"},{"bike_id":"c1fdeab0-f0d0-4f19-ab08-7166c4406613","system_id":"levelo_inurba_marseille","lat":43.2958,"lon":5.36741,"is_reserved":false,"is_disabled":false,"rental_uris":{"android":"levelo://app?vid=c1fdeab0-f0d0-4f19-ab08-7166c4406613","ios":"levelo://app?vid=c1fdeab0-f0d0-4f19-ab08-7166c4406613"},"vehicle_type_id":"4","last_reported":1735297624,"current_range_meters":38800,"station_id":"ce4bgph2rcd13ifvqc2g","pricing_plan_id":"cebpf4jnsgd1na2vs0mg"},{"bike_id":"ece8e372-8fdb-4fc0-8781-d68aecdcd85a","system_id":"levelo_inurba_marseille","lat":43.313638,"lon":5.384963,"is_reserved":false,"is_disabled":false,"rental_uris":{"android":"levelo://app?vid=ece8e372-8fdb-4fc0-8781-d68aecdcd85a","ios":"levelo://app?vid=ece8e372-8fdb-4fc0-8781-d68aecdcd85a"},"vehicle_type_id":"4","last_reported":1735297624,"current_range_meters":24000,"station_id":"ce4bgt92rcd13ifvqcf0","pricing_plan_id":"cebpf4jnsgd1na2vs0mg"},{"bike_id":"e259aeb0-f40c-4b0c-895a-16a38d39f8f5","system_id":"levelo_inurba_marseille","lat":43.31497,"lon":5.37305,"is_reserved":false,"is_disabled":false,"rental_uris":{"android":"levelo://app?vid=e259aeb0-f40c-4b0c-895a-16a38d39f8f5","ios":"levelo://app?vid=e259aeb0-f40c-4b0c-895a-16a38d39f8f5"},"vehicle_type_id":"4","last_reported":1735297624,"current_range_meters":38800,"station_id":"ce4bgt12rcd13ifvqcd0","pricing_plan_id":"cebpf4jnsgd1na2vs0mg"},{"bike_id":"a1c9af49-1121-45a0-9403-8da49a14b00d","system_id":"levelo_inurba_marseille","lat":43.26953,"lon":5.38648,"is_reserved":false,"is_disabled":false,"rental_uris":{"android":"levelo://app?vid=a1c9af49-1121-45a0-9403-8da49a14b00d","ios":"levelo://app?vid=a1c9af49-1121-45a0-9403-8da49a14b00d"},"vehicle_type_id":"4","last_reported":1735297624,"current_range_meters":19600,"station_id":"ce4bhh92rcd13ifvqfh0","pricing_plan_id":"cebpf4jnsgd1na2vs0mg"},{"bike_id":"9b0fa13e-81bb-46c0-bc55-11d4e3273205","system_id":"levelo_inurba_marseille","lat":43.30192,"lon":5.36642,"is_reserved":false,"is_disabled":false,"rental_uris":{"android":"levelo://app?vid=9b0fa13e-81bb-46c0-bc55-11d4e3273205","ios":"levelo://app?vid=9b0fa13e-81bb-46c0-bc55-11d4e3273205"},"vehicle_type_id":"4","last_reported":1735297624,"current_range_meters":30400,"station_id":"ce4bgrh2rcd13ifvqc8g","pricing_plan_id":"cebpf4jnsgd1na2vs0mg"},{"bike_id":"674318a0-587e-4d0e-84cb-7dd16631fc90","system_id":"levelo_inurba_marseille","lat":43.33589,"lon":5.41002,"is_reserved":false,"is_disabled":false,"rental_uris":{"android":"levelo://app?vid=674318a0-587e-4d0e-84cb-7dd16631fc90","ios":"levelo://app?vid=674318a0-587e-4d0e-84cb-7dd16631fc90"},"vehicle_type_id":"4","last_reported":1735297624,"current_range_meters":38800,"station_id":"ce4bhqh2rcd13ifvqhmg","pricing_plan_id":"cebpf4jnsgd1na2vs0mg"},{"bike_id":"491a606a-5a0e-411b-9789-9c74b8b5e4f2","system_id":"levelo_inurba_marseille","lat":43.25792,"lon":5.39494,"is_reserved":false,"is_disabled":false,"rental_uris":{"android":"levelo://app?vid=491a606a-5a0e-411b-9789-9c74b8b5e4f2","ios":"levelo://app?vid=491a606a-5a0e-411b-9789-9c74b8b5e4f2"},"vehicle_type_id":"4","last_reported":1735297624,"current_range_meters":38800,"station_id":"ce4bhip2rcd13ifvqft0","pricing_plan_id":"cebpf4jnsgd1na2vs0mg"},{"bike_id":"dac94ecf-3203-4c89-acc0-21c14e979588","system_id":"levelo_inurba_marseille","lat":43.26723,"lon":5.3826,"is_reserved":false,"is_disabled":false,"rental_uris":{"android":"levelo://app?vid=dac94ecf-3203-4c89-acc0-21c14e979588","ios":"levelo://app?vid=dac94ecf-3203-4c89-acc0-21c14e979588"},"vehicle_type_id":"4","last_reported":1735297624,"current_range_meters":36000,"station_id":"ce4bhg92rcd13ifvqf90","pricing_plan_id":"cebpf4jnsgd1na2vs0mg"},{"bike_id":"f0cafae0-f29d-4301-add9-cbd6aefdfe71","system_id":"levelo_inurba_marseille","lat":43.270686,"lon":5.422723,"is_reserved":false,"is_disabled":false,"rental_uris":{"android":"levelo://app?vid=f0cafae0-f29d-4301-add9-cbd6aefdfe71","ios":"levelo://app?vid=f0cafae0-f29d-4301-add9-cbd6aefdfe71"},"vehicle_type_id":"4","last_reported":1735297624,"current_range_meters":28800,"station_id":"ce4bhk92rcd13ifvqgb0","pricing_plan_id":"cebpf4jnsgd1na2vs0mg"},{"bike_id":"5a712046-e025-4237-871d-a60884accd4d","system_id":"levelo_inurba_marseille","lat":43.29177,"lon":5.37145,"is_reserved":false,"is_disabled":false,"rental_uris":{"android":"levelo://app?vid=5a712046-e025-4237-871d-a60884accd4d","ios":"levelo://app?vid=5a712046-e025-4237-871d-a60884accd4d"},"vehicle_type_id":"4","last_reported":1735297624,"current_range_meters":37600,"station_id":"ce4bha92rcd13ifvqeh0","pricing_plan_id":"cebpf4jnsgd1na2vs0mg"},{"bike_id":"e3565ab5-9054-4923-9acf-e41df02b2449","system_id":"levelo_inurba_marseille","lat":43.27676,"lon":5.38872,"is_reserved":false,"is_disabled":false,"rental_uris":{"android":"levelo://app?vid=e3565ab5-9054-4923-9acf-e41df02b2449","ios":"levelo://app?vid=e3565ab5-9054-4923-9acf-e41df02b2449"},"vehicle_type_id":"4","last_reported":1735297624,"current_range_meters":30400,"station_id":"ce4bhi12rcd13ifvqfo0","pricing_plan_id":"cebpf4jnsgd1na2vs0mg"},{"bike_id":"d02ad9e6-a3e9-4e68-90d4-ff4e1b7f7299","system_id":"levelo_inurba_marseille","lat":43.28676,"lon":5.38677,"is_reserved":false,"is_disabled":false,"rental_uris":{"android":"levelo://app?vid=d02ad9e6-a3e9-4e68-90d4-ff4e1b7f7299","ios":"levelo://app?vid=d02ad9e6-a3e9-4e68-90d4-ff4e1b7f7299"},"vehicle_type_id":"4","last_reported":1735297624,"current_range_meters":38800,"station_id":"ce4bh492rcd13ifvqdug","pricing_plan_id":"cebpf4jnsgd1na2vs0mg"},{"bike_id":"7b1c41a3-6a2e-4420-a856-9b0139eb480b","system_id":"levelo_inurba_marseille","lat":43.274976,"lon":5.424477,"is_reserved":false,"is_disabled":false,"rental_uris":{"android":"levelo://app?vid=7b1c41a3-6a2e-4420-a856-9b0139eb480b","ios":"levelo://app?vid=7b1c41a3-6a2e-4420-a856-9b0139eb480b"},"vehicle_type_id":"4","last_reported":1735297624,"current_range_meters":36400,"station_id":"ce4bhn92rcd13ifvqgrg","pricing_plan_id":"cebpf4jnsgd1na2vs0mg"},{"bike_id":"34fb18b4-e37d-4776-bbfa-95ae35b8ed78","system_id":"levelo_inurba_marseille","lat":43.29905,"lon":5.38148,"is_reserved":false,"is_disabled":false,"rental_uris":{"android":"levelo://app?vid=34fb18b4-e37d-4776-bbfa-95ae35b8ed78","ios":"levelo://app?vid=34fb18b4-e37d-4776-bbfa-95ae35b8ed78"},"vehicle_type_id":"4","last_reported":1735297624,"current_range_meters":38800,"station_id":"ce4bgj12rcd13ifvqbc0","pricing_plan_id":"cebpf4jnsgd1na2vs0mg"},{"bike_id":"265a8910-9455-44ba-80b1-122e1f5a8614","system_id":"levelo_inurba_marseille","lat":43.29251,"lon":5.38436,"is_reserved":false,"is_disabled":false,"rental_uris":{"android":"levelo://app?vid=265a8910-9455-44ba-80b1-122e1f5a8614","ios":"levelo://app?vid=265a8910-9455-44ba-80b1-122e1f5a8614"},"vehicle_type_id":"4","last_reported":1735297624,"current_range_meters":38400,"station_id":"ce4bh692rcd13ifvqea0","pricing_plan_id":"cebpf4jnsgd1na2vs0mg"},{"bike_id":"3e824429-d363-468e-a0bb-1956f6ab3cec","system_id":"levelo_inurba_marseille","lat":43.28342,"lon":5.381,"is_reserved":false,"is_disabled":false,"rental_uris":{"android":"levelo://app?vid=3e824429-d363-468e-a0bb-1956f6ab3cec","ios":"levelo://app?vid=3e824429-d363-468e-a0bb-1956f6ab3cec"},"vehicle_type_id":"4","last_reported":1735297624,"current_range_meters":35200,"station_id":"ce4bh412rcd13ifvqdr0","pricing_plan_id":"cebpf4jnsgd1na2vs0mg"},{"bike_id":"f6131893-62cf-472d-a50f-5b0b2098a5d5","system_id":"levelo_inurba_marseille","lat":43.26956,"lon":5.38619,"is_reserved":false,"is_disabled":true,"rental_uris":{"android":"levelo://app?vid=f6131893-62cf-472d-a50f-5b0b2098a5d5","ios":"levelo://app?vid=f6131893-62cf-472d-a50f-5b0b2098a5d5"},"vehicle_type_id":"4","last_reported":1735297624,"current_range_meters":2000,"station_id":"ce4bhh92rcd13ifvqfh0","pricing_plan_id":"cebpf4jnsgd1na2vs0mg"},{"bike_id":"a7a82879-baff-4864-83b0-4e29b2c8d8e3","system_id":"levelo_inurba_marseille","lat":43.29569,"lon":5.37513,"is_reserved":false,"is_disabled":false,"rental_uris":{"android":"levelo://app?vid=a7a82879-baff-4864-83b0-4e29b2c8d8e3","ios":"levelo://app?vid=a7a82879-baff-4864-83b0-4e29b2c8d8e3"},"vehicle_type_id":"4","last_reported":1735297624,"current_range_meters":30400,"station_id":"ce4bgh92rcd13ifvqb50","pricing_plan_id":"cebpf4jnsgd1na2vs0mg"},{"bike_id":"fe022e2d-4902-4894-a3d3-85656e2872a5","system_id":"levelo_inurba_marseille","lat":43.30207,"lon":5.39496,"is_reserved":false,"is_disabled":false,"rental_uris":{"android":"levelo://app?vid=fe022e2d-4902-4894-a3d3-85656e2872a5","ios":"levelo://app?vid=fe022e2d-4902-4894-a3d3-85656e2872a5"},"vehicle_type_id":"4","last_reported":1735297624,"current_range_meters":38800,"station_id":"ce4bh0p2rcd13ifvqd70","pricing_plan_id":"cebpf4jnsgd1na2vs0mg"},{"bike_id":"a1084e6c-98aa-4df7-8659-c0605e142551","system_id":"levelo_inurba_marseille","lat":43.29098,"lon":5.38123,"is_reserved":false,"is_disabled":false,"rental_uris":{"android":"levelo://app?vid=a1084e6c-98aa-4df7-8659-c0605e142551","ios":"levelo://app?vid=a1084e6c-98aa-4df7-8659-c0605e142551"},"vehicle_type_id":"4","last_reported":1735297624,"current_range_meters":16800,"station_id":"ce4bh512rcd13ifvqe2g","pricing_plan_id":"cebpf4jnsgd1na2vs0mg"},{"bike_id":"f7992848-1c89-4d78-a27e-0997f9acca9c","system_id":"levelo_inurba_marseille","lat":43.29351,"lon":5.37828,"is_reserved":false,"is_disabled":false,"rental_uris":{"android":"levelo://app?vid=f7992848-1c89-4d78-a27e-0997f9acca9c","ios":"levelo://app?vid=f7992848-1c89-4d78-a27e-0997f9acca9c"},"vehicle_type_id":"4","last_reported":1735297624,"current_range_meters":38800,"station_id":"ce4bgjh2rcd13ifvqbf0","pricing_plan_id":"cebpf4jnsgd1na2vs0mg"},{"bike_id":"ffa48284-ca2a-4cad-8637-6e4fb978b433","system_id":"levelo_inurba_marseille","lat":43.27178,"lon":5.41,"is_reserved":false,"is_disabled":false,"rental_uris":{"android":"levelo://app?vid=ffa48284-ca2a-4cad-8637-6e4fb978b433","ios":"levelo://app?vid=ffa48284-ca2a-4cad-8637-6e4fb978b433"},"vehicle_type_id":"4","last_reported":1735297624,"current_range_meters":29600,"station_id":"ce4bhl12rcd13ifvqgf0","pricing_plan_id":"cebpf4jnsgd1na2vs0mg"},{"bike_id":"c0c13618-93ce-4b06-bc61-44526b8b1118","system_id":"levelo_inurba_marseille","lat":43.32112,"lon":5.36768,"is_reserved":false,"is_disabled":false,"rental_uris":{"android":"levelo://app?vid=c0c13618-93ce-4b06-bc61-44526b8b1118","ios":"levelo://app?vid=c0c13618-93ce-4b06-bc61-44526b8b1118"},"vehicle_type_id":"4","last_reported":1735297624,"current_range_meters":34000,"station_id":"ce4bhrh2rcd13ifvqhug","pricing_plan_id":"cebpf4jnsgd1na2vs0mg"},{"bike_id":"eb806464-babc-4097-a7c9-3cac761e5bda","system_id":"levelo_inurba_marseille","lat":43.33769,"lon":5.37427,"is_reserved":false,"is_disabled":false,"rental_uris":{"android":"levelo://app?vid=eb806464-babc-4097-a7c9-3cac761e5bda","ios":"levelo://app?vid=eb806464-babc-4097-a7c9-3cac761e5bda"},"vehicle_type_id":"4","last_reported":1735297624,"current_range_meters":38000,"station_id":"","pricing_plan_id":"cebpf4jnsgd1na2vs0mg"},{"bike_id":"d6763751-8aeb-4ad0-82c6-a260450ed1f7","system_id":"levelo_inurba_marseille","lat":43.33779,"lon":5.37439,"is_reserved":false,"is_disabled":false,"rental_uris":{"android":"levelo://app?vid=d6763751-8aeb-4ad0-82c6-a260450ed1f7","ios":"levelo://app?vid=d6763751-8aeb-4ad0-82c6-a260450ed1f7"},"vehicle_type_id":"4","last_reported":1735297624,"current_range_meters":10800,"station_id":"","pricing_plan_id":"cebpf4jnsgd1na2vs0mg"},{"bike_id":"9bc8780f-63f3-44da-bbc0-c6e65b330cae","system_id":"levelo_inurba_marseille","lat":43.29303,"lon":5.3747,"is_reserved":false,"is_disabled":false,"rental_uris":{"android":"levelo://app?vid=9bc8780f-63f3-44da-bbc0-c6e65b330cae","ios":"levelo://app?vid=9bc8780f-63f3-44da-bbc0-c6e65b330cae"},"vehicle_type_id":"4","last_reported":1735297624,"current_range_meters":39200,"station_id":"ce4bgi12rcd13ifvqb70","pricing_plan_id":"cebpf4jnsgd1na2vs0mg"},