{"last_updated":1739805000,"ttl":60,"version":"2.2","data":{"bikes":[{"bike_id":"bbf19798-6c2d-41a1-b272-fdaa442e7ef9","system_id":"levelo_inurba_marseille","lat":43.30544,"lon":5.36719,"is_reserved":false,"is_disabled":false,"rental_uris":{"android":"levelo://app?vid=bbf19798-6c2d-41a1-b272-fdaa442e7ef9","ios":"levelo://app?vid=bbf19798-6c2d-41a1-b272-fdaa442e7ef9"},"vehicle_type_id":"4","last_reported":1739805000,"current_range_meters":2800,"station_id":"ce4bgrp2rcd13ifvqc9g","pricing_plan_id":"cebpf4jnsgd1na2vs0mg"},{"bike_id":"e91ced53-eaa6-4786-86bb-357f6bd1130d","system_id":"levelo_inurba_marseille","lat":43.27675,"lon":5.38924,"is_reserved":false,"is_disabled":false,"rental_uris":{"android":"levelo://app?vid=e91ced53-eaa6-4786-86bb-357f6bd1130d","ios":"levelo://app?vid=e91ced53-eaa6-4786-86bb-357f6bd1130d"},"vehicle_type_id":"4","last_reported":1739805000,"current_range_meters":3200,"station_id":"ce4bhi12rcd13ifvqfo0","pricing_plan_id":"cebpf4jnsgd1na2vs0mg"},{"bike_id":"f35bac2a-08f3-4a43-addb-89655fbdb3d4","system_id":"levelo_inurba_marseille","lat":43.26572,"lon":5.42299,"is_reserved":false,"is_disabled":false,"rental_uris":{"android":"levelo://app?vid=f35bac2a-08f3-4a43-addb-89655fbdb3d4","ios":"levelo://app?vid=f35bac2a-08f3-4a43-addb-89655fbdb3d4"},"vehicle_type_id":"4","last_reported":1739805000,"current_range_meters":3200,"station_id":"","pricing_plan_id":"cebpf4jnsgd1na2vs0mg"},{"bike_id":"18332cc9-0f16-4941-9018-c3813354a900","system_id":"levelo_inurba_marseille","lat":43.27623,"lon":5.39333,"is_reserved":false,"is_disabled":true,"rental_uris":{"android":"levelo://app?vid=18332cc9-0f16-4941-9018-c3813354a900","ios":"levelo://app?vid=18332cc9-0f16-4941-9018-c3813354a900"},"vehicle_type_id":"4","last_reported":1739805000,"current_range_meters":3200,"station_id":"","pricing_plan_id":"cebpf4jnsgd1na2vs0mg"},{"bike_id":"67f482cc-c38f-4135-b373-bcfbd57e3460","system_id":"levelo_inurba_marseille","lat":43.29004,"lon":5.35616,"is_reserved":false,"is_disabled":false,"rental_uris":{"android":"levelo://app?vid=67f482cc-c38f-4135-b373-bcfbd57e3460","ios":"levelo://app?vid=67f482cc-c38f-4135-b373-bcfbd57e3460"},"vehicle_type_id":"4","last_reported":1739805000,"current_range_meters":3600,"station_id":"ce4bhb92rcd13ifvqen0","pricing_plan_id":"cebpf4jnsgd1na2vs0mg"},{"bike_id":"c9a82e99-f288-4e1d-a215-5c7337d32103","system_id":"levelo_inurba_marseille","lat":43.28565,"lon":5.39495,"is_reserved":false,"is_disabled":false,"rental_uris":{"android":"levelo://app?vid=c9a82e99-f288-4e1d-a215-5c7337d32103","ios":"levelo://app?vid=c9a82e99-f288-4e1d-a215-5c7337d32103"},"vehicle_type_id":"4","last_reported":1739805000,"current_range_meters":3600,"station_id":"","pricing_plan_id":"cebpf4jnsgd1na2vs0mg"},{"bike_id":"1f329c24-5ee2-4858-ad42-72e610c91f41","system_id":"levelo_inurba_marseille","lat":43.30558,"lon":5.36554,"is_reserved":false,"is_disabled":false,"rental_uris":{"android":"levelo://app?vid=1f329c24-5ee2-4858-ad42-72e610c91f41","ios":"levelo://app?vid=1f329c24-5ee2-4858-ad42-72e610c91f41"},"vehicle_type_id":"4","last_reported":1739805000,"current_range_meters":3600,"station_id":"ce4bgs12rcd13ifvqcag","pricing_plan_id":"cebpf4jnsgd1na2vs0mg"},{"bike_id":"d39f729d-b78f-4263-b83d-79f0a29954cd","system_id":"levelo_inurba_marseille","lat":43.29581,"lon":5.37501,"is_reserved":false,"is_disabled":false,"rental_uris":{"android":"levelo://app?vid=d39f729d-b78f-4263-b83d-79f0a29954cd","ios":"levelo://app?vid=d39f729d-b78f-4263-b83d-79f0a29954cd"},"vehicle_type_id":"4","last_reported":1739805000,"current_range_meters":3600,"station_id":"ce4bgh92rcd13ifvqb50","pricing_plan_id":"cebpf4jnsgd1na2vs0mg"},{"bike_id":"c30e5f3c-950a-40ac-8e3e-c7a5b9c29868","system_id":"levelo_inurba_marseille","lat":43.29194,"lon":5.35738,"is_reserved":false,"is_disabled":false,"rental_uris":{"android":"levelo://app?vid=c30e5f3c-950a-40ac-8e3e-c7a5b9c29868","ios":"levelo://app?vid=c30e5f3c-950a-40ac-8e3e-c7a5b9c29868"},"vehicle_type_id":"4","last_reported":1739805000,"current_range_meters":4400,"station_id":"ce4bhb92rcd13ifvqen0","pricing_plan_id":"cebpf4jnsgd1na2vs0mg"},{"bike_id":"94e28b34-82bb-47d7-80d5-cdde5b375c53","system_id":"levelo_inurba_marseille","lat":43.29869,"lon":5.39733,"is_reserved":false,"is_disabled":false,"rental_uris":{"android":"levelo://app?vid=94e28b34-82bb-47d7-80d5-cdde5b375c53","ios":"levelo://app?vid=94e28b34-82bb-47d7-80d5-cdde5b375c53"},"vehicle_type_id":"4","last_reported":1739805000,"current_range_meters":2000,"station_id":"ce4bh0h2rcd13ifvqd50","pricing_plan_id":"cebpf4jnsgd1na2vs0mg"},{"bike_id":"4e7beed8-3f51-4c59-a37c-0ac46140a818","system_id":"levelo_inurba_marseille","lat":43.26945,"lon":5.38622,"is_reserved":false,"is_disabled":true,"rental_uris":{"android":"levelo://app?vid=4e7beed8-3f51-4c59-a37c-0ac46140a818","ios":"levelo://app?vid=4e7beed8-3f51-4c59-a37c-0ac46140a818"},"vehicle_type_id":"4","last_reported":1739805000,"current_range_meters":4400,"station_id":"","pricing_plan_id":"cebpf4jnsgd1na2vs0mg"},{"bike_id":"4ea409b4-4ae3-402f-b8b9-a33789343e00","system_id":"levelo_inurba_marseille","lat":43.30091,"lon":5.39082,"is_reserved":false,"is_disabled":false,"rental_uris":{"android":"levelo://app?vid=4ea409b4-4ae3-402f-b8b9-a33789343e00","ios":"levelo://app?vid=4ea409b4-4ae3-402f-b8b9-a33789343e00"},"vehicle_type_id":"4","last_reported":1739805000,"current_range_meters":4800,"station_id":"ce4bh192rcd13ifvqdb0","pricing_plan_id":"cebpf4jnsgd1na2vs0mg"},{"bike_id":"8bfbe051-0a7c-451d-8f56-8d48f21bdc75","system_id":"levelo_inurba_marseille","lat":43.26501,"lon":5.39536,"is_reserved":false,"is_disabled":false,"rental_uris":{"android":"levelo://app?vid=8bfbe051-0a7c-451d-8f56-8d48f21bdc75","ios":"levelo://app?vid=8bfbe051-0a7c-451d-8f56-8d48f21bdc75"},"vehicle_type_id":"4","last_reported":1739805000,"current_range_meters":6400,"station_id":"ce4bhi12rcd13ifvqfq0","pricing_plan_id":"cebpf4jnsgd1na2vs0mg"},{"bike_id":"79a2d9cc-bf81-42a7-acaf-299913382d52","system_id":"levelo_inurba_marseille","lat":43.276637,"lon":5.38889,"is_reserved":false,"is_disabled":false,"rental_uris":{"android":"levelo://app?vid=79a2d9cc-bf81-42a7-acaf-299913382d52","ios":"levelo://app?vid=79a2d9cc-bf81-42a7-acaf-299913382d52"},"vehicle_type_id":"4","last_reported":1739805000,"current_range_meters":5600,"station_id":"ce4bhi12rcd13ifvqfo0","pricing_plan_id":"cebpf4jnsgd1na2vs0mg"},{"bike_id":"e9953400-c434-4e25-b434-23ec119414f2","system_id":"levelo_inurba_marseille","lat":43.29266,"lon":5.40905,"is_reserved":false,"is_disabled":false,"rental_uris":{"android":"levelo://app?vid=e9953400-c434-4e25-b434-23ec119414f2","ios":"levelo://app?vid=e9953400-c434-4e25-b434-23ec119414f2"},"vehicle_type_id":"4","last_reported":1739805000,"current_range_meters":5600,"station_id":"ce4bh192rcd13ifvqdc0","pricing_plan_id":"cebpf4jnsgd1na2vs0mg"},{"bike_id":"d91e5174-ec9b-4eac-ac1c-c13c307c2853","system_id":"levelo_inurba_marseille","lat":43.25008,"lon":5.38925,"is_reserved":false,"is_disabled":false,"rental_uris":{"android":"levelo://app?vid=d91e5174-ec9b-4eac-ac1c-c13c307c2853","ios":"levelo://app?vid=d91e5174-ec9b-4eac-ac1c-c13c307c2853"},"vehicle_type_id":"4","last_reported":1739805000,"current_range_meters":6000,"station_id":"","pricing_plan_id":"cebpf4jnsgd1na2vs0mg"},{"bike_id":"a1f6bcba-9ca9-43cb-bb03-2f8a15299af9","system_id":"levelo_inurba_marseille","lat":43.30555,"lon":5.36437,"is_reserved":false,"is_disabled":false,"rental_uris":{"android":"levelo://app?vid=a1f6bcba-9ca9-43cb-bb03-2f8a15299af9","ios":"levelo://app?vid=a1f6bcba-9ca9-43cb-bb03-2f8a15299af9"},"vehicle_type_id":"4","last_reported":1739805000,"current_range_meters":6000,"station_id":"","pricing_plan_id":"cebpf4jnsgd1na2vs0mg"},{"bike_id":"f3286808-b363-406a-9268-990de55986b6","system_id":"levelo_inurba_marseille","lat":43.25507,"lon":5.37638,"is_reserved":false,"is_disabled":false,"rental_uris":{"android":"levelo://app?vid=f3286808-b363-406a-9268-990de55986b6","ios":"levelo://app?vid=f3286808-b363-406a-9268-990de55986b6"},"vehicle_type_id":"4","last_reported":1739805000,"current_range_meters":6400,"station_id":"ce4bhh12rcd13ifvqff0","pricing_plan_id":"cebpf4jnsgd1na2vs0mg"},{"bike_id":"da270380-851e-4dd0-af60-10720df48498","system_id":"levelo_inurba_marseille","lat":43.23199,"lon":5.35552,"is_reserved":false,"is_disabled":false,"rental_uris":{"android":"levelo://app?vid=da270380-851e-4dd0-af60-10720df48498","ios":"levelo://app?vid=da270380-851e-4dd0-af60-10720df48498"},"vehicle_type_id":"4","last_reported":1739805000,"current_range_meters":6400,"station_id":"ce4bhu92rcd13ifvqi70","pricing_plan_id":"cebpf4jnsgd1na2vs0mg"},{"bike_id":"d44236ba-71a5-47f7-b336-30d61a0779fa","system_id":"levelo_inurba_marseille","lat":43.24178,"lon":5.39728,"is_reserved":false,"is_disabled":false,"rental_uris":{"android":"levelo://app?vid=d44236ba-71a5-47f7-b336-30d61a0779fa","ios":"levelo://app?vid=d44236ba-71a5-47f7-b336-30d61a0779fa"},"vehicle_type_id":"4","last_reported":1739805000,"current_range_meters":6400,"station_id":"ce4bhn12rcd13ifvqgpg","pricing_plan_id":"cebpf4jnsgd1na2vs0mg"},{"bike_id":"6b21d320-52d0-422d-a96b-25dc166ffb72","system_id":"levelo_inurba_marseille","lat":43.30412,"lon":5.41277,"is_reserved":false,"is_disabled":true,"rental_uris":{"android":"levelo://app?vid=6b21d320-52d0-422d-a96b-25dc166ffb72","ios":"levelo://app?vid=6b21d320-52d0-422d-a96b-25dc166ffb72"},"vehicle_type_id":"4","last_reported":1739805000,"current_range_meters":6400,"station_id":"ce4bhop2rcd13ifvqh8g","pricing_plan_id":"cebpf4jnsgd1na2vs0mg"},{"bike_id":"97ab877b-2167-415d-a6f9-4c182be6d239","system_id":"levelo_inurba_marseille","lat":43.29529,"lon":5.39397,"is_reserved":false,"is_disabled":false,"rental_uris":{"android":"levelo://app?vid=97ab877b-2167-415d-a6f9-4c182be6d239","ios":"levelo://app?vid=97ab877b-2167-415d-a6f9-4c182be6d239"},"vehicle_type_id":"4","last_reported":1739805000,"current_range_meters":6400,"station_id":"ce4bh292rcd13ifvqdf0","pricing_plan_id":"cebpf4jnsgd1na2vs0mg"},{"bike_id":"170f02bf-68c1-4701-b399-c4cfea66af2e","system_id":"levelo_inurba_marseille","lat":43.29799,"lon":5.40406,"is_reserved":false,"is_disabled":false,"rental_uris":{"android":"levelo://app?vid=170f02bf-68c1-4701-b399-c4cfea66af2e","ios":"levelo://app?vid=170f02bf-68c1-4701-b399-c4cfea66af2e"},"vehicle_type_id":"4","last_reported":1739805000,"current_range_meters":8400,"station_id":"ce4bh112rcd13ifvqd90","pricing_plan_id":"cebpf4jnsgd1na2vs0mg"},{"bike_id":"da9a19f2-2028-4e60-9cce-7752d60ae428","system_id":"levelo_inurba_marseille","lat":43.28428,"lon":5.34997,"is_reserved":false,"is_disabled":false,"rental_uris":{"android":"levelo://app?vid=da9a19f2-2028-4e60-9cce-7752d60ae428","ios":"levelo://app?vid=da9a19f2-2028-4e60-9cce-7752d60ae428"},"vehicle_type_id":"4","last_reported":1739805000,"current_range_meters":6800,"station_id":"ce4bhbh2rcd13ifvqepg","pricing_plan_id":"cebpf4jnsgd1na2vs0mg"},{"bike_id":"fc3986d6-67ae-49f5-bdf7-5d31665a8f56","system_id":"levelo_inurba_marseille","lat":43.241394,"lon":5.394509,"is_reserved":false,"is_disabled":false,"rental_uris":{"android":"levelo://app?vid=fc3986d6-67ae-49f5-bdf7-5d31665a8f56","ios":"levelo://app?vid=fc3986d6-67ae-49f5-bdf7-5d31665a8f56"},"vehicle_type_id":"4","last_reported":1739805000,"current_range_meters":6800,"station_id":"ce4bhn12rcd13ifvqgqg","pricing_plan_id":"cebpf4jnsgd1na2vs0mg"},{"bike_id":"ce61429a-686f-445d-80d9-4b10876ed4ef","system_id":"levelo_inurba_marseille","lat":43.337444,"lon":5.374475,"is_reserved":false,"is_disabled":true,"rental_uris":{"android":"levelo://app?vid=ce61429a-686f-445d-80d9-4b10876ed4ef","ios":"levelo://app?vid=ce61429a-686f-445d-80d9-4b10876ed4ef"},"vehicle_type_id":"4","last_reported":1739805000,"current_range_meters":6800,"station_id":"","pricing_plan_id":"cebpf4jnsgd1na2vs0mg"},{"bike_id":"1d6f5a5a-bf78-4d12-91e4-6dc8a2b7ed98","system_id":"levelo_inurba_marseille","lat":43.27498,"lon":5.4245,"is_reserved":false,"is_disabled":true,"rental_uris":{"android":"levelo://app?vid=1d6f5a5a-bf78-4d12-91e4-6dc8a2b7ed98","ios":"levelo://app?vid=1d6f5a5a-bf78-4d12-91e4-6dc8a2b7ed98"},"vehicle_type_id":"4","last_reported":1739805000,"current_range_meters":6800,"station_id":"ce4bhn92rcd13ifvqgrg","pricing_plan_id":"cebpf4jnsgd1na2vs0mg"},{"bike_id":"c5017532-df07-42ee-8a62-1f0bb88f0c74","system_id":"levelo_inurba_marseille","lat":43.311748,"lon":5.387181,"is_reserved":false,"is_disabled":false,"rental_uris":{"android":"levelo://app?vid=c5017532-df07-42ee-8a62-1f0bb88f0c74","ios":"levelo://app?vid=c5017532-df07-42ee-8a62-1f0bb88f0c74"},"vehicle_type_id":"4","last_reported":1739805000,"current_range_meters":9600,"station_id":"ce4bh5p2rcd13ifvqe4g","pricing_plan_id":"cebpf4jnsgd1na2vs0mg"},{"bike_id":"6d6c9b63-6893-4c6b-85e2-d0851765e243","system_id":"levelo_inurba_marseille","lat":43.27915,"lon":5.39575,"is_reserved":false,"is_disabled":false,"rental_uris":{"android":"levelo://app?vid=6d6c9b63-6893-4c6b-85e2-d0851765e243","ios":"levelo://app?vid=6d6c9b63-6893-4c6b-85e2-d0851765e243"},"vehicle_type_id":"4","last_reported":1739805000,"current_range_meters":6800,"station_id":"ce4bhf92rcd13ifvqf40","pricing_plan_id":"cebpf4jnsgd1na2vs0mg"},{"bike_id":"b259ec2f-3a85-43df-9379-f97beaa6b6db","system_id":"levelo_inurba_marseille","lat":43.29952,"lon":5.37112,"is_reserved":false,"is_disabled":false,"rental_uris":{"android":"levelo://app?vid=b259ec2f-3a85-43df-9379-f97beaa6b6db","ios":"levelo://app?vid=b259ec2f-3a85-43df-9379-f97beaa6b6db"},"vehicle_type_id":"4","last_reported":1739805000,"current_range_meters":7200,"station_id":"","pricing_plan_id":"cebpf4jnsgd1na2vs0mg"},{"bike_id":"96a96649-77a9-44c4-824f-d3e92f79f91f","system_id":"levelo_inurba_marseille","lat":43.23974,"lon":5.36615,"is_reserved":false,"is_disabled":false,"rental_uris":{"android":"levelo://app?vid=96a96649-77a9-44c4-824f-d3e92f79f91f","ios":"levelo://app?vid=96a96649-77a9-44c4-824f-d3e92f79f91f"},"vehicle_type_id":"4","last_reported":1739805000,"current_range_meters":7200,"station_id":"ce4bhi12rcd13ifvqfp0","pricing_plan_id":"cebpf4jnsgd1na2vs0mg"},{"bike_id":"68c9ec09-efa3-42b7-9d9b-298456b6ded4","system_id":"levelo_inurba_marseille","lat":43.30482,"lon":5.36946,"is_reserved":false,"is_disabled":false,"rental_uris":{"android":"levelo://app?vid=68c9ec09-efa3-42b7-9d9b-298456b6ded4","ios":"levelo://app?vid=68c9ec09-efa3-42b7-9d9b-298456b6ded4"},"vehicle_type_id":"4","last_reported":1739805000,"current_range_meters":7200,"station_id":"","pricing_plan_id":"cebpf4jnsgd1na2vs0mg"},{"bike_id":"c4916927-7d10-4eb6-bf80-df6fa900d439","system_id":"levelo_inurba_marseille","lat":43.2957,"lon":5.42284,"is_reserved":false,"is_disabled":true,"rental_uris":{"android":"levelo://app?vid=c4916927-7d10-4eb6-bf80-df6fa900d439","ios":"levelo://app?vid=c4916927-7d10-4eb6-bf80-df6fa900d439"},"vehicle_type_id":"4","last_reported":1739805000,"current_range_meters":7200,"station_id":"ce4bhph2rcd13ifvqhdg","pricing_plan_id":"cebpf4jnsgd1na2vs0mg"},{"bike_id":"4fd26f7c-956b-44a9-bc6b-ae8308bc433e","system_id":"levelo_inurba_marseille","lat":43.27378,"lon":5.36255,"is_reserved":false,"is_disabled":false,"rental_uris":{"android":"levelo://app?vid=4fd26f7c-956b-44a9-bc6b-ae8308bc433e","ios":"levelo://app?vid=4fd26f7c-956b-44a9-bc6b-ae8308bc433e"},"vehicle_type_id":"4","last_reported":1739805000,"current_range_meters":6800,"station_id":"ce4bhbh2rcd13ifvqeo0","pricing_plan_id":"cebpf4jnsgd1na2vs0mg"},{"bike_id":"67ba421b-92c9-401a-9ab8-8a3bcdce9cfb","system_id":"levelo_inurba_marseille","lat":43.26934,"lon":5.38907,"is_reserved":false,"is_disabled":false,"rental_uris":{"android":"levelo://app?vid=67ba421b-92c9-401a-9ab8-8a3bcdce9cfb","ios":"levelo://app?vid=67ba421b-92c9-401a-9ab8-8a3bcdce9cfb"},"vehicle_type_id":"4","last_reported":1739805000,"current_range_meters":7200,"station_id":"","pricing_plan_id":"cebpf4jnsgd1na2vs0mg"},{"bike_id":"e5440866-f267-4722-b2db-02edde686393","system_id":"levelo_inurba_marseille","lat":43.26782,"lon":5.39419,"is_reserved":false,"is_disabled":false,"rental_uris":{"android":"levelo://app?vid=e5440866-f267-4722-b2db-02edde686393","ios":"levelo://app?vid=e5440866-f267-4722-b2db-02edde686393"},"vehicle_type_id":"4","last_reported":1739805000,"current_range_meters":6800,"station_id":"ce4bhh12rcd13ifvqfg0","pricing_plan_id":"cebpf4jnsgd1na2vs0mg"},{"bike_id":"c6515e44-2d49-4978-9797-a3265055ee4e","system_id":"levelo_inurba_marseille","lat":43.31217,"lon":5.36888,"is_reserved":false,"is_disabled":false,"rental_uris":{"android":"levelo://app?vid=c6515e44-2d49-4978-9797-a3265055ee4e","ios":"levelo://app?vid=c6515e44-2d49-4978-9797-a3265055ee4e"},"vehicle_type_id":"4","last_reported":1739805000,"current_range_meters":7200,"station_id":"ce4bgl92rcd13ifvqbq0","pricing_plan_id":"cebpf4jnsgd1na2vs0mg"},{"bike_id":"33a2f713-59cf-4dee-bd5e-cf5438338de0","system_id":"levelo_inurba_marseille","lat":43.30462,"lon":5.36969,"is_reserved":false,"is_disabled":false,"rental_uris":{"android":"levelo://app?vid=33a2f713-59cf-4dee-bd5e-cf5438338de0","ios":"levelo://app?vid=33a2f713-59cf-4dee-bd5e-cf5438338de0"},"vehicle_type_id":"4","last_reported":1739805000,"current_range_meters":7200,"station_id":"","pricing_plan_id":"cebpf4jnsgd1na2vs0mg"},{"bike_id":"37985d1e-58e4-447a-a26a-66e367254631","system_id":"levelo_inurba_marseille","lat":43.25003,"lon":5.38931,"is_reserved":false,"is_disabled":false,"rental_uris":{"android":"levelo://app?vid=37985d1e-58e4-447a-a26a-66e367254631","ios":"levelo://app?vid=37985d1e-58e4-447a-a26a-66e367254631"},"vehicle_type_id":"4","last_reported":1739805000,"current_range_meters":7200,"station_id":"","pricing_plan_id":"cebpf4jnsgd1na2vs0mg"},{"bike_id":"81cedbb6-46f3-45e8-8f32-22e78033433a","system_id":"levelo_inurba_marseille","lat":43.2755,"lon":5.38415,"is_reserved":false,"is_disabled":false,"rental_uris":{"android":"levelo://app?vid=81cedbb6-46f3-45e8-8f32-22e78033433a","ios":"levelo://app?vid=81cedbb6-46f3-45e8-8f32-22e78033433a"},"vehicle_type_id":"4","last_reported":1739805000,"current_range_meters":8000,"station_id":"ce4bhh92rcd13ifvqfi0","pricing_plan_id":"cebpf4jnsgd1na2vs0mg"},{"bike_id":"86831bd2-2270-4f3e-97fd-89308fd1cf3d","system_id":"levelo_inurba_marseille","lat":43.279745,"lon":5.387472,"is_reserved":false,"is_disabled":false,"rental_uris":{"android":"levelo://app?vid=86831bd2-2270-4f3e-97fd-89308fd1cf3d","ios":"levelo://app?vid=86831bd2-2270-4f3e-97fd-89308fd1cf3d"},"vehicle_type_id":"4","last_reported":1739805000,"current_range_meters":8000,"station_id":"ce4bhh92rcd13ifvqfi0","pricing_plan_id":"cebpf4jnsgd1na2vs0mg"},{"bike_id":"b141a526-1b05-4d9f-8317-0d9dc49d567c","system_id":"levelo_inurba_marseille","lat":43.27949,"lon":5.41042,"is_reserved":false,"is_disabled":false,"rental_uris":{"android":"levelo://app?vid=b141a526-1b05-4d9f-8317-0d9dc49d567c","ios":"levelo://app?vid=b141a526-1b05-4d9f-8317-0d9dc49d567c"},"vehicle_type_id":"4","last_reported":1739805000,"current_range_meters":8000,"station_id":"ce4bhnp2rcd13ifvqh0g","pricing_plan_id":"cebpf4jnsgd1na2vs0mg"},{"bike_id":"d1457ea4-4541-49bf-b450-726a54401c22","system_id":"levelo_inurba_marseille","lat":43.30604,"lon":5.37238,"is_reserved":false,"is_disabled":false,"rental_uris":{"android":"levelo://app?vid=d1457ea4-4541-49bf-b450-726a54401c22","ios":"levelo://app?vid=d1457ea4-4541-49bf-b450-726a54401c22"},"vehicle_type_id":"4","last_reported":1739805000,"current_range_meters":12400,"station_id":"ce4bgqh2rcd13ifvqc4g","pricing_plan_id":"cebpf4jnsgd1na2vs0mg"},{"bike_id":"4089f1a0-cd12-42d3-a6c3-01d445970a86","system_id":"levelo_inurba_marseille","lat":43.31252,"lon":5.37411,"is_reserved":false,"is_disabled":false,"rental_uris":{"android":"levelo://app?vid=4089f1a0-cd12-42d3-a6c3-01d445970a86","ios":"levelo://app?vid=4089f1a0-cd12-42d3-a6c3-01d445970a86"},"vehicle_type_id":"4","last_reported":1739805000,"current_range_meters":8000,"station_id":"","pricing_plan_id":"cebpf4jnsgd1na2vs0mg"},{"bike_id":"30fe6385-92b9-4b96-9ceb-8a7e55699a18","system_id":"levelo_inurba_marseille","lat":43.29009,"lon":5.35611,"is_reserved":false,"is_disabled":false,"rental_uris":{"android":"levelo://app?vid=30fe6385-92b9-4b96-9ceb-8a7e55699a18","ios":"levelo://app?vid=30fe6385-92b9-4b96-9ceb-8a7e55699a18"},"vehicle_type_id":"4","last_reported":1739805000,"current_range_meters":8000,"station_id":"ce4bhb92rcd13ifvqen0","pricing_plan_id":"cebpf4jnsgd1na2vs0mg"},{"bike_id":"3a9a968d-dcc9-4ffb-90af-aadcb8469a1d","system_id":"levelo_inurba_marseille","lat":43.32251,"lon":5.39401,"is_reserved":false,"is_disabled":false,"rental_uris":{"android":"levelo://app?vid=3a9a968d-dcc9-4ffb-90af-aadcb8469a1d","ios":"levelo://app?vid=3a9a968d-dcc9-4ffb-90af-aadcb8469a1d"},"vehicle_type_id":"4","last_reported":1739805000,"current_range_meters":8000,"station_id":"","pricing_plan_id":"cebpf4jnsgd1na2vs0mg"},{"bike_id":"2b51147d-1f92-480b-a06a-e9b8532cd66d","system_id":"levelo_inurba_marseille","lat":43.27979,"lon":5.4165,"is_reserved":false,"is_disabled":false,"rental_uris":{"android":"levelo://app?vid=2b51147d-1f92-480b-a06a-e9b8532cd66d","ios":"levelo://app?vid=2b51147d-1f92-480b-a06a-e9b8532cd66d"},"vehicle_type_id":"4","last_reported":1739805000,"current_range_meters":8000,"station_id":"ce4bho12rcd13ifvqh1g","pricing_plan_id":"cebpf4jnsgd1na2vs0mg"},{"bike_id":"218ced2f-cb61-421e-948a-153a14d984bb","system_id":"levelo_inurba_marseille","lat":43.25501,"lon":5.37651,"is_reserved":false,"is_disabled":false,"rental_uris":{"android":"levelo://app?vid=218ced2f-cb61-421e-948a-153a14d984bb","ios":"levelo://app?vid=218ced2f-cb61-421e-948a-153a14d984bb"},"vehicle_type_id":"4","last_reported":1739805000,"current_range_meters":8000,"station_id":"","pricing_plan_id":"cebpf4jnsgd1na2vs0mg"},{"bike_id":"2420c121-c082-41fe-9256-9209689167cc","system_id":"levelo_inurba_marseille","lat":43.2508,"lon":5.39509,"is_reserved":false,"is_disabled":false,"rental_uris":{"android":"levelo://app?vid=2420c121-c082-41fe-9256-9209689167cc","ios":"levelo://app?vid=2420c121-c082-41fe-9256-9209689167cc"},"vehicle_type_id":"4","last_reported":1739805000,"current_range_meters":8400,"station_id":"ce4bhm12rcd13ifvqgkg","pricing_plan_id":"cebpf4jnsgd1na2vs0mg"},{"bike_id":"322c263a-44b1-4bf2-9cc3-aefbed45747a","system_id":"levelo_inurba_marseille","lat":43.27812,"lon":5.40709,"is_reserved":false,"is_disabled":false,"rental_uris":{"android":"levelo://app?vid=322c263a-44b1-4bf2-9cc3-aefbed45747a","ios":"levelo://app?vid=322c263a-44b1-4bf2-9cc3-aefbed45747a"},"vehicle_type_id":"4","last_reported":1739805000,"current_range_meters":8000,"station_id":"ce4bhnh2rcd13ifvqgtg","pricing_plan_id":"cebpf4jnsgd1na2vs0mg"},{"bike_id":"9f72b035-42cd-4ed2-9def-93c83a040988","system_id":"levelo_inurba_marseille","lat":43.2406,"lon":5.37733,"is_reserved":false,"is_disabled":false,"rental_uris":{"android":"levelo://app?vid=9f72b035-42cd-4ed2-9def-93c83a040988","ios":"levelo://app?vid=9f72b035-42cd-4ed2-9def-93c83a040988"},"vehicle_type_id":"4","last_reported":1739805000,"current_range_meters":8400,"station_id":"ce4bhnp2rcd13ifvqgvg","pricing_plan_id":"cebpf4jnsgd1na2vs0mg"},{"bike_id":"2b278cf2-594f-4230-8154-882e1df047f2","system_id":"levelo_inurba_marseille","lat":43.24095,"lon":5.37748,"is_reserved":false,"is_disabled":false,"rental_uris":{"android":"levelo://app?vid=2b278cf2-594f-4230-8154-882e1df047f2","ios":"levelo://app?vid=2b278cf2-594f-4230-8154-882e1df047f2"},"vehicle_type_id":"4","last_reported":1739805000,"current_range_meters":8400,"station_id":"ce4bhnp2rcd13ifvqgvg","pricing_plan_id":"cebpf4jnsgd1na2vs0mg"},{"bike_id":"5d0532ad-5705-4146-8853-eb6d1d5664b6","system_id":"levelo_inurba_marseille","lat":43.2963,"lon":5.37707,"is_reserved":false,"is_disabled":false,"rental_uris":{"android":"levelo://app?vid=5d0532ad-5705-4146-8853-eb6d1d5664b6","ios":"levelo://app?vid=5d0532ad-5705-4146-8853-eb6d1d5664b6"},"vehicle_type_id":"4","last_reported":1739805000,"current_range_meters":8400,"station_id":"","pricing_plan_id":"cebpf4jnsgd1na2vs0mg"},{"bike_id":"1028d825-a809-400b-a433-b2f52b266986","system_id":"levelo_inurba_marseille","lat":43.30945,"lon":5.37922,"is_reserved":false,"is_disabled":false,"rental_uris":{"android":"levelo://app?vid=1028d825-a809-400b-a433-b2f52b266986","ios":"levelo://app?vid=1028d825-a809-400b-a433-b2f52b266986"},"vehicle_type_id":"4","last_reported":1739805000,"current_range_meters":8400,"station_id":"","pricing_plan_id":"cebpf4jnsgd1na2vs0mg"},{"bike_id":"61d21a7f-e930-499d-84bd-f3a8dea6e79b","system_id":"levelo_inurba_marseille","lat":43.24641,"lon":5.38893,"is_reserved":false,"is_disabled":false,"rental_uris":{"android":"levelo://app?vid=61d21a7f-e930-499d-84bd-f3a8dea6e79b","ios":"levelo://app?vid=61d21a7f-e930-499d-84bd-f3a8dea6e79b"},"vehicle_type_id":"4","last_reported":1739805000,"current_range_meters":9200,"station_id":"ce4bhg12rcd13ifvqf60","pricing_plan_id":"cebpf4jnsgd1na2vs0mg"},{"bike_id":"b115a835-c787-4fcc-b326-b12188daa9f9","system_id":"levelo_inurba_marseille","lat":43.3013,"lon":5.3878,"is_reserved":false,"is_disabled":false,"rental_uris":{"android":"levelo://app?vid=b115a835-c787-4fcc-b326-b12188daa9f9","ios":"levelo://app?vid=b115a835-c787-4fcc-b326-b12188daa9f9"},"vehicle_type_id":"4","last_reported":1739805000,"current_range_meters":10800,"station_id":"ce4bghh2rcd13ifvqb60","pricing_plan_id":"cebpf4jnsgd1na2vs0mg"},{"bike_id":"ce7eb203-df1a-4323-a126-50fb5e9416e8","system_id":"levelo_inurba_marseille","lat":43.25001,"lon":5.38931,"is_reserved":false,"is_disabled":false,"rental_uris":{"android":"levelo://app?vid=ce7eb203-df1a-4323-a126-50fb5e9416e8","ios":"levelo://app?vid=ce7eb203-df1a-4323-a126-50fb5e9416e8"},"vehicle_type_id":"4","last_reported":1739805000,"current_range_meters":9200,"station_id":"ce4bhgp2rcd13ifvqfd0","pricing_plan_id":"cebpf4jnsgd1na2vs0mg"},{"bike_id":"2669d102-5c5c-45b8-9146-4e5fd18dedc2","system_id":"levelo_inurba_marseille","lat":43.28273,"lon":5.35067,"is_reserved":false,"is_disabled":false,"rental_uris":{"android":"levelo://app?vid=2669d102-5c5c-45b8-9146-4e5fd18dedc2","ios":"levelo://app?vid=2669d102-5c5c-45b8-9146-4e5fd18dedc2"},"vehicle_type_id":"4","last_reported":1739805000,"current_range_meters":9200,"station_id":"","pricing_plan_id":"cebpf4jnsgd1na2vs0mg"},{"bike_id":"2af45b9a-8c0d-4f01-a654-0c80764127bf","system_id":"levelo_inurba_marseille","lat":43.2873,"lon":5.36095,"is_reserved":false,"is_disabled":true,"rental_uris":{"android":"levelo://app?vid=2af45b9a-8c0d-4f01-a654-0c80764127bf","ios":"levelo://app?vid=2af45b9a-8c0d-4f01-a654-0c80764127bf"},"vehicle_type_id":"4","last_reported":1739805000,"current_range_meters":9200,"station_id":"cki0cbj6b192h4jlfktg","pricing_plan_id":"cebpf4jnsgd1na2vs0mg"},{"bike_id":"65a36bf8-d927-443e-bdd7-b23e6c691214","system_id":"levelo_inurba_marseille","lat":43.24174,"lon":5.39729,"is_reserved":false,"is_disabled":false,"rental_uris":{"android":"levelo://app?vid=65a36bf8-d927-443e-bdd7-b23e6c691214","ios":"levelo://app?vid=65a36bf8-d927-443e-bdd7-b23e6c691214"},"vehicle_type_id":"4","last_reported":1739805000,"current_range_meters":9200,"station_id":"ce4bhn12rcd13ifvqgpg","pricing_plan_id":"cebpf4jnsgd1na2vs0mg"},{"bike_id":"33b2f53e-b70b-4755-a9bd-161272f15b89","system_id":"levelo_inurba_marseille","lat":43.29645,"lon":5.3802,"is_reserved":false,"is_disabled":false,"rental_uris":{"android":"levelo://app?vid=33b2f53e-b70b-4755-a9bd-161272f15b89","ios":"levelo://app?vid=33b2f53e-b70b-4755-a9bd-161272f15b89"},"vehicle_type_id":"4","last_reported":1739805000,"current_range_meters":9200,"station_id":"","pricing_plan_id":"cebpf4jnsgd1na2vs0mg"},{"bike_id":"a1c81209-9637-4c0d-b61c-bb95f8bec12f","system_id":"levelo_inurba_marseille","lat":43.28006,"lon":5.400041,"is_reserved":false,"is_disabled":false,"rental_uris":{"android":"levelo://app?vid=a1c81209-9637-4c0d-b61c-bb95f8bec12f","ios":"levelo://app?vid=a1c81209-9637-4c0d-b61c-bb95f8bec12f"},"vehicle_type_id":"4","last_reported":1739805000,"current_range_meters":9200,"station_id":"ce4bho92rcd13ifvqh4g","pricing_plan_id":"cebpf4jnsgd1na2vs0mg"},{"bike_id":"c6c2e687-1ac8-4bf4-8e18-99f2cabee6c3","system_id":"levelo_inurba_marseille","lat":43.316879,"lon":5.404765,"is_reserved":false,"is_disabled":false,"rental_uris":{"android":"levelo://app?vid=c6c2e687-1ac8-4bf4-8e18-99f2cabee6c3","ios":"levelo://app?vid=c6c2e687-1ac8-4bf4-8e18-99f2cabee6c3"},"vehicle_type_id":"4","last_reported":1739805000,"current_range_meters":9600,"station_id":"ce4bh692rcd13ifvqea0","pricing_plan_id":"cebpf4jnsgd1na2vs0mg"},{"bike_id":"cab1853e-a9d6-4f5a-be2a-4ecd02828cca","system_id":"levelo_inurba_marseille","lat":43.26485,"lon":5.39544,"is_reserved":false,"is_disabled":false,"rental_uris":{"android":"levelo://app?vid=cab1853e-a9d6-4f5a-be2a-4ecd02828cca","ios":"levelo://app?vid=cab1853e-a9d6-4f5a-be2a-4ecd02828cca"},"vehicle_type_id":"4","last_reported":1739805000,"current_range_meters":8400,"station_id":"ce4bhi12rcd13ifvqfq0","pricing_plan_id":"cebpf4jnsgd1na2vs0mg"},{"bike_id":"93cfa947-fe17-4dab-ad2d-b62d32402ea7","system_id":"levelo_inurba_marseille","lat":43.26689,"lon":5.38267,"is_reserved":false,"is_disabled":false,"rental_uris":{"android":"levelo://app?vid=93cfa947-fe17-4dab-ad2d-b62d32402ea7","ios":"levelo://app?vid=93cfa947-fe17-4dab-ad2d-b62d32402ea7"},"vehicle_type_id":"4","last_reported":1739805000,"current_range_meters":9600,"station_id":"ce4bhg92rcd13ifvqf90","pricing_plan_id":"cebpf4jnsgd1na2vs0mg"},{"bike_id":"da8cb9a4-251c-40b4-944d-e956a294e291","system_id":"levelo_inurba_marseille","lat":43.28464,"lon":5.38411,"is_reserved":false,"is_disabled":false,"rental_uris":{"android":"levelo://app?vid=da8cb9a4-251c-40b4-944d-e956a294e291","ios":"levelo://app?vid=da8cb9a4-251c-40b4-944d-e956a294e291"},"vehicle_type_id":"4","last_reported":1739805000,"current_range_meters":9600,"station_id":"ce4bh512rcd13ifvqe3g","pricing_plan_id":"cebpf4jnsgd1na2vs0mg"},{"bike_id":"71af5cb3-17fa-4fc8-a8ea-f2c475db18c6","system_id":"levelo_inurba_marseille","lat":43.29964,"lon":5.36497,"is_reserved":false,"is_disabled":false,"rental_uris":{"android":"levelo://app?vid=71af5cb3-17fa-4fc8-a8ea-f2c475db18c6","ios":"levelo://app?vid=71af5cb3-17fa-4fc8-a8ea-f2c475db18c6"},"vehicle_type_id":"4","last_reported":1739805000,"current_range_meters":9600,"station_id":"ce4bgm92rcd13ifvqbr0","pricing_plan_id":"cebpf4jnsgd1na2vs0mg"},{"bike_id":"8a49e737-2dba-437e-b0e4-c61d64b4fa11","system_id":"levelo_inurba_marseille","lat":43.24541,"lon":5.39527,"is_reserved":false,"is_disabled":false,"rental_uris":{"android":"levelo://app?vid=8a49e737-2dba-437e-b0e4-c61d64b4fa11","ios":"levelo://app?vid=8a49e737-2dba-437e-b0e4-c61d64b4fa11"},"vehicle_type_id":"4","last_reported":1739805000,"current_range_meters":9600,"station_id":"ce4bhlp2rcd13ifvqgjg","pricing_plan_id":"cebpf4jnsgd1na2vs0mg"},{"bike_id":"09d8e7e3-4c41-44b3-abcb-31b4b4a1dfae","system_id":"levelo_inurba_marseille","lat":43.25006,"lon":5.38925,"is_reserved":false,"is_disabled":false,"rental_uris":{"android":"levelo://app?vid=09d8e7e3-4c41-44b3-abcb-31b4b4a1dfae","ios":"levelo://app?vid=09d8e7e3-4c41-44b3-abcb-31b4b4a1dfae"},"vehicle_type_id":"4","last_reported":1739805000,"current_range_meters":9600,"station_id":"ce4bhgp2rcd13ifvqfd0","pricing_plan_id":"cebpf4jnsgd1na2vs0mg"},{"bike_id":"1569220e-c212-41a2-ae7c-e52c36c275aa","system_id":"levelo_inurba_marseille","lat":43.27984,"lon":5.41661,"is_reserved":false,"is_disabled":false,"rental_uris":{"android":"levelo://app?vid=1569220e-c212-41a2-ae7c-e52c36c275aa","ios":"levelo://app?vid=1569220e-c212-41a2-ae7c-e52c36c275aa"},"vehicle_type_id":"4","last_reported":1739805000,"current_range_meters":9600,"station_id":"","pricing_plan_id":"cebpf4jnsgd1na2vs0mg"},{"bike_id":"bfd19dd7-ecfe-4092-abe3-ded319645d37","system_id":"levelo_inurba_marseille","lat":43.32047,"lon":5.41548,"is_reserved":false,"is_disabled":false,"rental_uris":{"android":"levelo://app?vid=bfd19dd7-ecfe-4092-abe3-ded319645d37","ios":"levelo://app?vid=bfd19dd7-ecfe-4092-abe3-ded319645d37"},"vehicle_type_id":"4","last_reported":1739805000,"current_range_meters":9600,"station_id":"ce4bhq92rcd13ifvqhkg","pricing_plan_id":"cebpf4jnsgd1na2vs0mg"},{"bike_id":"506e9171-84b0-4415-9193-58b19ec236bb","system_id":"levelo_inurba_marseille","lat":43.28278,"lon":5.35073,"is_reserved":false,"is_disabled":false,"rental_uris":{"android":"levelo://app?vid=506e9171-84b0-4415-9193-58b19ec236bb","ios":"levelo://app?vid=506e9171-84b0-4415-9193-58b19ec236bb"},"vehicle_type_id":"4","last_reported":1739805000,"current_range_meters":9600,"station_id":"ce4bhbp2rcd13ifvqerg","pricing_plan_id":"cebpf4jnsgd1na2vs0mg"},{"bike_id":"9baeed7c-06ba-449d-b99e-68b25416b71e","system_id":"levelo_inurba_marseille","lat":43.25588,"lon":5.38242,"is_reserved":false,"is_disabled":false,"rental_uris":{"android":"levelo://app?vid=9baeed7c-06ba-449d-b99e-68b25416b71e","ios":"levelo://app?vid=9baeed7c-06ba-449d-b99e-68b25416b71e"},"vehicle_type_id":"4","last_reported":1739805000,"current_range_meters":8800,"station_id":"ce4bhih2rcd13ifvqfs0","pricing_plan_id":"cebpf4jnsgd1na2vs0mg"},{"bike_id":"daac048e-560f-4ac4-8253-f428b1e4a640","system_id":"levelo_inurba_marseille","lat":43.24176,"lon":5.39731,"is_reserved":false,"is_disabled":false,"rental_uris":{"android":"levelo://app?vid=daac048e-560f-4ac4-8253-f428b1e4a640","ios":"levelo://app?vid=daac048e-560f-4ac4-8253-f428b1e4a640"},"vehicle_type_id":"4","last_reported":1739805000,"current_range_meters":10000,"station_id":"ce4bhn12rcd13ifvqgpg","pricing_plan_id":"cebpf4jnsgd1na2vs0mg"},{"bike_id":"39c996de-0107-4ed6-aaf2-5d233e8215e5","system_id":"levelo_inurba_marseille","lat":43.25495,"lon":5.37649,"is_reserved":false,"is_disabled":false,"rental_uris":{"android":"levelo://app?vid=39c996de-0107-4ed6-aaf2-5d233e8215e5","ios":"levelo://app?vid=39c996de-0107-4ed6-aaf2-5d233e8215e5"},"vehicle_type_id":"4","last_reported":1739805000,"current_range_meters":12400,"station_id":"ce4bhh12rcd13ifvqff0","pricing_plan_id":"cebpf4jnsgd1na2vs0mg"},{"bike_id":"79f62c9d-1f7b-4919-b99c-b3088be87c66","system_id":"levelo_inurba_marseille","lat":43.24997,"lon":5.3893,"is_reserved":false,"is_disabled":false,"rental_uris":{"android":"levelo://app?vid=79f62c9d-1f7b-4919-b99c-b3088be87c66","ios":"levelo://app?vid=79f62c9d-1f7b-4919-b99c-b3088be87c66"},"vehicle_type_id":"4","last_reported":1739805000,"current_range_meters":10000,"station_id":"ce4bhgp2rcd13ifvqfd0","pricing_plan_id":"cebpf4jnsgd1na2vs0mg"},{"bike_id":"98dafedc-f25b-409d-b3e2-803b47ffb900","system_id":"levelo_inurba_marseille","lat":43.24483,"lon":5.37275,"is_reserved":false,"is_disabled":false,"rental_uris":{"android":"levelo://app?vid=98dafedc-f25b-409d-b3e2-803b47ffb900","ios":"levelo://app?vid=98dafedc-f25b-409d-b3e2-803b47ffb900"},"vehicle_type_id":"4","last_reported":1739805000,"current_range_meters":10000,"station_id":"","pricing_plan_id":"cebpf4jnsgd1na2vs0mg"},{"bike_id":"9a86aff9-d852-4512-b047-433feac4afd8","system_id":"levelo_inurba_marseille","lat":43.31208,"lon":5.3675,"is_reserved":false,"is_disabled":false,"rental_uris":{"android":"levelo://app?vid=9a86aff9-d852-4512-b047-433feac4afd8","ios":"levelo://app?vid=9a86aff9-d852-4512-b047-433feac4afd8"},"vehicle_type_id":"4","last_reported":1739805000,"current_range_meters":10800,"station_id":"","pricing_plan_id":"cebpf4jnsgd1na2vs0mg"},{"bike_id":"c6dd3452-d797-429c-a2aa-f52b2e06fa10","system_id":"levelo_inurba_marseille","lat":43.29004,"lon":5.35616,"is_reserved":false,"is_disabled":false,"rental_uris":{"android":"levelo://app?vid=c6dd3452-d797-429c-a2aa-f52b2e06fa10","ios":"levelo://app?vid=c6dd3452-d797-429c-a2aa-f52b2e06fa10"},"vehicle_type_id":"4","last_reported":1739805000,"current_range_meters":7200,"station_id":"ce4bhb92rcd13ifvqen0","pricing_plan_id":"cebpf4jnsgd1na2vs0mg"},{"bike_id":"90bcfbc8-c0cf-4b23-9905-3ee2269af724","system_id":"levelo_inurba_marseille","lat":43.29968,"lon":5.38121,"is_reserved":false,"is_disabled":false,"rental_uris":{"android":"levelo://app?vid=90bcfbc8-c0cf-4b23-9905-3ee2269af724","ios":"levelo://app?vid=90bcfbc8-c0cf-4b23-9905-3ee2269af724"},"vehicle_type_id":"4","last_reported":1739805000,"current_range_meters":10800,"station_id":"ce4bgj12rcd13ifvqbc0","pricing_plan_id":"cebpf4jnsgd1na2vs0mg"},{"bike_id":"3221aa25-f42a-4199-a871-eccfe5095a66","system_id":"levelo_inurba_marseille","lat":43.32472,"lon":5.36577,"is_reserved":false,"is_disabled":false,"rental_uris":{"android":"levelo://app?vid=3221aa25-f42a-4199-a871-eccfe5095a66","ios":"levelo://app?vid=3221aa25-f42a-4199-a871-eccfe5095a66"},"vehicle_type_id":"4","last_reported":1739805000,"current_range_meters":10800,"station_id":"ce4bhs12rcd13ifvqhvg","pricing_plan_id":"cebpf4jnsgd1na2vs0mg"},{"bike_id":"5ee6a1ba-03c0-4a44-9aa8-e9c6d0c2d63a","system_id":"levelo_inurba_marseille","lat":43.28154,"lon":5.42633,"is_reserved":false,"is_disabled":false,"rental_uris":{"android":"levelo://app?vid=5ee6a1ba-03c0-4a44-9aa8-e9c6d0c2d63a","ios":"levelo://app?vid=5ee6a1ba-03c0-4a44-9aa8-e9c6d0c2d63a"},"vehicle_type_id":"4","last_reported":1739805000,"current_range_meters":10800,"station_id":"ce4bhnh2rcd13ifvqgug","pricing_plan_id":"cebpf4jnsgd1na2vs0mg"},{"bike_id":"eab31898-d3d3-4356-867b-a31aa919e6f7","system_id":"levelo_inurba_marseille","lat":43.27373,"lon":5.36251,"is_reserved":false,"is_disabled":false,"rental_uris":{"android":"levelo://app?vid=eab31898-d3d3-4356-867b-a31aa919e6f7","ios":"levelo://app?vid=eab31898-d3d3-4356-867b-a31aa919e6f7"},"vehicle_type_id":"4","last_reported":1739805000,"current_range_meters":10000,"station_id":"ce4bhbh2rcd13ifvqeo0","pricing_plan_id":"cebpf4jnsgd1na2vs0mg"},{"bike_id":"7c7c0f20-4ebe-4ae9-a466-5bcf5fc08c06","system_id":"levelo_inurba_marseille","lat":43.2919,"lon":5.35728,"is_reserved":false,"is_disabled":true,"rental_uris":{"android":"levelo://app?vid=7c7c0f20-4ebe-4ae9-a466-5bcf5fc08c06","ios":"levelo://app?vid=7c7c0f20-4ebe-4ae9-a466-5bcf5fc08c06"},"vehicle_type_id":"4","last_reported":1739805000,"current_range_meters":11200,"station_id":"","pricing_plan_id":"cebpf4jnsgd1na2vs0mg"},{"bike_id":"bb7d541f-4d60-455c-836d-6340785e4cfb","system_id":"levelo_inurba_marseille","lat":43.29895,"lon":5.43676,"is_reserved":false,"is_disabled":false,"rental_uris":{"android":"levelo://app?vid=bb7d541f-4d60-455c-836d-6340785e4cfb","ios":"levelo://app?vid=bb7d541f-4d60-455c-836d-6340785e4cfb"},"vehicle_type_id":"4","last_reported":1739805000,"current_range_meters":10800,"station_id":"ce4bhpp2rcd13ifvqhfg","pricing_plan_id":"cebpf4jnsgd1na2vs0mg"},{"bike_id":"0195a8d3-c5aa-4101-b5c0-6ee97625ce52","system_id":"levelo_inurba_marseille","lat":43.28251,"lon":5.35063,"is_reserved":false,"is_disabled":false,"rental_uris":{"android":"levelo://app?vid=0195a8d3-c5aa-4101-b5c0-6ee97625ce52","ios":"levelo://app?vid=0195a8d3-c5aa-4101-b5c0-6ee97625ce52"},"vehicle_type_id":"4","last_reported":1739805000,"current_range_meters":11200,"station_id":"","pricing_plan_id":"cebpf4jnsgd1na2vs0mg"},{"bike_id":"d86dfb12-e53b-4663-b0b1-0753b604c6ce","system_id":"levelo_inurba_marseille","lat":43.29264,"lon":5.4013,"is_reserved":false,"is_disabled":true,"rental_uris":{"android":"levelo://app?vid=d86dfb12-e53b-4663-b0b1-0753b604c6ce","ios":"levelo://app?vid=d86dfb12-e53b-4663-b0b1-0753b604c6ce"},"vehicle_type_id":"4","last_reported":1739805000,"current_range_meters":11200,"station_id":"ce4bh312rcd13ifvqdk0","pricing_plan_id":"cebpf4jnsgd1na2vs0mg"},{"bike_id":"357623cd-2b1a-4f89-8928-b43d7b636162","system_id":"levelo_inurba_marseille","lat":43.26569,"lon":5.42301,"is_reserved":false,"is_disabled":false,"rental_uris":{"android":"levelo://app?vid=357623cd-2b1a-4f89-8928-b43d7b636162","ios":"levelo://app?vid=357623cd-2b1a-4f89-8928-b43d7b636162"},"vehicle_type_id":"4","last_reported":1739805000,"current_range_meters":11200,"station_id":"","pricing_plan_id":"cebpf4jnsgd1na2vs0mg"},{"bike_id":"f6765e77-c877-4a50-b1d3-054ccbe3491c","system_id":"levelo_inurba_marseille","lat":43.28275,"lon":5.3507,"is_reserved":false,"is_disabled":false,"rental_uris":{"android":"levelo://app?vid=f6765e77-c877-4a50-b1d3-054ccbe3491c","ios":"levelo://app?vid=f6765e77-c877-4a50-b1d3-054ccbe3491c"},"vehicle_type_id":"4","last_reported":1739805000,"current_range_meters":11600,"station_id":"","pricing_plan_id":"cebpf4jnsgd1na2vs0mg"},{"bike_id":"63213ce8-ab3b-490e-8b8e-c1a55a68b2ca","system_id":"levelo_inurba_marseille","lat":43.2951,"lon":5.38198,"is_reserved":false,"is_disabled":true,"rental_uris":{"android":"levelo://app?vid=63213ce8-ab3b-490e-8b8e-c1a55a68b2ca","ios":"levelo://app?vid=63213ce8-ab3b-490e-8b8e-c1a55a68b2ca"},"vehicle_type_id":"4","last_reported":1739805000,"current_range_meters":11600,"station_id":"","pricing_plan_id":"cebpf4jnsgd1na2vs0mg"},{"bike_id":"5b7eb765-77f3-4758-8219-4f1ff99a8bf0","system_id":"levelo_inurba_marseille","lat":43.309434,"lon":5.396828,"is_reserved":false,"is_disabled":false,"rental_uris":{"android":"levelo://app?vid=5b7eb765-77f3-4758-8219-4f1ff99a8bf0","ios":"levelo://app?vid=5b7eb765-77f3-4758-8219-4f1ff99a8bf0"},"vehicle_type_id":"4","last_reported":1739805000,"current_range_meters":11600,"station_id":"ce4bh012rcd13ifvqcv0","pricing_plan_id":"cebpf4jnsgd1na2vs0mg"},{"bike_id":"2c9700ea-057b-4786-a86f-c93de6d53138","system_id":"levelo_inurba_marseille","lat":43.2713,"lon":5.4044,"is_reserved":false,"is_disabled":false,"rental_uris":{"android":"levelo://app?vid=2c9700ea-057b-4786-a86f-c93de6d53138","ios":"levelo://app?vid=2c9700ea-057b-4786-a86f-c93de6d53138"},"vehicle_type_id":"4","last_reported":1739805000,"current_range_meters":12000,"station_id":"","pricing_plan_id":"cebpf4jnsgd1na2vs0mg"},{"bike_id":"4485b41d-8ad5-481d-8c6e-243d5823c9cc","system_id":"levelo_inurba_marseille","lat":43.25055,"lon":5.3889,"is_reserved":false,"is_disabled":false,"rental_uris":{"android":"levelo://app?vid=4485b41d-8ad5-481d-8c6e-243d5823c9cc","ios":"levelo://app?vid=4485b41d-8ad5-481d-8c6e-243d5823c9cc"},"vehicle_type_id":"4","last_reported":1739805000,"current_range_meters":12000,"station_id":"ce4bhgp2rcd13ifvqfd0","pricing_plan_id":"cebpf4jnsgd1na2vs0mg"},{"bike_id":"cb8372d6-bad2-4555-89ad-5b495afb0b59","system_id":"levelo_inurba_marseille","lat":43.24785,"lon":5.37466,"is_reserved":false,"is_disabled":false,"rental_uris":{"android":"levelo://app?vid=cb8372d6-bad2-4555-89ad-5b495afb0b59","ios":"levelo://app?vid=cb8372d6-bad2-4555-89ad-5b495afb0b59"},"vehicle_type_id":"4","last_reported":1739805000,"current_range_meters":12400,"station_id":"ce4bhgh2rcd13ifvqfb0","pricing_plan_id":"cebpf4jnsgd1na2vs0mg"},{"bike_id":"8f9e8329-57e0-4c28-8199-1caa70c47efc","system_id":"levelo_inurba_marseille","lat":43.28612,"lon":5.37051,"is_reserved":false,"is_disabled":false,"rental_uris":{"android":"levelo://app?vid=8f9e8329-57e0-4c28-8199-1caa70c47efc","ios":"levelo://app?vid=8f9e8329-57e0-4c28-8199-1caa70c47efc"},"vehicle_type_id":"4","last_reported":1739805000,"current_range_meters":12400,"station_id":"ce4bht12rcd13ifvqi60","pricing_plan_id":"cebpf4jnsgd1na2vs0mg"},{"bike_id":"33ff543a-c943-4225-840f-e1f4526dddbc","system_id":"levelo_inurba_marseille","lat":43.29013,"lon":5.35617,"is_reserved":false,"is_disabled":false,"rental_uris":{"android":"levelo://app?vid=33ff543a-c943-4225-840f-e1f4526dddbc","ios":"levelo://app?vid=33ff543a-c943-4225-840f-e1f4526dddbc"},"vehicle_type_id":"4","last_reported":1739805000,"current_range_meters":12400,"station_id":"ce4bhb92rcd13ifvqen0","pricing_plan_id":"cebpf4jnsgd1na2vs0mg"},{"bike_id":"a5abfbd3-4a5c-45f8-b1f3-20c242e4823d","system_id":"levelo_inurba_marseille","lat":43.26206,"lon":5.37931,"is_reserved":false,"is_disabled":false,"rental_uris":{"android":"levelo://app?vid=a5abfbd3-4a5c-45f8-b1f3-20c242e4823d","ios":"levelo://app?vid=a5abfbd3-4a5c-45f8-b1f3-20c242e4823d"},"vehicle_type_id":"4","last_reported":1739805000,"current_range_meters":12400,"station_id":"ce4bhjp2rcd13ifvqg90","pricing_plan_id":"cebpf4jnsgd1na2vs0mg"},{"bike_id":"6528e792-6c2b-41ab-b102-37d30001a0e7","system_id":"levelo_inurba_marseille","lat":43.27222,"lon":5.40056,"is_reserved":false,"is_disabled":false,"rental_uris":{"android":"levelo://app?vid=6528e792-6c2b-41ab-b102-37d30001a0e7","ios":"levelo://app?vid=6528e792-6c2b-41ab-b102-37d30001a0e7"},"vehicle_type_id":"4","last_reported":1739805000,"current_range_meters":12800,"station_id":"","pricing_plan_id":"cebpf4jnsgd1na2vs0mg"},{"bike_id":"ffc78be7-b97d-4365-be41-cd465453512a","system_id":"levelo_inurba_marseille","lat":43.23198,"lon":5.35553,"is_reserved":false,"is_disabled":false,"rental_uris":{"android":"levelo://app?vid=ffc78be7-b97d-4365-be41-cd465453512a","ios":"levelo://app?vid=ffc78be7-b97d-4365-be41-cd465453512a"},"vehicle_type_id":"4","last_reported":1739805000,"current_range_meters":12800,"station_id":"ce4bhu92rcd13ifvqi70","pricing_plan_id":"cebpf4jnsgd1na2vs0mg"},{"bike_id":"b87258ce-6f3a-4a8b-88fa-fc379934b70c","system_id":"levelo_inurba_marseille","lat":43.24179,"lon":5.39715,"is_reserved":false,"is_disabled":false,"rental_uris":{"android":"levelo://app?vid=b87258ce-6f3a-4a8b-88fa-fc379934b70c","ios":"levelo://app?vid=b87258ce-6f3a-4a8b-88fa-fc379934b70c"},"vehicle_type_id":"4","last_reported":1739805000,"current_range_meters":12800,"station_id":"ce4bhn12rcd13ifvqgpg","pricing_plan_id":"cebpf4jnsgd1na2vs0mg"},{"bike_id":"9beb99fa-247c-4be4-994c-ad481a4bc4b6","system_id":"levelo_inurba_marseille","lat":43.23158,"lon":5.43701,"is_reserved":false,"is_disabled":false,"rental_uris":{"android":"levelo://app?vid=9beb99fa-247c-4be4-994c-ad481a4bc4b6","ios":"levelo://app?vid=9beb99fa-247c-4be4-994c-ad481a4bc4b6"},"vehicle_type_id":"4","last_reported":1739805000,"current_range_meters":12800,"station_id":"ce4bhmp2rcd13ifvqgog","pricing_plan_id":"cebpf4jnsgd1na2vs0mg"},{"bike_id":"4e2b468f-8f4a-4d73-8517-62fa28d3fb4c","system_id":"levelo_inurba_marseille","lat":43.24811,"lon":5.37461,"is_reserved":false,"is_disabled":false,"rental_uris":{"android":"levelo://app?vid=4e2b468f-8f4a-4d73-8517-62fa28d3fb4c","ios":"levelo://app?vid=4e2b468f-8f4a-4d73-8517-62fa28d3fb4c"},"vehicle_type_id":"4","last_reported":1739805000,"current_range_meters":13600,"station_id":"ce4bhgh2rcd13ifvqfb0","pricing_plan_id":"cebpf4jnsgd1na2vs0mg"},{"bike_id":"1adc7f0a-bcdb-48ef-96f2-153291d6fd27","system_id":"levelo_inurba_marseille","lat":43.3126,"lon":5.36829,"is_reserved":false,"is_disabled":false,"rental_uris":{"android":"levelo://app?vid=1adc7f0a-bcdb-48ef-96f2-153291d6fd27","ios":"levelo://app?vid=1adc7f0a-bcdb-48ef-96f2-153291d6fd27"},"vehicle_type_id":"4","last_reported":1739805000,"current_range_meters":13600,"station_id":"ce4bgl92rcd13ifvqbq0","pricing_plan_id":"cebpf4jnsgd1na2vs0mg"},{"bike_id":"22578521-0ea7-463a-8019-3c6269779208","system_id":"levelo_inurba_marseille","lat":43.23062,"lon":5.35497,"is_reserved":false,"is_disabled":false,"rental_uris":{"android":"levelo://app?vid=22578521-0ea7-463a-8019-3c6269779208","ios":"levelo://app?vid=22578521-0ea7-463a-8019-3c6269779208"},"vehicle_type_id":"4","last_reported":1739805000,"current_range_meters":13600,"station_id":"cpo3342slgdg3j2ifvpg","pricing_plan_id":"cebpf4jnsgd1na2vs0mg"},{"bike_id":"49cadee9-38b9-48b7-a227-083b366802fc","system_id":"levelo_inurba_marseille","lat":43.24538,"lon":5.39553,"is_reserved":false,"is_disabled":false,"rental_uris":{"android":"levelo://app?vid=49cadee9-38b9-48b7-a227-083b366802fc","ios":"levelo://app?vid=49cadee9-38b9-48b7-a227-083b366802fc"},"vehicle_type_id":"4","last_reported":1739805000,"current_range_meters":13600,"station_id":"ce4bhlp2rcd13ifvqgjg","pricing_plan_id":"cebpf4jnsgd1na2vs0mg"},{"bike_id":"e523d3f5-df12-4340-be5b-39361247e3d7","system_id":"levelo_inurba_marseille","lat":43.24651,"lon":5.38898,"is_reserved":false,"is_disabled":false,"rental_uris":{"android":"levelo://app?vid=e523d3f5-df12-4340-be5b-39361247e3d7","ios":"levelo://app?vid=e523d3f5-df12-4340-be5b-39361247e3d7"},"vehicle_type_id":"4","last_reported":1739805000,"current_range_meters":13600,"station_id":"ce4bhg12rcd13ifvqf60","pricing_plan_id":"cebpf4jnsgd1na2vs0mg"},{"bike_id":"f72de448-effa-4c62-9ec9-8fe76432766c","system_id":"levelo_inurba_marseille","lat":43.29264,"lon":5.37627,"is_reserved":false,"is_disabled":false,"rental_uris":{"android":"levelo://app?vid=f72de448-effa-4c62-9ec9-8fe76432766c","ios":"levelo://app?vid=f72de448-effa-4c62-9ec9-8fe76432766c"},"vehicle_type_id":"4","last_reported":1739805000,"current_range_meters":13600,"station_id":"ce4bgi12rcd13ifvqb80","pricing_plan_id":"cebpf4jnsgd1na2vs0mg"},{"bike_id":"56d2a575-5e68-4a6e-9174-a5853a791fd8","system_id":"levelo_inurba_marseille","lat":43.2407,"lon":5.37765,"is_reserved":false,"is_disabled":false,"rental_uris":{"android":"levelo://app?vid=56d2a575-5e68-4a6e-9174-a5853a791fd8","ios":"levelo://app?vid=56d2a575-5e68-4a6e-9174-a5853a791fd8"},"vehicle_type_id":"4","last_reported":1739805000,"current_range_meters":13600,"station_id":"ce4bhnp2rcd13ifvqgvg","pricing_plan_id":"cebpf4jnsgd1na2vs0mg"},{"bike_id":"ae056c0e-32cf-472c-b798-3bef0868a727","system_id":"levelo_inurba_marseille","lat":43.28418,"lon":5.34995,"is_reserved":false,"is_disabled":false,"rental_uris":{"android":"levelo://app?vid=ae056c0e-32cf-472c-b798-3bef0868a727","ios":"levelo://app?vid=ae056c0e-32cf-472c-b798-3bef0868a727"},"vehicle_type_id":"4","last_reported":1739805000,"current_range_meters":14000,"station_id":"ce4bhbh2rcd13ifvqepg","pricing_plan_id":"cebpf4jnsgd1na2vs0mg"},{"bike_id":"020f9db3-6048-4a83-8c59-4acc533112c8","system_id":"levelo_inurba_marseille","lat":43.28157,"lon":5.42628,"is_reserved":false,"is_disabled":false,"rental_uris":{"android":"levelo://app?vid=020f9db3-6048-4a83-8c59-4acc533112c8","ios":"levelo://app?vid=020f9db3-6048-4a83-8c59-4acc533112c8"},"vehicle_type_id":"4","last_reported":1739805000,"current_range_meters":14400,"station_id":"ce4bhnh2rcd13ifvqgug","pricing_plan_id":"cebpf4jnsgd1na2vs0mg"},{"bike_id":"1bf913bf-cc27-4833-ae9b-fbd75f8cb6a5","system_id":"levelo_inurba_marseille","lat":43.27076,"lon":5.42277,"is_reserved":false,"is_disabled":false,"rental_uris":{"android":"levelo://app?vid=1bf913bf-cc27-4833-ae9b-fbd75f8cb6a5","ios":"levelo://app?vid=1bf913bf-cc27-4833-ae9b-fbd75f8cb6a5"},"vehicle_type_id":"4","last_reported":1739805000,"current_range_meters":12400,"station_id":"ce4bhk92rcd13ifvqgb0","pricing_plan_id":"cebpf4jnsgd1na2vs0mg"},{"bike_id":"2eeb3502-d318-4648-831a-ecee8b4f8fdd","system_id":"levelo_inurba_marseille","lat":43.30964,"lon":5.3906,"is_reserved":false,"is_disabled":false,"rental_uris":{"android":"levelo://app?vid=2eeb3502-d318-4648-831a-ecee8b4f8fdd","ios":"levelo://app?vid=2eeb3502-d318-4648-831a-ecee8b4f8fdd"},"vehicle_type_id":"4","last_reported":1739805000,"current_range_meters":14400,"station_id":"","pricing_plan_id":"cebpf4jnsgd1na2vs0mg"},{"bike_id":"ecaf884f-d796-4f71-8cbf-9a382c36d98b","system_id":"levelo_inurba_marseille","lat":43.29536,"lon":5.38551,"is_reserved":false,"is_disabled":false,"rental_uris":{"android":"levelo://app?vid=ecaf884f-d796-4f71-8cbf-9a382c36d98b","ios":"levelo://app?vid=ecaf884f-d796-4f71-8cbf-9a382c36d98b"},"vehicle_type_id":"4","last_reported":1739805000,"current_range_meters":14400,"station_id":"","pricing_plan_id":"cebpf4jnsgd1na2vs0mg"},{"bike_id":"c5c59f41-6de9-4286-8e47-0b749ef897bc","system_id":"levelo_inurba_marseille","lat":43.2864,"lon":5.35073,"is_reserved":false,"is_disabled":false,"rental_uris":{"android":"levelo://app?vid=c5c59f41-6de9-4286-8e47-0b749ef897bc","ios":"levelo://app?vid=c5c59f41-6de9-4286-8e47-0b749ef897bc"},"vehicle_type_id":"4","last_reported":1739805000,"current_range_meters":14800,"station_id":"ce4bhch2rcd13ifvqeug","pricing_plan_id":"cebpf4jnsgd1na2vs0mg"},{"bike_id":"e8b504c6-00ad-4ad1-8acc-a01efca7e5cd","system_id":"levelo_inurba_marseille","lat":43.2931,"lon":5.37461,"is_reserved":false,"is_disabled":false,"rental_uris":{"android":"levelo://app?vid=e8b504c6-00ad-4ad1-8acc-a01efca7e5cd","ios":"levelo://app?vid=e8b504c6-00ad-4ad1-8acc-a01efca7e5cd"},"vehicle_type_id":"4","last_reported":1739805000,"current_range_meters":10800,"station_id":"ce4bgi12rcd13ifvqb70","pricing_plan_id":"cebpf4jnsgd1na2vs0mg"},{"bike_id":"590841a3-b347-400a-8e94-74b60d81e98c","system_id":"levelo_inurba_marseille","lat":43.29255,"lon":5.40903,"is_reserved":false,"is_disabled":false,"rental_uris":{"android":"levelo://app?vid=590841a3-b347-400a-8e94-74b60d81e98c","ios":"levelo://app?vid=590841a3-b347-400a-8e94-74b60d81e98c"},"vehicle_type_id":"4","last_reported":1739805000,"current_range_meters":14800,"station_id":"ce4bh192rcd13ifvqdc0","pricing_plan_id":"cebpf4jnsgd1na2vs0mg"},{"bike_id":"a4857bb5-4244-44a9-94da-7cc4b011dd75","system_id":"levelo_inurba_marseille","lat":43.30538,"lon":5.36563,"is_reserved":false,"is_disabled":false,"rental_uris":{"android":"levelo://app?vid=a4857bb5-4244-44a9-94da-7cc4b011dd75","ios":"levelo://app?vid=a4857bb5-4244-44a9-94da-7cc4b011dd75"},"vehicle_type_id":"4","last_reported":1739805000,"current_range_meters":14800,"station_id":"ce4bgs12rcd13ifvqcag","pricing_plan_id":"cebpf4jnsgd1na2vs0mg"},{"bike_id":"6ff969d3-b502-4339-b30e-0a0a42dea476","system_id":"levelo_inurba_marseille","lat":43.30925,"lon":5.40143,"is_reserved":false,"is_disabled":false,"rental_uris":{"android":"levelo://app?vid=6ff969d3-b502-4339-b30e-0a0a42dea476","ios":"levelo://app?vid=6ff969d3-b502-4339-b30e-0a0a42dea476"},"vehicle_type_id":"4","last_reported":1739805000,"current_range_meters":13600,"station_id":"ce4bgvp2rcd13ifvqct0","pricing_plan_id":"cebpf4jnsgd1na2vs0mg"},{"bike_id":"ff5a389a-1ce6-415c-a24f-725710205b21","system_id":"levelo_inurba_marseille","lat":43.302616,"lon":5.400657,"is_reserved":false,"is_disabled":false,"rental_uris":{"android":"levelo://app?vid=ff5a389a-1ce6-415c-a24f-725710205b21","ios":"levelo://app?vid=ff5a389a-1ce6-415c-a24f-725710205b21"},"vehicle_type_id":"4","last_reported":1739805000,"current_range_meters":16000,"station_id":"ce4bgvh2rcd13ifvqcs0","pricing_plan_id":"cebpf4jnsgd1na2vs0mg"},{"bike_id":"c300d2f5-35bb-4d22-b445-3c56ab02df6a","system_id":"levelo_inurba_marseille","lat":43.29959,"lon":5.36477,"is_reserved":false,"is_disabled":false,"rental_uris":{"android":"levelo://app?vid=c300d2f5-35bb-4d22-b445-3c56ab02df6a","ios":"levelo://app?vid=c300d2f5-35bb-4d22-b445-3c56ab02df6a"},"vehicle_type_id":"4","last_reported":1739805000,"current_range_meters":15200,"station_id":"ce4bgm92rcd13ifvqbr0","pricing_plan_id":"cebpf4jnsgd1na2vs0mg"},{"bike_id":"d9da9ec9-50c3-42fd-9f4d-8da50caac3d0","system_id":"levelo_inurba_marseille","lat":43.2695,"lon":5.3863,"is_reserved":false,"is_disabled":false,"rental_uris":{"android":"levelo://app?vid=d9da9ec9-50c3-42fd-9f4d-8da50caac3d0","ios":"levelo://app?vid=d9da9ec9-50c3-42fd-9f4d-8da50caac3d0"},"vehicle_type_id":"4","last_reported":1739805000,"current_range_meters":16000,"station_id":"ce4bhh92rcd13ifvqfh0","pricing_plan_id":"cebpf4jnsgd1na2vs0mg"},{"bike_id":"4a42b849-8dce-4679-be4e-fb42f1f7b062","system_id":"levelo_inurba_marseille","lat":43.24167,"lon":5.39738,"is_reserved":false,"is_disabled":false,"rental_uris":{"android":"levelo://app?vid=4a42b849-8dce-4679-be4e-fb42f1f7b062","ios":"levelo://app?vid=4a42b849-8dce-4679-be4e-fb42f1f7b062"},"vehicle_type_id":"4","last_reported":1739805000,"current_range_meters":16000,"station_id":"ce4bhn12rcd13ifvqgpg","pricing_plan_id":"cebpf4jnsgd1na2vs0mg"},{"bike_id":"f2ed1939-a611-4c0c-b834-6691e0118b72","system_id":"levelo_inurba_marseille","lat":43.23196,"lon":5.35555,"is_reserved":false,"is_disabled":false,"rental_uris":{"android":"levelo://app?vid=f2ed1939-a611-4c0c-b834-6691e0118b72","ios":"levelo://app?vid=f2ed1939-a611-4c0c-b834-6691e0118b72"},"vehicle_type_id":"4","last_reported":1739805000,"current_range_meters":16000,"station_id":"ce4bhu92rcd13ifvqi70","pricing_plan_id":"cebpf4jnsgd1na2vs0mg"},{"bike_id":"4767ce61-083b-49b6-b6bd-c77650019e8f","system_id":"levelo_inurba_marseille","lat":43.32093,"lon":5.36764,"is_reserved":false,"is_disabled":false,"rental_uris":{"android":"levelo://app?vid=4767ce61-083b-49b6-b6bd-c77650019e8f","ios":"levelo://app?vid=4767ce61-083b-49b6-b6bd-c77650019e8f"},"vehicle_type_id":"4","last_reported":1739805000,"current_range_meters":16000,"station_id":"","pricing_plan_id":"cebpf4jnsgd1na2vs0mg"},{"bike_id":"58a5c712-9d46-4329-afac-796b4051eca6","system_id":"levelo_inurba_marseille","lat":43.25007,"lon":5.3892,"is_reserved":false,"is_disabled":true,"rental_uris":{"android":"levelo://app?vid=58a5c712-9d46-4329-afac-796b4051eca6","ios":"levelo://app?vid=58a5c712-9d46-4329-afac-796b4051eca6"},"vehicle_type_id":"4","last_reported":1739805000,"current_range_meters":16000,"station_id":"","pricing_plan_id":"cebpf4jnsgd1na2vs0mg"},{"bike_id":"e57f9313-8443-49d5-820a-e3f0c205b6f2","system_id":"levelo_inurba_marseille","lat":43.24075,"lon":5.3776,"is_reserved":false,"is_disabled":false,"rental_uris":{"android":"levelo://app?vid=e57f9313-8443-49d5-820a-e3f0c205b6f2","ios":"levelo://app?vid=e57f9313-8443-49d5-820a-e3f0c205b6f2"},"vehicle_type_id":"4","last_reported":1739805000,"current_range_meters":16000,"station_id":"ce4bhnp2rcd13ifvqgvg","pricing_plan_id":"cebpf4jnsgd1na2vs0mg"},{"bike_id":"9084f880-c05c-41d9-962e-1ab7add2848e","system_id":"levelo_inurba_marseille","lat":43.24107,"lon":5.37765,"is_reserved":false,"is_disabled":false,"rental_uris":{"android":"levelo://app?vid=9084f880-c05c-41d9-962e-1ab7add2848e","ios":"levelo://app?vid=9084f880-c05c-41d9-962e-1ab7add2848e"},"vehicle_type_id":"4","last_reported":1739805000,"current_range_meters":16000,"station_id":"ce4bhnp2rcd13ifvqgvg","pricing_plan_id":"cebpf4jnsgd1na2vs0mg"},{"bike_id":"91bf3218-0a05-4226-acc9-b3131b7d5a8d","system_id":"levelo_inurba_marseille","lat":43.23955,"lon":5.36628,"is_reserved":false,"is_disabled":false,"rental_uris":{"android":"levelo://app?vid=91bf3218-0a05-4226-acc9-b3131b7d5a8d","ios":"levelo://app?vid=91bf3218-0a05-4226-acc9-b3131b7d5a8d"},"vehicle_type_id":"4","last_reported":1739805000,"current_range_meters":16400,"station_id":"ce4bhi12rcd13ifvqfp0","pricing_plan_id":"cebpf4jnsgd1na2vs0mg"},{"bike_id":"085f975e-f80f-40c8-8c97-4c4e0a22eba2","system_id":"levelo_inurba_marseille","lat":43.2396,"lon":5.36642,"is_reserved":false,"is_disabled":false,"rental_uris":{"android":"levelo://app?vid=085f975e-f80f-40c8-8c97-4c4e0a22eba2","ios":"levelo://app?vid=085f975e-f80f-40c8-8c97-4c4e0a22eba2"},"vehicle_type_id":"4","last_reported":1739805000,"current_range_meters":16400,"station_id":"ce4bhi12rcd13ifvqfp0","pricing_plan_id":"cebpf4jnsgd1na2vs0mg"},{"bike_id":"b4f7951e-a8d9-4f42-b03f-b06ba82daa83","system_id":"levelo_inurba_marseille","lat":43.278168,"lon":5.399093,"is_reserved":false,"is_disabled":false,"rental_uris":{"android":"levelo://app?vid=b4f7951e-a8d9-4f42-b03f-b06ba82daa83","ios":"levelo://app?vid=b4f7951e-a8d9-4f42-b03f-b06ba82daa83"},"vehicle_type_id":"4","last_reported":1739805000,"current_range_meters":16400,"station_id":"ce4bhl12rcd13ifvqgf0","pricing_plan_id":"cebpf4jnsgd1na2vs0mg"},{"bike_id":"fb3f77b2-d1f2-48a3-9ff1-4dfb7c62fb50","system_id":"levelo_inurba_marseille","lat":43.28618,"lon":5.3511,"is_reserved":false,"is_disabled":false,"rental_uris":{"android":"levelo://app?vid=fb3f77b2-d1f2-48a3-9ff1-4dfb7c62fb50","ios":"levelo://app?vid=fb3f77b2-d1f2-48a3-9ff1-4dfb7c62fb50"},"vehicle_type_id":"4","last_reported":1739805000,"current_range_meters":16400,"station_id":"","pricing_plan_id":"cebpf4jnsgd1na2vs0mg"},{"bike_id":"d1dec037-ee4c-4db9-a655-1087d8ee1f4f","system_id":"levelo_inurba_marseille","lat":43.28444,"lon":5.39181,"is_reserved":false,"is_disabled":true,"rental_uris":{"android":"levelo://app?vid=d1dec037-ee4c-4db9-a655-1087d8ee1f4f","ios":"levelo://app?vid=d1dec037-ee4c-4db9-a655-1087d8ee1f4f"},"vehicle_type_id":"4","last_reported":1739805000,"current_range_meters":16400,"station_id":"","pricing_plan_id":"cebpf4jnsgd1na2vs0mg"},{"bike_id":"d2ebfaae-2273-42f3-ba56-88f2905b2c63","system_id":"levelo_inurba_marseille","lat":43.29523,"lon":5.38567,"is_reserved":false,"is_disabled":false,"rental_uris":{"android":"levelo://app?vid=d2ebfaae-2273-42f3-ba56-88f2905b2c63","ios":"levelo://app?vid=d2ebfaae-2273-42f3-ba56-88f2905b2c63"},"vehicle_type_id":"4","last_reported":1739805000,"current_range_meters":16400,"station_id":"ce4bgih2rcd13ifvqba0","pricing_plan_id":"cebpf4jnsgd1na2vs0mg"},{"bike_id":"b8094bfc-aee7-472a-9e46-ff22053005be","system_id":"levelo_inurba_marseille","lat":43.29617,"lon":5.3774,"is_reserved":false,"is_disabled":false,"rental_uris":{"android":"levelo://app?vid=b8094bfc-aee7-472a-9e46-ff22053005be","ios":"levelo://app?vid=b8094bfc-aee7-472a-9e46-ff22053005be"},"vehicle_type_id":"4","last_reported":1739805000,"current_range_meters":16800,"station_id":"","pricing_plan_id":"cebpf4jnsgd1na2vs0mg"},{"bike_id":"51e5e272-1390-4266-8747-10ef46d95bd1","system_id":"levelo_inurba_marseille","lat":43.22941,"lon":5.35359,"is_reserved":false,"is_disabled":false,"rental_uris":{"android":"levelo://app?vid=51e5e272-1390-4266-8747-10ef46d95bd1","ios":"levelo://app?vid=51e5e272-1390-4266-8747-10ef46d95bd1"},"vehicle_type_id":"4","last_reported":1739805000,"current_range_meters":16800,"station_id":"cpo3532slgdg3j2ikp40","pricing_plan_id":"cebpf4jnsgd1na2vs0mg"},{"bike_id":"6ab14990-592a-4afe-95ec-6882b880d7c3","system_id":"levelo_inurba_marseille","lat":43.3205,"lon":5.41544,"is_reserved":false,"is_disabled":false,"rental_uris":{"android":"levelo://app?vid=6ab14990-592a-4afe-95ec-6882b880d7c3","ios":"levelo://app?vid=6ab14990-592a-4afe-95ec-6882b880d7c3"},"vehicle_type_id":"4","last_reported":1739805000,"current_range_meters":16800,"station_id":"ce4bhq92rcd13ifvqhkg","pricing_plan_id":"cebpf4jnsgd1na2vs0mg"},{"bike_id":"10e1db95-0db6-4511-ba6a-9432972f158c","system_id":"levelo_inurba_marseille","lat":43.26954,"lon":5.38623,"is_reserved":false,"is_disabled":false,"rental_uris":{"android":"levelo://app?vid=10e1db95-0db6-4511-ba6a-9432972f158c","ios":"levelo://app?vid=10e1db95-0db6-4511-ba6a-9432972f158c"},"vehicle_type_id":"4","last_reported":1739805000,"current_range_meters":16800,"station_id":"ce4bhh92rcd13ifvqfh0","pricing_plan_id":"cebpf4jnsgd1na2vs0mg"},{"bike_id":"2ca81d85-8625-42cf-b788-bb864ac8e610","system_id":"levelo_inurba_marseille","lat":43.23961,"lon":5.36632,"is_reserved":false,"is_disabled":false,"rental_uris":{"android":"levelo://app?vid=2ca81d85-8625-42cf-b788-bb864ac8e610","ios":"levelo://app?vid=2ca81d85-8625-42cf-b788-bb864ac8e610"},"vehicle_type_id":"4","last_reported":1739805000,"current_range_meters":16800,"station_id":"ce4bhi12rcd13ifvqfp0","pricing_plan_id":"cebpf4jnsgd1na2vs0mg"},{"bike_id":"3015a473-0318-4228-8e7d-c5ed894c011b","system_id":"levelo_inurba_marseille","lat":43.25921,"lon":5.40902,"is_reserved":false,"is_disabled":false,"rental_uris":{"android":"levelo://app?vid=3015a473-0318-4228-8e7d-c5ed894c011b","ios":"levelo://app?vid=3015a473-0318-4228-8e7d-c5ed894c011b"},"vehicle_type_id":"4","last_reported":1739805000,"current_range_meters":16800,"station_id":"ce4bhm92rcd13ifvqglg","pricing_plan_id":"cebpf4jnsgd1na2vs0mg"},{"bike_id":"bb4a3648-09cb-4cc2-9947-bf380533d03f","system_id":"levelo_inurba_marseille","lat":43.31674,"lon":5.37241,"is_reserved":false,"is_disabled":true,"rental_uris":{"android":"levelo://app?vid=bb4a3648-09cb-4cc2-9947-bf380533d03f","ios":"levelo://app?vid=bb4a3648-09cb-4cc2-9947-bf380533d03f"},"vehicle_type_id":"4","last_reported":1739805000,"current_range_meters":16800,"station_id":"","pricing_plan_id":"cebpf4jnsgd1na2vs0mg"},{"bike_id":"e493d32f-c7df-48a8-8644-e6c67b333882","system_id":"levelo_inurba_marseille","lat":43.30168,"lon":5.37129,"is_reserved":false,"is_disabled":false,"rental_uris":{"android":"levelo://app?vid=e493d32f-c7df-48a8-8644-e6c67b333882","ios":"levelo://app?vid=e493d32f-c7df-48a8-8644-e6c67b333882"},"vehicle_type_id":"4","last_reported":1739805000,"current_range_meters":16800,"station_id":"","pricing_plan_id":"cebpf4jnsgd1na2vs0mg"},{"bike_id":"b7ea6e7f-4daa-4886-9c63-6c0211897347","system_id":"levelo_inurba_marseille","lat":43.30096,"lon":5.39075,"is_reserved":false,"is_disabled":false,"rental_uris":{"android":"levelo://app?vid=b7ea6e7f-4daa-4886-9c63-6c0211897347","ios":"levelo://app?vid=b7ea6e7f-4daa-4886-9c63-6c0211897347"},"vehicle_type_id":"4","last_reported":1739805000,"current_range_meters":17200,"station_id":"","pricing_plan_id":"cebpf4jnsgd1na2vs0mg"},{"bike_id":"be62080a-2d36-4de1-a85c-22e8abe4dd63","system_id":"levelo_inurba_marseille","lat":43.26229,"lon":5.40444,"is_reserved":false,"is_disabled":false,"rental_uris":{"android":"levelo://app?vid=be62080a-2d36-4de1-a85c-22e8abe4dd63","ios":"levelo://app?vid=be62080a-2d36-4de1-a85c-22e8abe4dd63"},"vehicle_type_id":"4","last_reported":1739805000,"current_range_meters":17200,"station_id":"ce4bhmh2rcd13ifvqgmg","pricing_plan_id":"cebpf4jnsgd1na2vs0mg"},{"bike_id":"55db99fb-3352-4c31-8916-d0fc0c1d92bc","system_id":"levelo_inurba_marseille","lat":43.29606,"lon":5.37739,"is_reserved":false,"is_disabled":false,"rental_uris":{"android":"levelo://app?vid=55db99fb-3352-4c31-8916-d0fc0c1d92bc","ios":"levelo://app?vid=55db99fb-3352-4c31-8916-d0fc0c1d92bc"},"vehicle_type_id":"4","last_reported":1739805000,"current_range_meters":17200,"station_id":"ce4bgi92rcd13ifvqb90","pricing_plan_id":"cebpf4jnsgd1na2vs0mg"},{"bike_id":"cbb1e776-6ac2-4cd0-a8d5-9fc7a9410b19","system_id":"levelo_inurba_marseille","lat":43.26932,"lon":5.38907,"is_reserved":false,"is_disabled":false,"rental_uris":{"android":"levelo://app?vid=cbb1e776-6ac2-4cd0-a8d5-9fc7a9410b19","ios":"levelo://app?vid=cbb1e776-6ac2-4cd0-a8d5-9fc7a9410b19"},"vehicle_type_id":"4","last_reported":1739805000,"current_range_meters":17200,"station_id":"","pricing_plan_id":"cebpf4jnsgd1na2vs0mg"},{"bike_id":"85cf2c59-bbd2-462b-a3ef-f598fb6a1484","system_id":"levelo_inurba_marseille","lat":43.27675,"lon":5.38885,"is_reserved":false,"is_disabled":false,"rental_uris":{"android":"levelo://app?vid=85cf2c59-bbd2-462b-a3ef-f598fb6a1484","ios":"levelo://app?vid=85cf2c59-bbd2-462b-a3ef-f598fb6a1484"},"vehicle_type_id":"4","last_reported":1739805000,"current_range_meters":17200,"station_id":"ce4bhi12rcd13ifvqfo0","pricing_plan_id":"cebpf4jnsgd1na2vs0mg"},{"bike_id":"19054a3c-ce1e-4433-a01e-9572f69a3f4e","system_id":"levelo_inurba_marseille","lat":43.29633,"lon":5.377,"is_reserved":false,"is_disabled":false,"rental_uris":{"android":"levelo://app?vid=19054a3c-ce1e-4433-a01e-9572f69a3f4e","ios":"levelo://app?vid=19054a3c-ce1e-4433-a01e-9572f69a3f4e"},"vehicle_type_id":"4","last_reported":1739805000,"current_range_meters":17200,"station_id":"ce4bgi92rcd13ifvqb90","pricing_plan_id":"cebpf4jnsgd1na2vs0mg"},{"bike_id":"1c4ab1c1-f8e5-4ceb-8507-e3b252ef908b","system_id":"levelo_inurba_marseille","lat":43.24168,"lon":5.36394,"is_reserved":false,"is_disabled":false,"rental_uris":{"android":"levelo://app?vid=1c4ab1c1-f8e5-4ceb-8507-e3b252ef908b","ios":"levelo://app?vid=1c4ab1c1-f8e5-4ceb-8507-e3b252ef908b"},"vehicle_type_id":"4","last_reported":1739805000,"current_range_meters":17200,"station_id":"cpo36qri1sfpv3e86is0","pricing_plan_id":"cebpf4jnsgd1na2vs0mg"},{"bike_id":"7f4269dd-2ac5-4b5a-b384-c1682237db47","system_id":"levelo_inurba_marseille","lat":43.26808,"lon":5.40274,"is_reserved":false,"is_disabled":false,"rental_uris":{"android":"levelo://app?vid=7f4269dd-2ac5-4b5a-b384-c1682237db47","ios":"levelo://app?vid=7f4269dd-2ac5-4b5a-b384-c1682237db47"},"vehicle_type_id":"4","last_reported":1739805000,"current_range_meters":17200,"station_id":"ce501612rcd8frsf0b60","pricing_plan_id":"cebpf4jnsgd1na2vs0mg"},{"bike_id":"916b317d-f0a0-4848-b9c2-8df7ad5de5f1","system_id":"levelo_inurba_marseille","lat":43.25903,"lon":5.4089,"is_reserved":false,"is_disabled":false,"rental_uris":{"android":"levelo://app?vid=916b317d-f0a0-4848-b9c2-8df7ad5de5f1","ios":"levelo://app?vid=916b317d-f0a0-4848-b9c2-8df7ad5de5f1"},"vehicle_type_id":"4","last_reported":1739805000,"current_range_meters":17200,"station_id":"ce4bhm92rcd13ifvqglg","pricing_plan_id":"cebpf4jnsgd1na2vs0mg"},{"bike_id":"e16d0106-0dcd-4e54-b741-94ffb5bcdc07","system_id":"levelo_inurba_marseille","lat":43.28052,"lon":5.3968,"is_reserved":false,"is_disabled":false,"rental_uris":{"android":"levelo://app?vid=e16d0106-0dcd-4e54-b741-94ffb5bcdc07","ios":"levelo://app?vid=e16d0106-0dcd-4e54-b741-94ffb5bcdc07"},"vehicle_type_id":"4","last_reported":1739805000,"current_range_meters":17600,"station_id":"ce4bho12rcd13ifvqh2g","pricing_plan_id":"cebpf4jnsgd1na2vs0mg"},{"bike_id":"cf57d4d7-9e9a-4905-a63b-3c54e131357b","system_id":"levelo_inurba_marseille","lat":43.29628,"lon":5.37154,"is_reserved":false,"is_disabled":false,"rental_uris":{"android":"levelo://app?vid=cf57d4d7-9e9a-4905-a63b-3c54e131357b","ios":"levelo://app?vid=cf57d4d7-9e9a-4905-a63b-3c54e131357b"},"vehicle_type_id":"4","last_reported":1739805000,"current_range_meters":17600,"station_id":"ce4bgnh2rcd13ifvqc0g","pricing_plan_id":"cebpf4jnsgd1na2vs0mg"},{"bike_id":"a9e8daf3-70cf-4ca0-a2bf-a2ff80ebc918","system_id":"levelo_inurba_marseille","lat":43.30455,"lon":5.36952,"is_reserved":false,"is_disabled":false,"rental_uris":{"android":"levelo://app?vid=a9e8daf3-70cf-4ca0-a2bf-a2ff80ebc918","ios":"levelo://app?vid=a9e8daf3-70cf-4ca0-a2bf-a2ff80ebc918"},"vehicle_type_id":"4","last_reported":1739805000,"current_range_meters":17600,"station_id":"","pricing_plan_id":"cebpf4jnsgd1na2vs0mg"},{"bike_id":"cc0820da-8958-41fc-bd33-b7f6bd8eba38","system_id":"levelo_inurba_marseille","lat":43.32791,"lon":5.39186,"is_reserved":false,"is_disabled":false,"rental_uris":{"android":"levelo://app?vid=cc0820da-8958-41fc-bd33-b7f6bd8eba38","ios":"levelo://app?vid=cc0820da-8958-41fc-bd33-b7f6bd8eba38"},"vehicle_type_id":"4","last_reported":1739805000,"current_range_meters":17600,"station_id":"","pricing_plan_id":"cebpf4jnsgd1na2vs0mg"},{"bike_id":"d8e80f4d-8e00-4321-aa8c-eb61673a2373","system_id":"levelo_inurba_marseille","lat":43.25584,"lon":5.38229,"is_reserved":false,"is_disabled":false,"rental_uris":{"android":"levelo://app?vid=d8e80f4d-8e00-4321-aa8c-eb61673a2373","ios":"levelo://app?vid=d8e80f4d-8e00-4321-aa8c-eb61673a2373"},"vehicle_type_id":"4","last_reported":1739805000,"current_range_meters":17600,"station_id":"ce4bhih2rcd13ifvqfs0","pricing_plan_id":"cebpf4jnsgd1na2vs0mg"},{"bike_id":"941f49b2-c5b0-49e9-b671-1c19546e11c7","system_id":"levelo_inurba_marseille","lat":43.27948,"lon":5.41039,"is_reserved":false,"is_disabled":false,"rental_uris":{"android":"levelo://app?vid=941f49b2-c5b0-49e9-b671-1c19546e11c7","ios":"levelo://app?vid=941f49b2-c5b0-49e9-b671-1c19546e11c7"},"vehicle_type_id":"4","last_reported":1739805000,"current_range_meters":17600,"station_id":"","pricing_plan_id":"cebpf4jnsgd1na2vs0mg"},{"bike_id":"7d63bd1b-4b6f-484f-a332-ac9b65f854d5","system_id":"levelo_inurba_marseille","lat":43.25938,"lon":5.40888,"is_reserved":false,"is_disabled":false,"rental_uris":{"android":"levelo://app?vid=7d63bd1b-4b6f-484f-a332-ac9b65f854d5","ios":"levelo://app?vid=7d63bd1b-4b6f-484f-a332-ac9b65f854d5"},"vehicle_type_id":"4","last_reported":1739805000,"current_range_meters":17600,"station_id":"","pricing_plan_id":"cebpf4jnsgd1na2vs0mg"},{"bike_id":"2458fec4-586e-4d1a-ba5d-71ff073f5fd6","system_id":"levelo_inurba_marseille","lat":43.26064,"lon":5.39391,"is_reserved":false,"is_disabled":false,"rental_uris":{"android":"levelo://app?vid=2458fec4-586e-4d1a-ba5d-71ff073f5fd6","ios":"levelo://app?vid=2458fec4-586e-4d1a-ba5d-71ff073f5fd6"},"vehicle_type_id":"4","last_reported":1739805000,"current_range_meters":16400,"station_id":"ce4bhh92rcd13ifvqfj0","pricing_plan_id":"cebpf4jnsgd1na2vs0mg"},{"bike_id":"a81f047e-2602-4d29-8821-508c11538471","system_id":"levelo_inurba_marseille","lat":43.22932,"lon":5.35379,"is_reserved":false,"is_disabled":false,"rental_uris":{"android":"levelo://app?vid=a81f047e-2602-4d29-8821-508c11538471","ios":"levelo://app?vid=a81f047e-2602-4d29-8821-508c11538471"},"vehicle_type_id":"4","last_reported":1739805000,"current_range_meters":18000,"station_id":"cpo3532slgdg3j2ikp40","pricing_plan_id":"cebpf4jnsgd1na2vs0mg"},{"bike_id":"683fd100-6715-46e0-b81e-6c2c6c9fd26b","system_id":"levelo_inurba_marseille","lat":43.30141,"lon":5.38775,"is_reserved":false,"is_disabled":false,"rental_uris":{"android":"levelo://app?vid=683fd100-6715-46e0-b81e-6c2c6c9fd26b","ios":"levelo://app?vid=683fd100-6715-46e0-b81e-6c2c6c9fd26b"},"vehicle_type_id":"4","last_reported":1739805000,"current_range_meters":18000,"station_id":"ce4bhoh2rcd13ifvqh6g","pricing_plan_id":"cebpf4jnsgd1na2vs0mg"},{"bike_id":"b637679b-4b4e-4ee8-a408-3921b723f887","system_id":"levelo_inurba_marseille","lat":43.29707,"lon":5.37703,"is_reserved":false,"is_disabled":false,"rental_uris":{"android":"levelo://app?vid=b637679b-4b4e-4ee8-a408-3921b723f887","ios":"levelo://app?vid=b637679b-4b4e-4ee8-a408-3921b723f887"},"vehicle_type_id":"4","last_reported":1739805000,"current_range_meters":14800,"station_id":"ce4bgkh2rcd13ifvqbl0","pricing_plan_id":"cebpf4jnsgd1na2vs0mg"},{"bike_id":"ad9274fc-e621-45d1-9e0b-e388074bb513","system_id":"levelo_inurba_marseille","lat":43.30144,"lon":5.38782,"is_reserved":false,"is_disabled":false,"rental_uris":{"android":"levelo://app?vid=ad9274fc-e621-45d1-9e0b-e388074bb513","ios":"levelo://app?vid=ad9274fc-e621-45d1-9e0b-e388074bb513"},"vehicle_type_id":"4","last_reported":1739805000,"current_range_meters":17600,"station_id":"ce4bghh2rcd13ifvqb60","pricing_plan_id":"cebpf4jnsgd1na2vs0mg"},{"bike_id":"0da49c63-e3d4-4f1d-9984-da0b3933ff22","system_id":"levelo_inurba_marseille","lat":43.3361,"lon":5.41035,"is_reserved":false,"is_disabled":false,"rental_uris":{"android":"levelo://app?vid=0da49c63-e3d4-4f1d-9984-da0b3933ff22","ios":"levelo://app?vid=0da49c63-e3d4-4f1d-9984-da0b3933ff22"},"vehicle_type_id":"4","last_reported":1739805000,"current_range_meters":18000,"station_id":"ce4bhqh2rcd13ifvqhmg","pricing_plan_id":"cebpf4jnsgd1na2vs0mg"},{"bike_id":"20bf0f99-c9d5-43d0-bede-cee701a2ad02","system_id":"levelo_inurba_marseille","lat":43.27998,"lon":5.41664,"is_reserved":false,"is_disabled":false,"rental_uris":{"android":"levelo://app?vid=20bf0f99-c9d5-43d0-bede-cee701a2ad02","ios":"levelo://app?vid=20bf0f99-c9d5-43d0-bede-cee701a2ad02"},"vehicle_type_id":"4","last_reported":1739805000,"current_range_meters":18000,"station_id":"ce4bho12rcd13ifvqh1g","pricing_plan_id":"cebpf4jnsgd1na2vs0mg"},{"bike_id":"db90dd96-e348-4c68-ac8b-20428675b838","system_id":"levelo_inurba_marseille","lat":43.27174,"lon":5.39973,"is_reserved":false,"is_disabled":false,"rental_uris":{"android":"levelo://app?vid=db90dd96-e348-4c68-ac8b-20428675b838","ios":"levelo://app?vid=db90dd96-e348-4c68-ac8b-20428675b838"},"vehicle_type_id":"4","last_reported":1739805000,"current_range_meters":18000,"station_id":"","pricing_plan_id":"cebpf4jnsgd1na2vs0mg"},{"bike_id":"00f7a1d2-b819-48fc-b8d7-63daa9d684ee","system_id":"levelo_inurba_marseille","lat":43.27917,"lon":5.38017,"is_reserved":false,"is_disabled":false,"rental_uris":{"android":"levelo://app?vid=00f7a1d2-b819-48fc-b8d7-63daa9d684ee","ios":"levelo://app?vid=00f7a1d2-b819-48fc-b8d7-63daa9d684ee"},"vehicle_type_id":"4","last_reported":1739805000,"current_range_meters":18000,"station_id":"","pricing_plan_id":"cebpf4jnsgd1na2vs0mg"},{"bike_id":"bba1d673-43cd-4ad6-8b62-c3d504906164","system_id":"levelo_inurba_marseille","lat":43.27476,"lon":5.42437,"is_reserved":false,"is_disabled":false,"rental_uris":{"android":"levelo://app?vid=bba1d673-43cd-4ad6-8b62-c3d504906164","ios":"levelo://app?vid=bba1d673-43cd-4ad6-8b62-c3d504906164"},"vehicle_type_id":"4","last_reported":1739805000,"current_range_meters":18800,"station_id":"ce4bhn92rcd13ifvqgrg","pricing_plan_id":"cebpf4jnsgd1na2vs0mg"},{"bike_id":"9885c601-2cbe-4ea7-9b6c-479dc416387c","system_id":"levelo_inurba_marseille","lat":43.29896,"lon":5.4366,"is_reserved":false,"is_disabled":false,"rental_uris":{"android":"levelo://app?vid=9885c601-2cbe-4ea7-9b6c-479dc416387c","ios":"levelo://app?vid=9885c601-2cbe-4ea7-9b6c-479dc416387c"},"vehicle_type_id":"4","last_reported":1739805000,"current_range_meters":18800,"station_id":"ce4bhpp2rcd13ifvqhfg","pricing_plan_id":"cebpf4jnsgd1na2vs0mg"},{"bike_id":"2b78a580-f064-4192-a68d-8925275237ea","system_id":"levelo_inurba_marseille","lat":43.2831,"lon":5.35103,"is_reserved":false,"is_disabled":false,"rental_uris":{"android":"levelo://app?vid=2b78a580-f064-4192-a68d-8925275237ea","ios":"levelo://app?vid=2b78a580-f064-4192-a68d-8925275237ea"},"vehicle_type_id":"4","last_reported":1739805000,"current_range_meters":18800,"station_id":"ce4bhbp2rcd13ifvqerg","pricing_plan_id":"cebpf4jnsgd1na2vs0mg"},{"bike_id":"99470bc2-2a8f-43a7-9f55-f9f780a712f1","system_id":"levelo_inurba_marseille","lat":43.305333,"lon":5.365341,"is_reserved":false,"is_disabled":false,"rental_uris":{"android":"levelo://app?vid=99470bc2-2a8f-43a7-9f55-f9f780a712f1","ios":"levelo://app?vid=99470bc2-2a8f-43a7-9f55-f9f780a712f1"},"vehicle_type_id":"4","last_reported":1739805000,"current_range_meters":18800,"station_id":"","pricing_plan_id":"cebpf4jnsgd1na2vs0mg"},{"bike_id":"57e264b3-304a-448f-b9fb-dea03eba6c28","system_id":"levelo_inurba_marseille","lat":43.27572,"lon":5.38428,"is_reserved":false,"is_disabled":false,"rental_uris":{"android":"levelo://app?vid=57e264b3-304a-448f-b9fb-dea03eba6c28","ios":"levelo://app?vid=57e264b3-304a-448f-b9fb-dea03eba6c28"},"vehicle_type_id":"4","last_reported":1739805000,"current_range_meters":18000,"station_id":"ce4bhh92rcd13ifvqfi0","pricing_plan_id":"cebpf4jnsgd1na2vs0mg"},{"bike_id":"f06fb572-fd2d-4af3-95a3-bc943afdb36c","system_id":"levelo_inurba_marseille","lat":43.25503,"lon":5.37651,"is_reserved":false,"is_disabled":false,"rental_uris":{"android":"levelo://app?vid=f06fb572-fd2d-4af3-95a3-bc943afdb36c","ios":"levelo://app?vid=f06fb572-fd2d-4af3-95a3-bc943afdb36c"},"vehicle_type_id":"4","last_reported":1739805000,"current_range_meters":18800,"station_id":"","pricing_plan_id":"cebpf4jnsgd1na2vs0mg"},{"bike_id":"955fd052-ee55-4394-a636-a59806b3ad55","system_id":"levelo_inurba_marseille","lat":43.29004,"lon":5.35615,"is_reserved":false,"is_disabled":false,"rental_uris":{"android":"levelo://app?vid=955fd052-ee55-4394-a636-a59806b3ad55","ios":"levelo://app?vid=955fd052-ee55-4394-a636-a59806b3ad55"},"vehicle_type_id":"4","last_reported":1739805000,"current_range_meters":18000,"station_id":"ce4bhb92rcd13ifvqen0","pricing_plan_id":"cebpf4jnsgd1na2vs0mg"},{"bike_id":"1a2accad-8911-4796-8ae4-1c5e5c25e5f9","system_id":"levelo_inurba_marseille","lat":43.29529,"lon":5.39058,"is_reserved":false,"is_disabled":false,"rental_uris":{"android":"levelo://app?vid=1a2accad-8911-4796-8ae4-1c5e5c25e5f9","ios":"levelo://app?vid=1a2accad-8911-4796-8ae4-1c5e5c25e5f9"},"vehicle_type_id":"4","last_reported":1739805000,"current_range_meters":22000,"station_id":"ce4bh3p2rcd13ifvqdp0","pricing_plan_id":"cebpf4jnsgd1na2vs0mg"},{"bike_id":"36a4ab4d-ced2-415d-94cc-567e6c2aa104","system_id":"levelo_inurba_marseille","lat":43.28709,"lon":5.37933,"is_reserved":false,"is_disabled":false,"rental_uris":{"android":"levelo://app?vid=36a4ab4d-ced2-415d-94cc-567e6c2aa104","ios":"levelo://app?vid=36a4ab4d-ced2-415d-94cc-567e6c2aa104"},"vehicle_type_id":"4","last_reported":1739805000,"current_range_meters":18800,"station_id":"ce4bh9p2rcd13ifvqec0","pricing_plan_id":"cebpf4jnsgd1na2vs0mg"},{"bike_id":"047da727-eec0-4fe6-8aeb-7f9746c3742a","system_id":"levelo_inurba_marseille","lat":43.26207,"lon":5.37928,"is_reserved":false,"is_disabled":false,"rental_uris":{"android":"levelo://app?vid=047da727-eec0-4fe6-8aeb-7f9746c3742a","ios":"levelo://app?vid=047da727-eec0-4fe6-8aeb-7f9746c3742a"},"vehicle_type_id":"4","last_reported":1739805000,"current_range_meters":18000,"station_id":"ce4bhjp2rcd13ifvqg90","pricing_plan_id":"cebpf4jnsgd1na2vs0mg"},{"bike_id":"87e4e3d9-887e-4f25-bf58-279367bc8327","system_id":"levelo_inurba_marseille","lat":43.30668,"lon":5.40074,"is_reserved":false,"is_disabled":true,"rental_uris":{"android":"levelo://app?vid=87e4e3d9-887e-4f25-bf58-279367bc8327","ios":"levelo://app?vid=87e4e3d9-887e-4f25-bf58-279367bc8327"},"vehicle_type_id":"4","last_reported":1739805000,"current_range_meters":19200,"station_id":"ce4bh112rcd13ifvqda0","pricing_plan_id":"cebpf4jnsgd1na2vs0mg"},{"bike_id":"ff7f4373-418d-47c4-92b8-8e40f7b617a4","system_id":"levelo_inurba_marseille","lat":43.229301,"lon":5.353751,"is_reserved":false,"is_disabled":false,"rental_uris":{"android":"levelo://app?vid=ff7f4373-418d-47c4-92b8-8e40f7b617a4","ios":"levelo://app?vid=ff7f4373-418d-47c4-92b8-8e40f7b617a4"},"vehicle_type_id":"4","last_reported":1739805000,"current_range_meters":19200,"station_id":"cpo3532slgdg3j2ikp40","pricing_plan_id":"cebpf4jnsgd1na2vs0mg"},{"bike_id":"903ebdeb-def6-41af-b0f7-26457a0a8128","system_id":"levelo_inurba_marseille","lat":43.27998,"lon":5.40008,"is_reserved":false,"is_disabled":false,"rental_uris":{"android":"levelo://app?vid=903ebdeb-def6-41af-b0f7-26457a0a8128","ios":"levelo://app?vid=903ebdeb-def6-41af-b0f7-26457a0a8128"},"vehicle_type_id":"4","last_reported":1739805000,"current_range_meters":18800,"station_id":"ce4bho92rcd13ifvqh4g","pricing_plan_id":"cebpf4jnsgd1na2vs0mg"},{"bike_id":"8796c4a1-cf69-4acb-819d-b56299eee9b7","system_id":"levelo_inurba_marseille","lat":43.33266,"lon":5.37902,"is_reserved":false,"is_disabled":false,"rental_uris":{"android":"levelo://app?vid=8796c4a1-cf69-4acb-819d-b56299eee9b7","ios":"levelo://app?vid=8796c4a1-cf69-4acb-819d-b56299eee9b7"},"vehicle_type_id":"4","last_reported":1739805000,"current_range_meters":19200,"station_id":"","pricing_plan_id":"cebpf4jnsgd1na2vs0mg"},{"bike_id":"f2f038bb-5d3a-415b-9164-ad30d51c80ee","system_id":"levelo_inurba_marseille","lat":43.24101,"lon":5.3773,"is_reserved":false,"is_disabled":false,"rental_uris":{"android":"levelo://app?vid=f2f038bb-5d3a-415b-9164-ad30d51c80ee","ios":"levelo://app?vid=f2f038bb-5d3a-415b-9164-ad30d51c80ee"},"vehicle_type_id":"4","last_reported":1739805000,"current_range_meters":19200,"station_id":"","pricing_plan_id":"cebpf4jnsgd1na2vs0mg"},{"bike_id":"8af59974-aa0c-4c34-b272-30faeaa01497","system_id":"levelo_inurba_marseille","lat":43.26239,"lon":5.40442,"is_reserved":false,"is_disabled":false,"rental_uris":{"android":"levelo://app?vid=8af59974-aa0c-4c34-b272-30faeaa01497","ios":"levelo://app?vid=8af59974-aa0c-4c34-b272-30faeaa01497"},"vehicle_type_id":"4","last_reported":1739805000,"current_range_meters":19200,"station_id":"ce4bhmh2rcd13ifvqgmg","pricing_plan_id":"cebpf4jnsgd1na2vs0mg"},{"bike_id":"954882ad-f997-48eb-8b49-af0b0b38bc7e","system_id":"levelo_inurba_marseille","lat":43.31065,"lon":5.36994,"is_reserved":false,"is_disabled":false,"rental_uris":{"android":"levelo://app?vid=954882ad-f997-48eb-8b49-af0b0b38bc7e","ios":"levelo://app?vid=954882ad-f997-48eb-8b49-af0b0b38bc7e"},"vehicle_type_id":"4","last_reported":1739805000,"current_range_meters":19200,"station_id":"","pricing_plan_id":"cebpf4jnsgd1na2vs0mg"},{"bike_id":"5bd3b795-1c94-4f69-923e-28d6296b76b4","system_id":"levelo_inurba_marseille","lat":43.27993,"lon":5.41665,"is_reserved":false,"is_disabled":false,"rental_uris":{"android":"levelo://app?vid=5bd3b795-1c94-4f69-923e-28d6296b76b4","ios":"levelo://app?vid=5bd3b795-1c94-4f69-923e-28d6296b76b4"},"vehicle_type_id":"4","last_reported":1739805000,"current_range_meters":19200,"station_id":"ce4bho12rcd13ifvqh1g","pricing_plan_id":"cebpf4jnsgd1na2vs0mg"},{"bike_id":"7312cda3-bba1-47e6-b097-bd447e567723","system_id":"levelo_inurba_marseille","lat":43.24076,"lon":5.3775,"is_reserved":false,"is_disabled":false,"rental_uris":{"android":"levelo://app?vid=7312cda3-bba1-47e6-b097-bd447e567723","ios":"levelo://app?vid=7312cda3-bba1-47e6-b097-bd447e567723"},"vehicle_type_id":"4","last_reported":1739805000,"current_range_meters":19200,"station_id":"ce4bhnp2rcd13ifvqgvg","pricing_plan_id":"cebpf4jnsgd1na2vs0mg"},{"bike_id":"24763f91-e34d-41c1-ab92-bfa57463041a","system_id":"levelo_inurba_marseille","lat":43.2572,"lon":5.41115,"is_reserved":false,"is_disabled":false,"rental_uris":{"android":"levelo://app?vid=24763f91-e34d-41c1-ab92-bfa57463041a","ios":"levelo://app?vid=24763f91-e34d-41c1-ab92-bfa57463041a"},"vehicle_type_id":"4","last_reported":1739805000,"current_range_meters":18000,"station_id":"ce4bhkp2rcd13ifvqgd0","pricing_plan_id":"cebpf4jnsgd1na2vs0mg"},{"bike_id":"fe93f667-8c09-4429-bb67-402b2df92f4e","system_id":"levelo_inurba_marseille","lat":43.29938,"lon":5.36505,"is_reserved":false,"is_disabled":false,"rental_uris":{"android":"levelo://app?vid=fe93f667-8c09-4429-bb67-402b2df92f4e","ios":"levelo://app?vid=fe93f667-8c09-4429-bb67-402b2df92f4e"},"vehicle_type_id":"4","last_reported":1739805000,"current_range_meters":19200,"station_id":"ce4bgm92rcd13ifvqbr0","pricing_plan_id":"cebpf4jnsgd1na2vs0mg"},{"bike_id":"336a3192-b924-4ad9-89b5-ed1216f9a279","system_id":"levelo_inurba_marseille","lat":43.29232,"lon":5.36049,"is_reserved":false,"is_disabled":false,"rental_uris":{"android":"levelo://app?vid=336a3192-b924-4ad9-89b5-ed1216f9a279","ios":"levelo://app?vid=336a3192-b924-4ad9-89b5-ed1216f9a279"},"vehicle_type_id":"4","last_reported":1739805000,"current_range_meters":19200,"station_id":"ce4bhbh2rcd13ifvqeqg","pricing_plan_id":"cebpf4jnsgd1na2vs0mg"},{"bike_id":"f81766ed-4365-4a97-9dc4-1bc0c02009d1","system_id":"levelo_inurba_marseille","lat":43.26947,"lon":5.38614,"is_reserved":false,"is_disabled":false,"rental_uris":{"android":"levelo://app?vid=f81766ed-4365-4a97-9dc4-1bc0c02009d1","ios":"levelo://app?vid=f81766ed-4365-4a97-9dc4-1bc0c02009d1"},"vehicle_type_id":"4","last_reported":1739805000,"current_range_meters":19600,"station_id":"ce4bhh92rcd13ifvqfh0","pricing_plan_id":"cebpf4jnsgd1na2vs0mg"},{"bike_id":"058be7b0-6b2b-48ae-80a6-6763c1fa04e8","system_id":"levelo_inurba_marseille","lat":43.2604,"lon":5.37553,"is_reserved":false,"is_disabled":false,"rental_uris":{"android":"levelo://app?vid=058be7b0-6b2b-48ae-80a6-6763c1fa04e8","ios":"levelo://app?vid=058be7b0-6b2b-48ae-80a6-6763c1fa04e8"},"vehicle_type_id":"4","last_reported":1739805000,"current_range_meters":19600,"station_id":"ce4bhgh2rcd13ifvqfa0","pricing_plan_id":"cebpf4jnsgd1na2vs0mg"},{"bike_id":"546ed578-1985-4c98-8768-2c70d70fee24","system_id":"levelo_inurba_marseille","lat":43.30518,"lon":5.36534,"is_reserved":false,"is_disabled":false,"rental_uris":{"android":"levelo://app?vid=546ed578-1985-4c98-8768-2c70d70fee24","ios":"levelo://app?vid=546ed578-1985-4c98-8768-2c70d70fee24"},"vehicle_type_id":"4","last_reported":1739805000,"current_range_meters":19600,"station_id":"ce4bgs12rcd13ifvqcag","pricing_plan_id":"cebpf4jnsgd1na2vs0mg"},{"bike_id":"944b7638-6ea9-4fd2-96aa-7c48edd59503","system_id":"levelo_inurba_marseille","lat":43.24181,"lon":5.39733,"is_reserved":false,"is_disabled":false,"rental_uris":{"android":"levelo://app?vid=944b7638-6ea9-4fd2-96aa-7c48edd59503","ios":"levelo://app?vid=944b7638-6ea9-4fd2-96aa-7c48edd59503"},"vehicle_type_id":"4","last_reported":1739805000,"current_range_meters":19600,"station_id":"ce4bhn12rcd13ifvqgpg","pricing_plan_id":"cebpf4jnsgd1na2vs0mg"},{"bike_id":"ec7eb08a-1a7d-43c4-99f5-444e73b522c8","system_id":"levelo_inurba_marseille","lat":43.29892,"lon":5.43658,"is_reserved":false,"is_disabled":false,"rental_uris":{"android":"levelo://app?vid=ec7eb08a-1a7d-43c4-99f5-444e73b522c8","ios":"levelo://app?vid=ec7eb08a-1a7d-43c4-99f5-444e73b522c8"},"vehicle_type_id":"4","last_reported":1739805000,"current_range_meters":19600,"station_id":"ce4bhpp2rcd13ifvqhfg","pricing_plan_id":"cebpf4jnsgd1na2vs0mg"},{"bike_id":"6dda2f23-46bb-4bc4-9193-80a071d223c9","system_id":"levelo_inurba_marseille","lat":43.30657,"lon":5.36726,"is_reserved":false,"is_disabled":false,"rental_uris":{"android":"levelo://app?vid=6dda2f23-46bb-4bc4-9193-80a071d223c9","ios":"levelo://app?vid=6dda2f23-46bb-4bc4-9193-80a071d223c9"},"vehicle_type_id":"4","last_reported":1739805000,"current_range_meters":20000,"station_id":"","pricing_plan_id":"cebpf4jnsgd1na2vs0mg"},{"bike_id":"5937c61a-ff3c-4c9c-a9c5-7ca5a85e16f6","system_id":"levelo_inurba_marseille","lat":43.24072,"lon":5.37753,"is_reserved":false,"is_disabled":false,"rental_uris":{"android":"levelo://app?vid=5937c61a-ff3c-4c9c-a9c5-7ca5a85e16f6","ios":"levelo://app?vid=5937c61a-ff3c-4c9c-a9c5-7ca5a85e16f6"},"vehicle_type_id":"4","last_reported":1739805000,"current_range_meters":20000,"station_id":"ce4bhnp2rcd13ifvqgvg","pricing_plan_id":"cebpf4jnsgd1na2vs0mg"},{"bike_id":"04f21be5-ed50-4007-afde-7fa24789baa8","system_id":"levelo_inurba_marseille","lat":43.31687,"lon":5.4048,"is_reserved":false,"is_disabled":false,"rental_uris":{"android":"levelo://app?vid=04f21be5-ed50-4007-afde-7fa24789baa8","ios":"levelo://app?vid=04f21be5-ed50-4007-afde-7fa24789baa8"},"vehicle_type_id":"4","last_reported":1739805000,"current_range_meters":19200,"station_id":"ce4bh012rcd13ifvqd00","pricing_plan_id":"cebpf4jnsgd1na2vs0mg"},{"bike_id":"2557666a-4e07-468e-a5ca-a54402392ad4","system_id":"levelo_inurba_marseille","lat":43.30336,"lon":5.39166,"is_reserved":false,"is_disabled":false,"rental_uris":{"android":"levelo://app?vid=2557666a-4e07-468e-a5ca-a54402392ad4","ios":"levelo://app?vid=2557666a-4e07-468e-a5ca-a54402392ad4"},"vehicle_type_id":"4","last_reported":1739805000,"current_range_meters":19600,"station_id":"ce4bgkh2rcd13ifvqbk0","pricing_plan_id":"cebpf4jnsgd1na2vs0mg"},{"bike_id":"03d4faad-c15a-48aa-9dae-b9ddb0491fbe","system_id":"levelo_inurba_marseille","lat":43.33716,"lon":5.39206,"is_reserved":false,"is_disabled":true,"rental_uris":{"android":"levelo://app?vid=03d4faad-c15a-48aa-9dae-b9ddb0491fbe","ios":"levelo://app?vid=03d4faad-c15a-48aa-9dae-b9ddb0491fbe"},"vehicle_type_id":"4","last_reported":1739805000,"current_range_meters":20000,"station_id":"ce4bhr92rcd13ifvqhsg","pricing_plan_id":"cebpf4jnsgd1na2vs0mg"},{"bike_id":"1129ec66-bba0-417b-a8e8-8f5d9dd16838","system_id":"levelo_inurba_marseille","lat":43.26941,"lon":5.38922,"is_reserved":false,"is_disabled":false,"rental_uris":{"android":"levelo://app?vid=1129ec66-bba0-417b-a8e8-8f5d9dd16838","ios":"levelo://app?vid=1129ec66-bba0-417b-a8e8-8f5d9dd16838"},"vehicle_type_id":"4","last_reported":1739805000,"current_range_meters":20000,"station_id":"ce4bhh92rcd13ifvqfh0","pricing_plan_id":"cebpf4jnsgd1na2vs0mg"},{"bike_id":"5c3e56f9-b7df-4b47-b1a7-e9fb85099b05","system_id":"levelo_inurba_marseille","lat":43.24548,"lon":5.39525,"is_reserved":false,"is_disabled":false,"rental_uris":{"android":"levelo://app?vid=5c3e56f9-b7df-4b47-b1a7-e9fb85099b05","ios":"levelo://app?vid=5c3e56f9-b7df-4b47-b1a7-e9fb85099b05"},"vehicle_type_id":"4","last_reported":1739805000,"current_range_meters":20400,"station_id":"ce4bhlp2rcd13ifvqgjg","pricing_plan_id":"cebpf4jnsgd1na2vs0mg"},{"bike_id":"af7831b5-09df-4518-a98c-1cd2dc88fbed","system_id":"levelo_inurba_marseille","lat":43.32066,"lon":5.41542,"is_reserved":false,"is_disabled":false,"rental_uris":{"android":"levelo://app?vid=af7831b5-09df-4518-a98c-1cd2dc88fbed","ios":"levelo://app?vid=af7831b5-09df-4518-a98c-1cd2dc88fbed"},"vehicle_type_id":"4","last_reported":1739805000,"current_range_meters":20400,"station_id":"ce4bhq92rcd13ifvqhkg","pricing_plan_id":"cebpf4jnsgd1na2vs0mg"},{"bike_id":"b1ef0a83-6370-41cc-8c87-0dc660282d84","system_id":"levelo_inurba_marseille","lat":43.29938,"lon":5.36539,"is_reserved":false,"is_disabled":false,"rental_uris":{"android":"levelo://app?vid=b1ef0a83-6370-41cc-8c87-0dc660282d84","ios":"levelo://app?vid=b1ef0a83-6370-41cc-8c87-0dc660282d84"},"vehicle_type_id":"4","last_reported":1739805000,"current_range_meters":20400,"station_id":"ce4bgm92rcd13ifvqbr0","pricing_plan_id":"cebpf4jnsgd1na2vs0mg"},{"bike_id":"aa6e83da-ef73-4c94-8755-d2ad3e7d3ad6","system_id":"levelo_inurba_marseille","lat":43.315369,"lon":5.380232,"is_reserved":false,"is_disabled":false,"rental_uris":{"android":"levelo://app?vid=aa6e83da-ef73-4c94-8755-d2ad3e7d3ad6","ios":"levelo://app?vid=aa6e83da-ef73-4c94-8755-d2ad3e7d3ad6"},"vehicle_type_id":"4","last_reported":1739805000,"current_range_meters":20400,"station_id":"ce4bh2h2rcd13ifvqdh0","pricing_plan_id":"cebpf4jnsgd1na2vs0mg"},{"bike_id":"5b52f50c-c142-4679-a3b0-f1836c1ad2bb","system_id":"levelo_inurba_marseille","lat":43.2887,"lon":5.35835,"is_reserved":false,"is_disabled":false,"rental_uris":{"android":"levelo://app?vid=5b52f50c-c142-4679-a3b0-f1836c1ad2bb","ios":"levelo://app?vid=5b52f50c-c142-4679-a3b0-f1836c1ad2bb"},"vehicle_type_id":"4","last_reported":1739805000,"current_range_meters":20400,"station_id":"ce4bhb12rcd13ifvqem0","pricing_plan_id":"cebpf4jnsgd1na2vs0mg"},{"bike_id":"6fa1ed89-3363-420a-a4c3-9423abe9b6d4","system_id":"levelo_inurba_marseille","lat":43.25589,"lon":5.38236,"is_reserved":false,"is_disabled":false,"rental_uris":{"android":"levelo://app?vid=6fa1ed89-3363-420a-a4c3-9423abe9b6d4","ios":"levelo://app?vid=6fa1ed89-3363-420a-a4c3-9423abe9b6d4"},"vehicle_type_id":"4","last_reported":1739805000,"current_range_meters":22000,"station_id":"ce4bhih2rcd13ifvqfs0","pricing_plan_id":"cebpf4jnsgd1na2vs0mg"},{"bike_id":"110380b0-267b-46b0-bcb4-8b31076637d4","system_id":"levelo_inurba_marseille","lat":43.25123,"lon":5.40325,"is_reserved":false,"is_disabled":false,"rental_uris":{"android":"levelo://app?vid=110380b0-267b-46b0-bcb4-8b31076637d4","ios":"levelo://app?vid=110380b0-267b-46b0-bcb4-8b31076637d4"},"vehicle_type_id":"4","last_reported":1739805000,"current_range_meters":19600,"station_id":"ce4bhlh2rcd13ifvqgig","pricing_plan_id":"cebpf4jnsgd1na2vs0mg"},{"bike_id":"0ff56e47-388d-414b-9c70-f9039f8a8db8","system_id":"levelo_inurba_marseille","lat":43.27617,"lon":5.36112,"is_reserved":false,"is_disabled":false,"rental_uris":{"android":"levelo://app?vid=0ff56e47-388d-414b-9c70-f9039f8a8db8","ios":"levelo://app?vid=0ff56e47-388d-414b-9c70-f9039f8a8db8"},"vehicle_type_id":"4","last_reported":1739805000,"current_range_meters":20400,"station_id":"ce4bgj92rcd13ifvqbe0","pricing_plan_id":"cebpf4jnsgd1na2vs0mg"},{"bike_id":"f23b79ab-7201-47e1-b9b9-41b0811eb110","system_id":"levelo_inurba_marseille","lat":43.27215,"lon":5.39182,"is_reserved":false,"is_disabled":false,"rental_uris":{"android":"levelo://app?vid=f23b79ab-7201-47e1-b9b9-41b0811eb110","ios":"levelo://app?vid=f23b79ab-7201-47e1-b9b9-41b0811eb110"},"vehicle_type_id":"4","last_reported":1739805000,"current_range_meters":20400,"station_id":"ce4bhhp2rcd13ifvqfm0","pricing_plan_id":"cebpf4jnsgd1na2vs0mg"},{"bike_id":"02595213-4b7e-4a40-b449-841ed024107c","system_id":"levelo_inurba_marseille","lat":43.25497,"lon":5.37652,"is_reserved":false,"is_disabled":false,"rental_uris":{"android":"levelo://app?vid=02595213-4b7e-4a40-b449-841ed024107c","ios":"levelo://app?vid=02595213-4b7e-4a40-b449-841ed024107c"},"vehicle_type_id":"4","last_reported":1739805000,"current_range_meters":20800,"station_id":"","pricing_plan_id":"cebpf4jnsgd1na2vs0mg"},{"bike_id":"2ab31347-0af9-4979-82f5-b4808ab2e38a","system_id":"levelo_inurba_marseille","lat":43.28084,"lon":5.39662,"is_reserved":false,"is_disabled":false,"rental_uris":{"android":"levelo://app?vid=2ab31347-0af9-4979-82f5-b4808ab2e38a","ios":"levelo://app?vid=2ab31347-0af9-4979-82f5-b4808ab2e38a"},"vehicle_type_id":"4","last_reported":1739805000,"current_range_meters":20800,"station_id":"ce4bho12rcd13ifvqh2g","pricing_plan_id":"cebpf4jnsgd1na2vs0mg"},{"bike_id":"ef4f6a2e-8025-4dde-a751-dced4ee9b2f1","system_id":"levelo_inurba_marseille","lat":43.28627,"lon":5.35092,"is_reserved":false,"is_disabled":false,"rental_uris":{"android":"levelo://app?vid=ef4f6a2e-8025-4dde-a751-dced4ee9b2f1","ios":"levelo://app?vid=ef4f6a2e-8025-4dde-a751-dced4ee9b2f1"},"vehicle_type_id":"4","last_reported":1739805000,"current_range_meters":20800,"station_id":"ce4bhch2rcd13ifvqeug","pricing_plan_id":"cebpf4jnsgd1na2vs0mg"},{"bike_id":"1d63a175-89ef-49ff-9ead-dfe9ed6c22cf","system_id":"levelo_inurba_marseille","lat":43.24684,"lon":5.39417,"is_reserved":false,"is_disabled":false,"rental_uris":{"android":"levelo://app?vid=1d63a175-89ef-49ff-9ead-dfe9ed6c22cf","ios":"levelo://app?vid=1d63a175-89ef-49ff-9ead-dfe9ed6c22cf"},"vehicle_type_id":"4","last_reported":1739805000,"current_range_meters":20800,"station_id":"","pricing_plan_id":"cebpf4jnsgd1na2vs0mg"},{"bike_id":"9698a2bd-8897-4f9c-97fa-5979b7c1135d","system_id":"levelo_inurba_marseille","lat":43.30554,"lon":5.36531,"is_reserved":false,"is_disabled":false,"rental_uris":{"android":"levelo://app?vid=9698a2bd-8897-4f9c-97fa-5979b7c1135d","ios":"levelo://app?vid=9698a2bd-8897-4f9c-97fa-5979b7c1135d"},"vehicle_type_id":"4","last_reported":1739805000,"current_range_meters":20800,"station_id":"ce4bgs12rcd13ifvqcag","pricing_plan_id":"cebpf4jnsgd1na2vs0mg"},{"bike_id":"da666222-f0ec-4008-8d32-83ed582e8775","system_id":"levelo_inurba_marseille","lat":43.28285,"lon":5.35075,"is_reserved":false,"is_disabled":false,"rental_uris":{"android":"levelo://app?vid=da666222-f0ec-4008-8d32-83ed582e8775","ios":"levelo://app?vid=da666222-f0ec-4008-8d32-83ed582e8775"},"vehicle_type_id":"4","last_reported":1739805000,"current_range_meters":20800,"station_id":"ce4bhbp2rcd13ifvqerg","pricing_plan_id":"cebpf4jnsgd1na2vs0mg"},{"bike_id":"497a99d4-d94e-469c-8b02-b3626dd0fa36","system_id":"levelo_inurba_marseille","lat":43.28003,"lon":5.41664,"is_reserved":false,"is_disabled":false,"rental_uris":{"android":"levelo://app?vid=497a99d4-d94e-469c-8b02-b3626dd0fa36","ios":"levelo://app?vid=497a99d4-d94e-469c-8b02-b3626dd0fa36"},"vehicle_type_id":"4","last_reported":1739805000,"current_range_meters":21600,"station_id":"ce4bho12rcd13ifvqh1g","pricing_plan_id":"cebpf4jnsgd1na2vs0mg"},{"bike_id":"6e132bfe-f8ba-4b13-aa6e-b3875e811ea6","system_id":"levelo_inurba_marseille","lat":43.29528,"lon":5.38534,"is_reserved":false,"is_disabled":false,"rental_uris":{"android":"levelo://app?vid=6e132bfe-f8ba-4b13-aa6e-b3875e811ea6","ios":"levelo://app?vid=6e132bfe-f8ba-4b13-aa6e-b3875e811ea6"},"vehicle_type_id":"4","last_reported":1739805000,"current_range_meters":21600,"station_id":"ce4bgih2rcd13ifvqba0","pricing_plan_id":"cebpf4jnsgd1na2vs0mg"},{"bike_id":"55c2a15c-f7b3-4b06-9929-e25622ef123a","system_id":"levelo_inurba_marseille","lat":43.318333,"lon":5.406976,"is_reserved":false,"is_disabled":false,"rental_uris":{"android":"levelo://app?vid=55c2a15c-f7b3-4b06-9929-e25622ef123a","ios":"levelo://app?vid=55c2a15c-f7b3-4b06-9929-e25622ef123a"},"vehicle_type_id":"4","last_reported":1739805000,"current_range_meters":21600,"station_id":"ce4bhpp2rcd13ifvqhgg","pricing_plan_id":"cebpf4jnsgd1na2vs0mg"},{"bike_id":"2f481a21-30b5-4603-ada3-f19af11a70ca","system_id":"levelo_inurba_marseille","lat":43.29842,"lon":5.38315,"is_reserved":false,"is_disabled":false,"rental_uris":{"android":"levelo://app?vid=2f481a21-30b5-4603-ada3-f19af11a70ca","ios":"levelo://app?vid=2f481a21-30b5-4603-ada3-f19af11a70ca"},"vehicle_type_id":"4","last_reported":1739805000,"current_range_meters":22000,"station_id":"ce4bgj92rcd13ifvqbd0","pricing_plan_id":"cebpf4jnsgd1na2vs0mg"},{"bike_id":"79e71b88-3d5b-424c-8b16-8b22d6fac965","system_id":"levelo_inurba_marseille","lat":43.25582,"lon":5.38228,"is_reserved":false,"is_disabled":false,"rental_uris":{"android":"levelo://app?vid=79e71b88-3d5b-424c-8b16-8b22d6fac965","ios":"levelo://app?vid=79e71b88-3d5b-424c-8b16-8b22d6fac965"},"vehicle_type_id":"4","last_reported":1739805000,"current_range_meters":22000,"station_id":"ce4bhih2rcd13ifvqfs0","pricing_plan_id":"cebpf4jnsgd1na2vs0mg"},{"bike_id":"e143e45f-4b79-4243-a90e-3437fb713965","system_id":"levelo_inurba_marseille","lat":43.24165,"lon":5.39725,"is_reserved":false,"is_disabled":false,"rental_uris":{"android":"levelo://app?vid=e143e45f-4b79-4243-a90e-3437fb713965","ios":"levelo://app?vid=e143e45f-4b79-4243-a90e-3437fb713965"},"vehicle_type_id":"4","last_reported":1739805000,"current_range_meters":22000,"station_id":"ce4bhn12rcd13ifvqgpg","pricing_plan_id":"cebpf4jnsgd1na2vs0mg"},{"bike_id":"5912861c-ba2a-4e17-afe8-08b4bb176e53","system_id":"levelo_inurba_marseille","lat":43.29262,"lon":5.40904,"is_reserved":false,"is_disabled":false,"rental_uris":{"android":"levelo://app?vid=5912861c-ba2a-4e17-afe8-08b4bb176e53","ios":"levelo://app?vid=5912861c-ba2a-4e17-afe8-08b4bb176e53"},"vehicle_type_id":"4","last_reported":1739805000,"current_range_meters":22000,"station_id":"ce4bh192rcd13ifvqdc0","pricing_plan_id":"cebpf4jnsgd1na2vs0mg"},