{"last_updated":1733008133,"ttl":60,"version":"2.2","data":{"bikes":[{"bike_id":"d0adae0d-5139-4c37-b759-c780aa93d035","system_id":"levelo_inurba_marseille","lat":43.31533,"lon":5.38023,"is_reserved":false,"is_disabled":false,"rental_uris":{"android":"levelo://app?vid=d0adae0d-5139-4c37-b759-c780aa93d035","ios":"levelo://app?vid=d0adae0d-5139-4c37-b759-c780aa93d035"},"vehicle_type_id":"4","last_reported":1733008133,"current_range_meters":38800,"station_id":"ce4bhsp2rcd13ifvqi50","pricing_plan_id":"cebpf4jnsgd1na2vs0mg"},{"bike_id":"0f3eaaf4-6520-458e-9062-99191a8c644d","system_id":"levelo_inurba_marseille","lat":43.29597,"lon":5.38109,"is_reserved":false,"is_disabled":false,"rental_uris":{"android":"levelo://app?vid=0f3eaaf4-6520-458e-9062-99191a8c644d","ios":"levelo://app?vid=0f3eaaf4-6520-458e-9062-99191a8c644d"},"vehicle_type_id":"4","last_reported":1733008133,"current_range_meters":19600,"station_id":"ce4bgl12rcd13ifvqbo0","pricing_plan_id":"cebpf4jnsgd1na2vs0mg"},{"bike_id":"e615f0d7-e0c9-4912-86a6-42efdf3b4aee","system_id":"levelo_inurba_marseille","lat":43.24069,"lon":5.37765,"is_reserved":false,"is_disabled":false,"rental_uris":{"android":"levelo://app?vid=e615f0d7-e0c9-4912-86a6-42efdf3b4aee","ios":"levelo://app?vid=e615f0d7-e0c9-4912-86a6-42efdf3b4aee"},"vehicle_type_id":"4","last_reported":1733008133,"current_range_meters":16000,"station_id":"ce4bhnp2rcd13ifvqgvg","pricing_plan_id":"cebpf4jnsgd1na2vs0mg"},{"bike_id":"b856c8b4-412d-4c25-bdd4-e6b29aed04cb","system_id":"levelo_inurba_marseille","lat":43.22933,"lon":5.35379,"is_reserved":false,"is_disabled":false,"rental_uris":{"android":"levelo://app?vid=b856c8b4-412d-4c25-bdd4-e6b29aed04cb","ios":"levelo://app?vid=b856c8b4-412d-4c25-bdd4-e6b29aed04cb"},"vehicle_type_id":"4","last_reported":1733008133,"current_range_meters":39200,"station_id":"cpo3532slgdg3j2ikp40","pricing_plan_id":"cebpf4jnsgd1na2vs0mg"},{"bike_id":"6322a6f8-4d80-4ee7-bb76-393e223f3b00","system_id":"levelo_inurba_marseille","lat":43.26952,"lon":5.38638,"is_reserved":false,"is_disabled":false,"rental_uris":{"android":"levelo://app?vid=6322a6f8-4d80-4ee7-bb76-393e223f3b00","ios":"levelo://app?vid=6322a6f8-4d80-4ee7-bb76-393e223f3b00"},"vehicle_type_id":"4","last_reported":1733008133,"current_range_meters":39200,"station_id":"ce4bhh92rcd13ifvqfh0","pricing_plan_id":"cebpf4jnsgd1na2vs0mg"},{"bike_id":"4d5c7536-550d-484c-b6fa-8276eca6a585","system_id":"levelo_inurba_marseille","lat":43.29416,"lon":5.38608,"is_reserved":false,"is_disabled":false,"rental_uris":{"android":"levelo://app?vid=4d5c7536-550d-484c-b6fa-8276eca6a585","ios":"levelo://app?vid=4d5c7536-550d-484c-b6fa-8276eca6a585"},"vehicle_type_id":"4","last_reported":1733008133,"current_range_meters":30800,"station_id":"ce4bh2h2rcd13ifvqdh0","pricing_plan_id":"cebpf4jnsgd1na2vs0mg"},{"bike_id":"70f8aa89-39e0-4063-8254-3e9e259a8f99","system_id":"levelo_inurba_marseille","lat":43.28726,"lon":5.36089,"is_reserved":false,"is_disabled":false,"rental_uris":{"android":"levelo://app?vid=70f8aa89-39e0-4063-8254-3e9e259a8f99","ios":"levelo://app?vid=70f8aa89-39e0-4063-8254-3e9e259a8f99"},"vehicle_type_id":"4","last_reported":1733008133,"current_range_meters":28000,"station_id":"cki0cbj6b192h4jlfktg","pricing_plan_id":"cebpf4jnsgd1na2vs0mg"},{"bike_id":"7c2f5026-8e41-43e5-86a3-f20271746f98","system_id":"levelo_inurba_marseille","lat":43.28468,"lon":5.35899,"is_reserved":false,"is_disabled":false,"rental_uris":{"android":"levelo://app?vid=7c2f5026-8e41-43e5-86a3-f20271746f98","ios":"levelo://app?vid=7c2f5026-8e41-43e5-86a3-f20271746f98"},"vehicle_type_id":"4","last_reported":1733008133,"current_range_meters":16000,"station_id":"ce4bhah2rcd13ifvqei0","pricing_plan_id":"cebpf4jnsgd1na2vs0mg"},{"bike_id":"9f420767-b1ac-4e8a-ad72-346cfdf9664a","system_id":"levelo_inurba_marseille","lat":43.28728,"lon":5.36085,"is_reserved":false,"is_disabled":false,"rental_uris":{"android":"levelo://app?vid=9f420767-b1ac-4e8a-ad72-346cfdf9664a","ios":"levelo://app?vid=9f420767-b1ac-4e8a-ad72-346cfdf9664a"},"vehicle_type_id":"4","last_reported":1733008133,"current_range_meters":38400,"station_id":"cki0cbj6b192h4jlfktg","pricing_plan_id":"cebpf4jnsgd1na2vs0mg"},{"bike_id":"88e65b51-c642-4773-bd0d-758e96d4e288","system_id":"levelo_inurba_marseille","lat":43.2897,"lon":5.37835,"is_reserved":false,"is_disabled":false,"rental_uris":{"android":"levelo://app?vid=88e65b51-c642-4773-bd0d-758e96d4e288","ios":"levelo://app?vid=88e65b51-c642-4773-bd0d-758e96d4e288"},"vehicle_type_id":"4","last_reported":1733008133,"current_range_meters":20000,"station_id":"ce4bh9p2rcd13ifvqed0","pricing_plan_id":"cebpf4jnsgd1na2vs0mg"},{"bike_id":"1fd43c4a-7b26-40c4-9b44-9f8cbde4f569","system_id":"levelo_inurba_marseille","lat":43.29043,"lon":5.39939,"is_reserved":false,"is_disabled":false,"rental_uris":{"android":"levelo://app?vid=1fd43c4a-7b26-40c4-9b44-9f8cbde4f569","ios":"levelo://app?vid=1fd43c4a-7b26-40c4-9b44-9f8cbde4f569"},"vehicle_type_id":"4","last_reported":1733008133,"current_range_meters":32000,"station_id":"ce4bh392rcd13ifvqdm0","pricing_plan_id":"cebpf4jnsgd1na2vs0mg"},{"bike_id":"5b811d3a-cae0-4f12-9af9-b5fb1f651755","system_id":"levelo_inurba_marseille","lat":43.25112,"lon":5.40317,"is_reserved":false,"is_disabled":false,"rental_uris":{"android":"levelo://app?vid=5b811d3a-cae0-4f12-9af9-b5fb1f651755","ios":"levelo://app?vid=5b811d3a-cae0-4f12-9af9-b5fb1f651755"},"vehicle_type_id":"4","last_reported":1733008133,"current_range_meters":38400,"station_id":"ce4bhlh2rcd13ifvqgig","pricing_plan_id":"cebpf4jnsgd1na2vs0mg"},{"bike_id":"3f7d1b83-7fbe-4b4b-b621-09fc8c3dc4a5","system_id":"levelo_inurba_marseille","lat":43.33607,"lon":5.4103,"is_reserved":false,"is_disabled":false,"rental_uris":{"android":"levelo://app?vid=3f7d1b83-7fbe-4b4b-b621-09fc8c3dc4a5","ios":"levelo://app?vid=3f7d1b83-7fbe-4b4b-b621-09fc8c3dc4a5"},"vehicle_type_id":"4","last_reported":1733008133,"current_range_meters":30400,"station_id":"ce4bhqh2rcd13ifvqhmg","pricing_plan_id":"cebpf4jnsgd1na2vs0mg"},{"bike_id":"9719d5d8-2161-465c-bedd-a2e9baddd1c7","system_id":"levelo_inurba_marseille","lat":43.30916,"lon":5.36856,"is_reserved":false,"is_disabled":false,"rental_uris":{"android":"levelo://app?vid=9719d5d8-2161-465c-bedd-a2e9baddd1c7","ios":"levelo://app?vid=9719d5d8-2161-465c-bedd-a2e9baddd1c7"},"vehicle_type_id":"4","last_reported":1733008133,"current_range_meters":39200,"station_id":"ce4bgn92rcd13ifvqbvg","pricing_plan_id":"cebpf4jnsgd1na2vs0mg"},{"bike_id":"966791e8-cdff-4838-a42b-c9b609a533a7","system_id":"levelo_inurba_marseille","lat":43.27443,"lon":5.40056,"is_reserved":false,"is_disabled":true,"rental_uris":{"android":"levelo://app?vid=966791e8-cdff-4838-a42b-c9b609a533a7","ios":"levelo://app?vid=966791e8-cdff-4838-a42b-c9b609a533a7"},"vehicle_type_id":"4","last_reported":1733008133,"current_range_meters":0,"station_id":"","pricing_plan_id":"cebpf4jnsgd1na2vs0mg"},{"bike_id":"3135885e-3f99-4048-a049-afde352cc915","system_id":"levelo_inurba_marseille","lat":43.29961,"lon":5.41322,"is_reserved":false,"is_disabled":false,"rental_uris":{"android":"levelo://app?vid=3135885e-3f99-4048-a049-afde352cc915","ios":"levelo://app?vid=3135885e-3f99-4048-a049-afde352cc915"},"vehicle_type_id":"4","last_reported":1733008133,"current_range_meters":38000,"station_id":"ce4bhp12rcd13ifvqh9g","pricing_plan_id":"cebpf4jnsgd1na2vs0mg"},{"bike_id":"7974306f-50f1-4979-96e6-42a3a669c81a","system_id":"levelo_inurba_marseille","lat":43.32008,"lon":5.38153,"is_reserved":false,"is_disabled":false,"rental_uris":{"android":"levelo://app?vid=7974306f-50f1-4979-96e6-42a3a669c81a","ios":"levelo://app?vid=7974306f-50f1-4979-96e6-42a3a669c81a"},"vehicle_type_id":"4","last_reported":1733008133,"current_range_meters":8800,"station_id":"ce4bhr12rcd13ifvqhpg","pricing_plan_id":"cebpf4jnsgd1na2vs0mg"},{"bike_id":"cde1050f-394a-4b45-ac65-f5bd69ab4904","system_id":"levelo_inurba_marseille","lat":43.28664,"lon":5.36349,"is_reserved":false,"is_disabled":false,"rental_uris":{"android":"levelo://app?vid=cde1050f-394a-4b45-ac65-f5bd69ab4904","ios":"levelo://app?vid=cde1050f-394a-4b45-ac65-f5bd69ab4904"},"vehicle_type_id":"4","last_reported":1733008133,"current_range_meters":24400,"station_id":"ce4bhah2rcd13ifvqej0","pricing_plan_id":"cebpf4jnsgd1na2vs0mg"},{"bike_id":"a30848b9-846b-4c84-ab58-b51490c2ee6f","system_id":"levelo_inurba_marseille","lat":43.27996,"lon":5.40005,"is_reserved":false,"is_disabled":false,"rental_uris":{"android":"levelo://app?vid=a30848b9-846b-4c84-ab58-b51490c2ee6f","ios":"levelo://app?vid=a30848b9-846b-4c84-ab58-b51490c2ee6f"},"vehicle_type_id":"4","last_reported":1733008133,"current_range_meters":22800,"station_id":"ce4bho92rcd13ifvqh4g","pricing_plan_id":"cebpf4jnsgd1na2vs0mg"},{"bike_id":"69a0975e-1cf0-42a6-939b-4ee9c71f9026","system_id":"levelo_inurba_marseille","lat":43.3229,"lon":5.38258,"is_reserved":false,"is_disabled":false,"rental_uris":{"android":"levelo://app?vid=69a0975e-1cf0-42a6-939b-4ee9c71f9026","ios":"levelo://app?vid=69a0975e-1cf0-42a6-939b-4ee9c71f9026"},"vehicle_type_id":"4","last_reported":1733008133,"current_range_meters":12800,"station_id":"ce4bhr12rcd13ifvqhqg","pricing_plan_id":"cebpf4jnsgd1na2vs0mg"},{"bike_id":"ee3c4318-4146-4fe4-86b0-fc0b9ce70693","system_id":"levelo_inurba_marseille","lat":43.23065,"lon":5.35499,"is_reserved":false,"is_disabled":false,"rental_uris":{"android":"levelo://app?vid=ee3c4318-4146-4fe4-86b0-fc0b9ce70693","ios":"levelo://app?vid=ee3c4318-4146-4fe4-86b0-fc0b9ce70693"},"vehicle_type_id":"4","last_reported":1733008133,"current_range_meters":33200,"station_id":"cpo3342slgdg3j2ifvpg","pricing_plan_id":"cebpf4jnsgd1na2vs0mg"},{"bike_id":"124f06fb-64b7-451d-bd38-84866709eeee","system_id":"levelo_inurba_marseille","lat":43.24034,"lon":5.37721,"is_reserved":false,"is_disabled":true,"rental_uris":{"android":"levelo://app?vid=124f06fb-64b7-451d-bd38-84866709eeee","ios":"levelo://app?vid=124f06fb-64b7-451d-bd38-84866709eeee"},"vehicle_type_id":"4","last_reported":1733008133,"current_range_meters":2000,"station_id":"","pricing_plan_id":"cebpf4jnsgd1na2vs0mg"},{"bike_id":"ecfa8d94-1737-491c-b1fe-d279b3486a8a","system_id":"levelo_inurba_marseille","lat":43.2894,"lon":5.39633,"is_reserved":false,"is_disabled":false,"rental_uris":{"android":"levelo://app?vid=ecfa8d94-1737-491c-b1fe-d279b3486a8a","ios":"levelo://app?vid=ecfa8d94-1737-491c-b1fe-d279b3486a8a"},"vehicle_type_id":"4","last_reported":1733008133,"current_range_meters":24000,"station_id":"ce4bh3h2rcd13ifvqdn0","pricing_plan_id":"cebpf4jnsgd1na2vs0mg"},{"bike_id":"835d82ec-8886-4952-80b0-4820a09a8d3d","system_id":"levelo_inurba_marseille","lat":43.29265,"lon":5.38441,"is_reserved":false,"is_disabled":false,"rental_uris":{"android":"levelo://app?vid=835d82ec-8886-4952-80b0-4820a09a8d3d","ios":"levelo://app?vid=835d82ec-8886-4952-80b0-4820a09a8d3d"},"vehicle_type_id":"4","last_reported":1733008133,"current_range_meters":27600,"station_id":"ce4bh692rcd13ifvqea0","pricing_plan_id":"cebpf4jnsgd1na2vs0mg"},{"bike_id":"c7124f38-3d56-473c-9e8b-76061f1c5a09","system_id":"levelo_inurba_marseille","lat":43.27073,"lon":5.42278,"is_reserved":false,"is_disabled":false,"rental_uris":{"android":"levelo://app?vid=c7124f38-3d56-473c-9e8b-76061f1c5a09","ios":"levelo://app?vid=c7124f38-3d56-473c-9e8b-76061f1c5a09"},"vehicle_type_id":"4","last_reported":1733008133,"current_range_meters":38800,"station_id":"ce4bhk92rcd13ifvqgb0","pricing_plan_id":"cebpf4jnsgd1na2vs0mg"},{"bike_id":"457d6633-ac84-40ac-8a93-4a310cc9a79a","system_id":"levelo_inurba_marseille","lat":43.296337,"lon":5.405999,"is_reserved":false,"is_disabled":false,"rental_uris":{"android":"levelo://app?vid=457d6633-ac84-40ac-8a93-4a310cc9a79a","ios":"levelo://app?vid=457d6633-ac84-40ac-8a93-4a310cc9a79a"},"vehicle_type_id":"4","last_reported":1733008133,"current_range_meters":33600,"station_id":"ce4bh0h2rcd13ifvqd60","pricing_plan_id":"cebpf4jnsgd1na2vs0mg"},{"bike_id":"bc349d87-33fa-417a-b576-c9e08ccf7a4b","system_id":"levelo_inurba_marseille","lat":43.3096,"lon":5.39025,"is_reserved":false,"is_disabled":false,"rental_uris":{"android":"levelo://app?vid=bc349d87-33fa-417a-b576-c9e08ccf7a4b","ios":"levelo://app?vid=bc349d87-33fa-417a-b576-c9e08ccf7a4b"},"vehicle_type_id":"4","last_reported":1733008133,"current_range_meters":38800,"station_id":"ce4bgup2rcd13ifvqco0","pricing_plan_id":"cebpf4jnsgd1na2vs0mg"},{"bike_id":"f162591d-adfe-42bc-9463-3125f1794c4d","system_id":"levelo_inurba_marseille","lat":43.28267,"lon":5.35062,"is_reserved":false,"is_disabled":false,"rental_uris":{"android":"levelo://app?vid=f162591d-adfe-42bc-9463-3125f1794c4d","ios":"levelo://app?vid=f162591d-adfe-42bc-9463-3125f1794c4d"},"vehicle_type_id":"4","last_reported":1733008133,"current_range_meters":36800,"station_id":"ce4bhbp2rcd13ifvqerg","pricing_plan_id":"cebpf4jnsgd1na2vs0mg"},{"bike_id":"b0bd4cdf-7308-45f0-8e99-a0d5811907ff","system_id":"levelo_inurba_marseille","lat":43.2541,"lon":5.38195,"is_reserved":false,"is_disabled":true,"rental_uris":{"android":"levelo://app?vid=b0bd4cdf-7308-45f0-8e99-a0d5811907ff","ios":"levelo://app?vid=b0bd4cdf-7308-45f0-8e99-a0d5811907ff"},"vehicle_type_id":"4","last_reported":1733008133,"current_range_meters":0,"station_id":"","pricing_plan_id":"cebpf4jnsgd1na2vs0mg"},{"bike_id":"cd89dbb3-f957-4164-979c-fccc4da34423","system_id":"levelo_inurba_marseille","lat":43.29875,"lon":5.38909,"is_reserved":false,"is_disabled":false,"rental_uris":{"android":"levelo://app?vid=cd89dbb3-f957-4164-979c-fccc4da34423","ios":"levelo://app?vid=cd89dbb3-f957-4164-979c-fccc4da34423"},"vehicle_type_id":"4","last_reported":1733008133,"current_range_meters":38400,"station_id":"ce4bh392rcd13ifvqdl0","pricing_plan_id":"cebpf4jnsgd1na2vs0mg"},{"bike_id":"c593dfd4-4ae3-41ca-96b4-88fea2aa536d","system_id":"levelo_inurba_marseille","lat":43.33724,"lon":5.39185,"is_reserved":false,"is_disabled":true,"rental_uris":{"android":"levelo://app?vid=c593dfd4-4ae3-41ca-96b4-88fea2aa536d","ios":"levelo://app?vid=c593dfd4-4ae3-41ca-96b4-88fea2aa536d"},"vehicle_type_id":"4","last_reported":1733008133,"current_range_meters":7200,"station_id":"ce4bhr92rcd13ifvqhsg","pricing_plan_id":"cebpf4jnsgd1na2vs0mg"},{"bike_id":"2b934695-b4e9-4969-8beb-09d4426506f4","system_id":"levelo_inurba_marseille","lat":43.29269,"lon":5.38439,"is_reserved":false,"is_disabled":false,"rental_uris":{"android":"levelo://app?vid=2b934695-b4e9-4969-8beb-09d4426506f4","ios":"levelo://app?vid=2b934695-b4e9-4969-8beb-09d4426506f4"},"vehicle_type_id":"4","last_reported":1733008133,"current_range_meters":38800,"station_id":"ce4bh692rcd13ifvqea0","pricing_plan_id":"cebpf4jnsgd1na2vs0mg"},{"bike_id":"f0ca66be-c5fa-4f1d-8e2b-9450ca0243d7","system_id":"levelo_inurba_marseille","lat":43.30154,"lon":5.38089,"is_reserved":false,"is_disabled":true,"rental_uris":{"android":"levelo://app?vid=f0ca66be-c5fa-4f1d-8e2b-9450ca0243d7","ios":"levelo://app?vid=f0ca66be-c5fa-4f1d-8e2b-9450ca0243d7"},"vehicle_type_id":"4","last_reported":1733008133,"current_range_meters":35600,"station_id":"ce4bgjp2rcd13ifvqbh0","pricing_plan_id":"cebpf4jnsgd1na2vs0mg"},{"bike_id":"6f7949e1-de87-4a49-8620-fec27e04447f","system_id":"levelo_inurba_marseille","lat":43.33734,"lon":5.39186,"is_reserved":false,"is_disabled":false,"rental_uris":{"android":"levelo://app?vid=6f7949e1-de87-4a49-8620-fec27e04447f","ios":"levelo://app?vid=6f7949e1-de87-4a49-8620-fec27e04447f"},"vehicle_type_id":"4","last_reported":1733008133,"current_range_meters":26000,"station_id":"ce4bhr92rcd13ifvqhsg","pricing_plan_id":"cebpf4jnsgd1na2vs0mg"},{"bike_id":"4a81963e-13f7-4ccc-9ae8-bf6288b34b98","system_id":"levelo_inurba_marseille","lat":43.29634,"lon":5.40593,"is_reserved":false,"is_disabled":false,"rental_uris":{"android":"levelo://app?vid=4a81963e-13f7-4ccc-9ae8-bf6288b34b98","ios":"levelo://app?vid=4a81963e-13f7-4ccc-9ae8-bf6288b34b98"},"vehicle_type_id":"4","last_reported":1733008133,"current_range_meters":37600,"station_id":"ce4bh0h2rcd13ifvqd60","pricing_plan_id":"cebpf4jnsgd1na2vs0mg"},{"bike_id":"7b3956f5-0073-4bfe-90c2-24c8db7827ad","system_id":"levelo_inurba_marseille","lat":43.26557,"lon":5.37282,"is_reserved":false,"is_disabled":false,"rental_uris":{"android":"levelo://app?vid=7b3956f5-0073-4bfe-90c2-24c8db7827ad","ios":"levelo://app?vid=7b3956f5-0073-4bfe-90c2-24c8db7827ad"},"vehicle_type_id":"4","last_reported":1733008133,"current_range_meters":24400,"station_id":"ce4bhg12rcd13ifvqf70","pricing_plan_id":"cebpf4jnsgd1na2vs0mg"},{"bike_id":"7066298c-8444-4dbb-8e5a-afa45f0890f5","system_id":"levelo_inurba_marseille","lat":43.288546,"lon":5.393207,"is_reserved":false,"is_disabled":true,"rental_uris":{"android":"levelo://app?vid=7066298c-8444-4dbb-8e5a-afa45f0890f5","ios":"levelo://app?vid=7066298c-8444-4dbb-8e5a-afa45f0890f5"},"vehicle_type_id":"4","last_reported":1733008133,"current_range_meters":10000,"station_id":"ce4bh2p2rcd13ifvqdi0","pricing_plan_id":"cebpf4jnsgd1na2vs0mg"},{"bike_id":"79da6e11-068f-4f85-891a-bf5d6033ae1b","system_id":"levelo_inurba_marseille","lat":43.29196,"lon":5.3932,"is_reserved":false,"is_disabled":true,"rental_uris":{"android":"levelo://app?vid=79da6e11-068f-4f85-891a-bf5d6033ae1b","ios":"levelo://app?vid=79da6e11-068f-4f85-891a-bf5d6033ae1b"},"vehicle_type_id":"4","last_reported":1733008133,"current_range_meters":22400,"station_id":"ce4bh192rcd13ifvqdd0","pricing_plan_id":"cebpf4jnsgd1na2vs0mg"},{"bike_id":"67219899-4fb3-4a00-86a5-7ea8a29fdefe","system_id":"levelo_inurba_marseille","lat":43.30437,"lon":5.38888,"is_reserved":false,"is_disabled":false,"rental_uris":{"android":"levelo://app?vid=67219899-4fb3-4a00-86a5-7ea8a29fdefe","ios":"levelo://app?vid=67219899-4fb3-4a00-86a5-7ea8a29fdefe"},"vehicle_type_id":"4","last_reported":1733008133,"current_range_meters":38800,"station_id":"ce4bgk12rcd13ifvqbi0","pricing_plan_id":"cebpf4jnsgd1na2vs0mg"},{"bike_id":"60b56983-4dd0-4c43-a512-0e9952841805","system_id":"levelo_inurba_marseille","lat":43.32375,"lon":5.38874,"is_reserved":false,"is_disabled":false,"rental_uris":{"android":"levelo://app?vid=60b56983-4dd0-4c43-a512-0e9952841805","ios":"levelo://app?vid=60b56983-4dd0-4c43-a512-0e9952841805"},"vehicle_type_id":"4","last_reported":1733008133,"current_range_meters":16800,"station_id":"ce4bhqp2rcd13ifvqhog","pricing_plan_id":"cebpf4jnsgd1na2vs0mg"},{"bike_id":"adcf561a-8a88-4c37-b670-89abb02d4d5c","system_id":"levelo_inurba_marseille","lat":43.3089,"lon":5.39644,"is_reserved":false,"is_disabled":false,"rental_uris":{"android":"levelo://app?vid=adcf561a-8a88-4c37-b670-89abb02d4d5c","ios":"levelo://app?vid=adcf561a-8a88-4c37-b670-89abb02d4d5c"},"vehicle_type_id":"4","last_reported":1733008133,"current_range_meters":4800,"station_id":"ce4bh012rcd13ifvqcv0","pricing_plan_id":"cebpf4jnsgd1na2vs0mg"},{"bike_id":"114e0915-573b-4faa-a468-a394c2bf69cb","system_id":"levelo_inurba_marseille","lat":43.32656,"lon":5.40993,"is_reserved":false,"is_disabled":false,"rental_uris":{"android":"levelo://app?vid=114e0915-573b-4faa-a468-a394c2bf69cb","ios":"levelo://app?vid=114e0915-573b-4faa-a468-a394c2bf69cb"},"vehicle_type_id":"4","last_reported":1733008133,"current_range_meters":18800,"station_id":"ce4bhpp2rcd13ifvqhgg","pricing_plan_id":"cebpf4jnsgd1na2vs0mg"},{"bike_id":"2e741d69-fd4e-4c10-b025-4e7a51d280c7","system_id":"levelo_inurba_marseille","lat":43.31084,"lon":5.42431,"is_reserved":false,"is_disabled":false,"rental_uris":{"android":"levelo://app?vid=2e741d69-fd4e-4c10-b025-4e7a51d280c7","ios":"levelo://app?vid=2e741d69-fd4e-4c10-b025-4e7a51d280c7"},"vehicle_type_id":"4","last_reported":1733008133,"current_range_meters":11200,"station_id":"ce4bhp92rcd13ifvqhag","pricing_plan_id":"cebpf4jnsgd1na2vs0mg"},{"bike_id":"a0f85c10-8e22-402d-b0a6-d224b35a3b53","system_id":"levelo_inurba_marseille","lat":43.25822,"lon":5.39433,"is_reserved":false,"is_disabled":false,"rental_uris":{"android":"levelo://app?vid=a0f85c10-8e22-402d-b0a6-d224b35a3b53","ios":"levelo://app?vid=a0f85c10-8e22-402d-b0a6-d224b35a3b53"},"vehicle_type_id":"4","last_reported":1733008133,"current_range_meters":29600,"station_id":"ce4bhip2rcd13ifvqft0","pricing_plan_id":"cebpf4jnsgd1na2vs0mg"},{"bike_id":"7cccf4b6-e305-406f-aa1d-0998f168efc1","system_id":"levelo_inurba_marseille","lat":43.27901,"lon":5.38017,"is_reserved":false,"is_disabled":false,"rental_uris":{"android":"levelo://app?vid=7cccf4b6-e305-406f-aa1d-0998f168efc1","ios":"levelo://app?vid=7cccf4b6-e305-406f-aa1d-0998f168efc1"},"vehicle_type_id":"4","last_reported":1733008133,"current_range_meters":12400,"station_id":"ce4bhf92rcd13ifvqf50","pricing_plan_id":"cebpf4jnsgd1na2vs0mg"},{"bike_id":"4cd0fae9-9b96-4c08-80a7-0987ebb39a57","system_id":"levelo_inurba_marseille","lat":43.28996,"lon":5.35605,"is_reserved":false,"is_disabled":false,"rental_uris":{"android":"levelo://app?vid=4cd0fae9-9b96-4c08-80a7-0987ebb39a57","ios":"levelo://app?vid=4cd0fae9-9b96-4c08-80a7-0987ebb39a57"},"vehicle_type_id":"4","last_reported":1733008133,"current_range_meters":38400,"station_id":"ce4bhb92rcd13ifvqen0","pricing_plan_id":"cebpf4jnsgd1na2vs0mg"},{"bike_id":"98037c3a-9b2c-4fc3-b5c9-984ee3607601","system_id":"levelo_inurba_marseille","lat":43.32379,"lon":5.36754,"is_reserved":false,"is_disabled":false,"rental_uris":{"android":"levelo://app?vid=98037c3a-9b2c-4fc3-b5c9-984ee3607601","ios":"levelo://app?vid=98037c3a-9b2c-4fc3-b5c9-984ee3607601"},"vehicle_type_id":"4","last_reported":1733008133,"current_range_meters":38800,"station_id":"ce4bhsh2rcd13ifvqi2g","pricing_plan_id":"cebpf4jnsgd1na2vs0mg"},{"bike_id":"7ed2229e-6e77-42d8-826e-e15ec9f33077","system_id":"levelo_inurba_marseille","lat":43.26686,"lon":5.38273,"is_reserved":false,"is_disabled":true,"rental_uris":{"android":"levelo://app?vid=7ed2229e-6e77-42d8-826e-e15ec9f33077","ios":"levelo://app?vid=7ed2229e-6e77-42d8-826e-e15ec9f33077"},"vehicle_type_id":"4","last_reported":1733008133,"current_range_meters":19600,"station_id":"ce4bhg92rcd13ifvqf90","pricing_plan_id":"cebpf4jnsgd1na2vs0mg"},{"bike_id":"8fdf0680-166b-4766-a655-d02e84d131fa","system_id":"levelo_inurba_marseille","lat":43.31001,"lon":5.39021,"is_reserved":false,"is_disabled":true,"rental_uris":{"android":"levelo://app?vid=8fdf0680-166b-4766-a655-d02e84d131fa","ios":"levelo://app?vid=8fdf0680-166b-4766-a655-d02e84d131fa"},"vehicle_type_id":"4","last_reported":1733008133,"current_range_meters":38800,"station_id":"ce4bgup2rcd13ifvqco0","pricing_plan_id":"cebpf4jnsgd1na2vs0mg"},{"bike_id":"5261ab68-ae93-4a02-bd3f-a7c456f84dfb","system_id":"levelo_inurba_marseille","lat":43.30578,"lon":5.39348,"is_reserved":false,"is_disabled":false,"rental_uris":{"android":"levelo://app?vid=5261ab68-ae93-4a02-bd3f-a7c456f84dfb","ios":"levelo://app?vid=5261ab68-ae93-4a02-bd3f-a7c456f84dfb"},"vehicle_type_id":"4","last_reported":1733008133,"current_range_meters":21600,"station_id":"ce4bh0p2rcd13ifvqd80","pricing_plan_id":"cebpf4jnsgd1na2vs0mg"},{"bike_id":"64cbfd6a-4a4e-4d37-982c-18402a201eee","system_id":"levelo_inurba_marseille","lat":43.28653,"lon":5.3632,"is_reserved":false,"is_disabled":true,"rental_uris":{"android":"levelo://app?vid=64cbfd6a-4a4e-4d37-982c-18402a201eee","ios":"levelo://app?vid=64cbfd6a-4a4e-4d37-982c-18402a201eee"},"vehicle_type_id":"4","last_reported":1733008133,"current_range_meters":19600,"station_id":"ce4bhah2rcd13ifvqej0","pricing_plan_id":"cebpf4jnsgd1na2vs0mg"},{"bike_id":"c0054edb-5a8c-4cde-93a6-194d063ea63c","system_id":"levelo_inurba_marseille","lat":43.262,"lon":5.37933,"is_reserved":false,"is_disabled":true,"rental_uris":{"android":"levelo://app?vid=c0054edb-5a8c-4cde-93a6-194d063ea63c","ios":"levelo://app?vid=c0054edb-5a8c-4cde-93a6-194d063ea63c"},"vehicle_type_id":"4","last_reported":1733008133,"current_range_meters":800,"station_id":"ce4bhjp2rcd13ifvqg90","pricing_plan_id":"cebpf4jnsgd1na2vs0mg"},{"bike_id":"68fefa7d-3f0f-4284-82e0-a94590ab6eb2","system_id":"levelo_inurba_marseille","lat":43.29628,"lon":5.40586,"is_reserved":false,"is_disabled":false,"rental_uris":{"android":"levelo://app?vid=68fefa7d-3f0f-4284-82e0-a94590ab6eb2","ios":"levelo://app?vid=68fefa7d-3f0f-4284-82e0-a94590ab6eb2"},"vehicle_type_id":"4","last_reported":1733008133,"current_range_meters":25600,"station_id":"ce4bh0h2rcd13ifvqd60","pricing_plan_id":"cebpf4jnsgd1na2vs0mg"},{"bike_id":"dbcbccc5-ea1d-4716-ac6c-1325d31bb553","system_id":"levelo_inurba_marseille","lat":43.29282,"lon":5.36831,"is_reserved":false,"is_disabled":false,"rental_uris":{"android":"levelo://app?vid=dbcbccc5-ea1d-4716-ac6c-1325d31bb553","ios":"levelo://app?vid=dbcbccc5-ea1d-4716-ac6c-1325d31bb553"},"vehicle_type_id":"4","last_reported":1733008133,"current_range_meters":38000,"station_id":"ce4bhbp2rcd13ifvqesg","pricing_plan_id":"cebpf4jnsgd1na2vs0mg"},{"bike_id":"3ab4c64b-a573-471d-9dc1-aa13385ed60a","system_id":"levelo_inurba_marseille","lat":43.32676,"lon":5.41014,"is_reserved":false,"is_disabled":false,"rental_uris":{"android":"levelo://app?vid=3ab4c64b-a573-471d-9dc1-aa13385ed60a","ios":"levelo://app?vid=3ab4c64b-a573-471d-9dc1-aa13385ed60a"},"vehicle_type_id":"4","last_reported":1733008133,"current_range_meters":38000,"station_id":"ce4bhpp2rcd13ifvqhgg","pricing_plan_id":"cebpf4jnsgd1na2vs0mg"},{"bike_id":"1aa61925-f4ba-4fd5-b1de-08db522586c3","system_id":"levelo_inurba_marseille","lat":43.27061,"lon":5.40258,"is_reserved":false,"is_disabled":false,"rental_uris":{"android":"levelo://app?vid=1aa61925-f4ba-4fd5-b1de-08db522586c3","ios":"levelo://app?vid=1aa61925-f4ba-4fd5-b1de-08db522586c3"},"vehicle_type_id":"4","last_reported":1733008133,"current_range_meters":38800,"station_id":"ce4bhk92rcd13ifvqgc0","pricing_plan_id":"cebpf4jnsgd1na2vs0mg"},{"bike_id":"0070cc2a-dd77-495c-a393-f90d92b16e6b","system_id":"levelo_inurba_marseille","lat":43.2811,"lon":5.37838,"is_reserved":false,"is_disabled":false,"rental_uris":{"android":"levelo://app?vid=0070cc2a-dd77-495c-a393-f90d92b16e6b","ios":"levelo://app?vid=0070cc2a-dd77-495c-a393-f90d92b16e6b"},"vehicle_type_id":"4","last_reported":1733008133,"current_range_meters":10800,"station_id":"ce4bha12rcd13ifvqee0","pricing_plan_id":"cebpf4jnsgd1na2vs0mg"},{"bike_id":"694ada16-62be-4cd2-822e-a4599887121c","system_id":"levelo_inurba_marseille","lat":43.23191,"lon":5.35557,"is_reserved":false,"is_disabled":false,"rental_uris":{"android":"levelo://app?vid=694ada16-62be-4cd2-822e-a4599887121c","ios":"levelo://app?vid=694ada16-62be-4cd2-822e-a4599887121c"},"vehicle_type_id":"4","last_reported":1733008133,"current_range_meters":34000,"station_id":"ce4bhu92rcd13ifvqi70","pricing_plan_id":"cebpf4jnsgd1na2vs0mg"},{"bike_id":"7936b650-539c-4ba6-92f7-79fb7e232143","system_id":"levelo_inurba_marseille","lat":43.30897,"lon":5.37189,"is_reserved":false,"is_disabled":false,"rental_uris":{"android":"levelo://app?vid=7936b650-539c-4ba6-92f7-79fb7e232143","ios":"levelo://app?vid=7936b650-539c-4ba6-92f7-79fb7e232143"},"vehicle_type_id":"4","last_reported":1733008133,"current_range_meters":27200,"station_id":"ce4bguh2rcd13ifvqckg","pricing_plan_id":"cebpf4jnsgd1na2vs0mg"},{"bike_id":"67fa2a9e-eed8-4ed6-bdd8-7d1023a52b4e","system_id":"levelo_inurba_marseille","lat":43.26937,"lon":5.38925,"is_reserved":false,"is_disabled":true,"rental_uris":{"android":"levelo://app?vid=67fa2a9e-eed8-4ed6-bdd8-7d1023a52b4e","ios":"levelo://app?vid=67fa2a9e-eed8-4ed6-bdd8-7d1023a52b4e"},"vehicle_type_id":"4","last_reported":1733008133,"current_range_meters":8400,"station_id":"ce4bhhh2rcd13ifvqfl0","pricing_plan_id":"cebpf4jnsgd1na2vs0mg"},{"bike_id":"6e3c9662-b6c0-481d-b17e-9063720b2584","system_id":"levelo_inurba_marseille","lat":43.289468,"lon":5.39666,"is_reserved":false,"is_disabled":false,"rental_uris":{"android":"levelo://app?vid=6e3c9662-b6c0-481d-b17e-9063720b2584","ios":"levelo://app?vid=6e3c9662-b6c0-481d-b17e-9063720b2584"},"vehicle_type_id":"4","last_reported":1733008133,"current_range_meters":12400,"station_id":"ce4bh3h2rcd13ifvqdn0","pricing_plan_id":"cebpf4jnsgd1na2vs0mg"},{"bike_id":"6bd29d51-cdaf-464d-8632-5d5f71be0ed4","system_id":"levelo_inurba_marseille","lat":43.27567,"lon":5.38421,"is_reserved":false,"is_disabled":false,"rental_uris":{"android":"levelo://app?vid=6bd29d51-cdaf-464d-8632-5d5f71be0ed4","ios":"levelo://app?vid=6bd29d51-cdaf-464d-8632-5d5f71be0ed4"},"vehicle_type_id":"4","last_reported":1733008133,"current_range_meters":16000,"station_id":"ce4bhh92rcd13ifvqfi0","pricing_plan_id":"cebpf4jnsgd1na2vs0mg"},{"bike_id":"f453dc37-c945-448b-80e2-38bae3f013a5","system_id":"levelo_inurba_marseille","lat":43.31984,"lon":5.38152,"is_reserved":false,"is_disabled":false,"rental_uris":{"android":"levelo://app?vid=f453dc37-c945-448b-80e2-38bae3f013a5","ios":"levelo://app?vid=f453dc37-c945-448b-80e2-38bae3f013a5"},"vehicle_type_id":"4","last_reported":1733008133,"current_range_meters":32400,"station_id":"ce4bhr12rcd13ifvqhpg","pricing_plan_id":"cebpf4jnsgd1na2vs0mg"},{"bike_id":"60d0d009-d791-4c47-9ce7-ec77d17beb97","system_id":"levelo_inurba_marseille","lat":43.29257,"lon":5.40899,"is_reserved":false,"is_disabled":false,"rental_uris":{"android":"levelo://app?vid=60d0d009-d791-4c47-9ce7-ec77d17beb97","ios":"levelo://app?vid=60d0d009-d791-4c47-9ce7-ec77d17beb97"},"vehicle_type_id":"4","last_reported":1733008133,"current_range_meters":9200,"station_id":"ce4bh192rcd13ifvqdc0","pricing_plan_id":"cebpf4jnsgd1na2vs0mg"},{"bike_id":"db859837-cb21-41ca-b64b-3ebed09d2649","system_id":"levelo_inurba_marseille","lat":43.26689,"lon":5.38275,"is_reserved":false,"is_disabled":false,"rental_uris":{"android":"levelo://app?vid=db859837-cb21-41ca-b64b-3ebed09d2649","ios":"levelo://app?vid=db859837-cb21-41ca-b64b-3ebed09d2649"},"vehicle_type_id":"4","last_reported":1733008133,"current_range_meters":38800,"station_id":"ce4bhg92rcd13ifvqf90","pricing_plan_id":"cebpf4jnsgd1na2vs0mg"},{"bike_id":"e12c81c6-9629-486c-8758-7915652128f3","system_id":"levelo_inurba_marseille","lat":43.26501,"lon":5.39536,"is_reserved":false,"is_disabled":false,"rental_uris":{"android":"levelo://app?vid=e12c81c6-9629-486c-8758-7915652128f3","ios":"levelo://app?vid=e12c81c6-9629-486c-8758-7915652128f3"},"vehicle_type_id":"4","last_reported":1733008133,"current_range_meters":7200,"station_id":"ce4bhi12rcd13ifvqfq0","pricing_plan_id":"cebpf4jnsgd1na2vs0mg"},{"bike_id":"19e9d73e-81b9-4898-a612-4a6c7d093668","system_id":"levelo_inurba_marseille","lat":43.27995,"lon":5.41662,"is_reserved":false,"is_disabled":false,"rental_uris":{"android":"levelo://app?vid=19e9d73e-81b9-4898-a612-4a6c7d093668","ios":"levelo://app?vid=19e9d73e-81b9-4898-a612-4a6c7d093668"},"vehicle_type_id":"4","last_reported":1733008133,"current_range_meters":37600,"station_id":"ce4bho12rcd13ifvqh1g","pricing_plan_id":"cebpf4jnsgd1na2vs0mg"},{"bike_id":"f8968860-9ebe-425f-866f-a253a48101dd","system_id":"levelo_inurba_marseille","lat":43.28453,"lon":5.3589,"is_reserved":false,"is_disabled":false,"rental_uris":{"android":"levelo://app?vid=f8968860-9ebe-425f-866f-a253a48101dd","ios":"levelo://app?vid=f8968860-9ebe-425f-866f-a253a48101dd"},"vehicle_type_id":"4","last_reported":1733008133,"current_range_meters":36400,"station_id":"ce4bhah2rcd13ifvqei0","pricing_plan_id":"cebpf4jnsgd1na2vs0mg"},{"bike_id":"bc749360-3ce4-4dd6-a0ac-83aa82c323a7","system_id":"levelo_inurba_marseille","lat":43.28154,"lon":5.42639,"is_reserved":false,"is_disabled":true,"rental_uris":{"android":"levelo://app?vid=bc749360-3ce4-4dd6-a0ac-83aa82c323a7","ios":"levelo://app?vid=bc749360-3ce4-4dd6-a0ac-83aa82c323a7"},"vehicle_type_id":"4","last_reported":1733008133,"current_range_meters":33200,"station_id":"ce4bhnh2rcd13ifvqgug","pricing_plan_id":"cebpf4jnsgd1na2vs0mg"},{"bike_id":"1eaa8eb8-3e87-4864-93e4-a2ffda1eacc8","system_id":"levelo_inurba_marseille","lat":43.28426,"lon":5.34991,"is_reserved":false,"is_disabled":false,"rental_uris":{"android":"levelo://app?vid=1eaa8eb8-3e87-4864-93e4-a2ffda1eacc8","ios":"levelo://app?vid=1eaa8eb8-3e87-4864-93e4-a2ffda1eacc8"},"vehicle_type_id":"4","last_reported":1733008133,"current_range_meters":38400,"station_id":"ce4bhbh2rcd13ifvqepg","pricing_plan_id":"cebpf4jnsgd1na2vs0mg"},{"bike_id":"0c121fdf-68e5-4b36-b3e7-e4c85e4a5bd4","system_id":"levelo_inurba_marseille","lat":43.24806,"lon":5.37455,"is_reserved":false,"is_disabled":false,"rental_uris":{"android":"levelo://app?vid=0c121fdf-68e5-4b36-b3e7-e4c85e4a5bd4","ios":"levelo://app?vid=0c121fdf-68e5-4b36-b3e7-e4c85e4a5bd4"},"vehicle_type_id":"4","last_reported":1733008133,"current_range_meters":38800,"station_id":"ce4bhgh2rcd13ifvqfb0","pricing_plan_id":"cebpf4jnsgd1na2vs0mg"},{"bike_id":"4d4c884f-6933-49c0-8899-f9856d90f44d","system_id":"levelo_inurba_marseille","lat":43.29748,"lon":5.37971,"is_reserved":false,"is_disabled":true,"rental_uris":{"android":"levelo://app?vid=4d4c884f-6933-49c0-8899-f9856d90f44d","ios":"levelo://app?vid=4d4c884f-6933-49c0-8899-f9856d90f44d"},"vehicle_type_id":"4","last_reported":1733008133,"current_range_meters":0,"station_id":"","pricing_plan_id":"cebpf4jnsgd1na2vs0mg"},{"bike_id":"49383f8c-5e0c-4bb5-aa2b-e1c81f4536f3","system_id":"levelo_inurba_marseille","lat":43.32295,"lon":5.38257,"is_reserved":false,"is_disabled":false,"rental_uris":{"android":"levelo://app?vid=49383f8c-5e0c-4bb5-aa2b-e1c81f4536f3","ios":"levelo://app?vid=49383f8c-5e0c-4bb5-aa2b-e1c81f4536f3"},"vehicle_type_id":"4","last_reported":1733008133,"current_range_meters":28000,"station_id":"ce4bhr12rcd13ifvqhqg","pricing_plan_id":"cebpf4jnsgd1na2vs0mg"},{"bike_id":"f7455a6c-c65d-4e6c-9ebd-2ff9d8dfb8d3","system_id":"levelo_inurba_marseille","lat":43.29078,"lon":5.3715,"is_reserved":false,"is_disabled":false,"rental_uris":{"android":"levelo://app?vid=f7455a6c-c65d-4e6c-9ebd-2ff9d8dfb8d3","ios":"levelo://app?vid=f7455a6c-c65d-4e6c-9ebd-2ff9d8dfb8d3"},"vehicle_type_id":"4","last_reported":1733008133,"current_range_meters":23200,"station_id":"ce4bh5p2rcd13ifvqe4g","pricing_plan_id":"cebpf4jnsgd1na2vs0mg"},{"bike_id":"2f7e0fba-e7a1-4b1c-bbd5-6cc697e1f3a4","system_id":"levelo_inurba_marseille","lat":43.27207,"lon":5.39187,"is_reserved":false,"is_disabled":false,"rental_uris":{"android":"levelo://app?vid=2f7e0fba-e7a1-4b1c-bbd5-6cc697e1f3a4","ios":"levelo://app?vid=2f7e0fba-e7a1-4b1c-bbd5-6cc697e1f3a4"},"vehicle_type_id":"4","last_reported":1733008133,"current_range_meters":39200,"station_id":"ce4bhhp2rcd13ifvqfm0","pricing_plan_id":"cebpf4jnsgd1na2vs0mg"},{"bike_id":"508e99d3-eb30-4039-9dc9-672fe0ea36b7","system_id":"levelo_inurba_marseille","lat":43.27575,"lon":5.38419,"is_reserved":false,"is_disabled":false,"rental_uris":{"android":"levelo://app?vid=508e99d3-eb30-4039-9dc9-672fe0ea36b7","ios":"levelo://app?vid=508e99d3-eb30-4039-9dc9-672fe0ea36b7"},"vehicle_type_id":"4","last_reported":1733008133,"current_range_meters":30400,"station_id":"ce4bhh92rcd13ifvqfi0","pricing_plan_id":"cebpf4jnsgd1na2vs0mg"},{"bike_id":"9009be37-c6b1-406b-b0a8-fbab355f715e","system_id":"levelo_inurba_marseille","lat":43.33763,"lon":5.37495,"is_reserved":false,"is_disabled":false,"rental_uris":{"android":"levelo://app?vid=9009be37-c6b1-406b-b0a8-fbab355f715e","ios":"levelo://app?vid=9009be37-c6b1-406b-b0a8-fbab355f715e"},"vehicle_type_id":"4","last_reported":1733008133,"current_range_meters":34800,"station_id":"","pricing_plan_id":"cebpf4jnsgd1na2vs0mg"},{"bike_id":"b7b33697-14a7-4110-9b8b-4194e6ef5f3f","system_id":"levelo_inurba_marseille","lat":43.27284,"lon":5.39199,"is_reserved":false,"is_disabled":true,"rental_uris":{"android":"levelo://app?vid=b7b33697-14a7-4110-9b8b-4194e6ef5f3f","ios":"levelo://app?vid=b7b33697-14a7-4110-9b8b-4194e6ef5f3f"},"vehicle_type_id":"4","last_reported":1733008133,"current_range_meters":0,"station_id":"","pricing_plan_id":"cebpf4jnsgd1na2vs0mg"},{"bike_id":"ac49fba4-30df-4893-b052-7d9d76fd86a2","system_id":"levelo_inurba_marseille","lat":43.29263,"lon":5.38429,"is_reserved":false,"is_disabled":true,"rental_uris":{"android":"levelo://app?vid=ac49fba4-30df-4893-b052-7d9d76fd86a2","ios":"levelo://app?vid=ac49fba4-30df-4893-b052-7d9d76fd86a2"},"vehicle_type_id":"4","last_reported":1733008133,"current_range_meters":16000,"station_id":"ce4bh692rcd13ifvqea0","pricing_plan_id":"cebpf4jnsgd1na2vs0mg"},{"bike_id":"a3d540a5-c9e8-4c92-9399-ec0baac57a71","system_id":"levelo_inurba_marseille","lat":43.29531,"lon":5.38535,"is_reserved":false,"is_disabled":true,"rental_uris":{"android":"levelo://app?vid=a3d540a5-c9e8-4c92-9399-ec0baac57a71","ios":"levelo://app?vid=a3d540a5-c9e8-4c92-9399-ec0baac57a71"},"vehicle_type_id":"4","last_reported":1733008133,"current_range_meters":37600,"station_id":"ce4bgih2rcd13ifvqba0","pricing_plan_id":"cebpf4jnsgd1na2vs0mg"},{"bike_id":"f8c96851-0afb-4e76-963e-6a283010bcce","system_id":"levelo_inurba_marseille","lat":43.25728,"lon":5.41111,"is_reserved":false,"is_disabled":false,"rental_uris":{"android":"levelo://app?vid=f8c96851-0afb-4e76-963e-6a283010bcce","ios":"levelo://app?vid=f8c96851-0afb-4e76-963e-6a283010bcce"},"vehicle_type_id":"4","last_reported":1733008133,"current_range_meters":14400,"station_id":"ce4bhkp2rcd13ifvqgd0","pricing_plan_id":"cebpf4jnsgd1na2vs0mg"},{"bike_id":"9342c0c7-ed7a-4b18-91d2-85c8ad7ff702","system_id":"levelo_inurba_marseille","lat":43.28715,"lon":5.37941,"is_reserved":false,"is_disabled":false,"rental_uris":{"android":"levelo://app?vid=9342c0c7-ed7a-4b18-91d2-85c8ad7ff702","ios":"levelo://app?vid=9342c0c7-ed7a-4b18-91d2-85c8ad7ff702"},"vehicle_type_id":"4","last_reported":1733008133,"current_range_meters":30400,"station_id":"ce4bh9p2rcd13ifvqec0","pricing_plan_id":"cebpf4jnsgd1na2vs0mg"},{"bike_id":"6728cc98-7cbb-4fa7-b025-24e2ca7300f1","system_id":"levelo_inurba_marseille","lat":43.25118,"lon":5.4032,"is_reserved":false,"is_disabled":false,"rental_uris":{"android":"levelo://app?vid=6728cc98-7cbb-4fa7-b025-24e2ca7300f1","ios":"levelo://app?vid=6728cc98-7cbb-4fa7-b025-24e2ca7300f1"},"vehicle_type_id":"4","last_reported":1733008133,"current_range_meters":32400,"station_id":"ce4bhlh2rcd13ifvqgig","pricing_plan_id":"cebpf4jnsgd1na2vs0mg"},{"bike_id":"3abdb507-aca9-41cf-ab5c-c13fb795c3a0","system_id":"levelo_inurba_marseille","lat":43.284054,"lon":5.349836,"is_reserved":false,"is_disabled":true,"rental_uris":{"android":"levelo://app?vid=3abdb507-aca9-41cf-ab5c-c13fb795c3a0","ios":"levelo://app?vid=3abdb507-aca9-41cf-ab5c-c13fb795c3a0"},"vehicle_type_id":"4","last_reported":1733008133,"current_range_meters":7200,"station_id":"ce4bhbh2rcd13ifvqepg","pricing_plan_id":"cebpf4jnsgd1na2vs0mg"},{"bike_id":"cc2b3d18-a038-4bc3-86be-7bfa09c84b01","system_id":"levelo_inurba_marseille","lat":43.32549,"lon":5.41443,"is_reserved":false,"is_disabled":false,"rental_uris":{"android":"levelo://app?vid=cc2b3d18-a038-4bc3-86be-7bfa09c84b01","ios":"levelo://app?vid=cc2b3d18-a038-4bc3-86be-7bfa09c84b01"},"vehicle_type_id":"4","last_reported":1733008133,"current_range_meters":38800,"station_id":"ce4bhq12rcd13ifvqhhg","pricing_plan_id":"cebpf4jnsgd1na2vs0mg"},{"bike_id":"7fda7038-d61c-405a-a660-6de6859d9497","system_id":"levelo_inurba_marseille","lat":43.32658,"lon":5.40988,"is_reserved":false,"is_disabled":false,"rental_uris":{"android":"levelo://app?vid=7fda7038-d61c-405a-a660-6de6859d9497","ios":"levelo://app?vid=7fda7038-d61c-405a-a660-6de6859d9497"},"vehicle_type_id":"4","last_reported":1733008133,"current_range_meters":37600,"station_id":"ce4bhpp2rcd13ifvqhgg","pricing_plan_id":"cebpf4jnsgd1na2vs0mg"},{"bike_id":"97b35c0e-7e77-4f0a-83fa-58fbc99a2959","system_id":"levelo_inurba_marseille","lat":43.337444,"lon":5.374475,"is_reserved":false,"is_disabled":false,"rental_uris":{"android":"levelo://app?vid=97b35c0e-7e77-4f0a-83fa-58fbc99a2959","ios":"levelo://app?vid=97b35c0e-7e77-4f0a-83fa-58fbc99a2959"},"vehicle_type_id":"4","last_reported":1733008133,"current_range_meters":33200,"station_id":"","pricing_plan_id":"cebpf4jnsgd1na2vs0mg"},{"bike_id":"90e6624d-f15b-40a9-aa21-66d0047fb8c0","system_id":"levelo_inurba_marseille","lat":43.33743,"lon":5.37458,"is_reserved":false,"is_disabled":false,"rental_uris":{"android":"levelo://app?vid=90e6624d-f15b-40a9-aa21-66d0047fb8c0","ios":"levelo://app?vid=90e6624d-f15b-40a9-aa21-66d0047fb8c0"},"vehicle_type_id":"4","last_reported":1733008133,"current_range_meters":8000,"station_id":"","pricing_plan_id":"cebpf4jnsgd1na2vs0mg"},{"bike_id":"b66fb375-1876-4d28-b6f1-9e22a60ae722","system_id":"levelo_inurba_marseille","lat":43.25821,"lon":5.39431,"is_reserved":false,"is_disabled":false,"rental_uris":{"android":"levelo://app?vid=b66fb375-1876-4d28-b6f1-9e22a60ae722","ios":"levelo://app?vid=b66fb375-1876-4d28-b6f1-9e22a60ae722"},"vehicle_type_id":"4","last_reported":1733008133,"current_range_meters":30000,"station_id":"ce4bhip2rcd13ifvqft0","pricing_plan_id":"cebpf4jnsgd1na2vs0mg"},{"bike_id":"0f2c3dea-2ab0-4ee6-a0d3-ab75daa9c1e8","system_id":"levelo_inurba_marseille","lat":43.29284,"lon":5.40123,"is_reserved":false,"is_disabled":false,"rental_uris":{"android":"levelo://app?vid=0f2c3dea-2ab0-4ee6-a0d3-ab75daa9c1e8","ios":"levelo://app?vid=0f2c3dea-2ab0-4ee6-a0d3-ab75daa9c1e8"},"vehicle_type_id":"4","last_reported":1733008133,"current_range_meters":24400,"station_id":"ce4bh312rcd13ifvqdk0","pricing_plan_id":"cebpf4jnsgd1na2vs0mg"},{"bike_id":"314d1365-c0f9-4b36-8299-e279909a774d","system_id":"levelo_inurba_marseille","lat":43.31214,"lon":5.36859,"is_reserved":false,"is_disabled":true,"rental_uris":{"android":"levelo://app?vid=314d1365-c0f9-4b36-8299-e279909a774d","ios":"levelo://app?vid=314d1365-c0f9-4b36-8299-e279909a774d"},"vehicle_type_id":"4","last_reported":1733008133,"current_range_meters":800,"station_id":"ce4bgl92rcd13ifvqbq0","pricing_plan_id":"cebpf4jnsgd1na2vs0mg"},{"bike_id":"6be96b9b-7bab-4bde-8448-355c0ed9f7a6","system_id":"levelo_inurba_marseille","lat":43.27314,"lon":5.39084,"is_reserved":false,"is_disabled":false,"rental_uris":{"android":"levelo://app?vid=6be96b9b-7bab-4bde-8448-355c0ed9f7a6","ios":"levelo://app?vid=6be96b9b-7bab-4bde-8448-355c0ed9f7a6"},"vehicle_type_id":"4","last_reported":1733008133,"current_range_meters":15200,"station_id":"ce4bhgp2rcd13ifvqfe0","pricing_plan_id":"cebpf4jnsgd1na2vs0mg"},{"bike_id":"256ed7b4-aff1-4687-9338-98ca1590cf7b","system_id":"levelo_inurba_marseille","lat":43.33746,"lon":5.37459,"is_reserved":false,"is_disabled":false,"rental_uris":{"android":"levelo://app?vid=256ed7b4-aff1-4687-9338-98ca1590cf7b","ios":"levelo://app?vid=256ed7b4-aff1-4687-9338-98ca1590cf7b"},"vehicle_type_id":"4","last_reported":1733008133,"current_range_meters":20400,"station_id":"","pricing_plan_id":"cebpf4jnsgd1na2vs0mg"},{"bike_id":"6e4c32a8-d3cb-4042-8d08-03d91616343f","system_id":"levelo_inurba_marseille","lat":43.2549,"lon":5.37648,"is_reserved":false,"is_disabled":false,"rental_uris":{"android":"levelo://app?vid=6e4c32a8-d3cb-4042-8d08-03d91616343f","ios":"levelo://app?vid=6e4c32a8-d3cb-4042-8d08-03d91616343f"},"vehicle_type_id":"4","last_reported":1733008133,"current_range_meters":38800,"station_id":"","pricing_plan_id":"cebpf4jnsgd1na2vs0mg"},{"bike_id":"064861a6-5a15-4e22-bc40-26ea165590ab","system_id":"levelo_inurba_marseille","lat":43.29194,"lon":5.39311,"is_reserved":false,"is_disabled":true,"rental_uris":{"android":"levelo://app?vid=064861a6-5a15-4e22-bc40-26ea165590ab","ios":"levelo://app?vid=064861a6-5a15-4e22-bc40-26ea165590ab"},"vehicle_type_id":"4","last_reported":1733008133,"current_range_meters":26800,"station_id":"ce4bh192rcd13ifvqdd0","pricing_plan_id":"cebpf4jnsgd1na2vs0mg"},{"bike_id":"fb000af6-86a2-4b6d-9c4e-382547f6d968","system_id":"levelo_inurba_marseille","lat":43.26555,"lon":5.3729,"is_reserved":false,"is_disabled":false,"rental_uris":{"android":"levelo://app?vid=fb000af6-86a2-4b6d-9c4e-382547f6d968","ios":"levelo://app?vid=fb000af6-86a2-4b6d-9c4e-382547f6d968"},"vehicle_type_id":"4","last_reported":1733008133,"current_range_meters":30000,"station_id":"ce4bhg12rcd13ifvqf70","pricing_plan_id":"cebpf4jnsgd1na2vs0mg"},{"bike_id":"0e62c0a4-c102-4e96-929e-fe1d0201d49a","system_id":"levelo_inurba_marseille","lat":43.27572,"lon":5.38419,"is_reserved":false,"is_disabled":false,"rental_uris":{"android":"levelo://app?vid=0e62c0a4-c102-4e96-929e-fe1d0201d49a","ios":"levelo://app?vid=0e62c0a4-c102-4e96-929e-fe1d0201d49a"},"vehicle_type_id":"4","last_reported":1733008133,"current_range_meters":34800,"station_id":"ce4bhh92rcd13ifvqfi0","pricing_plan_id":"cebpf4jnsgd1na2vs0mg"},{"bike_id":"e8fa7be1-2407-41a7-b843-e7c70f1917ef","system_id":"levelo_inurba_marseille","lat":43.27611,"lon":5.36109,"is_reserved":false,"is_disabled":true,"rental_uris":{"android":"levelo://app?vid=e8fa7be1-2407-41a7-b843-e7c70f1917ef","ios":"levelo://app?vid=e8fa7be1-2407-41a7-b843-e7c70f1917ef"},"vehicle_type_id":"4","last_reported":1733008133,"current_range_meters":0,"station_id":"ce4bgj92rcd13ifvqbe0","pricing_plan_id":"cebpf4jnsgd1na2vs0mg"},{"bike_id":"5b578828-f6fe-45c6-bc42-f426530b60bc","system_id":"levelo_inurba_marseille","lat":43.28264,"lon":5.35054,"is_reserved":false,"is_disabled":false,"rental_uris":{"android":"levelo://app?vid=5b578828-f6fe-45c6-bc42-f426530b60bc","ios":"levelo://app?vid=5b578828-f6fe-45c6-bc42-f426530b60bc"},"vehicle_type_id":"4","last_reported":1733008133,"current_range_meters":25600,"station_id":"ce4bhbp2rcd13ifvqerg","pricing_plan_id":"cebpf4jnsgd1na2vs0mg"},{"bike_id":"c5fc2cda-1a81-4e72-950f-b2ae923acedd","system_id":"levelo_inurba_marseille","lat":43.2756,"lon":5.38415,"is_reserved":false,"is_disabled":false,"rental_uris":{"android":"levelo://app?vid=c5fc2cda-1a81-4e72-950f-b2ae923acedd","ios":"levelo://app?vid=c5fc2cda-1a81-4e72-950f-b2ae923acedd"},"vehicle_type_id":"4","last_reported":1733008133,"current_range_meters":20000,"station_id":"ce4bhh92rcd13ifvqfi0","pricing_plan_id":"cebpf4jnsgd1na2vs0mg"},{"bike_id":"a4404dac-00c5-4861-a1ae-6d042a4030f1","system_id":"levelo_inurba_marseille","lat":43.33744,"lon":5.37462,"is_reserved":false,"is_disabled":false,"rental_uris":{"android":"levelo://app?vid=a4404dac-00c5-4861-a1ae-6d042a4030f1","ios":"levelo://app?vid=a4404dac-00c5-4861-a1ae-6d042a4030f1"},"vehicle_type_id":"4","last_reported":1733008133,"current_range_meters":6400,"station_id":"","pricing_plan_id":"cebpf4jnsgd1na2vs0mg"},{"bike_id":"f26ea1e5-518f-4702-b976-ccc14f5d1059","system_id":"levelo_inurba_marseille","lat":43.2926,"lon":5.38452,"is_reserved":false,"is_disabled":false,"rental_uris":{"android":"levelo://app?vid=f26ea1e5-518f-4702-b976-ccc14f5d1059","ios":"levelo://app?vid=f26ea1e5-518f-4702-b976-ccc14f5d1059"},"vehicle_type_id":"4","last_reported":1733008133,"current_range_meters":27600,"station_id":"ce4bh692rcd13ifvqea0","pricing_plan_id":"cebpf4jnsgd1na2vs0mg"},{"bike_id":"7a82f344-01f2-4599-bdcc-7e1342d2c58c","system_id":"levelo_inurba_marseille","lat":43.289337,"lon":5.363953,"is_reserved":false,"is_disabled":false,"rental_uris":{"android":"levelo://app?vid=7a82f344-01f2-4599-bdcc-7e1342d2c58c","ios":"levelo://app?vid=7a82f344-01f2-4599-bdcc-7e1342d2c58c"},"vehicle_type_id":"4","last_reported":1733008133,"current_range_meters":20000,"station_id":"ce4bhc92rcd13ifvqetg","pricing_plan_id":"cebpf4jnsgd1na2vs0mg"},{"bike_id":"99eb7eb9-bd1d-4ce7-a4f7-a6a9b0362636","system_id":"levelo_inurba_marseille","lat":43.32117,"lon":5.36763,"is_reserved":false,"is_disabled":false,"rental_uris":{"android":"levelo://app?vid=99eb7eb9-bd1d-4ce7-a4f7-a6a9b0362636","ios":"levelo://app?vid=99eb7eb9-bd1d-4ce7-a4f7-a6a9b0362636"},"vehicle_type_id":"4","last_reported":1733008133,"current_range_meters":20400,"station_id":"ce4bhrh2rcd13ifvqhug","pricing_plan_id":"cebpf4jnsgd1na2vs0mg"},{"bike_id":"ae110baa-6fa5-463d-9c19-2aa3237d6213","system_id":"levelo_inurba_marseille","lat":43.232,"lon":5.35538,"is_reserved":false,"is_disabled":false,"rental_uris":{"android":"levelo://app?vid=ae110baa-6fa5-463d-9c19-2aa3237d6213","ios":"levelo://app?vid=ae110baa-6fa5-463d-9c19-2aa3237d6213"},"vehicle_type_id":"4","last_reported":1733008133,"current_range_meters":24000,"station_id":"ce4bhu92rcd13ifvqi70","pricing_plan_id":"cebpf4jnsgd1na2vs0mg"},{"bike_id":"eb84d778-f8b0-4aba-be39-7acc8e4527fc","system_id":"levelo_inurba_marseille","lat":43.25114,"lon":5.40319,"is_reserved":false,"is_disabled":false,"rental_uris":{"android":"levelo://app?vid=eb84d778-f8b0-4aba-be39-7acc8e4527fc","ios":"levelo://app?vid=eb84d778-f8b0-4aba-be39-7acc8e4527fc"},"vehicle_type_id":"4","last_reported":1733008133,"current_range_meters":38800,"station_id":"ce4bhlh2rcd13ifvqgig","pricing_plan_id":"cebpf4jnsgd1na2vs0mg"},{"bike_id":"3d2323bb-85c9-46fb-93a1-985fd4eea11e","system_id":"levelo_inurba_marseille","lat":43.31713,"lon":5.43708,"is_reserved":false,"is_disabled":false,"rental_uris":{"android":"levelo://app?vid=3d2323bb-85c9-46fb-93a1-985fd4eea11e","ios":"levelo://app?vid=3d2323bb-85c9-46fb-93a1-985fd4eea11e"},"vehicle_type_id":"4","last_reported":1733008133,"current_range_meters":38800,"station_id":"ce4bhp92rcd13ifvqhcg","pricing_plan_id":"cebpf4jnsgd1na2vs0mg"},{"bike_id":"9700beae-0fbf-4e58-beda-d02b6fed27fe","system_id":"levelo_inurba_marseille","lat":43.337444,"lon":5.374475,"is_reserved":false,"is_disabled":false,"rental_uris":{"android":"levelo://app?vid=9700beae-0fbf-4e58-beda-d02b6fed27fe","ios":"levelo://app?vid=9700beae-0fbf-4e58-beda-d02b6fed27fe"},"vehicle_type_id":"4","last_reported":1733008133,"current_range_meters":36400,"station_id":"","pricing_plan_id":"cebpf4jnsgd1na2vs0mg"},{"bike_id":"a3239f7a-5811-45ee-a06a-24fca205e6da","system_id":"levelo_inurba_marseille","lat":43.2743,"lon":5.39411,"is_reserved":false,"is_disabled":false,"rental_uris":{"android":"levelo://app?vid=a3239f7a-5811-45ee-a06a-24fca205e6da","ios":"levelo://app?vid=a3239f7a-5811-45ee-a06a-24fca205e6da"},"vehicle_type_id":"4","last_reported":1733008133,"current_range_meters":35600,"station_id":"ce4bhdp2rcd13ifvqf20","pricing_plan_id":"cebpf4jnsgd1na2vs0mg"},{"bike_id":"d8111db7-3758-4677-b7ba-69de2a0f45f6","system_id":"levelo_inurba_marseille","lat":43.3112,"lon":5.37759,"is_reserved":false,"is_disabled":false,"rental_uris":{"android":"levelo://app?vid=d8111db7-3758-4677-b7ba-69de2a0f45f6","ios":"levelo://app?vid=d8111db7-3758-4677-b7ba-69de2a0f45f6"},"vehicle_type_id":"4","last_reported":1733008133,"current_range_meters":22000,"station_id":"ce4bgt92rcd13ifvqcg0","pricing_plan_id":"cebpf4jnsgd1na2vs0mg"},{"bike_id":"af12a5f9-720e-4019-987d-3779fe2b91a2","system_id":"levelo_inurba_marseille","lat":43.30824,"lon":5.37404,"is_reserved":false,"is_disabled":false,"rental_uris":{"android":"levelo://app?vid=af12a5f9-720e-4019-987d-3779fe2b91a2","ios":"levelo://app?vid=af12a5f9-720e-4019-987d-3779fe2b91a2"},"vehicle_type_id":"4","last_reported":1733008133,"current_range_meters":4400,"station_id":"","pricing_plan_id":"cebpf4jnsgd1na2vs0mg"},{"bike_id":"6b6a5383-a440-41bc-9605-0f4551990463","system_id":"levelo_inurba_marseille","lat":43.29285,"lon":5.4012,"is_reserved":false,"is_disabled":false,"rental_uris":{"android":"levelo://app?vid=6b6a5383-a440-41bc-9605-0f4551990463","ios":"levelo://app?vid=6b6a5383-a440-41bc-9605-0f4551990463"},"vehicle_type_id":"4","last_reported":1733008133,"current_range_meters":29600,"station_id":"ce4bh312rcd13ifvqdk0","pricing_plan_id":"cebpf4jnsgd1na2vs0mg"},{"bike_id":"bda343cf-e156-4d25-bead-67c2734e4d77","system_id":"levelo_inurba_marseille","lat":43.30429,"lon":5.38892,"is_reserved":false,"is_disabled":false,"rental_uris":{"android":"levelo://app?vid=bda343cf-e156-4d25-bead-67c2734e4d77","ios":"levelo://app?vid=bda343cf-e156-4d25-bead-67c2734e4d77"},"vehicle_type_id":"4","last_reported":1733008133,"current_range_meters":18000,"station_id":"ce4bgk12rcd13ifvqbi0","pricing_plan_id":"cebpf4jnsgd1na2vs0mg"},{"bike_id":"9d00939b-03b2-4fa3-b4bd-2fc4d1f73a03","system_id":"levelo_inurba_marseille","lat":43.2408,"lon":5.37755,"is_reserved":false,"is_disabled":false,"rental_uris":{"android":"levelo://app?vid=9d00939b-03b2-4fa3-b4bd-2fc4d1f73a03","ios":"levelo://app?vid=9d00939b-03b2-4fa3-b4bd-2fc4d1f73a03"},"vehicle_type_id":"4","last_reported":1733008133,"current_range_meters":11600,"station_id":"ce4bhnp2rcd13ifvqgvg","pricing_plan_id":"cebpf4jnsgd1na2vs0mg"},{"bike_id":"fb83408f-3dff-4038-95c5-15a16584c94a","system_id":"levelo_inurba_marseille","lat":43.27058,"lon":5.39225,"is_reserved":false,"is_disabled":false,"rental_uris":{"android":"levelo://app?vid=fb83408f-3dff-4038-95c5-15a16584c94a","ios":"levelo://app?vid=fb83408f-3dff-4038-95c5-15a16584c94a"},"vehicle_type_id":"4","last_reported":1733008133,"current_range_meters":6000,"station_id":"","pricing_plan_id":"cebpf4jnsgd1na2vs0mg"},{"bike_id":"1a35c333-eb42-4417-8eaa-9a2af37f5919","system_id":"levelo_inurba_marseille","lat":43.2694,"lon":5.4025,"is_reserved":false,"is_disabled":false,"rental_uris":{"android":"levelo://app?vid=1a35c333-eb42-4417-8eaa-9a2af37f5919","ios":"levelo://app?vid=1a35c333-eb42-4417-8eaa-9a2af37f5919"},"vehicle_type_id":"4","last_reported":1733008133,"current_range_meters":37600,"station_id":"cjm6bp8fraef2m0cb0m0","pricing_plan_id":"cebpf4jnsgd1na2vs0mg"},{"bike_id":"a81f0370-9437-4c42-a8c8-3783fbcc99f5","system_id":"levelo_inurba_marseille","lat":43.26058,"lon":5.39396,"is_reserved":false,"is_disabled":false,"rental_uris":{"android":"levelo://app?vid=a81f0370-9437-4c42-a8c8-3783fbcc99f5","ios":"levelo://app?vid=a81f0370-9437-4c42-a8c8-3783fbcc99f5"},"vehicle_type_id":"4","last_reported":1733008133,"current_range_meters":27200,"station_id":"ce4bhh92rcd13ifvqfj0","pricing_plan_id":"cebpf4jnsgd1na2vs0mg"},{"bike_id":"ce90fe35-4c38-40e8-9343-5a553139b0ec","system_id":"levelo_inurba_marseille","lat":43.29568,"lon":5.3753,"is_reserved":false,"is_disabled":false,"rental_uris":{"android":"levelo://app?vid=ce90fe35-4c38-40e8-9343-5a553139b0ec","ios":"levelo://app?vid=ce90fe35-4c38-40e8-9343-5a553139b0ec"},"vehicle_type_id":"4","last_reported":1733008133,"current_range_meters":26800,"station_id":"ce4bgh92rcd13ifvqb50","pricing_plan_id":"cebpf4jnsgd1na2vs0mg"},{"bike_id":"b214c4c4-5e35-4801-b2ae-a2bc8f411e25","system_id":"levelo_inurba_marseille","lat":43.2559,"lon":5.38224,"is_reserved":false,"is_disabled":false,"rental_uris":{"android":"levelo://app?vid=b214c4c4-5e35-4801-b2ae-a2bc8f411e25","ios":"levelo://app?vid=b214c4c4-5e35-4801-b2ae-a2bc8f411e25"},"vehicle_type_id":"4","last_reported":1733008133,"current_range_meters":25600,"station_id":"ce4bhih2rcd13ifvqfs0","pricing_plan_id":"cebpf4jnsgd1na2vs0mg"},{"bike_id":"4a2be555-d056-454c-bed3-fe781ba86f8e","system_id":"levelo_inurba_marseille","lat":43.25886,"lon":5.39954,"is_reserved":false,"is_disabled":true,"rental_uris":{"android":"levelo://app?vid=4a2be555-d056-454c-bed3-fe781ba86f8e","ios":"levelo://app?vid=4a2be555-d056-454c-bed3-fe781ba86f8e"},"vehicle_type_id":"4","last_reported":1733008133,"current_range_meters":0,"station_id":"","pricing_plan_id":"cebpf4jnsgd1na2vs0mg"},{"bike_id":"776dfc7d-3831-4a44-81a9-15ac51b2ba28","system_id":"levelo_inurba_marseille","lat":43.32482,"lon":5.36556,"is_reserved":false,"is_disabled":false,"rental_uris":{"android":"levelo://app?vid=776dfc7d-3831-4a44-81a9-15ac51b2ba28","ios":"levelo://app?vid=776dfc7d-3831-4a44-81a9-15ac51b2ba28"},"vehicle_type_id":"4","last_reported":1733008133,"current_range_meters":39200,"station_id":"ce4bhs12rcd13ifvqhvg","pricing_plan_id":"cebpf4jnsgd1na2vs0mg"},{"bike_id":"bdaf15ef-30a6-43fb-b654-b47fa5d101b0","system_id":"levelo_inurba_marseille","lat":43.23188,"lon":5.35552,"is_reserved":false,"is_disabled":false,"rental_uris":{"android":"levelo://app?vid=bdaf15ef-30a6-43fb-b654-b47fa5d101b0","ios":"levelo://app?vid=bdaf15ef-30a6-43fb-b654-b47fa5d101b0"},"vehicle_type_id":"4","last_reported":1733008133,"current_range_meters":32400,"station_id":"ce4bhu92rcd13ifvqi70","pricing_plan_id":"cebpf4jnsgd1na2vs0mg"},{"bike_id":"3514cf32-f5b9-4ece-ad78-2fbb554b81b6","system_id":"levelo_inurba_marseille","lat":43.25006,"lon":5.38914,"is_reserved":false,"is_disabled":false,"rental_uris":{"android":"levelo://app?vid=3514cf32-f5b9-4ece-ad78-2fbb554b81b6","ios":"levelo://app?vid=3514cf32-f5b9-4ece-ad78-2fbb554b81b6"},"vehicle_type_id":"4","last_reported":1733008133,"current_range_meters":22400,"station_id":"ce4bhgp2rcd13ifvqfd0","pricing_plan_id":"cebpf4jnsgd1na2vs0mg"},{"bike_id":"41329919-d8a6-4529-9c36-e6723e50ee60","system_id":"levelo_inurba_marseille","lat":43.303041,"lon":5.392064,"is_reserved":false,"is_disabled":true,"rental_uris":{"android":"levelo://app?vid=41329919-d8a6-4529-9c36-e6723e50ee60","ios":"levelo://app?vid=41329919-d8a6-4529-9c36-e6723e50ee60"},"vehicle_type_id":"4","last_reported":1733008133,"current_range_meters":33200,"station_id":"ce4bgkh2rcd13ifvqbk0","pricing_plan_id":"cebpf4jnsgd1na2vs0mg"},{"bike_id":"3ec2af63-7cba-4635-8a69-907574b70c71","system_id":"levelo_inurba_marseille","lat":43.23192,"lon":5.35549,"is_reserved":false,"is_disabled":false,"rental_uris":{"android":"levelo://app?vid=3ec2af63-7cba-4635-8a69-907574b70c71","ios":"levelo://app?vid=3ec2af63-7cba-4635-8a69-907574b70c71"},"vehicle_type_id":"4","last_reported":1733008133,"current_range_meters":18000,"station_id":"ce4bhu92rcd13ifvqi70","pricing_plan_id":"cebpf4jnsgd1na2vs0mg"},{"bike_id":"d8c01208-bed9-46e9-bd62-67737a6788cf","system_id":"levelo_inurba_marseille","lat":43.3211,"lon":5.36771,"is_reserved":false,"is_disabled":false,"rental_uris":{"android":"levelo://app?vid=d8c01208-bed9-46e9-bd62-67737a6788cf","ios":"levelo://app?vid=d8c01208-bed9-46e9-bd62-67737a6788cf"},"vehicle_type_id":"4","last_reported":1733008133,"current_range_meters":8000,"station_id":"ce4bhrh2rcd13ifvqhug","pricing_plan_id":"cebpf4jnsgd1na2vs0mg"},{"bike_id":"000b518d-442b-4752-8b9a-e2fc3654d286","system_id":"levelo_inurba_marseille","lat":43.29452,"lon":5.39753,"is_reserved":false,"is_disabled":true,"rental_uris":{"android":"levelo://app?vid=000b518d-442b-4752-8b9a-e2fc3654d286","ios":"levelo://app?vid=000b518d-442b-4752-8b9a-e2fc3654d286"},"vehicle_type_id":"4","last_reported":1733008133,"current_range_meters":20000,"station_id":"ce4bh3h2rcd13ifvqdo0","pricing_plan_id":"cebpf4jnsgd1na2vs0mg"},{"bike_id":"60fce107-d1e8-4c35-b800-132747357ae8","system_id":"levelo_inurba_marseille","lat":43.29529,"lon":5.38549,"is_reserved":false,"is_disabled":false,"rental_uris":{"android":"levelo://app?vid=60fce107-d1e8-4c35-b800-132747357ae8","ios":"levelo://app?vid=60fce107-d1e8-4c35-b800-132747357ae8"},"vehicle_type_id":"4","last_reported":1733008133,"current_range_meters":19600,"station_id":"ce4bgih2rcd13ifvqba0","pricing_plan_id":"cebpf4jnsgd1na2vs0mg"},{"bike_id":"0f87cd88-4544-4bea-8a03-96998f957fbe","system_id":"levelo_inurba_marseille","lat":43.30435,"lon":5.38878,"is_reserved":false,"is_disabled":true,"rental_uris":{"android":"levelo://app?vid=0f87cd88-4544-4bea-8a03-96998f957fbe","ios":"levelo://app?vid=0f87cd88-4544-4bea-8a03-96998f957fbe"},"vehicle_type_id":"4","last_reported":1733008133,"current_range_meters":0,"station_id":"ce4bgk12rcd13ifvqbi0","pricing_plan_id":"cebpf4jnsgd1na2vs0mg"},{"bike_id":"f1f635b4-0a6b-4ee6-903a-41289ec89338","system_id":"levelo_inurba_marseille","lat":43.28109,"lon":5.37837,"is_reserved":false,"is_disabled":false,"rental_uris":{"android":"levelo://app?vid=f1f635b4-0a6b-4ee6-903a-41289ec89338","ios":"levelo://app?vid=f1f635b4-0a6b-4ee6-903a-41289ec89338"},"vehicle_type_id":"4","last_reported":1733008133,"current_range_meters":16800,"station_id":"ce4bha12rcd13ifvqee0","pricing_plan_id":"cebpf4jnsgd1na2vs0mg"},{"bike_id":"0a5acc80-fea9-44db-83d8-523278fc3b4c","system_id":"levelo_inurba_marseille","lat":43.30894,"lon":5.37188,"is_reserved":false,"is_disabled":false,"rental_uris":{"android":"levelo://app?vid=0a5acc80-fea9-44db-83d8-523278fc3b4c","ios":"levelo://app?vid=0a5acc80-fea9-44db-83d8-523278fc3b4c"},"vehicle_type_id":"4","last_reported":1733008133,"current_range_meters":38000,"station_id":"ce4bguh2rcd13ifvqckg","pricing_plan_id":"cebpf4jnsgd1na2vs0mg"},{"bike_id":"f6942291-7a82-4d8c-b8ae-7b3e01158428","system_id":"levelo_inurba_marseille","lat":43.29312,"lon":5.37466,"is_reserved":false,"is_disabled":false,"rental_uris":{"android":"levelo://app?vid=f6942291-7a82-4d8c-b8ae-7b3e01158428","ios":"levelo://app?vid=f6942291-7a82-4d8c-b8ae-7b3e01158428"},"vehicle_type_id":"4","last_reported":1733008133,"current_range_meters":34800,"station_id":"ce4bgi12rcd13ifvqb70","pricing_plan_id":"cebpf4jnsgd1na2vs0mg"},{"bike_id":"46ff8c36-054b-43fc-9049-19f6b7dce285","system_id":"levelo_inurba_marseille","lat":43.24184,"lon":5.39721,"is_reserved":false,"is_disabled":false,"rental_uris":{"android":"levelo://app?vid=46ff8c36-054b-43fc-9049-19f6b7dce285","ios":"levelo://app?vid=46ff8c36-054b-43fc-9049-19f6b7dce285"},"vehicle_type_id":"4","last_reported":1733008133,"current_range_meters":12800,"station_id":"ce4bhn12rcd13ifvqgpg","pricing_plan_id":"cebpf4jnsgd1na2vs0mg"},{"bike_id":"26a3d18a-8b88-47f9-a427-67cb4713704c","system_id":"levelo_inurba_marseille","lat":43.28371,"lon":5.38648,"is_reserved":false,"is_disabled":false,"rental_uris":{"android":"levelo://app?vid=26a3d18a-8b88-47f9-a427-67cb4713704c","ios":"levelo://app?vid=26a3d18a-8b88-47f9-a427-67cb4713704c"},"vehicle_type_id":"4","last_reported":1733008133,"current_range_meters":38800,"station_id":"ce4bh492rcd13ifvqdvg","pricing_plan_id":"cebpf4jnsgd1na2vs0mg"},{"bike_id":"21d95713-8a92-4bd3-ad43-a6b370801048","system_id":"levelo_inurba_marseille","lat":43.27429,"lon":5.39413,"is_reserved":false,"is_disabled":false,"rental_uris":{"android":"levelo://app?vid=21d95713-8a92-4bd3-ad43-a6b370801048","ios":"levelo://app?vid=21d95713-8a92-4bd3-ad43-a6b370801048"},"vehicle_type_id":"4","last_reported":1733008133,"current_range_meters":28000,"station_id":"ce4bhdp2rcd13ifvqf20","pricing_plan_id":"cebpf4jnsgd1na2vs0mg"},{"bike_id":"b535dfd0-ec01-4a13-996f-71245b6113cc","system_id":"levelo_inurba_marseille","lat":43.27978,"lon":5.41229,"is_reserved":false,"is_disabled":true,"rental_uris":{"android":"levelo://app?vid=b535dfd0-ec01-4a13-996f-71245b6113cc","ios":"levelo://app?vid=b535dfd0-ec01-4a13-996f-71245b6113cc"},"vehicle_type_id":"4","last_reported":1733008133,"current_range_meters":400,"station_id":"","pricing_plan_id":"cebpf4jnsgd1na2vs0mg"},{"bike_id":"c3390fe1-5a17-4c42-97eb-e3e28db178a9","system_id":"levelo_inurba_marseille","lat":43.31326,"lon":5.39688,"is_reserved":false,"is_disabled":false,"rental_uris":{"android":"levelo://app?vid=c3390fe1-5a17-4c42-97eb-e3e28db178a9","ios":"levelo://app?vid=c3390fe1-5a17-4c42-97eb-e3e28db178a9"},"vehicle_type_id":"4","last_reported":1733008133,"current_range_meters":23200,"station_id":"ce4bgvp2rcd13ifvqcu0","pricing_plan_id":"cebpf4jnsgd1na2vs0mg"},{"bike_id":"3509e33d-c67e-427e-8254-df53d2cef4bd","system_id":"levelo_inurba_marseille","lat":43.27901,"lon":5.38009,"is_reserved":false,"is_disabled":false,"rental_uris":{"android":"levelo://app?vid=3509e33d-c67e-427e-8254-df53d2cef4bd","ios":"levelo://app?vid=3509e33d-c67e-427e-8254-df53d2cef4bd"},"vehicle_type_id":"4","last_reported":1733008133,"current_range_meters":13600,"station_id":"ce4bhf92rcd13ifvqf50","pricing_plan_id":"cebpf4jnsgd1na2vs0mg"},{"bike_id":"39b3f021-df75-4cd6-8b4e-a707899d7c80","system_id":"levelo_inurba_marseille","lat":43.28107,"lon":5.3783,"is_reserved":false,"is_disabled":false,"rental_uris":{"android":"levelo://app?vid=39b3f021-df75-4cd6-8b4e-a707899d7c80","ios":"levelo://app?vid=39b3f021-df75-4cd6-8b4e-a707899d7c80"},"vehicle_type_id":"4","last_reported":1733008133,"current_range_meters":14800,"station_id":"ce4bha12rcd13ifvqee0","pricing_plan_id":"cebpf4jnsgd1na2vs0mg"},{"bike_id":"a9536cf9-1546-4fa9-b064-a4f2cd515fd5","system_id":"levelo_inurba_marseille","lat":43.27567,"lon":5.38425,"is_reserved":false,"is_disabled":false,"rental_uris":{"android":"levelo://app?vid=a9536cf9-1546-4fa9-b064-a4f2cd515fd5","ios":"levelo://app?vid=a9536cf9-1546-4fa9-b064-a4f2cd515fd5"},"vehicle_type_id":"4","last_reported":1733008133,"current_range_meters":8000,"station_id":"ce4bhh92rcd13ifvqfi0","pricing_plan_id":"cebpf4jnsgd1na2vs0mg"},{"bike_id":"b642d79a-bd2c-495a-acdd-099583f67bf5","system_id":"levelo_inurba_marseille","lat":43.32285,"lon":5.38264,"is_reserved":false,"is_disabled":false,"rental_uris":{"android":"levelo://app?vid=b642d79a-bd2c-495a-acdd-099583f67bf5","ios":"levelo://app?vid=b642d79a-bd2c-495a-acdd-099583f67bf5"},"vehicle_type_id":"4","last_reported":1733008133,"current_range_meters":29600,"station_id":"ce4bhr12rcd13ifvqhqg","pricing_plan_id":"cebpf4jnsgd1na2vs0mg"},{"bike_id":"a52167db-f125-4082-b65e-e45e7d869308","system_id":"levelo_inurba_marseille","lat":43.2757,"lon":5.38427,"is_reserved":false,"is_disabled":false,"rental_uris":{"android":"levelo://app?vid=a52167db-f125-4082-b65e-e45e7d869308","ios":"levelo://app?vid=a52167db-f125-4082-b65e-e45e7d869308"},"vehicle_type_id":"4","last_reported":1733008133,"current_range_meters":24000,"station_id":"ce4bhh92rcd13ifvqfi0","pricing_plan_id":"cebpf4jnsgd1na2vs0mg"},{"bike_id":"aad4be0a-2a0d-4e6a-bfa0-4d4086eb2d91","system_id":"levelo_inurba_marseille","lat":43.23155,"lon":5.43708,"is_reserved":false,"is_disabled":false,"rental_uris":{"android":"levelo://app?vid=aad4be0a-2a0d-4e6a-bfa0-4d4086eb2d91","ios":"levelo://app?vid=aad4be0a-2a0d-4e6a-bfa0-4d4086eb2d91"},"vehicle_type_id":"4","last_reported":1733008133,"current_range_meters":36800,"station_id":"ce4bhmp2rcd13ifvqgog","pricing_plan_id":"cebpf4jnsgd1na2vs0mg"},{"bike_id":"d82dd79b-4292-4ee6-a33d-922a6af5f6a0","system_id":"levelo_inurba_marseille","lat":43.2732,"lon":5.39076,"is_reserved":false,"is_disabled":false,"rental_uris":{"android":"levelo://app?vid=d82dd79b-4292-4ee6-a33d-922a6af5f6a0","ios":"levelo://app?vid=d82dd79b-4292-4ee6-a33d-922a6af5f6a0"},"vehicle_type_id":"4","last_reported":1733008133,"current_range_meters":26000,"station_id":"ce4bhgp2rcd13ifvqfe0","pricing_plan_id":"cebpf4jnsgd1na2vs0mg"},{"bike_id":"5b9d6f48-f6d1-42ec-91ce-2705b20346f7","system_id":"levelo_inurba_marseille","lat":43.276203,"lon":5.361097,"is_reserved":false,"is_disabled":true,"rental_uris":{"android":"levelo://app?vid=5b9d6f48-f6d1-42ec-91ce-2705b20346f7","ios":"levelo://app?vid=5b9d6f48-f6d1-42ec-91ce-2705b20346f7"},"vehicle_type_id":"4","last_reported":1733008133,"current_range_meters":0,"station_id":"ce4bgj92rcd13ifvqbe0","pricing_plan_id":"cebpf4jnsgd1na2vs0mg"},{"bike_id":"dfae53f2-2072-45ad-83ba-eb288c672871","system_id":"levelo_inurba_marseille","lat":43.3089,"lon":5.372,"is_reserved":false,"is_disabled":false,"rental_uris":{"android":"levelo://app?vid=dfae53f2-2072-45ad-83ba-eb288c672871","ios":"levelo://app?vid=dfae53f2-2072-45ad-83ba-eb288c672871"},"vehicle_type_id":"4","last_reported":1733008133,"current_range_meters":38800,"station_id":"ce4bguh2rcd13ifvqckg","pricing_plan_id":"cebpf4jnsgd1na2vs0mg"},{"bike_id":"0174841e-8011-4a7b-bd18-480101bee765","system_id":"levelo_inurba_marseille","lat":43.23957,"lon":5.36633,"is_reserved":false,"is_disabled":true,"rental_uris":{"android":"levelo://app?vid=0174841e-8011-4a7b-bd18-480101bee765","ios":"levelo://app?vid=0174841e-8011-4a7b-bd18-480101bee765"},"vehicle_type_id":"4","last_reported":1733008133,"current_range_meters":0,"station_id":"ce4bhi12rcd13ifvqfp0","pricing_plan_id":"cebpf4jnsgd1na2vs0mg"},{"bike_id":"2f9124fa-7b40-40b2-86af-7b12677b6ca1","system_id":"levelo_inurba_marseille","lat":43.29279,"lon":5.40182,"is_reserved":false,"is_disabled":false,"rental_uris":{"android":"levelo://app?vid=2f9124fa-7b40-40b2-86af-7b12677b6ca1","ios":"levelo://app?vid=2f9124fa-7b40-40b2-86af-7b12677b6ca1"},"vehicle_type_id":"4","last_reported":1733008133,"current_range_meters":35600,"station_id":"ce4bh312rcd13ifvqdk0","pricing_plan_id":"cebpf4jnsgd1na2vs0mg"},{"bike_id":"c649ed6b-e213-48f4-9ad0-c15ff1fb4287","system_id":"levelo_inurba_marseille","lat":43.30556,"lon":5.39925,"is_reserved":false,"is_disabled":false,"rental_uris":{"android":"levelo://app?vid=c649ed6b-e213-48f4-9ad0-c15ff1fb4287","ios":"levelo://app?vid=c649ed6b-e213-48f4-9ad0-c15ff1fb4287"},"vehicle_type_id":"4","last_reported":1733008133,"current_range_meters":38000,"station_id":"ce4bgvp2rcd13ifvqct0","pricing_plan_id":"cebpf4jnsgd1na2vs0mg"},{"bike_id":"1535eed4-64e0-4c8d-9917-169fda5b86c5","system_id":"levelo_inurba_marseille","lat":43.27922,"lon":5.39583,"is_reserved":false,"is_disabled":false,"rental_uris":{"android":"levelo://app?vid=1535eed4-64e0-4c8d-9917-169fda5b86c5","ios":"levelo://app?vid=1535eed4-64e0-4c8d-9917-169fda5b86c5"},"vehicle_type_id":"4","last_reported":1733008133,"current_range_meters":27200,"station_id":"ce4bhf92rcd13ifvqf40","pricing_plan_id":"cebpf4jnsgd1na2vs0mg"},{"bike_id":"a233b25b-869e-422b-bf5e-63d3d8ff686f","system_id":"levelo_inurba_marseille","lat":43.30935,"lon":5.40137,"is_reserved":false,"is_disabled":true,"rental_uris":{"android":"levelo://app?vid=a233b25b-869e-422b-bf5e-63d3d8ff686f","ios":"levelo://app?vid=a233b25b-869e-422b-bf5e-63d3d8ff686f"},"vehicle_type_id":"4","last_reported":1733008133,"current_range_meters":29600,"station_id":"ce4bgvp2rcd13ifvqct0","pricing_plan_id":"cebpf4jnsgd1na2vs0mg"},{"bike_id":"beedd42b-11d1-4bd9-a3b7-2b7ebaf524b2","system_id":"levelo_inurba_marseille","lat":43.31709,"lon":5.37784,"is_reserved":false,"is_disabled":false,"rental_uris":{"android":"levelo://app?vid=beedd42b-11d1-4bd9-a3b7-2b7ebaf524b2","ios":"levelo://app?vid=beedd42b-11d1-4bd9-a3b7-2b7ebaf524b2"},"vehicle_type_id":"4","last_reported":1733008133,"current_range_meters":36800,"station_id":"ce4bgth2rcd13ifvqch0","pricing_plan_id":"cebpf4jnsgd1na2vs0mg"},{"bike_id":"7db095fe-335f-455d-9456-2582bbc72d93","system_id":"levelo_inurba_marseille","lat":43.29843,"lon":5.4363,"is_reserved":false,"is_disabled":false,"rental_uris":{"android":"levelo://app?vid=7db095fe-335f-455d-9456-2582bbc72d93","ios":"levelo://app?vid=7db095fe-335f-455d-9456-2582bbc72d93"},"vehicle_type_id":"4","last_reported":1733008133,"current_range_meters":20800,"station_id":"ce4bhpp2rcd13ifvqhfg","pricing_plan_id":"cebpf4jnsgd1na2vs0mg"},{"bike_id":"8b6e6175-7f08-4801-9f30-4f66c567836a","system_id":"levelo_inurba_marseille","lat":43.30469,"lon":5.37912,"is_reserved":false,"is_disabled":false,"rental_uris":{"android":"levelo://app?vid=8b6e6175-7f08-4801-9f30-4f66c567836a","ios":"levelo://app?vid=8b6e6175-7f08-4801-9f30-4f66c567836a"},"vehicle_type_id":"4","last_reported":1733008133,"current_range_meters":35200,"station_id":"ce4bgup2rcd13ifvqcn0","pricing_plan_id":"cebpf4jnsgd1na2vs0mg"},{"bike_id":"ddbda7d5-c035-4416-b36b-d29a627465ea","system_id":"levelo_inurba_marseille","lat":43.25009,"lon":5.38927,"is_reserved":false,"is_disabled":false,"rental_uris":{"android":"levelo://app?vid=ddbda7d5-c035-4416-b36b-d29a627465ea","ios":"levelo://app?vid=ddbda7d5-c035-4416-b36b-d29a627465ea"},"vehicle_type_id":"4","last_reported":1733008133,"current_range_meters":39200,"station_id":"ce4bhgp2rcd13ifvqfd0","pricing_plan_id":"cebpf4jnsgd1na2vs0mg"},{"bike_id":"3c8aa567-f54c-4504-a46b-7a7ef84e80d1","system_id":"levelo_inurba_marseille","lat":43.30265,"lon":5.40071,"is_reserved":false,"is_disabled":false,"rental_uris":{"android":"levelo://app?vid=3c8aa567-f54c-4504-a46b-7a7ef84e80d1","ios":"levelo://app?vid=3c8aa567-f54c-4504-a46b-7a7ef84e80d1"},"vehicle_type_id":"4","last_reported":1733008133,"current_range_meters":9600,"station_id":"ce4bgvh2rcd13ifvqcs0","pricing_plan_id":"cebpf4jnsgd1na2vs0mg"},{"bike_id":"278b44ce-602e-4d8f-983b-9ca29d576da9","system_id":"levelo_inurba_marseille","lat":43.30139,"lon":5.3874,"is_reserved":false,"is_disabled":false,"rental_uris":{"android":"levelo://app?vid=278b44ce-602e-4d8f-983b-9ca29d576da9","ios":"levelo://app?vid=278b44ce-602e-4d8f-983b-9ca29d576da9"},"vehicle_type_id":"4","last_reported":1733008133,"current_range_meters":36800,"station_id":"ce4bgj92rcd13ifvqbd0","pricing_plan_id":"cebpf4jnsgd1na2vs0mg"},{"bike_id":"42dff1c4-6053-46d6-ab14-2b44877e8b55","system_id":"levelo_inurba_marseille","lat":43.28443,"lon":5.39187,"is_reserved":false,"is_disabled":true,"rental_uris":{"android":"levelo://app?vid=42dff1c4-6053-46d6-ab14-2b44877e8b55","ios":"levelo://app?vid=42dff1c4-6053-46d6-ab14-2b44877e8b55"},"vehicle_type_id":"4","last_reported":1733008133,"current_range_meters":38800,"station_id":"ce4bhoh2rcd13ifvqh5g","pricing_plan_id":"cebpf4jnsgd1na2vs0mg"},{"bike_id":"27d13c7a-6338-48dc-81dd-618b3e4ff60b","system_id":"levelo_inurba_marseille","lat":43.28335,"lon":5.38636,"is_reserved":false,"is_disabled":true,"rental_uris":{"android":"levelo://app?vid=27d13c7a-6338-48dc-81dd-618b3e4ff60b","ios":"levelo://app?vid=27d13c7a-6338-48dc-81dd-618b3e4ff60b"},"vehicle_type_id":"4","last_reported":1733008133,"current_range_meters":37600,"station_id":"ce4bh492rcd13ifvqdvg","pricing_plan_id":"cebpf4jnsgd1na2vs0mg"},{"bike_id":"4c8314eb-3d1a-47ee-9e78-736f194ad865","system_id":"levelo_inurba_marseille","lat":43.26067,"lon":5.39394,"is_reserved":false,"is_disabled":false,"rental_uris":{"android":"levelo://app?vid=4c8314eb-3d1a-47ee-9e78-736f194ad865","ios":"levelo://app?vid=4c8314eb-3d1a-47ee-9e78-736f194ad865"},"vehicle_type_id":"4","last_reported":1733008133,"current_range_meters":6800,"station_id":"ce4bhh92rcd13ifvqfj0","pricing_plan_id":"cebpf4jnsgd1na2vs0mg"},{"bike_id":"13151158-c4ba-49c7-a920-9a61c5dd56f2","system_id":"levelo_inurba_marseille","lat":43.23963,"lon":5.36619,"is_reserved":false,"is_disabled":true,"rental_uris":{"android":"levelo://app?vid=13151158-c4ba-49c7-a920-9a61c5dd56f2","ios":"levelo://app?vid=13151158-c4ba-49c7-a920-9a61c5dd56f2"},"vehicle_type_id":"4","last_reported":1733008133,"current_range_meters":0,"station_id":"ce4bhi12rcd13ifvqfp0","pricing_plan_id":"cebpf4jnsgd1na2vs0mg"},{"bike_id":"56cb3e7c-6c87-4cfb-90a4-655a05f8edd6","system_id":"levelo_inurba_marseille","lat":43.28271,"lon":5.35061,"is_reserved":false,"is_disabled":false,"rental_uris":{"android":"levelo://app?vid=56cb3e7c-6c87-4cfb-90a4-655a05f8edd6","ios":"levelo://app?vid=56cb3e7c-6c87-4cfb-90a4-655a05f8edd6"},"vehicle_type_id":"4","last_reported":1733008133,"current_range_meters":39200,"station_id":"ce4bhbp2rcd13ifvqerg","pricing_plan_id":"cebpf4jnsgd1na2vs0mg"},{"bike_id":"709fba4f-cca8-4e5a-ae0a-a636f0e935fd","system_id":"levelo_inurba_marseille","lat":43.26953,"lon":5.38638,"is_reserved":false,"is_disabled":false,"rental_uris":{"android":"levelo://app?vid=709fba4f-cca8-4e5a-ae0a-a636f0e935fd","ios":"levelo://app?vid=709fba4f-cca8-4e5a-ae0a-a636f0e935fd"},"vehicle_type_id":"4","last_reported":1733008133,"current_range_meters":37600,"station_id":"ce4bhh92rcd13ifvqfh0","pricing_plan_id":"cebpf4jnsgd1na2vs0mg"},{"bike_id":"acf4a756-d86a-4aba-99d9-8148b7db3378","system_id":"levelo_inurba_marseille","lat":43.27983,"lon":5.40005,"is_reserved":false,"is_disabled":true,"rental_uris":{"android":"levelo://app?vid=acf4a756-d86a-4aba-99d9-8148b7db3378","ios":"levelo://app?vid=acf4a756-d86a-4aba-99d9-8148b7db3378"},"vehicle_type_id":"4","last_reported":1733008133,"current_range_meters":0,"station_id":"ce4bho92rcd13ifvqh4g","pricing_plan_id":"cebpf4jnsgd1na2vs0mg"},{"bike_id":"4018fb8f-45f3-45d0-a054-90a03257f3a3","system_id":"levelo_inurba_marseille","lat":43.28321,"lon":5.40541,"is_reserved":false,"is_disabled":false,"rental_uris":{"android":"levelo://app?vid=4018fb8f-45f3-45d0-a054-90a03257f3a3","ios":"levelo://app?vid=4018fb8f-45f3-45d0-a054-90a03257f3a3"},"vehicle_type_id":"4","last_reported":1733008133,"current_range_meters":25200,"station_id":"","pricing_plan_id":"cebpf4jnsgd1na2vs0mg"},{"bike_id":"bd33aa9a-afe0-4700-8ca6-8c1ee29f6ca4","system_id":"levelo_inurba_marseille","lat":43.29266,"lon":5.38432,"is_reserved":false,"is_disabled":false,"rental_uris":{"android":"levelo://app?vid=bd33aa9a-afe0-4700-8ca6-8c1ee29f6ca4","ios":"levelo://app?vid=bd33aa9a-afe0-4700-8ca6-8c1ee29f6ca4"},"vehicle_type_id":"4","last_reported":1733008133,"current_range_meters":24000,"station_id":"ce4bh692rcd13ifvqea0","pricing_plan_id":"cebpf4jnsgd1na2vs0mg"},{"bike_id":"00380040-c3b4-4225-abdf-20f91c43c884","system_id":"levelo_inurba_marseille","lat":43.27891,"lon":5.38007,"is_reserved":false,"is_disabled":false,"rental_uris":{"android":"levelo://app?vid=00380040-c3b4-4225-abdf-20f91c43c884","ios":"levelo://app?vid=00380040-c3b4-4225-abdf-20f91c43c884"},"vehicle_type_id":"4","last_reported":1733008133,"current_range_meters":9200,"station_id":"ce4bhf92rcd13ifvqf50","pricing_plan_id":"cebpf4jnsgd1na2vs0mg"},{"bike_id":"bf90ad09-e6e7-4668-aa9a-310cf4302135","system_id":"levelo_inurba_marseille","lat":43.27319,"lon":5.39074,"is_reserved":false,"is_disabled":false,"rental_uris":{"android":"levelo://app?vid=bf90ad09-e6e7-4668-aa9a-310cf4302135","ios":"levelo://app?vid=bf90ad09-e6e7-4668-aa9a-310cf4302135"},"vehicle_type_id":"4","last_reported":1733008133,"current_range_meters":23200,"station_id":"ce4bhgp2rcd13ifvqfe0","pricing_plan_id":"cebpf4jnsgd1na2vs0mg"},{"bike_id":"18299652-2a9d-4717-aa6c-9d08b0165b52","system_id":"levelo_inurba_marseille","lat":43.33026,"lon":5.39039,"is_reserved":false,"is_disabled":false,"rental_uris":{"android":"levelo://app?vid=18299652-2a9d-4717-aa6c-9d08b0165b52","ios":"levelo://app?vid=18299652-2a9d-4717-aa6c-9d08b0165b52"},"vehicle_type_id":"4","last_reported":1733008133,"current_range_meters":40000,"station_id":"ce4bhr92rcd13ifvqhrg","pricing_plan_id":"cebpf4jnsgd1na2vs0mg"},{"bike_id":"e0161261-fd33-45e3-8038-51d77778a6b0","system_id":"levelo_inurba_marseille","lat":43.30657,"lon":5.40095,"is_reserved":false,"is_disabled":true,"rental_uris":{"android":"levelo://app?vid=e0161261-fd33-45e3-8038-51d77778a6b0","ios":"levelo://app?vid=e0161261-fd33-45e3-8038-51d77778a6b0"},"vehicle_type_id":"4","last_reported":1733008133,"current_range_meters":38000,"station_id":"ce4bh112rcd13ifvqda0","pricing_plan_id":"cebpf4jnsgd1na2vs0mg"},{"bike_id":"f4d19859-dbfb-4982-b796-c8007145699f","system_id":"levelo_inurba_marseille","lat":43.28614,"lon":5.35102,"is_reserved":false,"is_disabled":true,"rental_uris":{"android":"levelo://app?vid=f4d19859-dbfb-4982-b796-c8007145699f","ios":"levelo://app?vid=f4d19859-dbfb-4982-b796-c8007145699f"},"vehicle_type_id":"4","last_reported":1733008133,"current_range_meters":17600,"station_id":"ce4bhch2rcd13ifvqeug","pricing_plan_id":"cebpf4jnsgd1na2vs0mg"},{"bike_id":"748823b5-89d6-4a52-bcc0-c1c0a4beb5f8","system_id":"levelo_inurba_marseille","lat":43.30892,"lon":5.39643,"is_reserved":false,"is_disabled":false,"rental_uris":{"android":"levelo://app?vid=748823b5-89d6-4a52-bcc0-c1c0a4beb5f8","ios":"levelo://app?vid=748823b5-89d6-4a52-bcc0-c1c0a4beb5f8"},"vehicle_type_id":"4","last_reported":1733008133,"current_range_meters":36000,"station_id":"ce4bh012rcd13ifvqcv0","pricing_plan_id":"cebpf4jnsgd1na2vs0mg"},{"bike_id":"bfb856cf-7615-4aa7-a7e4-859a62ce8248","system_id":"levelo_inurba_marseille","lat":43.337372,"lon":5.374557,"is_reserved":false,"is_disabled":false,"rental_uris":{"android":"levelo://app?vid=bfb856cf-7615-4aa7-a7e4-859a62ce8248","ios":"levelo://app?vid=bfb856cf-7615-4aa7-a7e4-859a62ce8248"},"vehicle_type_id":"4","last_reported":1733008133,"current_range_meters":14400,"station_id":"","pricing_plan_id":"cebpf4jnsgd1na2vs0mg"},{"bike_id":"4ad9f279-b6a6-4efa-a4ef-4f325669478c","system_id":"levelo_inurba_marseille","lat":43.27617,"lon":5.36108,"is_reserved":false,"is_disabled":false,"rental_uris":{"android":"levelo://app?vid=4ad9f279-b6a6-4efa-a4ef-4f325669478c","ios":"levelo://app?vid=4ad9f279-b6a6-4efa-a4ef-4f325669478c"},"vehicle_type_id":"4","last_reported":1733008133,"current_range_meters":34000,"station_id":"ce4bgj92rcd13ifvqbe0","pricing_plan_id":"cebpf4jnsgd1na2vs0mg"},{"bike_id":"3dd9e510-04fe-4467-a101-240d1410ee17","system_id":"levelo_inurba_marseille","lat":43.28111,"lon":5.3782,"is_reserved":false,"is_disabled":false,"rental_uris":{"android":"levelo://app?vid=3dd9e510-04fe-4467-a101-240d1410ee17","ios":"levelo://app?vid=3dd9e510-04fe-4467-a101-240d1410ee17"},"vehicle_type_id":"4","last_reported":1733008133,"current_range_meters":20400,"station_id":"ce4bha12rcd13ifvqee0","pricing_plan_id":"cebpf4jnsgd1na2vs0mg"},{"bike_id":"68f984c9-51a6-4902-b463-f264f9fe3444","system_id":"levelo_inurba_marseille","lat":43.32546,"lon":5.41442,"is_reserved":false,"is_disabled":false,"rental_uris":{"android":"levelo://app?vid=68f984c9-51a6-4902-b463-f264f9fe3444","ios":"levelo://app?vid=68f984c9-51a6-4902-b463-f264f9fe3444"},"vehicle_type_id":"4","last_reported":1733008133,"current_range_meters":38800,"station_id":"ce4bhq12rcd13ifvqhhg","pricing_plan_id":"cebpf4jnsgd1na2vs0mg"},{"bike_id":"f6406f66-5153-40ce-bc97-7cea00959e6b","system_id":"levelo_inurba_marseille","lat":43.3128,"lon":5.40159,"is_reserved":false,"is_disabled":true,"rental_uris":{"android":"levelo://app?vid=f6406f66-5153-40ce-bc97-7cea00959e6b","ios":"levelo://app?vid=f6406f66-5153-40ce-bc97-7cea00959e6b"},"vehicle_type_id":"4","last_reported":1733008133,"current_range_meters":4400,"station_id":"ce4bh092rcd13ifvqd30","pricing_plan_id":"cebpf4jnsgd1na2vs0mg"},{"bike_id":"4abebe2b-dec7-442c-a6a0-da33deb742de","system_id":"levelo_inurba_marseille","lat":43.32113,"lon":5.36825,"is_reserved":false,"is_disabled":false,"rental_uris":{"android":"levelo://app?vid=4abebe2b-dec7-442c-a6a0-da33deb742de","ios":"levelo://app?vid=4abebe2b-dec7-442c-a6a0-da33deb742de"},"vehicle_type_id":"4","last_reported":1733008133,"current_range_meters":35600,"station_id":"","pricing_plan_id":"cebpf4jnsgd1na2vs0mg"},{"bike_id":"ce20c844-7914-4b0b-b70c-e7bdec0d808d","system_id":"levelo_inurba_marseille","lat":43.25937,"lon":5.40877,"is_reserved":false,"is_disabled":false,"rental_uris":{"android":"levelo://app?vid=ce20c844-7914-4b0b-b70c-e7bdec0d808d","ios":"levelo://app?vid=ce20c844-7914-4b0b-b70c-e7bdec0d808d"},"vehicle_type_id":"4","last_reported":1733008133,"current_range_meters":16000,"station_id":"ce4bhm92rcd13ifvqglg","pricing_plan_id":"cebpf4jnsgd1na2vs0mg"},{"bike_id":"2dd7e3d8-3df6-413d-9319-5d4afa031575","system_id":"levelo_inurba_marseille","lat":43.27208,"lon":5.39187,"is_reserved":false,"is_disabled":false,"rental_uris":{"android":"levelo://app?vid=2dd7e3d8-3df6-413d-9319-5d4afa031575","ios":"levelo://app?vid=2dd7e3d8-3df6-413d-9319-5d4afa031575"},"vehicle_type_id":"4","last_reported":1733008133,"current_range_meters":8800,"station_id":"ce4bhhp2rcd13ifvqfm0","pricing_plan_id":"cebpf4jnsgd1na2vs0mg"},{"bike_id":"5a611c5d-797f-4bfd-8428-57f80dec50e7","system_id":"levelo_inurba_marseille","lat":43.26953,"lon":5.38636,"is_reserved":false,"is_disabled":false,"rental_uris":{"android":"levelo://app?vid=5a611c5d-797f-4bfd-8428-57f80dec50e7","ios":"levelo://app?vid=5a611c5d-797f-4bfd-8428-57f80dec50e7"},"vehicle_type_id":"4","last_reported":1733008133,"current_range_meters":38800,"station_id":"ce4bhh92rcd13ifvqfh0","pricing_plan_id":"cebpf4jnsgd1na2vs0mg"},{"bike_id":"58f5d99c-c01f-4bd1-ac20-b06556b13d63","system_id":"levelo_inurba_marseille","lat":43.30804,"lon":5.43528,"is_reserved":false,"is_disabled":false,"rental_uris":{"android":"levelo://app?vid=58f5d99c-c01f-4bd1-ac20-b06556b13d63","ios":"levelo://app?vid=58f5d99c-c01f-4bd1-ac20-b06556b13d63"},"vehicle_type_id":"4","last_reported":1733008133,"current_range_meters":14400,"station_id":"ce4bhph2rcd13ifvqheg","pricing_plan_id":"cebpf4jnsgd1na2vs0mg"},{"bike_id":"ded02b11-39c2-42bc-bd0a-ecafae31c799","system_id":"levelo_inurba_marseille","lat":43.2827,"lon":5.35068,"is_reserved":false,"is_disabled":false,"rental_uris":{"android":"levelo://app?vid=ded02b11-39c2-42bc-bd0a-ecafae31c799","ios":"levelo://app?vid=ded02b11-39c2-42bc-bd0a-ecafae31c799"},"vehicle_type_id":"4","last_reported":1733008133,"current_range_meters":12800,"station_id":"ce4bhbp2rcd13ifvqerg","pricing_plan_id":"cebpf4jnsgd1na2vs0mg"},{"bike_id":"c30e0d2a-e733-4a8c-8ad0-033e9c84d901","system_id":"levelo_inurba_marseille","lat":43.30809,"lon":5.38156,"is_reserved":false,"is_disabled":false,"rental_uris":{"android":"levelo://app?vid=c30e0d2a-e733-4a8c-8ad0-033e9c84d901","ios":"levelo://app?vid=c30e0d2a-e733-4a8c-8ad0-033e9c84d901"},"vehicle_type_id":"4","last_reported":1733008133,"current_range_meters":30000,"station_id":"ce4bgt12rcd13ifvqce0","pricing_plan_id":"cebpf4jnsgd1na2vs0mg"},{"bike_id":"cf36a015-b289-4af2-831c-669d9ba41aee","system_id":"levelo_inurba_marseille","lat":43.2794,"lon":5.38708,"is_reserved":false,"is_disabled":true,"rental_uris":{"android":"levelo://app?vid=cf36a015-b289-4af2-831c-669d9ba41aee","ios":"levelo://app?vid=cf36a015-b289-4af2-831c-669d9ba41aee"},"vehicle_type_id":"4","last_reported":1733008133,"current_range_meters":0,"station_id":"ce4bhg12rcd13ifvqf80","pricing_plan_id":"cebpf4jnsgd1na2vs0mg"},{"bike_id":"827c7a89-ab5d-4586-adb3-9402e37e7839","system_id":"levelo_inurba_marseille","lat":43.29264,"lon":5.38435,"is_reserved":false,"is_disabled":false,"rental_uris":{"android":"levelo://app?vid=827c7a89-ab5d-4586-adb3-9402e37e7839","ios":"levelo://app?vid=827c7a89-ab5d-4586-adb3-9402e37e7839"},"vehicle_type_id":"4","last_reported":1733008133,"current_range_meters":33200,"station_id":"ce4bh692rcd13ifvqea0","pricing_plan_id":"cebpf4jnsgd1na2vs0mg"},{"bike_id":"c649c1d2-5deb-4455-9f15-9e50441eef46","system_id":"levelo_inurba_marseille","lat":43.32112,"lon":5.36766,"is_reserved":false,"is_disabled":false,"rental_uris":{"android":"levelo://app?vid=c649c1d2-5deb-4455-9f15-9e50441eef46","ios":"levelo://app?vid=c649c1d2-5deb-4455-9f15-9e50441eef46"},"vehicle_type_id":"4","last_reported":1733008133,"current_range_meters":38800,"station_id":"ce4bhrh2rcd13ifvqhug","pricing_plan_id":"cebpf4jnsgd1na2vs0mg"},{"bike_id":"7dc2caec-37b5-482a-abad-d1d2f62e7e82","system_id":"levelo_inurba_marseille","lat":43.31263,"lon":5.36968,"is_reserved":false,"is_disabled":true,"rental_uris":{"android":"levelo://app?vid=7dc2caec-37b5-482a-abad-d1d2f62e7e82","ios":"levelo://app?vid=7dc2caec-37b5-482a-abad-d1d2f62e7e82"},"vehicle_type_id":"4","last_reported":1733008133,"current_range_meters":0,"station_id":"","pricing_plan_id":"cebpf4jnsgd1na2vs0mg"},{"bike_id":"c36f8385-9bb9-401f-af30-8e3b4489ff5b","system_id":"levelo_inurba_marseille","lat":43.2742,"lon":5.39415,"is_reserved":false,"is_disabled":false,"rental_uris":{"android":"levelo://app?vid=c36f8385-9bb9-401f-af30-8e3b4489ff5b","ios":"levelo://app?vid=c36f8385-9bb9-401f-af30-8e3b4489ff5b"},"vehicle_type_id":"4","last_reported":1733008133,"current_range_meters":10800,"station_id":"ce4bhdp2rcd13ifvqf20","pricing_plan_id":"cebpf4jnsgd1na2vs0mg"},{"bike_id":"c683bf15-9ca2-4d34-a888-dc7c60d4f486","system_id":"levelo_inurba_marseille","lat":43.29415,"lon":5.38623,"is_reserved":false,"is_disabled":false,"rental_uris":{"android":"levelo://app?vid=c683bf15-9ca2-4d34-a888-dc7c60d4f486","ios":"levelo://app?vid=c683bf15-9ca2-4d34-a888-dc7c60d4f486"},"vehicle_type_id":"4","last_reported":1733008133,"current_range_meters":36800,"station_id":"ce4bh2h2rcd13ifvqdh0","pricing_plan_id":"cebpf4jnsgd1na2vs0mg"},{"bike_id":"d096a05a-f487-4e0d-9d29-6cd024c7c698","system_id":"levelo_inurba_marseille","lat":43.25003,"lon":5.3893,"is_reserved":false,"is_disabled":false,"rental_uris":{"android":"levelo://app?vid=d096a05a-f487-4e0d-9d29-6cd024c7c698","ios":"levelo://app?vid=d096a05a-f487-4e0d-9d29-6cd024c7c698"},"vehicle_type_id":"4","last_reported":1733008133,"current_range_meters":34800,"station_id":"ce4bhgp2rcd13ifvqfd0","pricing_plan_id":"cebpf4jnsgd1na2vs0mg"},{"bike_id":"9dd1fc98-a89e-437a-b707-6eb8b3c899e8","system_id":"levelo_inurba_marseille","lat":43.290443,"lon":5.3591,"is_reserved":false,"is_disabled":true,"rental_uris":{"android":"levelo://app?vid=9dd1fc98-a89e-437a-b707-6eb8b3c899e8","ios":"levelo://app?vid=9dd1fc98-a89e-437a-b707-6eb8b3c899e8"},"vehicle_type_id":"4","last_reported":1733008133,"current_range_meters":2800,"station_id":"ce4bha92rcd13ifvqeg0","pricing_plan_id":"cebpf4jnsgd1na2vs0mg"},{"bike_id":"28a82196-100a-4883-b98e-31aeb1068b5e","system_id":"levelo_inurba_marseille","lat":43.29688,"lon":5.36257,"is_reserved":false,"is_disabled":false,"rental_uris":{"android":"levelo://app?vid=28a82196-100a-4883-b98e-31aeb1068b5e","ios":"levelo://app?vid=28a82196-100a-4883-b98e-31aeb1068b5e"},"vehicle_type_id":"4","last_reported":1733008133,"current_range_meters":36400,"station_id":"","pricing_plan_id":"cebpf4jnsgd1na2vs0mg"},{"bike_id":"aea6b7a8-fa3c-4842-89c6-693b08a99724","system_id":"levelo_inurba_marseille","lat":43.33752,"lon":5.37428,"is_reserved":false,"is_disabled":false,"rental_uris":{"android":"levelo://app?vid=aea6b7a8-fa3c-4842-89c6-693b08a99724","ios":"levelo://app?vid=aea6b7a8-fa3c-4842-89c6-693b08a99724"},"vehicle_type_id":"4","last_reported":1733008133,"current_range_meters":36800,"station_id":"","pricing_plan_id":"cebpf4jnsgd1na2vs0mg"},{"bike_id":"22d5e251-98e2-4944-8d36-ca18e334a855","system_id":"levelo_inurba_marseille","lat":43.28849,"lon":5.35848,"is_reserved":false,"is_disabled":false,"rental_uris":{"android":"levelo://app?vid=22d5e251-98e2-4944-8d36-ca18e334a855","ios":"levelo://app?vid=22d5e251-98e2-4944-8d36-ca18e334a855"},"vehicle_type_id":"4","last_reported":1733008133,"current_range_meters":11200,"station_id":"ce4bhb12rcd13ifvqem0","pricing_plan_id":"cebpf4jnsgd1na2vs0mg"},{"bike_id":"ff90587f-4b59-47e3-82d7-9ecb2f1bc4ef","system_id":"levelo_inurba_marseille","lat":43.3235,"lon":5.40616,"is_reserved":false,"is_disabled":true,"rental_uris":{"android":"levelo://app?vid=ff90587f-4b59-47e3-82d7-9ecb2f1bc4ef","ios":"levelo://app?vid=ff90587f-4b59-47e3-82d7-9ecb2f1bc4ef"},"vehicle_type_id":"4","last_reported":1733008133,"current_range_meters":0,"station_id":"ce4bhq92rcd13ifvqhjg","pricing_plan_id":"cebpf4jnsgd1na2vs0mg"},{"bike_id":"1b4091b4-9da5-4e08-a623-15bd0eb83e75","system_id":"levelo_inurba_marseille","lat":43.29304,"lon":5.37177,"is_reserved":false,"is_disabled":true,"rental_uris":{"android":"levelo://app?vid=1b4091b4-9da5-4e08-a623-15bd0eb83e75","ios":"levelo://app?vid=1b4091b4-9da5-4e08-a623-15bd0eb83e75"},"vehicle_type_id":"4","last_reported":1733008133,"current_range_meters":9200,"station_id":"ce4bgh92rcd13ifvqb40","pricing_plan_id":"cebpf4jnsgd1na2vs0mg"},{"bike_id":"7c2951cf-e97d-4577-8d27-f0b8ebb47f9c","system_id":"levelo_inurba_marseille","lat":43.30899,"lon":5.37188,"is_reserved":false,"is_disabled":false,"rental_uris":{"android":"levelo://app?vid=7c2951cf-e97d-4577-8d27-f0b8ebb47f9c","ios":"levelo://app?vid=7c2951cf-e97d-4577-8d27-f0b8ebb47f9c"},"vehicle_type_id":"4","last_reported":1733008133,"current_range_meters":40000,"station_id":"ce4bguh2rcd13ifvqckg","pricing_plan_id":"cebpf4jnsgd1na2vs0mg"},{"bike_id":"01dd0f6c-5d7c-4e63-a161-668f65657b81","system_id":"levelo_inurba_marseille","lat":43.2293,"lon":5.35376,"is_reserved":false,"is_disabled":false,"rental_uris":{"android":"levelo://app?vid=01dd0f6c-5d7c-4e63-a161-668f65657b81","ios":"levelo://app?vid=01dd0f6c-5d7c-4e63-a161-668f65657b81"},"vehicle_type_id":"4","last_reported":1733008133,"current_range_meters":38800,"station_id":"cpo3532slgdg3j2ikp40","pricing_plan_id":"cebpf4jnsgd1na2vs0mg"},{"bike_id":"b0924600-8287-4199-b791-e13b75ba6670","system_id":"levelo_inurba_marseille","lat":43.31161,"lon":5.38712,"is_reserved":false,"is_disabled":false,"rental_uris":{"android":"levelo://app?vid=b0924600-8287-4199-b791-e13b75ba6670","ios":"levelo://app?vid=b0924600-8287-4199-b791-e13b75ba6670"},"vehicle_type_id":"4","last_reported":1733008133,"current_range_meters":20800,"station_id":"ce4bgv12rcd13ifvqcp0","pricing_plan_id":"cebpf4jnsgd1na2vs0mg"},{"bike_id":"a054c468-8cf6-4708-bfde-533f0a3e2365","system_id":"levelo_inurba_marseille","lat":43.30638,"lon":5.40079,"is_reserved":false,"is_disabled":false,"rental_uris":{"android":"levelo://app?vid=a054c468-8cf6-4708-bfde-533f0a3e2365","ios":"levelo://app?vid=a054c468-8cf6-4708-bfde-533f0a3e2365"},"vehicle_type_id":"4","last_reported":1733008133,"current_range_meters":39200,"station_id":"ce4bh112rcd13ifvqda0","pricing_plan_id":"cebpf4jnsgd1na2vs0mg"},{"bike_id":"9972d42f-e777-473a-a3e4-e0c32fb18271","system_id":"levelo_inurba_marseille","lat":43.26286,"lon":5.3741,"is_reserved":false,"is_disabled":false,"rental_uris":{"android":"levelo://app?vid=9972d42f-e777-473a-a3e4-e0c32fb18271","ios":"levelo://app?vid=9972d42f-e777-473a-a3e4-e0c32fb18271"},"vehicle_type_id":"4","last_reported":1733008133,"current_range_meters":37600,"station_id":"","pricing_plan_id":"cebpf4jnsgd1na2vs0mg"},{"bike_id":"e1d7c021-65e2-45dd-8de4-2373f2c409ce","system_id":"levelo_inurba_marseille","lat":43.27315,"lon":5.39081,"is_reserved":false,"is_disabled":false,"rental_uris":{"android":"levelo://app?vid=e1d7c021-65e2-45dd-8de4-2373f2c409ce","ios":"levelo://app?vid=e1d7c021-65e2-45dd-8de4-2373f2c409ce"},"vehicle_type_id":"4","last_reported":1733008133,"current_range_meters":25600,"station_id":"ce4bhgp2rcd13ifvqfe0","pricing_plan_id":"cebpf4jnsgd1na2vs0mg"},{"bike_id":"167686ca-8000-484a-9a28-c4e6488cae30","system_id":"levelo_inurba_marseille","lat":43.24076,"lon":5.37756,"is_reserved":false,"is_disabled":false,"rental_uris":{"android":"levelo://app?vid=167686ca-8000-484a-9a28-c4e6488cae30","ios":"levelo://app?vid=167686ca-8000-484a-9a28-c4e6488cae30"},"vehicle_type_id":"4","last_reported":1733008133,"current_range_meters":30800,"station_id":"ce4bhnp2rcd13ifvqgvg","pricing_plan_id":"cebpf4jnsgd1na2vs0mg"},{"bike_id":"e5951ee3-4a5a-4ebb-b469-096c5188dfa3","system_id":"levelo_inurba_marseille","lat":43.23191,"lon":5.35546,"is_reserved":false,"is_disabled":false,"rental_uris":{"android":"levelo://app?vid=e5951ee3-4a5a-4ebb-b469-096c5188dfa3","ios":"levelo://app?vid=e5951ee3-4a5a-4ebb-b469-096c5188dfa3"},"vehicle_type_id":"4","last_reported":1733008133,"current_range_meters":16400,"station_id":"ce4bhu92rcd13ifvqi70","pricing_plan_id":"cebpf4jnsgd1na2vs0mg"},{"bike_id":"f9a63393-5401-4f98-ae5a-dfbb8291ab6d","system_id":"levelo_inurba_marseille","lat":43.3004,"lon":5.37551,"is_reserved":false,"is_disabled":true,"rental_uris":{"android":"levelo://app?vid=f9a63393-5401-4f98-ae5a-dfbb8291ab6d","ios":"levelo://app?vid=f9a63393-5401-4f98-ae5a-dfbb8291ab6d"},"vehicle_type_id":"4","last_reported":1733008133,"current_range_meters":0,"station_id":"","pricing_plan_id":"cebpf4jnsgd1na2vs0mg"},{"bike_id":"06599288-d807-4934-b5f6-d05885940fb7","system_id":"levelo_inurba_marseille","lat":43.27841,"lon":5.39208,"is_reserved":false,"is_disabled":false,"rental_uris":{"android":"levelo://app?vid=06599288-d807-4934-b5f6-d05885940fb7","ios":"levelo://app?vid=06599288-d807-4934-b5f6-d05885940fb7"},"vehicle_type_id":"4","last_reported":1733008133,"current_range_meters":28000,"station_id":"ce4bhjp2rcd13ifvqga0","pricing_plan_id":"cebpf4jnsgd1na2vs0mg"},{"bike_id":"b38c09bb-a215-4e8b-b764-0091f548550c","system_id":"levelo_inurba_marseille","lat":43.22941,"lon":5.35384,"is_reserved":false,"is_disabled":false,"rental_uris":{"android":"levelo://app?vid=b38c09bb-a215-4e8b-b764-0091f548550c","ios":"levelo://app?vid=b38c09bb-a215-4e8b-b764-0091f548550c"},"vehicle_type_id":"4","last_reported":1733008133,"current_range_meters":38800,"station_id":"cpo3532slgdg3j2ikp40","pricing_plan_id":"cebpf4jnsgd1na2vs0mg"},{"bike_id":"1f1356fc-4272-436f-ac1f-bfec2f0c1ae9","system_id":"levelo_inurba_marseille","lat":43.28272,"lon":5.35069,"is_reserved":false,"is_disabled":false,"rental_uris":{"android":"levelo://app?vid=1f1356fc-4272-436f-ac1f-bfec2f0c1ae9","ios":"levelo://app?vid=1f1356fc-4272-436f-ac1f-bfec2f0c1ae9"},"vehicle_type_id":"4","last_reported":1733008133,"current_range_meters":25600,"station_id":"ce4bhbp2rcd13ifvqerg","pricing_plan_id":"cebpf4jnsgd1na2vs0mg"},{"bike_id":"438e4adb-e20c-4ede-a256-e8c4913c9469","system_id":"levelo_inurba_marseille","lat":43.31227,"lon":5.36851,"is_reserved":false,"is_disabled":false,"rental_uris":{"android":"levelo://app?vid=438e4adb-e20c-4ede-a256-e8c4913c9469","ios":"levelo://app?vid=438e4adb-e20c-4ede-a256-e8c4913c9469"},"vehicle_type_id":"4","last_reported":1733008133,"current_range_meters":39200,"station_id":"ce4bgl92rcd13ifvqbq0","pricing_plan_id":"cebpf4jnsgd1na2vs0mg"},{"bike_id":"ea461fa6-489e-4de7-89c7-2f448445227c","system_id":"levelo_inurba_marseille","lat":43.29318,"lon":5.3721,"is_reserved":false,"is_disabled":true,"rental_uris":{"android":"levelo://app?vid=ea461fa6-489e-4de7-89c7-2f448445227c","ios":"levelo://app?vid=ea461fa6-489e-4de7-89c7-2f448445227c"},"vehicle_type_id":"4","last_reported":1733008133,"current_range_meters":38800,"station_id":"ce4bgh92rcd13ifvqb40","pricing_plan_id":"cebpf4jnsgd1na2vs0mg"},{"bike_id":"b0bda3a0-8d9d-4bd3-a5b8-75ccdf39fdf3","system_id":"levelo_inurba_marseille","lat":43.29441,"lon":5.39761,"is_reserved":false,"is_disabled":true,"rental_uris":{"android":"levelo://app?vid=b0bda3a0-8d9d-4bd3-a5b8-75ccdf39fdf3","ios":"levelo://app?vid=b0bda3a0-8d9d-4bd3-a5b8-75ccdf39fdf3"},"vehicle_type_id":"4","last_reported":1733008133,"current_range_meters":27200,"station_id":"ce4bh3h2rcd13ifvqdo0","pricing_plan_id":"cebpf4jnsgd1na2vs0mg"},{"bike_id":"04791269-9bad-451a-a252-9b63a8db9660","system_id":"levelo_inurba_marseille","lat":43.28036,"lon":5.36942,"is_reserved":false,"is_disabled":false,"rental_uris":{"android":"levelo://app?vid=04791269-9bad-451a-a252-9b63a8db9660","ios":"levelo://app?vid=04791269-9bad-451a-a252-9b63a8db9660"},"vehicle_type_id":"4","last_reported":1733008133,"current_range_meters":15200,"station_id":"ce4bha12rcd13ifvqef0","pricing_plan_id":"cebpf4jnsgd1na2vs0mg"},{"bike_id":"6c1938c7-d149-48ab-a773-6a6268472da0","system_id":"levelo_inurba_marseille","lat":43.28715,"lon":5.38903,"is_reserved":false,"is_disabled":false,"rental_uris":{"android":"levelo://app?vid=6c1938c7-d149-48ab-a773-6a6268472da0","ios":"levelo://app?vid=6c1938c7-d149-48ab-a773-6a6268472da0"},"vehicle_type_id":"4","last_reported":1733008133,"current_range_meters":10800,"station_id":"","pricing_plan_id":"cebpf4jnsgd1na2vs0mg"},{"bike_id":"498076af-36bc-431d-aeaf-a6cb6d9342f5","system_id":"levelo_inurba_marseille","lat":43.26555,"lon":5.37286,"is_reserved":false,"is_disabled":false,"rental_uris":{"android":"levelo://app?vid=498076af-36bc-431d-aeaf-a6cb6d9342f5","ios":"levelo://app?vid=498076af-36bc-431d-aeaf-a6cb6d9342f5"},"vehicle_type_id":"4","last_reported":1733008133,"current_range_meters":25200,"station_id":"ce4bhg12rcd13ifvqf70","pricing_plan_id":"cebpf4jnsgd1na2vs0mg"},{"bike_id":"ffee92d3-4119-470f-811e-5a167fe07917","system_id":"levelo_inurba_marseille","lat":43.33015,"lon":5.39047,"is_reserved":false,"is_disabled":false,"rental_uris":{"android":"levelo://app?vid=ffee92d3-4119-470f-811e-5a167fe07917","ios":"levelo://app?vid=ffee92d3-4119-470f-811e-5a167fe07917"},"vehicle_type_id":"4","last_reported":1733008133,"current_range_meters":38800,"station_id":"ce4bhr92rcd13ifvqhrg","pricing_plan_id":"cebpf4jnsgd1na2vs0mg"},{"bike_id":"3eb079a7-04b7-4a67-a0e0-bc335a5a7642","system_id":"levelo_inurba_marseille","lat":43.2846,"lon":5.35894,"is_reserved":false,"is_disabled":false,"rental_uris":{"android":"levelo://app?vid=3eb079a7-04b7-4a67-a0e0-bc335a5a7642","ios":"levelo://app?vid=3eb079a7-04b7-4a67-a0e0-bc335a5a7642"},"vehicle_type_id":"4","last_reported":1733008133,"current_range_meters":30800,"station_id":"ce4bhah2rcd13ifvqei0","pricing_plan_id":"cebpf4jnsgd1na2vs0mg"},{"bike_id":"707fcbcd-2683-4f48-a55c-dfc015f30b0a","system_id":"levelo_inurba_marseille","lat":43.27429,"lon":5.39413,"is_reserved":false,"is_disabled":true,"rental_uris":{"android":"levelo://app?vid=707fcbcd-2683-4f48-a55c-dfc015f30b0a","ios":"levelo://app?vid=707fcbcd-2683-4f48-a55c-dfc015f30b0a"},"vehicle_type_id":"4","last_reported":1733008133,"current_range_meters":400,"station_id":"ce4bhdp2rcd13ifvqf20","pricing_plan_id":"cebpf4jnsgd1na2vs0mg"},{"bike_id":"1a2163e5-e0fb-431a-9b5b-82899830d3e2","system_id":"levelo_inurba_marseille","lat":43.3047,"lon":5.37898,"is_reserved":false,"is_disabled":false,"rental_uris":{"android":"levelo://app?vid=1a2163e5-e0fb-431a-9b5b-82899830d3e2","ios":"levelo://app?vid=1a2163e5-e0fb-431a-9b5b-82899830d3e2"},"vehicle_type_id":"4","last_reported":1733008133,"current_range_meters":28000,"station_id":"ce4bgup2rcd13ifvqcn0","pricing_plan_id":"cebpf4jnsgd1na2vs0mg"},{"bike_id":"8d17ec69-2f2a-4c50-a837-4cd87685dd2d","system_id":"levelo_inurba_marseille","lat":43.28269,"lon":5.35065,"is_reserved":false,"is_disabled":false,"rental_uris":{"android":"levelo://app?vid=8d17ec69-2f2a-4c50-a837-4cd87685dd2d","ios":"levelo://app?vid=8d17ec69-2f2a-4c50-a837-4cd87685dd2d"},"vehicle_type_id":"4","last_reported":1733008133,"current_range_meters":27600,"station_id":"ce4bhbp2rcd13ifvqerg","pricing_plan_id":"cebpf4jnsgd1na2vs0mg"},