{"last_updated":1746302992,"ttl":60,"version":"2.2","data":{"bikes":[{"bike_id":"6c44a30c-209a-4efc-a789-6085635cf6ee","system_id":"levelo_inurba_marseille","lat":43.29847,"lon":5.36274,"is_reserved":false,"is_disabled":false,"rental_uris":{"android":"levelo://app?vid=6c44a30c-209a-4efc-a789-6085635cf6ee","ios":"levelo://app?vid=6c44a30c-209a-4efc-a789-6085635cf6ee"},"vehicle_type_id":"4","last_reported":1746302992,"current_range_meters":2000,"station_id":"ce4bgpp2rcd13ifvqc3g","pricing_plan_id":"cebpf4jnsgd1na2vs0mg"},{"bike_id":"6d3914f2-fb6d-4b2e-a950-5487d61728e2","system_id":"levelo_inurba_marseille","lat":43.30937,"lon":5.40144,"is_reserved":false,"is_disabled":false,"rental_uris":{"android":"levelo://app?vid=6d3914f2-fb6d-4b2e-a950-5487d61728e2","ios":"levelo://app?vid=6d3914f2-fb6d-4b2e-a950-5487d61728e2"},"vehicle_type_id":"4","last_reported":1746302992,"current_range_meters":2800,"station_id":"ce4bgvp2rcd13ifvqct0","pricing_plan_id":"cebpf4jnsgd1na2vs0mg"},{"bike_id":"362d6c51-61af-4bc0-a388-021d55324326","system_id":"levelo_inurba_marseille","lat":43.255003,"lon":5.376463,"is_reserved":false,"is_disabled":false,"rental_uris":{"android":"levelo://app?vid=362d6c51-61af-4bc0-a388-021d55324326","ios":"levelo://app?vid=362d6c51-61af-4bc0-a388-021d55324326"},"vehicle_type_id":"4","last_reported":1746302992,"current_range_meters":2800,"station_id":"ce4bhh12rcd13ifvqff0","pricing_plan_id":"cebpf4jnsgd1na2vs0mg"},{"bike_id":"50547906-fcfe-49e0-99a3-02e1920a11db","system_id":"levelo_inurba_marseille","lat":43.30947,"lon":5.39041,"is_reserved":false,"is_disabled":true,"rental_uris":{"android":"levelo://app?vid=50547906-fcfe-49e0-99a3-02e1920a11db","ios":"levelo://app?vid=50547906-fcfe-49e0-99a3-02e1920a11db"},"vehicle_type_id":"4","last_reported":1746302992,"current_range_meters":3200,"station_id":"ce4bgup2rcd13ifvqco0","pricing_plan_id":"cebpf4jnsgd1na2vs0mg"},{"bike_id":"01094e35-d98b-459b-93b9-6eaae48ab681","system_id":"levelo_inurba_marseille","lat":43.30932,"lon":5.40151,"is_reserved":false,"is_disabled":true,"rental_uris":{"android":"levelo://app?vid=01094e35-d98b-459b-93b9-6eaae48ab681","ios":"levelo://app?vid=01094e35-d98b-459b-93b9-6eaae48ab681"},"vehicle_type_id":"4","last_reported":1746302992,"current_range_meters":3200,"station_id":"ce4bgvp2rcd13ifvqct0","pricing_plan_id":"cebpf4jnsgd1na2vs0mg"},{"bike_id":"5a8122b9-97f5-4e94-b954-193a46a808df","system_id":"levelo_inurba_marseille","lat":43.27614,"lon":5.360957,"is_reserved":false,"is_disabled":true,"rental_uris":{"android":"levelo://app?vid=5a8122b9-97f5-4e94-b954-193a46a808df","ios":"levelo://app?vid=5a8122b9-97f5-4e94-b954-193a46a808df"},"vehicle_type_id":"4","last_reported":1746302992,"current_range_meters":3200,"station_id":"ce4bgj92rcd13ifvqbe0","pricing_plan_id":"cebpf4jnsgd1na2vs0mg"},{"bike_id":"7a7f0eb2-e6dd-4386-af0b-d5e315fa2ddd","system_id":"levelo_inurba_marseille","lat":43.27977,"lon":5.35386,"is_reserved":false,"is_disabled":false,"rental_uris":{"android":"levelo://app?vid=7a7f0eb2-e6dd-4386-af0b-d5e315fa2ddd","ios":"levelo://app?vid=7a7f0eb2-e6dd-4386-af0b-d5e315fa2ddd"},"vehicle_type_id":"4","last_reported":1746302992,"current_range_meters":3200,"station_id":"","pricing_plan_id":"cebpf4jnsgd1na2vs0mg"},{"bike_id":"3ecab31c-4019-4c9e-b05e-87cd4f5f118c","system_id":"levelo_inurba_marseille","lat":43.31034,"lon":5.38566,"is_reserved":false,"is_disabled":false,"rental_uris":{"android":"levelo://app?vid=3ecab31c-4019-4c9e-b05e-87cd4f5f118c","ios":"levelo://app?vid=3ecab31c-4019-4c9e-b05e-87cd4f5f118c"},"vehicle_type_id":"4","last_reported":1746302992,"current_range_meters":3200,"station_id":"","pricing_plan_id":"cebpf4jnsgd1na2vs0mg"},{"bike_id":"846ab101-44a4-4989-afc8-f830a5499e34","system_id":"levelo_inurba_marseille","lat":43.313312,"lon":5.396898,"is_reserved":false,"is_disabled":false,"rental_uris":{"android":"levelo://app?vid=846ab101-44a4-4989-afc8-f830a5499e34","ios":"levelo://app?vid=846ab101-44a4-4989-afc8-f830a5499e34"},"vehicle_type_id":"4","last_reported":1746302992,"current_range_meters":2800,"station_id":"ce4bgvp2rcd13ifvqcu0","pricing_plan_id":"cebpf4jnsgd1na2vs0mg"},{"bike_id":"7971fe93-5f1d-4a59-8508-b415e64fcb18","system_id":"levelo_inurba_marseille","lat":43.30947,"lon":5.37373,"is_reserved":false,"is_disabled":false,"rental_uris":{"android":"levelo://app?vid=7971fe93-5f1d-4a59-8508-b415e64fcb18","ios":"levelo://app?vid=7971fe93-5f1d-4a59-8508-b415e64fcb18"},"vehicle_type_id":"4","last_reported":1746302992,"current_range_meters":3200,"station_id":"","pricing_plan_id":"cebpf4jnsgd1na2vs0mg"},{"bike_id":"f2e40560-974f-4964-9c53-5aa28a8d2d75","system_id":"levelo_inurba_marseille","lat":43.27372,"lon":5.3626,"is_reserved":false,"is_disabled":false,"rental_uris":{"android":"levelo://app?vid=f2e40560-974f-4964-9c53-5aa28a8d2d75","ios":"levelo://app?vid=f2e40560-974f-4964-9c53-5aa28a8d2d75"},"vehicle_type_id":"4","last_reported":1746302992,"current_range_meters":3600,"station_id":"ce4bhbh2rcd13ifvqeo0","pricing_plan_id":"cebpf4jnsgd1na2vs0mg"},{"bike_id":"3af489b9-6adc-4091-9fd0-b2f5fb74ef2b","system_id":"levelo_inurba_marseille","lat":43.29531,"lon":5.38549,"is_reserved":false,"is_disabled":false,"rental_uris":{"android":"levelo://app?vid=3af489b9-6adc-4091-9fd0-b2f5fb74ef2b","ios":"levelo://app?vid=3af489b9-6adc-4091-9fd0-b2f5fb74ef2b"},"vehicle_type_id":"4","last_reported":1746302992,"current_range_meters":3600,"station_id":"ce4bgih2rcd13ifvqba0","pricing_plan_id":"cebpf4jnsgd1na2vs0mg"},{"bike_id":"721d1e44-bdc5-4b73-83c5-27fd136fcb0a","system_id":"levelo_inurba_marseille","lat":43.30537,"lon":5.38421,"is_reserved":false,"is_disabled":false,"rental_uris":{"android":"levelo://app?vid=721d1e44-bdc5-4b73-83c5-27fd136fcb0a","ios":"levelo://app?vid=721d1e44-bdc5-4b73-83c5-27fd136fcb0a"},"vehicle_type_id":"4","last_reported":1746302992,"current_range_meters":3600,"station_id":"ce4bgg92rcd13ifvqb30","pricing_plan_id":"cebpf4jnsgd1na2vs0mg"},{"bike_id":"d01d9bd8-1bcb-4315-9636-186b5a23d6c6","system_id":"levelo_inurba_marseille","lat":43.295319,"lon":5.385431,"is_reserved":false,"is_disabled":false,"rental_uris":{"android":"levelo://app?vid=d01d9bd8-1bcb-4315-9636-186b5a23d6c6","ios":"levelo://app?vid=d01d9bd8-1bcb-4315-9636-186b5a23d6c6"},"vehicle_type_id":"4","last_reported":1746302992,"current_range_meters":3600,"station_id":"ce4bgih2rcd13ifvqba0","pricing_plan_id":"cebpf4jnsgd1na2vs0mg"},{"bike_id":"c26db8fb-04c3-4e7e-a8b7-a3459fc8265b","system_id":"levelo_inurba_marseille","lat":43.29964,"lon":5.37165,"is_reserved":false,"is_disabled":false,"rental_uris":{"android":"levelo://app?vid=c26db8fb-04c3-4e7e-a8b7-a3459fc8265b","ios":"levelo://app?vid=c26db8fb-04c3-4e7e-a8b7-a3459fc8265b"},"vehicle_type_id":"4","last_reported":1746302992,"current_range_meters":4000,"station_id":"ce4bgr92rcd13ifvqc7g","pricing_plan_id":"cebpf4jnsgd1na2vs0mg"},{"bike_id":"9a8ef364-e003-4f2c-92f2-6a9454130231","system_id":"levelo_inurba_marseille","lat":43.28365,"lon":5.38636,"is_reserved":false,"is_disabled":false,"rental_uris":{"android":"levelo://app?vid=9a8ef364-e003-4f2c-92f2-6a9454130231","ios":"levelo://app?vid=9a8ef364-e003-4f2c-92f2-6a9454130231"},"vehicle_type_id":"4","last_reported":1746302992,"current_range_meters":4400,"station_id":"ce4bh492rcd13ifvqdvg","pricing_plan_id":"cebpf4jnsgd1na2vs0mg"},{"bike_id":"ed6439c2-dd1a-4cc8-b08b-7b1a13a2049f","system_id":"levelo_inurba_marseille","lat":43.29597,"lon":5.38098,"is_reserved":false,"is_disabled":false,"rental_uris":{"android":"levelo://app?vid=ed6439c2-dd1a-4cc8-b08b-7b1a13a2049f","ios":"levelo://app?vid=ed6439c2-dd1a-4cc8-b08b-7b1a13a2049f"},"vehicle_type_id":"4","last_reported":1746302992,"current_range_meters":4400,"station_id":"ce4bgl12rcd13ifvqbo0","pricing_plan_id":"cebpf4jnsgd1na2vs0mg"},{"bike_id":"990f6b56-9932-447b-9327-0518198ab11b","system_id":"levelo_inurba_marseille","lat":43.26963,"lon":5.38642,"is_reserved":false,"is_disabled":false,"rental_uris":{"android":"levelo://app?vid=990f6b56-9932-447b-9327-0518198ab11b","ios":"levelo://app?vid=990f6b56-9932-447b-9327-0518198ab11b"},"vehicle_type_id":"4","last_reported":1746302992,"current_range_meters":4400,"station_id":"ce4bhh92rcd13ifvqfh0","pricing_plan_id":"cebpf4jnsgd1na2vs0mg"},{"bike_id":"5b65c75e-dfaf-4447-9858-59f1c386c998","system_id":"levelo_inurba_marseille","lat":43.27999,"lon":5.41666,"is_reserved":false,"is_disabled":false,"rental_uris":{"android":"levelo://app?vid=5b65c75e-dfaf-4447-9858-59f1c386c998","ios":"levelo://app?vid=5b65c75e-dfaf-4447-9858-59f1c386c998"},"vehicle_type_id":"4","last_reported":1746302992,"current_range_meters":4800,"station_id":"ce4bho12rcd13ifvqh1g","pricing_plan_id":"cebpf4jnsgd1na2vs0mg"},{"bike_id":"23119e4f-0e29-493e-a873-544057f83776","system_id":"levelo_inurba_marseille","lat":43.26806,"lon":5.40292,"is_reserved":false,"is_disabled":true,"rental_uris":{"android":"levelo://app?vid=23119e4f-0e29-493e-a873-544057f83776","ios":"levelo://app?vid=23119e4f-0e29-493e-a873-544057f83776"},"vehicle_type_id":"4","last_reported":1746302992,"current_range_meters":4800,"station_id":"ce501612rcd8frsf0b60","pricing_plan_id":"cebpf4jnsgd1na2vs0mg"},{"bike_id":"465ad5af-66c0-4baa-a617-4dae17594a3f","system_id":"levelo_inurba_marseille","lat":43.29177,"lon":5.37156,"is_reserved":false,"is_disabled":false,"rental_uris":{"android":"levelo://app?vid=465ad5af-66c0-4baa-a617-4dae17594a3f","ios":"levelo://app?vid=465ad5af-66c0-4baa-a617-4dae17594a3f"},"vehicle_type_id":"4","last_reported":1746302992,"current_range_meters":4800,"station_id":"ce4bha92rcd13ifvqeh0","pricing_plan_id":"cebpf4jnsgd1na2vs0mg"},{"bike_id":"2765f7e8-f29e-4cc6-be84-ae2d9c49e293","system_id":"levelo_inurba_marseille","lat":43.28941,"lon":5.36642,"is_reserved":false,"is_disabled":false,"rental_uris":{"android":"levelo://app?vid=2765f7e8-f29e-4cc6-be84-ae2d9c49e293","ios":"levelo://app?vid=2765f7e8-f29e-4cc6-be84-ae2d9c49e293"},"vehicle_type_id":"4","last_reported":1746302992,"current_range_meters":4800,"station_id":"ce4bhap2rcd13ifvqek0","pricing_plan_id":"cebpf4jnsgd1na2vs0mg"},{"bike_id":"572f3806-80c1-48ad-ae3d-d199679bae09","system_id":"levelo_inurba_marseille","lat":43.248047,"lon":5.374567,"is_reserved":false,"is_disabled":false,"rental_uris":{"android":"levelo://app?vid=572f3806-80c1-48ad-ae3d-d199679bae09","ios":"levelo://app?vid=572f3806-80c1-48ad-ae3d-d199679bae09"},"vehicle_type_id":"4","last_reported":1746302992,"current_range_meters":4800,"station_id":"ce4bhgh2rcd13ifvqfb0","pricing_plan_id":"cebpf4jnsgd1na2vs0mg"},{"bike_id":"4b7e56d0-36fc-4114-853a-63eb95073e16","system_id":"levelo_inurba_marseille","lat":43.2996,"lon":5.38506,"is_reserved":false,"is_disabled":false,"rental_uris":{"android":"levelo://app?vid=4b7e56d0-36fc-4114-853a-63eb95073e16","ios":"levelo://app?vid=4b7e56d0-36fc-4114-853a-63eb95073e16"},"vehicle_type_id":"4","last_reported":1746302992,"current_range_meters":4800,"station_id":"ce4bgj92rcd13ifvqbd0","pricing_plan_id":"cebpf4jnsgd1na2vs0mg"},{"bike_id":"dbae1b56-8aa7-4371-8a00-78b02da8ad5b","system_id":"levelo_inurba_marseille","lat":43.27828,"lon":5.40699,"is_reserved":false,"is_disabled":false,"rental_uris":{"android":"levelo://app?vid=dbae1b56-8aa7-4371-8a00-78b02da8ad5b","ios":"levelo://app?vid=dbae1b56-8aa7-4371-8a00-78b02da8ad5b"},"vehicle_type_id":"4","last_reported":1746302992,"current_range_meters":5600,"station_id":"ce4bhnh2rcd13ifvqgtg","pricing_plan_id":"cebpf4jnsgd1na2vs0mg"},{"bike_id":"713aded0-2bf8-4676-9a4d-41789719c966","system_id":"levelo_inurba_marseille","lat":43.29276,"lon":5.4011,"is_reserved":false,"is_disabled":false,"rental_uris":{"android":"levelo://app?vid=713aded0-2bf8-4676-9a4d-41789719c966","ios":"levelo://app?vid=713aded0-2bf8-4676-9a4d-41789719c966"},"vehicle_type_id":"4","last_reported":1746302992,"current_range_meters":5600,"station_id":"ce4bh312rcd13ifvqdk0","pricing_plan_id":"cebpf4jnsgd1na2vs0mg"},{"bike_id":"6c09fe8b-9903-4198-85e5-a8601e4bffd5","system_id":"levelo_inurba_marseille","lat":43.31264,"lon":5.40177,"is_reserved":false,"is_disabled":false,"rental_uris":{"android":"levelo://app?vid=6c09fe8b-9903-4198-85e5-a8601e4bffd5","ios":"levelo://app?vid=6c09fe8b-9903-4198-85e5-a8601e4bffd5"},"vehicle_type_id":"4","last_reported":1746302992,"current_range_meters":6000,"station_id":"ce4bh092rcd13ifvqd30","pricing_plan_id":"cebpf4jnsgd1na2vs0mg"},{"bike_id":"4246c574-50d7-4c63-aca1-6777a16410ed","system_id":"levelo_inurba_marseille","lat":43.272101,"lon":5.391784,"is_reserved":false,"is_disabled":false,"rental_uris":{"android":"levelo://app?vid=4246c574-50d7-4c63-aca1-6777a16410ed","ios":"levelo://app?vid=4246c574-50d7-4c63-aca1-6777a16410ed"},"vehicle_type_id":"4","last_reported":1746302992,"current_range_meters":6000,"station_id":"","pricing_plan_id":"cebpf4jnsgd1na2vs0mg"},{"bike_id":"dbd0892c-94ab-42be-8fa9-01f28757dcd6","system_id":"levelo_inurba_marseille","lat":43.29791,"lon":5.38098,"is_reserved":false,"is_disabled":false,"rental_uris":{"android":"levelo://app?vid=dbd0892c-94ab-42be-8fa9-01f28757dcd6","ios":"levelo://app?vid=dbd0892c-94ab-42be-8fa9-01f28757dcd6"},"vehicle_type_id":"4","last_reported":1746302992,"current_range_meters":6000,"station_id":"ce4bgip2rcd13ifvqbb0","pricing_plan_id":"cebpf4jnsgd1na2vs0mg"},{"bike_id":"b58e25ac-fe1f-4788-92e1-9ce65ce7ec55","system_id":"levelo_inurba_marseille","lat":43.24544,"lon":5.39525,"is_reserved":false,"is_disabled":false,"rental_uris":{"android":"levelo://app?vid=b58e25ac-fe1f-4788-92e1-9ce65ce7ec55","ios":"levelo://app?vid=b58e25ac-fe1f-4788-92e1-9ce65ce7ec55"},"vehicle_type_id":"4","last_reported":1746302992,"current_range_meters":6000,"station_id":"ce4bhlp2rcd13ifvqgjg","pricing_plan_id":"cebpf4jnsgd1na2vs0mg"},{"bike_id":"f37180da-f014-46c7-9e06-ecc297eb4d15","system_id":"levelo_inurba_marseille","lat":43.28455,"lon":5.35889,"is_reserved":false,"is_disabled":false,"rental_uris":{"android":"levelo://app?vid=f37180da-f014-46c7-9e06-ecc297eb4d15","ios":"levelo://app?vid=f37180da-f014-46c7-9e06-ecc297eb4d15"},"vehicle_type_id":"4","last_reported":1746302992,"current_range_meters":5600,"station_id":"ce4bhah2rcd13ifvqei0","pricing_plan_id":"cebpf4jnsgd1na2vs0mg"},{"bike_id":"4e69ffd7-c5cc-48d5-a5b0-f7f4fbcce5c9","system_id":"levelo_inurba_marseille","lat":43.278221,"lon":5.391626,"is_reserved":false,"is_disabled":false,"rental_uris":{"android":"levelo://app?vid=4e69ffd7-c5cc-48d5-a5b0-f7f4fbcce5c9","ios":"levelo://app?vid=4e69ffd7-c5cc-48d5-a5b0-f7f4fbcce5c9"},"vehicle_type_id":"4","last_reported":1746302992,"current_range_meters":6000,"station_id":"ce4bhjp2rcd13ifvqga0","pricing_plan_id":"cebpf4jnsgd1na2vs0mg"},{"bike_id":"d11b7274-ad1d-4343-a0b8-143798db8be1","system_id":"levelo_inurba_marseille","lat":43.22926,"lon":5.35378,"is_reserved":false,"is_disabled":true,"rental_uris":{"android":"levelo://app?vid=d11b7274-ad1d-4343-a0b8-143798db8be1","ios":"levelo://app?vid=d11b7274-ad1d-4343-a0b8-143798db8be1"},"vehicle_type_id":"4","last_reported":1746302992,"current_range_meters":6400,"station_id":"cpo3532slgdg3j2ikp40","pricing_plan_id":"cebpf4jnsgd1na2vs0mg"},{"bike_id":"bae277ac-3bb9-4041-bff0-d53a3c7d7f88","system_id":"levelo_inurba_marseille","lat":43.29261,"lon":5.38449,"is_reserved":false,"is_disabled":false,"rental_uris":{"android":"levelo://app?vid=bae277ac-3bb9-4041-bff0-d53a3c7d7f88","ios":"levelo://app?vid=bae277ac-3bb9-4041-bff0-d53a3c7d7f88"},"vehicle_type_id":"4","last_reported":1746302992,"current_range_meters":6400,"station_id":"ce4bh692rcd13ifvqea0","pricing_plan_id":"cebpf4jnsgd1na2vs0mg"},{"bike_id":"73fb7cb2-08cd-4439-b802-b0a5ccdcf2bb","system_id":"levelo_inurba_marseille","lat":43.26209,"lon":5.37442,"is_reserved":false,"is_disabled":false,"rental_uris":{"android":"levelo://app?vid=73fb7cb2-08cd-4439-b802-b0a5ccdcf2bb","ios":"levelo://app?vid=73fb7cb2-08cd-4439-b802-b0a5ccdcf2bb"},"vehicle_type_id":"4","last_reported":1746302992,"current_range_meters":6800,"station_id":"ce4bhgp2rcd13ifvqfc0","pricing_plan_id":"cebpf4jnsgd1na2vs0mg"},{"bike_id":"9ccc5bb8-f8c4-43db-b354-a7693d7fad1d","system_id":"levelo_inurba_marseille","lat":43.29155,"lon":5.37186,"is_reserved":false,"is_disabled":false,"rental_uris":{"android":"levelo://app?vid=9ccc5bb8-f8c4-43db-b354-a7693d7fad1d","ios":"levelo://app?vid=9ccc5bb8-f8c4-43db-b354-a7693d7fad1d"},"vehicle_type_id":"4","last_reported":1746302992,"current_range_meters":6400,"station_id":"ce4bha92rcd13ifvqeh0","pricing_plan_id":"cebpf4jnsgd1na2vs0mg"},{"bike_id":"51900178-50f0-47b3-94f6-452e3ee783c8","system_id":"levelo_inurba_marseille","lat":43.299009,"lon":5.43669,"is_reserved":false,"is_disabled":false,"rental_uris":{"android":"levelo://app?vid=51900178-50f0-47b3-94f6-452e3ee783c8","ios":"levelo://app?vid=51900178-50f0-47b3-94f6-452e3ee783c8"},"vehicle_type_id":"4","last_reported":1746302992,"current_range_meters":6800,"station_id":"ce4bhpp2rcd13ifvqhfg","pricing_plan_id":"cebpf4jnsgd1na2vs0mg"},{"bike_id":"4341dfab-438e-4d1a-8a6a-87a65b8fed8c","system_id":"levelo_inurba_marseille","lat":43.29925,"lon":5.38158,"is_reserved":false,"is_disabled":true,"rental_uris":{"android":"levelo://app?vid=4341dfab-438e-4d1a-8a6a-87a65b8fed8c","ios":"levelo://app?vid=4341dfab-438e-4d1a-8a6a-87a65b8fed8c"},"vehicle_type_id":"4","last_reported":1746302992,"current_range_meters":6800,"station_id":"ce4bgj12rcd13ifvqbc0","pricing_plan_id":"cebpf4jnsgd1na2vs0mg"},{"bike_id":"c58b5efa-f87e-4f3b-8712-c9b18d1ec2f5","system_id":"levelo_inurba_marseille","lat":43.30613,"lon":5.37226,"is_reserved":false,"is_disabled":false,"rental_uris":{"android":"levelo://app?vid=c58b5efa-f87e-4f3b-8712-c9b18d1ec2f5","ios":"levelo://app?vid=c58b5efa-f87e-4f3b-8712-c9b18d1ec2f5"},"vehicle_type_id":"4","last_reported":1746302992,"current_range_meters":6800,"station_id":"ce4bgqh2rcd13ifvqc4g","pricing_plan_id":"cebpf4jnsgd1na2vs0mg"},{"bike_id":"31235cfd-53a1-4a60-a53e-9ef1735c1d27","system_id":"levelo_inurba_marseille","lat":43.30779,"lon":5.37648,"is_reserved":false,"is_disabled":false,"rental_uris":{"android":"levelo://app?vid=31235cfd-53a1-4a60-a53e-9ef1735c1d27","ios":"levelo://app?vid=31235cfd-53a1-4a60-a53e-9ef1735c1d27"},"vehicle_type_id":"4","last_reported":1746302992,"current_range_meters":6800,"station_id":"ce4bgv92rcd13ifvqcq0","pricing_plan_id":"cebpf4jnsgd1na2vs0mg"},{"bike_id":"1cf7ccd5-9297-4167-b642-6c64b198ec9c","system_id":"levelo_inurba_marseille","lat":43.30886,"lon":5.3966,"is_reserved":false,"is_disabled":false,"rental_uris":{"android":"levelo://app?vid=1cf7ccd5-9297-4167-b642-6c64b198ec9c","ios":"levelo://app?vid=1cf7ccd5-9297-4167-b642-6c64b198ec9c"},"vehicle_type_id":"4","last_reported":1746302992,"current_range_meters":6800,"station_id":"ce4bh012rcd13ifvqcv0","pricing_plan_id":"cebpf4jnsgd1na2vs0mg"},{"bike_id":"96c7dd24-e2a1-4e23-af58-e05b6abedd76","system_id":"levelo_inurba_marseille","lat":43.26196,"lon":5.37448,"is_reserved":false,"is_disabled":false,"rental_uris":{"android":"levelo://app?vid=96c7dd24-e2a1-4e23-af58-e05b6abedd76","ios":"levelo://app?vid=96c7dd24-e2a1-4e23-af58-e05b6abedd76"},"vehicle_type_id":"4","last_reported":1746302992,"current_range_meters":7200,"station_id":"ce4bhgp2rcd13ifvqfc0","pricing_plan_id":"cebpf4jnsgd1na2vs0mg"},{"bike_id":"df9dae76-1641-4d3c-a728-36ed048b2740","system_id":"levelo_inurba_marseille","lat":43.2926,"lon":5.38429,"is_reserved":false,"is_disabled":true,"rental_uris":{"android":"levelo://app?vid=df9dae76-1641-4d3c-a728-36ed048b2740","ios":"levelo://app?vid=df9dae76-1641-4d3c-a728-36ed048b2740"},"vehicle_type_id":"4","last_reported":1746302992,"current_range_meters":7200,"station_id":"ce4bh692rcd13ifvqea0","pricing_plan_id":"cebpf4jnsgd1na2vs0mg"},{"bike_id":"e7ebc5d2-085b-4465-85ff-0fd62f369738","system_id":"levelo_inurba_marseille","lat":43.27835,"lon":5.3993,"is_reserved":false,"is_disabled":false,"rental_uris":{"android":"levelo://app?vid=e7ebc5d2-085b-4465-85ff-0fd62f369738","ios":"levelo://app?vid=e7ebc5d2-085b-4465-85ff-0fd62f369738"},"vehicle_type_id":"4","last_reported":1746302992,"current_range_meters":7200,"station_id":"","pricing_plan_id":"cebpf4jnsgd1na2vs0mg"},{"bike_id":"b2be516e-2f32-4594-b4de-c3e58b68706d","system_id":"levelo_inurba_marseille","lat":43.29275,"lon":5.36844,"is_reserved":false,"is_disabled":true,"rental_uris":{"android":"levelo://app?vid=b2be516e-2f32-4594-b4de-c3e58b68706d","ios":"levelo://app?vid=b2be516e-2f32-4594-b4de-c3e58b68706d"},"vehicle_type_id":"4","last_reported":1746302992,"current_range_meters":7200,"station_id":"ce4bhbp2rcd13ifvqesg","pricing_plan_id":"cebpf4jnsgd1na2vs0mg"},{"bike_id":"208c1a96-c46f-4193-b924-3bf7033ea14e","system_id":"levelo_inurba_marseille","lat":43.23208,"lon":5.35609,"is_reserved":false,"is_disabled":false,"rental_uris":{"android":"levelo://app?vid=208c1a96-c46f-4193-b924-3bf7033ea14e","ios":"levelo://app?vid=208c1a96-c46f-4193-b924-3bf7033ea14e"},"vehicle_type_id":"4","last_reported":1746302992,"current_range_meters":7200,"station_id":"ce4bhu92rcd13ifvqi70","pricing_plan_id":"cebpf4jnsgd1na2vs0mg"},{"bike_id":"78abd150-600a-4291-8e1d-69d0182c4498","system_id":"levelo_inurba_marseille","lat":43.29969,"lon":5.38499,"is_reserved":false,"is_disabled":false,"rental_uris":{"android":"levelo://app?vid=78abd150-600a-4291-8e1d-69d0182c4498","ios":"levelo://app?vid=78abd150-600a-4291-8e1d-69d0182c4498"},"vehicle_type_id":"4","last_reported":1746302992,"current_range_meters":7200,"station_id":"ce4bgj92rcd13ifvqbd0","pricing_plan_id":"cebpf4jnsgd1na2vs0mg"},{"bike_id":"87382dde-a899-4eff-8c9e-8a681f99fd4d","system_id":"levelo_inurba_marseille","lat":43.29218,"lon":5.36905,"is_reserved":false,"is_disabled":false,"rental_uris":{"android":"levelo://app?vid=87382dde-a899-4eff-8c9e-8a681f99fd4d","ios":"levelo://app?vid=87382dde-a899-4eff-8c9e-8a681f99fd4d"},"vehicle_type_id":"4","last_reported":1746302992,"current_range_meters":7200,"station_id":"","pricing_plan_id":"cebpf4jnsgd1na2vs0mg"},{"bike_id":"37a308e3-78bb-412c-9733-68bc4cab7cc5","system_id":"levelo_inurba_marseille","lat":43.29252,"lon":5.3844,"is_reserved":false,"is_disabled":false,"rental_uris":{"android":"levelo://app?vid=37a308e3-78bb-412c-9733-68bc4cab7cc5","ios":"levelo://app?vid=37a308e3-78bb-412c-9733-68bc4cab7cc5"},"vehicle_type_id":"4","last_reported":1746302992,"current_range_meters":7200,"station_id":"ce4bh692rcd13ifvqea0","pricing_plan_id":"cebpf4jnsgd1na2vs0mg"},{"bike_id":"e341752c-8655-4500-bdaa-1fbfa4780079","system_id":"levelo_inurba_marseille","lat":43.29062,"lon":5.37147,"is_reserved":false,"is_disabled":true,"rental_uris":{"android":"levelo://app?vid=e341752c-8655-4500-bdaa-1fbfa4780079","ios":"levelo://app?vid=e341752c-8655-4500-bdaa-1fbfa4780079"},"vehicle_type_id":"4","last_reported":1746302992,"current_range_meters":8000,"station_id":"ce4bh5p2rcd13ifvqe4g","pricing_plan_id":"cebpf4jnsgd1na2vs0mg"},{"bike_id":"39d83911-e17e-4776-b8f2-6450602c8696","system_id":"levelo_inurba_marseille","lat":43.298939,"lon":5.436574,"is_reserved":false,"is_disabled":false,"rental_uris":{"android":"levelo://app?vid=39d83911-e17e-4776-b8f2-6450602c8696","ios":"levelo://app?vid=39d83911-e17e-4776-b8f2-6450602c8696"},"vehicle_type_id":"4","last_reported":1746302992,"current_range_meters":8000,"station_id":"ce4bhpp2rcd13ifvqhfg","pricing_plan_id":"cebpf4jnsgd1na2vs0mg"},{"bike_id":"b18dc88a-13cd-4170-8a5c-c71a620f277d","system_id":"levelo_inurba_marseille","lat":43.28075,"lon":5.39661,"is_reserved":false,"is_disabled":false,"rental_uris":{"android":"levelo://app?vid=b18dc88a-13cd-4170-8a5c-c71a620f277d","ios":"levelo://app?vid=b18dc88a-13cd-4170-8a5c-c71a620f277d"},"vehicle_type_id":"4","last_reported":1746302992,"current_range_meters":7200,"station_id":"ce4bho12rcd13ifvqh2g","pricing_plan_id":"cebpf4jnsgd1na2vs0mg"},{"bike_id":"f47a25fb-c9fa-4b43-8687-08617f27e06c","system_id":"levelo_inurba_marseille","lat":43.2784,"lon":5.39204,"is_reserved":false,"is_disabled":false,"rental_uris":{"android":"levelo://app?vid=f47a25fb-c9fa-4b43-8687-08617f27e06c","ios":"levelo://app?vid=f47a25fb-c9fa-4b43-8687-08617f27e06c"},"vehicle_type_id":"4","last_reported":1746302992,"current_range_meters":7200,"station_id":"ce4bhjp2rcd13ifvqga0","pricing_plan_id":"cebpf4jnsgd1na2vs0mg"},{"bike_id":"db5995b0-d38c-4f61-b06e-327b6efc75a9","system_id":"levelo_inurba_marseille","lat":43.24819,"lon":5.37451,"is_reserved":false,"is_disabled":false,"rental_uris":{"android":"levelo://app?vid=db5995b0-d38c-4f61-b06e-327b6efc75a9","ios":"levelo://app?vid=db5995b0-d38c-4f61-b06e-327b6efc75a9"},"vehicle_type_id":"4","last_reported":1746302992,"current_range_meters":8000,"station_id":"ce4bhgh2rcd13ifvqfb0","pricing_plan_id":"cebpf4jnsgd1na2vs0mg"},{"bike_id":"1e757feb-a591-4ebd-8356-726a797198d7","system_id":"levelo_inurba_marseille","lat":43.26924,"lon":5.38673,"is_reserved":false,"is_disabled":false,"rental_uris":{"android":"levelo://app?vid=1e757feb-a591-4ebd-8356-726a797198d7","ios":"levelo://app?vid=1e757feb-a591-4ebd-8356-726a797198d7"},"vehicle_type_id":"4","last_reported":1746302992,"current_range_meters":8000,"station_id":"ce4bhh92rcd13ifvqfh0","pricing_plan_id":"cebpf4jnsgd1na2vs0mg"},{"bike_id":"a8ad71e5-662c-438b-af2c-6a7cf5113056","system_id":"levelo_inurba_marseille","lat":43.28081,"lon":5.3965,"is_reserved":false,"is_disabled":false,"rental_uris":{"android":"levelo://app?vid=a8ad71e5-662c-438b-af2c-6a7cf5113056","ios":"levelo://app?vid=a8ad71e5-662c-438b-af2c-6a7cf5113056"},"vehicle_type_id":"4","last_reported":1746302992,"current_range_meters":8000,"station_id":"ce4bho12rcd13ifvqh2g","pricing_plan_id":"cebpf4jnsgd1na2vs0mg"},{"bike_id":"42b265ee-2f6e-42e6-be1a-7cd522f1be6f","system_id":"levelo_inurba_marseille","lat":43.27819,"lon":5.40714,"is_reserved":false,"is_disabled":false,"rental_uris":{"android":"levelo://app?vid=42b265ee-2f6e-42e6-be1a-7cd522f1be6f","ios":"levelo://app?vid=42b265ee-2f6e-42e6-be1a-7cd522f1be6f"},"vehicle_type_id":"4","last_reported":1746302992,"current_range_meters":8400,"station_id":"ce4bhnh2rcd13ifvqgtg","pricing_plan_id":"cebpf4jnsgd1na2vs0mg"},{"bike_id":"9acb8018-e67b-4526-9c41-1aacc774b74b","system_id":"levelo_inurba_marseille","lat":43.29254,"lon":5.38446,"is_reserved":false,"is_disabled":false,"rental_uris":{"android":"levelo://app?vid=9acb8018-e67b-4526-9c41-1aacc774b74b","ios":"levelo://app?vid=9acb8018-e67b-4526-9c41-1aacc774b74b"},"vehicle_type_id":"4","last_reported":1746302992,"current_range_meters":8400,"station_id":"ce4bh692rcd13ifvqea0","pricing_plan_id":"cebpf4jnsgd1na2vs0mg"},{"bike_id":"b19a1dea-b13b-4569-b12c-2da1dda54d20","system_id":"levelo_inurba_marseille","lat":43.29993,"lon":5.37148,"is_reserved":false,"is_disabled":false,"rental_uris":{"android":"levelo://app?vid=b19a1dea-b13b-4569-b12c-2da1dda54d20","ios":"levelo://app?vid=b19a1dea-b13b-4569-b12c-2da1dda54d20"},"vehicle_type_id":"4","last_reported":1746302992,"current_range_meters":8400,"station_id":"ce4bgr92rcd13ifvqc7g","pricing_plan_id":"cebpf4jnsgd1na2vs0mg"},{"bike_id":"f84afab2-2f48-4ee2-a203-93236240c8c0","system_id":"levelo_inurba_marseille","lat":43.30163,"lon":5.36633,"is_reserved":false,"is_disabled":false,"rental_uris":{"android":"levelo://app?vid=f84afab2-2f48-4ee2-a203-93236240c8c0","ios":"levelo://app?vid=f84afab2-2f48-4ee2-a203-93236240c8c0"},"vehicle_type_id":"4","last_reported":1746302992,"current_range_meters":8400,"station_id":"ce4bgrh2rcd13ifvqc8g","pricing_plan_id":"cebpf4jnsgd1na2vs0mg"},{"bike_id":"e27ce41e-d31e-4411-a762-387f29d91877","system_id":"levelo_inurba_marseille","lat":43.29568,"lon":5.42283,"is_reserved":false,"is_disabled":false,"rental_uris":{"android":"levelo://app?vid=e27ce41e-d31e-4411-a762-387f29d91877","ios":"levelo://app?vid=e27ce41e-d31e-4411-a762-387f29d91877"},"vehicle_type_id":"4","last_reported":1746302992,"current_range_meters":8400,"station_id":"ce4bhph2rcd13ifvqhdg","pricing_plan_id":"cebpf4jnsgd1na2vs0mg"},{"bike_id":"84491ce5-c21a-43d5-bd3c-028e2950da7f","system_id":"levelo_inurba_marseille","lat":43.29968,"lon":5.37188,"is_reserved":false,"is_disabled":false,"rental_uris":{"android":"levelo://app?vid=84491ce5-c21a-43d5-bd3c-028e2950da7f","ios":"levelo://app?vid=84491ce5-c21a-43d5-bd3c-028e2950da7f"},"vehicle_type_id":"4","last_reported":1746302992,"current_range_meters":8400,"station_id":"ce4bgr92rcd13ifvqc7g","pricing_plan_id":"cebpf4jnsgd1na2vs0mg"},{"bike_id":"01f0e517-adba-4990-a447-2c3be89f52b5","system_id":"levelo_inurba_marseille","lat":43.25496,"lon":5.3765,"is_reserved":false,"is_disabled":false,"rental_uris":{"android":"levelo://app?vid=01f0e517-adba-4990-a447-2c3be89f52b5","ios":"levelo://app?vid=01f0e517-adba-4990-a447-2c3be89f52b5"},"vehicle_type_id":"4","last_reported":1746302992,"current_range_meters":8400,"station_id":"ce4bhh12rcd13ifvqff0","pricing_plan_id":"cebpf4jnsgd1na2vs0mg"},{"bike_id":"d7e2749f-9d82-415f-a7ab-d84559d51c0a","system_id":"levelo_inurba_marseille","lat":43.29918,"lon":5.3814,"is_reserved":false,"is_disabled":false,"rental_uris":{"android":"levelo://app?vid=d7e2749f-9d82-415f-a7ab-d84559d51c0a","ios":"levelo://app?vid=d7e2749f-9d82-415f-a7ab-d84559d51c0a"},"vehicle_type_id":"4","last_reported":1746302992,"current_range_meters":8000,"station_id":"ce4bgj12rcd13ifvqbc0","pricing_plan_id":"cebpf4jnsgd1na2vs0mg"},{"bike_id":"0e34a68a-1e7e-4217-99de-5fd03012d1b6","system_id":"levelo_inurba_marseille","lat":43.23964,"lon":5.36634,"is_reserved":false,"is_disabled":false,"rental_uris":{"android":"levelo://app?vid=0e34a68a-1e7e-4217-99de-5fd03012d1b6","ios":"levelo://app?vid=0e34a68a-1e7e-4217-99de-5fd03012d1b6"},"vehicle_type_id":"4","last_reported":1746302992,"current_range_meters":8400,"station_id":"ce4bhi12rcd13ifvqfp0","pricing_plan_id":"cebpf4jnsgd1na2vs0mg"},{"bike_id":"570b486c-50df-4f1f-97df-caa86c0d419e","system_id":"levelo_inurba_marseille","lat":43.33695,"lon":5.35573,"is_reserved":false,"is_disabled":false,"rental_uris":{"android":"levelo://app?vid=570b486c-50df-4f1f-97df-caa86c0d419e","ios":"levelo://app?vid=570b486c-50df-4f1f-97df-caa86c0d419e"},"vehicle_type_id":"4","last_reported":1746302992,"current_range_meters":8400,"station_id":"","pricing_plan_id":"cebpf4jnsgd1na2vs0mg"},{"bike_id":"b409c6b2-64ce-467c-a8aa-226f6b33481f","system_id":"levelo_inurba_marseille","lat":43.299136,"lon":5.385316,"is_reserved":false,"is_disabled":false,"rental_uris":{"android":"levelo://app?vid=b409c6b2-64ce-467c-a8aa-226f6b33481f","ios":"levelo://app?vid=b409c6b2-64ce-467c-a8aa-226f6b33481f"},"vehicle_type_id":"4","last_reported":1746302992,"current_range_meters":8800,"station_id":"ce4bgj92rcd13ifvqbd0","pricing_plan_id":"cebpf4jnsgd1na2vs0mg"},{"bike_id":"008ee85b-ef0c-471e-a6a4-337aebb4bd3a","system_id":"levelo_inurba_marseille","lat":43.25501,"lon":5.37653,"is_reserved":false,"is_disabled":false,"rental_uris":{"android":"levelo://app?vid=008ee85b-ef0c-471e-a6a4-337aebb4bd3a","ios":"levelo://app?vid=008ee85b-ef0c-471e-a6a4-337aebb4bd3a"},"vehicle_type_id":"4","last_reported":1746302992,"current_range_meters":8400,"station_id":"ce4bhh12rcd13ifvqff0","pricing_plan_id":"cebpf4jnsgd1na2vs0mg"},{"bike_id":"0ca2aeff-c10c-4be3-8c0b-3162193c983e","system_id":"levelo_inurba_marseille","lat":43.30782,"lon":5.37657,"is_reserved":false,"is_disabled":true,"rental_uris":{"android":"levelo://app?vid=0ca2aeff-c10c-4be3-8c0b-3162193c983e","ios":"levelo://app?vid=0ca2aeff-c10c-4be3-8c0b-3162193c983e"},"vehicle_type_id":"4","last_reported":1746302992,"current_range_meters":8800,"station_id":"","pricing_plan_id":"cebpf4jnsgd1na2vs0mg"},{"bike_id":"38a0dbcd-2be8-44bc-838b-f55006af8ebd","system_id":"levelo_inurba_marseille","lat":43.24802,"lon":5.37453,"is_reserved":false,"is_disabled":false,"rental_uris":{"android":"levelo://app?vid=38a0dbcd-2be8-44bc-838b-f55006af8ebd","ios":"levelo://app?vid=38a0dbcd-2be8-44bc-838b-f55006af8ebd"},"vehicle_type_id":"4","last_reported":1746302992,"current_range_meters":8800,"station_id":"ce4bhgh2rcd13ifvqfb0","pricing_plan_id":"cebpf4jnsgd1na2vs0mg"},{"bike_id":"215e7328-f089-4406-84b8-d742bd07d56d","system_id":"levelo_inurba_marseille","lat":43.23958,"lon":5.36636,"is_reserved":false,"is_disabled":false,"rental_uris":{"android":"levelo://app?vid=215e7328-f089-4406-84b8-d742bd07d56d","ios":"levelo://app?vid=215e7328-f089-4406-84b8-d742bd07d56d"},"vehicle_type_id":"4","last_reported":1746302992,"current_range_meters":8800,"station_id":"ce4bhi12rcd13ifvqfp0","pricing_plan_id":"cebpf4jnsgd1na2vs0mg"},{"bike_id":"e3bb8c53-9778-422e-96ea-7d06d72dda63","system_id":"levelo_inurba_marseille","lat":43.28192,"lon":5.40401,"is_reserved":false,"is_disabled":false,"rental_uris":{"android":"levelo://app?vid=e3bb8c53-9778-422e-96ea-7d06d72dda63","ios":"levelo://app?vid=e3bb8c53-9778-422e-96ea-7d06d72dda63"},"vehicle_type_id":"4","last_reported":1746302992,"current_range_meters":8800,"station_id":"","pricing_plan_id":"cebpf4jnsgd1na2vs0mg"},{"bike_id":"4fa24651-98e0-44ff-8c18-09355d89433b","system_id":"levelo_inurba_marseille","lat":43.29032,"lon":5.39999,"is_reserved":false,"is_disabled":false,"rental_uris":{"android":"levelo://app?vid=4fa24651-98e0-44ff-8c18-09355d89433b","ios":"levelo://app?vid=4fa24651-98e0-44ff-8c18-09355d89433b"},"vehicle_type_id":"4","last_reported":1746302992,"current_range_meters":8400,"station_id":"ce4bh392rcd13ifvqdm0","pricing_plan_id":"cebpf4jnsgd1na2vs0mg"},{"bike_id":"d8db3569-403f-49f6-9848-11738cb657c8","system_id":"levelo_inurba_marseille","lat":43.30086,"lon":5.3908,"is_reserved":false,"is_disabled":false,"rental_uris":{"android":"levelo://app?vid=d8db3569-403f-49f6-9848-11738cb657c8","ios":"levelo://app?vid=d8db3569-403f-49f6-9848-11738cb657c8"},"vehicle_type_id":"4","last_reported":1746302992,"current_range_meters":8400,"station_id":"ce4bh192rcd13ifvqdb0","pricing_plan_id":"cebpf4jnsgd1na2vs0mg"},{"bike_id":"00eedf80-9648-4660-9521-6b3b33688cf1","system_id":"levelo_inurba_marseille","lat":43.28428,"lon":5.39183,"is_reserved":false,"is_disabled":false,"rental_uris":{"android":"levelo://app?vid=00eedf80-9648-4660-9521-6b3b33688cf1","ios":"levelo://app?vid=00eedf80-9648-4660-9521-6b3b33688cf1"},"vehicle_type_id":"4","last_reported":1746302992,"current_range_meters":8800,"station_id":"ce4bhoh2rcd13ifvqh5g","pricing_plan_id":"cebpf4jnsgd1na2vs0mg"},{"bike_id":"dfb3396e-96f5-457c-af11-f6f27dad33e9","system_id":"levelo_inurba_marseille","lat":43.271991,"lon":5.364846,"is_reserved":false,"is_disabled":false,"rental_uris":{"android":"levelo://app?vid=dfb3396e-96f5-457c-af11-f6f27dad33e9","ios":"levelo://app?vid=dfb3396e-96f5-457c-af11-f6f27dad33e9"},"vehicle_type_id":"4","last_reported":1746302992,"current_range_meters":9200,"station_id":"","pricing_plan_id":"cebpf4jnsgd1na2vs0mg"},{"bike_id":"719e3e6f-7855-459f-b93c-3d0ed75fab45","system_id":"levelo_inurba_marseille","lat":43.29255,"lon":5.37622,"is_reserved":false,"is_disabled":false,"rental_uris":{"android":"levelo://app?vid=719e3e6f-7855-459f-b93c-3d0ed75fab45","ios":"levelo://app?vid=719e3e6f-7855-459f-b93c-3d0ed75fab45"},"vehicle_type_id":"4","last_reported":1746302992,"current_range_meters":9200,"station_id":"ce4bgi12rcd13ifvqb80","pricing_plan_id":"cebpf4jnsgd1na2vs0mg"},{"bike_id":"ef69e7cc-37df-4e66-bd4f-a85ef9d1ea7e","system_id":"levelo_inurba_marseille","lat":43.27489,"lon":5.42454,"is_reserved":false,"is_disabled":false,"rental_uris":{"android":"levelo://app?vid=ef69e7cc-37df-4e66-bd4f-a85ef9d1ea7e","ios":"levelo://app?vid=ef69e7cc-37df-4e66-bd4f-a85ef9d1ea7e"},"vehicle_type_id":"4","last_reported":1746302992,"current_range_meters":9200,"station_id":"ce4bhn92rcd13ifvqgrg","pricing_plan_id":"cebpf4jnsgd1na2vs0mg"},{"bike_id":"721f19a3-6fc8-4aa3-b8d6-b74174066f05","system_id":"levelo_inurba_marseille","lat":43.32004,"lon":5.38148,"is_reserved":false,"is_disabled":false,"rental_uris":{"android":"levelo://app?vid=721f19a3-6fc8-4aa3-b8d6-b74174066f05","ios":"levelo://app?vid=721f19a3-6fc8-4aa3-b8d6-b74174066f05"},"vehicle_type_id":"4","last_reported":1746302992,"current_range_meters":9200,"station_id":"ce4bhr12rcd13ifvqhpg","pricing_plan_id":"cebpf4jnsgd1na2vs0mg"},{"bike_id":"e01a1cd5-cab2-492e-b513-735fbe5fe508","system_id":"levelo_inurba_marseille","lat":43.32538,"lon":5.41424,"is_reserved":false,"is_disabled":false,"rental_uris":{"android":"levelo://app?vid=e01a1cd5-cab2-492e-b513-735fbe5fe508","ios":"levelo://app?vid=e01a1cd5-cab2-492e-b513-735fbe5fe508"},"vehicle_type_id":"4","last_reported":1746302992,"current_range_meters":8800,"station_id":"ce4bhq12rcd13ifvqhhg","pricing_plan_id":"cebpf4jnsgd1na2vs0mg"},{"bike_id":"8df6e310-0880-40a9-a691-cd475dfa3928","system_id":"levelo_inurba_marseille","lat":43.2859,"lon":5.442454,"is_reserved":false,"is_disabled":false,"rental_uris":{"android":"levelo://app?vid=8df6e310-0880-40a9-a691-cd475dfa3928","ios":"levelo://app?vid=8df6e310-0880-40a9-a691-cd475dfa3928"},"vehicle_type_id":"4","last_reported":1746302992,"current_range_meters":9200,"station_id":"","pricing_plan_id":"cebpf4jnsgd1na2vs0mg"},{"bike_id":"a9b758e0-e52e-4865-b74c-53b252768e90","system_id":"levelo_inurba_marseille","lat":43.29258,"lon":5.38456,"is_reserved":false,"is_disabled":false,"rental_uris":{"android":"levelo://app?vid=a9b758e0-e52e-4865-b74c-53b252768e90","ios":"levelo://app?vid=a9b758e0-e52e-4865-b74c-53b252768e90"},"vehicle_type_id":"4","last_reported":1746302992,"current_range_meters":9200,"station_id":"ce4bh692rcd13ifvqea0","pricing_plan_id":"cebpf4jnsgd1na2vs0mg"},{"bike_id":"e4856e11-0139-477e-a022-4b979369719b","system_id":"levelo_inurba_marseille","lat":43.2396,"lon":5.3663,"is_reserved":false,"is_disabled":false,"rental_uris":{"android":"levelo://app?vid=e4856e11-0139-477e-a022-4b979369719b","ios":"levelo://app?vid=e4856e11-0139-477e-a022-4b979369719b"},"vehicle_type_id":"4","last_reported":1746302992,"current_range_meters":9600,"station_id":"ce4bhi12rcd13ifvqfp0","pricing_plan_id":"cebpf4jnsgd1na2vs0mg"},{"bike_id":"3a6c1c4a-dd80-4e9d-9632-aaca59f6d0aa","system_id":"levelo_inurba_marseille","lat":43.32354,"lon":5.38895,"is_reserved":false,"is_disabled":false,"rental_uris":{"android":"levelo://app?vid=3a6c1c4a-dd80-4e9d-9632-aaca59f6d0aa","ios":"levelo://app?vid=3a6c1c4a-dd80-4e9d-9632-aaca59f6d0aa"},"vehicle_type_id":"4","last_reported":1746302992,"current_range_meters":9600,"station_id":"ce4bhqp2rcd13ifvqhog","pricing_plan_id":"cebpf4jnsgd1na2vs0mg"},{"bike_id":"f5fa6b55-dc56-438d-bede-05195b321fd5","system_id":"levelo_inurba_marseille","lat":43.29557,"lon":5.37516,"is_reserved":false,"is_disabled":true,"rental_uris":{"android":"levelo://app?vid=f5fa6b55-dc56-438d-bede-05195b321fd5","ios":"levelo://app?vid=f5fa6b55-dc56-438d-bede-05195b321fd5"},"vehicle_type_id":"4","last_reported":1746302992,"current_range_meters":9600,"station_id":"ce4bgh92rcd13ifvqb50","pricing_plan_id":"cebpf4jnsgd1na2vs0mg"},{"bike_id":"f1ffd2b9-91e9-4bf5-a319-6e95940b0de6","system_id":"levelo_inurba_marseille","lat":43.29565,"lon":5.422779,"is_reserved":false,"is_disabled":false,"rental_uris":{"android":"levelo://app?vid=f1ffd2b9-91e9-4bf5-a319-6e95940b0de6","ios":"levelo://app?vid=f1ffd2b9-91e9-4bf5-a319-6e95940b0de6"},"vehicle_type_id":"4","last_reported":1746302992,"current_range_meters":9600,"station_id":"ce4bhph2rcd13ifvqhdg","pricing_plan_id":"cebpf4jnsgd1na2vs0mg"},{"bike_id":"6e504a5c-1019-49a2-bbb7-67e0ca4fda0e","system_id":"levelo_inurba_marseille","lat":43.27811,"lon":5.40708,"is_reserved":false,"is_disabled":false,"rental_uris":{"android":"levelo://app?vid=6e504a5c-1019-49a2-bbb7-67e0ca4fda0e","ios":"levelo://app?vid=6e504a5c-1019-49a2-bbb7-67e0ca4fda0e"},"vehicle_type_id":"4","last_reported":1746302992,"current_range_meters":9600,"station_id":"ce4bhnh2rcd13ifvqgtg","pricing_plan_id":"cebpf4jnsgd1na2vs0mg"},{"bike_id":"52b2b11c-fa93-4c1e-a120-3fdc360b4a73","system_id":"levelo_inurba_marseille","lat":43.28039,"lon":5.36943,"is_reserved":false,"is_disabled":false,"rental_uris":{"android":"levelo://app?vid=52b2b11c-fa93-4c1e-a120-3fdc360b4a73","ios":"levelo://app?vid=52b2b11c-fa93-4c1e-a120-3fdc360b4a73"},"vehicle_type_id":"4","last_reported":1746302992,"current_range_meters":9200,"station_id":"ce4bha12rcd13ifvqef0","pricing_plan_id":"cebpf4jnsgd1na2vs0mg"},{"bike_id":"5d9a54ab-8ca5-45ce-9e8d-1ecc587fe2f3","system_id":"levelo_inurba_marseille","lat":43.29727,"lon":5.40726,"is_reserved":false,"is_disabled":false,"rental_uris":{"android":"levelo://app?vid=5d9a54ab-8ca5-45ce-9e8d-1ecc587fe2f3","ios":"levelo://app?vid=5d9a54ab-8ca5-45ce-9e8d-1ecc587fe2f3"},"vehicle_type_id":"4","last_reported":1746302992,"current_range_meters":10000,"station_id":"","pricing_plan_id":"cebpf4jnsgd1na2vs0mg"},{"bike_id":"6ae9068b-8534-47e2-832a-cb0e5255371d","system_id":"levelo_inurba_marseille","lat":43.337444,"lon":5.374475,"is_reserved":false,"is_disabled":false,"rental_uris":{"android":"levelo://app?vid=6ae9068b-8534-47e2-832a-cb0e5255371d","ios":"levelo://app?vid=6ae9068b-8534-47e2-832a-cb0e5255371d"},"vehicle_type_id":"4","last_reported":1746302992,"current_range_meters":10000,"station_id":"ce4bgvp2rcd13ifvqct0","pricing_plan_id":"cebpf4jnsgd1na2vs0mg"},{"bike_id":"db9be0c1-80d5-4315-9367-2a96fca91123","system_id":"levelo_inurba_marseille","lat":43.30649,"lon":5.40097,"is_reserved":false,"is_disabled":false,"rental_uris":{"android":"levelo://app?vid=db9be0c1-80d5-4315-9367-2a96fca91123","ios":"levelo://app?vid=db9be0c1-80d5-4315-9367-2a96fca91123"},"vehicle_type_id":"4","last_reported":1746302992,"current_range_meters":10000,"station_id":"ce4bh112rcd13ifvqda0","pricing_plan_id":"cebpf4jnsgd1na2vs0mg"},{"bike_id":"31e90b5d-ca42-481a-b266-0ea867b7714b","system_id":"levelo_inurba_marseille","lat":43.31116,"lon":5.37768,"is_reserved":false,"is_disabled":false,"rental_uris":{"android":"levelo://app?vid=31e90b5d-ca42-481a-b266-0ea867b7714b","ios":"levelo://app?vid=31e90b5d-ca42-481a-b266-0ea867b7714b"},"vehicle_type_id":"4","last_reported":1746302992,"current_range_meters":9600,"station_id":"ce4bgt92rcd13ifvqcg0","pricing_plan_id":"cebpf4jnsgd1na2vs0mg"},{"bike_id":"ff278be4-0c6a-4196-928a-92068cc92944","system_id":"levelo_inurba_marseille","lat":43.27201,"lon":5.39188,"is_reserved":false,"is_disabled":false,"rental_uris":{"android":"levelo://app?vid=ff278be4-0c6a-4196-928a-92068cc92944","ios":"levelo://app?vid=ff278be4-0c6a-4196-928a-92068cc92944"},"vehicle_type_id":"4","last_reported":1746302992,"current_range_meters":9600,"station_id":"ce4bhhp2rcd13ifvqfm0","pricing_plan_id":"cebpf4jnsgd1na2vs0mg"},{"bike_id":"f0259f55-382d-4317-a5a3-c63365a0d76b","system_id":"levelo_inurba_marseille","lat":43.25533,"lon":5.41804,"is_reserved":false,"is_disabled":false,"rental_uris":{"android":"levelo://app?vid=f0259f55-382d-4317-a5a3-c63365a0d76b","ios":"levelo://app?vid=f0259f55-382d-4317-a5a3-c63365a0d76b"},"vehicle_type_id":"4","last_reported":1746302992,"current_range_meters":10800,"station_id":"","pricing_plan_id":"cebpf4jnsgd1na2vs0mg"},{"bike_id":"be9042c4-716a-416e-af52-c92d47776467","system_id":"levelo_inurba_marseille","lat":43.30943,"lon":5.40157,"is_reserved":false,"is_disabled":true,"rental_uris":{"android":"levelo://app?vid=be9042c4-716a-416e-af52-c92d47776467","ios":"levelo://app?vid=be9042c4-716a-416e-af52-c92d47776467"},"vehicle_type_id":"4","last_reported":1746302992,"current_range_meters":10800,"station_id":"ce4bgvp2rcd13ifvqct0","pricing_plan_id":"cebpf4jnsgd1na2vs0mg"},{"bike_id":"7c53a189-2f7a-46d3-a739-a0547f893703","system_id":"levelo_inurba_marseille","lat":43.29296,"lon":5.37462,"is_reserved":false,"is_disabled":false,"rental_uris":{"android":"levelo://app?vid=7c53a189-2f7a-46d3-a739-a0547f893703","ios":"levelo://app?vid=7c53a189-2f7a-46d3-a739-a0547f893703"},"vehicle_type_id":"4","last_reported":1746302992,"current_range_meters":10000,"station_id":"ce4bgi12rcd13ifvqb70","pricing_plan_id":"cebpf4jnsgd1na2vs0mg"},{"bike_id":"59c05668-9a78-4683-b670-a7794c85b3b0","system_id":"levelo_inurba_marseille","lat":43.29374,"lon":5.37855,"is_reserved":false,"is_disabled":true,"rental_uris":{"android":"levelo://app?vid=59c05668-9a78-4683-b670-a7794c85b3b0","ios":"levelo://app?vid=59c05668-9a78-4683-b670-a7794c85b3b0"},"vehicle_type_id":"4","last_reported":1746302992,"current_range_meters":10800,"station_id":"ce4bgjh2rcd13ifvqbf0","pricing_plan_id":"cebpf4jnsgd1na2vs0mg"},{"bike_id":"73866467-7499-4216-8928-772606dca3c2","system_id":"levelo_inurba_marseille","lat":43.30427,"lon":5.38889,"is_reserved":false,"is_disabled":false,"rental_uris":{"android":"levelo://app?vid=73866467-7499-4216-8928-772606dca3c2","ios":"levelo://app?vid=73866467-7499-4216-8928-772606dca3c2"},"vehicle_type_id":"4","last_reported":1746302992,"current_range_meters":10800,"station_id":"ce4bgk12rcd13ifvqbi0","pricing_plan_id":"cebpf4jnsgd1na2vs0mg"},{"bike_id":"afe26da8-c150-4841-946f-711e82647dd0","system_id":"levelo_inurba_marseille","lat":43.29265,"lon":5.38434,"is_reserved":false,"is_disabled":false,"rental_uris":{"android":"levelo://app?vid=afe26da8-c150-4841-946f-711e82647dd0","ios":"levelo://app?vid=afe26da8-c150-4841-946f-711e82647dd0"},"vehicle_type_id":"4","last_reported":1746302992,"current_range_meters":10800,"station_id":"ce4bh692rcd13ifvqea0","pricing_plan_id":"cebpf4jnsgd1na2vs0mg"},{"bike_id":"482f00aa-c3ee-446b-8f24-a1d4dffa2e19","system_id":"levelo_inurba_marseille","lat":43.29862,"lon":5.37668,"is_reserved":false,"is_disabled":false,"rental_uris":{"android":"levelo://app?vid=482f00aa-c3ee-446b-8f24-a1d4dffa2e19","ios":"levelo://app?vid=482f00aa-c3ee-446b-8f24-a1d4dffa2e19"},"vehicle_type_id":"4","last_reported":1746302992,"current_range_meters":10800,"station_id":"","pricing_plan_id":"cebpf4jnsgd1na2vs0mg"},{"bike_id":"558e8e48-07cf-4714-a5a4-e6d37e9c12f6","system_id":"levelo_inurba_marseille","lat":43.29257,"lon":5.38462,"is_reserved":false,"is_disabled":false,"rental_uris":{"android":"levelo://app?vid=558e8e48-07cf-4714-a5a4-e6d37e9c12f6","ios":"levelo://app?vid=558e8e48-07cf-4714-a5a4-e6d37e9c12f6"},"vehicle_type_id":"4","last_reported":1746302992,"current_range_meters":10800,"station_id":"ce4bh692rcd13ifvqea0","pricing_plan_id":"cebpf4jnsgd1na2vs0mg"},{"bike_id":"fb582505-15b6-40c6-97cc-2feebea7d568","system_id":"levelo_inurba_marseille","lat":43.30428,"lon":5.39742,"is_reserved":false,"is_disabled":true,"rental_uris":{"android":"levelo://app?vid=fb582505-15b6-40c6-97cc-2feebea7d568","ios":"levelo://app?vid=fb582505-15b6-40c6-97cc-2feebea7d568"},"vehicle_type_id":"4","last_reported":1746302992,"current_range_meters":11200,"station_id":"ce4bh092rcd13ifvqd20","pricing_plan_id":"cebpf4jnsgd1na2vs0mg"},{"bike_id":"75fa9943-cbe0-4940-a9be-f80f8dede2da","system_id":"levelo_inurba_marseille","lat":43.22503,"lon":5.34762,"is_reserved":false,"is_disabled":false,"rental_uris":{"android":"levelo://app?vid=75fa9943-cbe0-4940-a9be-f80f8dede2da","ios":"levelo://app?vid=75fa9943-cbe0-4940-a9be-f80f8dede2da"},"vehicle_type_id":"4","last_reported":1746302992,"current_range_meters":11200,"station_id":"st_cvj5dfep6f1abm77gieg","pricing_plan_id":"cebpf4jnsgd1na2vs0mg"},{"bike_id":"973331b4-0ac3-4826-a349-2395352aeb67","system_id":"levelo_inurba_marseille","lat":43.29263,"lon":5.38448,"is_reserved":false,"is_disabled":false,"rental_uris":{"android":"levelo://app?vid=973331b4-0ac3-4826-a349-2395352aeb67","ios":"levelo://app?vid=973331b4-0ac3-4826-a349-2395352aeb67"},"vehicle_type_id":"4","last_reported":1746302992,"current_range_meters":11200,"station_id":"ce4bh692rcd13ifvqea0","pricing_plan_id":"cebpf4jnsgd1na2vs0mg"},{"bike_id":"aa3112fb-8eac-4fa6-b1e9-9cf06e132dbc","system_id":"levelo_inurba_marseille","lat":43.29361,"lon":5.3787,"is_reserved":false,"is_disabled":false,"rental_uris":{"android":"levelo://app?vid=aa3112fb-8eac-4fa6-b1e9-9cf06e132dbc","ios":"levelo://app?vid=aa3112fb-8eac-4fa6-b1e9-9cf06e132dbc"},"vehicle_type_id":"4","last_reported":1746302992,"current_range_meters":11200,"station_id":"ce4bgjh2rcd13ifvqbf0","pricing_plan_id":"cebpf4jnsgd1na2vs0mg"},{"bike_id":"5052caaa-da4c-496d-bd57-51ccaa15ad75","system_id":"levelo_inurba_marseille","lat":43.25494,"lon":5.3765,"is_reserved":false,"is_disabled":false,"rental_uris":{"android":"levelo://app?vid=5052caaa-da4c-496d-bd57-51ccaa15ad75","ios":"levelo://app?vid=5052caaa-da4c-496d-bd57-51ccaa15ad75"},"vehicle_type_id":"4","last_reported":1746302992,"current_range_meters":10800,"station_id":"ce4bhh12rcd13ifvqff0","pricing_plan_id":"cebpf4jnsgd1na2vs0mg"},{"bike_id":"2f2e2422-0ca9-4635-8561-f770e540dc91","system_id":"levelo_inurba_marseille","lat":43.29779,"lon":5.37026,"is_reserved":false,"is_disabled":false,"rental_uris":{"android":"levelo://app?vid=2f2e2422-0ca9-4635-8561-f770e540dc91","ios":"levelo://app?vid=2f2e2422-0ca9-4635-8561-f770e540dc91"},"vehicle_type_id":"4","last_reported":1746302992,"current_range_meters":11200,"station_id":"","pricing_plan_id":"cebpf4jnsgd1na2vs0mg"},{"bike_id":"c9667bec-b4e1-4aba-85da-6ad1e46c0b9d","system_id":"levelo_inurba_marseille","lat":43.27073,"lon":5.42287,"is_reserved":false,"is_disabled":false,"rental_uris":{"android":"levelo://app?vid=c9667bec-b4e1-4aba-85da-6ad1e46c0b9d","ios":"levelo://app?vid=c9667bec-b4e1-4aba-85da-6ad1e46c0b9d"},"vehicle_type_id":"4","last_reported":1746302992,"current_range_meters":11200,"station_id":"ce4bhk92rcd13ifvqgb0","pricing_plan_id":"cebpf4jnsgd1na2vs0mg"},{"bike_id":"d11ad4ed-5483-4abb-b8ae-c4e0f73880b4","system_id":"levelo_inurba_marseille","lat":43.317187,"lon":5.437019,"is_reserved":false,"is_disabled":false,"rental_uris":{"android":"levelo://app?vid=d11ad4ed-5483-4abb-b8ae-c4e0f73880b4","ios":"levelo://app?vid=d11ad4ed-5483-4abb-b8ae-c4e0f73880b4"},"vehicle_type_id":"4","last_reported":1746302992,"current_range_meters":11200,"station_id":"ce4bhp92rcd13ifvqhcg","pricing_plan_id":"cebpf4jnsgd1na2vs0mg"},{"bike_id":"5329cbd5-8e11-4cdf-a9e1-2d9d84c30f68","system_id":"levelo_inurba_marseille","lat":43.29262,"lon":5.38437,"is_reserved":false,"is_disabled":false,"rental_uris":{"android":"levelo://app?vid=5329cbd5-8e11-4cdf-a9e1-2d9d84c30f68","ios":"levelo://app?vid=5329cbd5-8e11-4cdf-a9e1-2d9d84c30f68"},"vehicle_type_id":"4","last_reported":1746302992,"current_range_meters":11200,"station_id":"ce4bh692rcd13ifvqea0","pricing_plan_id":"cebpf4jnsgd1na2vs0mg"},{"bike_id":"9d3d0aeb-a502-4ad6-a875-c444f8bd1aeb","system_id":"levelo_inurba_marseille","lat":43.290951,"lon":5.381226,"is_reserved":false,"is_disabled":false,"rental_uris":{"android":"levelo://app?vid=9d3d0aeb-a502-4ad6-a875-c444f8bd1aeb","ios":"levelo://app?vid=9d3d0aeb-a502-4ad6-a875-c444f8bd1aeb"},"vehicle_type_id":"4","last_reported":1746302992,"current_range_meters":11200,"station_id":"ce4bh512rcd13ifvqe2g","pricing_plan_id":"cebpf4jnsgd1na2vs0mg"},{"bike_id":"c6063f25-88c2-4ee8-8b47-7eeebc20b14f","system_id":"levelo_inurba_marseille","lat":43.24801,"lon":5.37453,"is_reserved":false,"is_disabled":false,"rental_uris":{"android":"levelo://app?vid=c6063f25-88c2-4ee8-8b47-7eeebc20b14f","ios":"levelo://app?vid=c6063f25-88c2-4ee8-8b47-7eeebc20b14f"},"vehicle_type_id":"4","last_reported":1746302992,"current_range_meters":11200,"station_id":"ce4bhgh2rcd13ifvqfb0","pricing_plan_id":"cebpf4jnsgd1na2vs0mg"},{"bike_id":"fd2c3c67-23a6-4380-b7ca-8f23c8f78921","system_id":"levelo_inurba_marseille","lat":43.32371,"lon":5.36759,"is_reserved":false,"is_disabled":false,"rental_uris":{"android":"levelo://app?vid=fd2c3c67-23a6-4380-b7ca-8f23c8f78921","ios":"levelo://app?vid=fd2c3c67-23a6-4380-b7ca-8f23c8f78921"},"vehicle_type_id":"4","last_reported":1746302992,"current_range_meters":11200,"station_id":"ce4bhsh2rcd13ifvqi2g","pricing_plan_id":"cebpf4jnsgd1na2vs0mg"},{"bike_id":"1b754203-451e-4fe0-9a9d-a8296355c399","system_id":"levelo_inurba_marseille","lat":43.29265,"lon":5.40904,"is_reserved":false,"is_disabled":false,"rental_uris":{"android":"levelo://app?vid=1b754203-451e-4fe0-9a9d-a8296355c399","ios":"levelo://app?vid=1b754203-451e-4fe0-9a9d-a8296355c399"},"vehicle_type_id":"4","last_reported":1746302992,"current_range_meters":11200,"station_id":"ce4bh192rcd13ifvqdc0","pricing_plan_id":"cebpf4jnsgd1na2vs0mg"},{"bike_id":"f2b82d46-aa38-4e41-bdca-3656c46543c7","system_id":"levelo_inurba_marseille","lat":43.2721,"lon":5.39174,"is_reserved":false,"is_disabled":false,"rental_uris":{"android":"levelo://app?vid=f2b82d46-aa38-4e41-bdca-3656c46543c7","ios":"levelo://app?vid=f2b82d46-aa38-4e41-bdca-3656c46543c7"},"vehicle_type_id":"4","last_reported":1746302992,"current_range_meters":11600,"station_id":"","pricing_plan_id":"cebpf4jnsgd1na2vs0mg"},{"bike_id":"9b97a1bd-704a-4ca2-844e-0ee7bdafed24","system_id":"levelo_inurba_marseille","lat":43.32368,"lon":5.38887,"is_reserved":false,"is_disabled":false,"rental_uris":{"android":"levelo://app?vid=9b97a1bd-704a-4ca2-844e-0ee7bdafed24","ios":"levelo://app?vid=9b97a1bd-704a-4ca2-844e-0ee7bdafed24"},"vehicle_type_id":"4","last_reported":1746302992,"current_range_meters":11600,"station_id":"ce4bhqp2rcd13ifvqhog","pricing_plan_id":"cebpf4jnsgd1na2vs0mg"},{"bike_id":"fcab66b7-0ca1-4ca5-aaa4-61562fa6a43b","system_id":"levelo_inurba_marseille","lat":43.28665,"lon":5.38675,"is_reserved":false,"is_disabled":false,"rental_uris":{"android":"levelo://app?vid=fcab66b7-0ca1-4ca5-aaa4-61562fa6a43b","ios":"levelo://app?vid=fcab66b7-0ca1-4ca5-aaa4-61562fa6a43b"},"vehicle_type_id":"4","last_reported":1746302992,"current_range_meters":11600,"station_id":"ce4bh492rcd13ifvqdug","pricing_plan_id":"cebpf4jnsgd1na2vs0mg"},{"bike_id":"42aa5df6-7b6e-4ece-a165-d3a51389cf8a","system_id":"levelo_inurba_marseille","lat":43.28069,"lon":5.39642,"is_reserved":false,"is_disabled":false,"rental_uris":{"android":"levelo://app?vid=42aa5df6-7b6e-4ece-a165-d3a51389cf8a","ios":"levelo://app?vid=42aa5df6-7b6e-4ece-a165-d3a51389cf8a"},"vehicle_type_id":"4","last_reported":1746302992,"current_range_meters":11200,"station_id":"ce4bho12rcd13ifvqh2g","pricing_plan_id":"cebpf4jnsgd1na2vs0mg"},{"bike_id":"3bd56796-a588-4245-b00a-65ccc252ae20","system_id":"levelo_inurba_marseille","lat":43.32342,"lon":5.40623,"is_reserved":false,"is_disabled":false,"rental_uris":{"android":"levelo://app?vid=3bd56796-a588-4245-b00a-65ccc252ae20","ios":"levelo://app?vid=3bd56796-a588-4245-b00a-65ccc252ae20"},"vehicle_type_id":"4","last_reported":1746302992,"current_range_meters":11600,"station_id":"ce4bhq92rcd13ifvqhjg","pricing_plan_id":"cebpf4jnsgd1na2vs0mg"},{"bike_id":"4d20eac1-6e10-415a-ba44-9463d913f12f","system_id":"levelo_inurba_marseille","lat":43.29779,"lon":5.39072,"is_reserved":false,"is_disabled":false,"rental_uris":{"android":"levelo://app?vid=4d20eac1-6e10-415a-ba44-9463d913f12f","ios":"levelo://app?vid=4d20eac1-6e10-415a-ba44-9463d913f12f"},"vehicle_type_id":"4","last_reported":1746302992,"current_range_meters":11600,"station_id":"","pricing_plan_id":"cebpf4jnsgd1na2vs0mg"},{"bike_id":"36f2eb1e-7180-4ce5-9618-5104188f2533","system_id":"levelo_inurba_marseille","lat":43.24806,"lon":5.37456,"is_reserved":false,"is_disabled":false,"rental_uris":{"android":"levelo://app?vid=36f2eb1e-7180-4ce5-9618-5104188f2533","ios":"levelo://app?vid=36f2eb1e-7180-4ce5-9618-5104188f2533"},"vehicle_type_id":"4","last_reported":1746302992,"current_range_meters":11600,"station_id":"ce4bhgh2rcd13ifvqfb0","pricing_plan_id":"cebpf4jnsgd1na2vs0mg"},{"bike_id":"1f6ed0db-99e6-462e-a3dd-d2316ef597da","system_id":"levelo_inurba_marseille","lat":43.29258,"lon":5.38448,"is_reserved":false,"is_disabled":false,"rental_uris":{"android":"levelo://app?vid=1f6ed0db-99e6-462e-a3dd-d2316ef597da","ios":"levelo://app?vid=1f6ed0db-99e6-462e-a3dd-d2316ef597da"},"vehicle_type_id":"4","last_reported":1746302992,"current_range_meters":11600,"station_id":"ce4bh692rcd13ifvqea0","pricing_plan_id":"cebpf4jnsgd1na2vs0mg"},{"bike_id":"c9c0ffdb-aaab-40a5-aa8c-97dfd85a8dca","system_id":"levelo_inurba_marseille","lat":43.31541,"lon":5.38031,"is_reserved":false,"is_disabled":false,"rental_uris":{"android":"levelo://app?vid=c9c0ffdb-aaab-40a5-aa8c-97dfd85a8dca","ios":"levelo://app?vid=c9c0ffdb-aaab-40a5-aa8c-97dfd85a8dca"},"vehicle_type_id":"4","last_reported":1746302992,"current_range_meters":12000,"station_id":"ce4bhsp2rcd13ifvqi50","pricing_plan_id":"cebpf4jnsgd1na2vs0mg"},{"bike_id":"370dc292-4808-412f-b181-097fd740feab","system_id":"levelo_inurba_marseille","lat":43.288439,"lon":5.393259,"is_reserved":false,"is_disabled":false,"rental_uris":{"android":"levelo://app?vid=370dc292-4808-412f-b181-097fd740feab","ios":"levelo://app?vid=370dc292-4808-412f-b181-097fd740feab"},"vehicle_type_id":"4","last_reported":1746302992,"current_range_meters":12000,"station_id":"","pricing_plan_id":"cebpf4jnsgd1na2vs0mg"},{"bike_id":"a37779e7-3d8a-4c82-9997-3090313b05d7","system_id":"levelo_inurba_marseille","lat":43.22924,"lon":5.35389,"is_reserved":false,"is_disabled":true,"rental_uris":{"android":"levelo://app?vid=a37779e7-3d8a-4c82-9997-3090313b05d7","ios":"levelo://app?vid=a37779e7-3d8a-4c82-9997-3090313b05d7"},"vehicle_type_id":"4","last_reported":1746302992,"current_range_meters":12000,"station_id":"cpo3532slgdg3j2ikp40","pricing_plan_id":"cebpf4jnsgd1na2vs0mg"},{"bike_id":"687a5313-655b-4bfa-8194-8c7e2480da5b","system_id":"levelo_inurba_marseille","lat":43.29251,"lon":5.38453,"is_reserved":false,"is_disabled":false,"rental_uris":{"android":"levelo://app?vid=687a5313-655b-4bfa-8194-8c7e2480da5b","ios":"levelo://app?vid=687a5313-655b-4bfa-8194-8c7e2480da5b"},"vehicle_type_id":"4","last_reported":1746302992,"current_range_meters":12000,"station_id":"ce4bh692rcd13ifvqea0","pricing_plan_id":"cebpf4jnsgd1na2vs0mg"},{"bike_id":"060c4231-f31c-48cf-a21a-eb7af0c41563","system_id":"levelo_inurba_marseille","lat":43.26953,"lon":5.38636,"is_reserved":false,"is_disabled":false,"rental_uris":{"android":"levelo://app?vid=060c4231-f31c-48cf-a21a-eb7af0c41563","ios":"levelo://app?vid=060c4231-f31c-48cf-a21a-eb7af0c41563"},"vehicle_type_id":"4","last_reported":1746302992,"current_range_meters":12000,"station_id":"ce4bhh92rcd13ifvqfh0","pricing_plan_id":"cebpf4jnsgd1na2vs0mg"},{"bike_id":"5863a3f4-80dd-49e3-930e-3c04e4b05c58","system_id":"levelo_inurba_marseille","lat":43.243889,"lon":5.370565,"is_reserved":false,"is_disabled":false,"rental_uris":{"android":"levelo://app?vid=5863a3f4-80dd-49e3-930e-3c04e4b05c58","ios":"levelo://app?vid=5863a3f4-80dd-49e3-930e-3c04e4b05c58"},"vehicle_type_id":"4","last_reported":1746302992,"current_range_meters":12000,"station_id":"ce4bhhh2rcd13ifvqfk0","pricing_plan_id":"cebpf4jnsgd1na2vs0mg"},{"bike_id":"52152005-b012-47dc-9a34-35d4c2861d16","system_id":"levelo_inurba_marseille","lat":43.277882,"lon":5.407301,"is_reserved":false,"is_disabled":false,"rental_uris":{"android":"levelo://app?vid=52152005-b012-47dc-9a34-35d4c2861d16","ios":"levelo://app?vid=52152005-b012-47dc-9a34-35d4c2861d16"},"vehicle_type_id":"4","last_reported":1746302992,"current_range_meters":12400,"station_id":"ce4bhnh2rcd13ifvqgtg","pricing_plan_id":"cebpf4jnsgd1na2vs0mg"},{"bike_id":"d6078402-7b3d-4902-bf88-dea688b433c7","system_id":"levelo_inurba_marseille","lat":43.24549,"lon":5.39523,"is_reserved":false,"is_disabled":false,"rental_uris":{"android":"levelo://app?vid=d6078402-7b3d-4902-bf88-dea688b433c7","ios":"levelo://app?vid=d6078402-7b3d-4902-bf88-dea688b433c7"},"vehicle_type_id":"4","last_reported":1746302992,"current_range_meters":12400,"station_id":"ce4bhlp2rcd13ifvqgjg","pricing_plan_id":"cebpf4jnsgd1na2vs0mg"},{"bike_id":"b29e25d9-4cda-4a03-8582-2d116784037f","system_id":"levelo_inurba_marseille","lat":43.25498,"lon":5.37649,"is_reserved":false,"is_disabled":false,"rental_uris":{"android":"levelo://app?vid=b29e25d9-4cda-4a03-8582-2d116784037f","ios":"levelo://app?vid=b29e25d9-4cda-4a03-8582-2d116784037f"},"vehicle_type_id":"4","last_reported":1746302992,"current_range_meters":12400,"station_id":"ce4bhh12rcd13ifvqff0","pricing_plan_id":"cebpf4jnsgd1na2vs0mg"},{"bike_id":"e4b63684-f5a3-40aa-b9ad-a18a7c371bdb","system_id":"levelo_inurba_marseille","lat":43.28461,"lon":5.35895,"is_reserved":false,"is_disabled":false,"rental_uris":{"android":"levelo://app?vid=e4b63684-f5a3-40aa-b9ad-a18a7c371bdb","ios":"levelo://app?vid=e4b63684-f5a3-40aa-b9ad-a18a7c371bdb"},"vehicle_type_id":"4","last_reported":1746302992,"current_range_meters":12400,"station_id":"ce4bhah2rcd13ifvqei0","pricing_plan_id":"cebpf4jnsgd1na2vs0mg"},{"bike_id":"aedf206f-89f3-4f30-9da6-56fb7ff8915b","system_id":"levelo_inurba_marseille","lat":43.28117,"lon":5.40392,"is_reserved":false,"is_disabled":false,"rental_uris":{"android":"levelo://app?vid=aedf206f-89f3-4f30-9da6-56fb7ff8915b","ios":"levelo://app?vid=aedf206f-89f3-4f30-9da6-56fb7ff8915b"},"vehicle_type_id":"4","last_reported":1746302992,"current_range_meters":12800,"station_id":"","pricing_plan_id":"cebpf4jnsgd1na2vs0mg"},{"bike_id":"a0666bf4-5a43-434a-af0c-c46f8a61c241","system_id":"levelo_inurba_marseille","lat":43.29275,"lon":5.38447,"is_reserved":false,"is_disabled":false,"rental_uris":{"android":"levelo://app?vid=a0666bf4-5a43-434a-af0c-c46f8a61c241","ios":"levelo://app?vid=a0666bf4-5a43-434a-af0c-c46f8a61c241"},"vehicle_type_id":"4","last_reported":1746302992,"current_range_meters":12800,"station_id":"ce4bh692rcd13ifvqea0","pricing_plan_id":"cebpf4jnsgd1na2vs0mg"},{"bike_id":"1d59b5c9-cca4-43f9-a7f4-1bb7ebcfb8ae","system_id":"levelo_inurba_marseille","lat":43.27373,"lon":5.362545,"is_reserved":false,"is_disabled":true,"rental_uris":{"android":"levelo://app?vid=1d59b5c9-cca4-43f9-a7f4-1bb7ebcfb8ae","ios":"levelo://app?vid=1d59b5c9-cca4-43f9-a7f4-1bb7ebcfb8ae"},"vehicle_type_id":"4","last_reported":1746302992,"current_range_meters":12800,"station_id":"","pricing_plan_id":"cebpf4jnsgd1na2vs0mg"},{"bike_id":"6c4b361f-e7e3-4c92-93f7-f29e82813ab6","system_id":"levelo_inurba_marseille","lat":43.29269,"lon":5.38438,"is_reserved":false,"is_disabled":false,"rental_uris":{"android":"levelo://app?vid=6c4b361f-e7e3-4c92-93f7-f29e82813ab6","ios":"levelo://app?vid=6c4b361f-e7e3-4c92-93f7-f29e82813ab6"},"vehicle_type_id":"4","last_reported":1746302992,"current_range_meters":12800,"station_id":"ce4bh692rcd13ifvqea0","pricing_plan_id":"cebpf4jnsgd1na2vs0mg"},{"bike_id":"beb2536f-b95c-42a3-954e-a55ebb0abeec","system_id":"levelo_inurba_marseille","lat":43.310716,"lon":5.383527,"is_reserved":false,"is_disabled":false,"rental_uris":{"android":"levelo://app?vid=beb2536f-b95c-42a3-954e-a55ebb0abeec","ios":"levelo://app?vid=beb2536f-b95c-42a3-954e-a55ebb0abeec"},"vehicle_type_id":"4","last_reported":1746302992,"current_range_meters":12800,"station_id":"","pricing_plan_id":"cebpf4jnsgd1na2vs0mg"},{"bike_id":"274ad913-cb5d-44ea-8484-26eae07424ea","system_id":"levelo_inurba_marseille","lat":43.25872,"lon":5.39917,"is_reserved":false,"is_disabled":true,"rental_uris":{"android":"levelo://app?vid=274ad913-cb5d-44ea-8484-26eae07424ea","ios":"levelo://app?vid=274ad913-cb5d-44ea-8484-26eae07424ea"},"vehicle_type_id":"4","last_reported":1746302992,"current_range_meters":12800,"station_id":"ce4bhl92rcd13ifvqghg","pricing_plan_id":"cebpf4jnsgd1na2vs0mg"},{"bike_id":"6338e318-2f80-4349-ae11-615c887b4fb9","system_id":"levelo_inurba_marseille","lat":43.25951,"lon":5.40899,"is_reserved":false,"is_disabled":false,"rental_uris":{"android":"levelo://app?vid=6338e318-2f80-4349-ae11-615c887b4fb9","ios":"levelo://app?vid=6338e318-2f80-4349-ae11-615c887b4fb9"},"vehicle_type_id":"4","last_reported":1746302992,"current_range_meters":12800,"station_id":"ce4bhm92rcd13ifvqglg","pricing_plan_id":"cebpf4jnsgd1na2vs0mg"},{"bike_id":"3987225f-d0e9-4c92-a517-13af2d2f300c","system_id":"levelo_inurba_marseille","lat":43.29265,"lon":5.38455,"is_reserved":false,"is_disabled":false,"rental_uris":{"android":"levelo://app?vid=3987225f-d0e9-4c92-a517-13af2d2f300c","ios":"levelo://app?vid=3987225f-d0e9-4c92-a517-13af2d2f300c"},"vehicle_type_id":"4","last_reported":1746302992,"current_range_meters":13600,"station_id":"ce4bh692rcd13ifvqea0","pricing_plan_id":"cebpf4jnsgd1na2vs0mg"},{"bike_id":"7601db81-04a5-4796-8d19-109fdcee5cf1","system_id":"levelo_inurba_marseille","lat":43.30187,"lon":5.36618,"is_reserved":false,"is_disabled":false,"rental_uris":{"android":"levelo://app?vid=7601db81-04a5-4796-8d19-109fdcee5cf1","ios":"levelo://app?vid=7601db81-04a5-4796-8d19-109fdcee5cf1"},"vehicle_type_id":"4","last_reported":1746302992,"current_range_meters":13600,"station_id":"ce4bgrh2rcd13ifvqc8g","pricing_plan_id":"cebpf4jnsgd1na2vs0mg"},{"bike_id":"ed173359-688c-4556-9514-bfd9edda4b0b","system_id":"levelo_inurba_marseille","lat":43.27997,"lon":5.40009,"is_reserved":false,"is_disabled":false,"rental_uris":{"android":"levelo://app?vid=ed173359-688c-4556-9514-bfd9edda4b0b","ios":"levelo://app?vid=ed173359-688c-4556-9514-bfd9edda4b0b"},"vehicle_type_id":"4","last_reported":1746302992,"current_range_meters":13600,"station_id":"ce4bho92rcd13ifvqh4g","pricing_plan_id":"cebpf4jnsgd1na2vs0mg"},{"bike_id":"7355c35d-44c2-4d51-a257-e88e77b47633","system_id":"levelo_inurba_marseille","lat":43.29633,"lon":5.37162,"is_reserved":false,"is_disabled":false,"rental_uris":{"android":"levelo://app?vid=7355c35d-44c2-4d51-a257-e88e77b47633","ios":"levelo://app?vid=7355c35d-44c2-4d51-a257-e88e77b47633"},"vehicle_type_id":"4","last_reported":1746302992,"current_range_meters":12800,"station_id":"ce4bgnh2rcd13ifvqc0g","pricing_plan_id":"cebpf4jnsgd1na2vs0mg"},{"bike_id":"389ab642-2fe0-402b-98aa-ba7e38be9817","system_id":"levelo_inurba_marseille","lat":43.30651,"lon":5.40088,"is_reserved":false,"is_disabled":false,"rental_uris":{"android":"levelo://app?vid=389ab642-2fe0-402b-98aa-ba7e38be9817","ios":"levelo://app?vid=389ab642-2fe0-402b-98aa-ba7e38be9817"},"vehicle_type_id":"4","last_reported":1746302992,"current_range_meters":14000,"station_id":"ce4bh112rcd13ifvqda0","pricing_plan_id":"cebpf4jnsgd1na2vs0mg"},{"bike_id":"3db7a264-0fb1-46ff-9e3a-4af8faaebf62","system_id":"levelo_inurba_marseille","lat":43.29263,"lon":5.38456,"is_reserved":false,"is_disabled":false,"rental_uris":{"android":"levelo://app?vid=3db7a264-0fb1-46ff-9e3a-4af8faaebf62","ios":"levelo://app?vid=3db7a264-0fb1-46ff-9e3a-4af8faaebf62"},"vehicle_type_id":"4","last_reported":1746302992,"current_range_meters":14000,"station_id":"ce4bh692rcd13ifvqea0","pricing_plan_id":"cebpf4jnsgd1na2vs0mg"},{"bike_id":"4cd32815-4894-41a0-9a3d-e6c837dcaeea","system_id":"levelo_inurba_marseille","lat":43.29974,"lon":5.38507,"is_reserved":false,"is_disabled":true,"rental_uris":{"android":"levelo://app?vid=4cd32815-4894-41a0-9a3d-e6c837dcaeea","ios":"levelo://app?vid=4cd32815-4894-41a0-9a3d-e6c837dcaeea"},"vehicle_type_id":"4","last_reported":1746302992,"current_range_meters":14000,"station_id":"ce4bgj92rcd13ifvqbd0","pricing_plan_id":"cebpf4jnsgd1na2vs0mg"},{"bike_id":"3e84121a-71ad-4261-b6a9-37316f8cbd59","system_id":"levelo_inurba_marseille","lat":43.29025,"lon":5.38638,"is_reserved":false,"is_disabled":true,"rental_uris":{"android":"levelo://app?vid=3e84121a-71ad-4261-b6a9-37316f8cbd59","ios":"levelo://app?vid=3e84121a-71ad-4261-b6a9-37316f8cbd59"},"vehicle_type_id":"4","last_reported":1746302992,"current_range_meters":14000,"station_id":"ce4bh4p2rcd13ifvqe0g","pricing_plan_id":"cebpf4jnsgd1na2vs0mg"},{"bike_id":"516b77a9-90d0-41f5-8aac-7a3daaee7abc","system_id":"levelo_inurba_marseille","lat":43.31269,"lon":5.40172,"is_reserved":false,"is_disabled":false,"rental_uris":{"android":"levelo://app?vid=516b77a9-90d0-41f5-8aac-7a3daaee7abc","ios":"levelo://app?vid=516b77a9-90d0-41f5-8aac-7a3daaee7abc"},"vehicle_type_id":"4","last_reported":1746302992,"current_range_meters":14400,"station_id":"ce4bh092rcd13ifvqd30","pricing_plan_id":"cebpf4jnsgd1na2vs0mg"},{"bike_id":"0a8ec1ed-028e-41a7-ad3c-9bfb70eeb84e","system_id":"levelo_inurba_marseille","lat":43.29423,"lon":5.38644,"is_reserved":false,"is_disabled":false,"rental_uris":{"android":"levelo://app?vid=0a8ec1ed-028e-41a7-ad3c-9bfb70eeb84e","ios":"levelo://app?vid=0a8ec1ed-028e-41a7-ad3c-9bfb70eeb84e"},"vehicle_type_id":"4","last_reported":1746302992,"current_range_meters":14400,"station_id":"ce4bh2h2rcd13ifvqdh0","pricing_plan_id":"cebpf4jnsgd1na2vs0mg"},{"bike_id":"a9c466a4-ebf3-48b6-a9e6-f7720a5c52dd","system_id":"levelo_inurba_marseille","lat":43.2942,"lon":5.38648,"is_reserved":false,"is_disabled":false,"rental_uris":{"android":"levelo://app?vid=a9c466a4-ebf3-48b6-a9e6-f7720a5c52dd","ios":"levelo://app?vid=a9c466a4-ebf3-48b6-a9e6-f7720a5c52dd"},"vehicle_type_id":"4","last_reported":1746302992,"current_range_meters":14400,"station_id":"ce4bh2h2rcd13ifvqdh0","pricing_plan_id":"cebpf4jnsgd1na2vs0mg"},{"bike_id":"d88f884f-838b-4b2b-b06a-b2ccab545b54","system_id":"levelo_inurba_marseille","lat":43.29183,"lon":5.39325,"is_reserved":false,"is_disabled":false,"rental_uris":{"android":"levelo://app?vid=d88f884f-838b-4b2b-b06a-b2ccab545b54","ios":"levelo://app?vid=d88f884f-838b-4b2b-b06a-b2ccab545b54"},"vehicle_type_id":"4","last_reported":1746302992,"current_range_meters":14400,"station_id":"ce4bh192rcd13ifvqdd0","pricing_plan_id":"cebpf4jnsgd1na2vs0mg"},{"bike_id":"2e77da1e-29de-44e8-bf46-95df44d856e9","system_id":"levelo_inurba_marseille","lat":43.29418,"lon":5.38621,"is_reserved":false,"is_disabled":false,"rental_uris":{"android":"levelo://app?vid=2e77da1e-29de-44e8-bf46-95df44d856e9","ios":"levelo://app?vid=2e77da1e-29de-44e8-bf46-95df44d856e9"},"vehicle_type_id":"4","last_reported":1746302992,"current_range_meters":14400,"station_id":"","pricing_plan_id":"cebpf4jnsgd1na2vs0mg"},{"bike_id":"a82e1b14-54e0-4bd4-b02f-692e7f71524b","system_id":"levelo_inurba_marseille","lat":43.29421,"lon":5.38618,"is_reserved":false,"is_disabled":false,"rental_uris":{"android":"levelo://app?vid=a82e1b14-54e0-4bd4-b02f-692e7f71524b","ios":"levelo://app?vid=a82e1b14-54e0-4bd4-b02f-692e7f71524b"},"vehicle_type_id":"4","last_reported":1746302992,"current_range_meters":14400,"station_id":"ce4bh2h2rcd13ifvqdh0","pricing_plan_id":"cebpf4jnsgd1na2vs0mg"},{"bike_id":"82f66d7f-4cda-46cd-ade6-8d3f2b3cd0af","system_id":"levelo_inurba_marseille","lat":43.31549,"lon":5.38005,"is_reserved":false,"is_disabled":false,"rental_uris":{"android":"levelo://app?vid=82f66d7f-4cda-46cd-ade6-8d3f2b3cd0af","ios":"levelo://app?vid=82f66d7f-4cda-46cd-ade6-8d3f2b3cd0af"},"vehicle_type_id":"4","last_reported":1746302992,"current_range_meters":14400,"station_id":"ce4bhsp2rcd13ifvqi50","pricing_plan_id":"cebpf4jnsgd1na2vs0mg"},{"bike_id":"ed18508f-1431-4895-9241-da34b0a7ca80","system_id":"levelo_inurba_marseille","lat":43.31362,"lon":5.38479,"is_reserved":false,"is_disabled":false,"rental_uris":{"android":"levelo://app?vid=ed18508f-1431-4895-9241-da34b0a7ca80","ios":"levelo://app?vid=ed18508f-1431-4895-9241-da34b0a7ca80"},"vehicle_type_id":"4","last_reported":1746302992,"current_range_meters":14400,"station_id":"ce4bgt92rcd13ifvqcf0","pricing_plan_id":"cebpf4jnsgd1na2vs0mg"},{"bike_id":"8376029f-9d8e-4f59-a856-76e0d3d3fa99","system_id":"levelo_inurba_marseille","lat":43.25496,"lon":5.37649,"is_reserved":false,"is_disabled":false,"rental_uris":{"android":"levelo://app?vid=8376029f-9d8e-4f59-a856-76e0d3d3fa99","ios":"levelo://app?vid=8376029f-9d8e-4f59-a856-76e0d3d3fa99"},"vehicle_type_id":"4","last_reported":1746302992,"current_range_meters":14800,"station_id":"ce4bhh12rcd13ifvqff0","pricing_plan_id":"cebpf4jnsgd1na2vs0mg"},{"bike_id":"a7205db6-8359-4c3b-95d0-22a5cfa066aa","system_id":"levelo_inurba_marseille","lat":43.30798,"lon":5.3815,"is_reserved":false,"is_disabled":false,"rental_uris":{"android":"levelo://app?vid=a7205db6-8359-4c3b-95d0-22a5cfa066aa","ios":"levelo://app?vid=a7205db6-8359-4c3b-95d0-22a5cfa066aa"},"vehicle_type_id":"4","last_reported":1746302992,"current_range_meters":14800,"station_id":"ce4bgt12rcd13ifvqce0","pricing_plan_id":"cebpf4jnsgd1na2vs0mg"},{"bike_id":"2f253395-3465-4c2f-8f96-0677d9517199","system_id":"levelo_inurba_marseille","lat":43.29264,"lon":5.38445,"is_reserved":false,"is_disabled":false,"rental_uris":{"android":"levelo://app?vid=2f253395-3465-4c2f-8f96-0677d9517199","ios":"levelo://app?vid=2f253395-3465-4c2f-8f96-0677d9517199"},"vehicle_type_id":"4","last_reported":1746302992,"current_range_meters":14800,"station_id":"ce4bh692rcd13ifvqea0","pricing_plan_id":"cebpf4jnsgd1na2vs0mg"},{"bike_id":"512e9512-fb7a-4fd9-bb68-30bf94a4e219","system_id":"levelo_inurba_marseille","lat":43.2993,"lon":5.3656,"is_reserved":false,"is_disabled":false,"rental_uris":{"android":"levelo://app?vid=512e9512-fb7a-4fd9-bb68-30bf94a4e219","ios":"levelo://app?vid=512e9512-fb7a-4fd9-bb68-30bf94a4e219"},"vehicle_type_id":"4","last_reported":1746302992,"current_range_meters":14800,"station_id":"ce4bgm92rcd13ifvqbr0","pricing_plan_id":"cebpf4jnsgd1na2vs0mg"},{"bike_id":"e55fd5af-37f4-4b6d-baac-d987b6a25545","system_id":"levelo_inurba_marseille","lat":43.30125,"lon":5.39865,"is_reserved":false,"is_disabled":false,"rental_uris":{"android":"levelo://app?vid=e55fd5af-37f4-4b6d-baac-d987b6a25545","ios":"levelo://app?vid=e55fd5af-37f4-4b6d-baac-d987b6a25545"},"vehicle_type_id":"4","last_reported":1746302992,"current_range_meters":15200,"station_id":"ce4bh0h2rcd13ifvqd40","pricing_plan_id":"cebpf4jnsgd1na2vs0mg"},{"bike_id":"2b217713-a612-4edb-b41c-0fd5ecc0cb22","system_id":"levelo_inurba_marseille","lat":43.30835,"lon":5.37579,"is_reserved":false,"is_disabled":false,"rental_uris":{"android":"levelo://app?vid=2b217713-a612-4edb-b41c-0fd5ecc0cb22","ios":"levelo://app?vid=2b217713-a612-4edb-b41c-0fd5ecc0cb22"},"vehicle_type_id":"4","last_reported":1746302992,"current_range_meters":15200,"station_id":"","pricing_plan_id":"cebpf4jnsgd1na2vs0mg"},{"bike_id":"a37b555a-e13e-4df2-bf39-1733553fc96e","system_id":"levelo_inurba_marseille","lat":43.29259,"lon":5.40899,"is_reserved":false,"is_disabled":false,"rental_uris":{"android":"levelo://app?vid=a37b555a-e13e-4df2-bf39-1733553fc96e","ios":"levelo://app?vid=a37b555a-e13e-4df2-bf39-1733553fc96e"},"vehicle_type_id":"4","last_reported":1746302992,"current_range_meters":15200,"station_id":"ce4bh192rcd13ifvqdc0","pricing_plan_id":"cebpf4jnsgd1na2vs0mg"},{"bike_id":"e547f553-f0e1-444d-b67a-f36b2093db09","system_id":"levelo_inurba_marseille","lat":43.27905,"lon":5.38007,"is_reserved":false,"is_disabled":false,"rental_uris":{"android":"levelo://app?vid=e547f553-f0e1-444d-b67a-f36b2093db09","ios":"levelo://app?vid=e547f553-f0e1-444d-b67a-f36b2093db09"},"vehicle_type_id":"4","last_reported":1746302992,"current_range_meters":15200,"station_id":"ce4bhf92rcd13ifvqf50","pricing_plan_id":"cebpf4jnsgd1na2vs0mg"},{"bike_id":"f5adbbdd-5b4f-4fe9-81e4-22abfa51995d","system_id":"levelo_inurba_marseille","lat":43.29421,"lon":5.38621,"is_reserved":false,"is_disabled":false,"rental_uris":{"android":"levelo://app?vid=f5adbbdd-5b4f-4fe9-81e4-22abfa51995d","ios":"levelo://app?vid=f5adbbdd-5b4f-4fe9-81e4-22abfa51995d"},"vehicle_type_id":"4","last_reported":1746302992,"current_range_meters":15200,"station_id":"ce4bh2h2rcd13ifvqdh0","pricing_plan_id":"cebpf4jnsgd1na2vs0mg"},{"bike_id":"4950d071-6e9b-4b7c-a1c2-843c649aebf6","system_id":"levelo_inurba_marseille","lat":43.2621,"lon":5.37447,"is_reserved":false,"is_disabled":false,"rental_uris":{"android":"levelo://app?vid=4950d071-6e9b-4b7c-a1c2-843c649aebf6","ios":"levelo://app?vid=4950d071-6e9b-4b7c-a1c2-843c649aebf6"},"vehicle_type_id":"4","last_reported":1746302992,"current_range_meters":15200,"station_id":"ce4bhgp2rcd13ifvqfc0","pricing_plan_id":"cebpf4jnsgd1na2vs0mg"},{"bike_id":"e4266899-cd26-45f3-a138-0b7051c7c088","system_id":"levelo_inurba_marseille","lat":43.29169,"lon":5.39301,"is_reserved":false,"is_disabled":false,"rental_uris":{"android":"levelo://app?vid=e4266899-cd26-45f3-a138-0b7051c7c088","ios":"levelo://app?vid=e4266899-cd26-45f3-a138-0b7051c7c088"},"vehicle_type_id":"4","last_reported":1746302992,"current_range_meters":15200,"station_id":"ce4bh192rcd13ifvqdd0","pricing_plan_id":"cebpf4jnsgd1na2vs0mg"},{"bike_id":"a6f74735-3dc9-4d8b-9ca6-1f59568bc171","system_id":"levelo_inurba_marseille","lat":43.29526,"lon":5.38548,"is_reserved":false,"is_disabled":false,"rental_uris":{"android":"levelo://app?vid=a6f74735-3dc9-4d8b-9ca6-1f59568bc171","ios":"levelo://app?vid=a6f74735-3dc9-4d8b-9ca6-1f59568bc171"},"vehicle_type_id":"4","last_reported":1746302992,"current_range_meters":16000,"station_id":"ce4bgih2rcd13ifvqba0","pricing_plan_id":"cebpf4jnsgd1na2vs0mg"},{"bike_id":"b51e8583-0fb2-49ca-9c11-9dbce28dfa5d","system_id":"levelo_inurba_marseille","lat":43.231944,"lon":5.355494,"is_reserved":false,"is_disabled":false,"rental_uris":{"android":"levelo://app?vid=b51e8583-0fb2-49ca-9c11-9dbce28dfa5d","ios":"levelo://app?vid=b51e8583-0fb2-49ca-9c11-9dbce28dfa5d"},"vehicle_type_id":"4","last_reported":1746302992,"current_range_meters":16000,"station_id":"ce4bhu92rcd13ifvqi70","pricing_plan_id":"cebpf4jnsgd1na2vs0mg"},{"bike_id":"c1d8cfaf-52f0-4827-8b72-d676816fa5a0","system_id":"levelo_inurba_marseille","lat":43.29257,"lon":5.3844,"is_reserved":false,"is_disabled":false,"rental_uris":{"android":"levelo://app?vid=c1d8cfaf-52f0-4827-8b72-d676816fa5a0","ios":"levelo://app?vid=c1d8cfaf-52f0-4827-8b72-d676816fa5a0"},"vehicle_type_id":"4","last_reported":1746302992,"current_range_meters":16000,"station_id":"ce4bh692rcd13ifvqea0","pricing_plan_id":"cebpf4jnsgd1na2vs0mg"},{"bike_id":"ed82a0a6-9f69-4f48-aa36-2dbe7918c0f8","system_id":"levelo_inurba_marseille","lat":43.29804,"lon":5.38095,"is_reserved":false,"is_disabled":false,"rental_uris":{"android":"levelo://app?vid=ed82a0a6-9f69-4f48-aa36-2dbe7918c0f8","ios":"levelo://app?vid=ed82a0a6-9f69-4f48-aa36-2dbe7918c0f8"},"vehicle_type_id":"4","last_reported":1746302992,"current_range_meters":15200,"station_id":"ce4bgip2rcd13ifvqbb0","pricing_plan_id":"cebpf4jnsgd1na2vs0mg"},{"bike_id":"e14f0e0b-57ce-42d5-80f6-e3d891b564d1","system_id":"levelo_inurba_marseille","lat":43.27072,"lon":5.42279,"is_reserved":false,"is_disabled":false,"rental_uris":{"android":"levelo://app?vid=e14f0e0b-57ce-42d5-80f6-e3d891b564d1","ios":"levelo://app?vid=e14f0e0b-57ce-42d5-80f6-e3d891b564d1"},"vehicle_type_id":"4","last_reported":1746302992,"current_range_meters":16000,"station_id":"ce4bhk92rcd13ifvqgb0","pricing_plan_id":"cebpf4jnsgd1na2vs0mg"},{"bike_id":"b6d569db-d0dd-470a-a5ed-e35b2b768388","system_id":"levelo_inurba_marseille","lat":43.29034,"lon":5.38127,"is_reserved":false,"is_disabled":false,"rental_uris":{"android":"levelo://app?vid=b6d569db-d0dd-470a-a5ed-e35b2b768388","ios":"levelo://app?vid=b6d569db-d0dd-470a-a5ed-e35b2b768388"},"vehicle_type_id":"4","last_reported":1746302992,"current_range_meters":16000,"station_id":"ce4bh4p2rcd13ifvqe1g","pricing_plan_id":"cebpf4jnsgd1na2vs0mg"},{"bike_id":"c03220ee-c0e0-4a08-9606-49be7606e4e2","system_id":"levelo_inurba_marseille","lat":43.31536,"lon":5.38038,"is_reserved":false,"is_disabled":false,"rental_uris":{"android":"levelo://app?vid=c03220ee-c0e0-4a08-9606-49be7606e4e2","ios":"levelo://app?vid=c03220ee-c0e0-4a08-9606-49be7606e4e2"},"vehicle_type_id":"4","last_reported":1746302992,"current_range_meters":16000,"station_id":"ce4bhsp2rcd13ifvqi50","pricing_plan_id":"cebpf4jnsgd1na2vs0mg"},{"bike_id":"415efb70-18ed-4db3-9a64-d6aaaee1bd93","system_id":"levelo_inurba_marseille","lat":43.313556,"lon":5.38492,"is_reserved":false,"is_disabled":false,"rental_uris":{"android":"levelo://app?vid=415efb70-18ed-4db3-9a64-d6aaaee1bd93","ios":"levelo://app?vid=415efb70-18ed-4db3-9a64-d6aaaee1bd93"},"vehicle_type_id":"4","last_reported":1746302992,"current_range_meters":16400,"station_id":"ce4bgt92rcd13ifvqcf0","pricing_plan_id":"cebpf4jnsgd1na2vs0mg"},{"bike_id":"fb80c1da-d845-467b-9c3b-2f591f4d56ae","system_id":"levelo_inurba_marseille","lat":43.323406,"lon":5.37422,"is_reserved":false,"is_disabled":false,"rental_uris":{"android":"levelo://app?vid=fb80c1da-d845-467b-9c3b-2f591f4d56ae","ios":"levelo://app?vid=fb80c1da-d845-467b-9c3b-2f591f4d56ae"},"vehicle_type_id":"4","last_reported":1746302992,"current_range_meters":16400,"station_id":"","pricing_plan_id":"cebpf4jnsgd1na2vs0mg"},{"bike_id":"6b474c36-17da-4ebb-a073-968e613bcfed","system_id":"levelo_inurba_marseille","lat":43.303658,"lon":5.377045,"is_reserved":false,"is_disabled":false,"rental_uris":{"android":"levelo://app?vid=6b474c36-17da-4ebb-a073-968e613bcfed","ios":"levelo://app?vid=6b474c36-17da-4ebb-a073-968e613bcfed"},"vehicle_type_id":"4","last_reported":1746302992,"current_range_meters":16400,"station_id":"ce4bgrh2rcd13ifvqc8g","pricing_plan_id":"cebpf4jnsgd1na2vs0mg"},{"bike_id":"57b577a6-05e4-403f-8e08-8a8bb593ff51","system_id":"levelo_inurba_marseille","lat":43.2894,"lon":5.36628,"is_reserved":false,"is_disabled":true,"rental_uris":{"android":"levelo://app?vid=57b577a6-05e4-403f-8e08-8a8bb593ff51","ios":"levelo://app?vid=57b577a6-05e4-403f-8e08-8a8bb593ff51"},"vehicle_type_id":"4","last_reported":1746302992,"current_range_meters":16400,"station_id":"ce4bhap2rcd13ifvqek0","pricing_plan_id":"cebpf4jnsgd1na2vs0mg"},{"bike_id":"377a50af-940e-4162-b907-c8d8e911d094","system_id":"levelo_inurba_marseille","lat":43.29426,"lon":5.38603,"is_reserved":false,"is_disabled":false,"rental_uris":{"android":"levelo://app?vid=377a50af-940e-4162-b907-c8d8e911d094","ios":"levelo://app?vid=377a50af-940e-4162-b907-c8d8e911d094"},"vehicle_type_id":"4","last_reported":1746302992,"current_range_meters":16000,"station_id":"ce4bh2h2rcd13ifvqdh0","pricing_plan_id":"cebpf4jnsgd1na2vs0mg"},{"bike_id":"b79daedf-bba0-4ac9-92f4-8d5206613470","system_id":"levelo_inurba_marseille","lat":43.2996,"lon":5.38501,"is_reserved":false,"is_disabled":false,"rental_uris":{"android":"levelo://app?vid=b79daedf-bba0-4ac9-92f4-8d5206613470","ios":"levelo://app?vid=b79daedf-bba0-4ac9-92f4-8d5206613470"},"vehicle_type_id":"4","last_reported":1746302992,"current_range_meters":16400,"station_id":"ce4bgj92rcd13ifvqbd0","pricing_plan_id":"cebpf4jnsgd1na2vs0mg"},{"bike_id":"4cc851da-e1ec-42ff-95e4-8b92ad8a1e2f","system_id":"levelo_inurba_marseille","lat":43.30015,"lon":5.401915,"is_reserved":false,"is_disabled":false,"rental_uris":{"android":"levelo://app?vid=4cc851da-e1ec-42ff-95e4-8b92ad8a1e2f","ios":"levelo://app?vid=4cc851da-e1ec-42ff-95e4-8b92ad8a1e2f"},"vehicle_type_id":"4","last_reported":1746302992,"current_range_meters":16400,"station_id":"","pricing_plan_id":"cebpf4jnsgd1na2vs0mg"},{"bike_id":"ed2bb2c0-0169-44b4-994e-e3a453cd8966","system_id":"levelo_inurba_marseille","lat":43.24815,"lon":5.37436,"is_reserved":false,"is_disabled":false,"rental_uris":{"android":"levelo://app?vid=ed2bb2c0-0169-44b4-994e-e3a453cd8966","ios":"levelo://app?vid=ed2bb2c0-0169-44b4-994e-e3a453cd8966"},"vehicle_type_id":"4","last_reported":1746302992,"current_range_meters":16400,"station_id":"ce4bhgh2rcd13ifvqfb0","pricing_plan_id":"cebpf4jnsgd1na2vs0mg"},{"bike_id":"f9850ce5-0d48-44fb-95f8-45845d08b423","system_id":"levelo_inurba_marseille","lat":43.29266,"lon":5.38444,"is_reserved":false,"is_disabled":false,"rental_uris":{"android":"levelo://app?vid=f9850ce5-0d48-44fb-95f8-45845d08b423","ios":"levelo://app?vid=f9850ce5-0d48-44fb-95f8-45845d08b423"},"vehicle_type_id":"4","last_reported":1746302992,"current_range_meters":16800,"station_id":"ce4bh692rcd13ifvqea0","pricing_plan_id":"cebpf4jnsgd1na2vs0mg"},{"bike_id":"2605bbc9-512d-46fd-bcec-365d20902b64","system_id":"levelo_inurba_marseille","lat":43.29963,"lon":5.38504,"is_reserved":false,"is_disabled":false,"rental_uris":{"android":"levelo://app?vid=2605bbc9-512d-46fd-bcec-365d20902b64","ios":"levelo://app?vid=2605bbc9-512d-46fd-bcec-365d20902b64"},"vehicle_type_id":"4","last_reported":1746302992,"current_range_meters":16800,"station_id":"ce4bgj92rcd13ifvqbd0","pricing_plan_id":"cebpf4jnsgd1na2vs0mg"},{"bike_id":"f0f88df4-916a-40a3-931a-95b5db28b2df","system_id":"levelo_inurba_marseille","lat":43.29537,"lon":5.3905,"is_reserved":false,"is_disabled":false,"rental_uris":{"android":"levelo://app?vid=f0f88df4-916a-40a3-931a-95b5db28b2df","ios":"levelo://app?vid=f0f88df4-916a-40a3-931a-95b5db28b2df"},"vehicle_type_id":"4","last_reported":1746302992,"current_range_meters":16800,"station_id":"ce4bh3p2rcd13ifvqdp0","pricing_plan_id":"cebpf4jnsgd1na2vs0mg"},{"bike_id":"84f8590e-e62c-455d-9352-00a5d95a85c5","system_id":"levelo_inurba_marseille","lat":43.30335,"lon":5.4043,"is_reserved":false,"is_disabled":false,"rental_uris":{"android":"levelo://app?vid=84f8590e-e62c-455d-9352-00a5d95a85c5","ios":"levelo://app?vid=84f8590e-e62c-455d-9352-00a5d95a85c5"},"vehicle_type_id":"4","last_reported":1746302992,"current_range_meters":16800,"station_id":"ce4bh012rcd13ifvqd10","pricing_plan_id":"cebpf4jnsgd1na2vs0mg"},{"bike_id":"7f94af4d-81ec-4f11-8ad5-90fb2fdafca2","system_id":"levelo_inurba_marseille","lat":43.28041,"lon":5.36953,"is_reserved":false,"is_disabled":false,"rental_uris":{"android":"levelo://app?vid=7f94af4d-81ec-4f11-8ad5-90fb2fdafca2","ios":"levelo://app?vid=7f94af4d-81ec-4f11-8ad5-90fb2fdafca2"},"vehicle_type_id":"4","last_reported":1746302992,"current_range_meters":16800,"station_id":"ce4bha12rcd13ifvqef0","pricing_plan_id":"cebpf4jnsgd1na2vs0mg"},{"bike_id":"44ac9b95-e499-41ee-a98c-1a5744572f02","system_id":"levelo_inurba_marseille","lat":43.30284,"lon":5.39229,"is_reserved":false,"is_disabled":false,"rental_uris":{"android":"levelo://app?vid=44ac9b95-e499-41ee-a98c-1a5744572f02","ios":"levelo://app?vid=44ac9b95-e499-41ee-a98c-1a5744572f02"},"vehicle_type_id":"4","last_reported":1746302992,"current_range_meters":16400,"station_id":"ce4bgkh2rcd13ifvqbk0","pricing_plan_id":"cebpf4jnsgd1na2vs0mg"},{"bike_id":"44da8e47-cb70-4a36-85e0-7c46f7876b2a","system_id":"levelo_inurba_marseille","lat":43.30921,"lon":5.40151,"is_reserved":false,"is_disabled":false,"rental_uris":{"android":"levelo://app?vid=44da8e47-cb70-4a36-85e0-7c46f7876b2a","ios":"levelo://app?vid=44da8e47-cb70-4a36-85e0-7c46f7876b2a"},"vehicle_type_id":"4","last_reported":1746302992,"current_range_meters":16800,"station_id":"ce4bgvp2rcd13ifvqct0","pricing_plan_id":"cebpf4jnsgd1na2vs0mg"},{"bike_id":"f5ff7900-7f8a-4fd5-a462-0bb2c0c160c2","system_id":"levelo_inurba_marseille","lat":43.30424,"lon":5.39756,"is_reserved":false,"is_disabled":false,"rental_uris":{"android":"levelo://app?vid=f5ff7900-7f8a-4fd5-a462-0bb2c0c160c2","ios":"levelo://app?vid=f5ff7900-7f8a-4fd5-a462-0bb2c0c160c2"},"vehicle_type_id":"4","last_reported":1746302992,"current_range_meters":16800,"station_id":"ce4bh092rcd13ifvqd20","pricing_plan_id":"cebpf4jnsgd1na2vs0mg"},{"bike_id":"ebb3d409-a942-472a-92de-d86c8cef9261","system_id":"levelo_inurba_marseille","lat":43.24391,"lon":5.37056,"is_reserved":false,"is_disabled":false,"rental_uris":{"android":"levelo://app?vid=ebb3d409-a942-472a-92de-d86c8cef9261","ios":"levelo://app?vid=ebb3d409-a942-472a-92de-d86c8cef9261"},"vehicle_type_id":"4","last_reported":1746302992,"current_range_meters":17200,"station_id":"ce4bhhh2rcd13ifvqfk0","pricing_plan_id":"cebpf4jnsgd1na2vs0mg"},{"bike_id":"3a9205d8-8e69-4279-83d2-def0f9054cf9","system_id":"levelo_inurba_marseille","lat":43.24807,"lon":5.37455,"is_reserved":false,"is_disabled":false,"rental_uris":{"android":"levelo://app?vid=3a9205d8-8e69-4279-83d2-def0f9054cf9","ios":"levelo://app?vid=3a9205d8-8e69-4279-83d2-def0f9054cf9"},"vehicle_type_id":"4","last_reported":1746302992,"current_range_meters":17200,"station_id":"ce4bhgh2rcd13ifvqfb0","pricing_plan_id":"cebpf4jnsgd1na2vs0mg"},{"bike_id":"4ac9d2b8-744c-4eb2-adec-42558177e45c","system_id":"levelo_inurba_marseille","lat":43.28463,"lon":5.35903,"is_reserved":false,"is_disabled":false,"rental_uris":{"android":"levelo://app?vid=4ac9d2b8-744c-4eb2-adec-42558177e45c","ios":"levelo://app?vid=4ac9d2b8-744c-4eb2-adec-42558177e45c"},"vehicle_type_id":"4","last_reported":1746302992,"current_range_meters":17200,"station_id":"ce4bhah2rcd13ifvqei0","pricing_plan_id":"cebpf4jnsgd1na2vs0mg"},{"bike_id":"e56be64c-d48e-437d-a723-5f78fd2397b1","system_id":"levelo_inurba_marseille","lat":43.290285,"lon":5.375655,"is_reserved":false,"is_disabled":false,"rental_uris":{"android":"levelo://app?vid=e56be64c-d48e-437d-a723-5f78fd2397b1","ios":"levelo://app?vid=e56be64c-d48e-437d-a723-5f78fd2397b1"},"vehicle_type_id":"4","last_reported":1746302992,"current_range_meters":17600,"station_id":"ce4bh692rcd13ifvqe90","pricing_plan_id":"cebpf4jnsgd1na2vs0mg"},{"bike_id":"9a500149-5173-4e2c-9384-fd4cf5864927","system_id":"levelo_inurba_marseille","lat":43.30794,"lon":5.37649,"is_reserved":false,"is_disabled":false,"rental_uris":{"android":"levelo://app?vid=9a500149-5173-4e2c-9384-fd4cf5864927","ios":"levelo://app?vid=9a500149-5173-4e2c-9384-fd4cf5864927"},"vehicle_type_id":"4","last_reported":1746302992,"current_range_meters":17600,"station_id":"ce4bgv92rcd13ifvqcq0","pricing_plan_id":"cebpf4jnsgd1na2vs0mg"},{"bike_id":"a66e0266-e21c-403c-b8e3-5301a812c232","system_id":"levelo_inurba_marseille","lat":43.24074,"lon":5.37753,"is_reserved":false,"is_disabled":false,"rental_uris":{"android":"levelo://app?vid=a66e0266-e21c-403c-b8e3-5301a812c232","ios":"levelo://app?vid=a66e0266-e21c-403c-b8e3-5301a812c232"},"vehicle_type_id":"4","last_reported":1746302992,"current_range_meters":18000,"station_id":"ce4bhnp2rcd13ifvqgvg","pricing_plan_id":"cebpf4jnsgd1na2vs0mg"},{"bike_id":"21bd7d3a-383b-4326-bd39-9b2e94dfe6b1","system_id":"levelo_inurba_marseille","lat":43.30327,"lon":5.40427,"is_reserved":false,"is_disabled":false,"rental_uris":{"android":"levelo://app?vid=21bd7d3a-383b-4326-bd39-9b2e94dfe6b1","ios":"levelo://app?vid=21bd7d3a-383b-4326-bd39-9b2e94dfe6b1"},"vehicle_type_id":"4","last_reported":1746302992,"current_range_meters":18000,"station_id":"ce4bh012rcd13ifvqd10","pricing_plan_id":"cebpf4jnsgd1na2vs0mg"},{"bike_id":"f0054bf8-e6c7-4842-94ab-f21167449ef7","system_id":"levelo_inurba_marseille","lat":43.29259,"lon":5.38448,"is_reserved":false,"is_disabled":false,"rental_uris":{"android":"levelo://app?vid=f0054bf8-e6c7-4842-94ab-f21167449ef7","ios":"levelo://app?vid=f0054bf8-e6c7-4842-94ab-f21167449ef7"},"vehicle_type_id":"4","last_reported":1746302992,"current_range_meters":18000,"station_id":"ce4bh692rcd13ifvqea0","pricing_plan_id":"cebpf4jnsgd1na2vs0mg"},{"bike_id":"0283fb21-7415-49fd-9a5a-f73639f75e70","system_id":"levelo_inurba_marseille","lat":43.29258,"lon":5.38452,"is_reserved":false,"is_disabled":false,"rental_uris":{"android":"levelo://app?vid=0283fb21-7415-49fd-9a5a-f73639f75e70","ios":"levelo://app?vid=0283fb21-7415-49fd-9a5a-f73639f75e70"},"vehicle_type_id":"4","last_reported":1746302992,"current_range_meters":18000,"station_id":"ce4bh692rcd13ifvqea0","pricing_plan_id":"cebpf4jnsgd1na2vs0mg"},{"bike_id":"f89a50d6-00de-4023-8acc-382fa61e51a1","system_id":"levelo_inurba_marseille","lat":43.30591,"lon":5.37217,"is_reserved":false,"is_disabled":false,"rental_uris":{"android":"levelo://app?vid=f89a50d6-00de-4023-8acc-382fa61e51a1","ios":"levelo://app?vid=f89a50d6-00de-4023-8acc-382fa61e51a1"},"vehicle_type_id":"4","last_reported":1746302992,"current_range_meters":18000,"station_id":"ce4bgqh2rcd13ifvqc4g","pricing_plan_id":"cebpf4jnsgd1na2vs0mg"},{"bike_id":"17a01202-01e2-438f-a024-8b4df4fdf3bc","system_id":"levelo_inurba_marseille","lat":43.29171,"lon":5.37153,"is_reserved":false,"is_disabled":false,"rental_uris":{"android":"levelo://app?vid=17a01202-01e2-438f-a024-8b4df4fdf3bc","ios":"levelo://app?vid=17a01202-01e2-438f-a024-8b4df4fdf3bc"},"vehicle_type_id":"4","last_reported":1746302992,"current_range_meters":18000,"station_id":"ce4bha92rcd13ifvqeh0","pricing_plan_id":"cebpf4jnsgd1na2vs0mg"},{"bike_id":"ac33d6ff-248a-4d8b-b9cc-5ce6164a8602","system_id":"levelo_inurba_marseille","lat":43.29265,"lon":5.37625,"is_reserved":false,"is_disabled":false,"rental_uris":{"android":"levelo://app?vid=ac33d6ff-248a-4d8b-b9cc-5ce6164a8602","ios":"levelo://app?vid=ac33d6ff-248a-4d8b-b9cc-5ce6164a8602"},"vehicle_type_id":"4","last_reported":1746302992,"current_range_meters":18000,"station_id":"ce4bgi12rcd13ifvqb80","pricing_plan_id":"cebpf4jnsgd1na2vs0mg"},{"bike_id":"43f220ab-0408-46b3-abe5-60437ce3bc1e","system_id":"levelo_inurba_marseille","lat":43.231948,"lon":5.355587,"is_reserved":false,"is_disabled":false,"rental_uris":{"android":"levelo://app?vid=43f220ab-0408-46b3-abe5-60437ce3bc1e","ios":"levelo://app?vid=43f220ab-0408-46b3-abe5-60437ce3bc1e"},"vehicle_type_id":"4","last_reported":1746302992,"current_range_meters":18800,"station_id":"ce4bhu92rcd13ifvqi70","pricing_plan_id":"cebpf4jnsgd1na2vs0mg"},{"bike_id":"05b38588-618b-4291-8587-e5b5a3a94645","system_id":"levelo_inurba_marseille","lat":43.29255,"lon":5.3845,"is_reserved":false,"is_disabled":false,"rental_uris":{"android":"levelo://app?vid=05b38588-618b-4291-8587-e5b5a3a94645","ios":"levelo://app?vid=05b38588-618b-4291-8587-e5b5a3a94645"},"vehicle_type_id":"4","last_reported":1746302992,"current_range_meters":18800,"station_id":"ce4bh692rcd13ifvqea0","pricing_plan_id":"cebpf4jnsgd1na2vs0mg"},{"bike_id":"11b00a37-5755-4737-bf68-c4d762011c89","system_id":"levelo_inurba_marseille","lat":43.31686,"lon":5.40476,"is_reserved":false,"is_disabled":false,"rental_uris":{"android":"levelo://app?vid=11b00a37-5755-4737-bf68-c4d762011c89","ios":"levelo://app?vid=11b00a37-5755-4737-bf68-c4d762011c89"},"vehicle_type_id":"4","last_reported":1746302992,"current_range_meters":18800,"station_id":"ce4bh012rcd13ifvqd00","pricing_plan_id":"cebpf4jnsgd1na2vs0mg"},{"bike_id":"af949d19-ff12-451e-b7c6-5a61d84f79d2","system_id":"levelo_inurba_marseille","lat":43.29421,"lon":5.3861,"is_reserved":false,"is_disabled":false,"rental_uris":{"android":"levelo://app?vid=af949d19-ff12-451e-b7c6-5a61d84f79d2","ios":"levelo://app?vid=af949d19-ff12-451e-b7c6-5a61d84f79d2"},"vehicle_type_id":"4","last_reported":1746302992,"current_range_meters":18800,"station_id":"ce4bh2h2rcd13ifvqdh0","pricing_plan_id":"cebpf4jnsgd1na2vs0mg"},{"bike_id":"9d61563b-4522-4220-88d5-3cb23aa2f9d3","system_id":"levelo_inurba_marseille","lat":43.29196,"lon":5.3931,"is_reserved":false,"is_disabled":false,"rental_uris":{"android":"levelo://app?vid=9d61563b-4522-4220-88d5-3cb23aa2f9d3","ios":"levelo://app?vid=9d61563b-4522-4220-88d5-3cb23aa2f9d3"},"vehicle_type_id":"4","last_reported":1746302992,"current_range_meters":18000,"station_id":"ce4bh192rcd13ifvqdd0","pricing_plan_id":"cebpf4jnsgd1na2vs0mg"},{"bike_id":"4931f2ab-4125-47e0-a37b-4d9ebb4aff37","system_id":"levelo_inurba_marseille","lat":43.25716,"lon":5.41116,"is_reserved":false,"is_disabled":false,"rental_uris":{"android":"levelo://app?vid=4931f2ab-4125-47e0-a37b-4d9ebb4aff37","ios":"levelo://app?vid=4931f2ab-4125-47e0-a37b-4d9ebb4aff37"},"vehicle_type_id":"4","last_reported":1746302992,"current_range_meters":19200,"station_id":"ce4bhkp2rcd13ifvqgd0","pricing_plan_id":"cebpf4jnsgd1na2vs0mg"},{"bike_id":"838953c0-5207-4dd4-a4c4-6cd84e5c58c8","system_id":"levelo_inurba_marseille","lat":43.28018,"lon":5.36944,"is_reserved":false,"is_disabled":false,"rental_uris":{"android":"levelo://app?vid=838953c0-5207-4dd4-a4c4-6cd84e5c58c8","ios":"levelo://app?vid=838953c0-5207-4dd4-a4c4-6cd84e5c58c8"},"vehicle_type_id":"4","last_reported":1746302992,"current_range_meters":19200,"station_id":"ce4bha12rcd13ifvqef0","pricing_plan_id":"cebpf4jnsgd1na2vs0mg"},{"bike_id":"24bc9c04-1b53-475b-a633-67ad7af35ced","system_id":"levelo_inurba_marseille","lat":43.29419,"lon":5.38628,"is_reserved":false,"is_disabled":false,"rental_uris":{"android":"levelo://app?vid=24bc9c04-1b53-475b-a633-67ad7af35ced","ios":"levelo://app?vid=24bc9c04-1b53-475b-a633-67ad7af35ced"},"vehicle_type_id":"4","last_reported":1746302992,"current_range_meters":19200,"station_id":"ce4bh2h2rcd13ifvqdh0","pricing_plan_id":"cebpf4jnsgd1na2vs0mg"},{"bike_id":"43af9a1a-2376-432f-bf29-fc1500ea86a8","system_id":"levelo_inurba_marseille","lat":43.29528,"lon":5.38549,"is_reserved":false,"is_disabled":false,"rental_uris":{"android":"levelo://app?vid=43af9a1a-2376-432f-bf29-fc1500ea86a8","ios":"levelo://app?vid=43af9a1a-2376-432f-bf29-fc1500ea86a8"},"vehicle_type_id":"4","last_reported":1746302992,"current_range_meters":19600,"station_id":"ce4bgih2rcd13ifvqba0","pricing_plan_id":"cebpf4jnsgd1na2vs0mg"},{"bike_id":"ebdac772-aba9-4e7f-ac8e-ca61c6016183","system_id":"levelo_inurba_marseille","lat":43.30805,"lon":5.38153,"is_reserved":false,"is_disabled":false,"rental_uris":{"android":"levelo://app?vid=ebdac772-aba9-4e7f-ac8e-ca61c6016183","ios":"levelo://app?vid=ebdac772-aba9-4e7f-ac8e-ca61c6016183"},"vehicle_type_id":"4","last_reported":1746302992,"current_range_meters":19600,"station_id":"ce4bgt12rcd13ifvqce0","pricing_plan_id":"cebpf4jnsgd1na2vs0mg"},{"bike_id":"a0fefae3-5c83-490d-bfde-c42e1bfbc29d","system_id":"levelo_inurba_marseille","lat":43.290283,"lon":5.399932,"is_reserved":false,"is_disabled":false,"rental_uris":{"android":"levelo://app?vid=a0fefae3-5c83-490d-bfde-c42e1bfbc29d","ios":"levelo://app?vid=a0fefae3-5c83-490d-bfde-c42e1bfbc29d"},"vehicle_type_id":"4","last_reported":1746302992,"current_range_meters":19600,"station_id":"ce4bh392rcd13ifvqdm0","pricing_plan_id":"cebpf4jnsgd1na2vs0mg"},{"bike_id":"07dd1a03-81b4-44d5-93c0-c6e93a51ac14","system_id":"levelo_inurba_marseille","lat":43.29028,"lon":5.38645,"is_reserved":false,"is_disabled":false,"rental_uris":{"android":"levelo://app?vid=07dd1a03-81b4-44d5-93c0-c6e93a51ac14","ios":"levelo://app?vid=07dd1a03-81b4-44d5-93c0-c6e93a51ac14"},"vehicle_type_id":"4","last_reported":1746302992,"current_range_meters":19600,"station_id":"ce4bh4p2rcd13ifvqe0g","pricing_plan_id":"cebpf4jnsgd1na2vs0mg"},{"bike_id":"645dc223-6760-454c-a3e7-0413f06ba82d","system_id":"levelo_inurba_marseille","lat":43.305583,"lon":5.365335,"is_reserved":false,"is_disabled":false,"rental_uris":{"android":"levelo://app?vid=645dc223-6760-454c-a3e7-0413f06ba82d","ios":"levelo://app?vid=645dc223-6760-454c-a3e7-0413f06ba82d"},"vehicle_type_id":"4","last_reported":1746302992,"current_range_meters":19600,"station_id":"ce4bgs12rcd13ifvqcag","pricing_plan_id":"cebpf4jnsgd1na2vs0mg"},{"bike_id":"30e55c43-077b-4d5c-9870-41f21d7440d6","system_id":"levelo_inurba_marseille","lat":43.29401,"lon":5.38641,"is_reserved":false,"is_disabled":false,"rental_uris":{"android":"levelo://app?vid=30e55c43-077b-4d5c-9870-41f21d7440d6","ios":"levelo://app?vid=30e55c43-077b-4d5c-9870-41f21d7440d6"},"vehicle_type_id":"4","last_reported":1746302992,"current_range_meters":20000,"station_id":"ce4bh2h2rcd13ifvqdh0","pricing_plan_id":"cebpf4jnsgd1na2vs0mg"},{"bike_id":"4c2ec1d6-94a3-42b1-9c0b-805adc49f5ee","system_id":"levelo_inurba_marseille","lat":43.30221,"lon":5.39716,"is_reserved":false,"is_disabled":false,"rental_uris":{"android":"levelo://app?vid=4c2ec1d6-94a3-42b1-9c0b-805adc49f5ee","ios":"levelo://app?vid=4c2ec1d6-94a3-42b1-9c0b-805adc49f5ee"},"vehicle_type_id":"4","last_reported":1746302992,"current_range_meters":20000,"station_id":"","pricing_plan_id":"cebpf4jnsgd1na2vs0mg"},{"bike_id":"6a8695da-737e-4484-817f-57b3c4b85787","system_id":"levelo_inurba_marseille","lat":43.281047,"lon":5.37836,"is_reserved":false,"is_disabled":false,"rental_uris":{"android":"levelo://app?vid=6a8695da-737e-4484-817f-57b3c4b85787","ios":"levelo://app?vid=6a8695da-737e-4484-817f-57b3c4b85787"},"vehicle_type_id":"4","last_reported":1746302992,"current_range_meters":20000,"station_id":"ce4bha12rcd13ifvqee0","pricing_plan_id":"cebpf4jnsgd1na2vs0mg"},{"bike_id":"8b9ef3c6-c89e-4bb8-b281-24f669af9cc6","system_id":"levelo_inurba_marseille","lat":43.28676,"lon":5.38665,"is_reserved":false,"is_disabled":false,"rental_uris":{"android":"levelo://app?vid=8b9ef3c6-c89e-4bb8-b281-24f669af9cc6","ios":"levelo://app?vid=8b9ef3c6-c89e-4bb8-b281-24f669af9cc6"},"vehicle_type_id":"4","last_reported":1746302992,"current_range_meters":19600,"station_id":"ce4bh492rcd13ifvqdug","pricing_plan_id":"cebpf4jnsgd1na2vs0mg"},{"bike_id":"7b5bc64f-65be-41f2-ae65-35fa2449bd5f","system_id":"levelo_inurba_marseille","lat":43.3081,"lon":5.38145,"is_reserved":false,"is_disabled":false,"rental_uris":{"android":"levelo://app?vid=7b5bc64f-65be-41f2-ae65-35fa2449bd5f","ios":"levelo://app?vid=7b5bc64f-65be-41f2-ae65-35fa2449bd5f"},"vehicle_type_id":"4","last_reported":1746302992,"current_range_meters":19600,"station_id":"ce4bgt12rcd13ifvqce0","pricing_plan_id":"cebpf4jnsgd1na2vs0mg"},{"bike_id":"a2ef3bf9-0959-4bb0-9a48-5e2f8954117e","system_id":"levelo_inurba_marseille","lat":43.25504,"lon":5.37653,"is_reserved":false,"is_disabled":false,"rental_uris":{"android":"levelo://app?vid=a2ef3bf9-0959-4bb0-9a48-5e2f8954117e","ios":"levelo://app?vid=a2ef3bf9-0959-4bb0-9a48-5e2f8954117e"},