{"last_updated":1704996566,"ttl":30,"version":"2.2","data":{"bikes":[{"bike_id":"41924bad-9b7e-4e53-b90e-605a3192919c","system_id":"levelo_inurba_marseille","lat":43.312239,"lon":5.368562,"is_reserved":false,"is_disabled":false,"rental_uris":{"android":"levelo://app?vid=41924bad-9b7e-4e53-b90e-605a3192919c","ios":"levelo://app?vid=41924bad-9b7e-4e53-b90e-605a3192919c"},"vehicle_type_id":"4","last_reported":1704996566,"current_range_meters":3600,"station_id":"ce4bgl92rcd13ifvqbq0","pricing_plan_id":"free"},{"bike_id":"dd4c0dd4-a1af-4a9d-a2a3-8212f8ef1d1e","system_id":"levelo_inurba_marseille","lat":43.309076,"lon":5.368465,"is_reserved":false,"is_disabled":false,"rental_uris":{"android":"levelo://app?vid=dd4c0dd4-a1af-4a9d-a2a3-8212f8ef1d1e","ios":"levelo://app?vid=dd4c0dd4-a1af-4a9d-a2a3-8212f8ef1d1e"},"vehicle_type_id":"4","last_reported":1704996566,"current_range_meters":15200,"station_id":"ce4bgn92rcd13ifvqbvg","pricing_plan_id":"free"},{"bike_id":"7b3b699f-3f99-4e35-89af-d56ef1f73cc7","system_id":"levelo_inurba_marseille","lat":43.31503,"lon":5.37288,"is_reserved":false,"is_disabled":false,"rental_uris":{"android":"levelo://app?vid=7b3b699f-3f99-4e35-89af-d56ef1f73cc7","ios":"levelo://app?vid=7b3b699f-3f99-4e35-89af-d56ef1f73cc7"},"vehicle_type_id":"4","last_reported":1704996566,"current_range_meters":19600,"station_id":"ce4bgt12rcd13ifvqcd0","pricing_plan_id":"free"},{"bike_id":"a683c202-14fe-41b3-9e22-664a630e21e0","system_id":"levelo_inurba_marseille","lat":43.314811,"lon":5.373103,"is_reserved":false,"is_disabled":false,"rental_uris":{"android":"levelo://app?vid=a683c202-14fe-41b3-9e22-664a630e21e0","ios":"levelo://app?vid=a683c202-14fe-41b3-9e22-664a630e21e0"},"vehicle_type_id":"4","last_reported":1704996566,"current_range_meters":16400,"station_id":"ce4bgt12rcd13ifvqcd0","pricing_plan_id":"free"},{"bike_id":"493c552c-07c0-4ceb-91b7-b6dbb00ce75d","system_id":"levelo_inurba_marseille","lat":43.30887,"lon":5.3719,"is_reserved":false,"is_disabled":false,"rental_uris":{"android":"levelo://app?vid=493c552c-07c0-4ceb-91b7-b6dbb00ce75d","ios":"levelo://app?vid=493c552c-07c0-4ceb-91b7-b6dbb00ce75d"},"vehicle_type_id":"4","last_reported":1704996566,"current_range_meters":18400,"station_id":"ce4bguh2rcd13ifvqckg","pricing_plan_id":"free"},{"bike_id":"dabb4008-9183-4770-aa42-95521d82742c","system_id":"levelo_inurba_marseille","lat":43.305714,"lon":5.365633,"is_reserved":false,"is_disabled":false,"rental_uris":{"android":"levelo://app?vid=dabb4008-9183-4770-aa42-95521d82742c","ios":"levelo://app?vid=dabb4008-9183-4770-aa42-95521d82742c"},"vehicle_type_id":"4","last_reported":1704996566,"current_range_meters":24000,"station_id":"ce4bgs12rcd13ifvqcag","pricing_plan_id":"free"},{"bike_id":"1b1239c3-7b11-4916-9b71-c720da4f30bb","system_id":"levelo_inurba_marseille","lat":43.311131,"lon":5.377651,"is_reserved":false,"is_disabled":false,"rental_uris":{"android":"levelo://app?vid=1b1239c3-7b11-4916-9b71-c720da4f30bb","ios":"levelo://app?vid=1b1239c3-7b11-4916-9b71-c720da4f30bb"},"vehicle_type_id":"4","last_reported":1704996566,"current_range_meters":27600,"station_id":"ce4bgt92rcd13ifvqcg0","pricing_plan_id":"free"},{"bike_id":"b2b58420-147e-4e09-911d-405524aab1f7","system_id":"levelo_inurba_marseille","lat":43.311131,"lon":5.377651,"is_reserved":false,"is_disabled":false,"rental_uris":{"android":"levelo://app?vid=b2b58420-147e-4e09-911d-405524aab1f7","ios":"levelo://app?vid=b2b58420-147e-4e09-911d-405524aab1f7"},"vehicle_type_id":"4","last_reported":1704996566,"current_range_meters":26400,"station_id":"ce4bgt92rcd13ifvqcg0","pricing_plan_id":"free"},{"bike_id":"92de907d-f2a7-425a-a220-775b0124ae29","system_id":"levelo_inurba_marseille","lat":43.307945,"lon":5.376487,"is_reserved":false,"is_disabled":false,"rental_uris":{"android":"levelo://app?vid=92de907d-f2a7-425a-a220-775b0124ae29","ios":"levelo://app?vid=92de907d-f2a7-425a-a220-775b0124ae29"},"vehicle_type_id":"4","last_reported":1704996566,"current_range_meters":14000,"station_id":"ce4bgv92rcd13ifvqcq0","pricing_plan_id":"free"},{"bike_id":"45b60abf-dfc4-4ad1-947d-859fb1c60bbc","system_id":"levelo_inurba_marseille","lat":43.307945,"lon":5.376487,"is_reserved":false,"is_disabled":false,"rental_uris":{"android":"levelo://app?vid=45b60abf-dfc4-4ad1-947d-859fb1c60bbc","ios":"levelo://app?vid=45b60abf-dfc4-4ad1-947d-859fb1c60bbc"},"vehicle_type_id":"4","last_reported":1704996566,"current_range_meters":25200,"station_id":"ce4bgv92rcd13ifvqcq0","pricing_plan_id":"free"},{"bike_id":"77fb5076-4092-4f63-8e49-c7c1a75b6a20","system_id":"levelo_inurba_marseille","lat":43.307945,"lon":5.376487,"is_reserved":false,"is_disabled":false,"rental_uris":{"android":"levelo://app?vid=77fb5076-4092-4f63-8e49-c7c1a75b6a20","ios":"levelo://app?vid=77fb5076-4092-4f63-8e49-c7c1a75b6a20"},"vehicle_type_id":"4","last_reported":1704996566,"current_range_meters":24400,"station_id":"ce4bgv92rcd13ifvqcq0","pricing_plan_id":"free"},{"bike_id":"a59c2921-abf0-4442-aeaf-0af358f476ce","system_id":"levelo_inurba_marseille","lat":43.307945,"lon":5.376487,"is_reserved":false,"is_disabled":false,"rental_uris":{"android":"levelo://app?vid=a59c2921-abf0-4442-aeaf-0af358f476ce","ios":"levelo://app?vid=a59c2921-abf0-4442-aeaf-0af358f476ce"},"vehicle_type_id":"4","last_reported":1704996566,"current_range_meters":25600,"station_id":"ce4bgv92rcd13ifvqcq0","pricing_plan_id":"free"},{"bike_id":"ab573a91-87e4-4bcc-8ca6-80d6244e220b","system_id":"levelo_inurba_marseille","lat":43.307945,"lon":5.376487,"is_reserved":false,"is_disabled":false,"rental_uris":{"android":"levelo://app?vid=ab573a91-87e4-4bcc-8ca6-80d6244e220b","ios":"levelo://app?vid=ab573a91-87e4-4bcc-8ca6-80d6244e220b"},"vehicle_type_id":"4","last_reported":1704996566,"current_range_meters":18000,"station_id":"ce4bgv92rcd13ifvqcq0","pricing_plan_id":"free"},{"bike_id":"6037dcd5-149c-4903-b2fd-d261e491b3b8","system_id":"levelo_inurba_marseille","lat":43.317075,"lon":5.377367,"is_reserved":false,"is_disabled":false,"rental_uris":{"android":"levelo://app?vid=6037dcd5-149c-4903-b2fd-d261e491b3b8","ios":"levelo://app?vid=6037dcd5-149c-4903-b2fd-d261e491b3b8"},"vehicle_type_id":"4","last_reported":1704996566,"current_range_meters":11200,"station_id":"ce4bgth2rcd13ifvqch0","pricing_plan_id":"free"},{"bike_id":"4d461b85-1a0e-4623-8399-e9448b273b12","system_id":"levelo_inurba_marseille","lat":43.317075,"lon":5.377367,"is_reserved":false,"is_disabled":false,"rental_uris":{"android":"levelo://app?vid=4d461b85-1a0e-4623-8399-e9448b273b12","ios":"levelo://app?vid=4d461b85-1a0e-4623-8399-e9448b273b12"},"vehicle_type_id":"4","last_reported":1704996566,"current_range_meters":31200,"station_id":"ce4bgth2rcd13ifvqch0","pricing_plan_id":"free"},{"bike_id":"4fb6c33f-6a2d-4cb9-b5f5-71a4f8b0b1b3","system_id":"levelo_inurba_marseille","lat":43.317075,"lon":5.377367,"is_reserved":false,"is_disabled":false,"rental_uris":{"android":"levelo://app?vid=4fb6c33f-6a2d-4cb9-b5f5-71a4f8b0b1b3","ios":"levelo://app?vid=4fb6c33f-6a2d-4cb9-b5f5-71a4f8b0b1b3"},"vehicle_type_id":"4","last_reported":1704996566,"current_range_meters":26800,"station_id":"ce4bgth2rcd13ifvqch0","pricing_plan_id":"free"},{"bike_id":"1c5ff360-7eb4-4dc3-ae5a-4c1f95661c89","system_id":"levelo_inurba_marseille","lat":43.317075,"lon":5.377367,"is_reserved":false,"is_disabled":false,"rental_uris":{"android":"levelo://app?vid=1c5ff360-7eb4-4dc3-ae5a-4c1f95661c89","ios":"levelo://app?vid=1c5ff360-7eb4-4dc3-ae5a-4c1f95661c89"},"vehicle_type_id":"4","last_reported":1704996566,"current_range_meters":19600,"station_id":"ce4bgth2rcd13ifvqch0","pricing_plan_id":"free"},{"bike_id":"4703778a-a799-41e5-b078-4160f07f1fec","system_id":"levelo_inurba_marseille","lat":43.317075,"lon":5.377367,"is_reserved":false,"is_disabled":false,"rental_uris":{"android":"levelo://app?vid=4703778a-a799-41e5-b078-4160f07f1fec","ios":"levelo://app?vid=4703778a-a799-41e5-b078-4160f07f1fec"},"vehicle_type_id":"4","last_reported":1704996566,"current_range_meters":23600,"station_id":"ce4bgth2rcd13ifvqch0","pricing_plan_id":"free"},{"bike_id":"1f870116-b2d4-4ef6-91b7-023cb8587099","system_id":"levelo_inurba_marseille","lat":43.300827,"lon":5.365856,"is_reserved":false,"is_disabled":false,"rental_uris":{"android":"levelo://app?vid=1f870116-b2d4-4ef6-91b7-023cb8587099","ios":"levelo://app?vid=1f870116-b2d4-4ef6-91b7-023cb8587099"},"vehicle_type_id":"4","last_reported":1704996566,"current_range_meters":8400,"station_id":"","pricing_plan_id":"free"},{"bike_id":"70f7b631-66de-421c-a5cb-d28d076e9bd9","system_id":"levelo_inurba_marseille","lat":43.30463,"lon":5.37899,"is_reserved":false,"is_disabled":false,"rental_uris":{"android":"levelo://app?vid=70f7b631-66de-421c-a5cb-d28d076e9bd9","ios":"levelo://app?vid=70f7b631-66de-421c-a5cb-d28d076e9bd9"},"vehicle_type_id":"4","last_reported":1704996566,"current_range_meters":15600,"station_id":"ce4bgup2rcd13ifvqcn0","pricing_plan_id":"free"},{"bike_id":"b2dc22a8-b992-4f80-a35d-75385aaf4c2f","system_id":"levelo_inurba_marseille","lat":43.304606,"lon":5.379026,"is_reserved":false,"is_disabled":false,"rental_uris":{"android":"levelo://app?vid=b2dc22a8-b992-4f80-a35d-75385aaf4c2f","ios":"levelo://app?vid=b2dc22a8-b992-4f80-a35d-75385aaf4c2f"},"vehicle_type_id":"4","last_reported":1704996566,"current_range_meters":18000,"station_id":"ce4bgup2rcd13ifvqcn0","pricing_plan_id":"free"},{"bike_id":"d67a9692-4209-4ab8-894a-e96cd1211d97","system_id":"levelo_inurba_marseille","lat":43.324773,"lon":5.365622,"is_reserved":false,"is_disabled":false,"rental_uris":{"android":"levelo://app?vid=d67a9692-4209-4ab8-894a-e96cd1211d97","ios":"levelo://app?vid=d67a9692-4209-4ab8-894a-e96cd1211d97"},"vehicle_type_id":"4","last_reported":1704996566,"current_range_meters":25600,"station_id":"ce4bhs12rcd13ifvqhvg","pricing_plan_id":"free"},{"bike_id":"642ea622-6e89-4f17-8e6b-817a8e29f9a8","system_id":"levelo_inurba_marseille","lat":43.301429,"lon":5.37413,"is_reserved":false,"is_disabled":false,"rental_uris":{"android":"levelo://app?vid=642ea622-6e89-4f17-8e6b-817a8e29f9a8","ios":"levelo://app?vid=642ea622-6e89-4f17-8e6b-817a8e29f9a8"},"vehicle_type_id":"4","last_reported":1704996566,"current_range_meters":30400,"station_id":"ce4bgs92rcd13ifvqcc0","pricing_plan_id":"free"},{"bike_id":"6a0590f3-4f02-4f03-92b0-24f761ad0b23","system_id":"levelo_inurba_marseille","lat":43.319935,"lon":5.381699,"is_reserved":false,"is_disabled":false,"rental_uris":{"android":"levelo://app?vid=6a0590f3-4f02-4f03-92b0-24f761ad0b23","ios":"levelo://app?vid=6a0590f3-4f02-4f03-92b0-24f761ad0b23"},"vehicle_type_id":"4","last_reported":1704996566,"current_range_meters":18400,"station_id":"ce4bhr12rcd13ifvqhpg","pricing_plan_id":"free"},{"bike_id":"51acb5bc-9023-4b28-9ebb-c1780d93a59e","system_id":"levelo_inurba_marseille","lat":43.299222,"lon":5.365554,"is_reserved":false,"is_disabled":false,"rental_uris":{"android":"levelo://app?vid=51acb5bc-9023-4b28-9ebb-c1780d93a59e","ios":"levelo://app?vid=51acb5bc-9023-4b28-9ebb-c1780d93a59e"},"vehicle_type_id":"4","last_reported":1704996566,"current_range_meters":26800,"station_id":"ce4bgm92rcd13ifvqbr0","pricing_plan_id":"free"},{"bike_id":"5e3ae350-92fc-4f1a-91e5-fca6c6157e9c","system_id":"levelo_inurba_marseille","lat":43.314305,"lon":5.385497,"is_reserved":false,"is_disabled":false,"rental_uris":{"android":"levelo://app?vid=5e3ae350-92fc-4f1a-91e5-fca6c6157e9c","ios":"levelo://app?vid=5e3ae350-92fc-4f1a-91e5-fca6c6157e9c"},"vehicle_type_id":"4","last_reported":1704996566,"current_range_meters":4000,"station_id":"","pricing_plan_id":"free"},{"bike_id":"aad6a19f-61f4-427d-a171-3c58528baf16","system_id":"levelo_inurba_marseille","lat":43.311065,"lon":5.38685,"is_reserved":false,"is_disabled":false,"rental_uris":{"android":"levelo://app?vid=aad6a19f-61f4-427d-a171-3c58528baf16","ios":"levelo://app?vid=aad6a19f-61f4-427d-a171-3c58528baf16"},"vehicle_type_id":"4","last_reported":1704996566,"current_range_meters":20800,"station_id":"ce4bgv12rcd13ifvqcp0","pricing_plan_id":"free"},{"bike_id":"a76ff2da-2bcf-49dd-9366-08461766452f","system_id":"levelo_inurba_marseille","lat":43.299243,"lon":5.374807,"is_reserved":false,"is_disabled":false,"rental_uris":{"android":"levelo://app?vid=a76ff2da-2bcf-49dd-9366-08461766452f","ios":"levelo://app?vid=a76ff2da-2bcf-49dd-9366-08461766452f"},"vehicle_type_id":"4","last_reported":1704996566,"current_range_meters":29200,"station_id":"ce4bgjh2rcd13ifvqbg0","pricing_plan_id":"free"},{"bike_id":"95f44bf4-c32b-4809-8705-5cd5fc2b325d","system_id":"levelo_inurba_marseille","lat":43.299243,"lon":5.37481,"is_reserved":false,"is_disabled":false,"rental_uris":{"android":"levelo://app?vid=95f44bf4-c32b-4809-8705-5cd5fc2b325d","ios":"levelo://app?vid=95f44bf4-c32b-4809-8705-5cd5fc2b325d"},"vehicle_type_id":"4","last_reported":1704996566,"current_range_meters":25200,"station_id":"ce4bgjh2rcd13ifvqbg0","pricing_plan_id":"free"},{"bike_id":"99703e51-6741-4acf-b1f4-6ddcca56d0f3","system_id":"levelo_inurba_marseille","lat":43.29791,"lon":5.37101,"is_reserved":false,"is_disabled":false,"rental_uris":{"android":"levelo://app?vid=99703e51-6741-4acf-b1f4-6ddcca56d0f3","ios":"levelo://app?vid=99703e51-6741-4acf-b1f4-6ddcca56d0f3"},"vehicle_type_id":"4","last_reported":1704996566,"current_range_meters":25200,"station_id":"ce4bgop2rcd13ifvqc1g","pricing_plan_id":"free"},{"bike_id":"26ded470-2121-4c58-b83b-67b0cd7cbe01","system_id":"levelo_inurba_marseille","lat":43.29783,"lon":5.37095,"is_reserved":false,"is_disabled":false,"rental_uris":{"android":"levelo://app?vid=26ded470-2121-4c58-b83b-67b0cd7cbe01","ios":"levelo://app?vid=26ded470-2121-4c58-b83b-67b0cd7cbe01"},"vehicle_type_id":"4","last_reported":1704996566,"current_range_meters":19600,"station_id":"ce4bgop2rcd13ifvqc1g","pricing_plan_id":"free"},{"bike_id":"8aa9446f-04a1-44b2-bc1a-70577ab3021a","system_id":"levelo_inurba_marseille","lat":43.322872,"lon":5.382756,"is_reserved":false,"is_disabled":false,"rental_uris":{"android":"levelo://app?vid=8aa9446f-04a1-44b2-bc1a-70577ab3021a","ios":"levelo://app?vid=8aa9446f-04a1-44b2-bc1a-70577ab3021a"},"vehicle_type_id":"4","last_reported":1704996566,"current_range_meters":31200,"station_id":"ce4bhr12rcd13ifvqhqg","pricing_plan_id":"free"},{"bike_id":"1229937f-b15f-4120-8710-32f074f3579a","system_id":"levelo_inurba_marseille","lat":43.322872,"lon":5.382756,"is_reserved":false,"is_disabled":false,"rental_uris":{"android":"levelo://app?vid=1229937f-b15f-4120-8710-32f074f3579a","ios":"levelo://app?vid=1229937f-b15f-4120-8710-32f074f3579a"},"vehicle_type_id":"4","last_reported":1704996566,"current_range_meters":28800,"station_id":"ce4bhr12rcd13ifvqhqg","pricing_plan_id":"free"},{"bike_id":"37230247-9ff4-43f8-976c-bfd885c364cc","system_id":"levelo_inurba_marseille","lat":43.322872,"lon":5.382756,"is_reserved":false,"is_disabled":false,"rental_uris":{"android":"levelo://app?vid=37230247-9ff4-43f8-976c-bfd885c364cc","ios":"levelo://app?vid=37230247-9ff4-43f8-976c-bfd885c364cc"},"vehicle_type_id":"4","last_reported":1704996566,"current_range_meters":31200,"station_id":"ce4bhr12rcd13ifvqhqg","pricing_plan_id":"free"},{"bike_id":"c0c847ea-83f0-4e06-9678-e7646050a3c7","system_id":"levelo_inurba_marseille","lat":43.322872,"lon":5.382756,"is_reserved":false,"is_disabled":false,"rental_uris":{"android":"levelo://app?vid=c0c847ea-83f0-4e06-9678-e7646050a3c7","ios":"levelo://app?vid=c0c847ea-83f0-4e06-9678-e7646050a3c7"},"vehicle_type_id":"4","last_reported":1704996566,"current_range_meters":31600,"station_id":"ce4bhr12rcd13ifvqhqg","pricing_plan_id":"free"},{"bike_id":"b776e6d9-9dba-4c26-99a6-55a777e3bc47","system_id":"levelo_inurba_marseille","lat":43.322872,"lon":5.382756,"is_reserved":false,"is_disabled":false,"rental_uris":{"android":"levelo://app?vid=b776e6d9-9dba-4c26-99a6-55a777e3bc47","ios":"levelo://app?vid=b776e6d9-9dba-4c26-99a6-55a777e3bc47"},"vehicle_type_id":"4","last_reported":1704996566,"current_range_meters":21600,"station_id":"ce4bhr12rcd13ifvqhqg","pricing_plan_id":"free"},{"bike_id":"ec735675-fa6a-448c-98b7-d9fbcd2cec5b","system_id":"levelo_inurba_marseille","lat":43.322872,"lon":5.382756,"is_reserved":false,"is_disabled":false,"rental_uris":{"android":"levelo://app?vid=ec735675-fa6a-448c-98b7-d9fbcd2cec5b","ios":"levelo://app?vid=ec735675-fa6a-448c-98b7-d9fbcd2cec5b"},"vehicle_type_id":"4","last_reported":1704996566,"current_range_meters":10400,"station_id":"ce4bhr12rcd13ifvqhqg","pricing_plan_id":"free"},{"bike_id":"fb45f142-a2e6-4b54-b6fd-5660ca2c1fe5","system_id":"levelo_inurba_marseille","lat":43.328233,"lon":5.366775,"is_reserved":false,"is_disabled":false,"rental_uris":{"android":"levelo://app?vid=fb45f142-a2e6-4b54-b6fd-5660ca2c1fe5","ios":"levelo://app?vid=fb45f142-a2e6-4b54-b6fd-5660ca2c1fe5"},"vehicle_type_id":"4","last_reported":1704996566,"current_range_meters":17600,"station_id":"ce4bhs92rcd13ifvqi0g","pricing_plan_id":"free"},{"bike_id":"d68ce626-ef98-4d52-b3b3-f34d703a806b","system_id":"levelo_inurba_marseille","lat":43.328249,"lon":5.366841,"is_reserved":false,"is_disabled":false,"rental_uris":{"android":"levelo://app?vid=d68ce626-ef98-4d52-b3b3-f34d703a806b","ios":"levelo://app?vid=d68ce626-ef98-4d52-b3b3-f34d703a806b"},"vehicle_type_id":"4","last_reported":1704996566,"current_range_meters":20400,"station_id":"ce4bhs92rcd13ifvqi0g","pricing_plan_id":"free"},{"bike_id":"a70069dc-f773-452d-9d3a-320d0014d11e","system_id":"levelo_inurba_marseille","lat":43.328259,"lon":5.366788,"is_reserved":false,"is_disabled":false,"rental_uris":{"android":"levelo://app?vid=a70069dc-f773-452d-9d3a-320d0014d11e","ios":"levelo://app?vid=a70069dc-f773-452d-9d3a-320d0014d11e"},"vehicle_type_id":"4","last_reported":1704996566,"current_range_meters":12800,"station_id":"ce4bhs92rcd13ifvqi0g","pricing_plan_id":"free"},{"bike_id":"331410e4-8362-40e5-8b58-6a53f46a25bd","system_id":"levelo_inurba_marseille","lat":43.32828,"lon":5.366742,"is_reserved":false,"is_disabled":false,"rental_uris":{"android":"levelo://app?vid=331410e4-8362-40e5-8b58-6a53f46a25bd","ios":"levelo://app?vid=331410e4-8362-40e5-8b58-6a53f46a25bd"},"vehicle_type_id":"4","last_reported":1704996566,"current_range_meters":26800,"station_id":"ce4bhs92rcd13ifvqi0g","pricing_plan_id":"free"},{"bike_id":"68fb1e16-a9bd-4b64-9d7b-d0e67ffc0fc2","system_id":"levelo_inurba_marseille","lat":43.297163,"lon":5.365866,"is_reserved":false,"is_disabled":false,"rental_uris":{"android":"levelo://app?vid=68fb1e16-a9bd-4b64-9d7b-d0e67ffc0fc2","ios":"levelo://app?vid=68fb1e16-a9bd-4b64-9d7b-d0e67ffc0fc2"},"vehicle_type_id":"4","last_reported":1704996566,"current_range_meters":25200,"station_id":"ce4bgn12rcd13ifvqbt0","pricing_plan_id":"free"},{"bike_id":"b417e045-2acd-45ab-8543-5d87cc32d878","system_id":"levelo_inurba_marseille","lat":43.328295,"lon":5.366715,"is_reserved":false,"is_disabled":false,"rental_uris":{"android":"levelo://app?vid=b417e045-2acd-45ab-8543-5d87cc32d878","ios":"levelo://app?vid=b417e045-2acd-45ab-8543-5d87cc32d878"},"vehicle_type_id":"4","last_reported":1704996566,"current_range_meters":24400,"station_id":"ce4bhs92rcd13ifvqi0g","pricing_plan_id":"free"},{"bike_id":"1f1a5220-6426-49f4-89de-c9c79ed6428d","system_id":"levelo_inurba_marseille","lat":43.328296,"lon":5.366784,"is_reserved":false,"is_disabled":false,"rental_uris":{"android":"levelo://app?vid=1f1a5220-6426-49f4-89de-c9c79ed6428d","ios":"levelo://app?vid=1f1a5220-6426-49f4-89de-c9c79ed6428d"},"vehicle_type_id":"4","last_reported":1704996566,"current_range_meters":26400,"station_id":"ce4bhs92rcd13ifvqi0g","pricing_plan_id":"free"},{"bike_id":"7b9958fe-cb69-4b86-8077-c6eefd22d5f1","system_id":"levelo_inurba_marseille","lat":43.328309,"lon":5.366769,"is_reserved":false,"is_disabled":false,"rental_uris":{"android":"levelo://app?vid=7b9958fe-cb69-4b86-8077-c6eefd22d5f1","ios":"levelo://app?vid=7b9958fe-cb69-4b86-8077-c6eefd22d5f1"},"vehicle_type_id":"4","last_reported":1704996566,"current_range_meters":25200,"station_id":"ce4bhs92rcd13ifvqi0g","pricing_plan_id":"free"},{"bike_id":"0c003f15-986d-43ea-8c65-9cfd489b722b","system_id":"levelo_inurba_marseille","lat":43.32832,"lon":5.36683,"is_reserved":false,"is_disabled":false,"rental_uris":{"android":"levelo://app?vid=0c003f15-986d-43ea-8c65-9cfd489b722b","ios":"levelo://app?vid=0c003f15-986d-43ea-8c65-9cfd489b722b"},"vehicle_type_id":"4","last_reported":1704996566,"current_range_meters":16400,"station_id":"ce4bhs92rcd13ifvqi0g","pricing_plan_id":"free"},{"bike_id":"ce773b9f-b267-43ee-a871-c8a229254015","system_id":"levelo_inurba_marseille","lat":43.328373,"lon":5.366902,"is_reserved":false,"is_disabled":false,"rental_uris":{"android":"levelo://app?vid=ce773b9f-b267-43ee-a871-c8a229254015","ios":"levelo://app?vid=ce773b9f-b267-43ee-a871-c8a229254015"},"vehicle_type_id":"4","last_reported":1704996566,"current_range_meters":21600,"station_id":"ce4bhs92rcd13ifvqi0g","pricing_plan_id":"free"},{"bike_id":"30f8693f-6be0-48b2-9028-bcba9d6c72a0","system_id":"levelo_inurba_marseille","lat":43.328377,"lon":5.366744,"is_reserved":false,"is_disabled":false,"rental_uris":{"android":"levelo://app?vid=30f8693f-6be0-48b2-9028-bcba9d6c72a0","ios":"levelo://app?vid=30f8693f-6be0-48b2-9028-bcba9d6c72a0"},"vehicle_type_id":"4","last_reported":1704996566,"current_range_meters":29600,"station_id":"ce4bhs92rcd13ifvqi0g","pricing_plan_id":"free"},{"bike_id":"ef7bcaa0-cc81-4e08-af4b-aa4d543a0b88","system_id":"levelo_inurba_marseille","lat":43.297163,"lon":5.365866,"is_reserved":false,"is_disabled":false,"rental_uris":{"android":"levelo://app?vid=ef7bcaa0-cc81-4e08-af4b-aa4d543a0b88","ios":"levelo://app?vid=ef7bcaa0-cc81-4e08-af4b-aa4d543a0b88"},"vehicle_type_id":"4","last_reported":1704996566,"current_range_meters":31200,"station_id":"ce4bgn12rcd13ifvqbt0","pricing_plan_id":"free"},{"bike_id":"096e4b5c-c4bd-4912-949a-da870d21a6e6","system_id":"levelo_inurba_marseille","lat":43.297163,"lon":5.365866,"is_reserved":false,"is_disabled":false,"rental_uris":{"android":"levelo://app?vid=096e4b5c-c4bd-4912-949a-da870d21a6e6","ios":"levelo://app?vid=096e4b5c-c4bd-4912-949a-da870d21a6e6"},"vehicle_type_id":"4","last_reported":1704996566,"current_range_meters":7600,"station_id":"ce4bgn12rcd13ifvqbt0","pricing_plan_id":"free"},{"bike_id":"77dfdd88-b021-4871-a15c-89e3848f442f","system_id":"levelo_inurba_marseille","lat":43.297163,"lon":5.365866,"is_reserved":false,"is_disabled":false,"rental_uris":{"android":"levelo://app?vid=77dfdd88-b021-4871-a15c-89e3848f442f","ios":"levelo://app?vid=77dfdd88-b021-4871-a15c-89e3848f442f"},"vehicle_type_id":"4","last_reported":1704996566,"current_range_meters":21600,"station_id":"ce4bgn12rcd13ifvqbt0","pricing_plan_id":"free"},{"bike_id":"b58cab59-0c00-46d0-ab56-8f42663e524b","system_id":"levelo_inurba_marseille","lat":43.29694,"lon":5.37317,"is_reserved":false,"is_disabled":false,"rental_uris":{"android":"levelo://app?vid=b58cab59-0c00-46d0-ab56-8f42663e524b","ios":"levelo://app?vid=b58cab59-0c00-46d0-ab56-8f42663e524b"},"vehicle_type_id":"4","last_reported":1704996566,"current_range_meters":3600,"station_id":"ce4bgk12rcd13ifvqbj0","pricing_plan_id":"free"},{"bike_id":"0e21c0e1-cd91-41f5-a668-23429ce9066e","system_id":"levelo_inurba_marseille","lat":43.296801,"lon":5.372822,"is_reserved":false,"is_disabled":false,"rental_uris":{"android":"levelo://app?vid=0e21c0e1-cd91-41f5-a668-23429ce9066e","ios":"levelo://app?vid=0e21c0e1-cd91-41f5-a668-23429ce9066e"},"vehicle_type_id":"4","last_reported":1704996566,"current_range_meters":6800,"station_id":"","pricing_plan_id":"free"},{"bike_id":"45eee4bd-6800-43d9-acf2-6485fca420f1","system_id":"levelo_inurba_marseille","lat":43.29598,"lon":5.368057,"is_reserved":false,"is_disabled":false,"rental_uris":{"android":"levelo://app?vid=45eee4bd-6800-43d9-acf2-6485fca420f1","ios":"levelo://app?vid=45eee4bd-6800-43d9-acf2-6485fca420f1"},"vehicle_type_id":"4","last_reported":1704996566,"current_range_meters":18000,"station_id":"ce4bgph2rcd13ifvqc2g","pricing_plan_id":"free"},{"bike_id":"b9470094-4555-4f89-9bb3-8b648ab442a3","system_id":"levelo_inurba_marseille","lat":43.299202,"lon":5.381513,"is_reserved":false,"is_disabled":false,"rental_uris":{"android":"levelo://app?vid=b9470094-4555-4f89-9bb3-8b648ab442a3","ios":"levelo://app?vid=b9470094-4555-4f89-9bb3-8b648ab442a3"},"vehicle_type_id":"4","last_reported":1704996566,"current_range_meters":9600,"station_id":"","pricing_plan_id":"free"},{"bike_id":"1b74400c-e6ee-4f90-91ec-87e0c680ac50","system_id":"levelo_inurba_marseille","lat":43.317557,"lon":5.390173,"is_reserved":false,"is_disabled":false,"rental_uris":{"android":"levelo://app?vid=1b74400c-e6ee-4f90-91ec-87e0c680ac50","ios":"levelo://app?vid=1b74400c-e6ee-4f90-91ec-87e0c680ac50"},"vehicle_type_id":"4","last_reported":1704996566,"current_range_meters":27600,"station_id":"ce4bhqp2rcd13ifvqhng","pricing_plan_id":"free"},{"bike_id":"82e1b5b6-75c4-4f4e-a5a9-fa09176448ee","system_id":"levelo_inurba_marseille","lat":43.295748,"lon":5.37522,"is_reserved":false,"is_disabled":false,"rental_uris":{"android":"levelo://app?vid=82e1b5b6-75c4-4f4e-a5a9-fa09176448ee","ios":"levelo://app?vid=82e1b5b6-75c4-4f4e-a5a9-fa09176448ee"},"vehicle_type_id":"4","last_reported":1704996566,"current_range_meters":0,"station_id":"ce4bgh92rcd13ifvqb50","pricing_plan_id":"free"},{"bike_id":"6fa29f91-f265-4566-90e1-543521784d4b","system_id":"levelo_inurba_marseille","lat":43.2979,"lon":5.38106,"is_reserved":false,"is_disabled":false,"rental_uris":{"android":"levelo://app?vid=6fa29f91-f265-4566-90e1-543521784d4b","ios":"levelo://app?vid=6fa29f91-f265-4566-90e1-543521784d4b"},"vehicle_type_id":"4","last_reported":1704996566,"current_range_meters":29200,"station_id":"ce4bgip2rcd13ifvqbb0","pricing_plan_id":"free"},{"bike_id":"2be3e1af-b179-44f1-9981-ec8404bc4181","system_id":"levelo_inurba_marseille","lat":43.298037,"lon":5.381066,"is_reserved":false,"is_disabled":false,"rental_uris":{"android":"levelo://app?vid=2be3e1af-b179-44f1-9981-ec8404bc4181","ios":"levelo://app?vid=2be3e1af-b179-44f1-9981-ec8404bc4181"},"vehicle_type_id":"4","last_reported":1704996566,"current_range_meters":20400,"station_id":"ce4bgip2rcd13ifvqbb0","pricing_plan_id":"free"},{"bike_id":"483c1a53-c051-412c-bcc5-cd480d591297","system_id":"levelo_inurba_marseille","lat":43.298037,"lon":5.381066,"is_reserved":false,"is_disabled":false,"rental_uris":{"android":"levelo://app?vid=483c1a53-c051-412c-bcc5-cd480d591297","ios":"levelo://app?vid=483c1a53-c051-412c-bcc5-cd480d591297"},"vehicle_type_id":"4","last_reported":1704996566,"current_range_meters":8400,"station_id":"ce4bgip2rcd13ifvqbb0","pricing_plan_id":"free"},{"bike_id":"5e6e54d3-0ac3-4141-8337-6d2c648c4f34","system_id":"levelo_inurba_marseille","lat":43.298037,"lon":5.381066,"is_reserved":false,"is_disabled":false,"rental_uris":{"android":"levelo://app?vid=5e6e54d3-0ac3-4141-8337-6d2c648c4f34","ios":"levelo://app?vid=5e6e54d3-0ac3-4141-8337-6d2c648c4f34"},"vehicle_type_id":"4","last_reported":1704996566,"current_range_meters":7600,"station_id":"ce4bgip2rcd13ifvqbb0","pricing_plan_id":"free"},{"bike_id":"f1194645-4cc4-475a-8742-2db1c6b784d8","system_id":"levelo_inurba_marseille","lat":43.29782,"lon":5.38119,"is_reserved":false,"is_disabled":false,"rental_uris":{"android":"levelo://app?vid=f1194645-4cc4-475a-8742-2db1c6b784d8","ios":"levelo://app?vid=f1194645-4cc4-475a-8742-2db1c6b784d8"},"vehicle_type_id":"4","last_reported":1704996566,"current_range_meters":0,"station_id":"ce4bgip2rcd13ifvqbb0","pricing_plan_id":"free"},{"bike_id":"0aa3b2ee-f371-461d-8c9f-1fec8ad0dedd","system_id":"levelo_inurba_marseille","lat":43.299707,"lon":5.384859,"is_reserved":false,"is_disabled":false,"rental_uris":{"android":"levelo://app?vid=0aa3b2ee-f371-461d-8c9f-1fec8ad0dedd","ios":"levelo://app?vid=0aa3b2ee-f371-461d-8c9f-1fec8ad0dedd"},"vehicle_type_id":"4","last_reported":1704996566,"current_range_meters":10800,"station_id":"ce4bgj92rcd13ifvqbd0","pricing_plan_id":"free"},{"bike_id":"bac742ff-de6d-4c8c-a598-dac9c2049a54","system_id":"levelo_inurba_marseille","lat":43.299707,"lon":5.384859,"is_reserved":false,"is_disabled":false,"rental_uris":{"android":"levelo://app?vid=bac742ff-de6d-4c8c-a598-dac9c2049a54","ios":"levelo://app?vid=bac742ff-de6d-4c8c-a598-dac9c2049a54"},"vehicle_type_id":"4","last_reported":1704996566,"current_range_meters":0,"station_id":"ce4bgj92rcd13ifvqbd0","pricing_plan_id":"free"},{"bike_id":"a2cfe407-3750-491a-8935-aa73e91730ac","system_id":"levelo_inurba_marseille","lat":43.299733,"lon":5.384977,"is_reserved":false,"is_disabled":false,"rental_uris":{"android":"levelo://app?vid=a2cfe407-3750-491a-8935-aa73e91730ac","ios":"levelo://app?vid=a2cfe407-3750-491a-8935-aa73e91730ac"},"vehicle_type_id":"4","last_reported":1704996566,"current_range_meters":5200,"station_id":"ce4bgj92rcd13ifvqbd0","pricing_plan_id":"free"},{"bike_id":"d469f8b3-a94c-49e4-b406-a7cccdeab494","system_id":"levelo_inurba_marseille","lat":43.299717,"lon":5.384845,"is_reserved":false,"is_disabled":false,"rental_uris":{"android":"levelo://app?vid=d469f8b3-a94c-49e4-b406-a7cccdeab494","ios":"levelo://app?vid=d469f8b3-a94c-49e4-b406-a7cccdeab494"},"vehicle_type_id":"4","last_reported":1704996566,"current_range_meters":7600,"station_id":"ce4bgj92rcd13ifvqbd0","pricing_plan_id":"free"},{"bike_id":"90810d3f-8b35-4ab1-a0d2-4c0ac3f00cbb","system_id":"levelo_inurba_marseille","lat":43.299707,"lon":5.384859,"is_reserved":false,"is_disabled":false,"rental_uris":{"android":"levelo://app?vid=90810d3f-8b35-4ab1-a0d2-4c0ac3f00cbb","ios":"levelo://app?vid=90810d3f-8b35-4ab1-a0d2-4c0ac3f00cbb"},"vehicle_type_id":"4","last_reported":1704996566,"current_range_meters":18000,"station_id":"ce4bgj92rcd13ifvqbd0","pricing_plan_id":"free"},{"bike_id":"e951fefd-843a-413e-8f00-e6acb250cfaa","system_id":"levelo_inurba_marseille","lat":43.29968,"lon":5.38495,"is_reserved":false,"is_disabled":false,"rental_uris":{"android":"levelo://app?vid=e951fefd-843a-413e-8f00-e6acb250cfaa","ios":"levelo://app?vid=e951fefd-843a-413e-8f00-e6acb250cfaa"},"vehicle_type_id":"4","last_reported":1704996566,"current_range_meters":15200,"station_id":"ce4bgj92rcd13ifvqbd0","pricing_plan_id":"free"},{"bike_id":"f508f199-9f22-4247-aeee-81871dc5306f","system_id":"levelo_inurba_marseille","lat":43.299707,"lon":5.384859,"is_reserved":false,"is_disabled":false,"rental_uris":{"android":"levelo://app?vid=f508f199-9f22-4247-aeee-81871dc5306f","ios":"levelo://app?vid=f508f199-9f22-4247-aeee-81871dc5306f"},"vehicle_type_id":"4","last_reported":1704996566,"current_range_meters":14800,"station_id":"ce4bgj92rcd13ifvqbd0","pricing_plan_id":"free"},{"bike_id":"b6c62744-918f-4d26-8e60-23b825d789fa","system_id":"levelo_inurba_marseille","lat":43.29957,"lon":5.38504,"is_reserved":false,"is_disabled":false,"rental_uris":{"android":"levelo://app?vid=b6c62744-918f-4d26-8e60-23b825d789fa","ios":"levelo://app?vid=b6c62744-918f-4d26-8e60-23b825d789fa"},"vehicle_type_id":"4","last_reported":1704996566,"current_range_meters":19600,"station_id":"ce4bgj92rcd13ifvqbd0","pricing_plan_id":"free"},{"bike_id":"5cf961ce-a8e6-4a9c-be3e-895e7567c6d5","system_id":"levelo_inurba_marseille","lat":43.29962,"lon":5.38515,"is_reserved":false,"is_disabled":false,"rental_uris":{"android":"levelo://app?vid=5cf961ce-a8e6-4a9c-be3e-895e7567c6d5","ios":"levelo://app?vid=5cf961ce-a8e6-4a9c-be3e-895e7567c6d5"},"vehicle_type_id":"4","last_reported":1704996566,"current_range_meters":9200,"station_id":"ce4bgj92rcd13ifvqbd0","pricing_plan_id":"free"},{"bike_id":"71d5eed3-3112-466c-a5c2-b9ed55616003","system_id":"levelo_inurba_marseille","lat":43.32367,"lon":5.388836,"is_reserved":false,"is_disabled":false,"rental_uris":{"android":"levelo://app?vid=71d5eed3-3112-466c-a5c2-b9ed55616003","ios":"levelo://app?vid=71d5eed3-3112-466c-a5c2-b9ed55616003"},"vehicle_type_id":"4","last_reported":1704996566,"current_range_meters":31200,"station_id":"ce4bhqp2rcd13ifvqhog","pricing_plan_id":"free"},{"bike_id":"38fb15e2-97fd-4f68-ae2d-4c0fe510a864","system_id":"levelo_inurba_marseille","lat":43.323697,"lon":5.388661,"is_reserved":false,"is_disabled":false,"rental_uris":{"android":"levelo://app?vid=38fb15e2-97fd-4f68-ae2d-4c0fe510a864","ios":"levelo://app?vid=38fb15e2-97fd-4f68-ae2d-4c0fe510a864"},"vehicle_type_id":"4","last_reported":1704996566,"current_range_meters":21200,"station_id":"ce4bhqp2rcd13ifvqhog","pricing_plan_id":"free"},{"bike_id":"53bcccdd-f8f4-4713-a7f0-5bfceffa3b71","system_id":"levelo_inurba_marseille","lat":43.32367,"lon":5.388836,"is_reserved":false,"is_disabled":false,"rental_uris":{"android":"levelo://app?vid=53bcccdd-f8f4-4713-a7f0-5bfceffa3b71","ios":"levelo://app?vid=53bcccdd-f8f4-4713-a7f0-5bfceffa3b71"},"vehicle_type_id":"4","last_reported":1704996566,"current_range_meters":25600,"station_id":"ce4bhqp2rcd13ifvqhog","pricing_plan_id":"free"},{"bike_id":"cafe7be7-3bdd-4002-988b-fcafc6455e75","system_id":"levelo_inurba_marseille","lat":43.32367,"lon":5.388836,"is_reserved":false,"is_disabled":false,"rental_uris":{"android":"levelo://app?vid=cafe7be7-3bdd-4002-988b-fcafc6455e75","ios":"levelo://app?vid=cafe7be7-3bdd-4002-988b-fcafc6455e75"},"vehicle_type_id":"4","last_reported":1704996566,"current_range_meters":16800,"station_id":"ce4bhqp2rcd13ifvqhog","pricing_plan_id":"free"},{"bike_id":"c7855a59-39c1-4341-9257-1f0a6e40a20a","system_id":"levelo_inurba_marseille","lat":43.32367,"lon":5.388836,"is_reserved":false,"is_disabled":false,"rental_uris":{"android":"levelo://app?vid=c7855a59-39c1-4341-9257-1f0a6e40a20a","ios":"levelo://app?vid=c7855a59-39c1-4341-9257-1f0a6e40a20a"},"vehicle_type_id":"4","last_reported":1704996566,"current_range_meters":11200,"station_id":"ce4bhqp2rcd13ifvqhog","pricing_plan_id":"free"},{"bike_id":"556a4a10-46c7-4faa-a5cd-846a5cf46bed","system_id":"levelo_inurba_marseille","lat":43.32367,"lon":5.388836,"is_reserved":false,"is_disabled":false,"rental_uris":{"android":"levelo://app?vid=556a4a10-46c7-4faa-a5cd-846a5cf46bed","ios":"levelo://app?vid=556a4a10-46c7-4faa-a5cd-846a5cf46bed"},"vehicle_type_id":"4","last_reported":1704996566,"current_range_meters":27600,"station_id":"ce4bhqp2rcd13ifvqhog","pricing_plan_id":"free"},{"bike_id":"0ab7a87b-f568-4965-a7d5-d547f8364640","system_id":"levelo_inurba_marseille","lat":43.323629,"lon":5.38886,"is_reserved":false,"is_disabled":false,"rental_uris":{"android":"levelo://app?vid=0ab7a87b-f568-4965-a7d5-d547f8364640","ios":"levelo://app?vid=0ab7a87b-f568-4965-a7d5-d547f8364640"},"vehicle_type_id":"4","last_reported":1704996566,"current_range_meters":8800,"station_id":"ce4bhqp2rcd13ifvqhog","pricing_plan_id":"free"},{"bike_id":"a543be44-eb65-4189-aa5a-bf347333dea9","system_id":"levelo_inurba_marseille","lat":43.32367,"lon":5.388836,"is_reserved":false,"is_disabled":false,"rental_uris":{"android":"levelo://app?vid=a543be44-eb65-4189-aa5a-bf347333dea9","ios":"levelo://app?vid=a543be44-eb65-4189-aa5a-bf347333dea9"},"vehicle_type_id":"4","last_reported":1704996566,"current_range_meters":28400,"station_id":"ce4bhqp2rcd13ifvqhog","pricing_plan_id":"free"},{"bike_id":"5b7ef1a3-a12c-4144-815b-274e83c02169","system_id":"levelo_inurba_marseille","lat":43.32367,"lon":5.388836,"is_reserved":false,"is_disabled":false,"rental_uris":{"android":"levelo://app?vid=5b7ef1a3-a12c-4144-815b-274e83c02169","ios":"levelo://app?vid=5b7ef1a3-a12c-4144-815b-274e83c02169"},"vehicle_type_id":"4","last_reported":1704996566,"current_range_meters":14000,"station_id":"ce4bhqp2rcd13ifvqhog","pricing_plan_id":"free"},{"bike_id":"83466757-55a1-43f3-ad37-0db2fa94c736","system_id":"levelo_inurba_marseille","lat":43.32367,"lon":5.388836,"is_reserved":false,"is_disabled":false,"rental_uris":{"android":"levelo://app?vid=83466757-55a1-43f3-ad37-0db2fa94c736","ios":"levelo://app?vid=83466757-55a1-43f3-ad37-0db2fa94c736"},"vehicle_type_id":"4","last_reported":1704996566,"current_range_meters":22400,"station_id":"ce4bhqp2rcd13ifvqhog","pricing_plan_id":"free"},{"bike_id":"4c9495e0-49d5-41bd-8764-71f3d0c5428d","system_id":"levelo_inurba_marseille","lat":43.29278,"lon":5.36843,"is_reserved":false,"is_disabled":false,"rental_uris":{"android":"levelo://app?vid=4c9495e0-49d5-41bd-8764-71f3d0c5428d","ios":"levelo://app?vid=4c9495e0-49d5-41bd-8764-71f3d0c5428d"},"vehicle_type_id":"4","last_reported":1704996566,"current_range_meters":16000,"station_id":"ce4bhbp2rcd13ifvqesg","pricing_plan_id":"free"},{"bike_id":"8922e96f-2207-473d-a8f6-17c7d9287b77","system_id":"levelo_inurba_marseille","lat":43.292749,"lon":5.368402,"is_reserved":false,"is_disabled":false,"rental_uris":{"android":"levelo://app?vid=8922e96f-2207-473d-a8f6-17c7d9287b77","ios":"levelo://app?vid=8922e96f-2207-473d-a8f6-17c7d9287b77"},"vehicle_type_id":"4","last_reported":1704996566,"current_range_meters":18800,"station_id":"ce4bhbp2rcd13ifvqesg","pricing_plan_id":"free"},{"bike_id":"acc9f548-6ba5-4ebf-bfe8-eab60ad0fd1e","system_id":"levelo_inurba_marseille","lat":43.293249,"lon":5.371578,"is_reserved":false,"is_disabled":false,"rental_uris":{"android":"levelo://app?vid=acc9f548-6ba5-4ebf-bfe8-eab60ad0fd1e","ios":"levelo://app?vid=acc9f548-6ba5-4ebf-bfe8-eab60ad0fd1e"},"vehicle_type_id":"4","last_reported":1704996566,"current_range_meters":14400,"station_id":"ce4bgh92rcd13ifvqb40","pricing_plan_id":"free"},{"bike_id":"5e106537-5659-4c76-90fc-f2017db247b0","system_id":"levelo_inurba_marseille","lat":43.286961,"lon":5.373785,"is_reserved":false,"is_disabled":false,"rental_uris":{"android":"levelo://app?vid=5e106537-5659-4c76-90fc-f2017db247b0","ios":"levelo://app?vid=5e106537-5659-4c76-90fc-f2017db247b0"},"vehicle_type_id":"4","last_reported":1704996566,"current_range_meters":3600,"station_id":"ce4bh3p2rcd13ifvqdq0","pricing_plan_id":"free"},{"bike_id":"041d056b-7d97-49a4-ac82-4a5cf7f0017e","system_id":"levelo_inurba_marseille","lat":43.29269,"lon":5.36839,"is_reserved":false,"is_disabled":false,"rental_uris":{"android":"levelo://app?vid=041d056b-7d97-49a4-ac82-4a5cf7f0017e","ios":"levelo://app?vid=041d056b-7d97-49a4-ac82-4a5cf7f0017e"},"vehicle_type_id":"4","last_reported":1704996566,"current_range_meters":10000,"station_id":"ce4bhbp2rcd13ifvqesg","pricing_plan_id":"free"},{"bike_id":"13b99f08-0e51-4c46-adbf-db389e1a782f","system_id":"levelo_inurba_marseille","lat":43.293009,"lon":5.374584,"is_reserved":false,"is_disabled":false,"rental_uris":{"android":"levelo://app?vid=13b99f08-0e51-4c46-adbf-db389e1a782f","ios":"levelo://app?vid=13b99f08-0e51-4c46-adbf-db389e1a782f"},"vehicle_type_id":"4","last_reported":1704996566,"current_range_meters":7200,"station_id":"ce4bgi12rcd13ifvqb70","pricing_plan_id":"free"},{"bike_id":"393ce617-c69e-475f-a7e9-3c2c54e63199","system_id":"levelo_inurba_marseille","lat":43.305994,"lon":5.393687,"is_reserved":false,"is_disabled":false,"rental_uris":{"android":"levelo://app?vid=393ce617-c69e-475f-a7e9-3c2c54e63199","ios":"levelo://app?vid=393ce617-c69e-475f-a7e9-3c2c54e63199"},"vehicle_type_id":"4","last_reported":1704996566,"current_range_meters":15200,"station_id":"ce4bh0p2rcd13ifvqd80","pricing_plan_id":"free"},{"bike_id":"79740236-2e0a-429c-b234-a6a9402b3dea","system_id":"levelo_inurba_marseille","lat":43.2936,"lon":5.37835,"is_reserved":false,"is_disabled":false,"rental_uris":{"android":"levelo://app?vid=79740236-2e0a-429c-b234-a6a9402b3dea","ios":"levelo://app?vid=79740236-2e0a-429c-b234-a6a9402b3dea"},"vehicle_type_id":"4","last_reported":1704996566,"current_range_meters":23200,"station_id":"ce4bgjh2rcd13ifvqbf0","pricing_plan_id":"free"},{"bike_id":"4d217b16-a1ba-429f-994b-abaa5e5b6032","system_id":"levelo_inurba_marseille","lat":43.29376,"lon":5.378537,"is_reserved":false,"is_disabled":false,"rental_uris":{"android":"levelo://app?vid=4d217b16-a1ba-429f-994b-abaa5e5b6032","ios":"levelo://app?vid=4d217b16-a1ba-429f-994b-abaa5e5b6032"},"vehicle_type_id":"4","last_reported":1704996566,"current_range_meters":0,"station_id":"ce4bgjh2rcd13ifvqbf0","pricing_plan_id":"free"},{"bike_id":"71db6d6b-b955-499e-b748-3453a5cc82c6","system_id":"levelo_inurba_marseille","lat":43.30085,"lon":5.390856,"is_reserved":false,"is_disabled":false,"rental_uris":{"android":"levelo://app?vid=71db6d6b-b955-499e-b748-3453a5cc82c6","ios":"levelo://app?vid=71db6d6b-b955-499e-b748-3453a5cc82c6"},"vehicle_type_id":"4","last_reported":1704996566,"current_range_meters":23200,"station_id":"ce4bh192rcd13ifvqdb0","pricing_plan_id":"free"},{"bike_id":"c47b87b3-e4cf-42d2-9afc-c122e23dc2ba","system_id":"levelo_inurba_marseille","lat":43.292311,"lon":5.360731,"is_reserved":false,"is_disabled":false,"rental_uris":{"android":"levelo://app?vid=c47b87b3-e4cf-42d2-9afc-c122e23dc2ba","ios":"levelo://app?vid=c47b87b3-e4cf-42d2-9afc-c122e23dc2ba"},"vehicle_type_id":"4","last_reported":1704996566,"current_range_meters":26000,"station_id":"ce4bhbh2rcd13ifvqeqg","pricing_plan_id":"free"},{"bike_id":"c493c635-1147-4d9f-a89f-95be09846d29","system_id":"levelo_inurba_marseille","lat":43.292311,"lon":5.360731,"is_reserved":false,"is_disabled":false,"rental_uris":{"android":"levelo://app?vid=c493c635-1147-4d9f-a89f-95be09846d29","ios":"levelo://app?vid=c493c635-1147-4d9f-a89f-95be09846d29"},"vehicle_type_id":"4","last_reported":1704996566,"current_range_meters":6400,"station_id":"ce4bhbh2rcd13ifvqeqg","pricing_plan_id":"free"},{"bike_id":"632a61de-7797-4fc9-b3a3-50cd3f2029e9","system_id":"levelo_inurba_marseille","lat":43.30085,"lon":5.390856,"is_reserved":false,"is_disabled":false,"rental_uris":{"android":"levelo://app?vid=632a61de-7797-4fc9-b3a3-50cd3f2029e9","ios":"levelo://app?vid=632a61de-7797-4fc9-b3a3-50cd3f2029e9"},"vehicle_type_id":"4","last_reported":1704996566,"current_range_meters":28000,"station_id":"ce4bh192rcd13ifvqdb0","pricing_plan_id":"free"},{"bike_id":"32aa117c-d7e5-420e-a606-1f37d1a166c5","system_id":"levelo_inurba_marseille","lat":43.29217,"lon":5.36054,"is_reserved":false,"is_disabled":false,"rental_uris":{"android":"levelo://app?vid=32aa117c-d7e5-420e-a606-1f37d1a166c5","ios":"levelo://app?vid=32aa117c-d7e5-420e-a606-1f37d1a166c5"},"vehicle_type_id":"4","last_reported":1704996566,"current_range_meters":6000,"station_id":"ce4bhbh2rcd13ifvqeqg","pricing_plan_id":"free"},{"bike_id":"18167a45-e5b9-41db-9523-9a0cfe41a489","system_id":"levelo_inurba_marseille","lat":43.30085,"lon":5.390856,"is_reserved":false,"is_disabled":false,"rental_uris":{"android":"levelo://app?vid=18167a45-e5b9-41db-9523-9a0cfe41a489","ios":"levelo://app?vid=18167a45-e5b9-41db-9523-9a0cfe41a489"},"vehicle_type_id":"4","last_reported":1704996566,"current_range_meters":10800,"station_id":"ce4bh192rcd13ifvqdb0","pricing_plan_id":"free"},{"bike_id":"28fd77ed-7885-474c-a399-634499cac8e7","system_id":"levelo_inurba_marseille","lat":43.300852,"lon":5.390859,"is_reserved":false,"is_disabled":false,"rental_uris":{"android":"levelo://app?vid=28fd77ed-7885-474c-a399-634499cac8e7","ios":"levelo://app?vid=28fd77ed-7885-474c-a399-634499cac8e7"},"vehicle_type_id":"4","last_reported":1704996566,"current_range_meters":30800,"station_id":"ce4bh192rcd13ifvqdb0","pricing_plan_id":"free"},{"bike_id":"2b7b92f0-8dfc-468b-b42f-bd945286fe8a","system_id":"levelo_inurba_marseille","lat":43.29876,"lon":5.38897,"is_reserved":false,"is_disabled":false,"rental_uris":{"android":"levelo://app?vid=2b7b92f0-8dfc-468b-b42f-bd945286fe8a","ios":"levelo://app?vid=2b7b92f0-8dfc-468b-b42f-bd945286fe8a"},"vehicle_type_id":"4","last_reported":1704996566,"current_range_meters":22000,"station_id":"","pricing_plan_id":"free"},{"bike_id":"de56557d-c14c-4636-9655-25edb9b638fb","system_id":"levelo_inurba_marseille","lat":43.29874,"lon":5.38897,"is_reserved":false,"is_disabled":false,"rental_uris":{"android":"levelo://app?vid=de56557d-c14c-4636-9655-25edb9b638fb","ios":"levelo://app?vid=de56557d-c14c-4636-9655-25edb9b638fb"},"vehicle_type_id":"4","last_reported":1704996566,"current_range_meters":18400,"station_id":"","pricing_plan_id":"free"},{"bike_id":"572fb94f-6a3b-478f-9d1a-0572ba62cfbf","system_id":"levelo_inurba_marseille","lat":43.291671,"lon":5.371575,"is_reserved":false,"is_disabled":false,"rental_uris":{"android":"levelo://app?vid=572fb94f-6a3b-478f-9d1a-0572ba62cfbf","ios":"levelo://app?vid=572fb94f-6a3b-478f-9d1a-0572ba62cfbf"},"vehicle_type_id":"4","last_reported":1704996566,"current_range_meters":22800,"station_id":"ce4bha92rcd13ifvqeh0","pricing_plan_id":"free"},{"bike_id":"65384567-57f1-4b4d-a323-ac10b0636e11","system_id":"levelo_inurba_marseille","lat":43.29878,"lon":5.38907,"is_reserved":false,"is_disabled":false,"rental_uris":{"android":"levelo://app?vid=65384567-57f1-4b4d-a323-ac10b0636e11","ios":"levelo://app?vid=65384567-57f1-4b4d-a323-ac10b0636e11"},"vehicle_type_id":"4","last_reported":1704996566,"current_range_meters":26800,"station_id":"","pricing_plan_id":"free"},{"bike_id":"bbf83efa-482d-407b-b012-acdf1893df7c","system_id":"levelo_inurba_marseille","lat":43.29875,"lon":5.38908,"is_reserved":false,"is_disabled":false,"rental_uris":{"android":"levelo://app?vid=bbf83efa-482d-407b-b012-acdf1893df7c","ios":"levelo://app?vid=bbf83efa-482d-407b-b012-acdf1893df7c"},"vehicle_type_id":"4","last_reported":1704996566,"current_range_meters":17600,"station_id":"","pricing_plan_id":"free"},{"bike_id":"b09bc2b1-ac2d-4319-b2a9-2d5eb117cb5e","system_id":"levelo_inurba_marseille","lat":43.291671,"lon":5.371575,"is_reserved":false,"is_disabled":false,"rental_uris":{"android":"levelo://app?vid=b09bc2b1-ac2d-4319-b2a9-2d5eb117cb5e","ios":"levelo://app?vid=b09bc2b1-ac2d-4319-b2a9-2d5eb117cb5e"},"vehicle_type_id":"4","last_reported":1704996566,"current_range_meters":25200,"station_id":"ce4bha92rcd13ifvqeh0","pricing_plan_id":"free"},{"bike_id":"fa90f463-1b70-495e-8fb4-456a5738a650","system_id":"levelo_inurba_marseille","lat":43.309038,"lon":5.396546,"is_reserved":false,"is_disabled":false,"rental_uris":{"android":"levelo://app?vid=fa90f463-1b70-495e-8fb4-456a5738a650","ios":"levelo://app?vid=fa90f463-1b70-495e-8fb4-456a5738a650"},"vehicle_type_id":"4","last_reported":1704996566,"current_range_meters":31600,"station_id":"ce4bh012rcd13ifvqcv0","pricing_plan_id":"free"},{"bike_id":"7b463459-13e6-43a6-9d29-688e291e0220","system_id":"levelo_inurba_marseille","lat":43.291994,"lon":5.357886,"is_reserved":false,"is_disabled":false,"rental_uris":{"android":"levelo://app?vid=7b463459-13e6-43a6-9d29-688e291e0220","ios":"levelo://app?vid=7b463459-13e6-43a6-9d29-688e291e0220"},"vehicle_type_id":"4","last_reported":1704996566,"current_range_meters":18000,"station_id":"ce4bhb12rcd13ifvqel0","pricing_plan_id":"free"},{"bike_id":"df06ddd8-7f64-49f9-a54a-ba6261bd9a39","system_id":"levelo_inurba_marseille","lat":43.309038,"lon":5.396546,"is_reserved":false,"is_disabled":false,"rental_uris":{"android":"levelo://app?vid=df06ddd8-7f64-49f9-a54a-ba6261bd9a39","ios":"levelo://app?vid=df06ddd8-7f64-49f9-a54a-ba6261bd9a39"},"vehicle_type_id":"4","last_reported":1704996566,"current_range_meters":23600,"station_id":"ce4bh012rcd13ifvqcv0","pricing_plan_id":"free"},{"bike_id":"25e73d19-1a29-4693-80c2-5157b3beecfe","system_id":"levelo_inurba_marseille","lat":43.309038,"lon":5.396546,"is_reserved":false,"is_disabled":false,"rental_uris":{"android":"levelo://app?vid=25e73d19-1a29-4693-80c2-5157b3beecfe","ios":"levelo://app?vid=25e73d19-1a29-4693-80c2-5157b3beecfe"},"vehicle_type_id":"4","last_reported":1704996566,"current_range_meters":31600,"station_id":"ce4bh012rcd13ifvqcv0","pricing_plan_id":"free"},{"bike_id":"3945c867-4c23-483d-9b90-fbb78eb575c0","system_id":"levelo_inurba_marseille","lat":43.313291,"lon":5.396838,"is_reserved":false,"is_disabled":false,"rental_uris":{"android":"levelo://app?vid=3945c867-4c23-483d-9b90-fbb78eb575c0","ios":"levelo://app?vid=3945c867-4c23-483d-9b90-fbb78eb575c0"},"vehicle_type_id":"4","last_reported":1704996566,"current_range_meters":18400,"station_id":"ce4bgvp2rcd13ifvqcu0","pricing_plan_id":"free"},{"bike_id":"7c5e9d96-b2a4-4cf1-879c-1a2f8b35f344","system_id":"levelo_inurba_marseille","lat":43.291994,"lon":5.357886,"is_reserved":false,"is_disabled":false,"rental_uris":{"android":"levelo://app?vid=7c5e9d96-b2a4-4cf1-879c-1a2f8b35f344","ios":"levelo://app?vid=7c5e9d96-b2a4-4cf1-879c-1a2f8b35f344"},"vehicle_type_id":"4","last_reported":1704996566,"current_range_meters":30800,"station_id":"ce4bhb12rcd13ifvqel0","pricing_plan_id":"free"},{"bike_id":"a46ac0a0-15f6-49ab-90cb-31e315446361","system_id":"levelo_inurba_marseille","lat":43.313312,"lon":5.396906,"is_reserved":false,"is_disabled":false,"rental_uris":{"android":"levelo://app?vid=a46ac0a0-15f6-49ab-90cb-31e315446361","ios":"levelo://app?vid=a46ac0a0-15f6-49ab-90cb-31e315446361"},"vehicle_type_id":"4","last_reported":1704996566,"current_range_meters":0,"station_id":"ce4bgvp2rcd13ifvqcu0","pricing_plan_id":"free"},{"bike_id":"e10c7846-4cda-4356-a75e-6f9c57c9345f","system_id":"levelo_inurba_marseille","lat":43.313291,"lon":5.396838,"is_reserved":false,"is_disabled":false,"rental_uris":{"android":"levelo://app?vid=e10c7846-4cda-4356-a75e-6f9c57c9345f","ios":"levelo://app?vid=e10c7846-4cda-4356-a75e-6f9c57c9345f"},"vehicle_type_id":"4","last_reported":1704996566,"current_range_meters":21200,"station_id":"ce4bgvp2rcd13ifvqcu0","pricing_plan_id":"free"},{"bike_id":"a7284cfc-2e64-4f3f-a01b-6cc25383c2ad","system_id":"levelo_inurba_marseille","lat":43.291994,"lon":5.357886,"is_reserved":false,"is_disabled":false,"rental_uris":{"android":"levelo://app?vid=a7284cfc-2e64-4f3f-a01b-6cc25383c2ad","ios":"levelo://app?vid=a7284cfc-2e64-4f3f-a01b-6cc25383c2ad"},"vehicle_type_id":"4","last_reported":1704996566,"current_range_meters":12800,"station_id":"ce4bhb12rcd13ifvqel0","pricing_plan_id":"free"},{"bike_id":"efaa0343-1899-4ef3-a98d-678dbf4253c1","system_id":"levelo_inurba_marseille","lat":43.309038,"lon":5.396546,"is_reserved":false,"is_disabled":false,"rental_uris":{"android":"levelo://app?vid=efaa0343-1899-4ef3-a98d-678dbf4253c1","ios":"levelo://app?vid=efaa0343-1899-4ef3-a98d-678dbf4253c1"},"vehicle_type_id":"4","last_reported":1704996566,"current_range_meters":24800,"station_id":"ce4bh012rcd13ifvqcv0","pricing_plan_id":"free"},{"bike_id":"bc41725d-f855-415e-83e4-ec0f53f8b549","system_id":"levelo_inurba_marseille","lat":43.309038,"lon":5.396546,"is_reserved":false,"is_disabled":false,"rental_uris":{"android":"levelo://app?vid=bc41725d-f855-415e-83e4-ec0f53f8b549","ios":"levelo://app?vid=bc41725d-f855-415e-83e4-ec0f53f8b549"},"vehicle_type_id":"4","last_reported":1704996566,"current_range_meters":29200,"station_id":"ce4bh012rcd13ifvqcv0","pricing_plan_id":"free"},{"bike_id":"43e3c829-2deb-43ef-8b69-a848c378c386","system_id":"levelo_inurba_marseille","lat":43.313291,"lon":5.396838,"is_reserved":false,"is_disabled":false,"rental_uris":{"android":"levelo://app?vid=43e3c829-2deb-43ef-8b69-a848c378c386","ios":"levelo://app?vid=43e3c829-2deb-43ef-8b69-a848c378c386"},"vehicle_type_id":"4","last_reported":1704996566,"current_range_meters":23600,"station_id":"ce4bgvp2rcd13ifvqcu0","pricing_plan_id":"free"},{"bike_id":"a4f1530a-b4c9-404e-88ff-820bd82c55ce","system_id":"levelo_inurba_marseille","lat":43.30883,"lon":5.39651,"is_reserved":false,"is_disabled":false,"rental_uris":{"android":"levelo://app?vid=a4f1530a-b4c9-404e-88ff-820bd82c55ce","ios":"levelo://app?vid=a4f1530a-b4c9-404e-88ff-820bd82c55ce"},"vehicle_type_id":"4","last_reported":1704996566,"current_range_meters":14800,"station_id":"","pricing_plan_id":"free"},{"bike_id":"e86e8910-9624-4b42-b332-f7af4d58293c","system_id":"levelo_inurba_marseille","lat":43.309047,"lon":5.396551,"is_reserved":false,"is_disabled":false,"rental_uris":{"android":"levelo://app?vid=e86e8910-9624-4b42-b332-f7af4d58293c","ios":"levelo://app?vid=e86e8910-9624-4b42-b332-f7af4d58293c"},"vehicle_type_id":"4","last_reported":1704996566,"current_range_meters":14400,"station_id":"ce4bh012rcd13ifvqcv0","pricing_plan_id":"free"},{"bike_id":"7ded5a4f-b93e-41a7-a1a2-f9979db0c787","system_id":"levelo_inurba_marseille","lat":43.309047,"lon":5.396551,"is_reserved":false,"is_disabled":false,"rental_uris":{"android":"levelo://app?vid=7ded5a4f-b93e-41a7-a1a2-f9979db0c787","ios":"levelo://app?vid=7ded5a4f-b93e-41a7-a1a2-f9979db0c787"},"vehicle_type_id":"4","last_reported":1704996566,"current_range_meters":15200,"station_id":"ce4bh012rcd13ifvqcv0","pricing_plan_id":"free"},{"bike_id":"91588c73-9909-49ca-9a8c-1f12a33d6370","system_id":"levelo_inurba_marseille","lat":43.29529,"lon":5.385581,"is_reserved":false,"is_disabled":false,"rental_uris":{"android":"levelo://app?vid=91588c73-9909-49ca-9a8c-1f12a33d6370","ios":"levelo://app?vid=91588c73-9909-49ca-9a8c-1f12a33d6370"},"vehicle_type_id":"4","last_reported":1704996566,"current_range_meters":31200,"station_id":"ce4bgih2rcd13ifvqba0","pricing_plan_id":"free"},{"bike_id":"56db8c68-266e-49e9-9a33-d3d11eea76ff","system_id":"levelo_inurba_marseille","lat":43.309047,"lon":5.396551,"is_reserved":false,"is_disabled":false,"rental_uris":{"android":"levelo://app?vid=56db8c68-266e-49e9-9a33-d3d11eea76ff","ios":"levelo://app?vid=56db8c68-266e-49e9-9a33-d3d11eea76ff"},"vehicle_type_id":"4","last_reported":1704996566,"current_range_meters":19600,"station_id":"ce4bh012rcd13ifvqcv0","pricing_plan_id":"free"},{"bike_id":"27397cfc-1b70-48d5-b106-1890a7993412","system_id":"levelo_inurba_marseille","lat":43.309047,"lon":5.396551,"is_reserved":false,"is_disabled":false,"rental_uris":{"android":"levelo://app?vid=27397cfc-1b70-48d5-b106-1890a7993412","ios":"levelo://app?vid=27397cfc-1b70-48d5-b106-1890a7993412"},"vehicle_type_id":"4","last_reported":1704996566,"current_range_meters":21600,"station_id":"ce4bh012rcd13ifvqcv0","pricing_plan_id":"free"},{"bike_id":"b7e02d27-2a64-400d-937a-f5b113d28e9d","system_id":"levelo_inurba_marseille","lat":43.29529,"lon":5.385581,"is_reserved":false,"is_disabled":false,"rental_uris":{"android":"levelo://app?vid=b7e02d27-2a64-400d-937a-f5b113d28e9d","ios":"levelo://app?vid=b7e02d27-2a64-400d-937a-f5b113d28e9d"},"vehicle_type_id":"4","last_reported":1704996566,"current_range_meters":31200,"station_id":"ce4bgih2rcd13ifvqba0","pricing_plan_id":"free"},{"bike_id":"7d3485da-7b55-42b9-802d-108955214583","system_id":"levelo_inurba_marseille","lat":43.29528,"lon":5.38549,"is_reserved":false,"is_disabled":false,"rental_uris":{"android":"levelo://app?vid=7d3485da-7b55-42b9-802d-108955214583","ios":"levelo://app?vid=7d3485da-7b55-42b9-802d-108955214583"},"vehicle_type_id":"4","last_reported":1704996566,"current_range_meters":8400,"station_id":"ce4bgih2rcd13ifvqba0","pricing_plan_id":"free"},{"bike_id":"c3aa0a81-3529-47fb-a29b-591c04ea80e8","system_id":"levelo_inurba_marseille","lat":43.29529,"lon":5.385581,"is_reserved":false,"is_disabled":false,"rental_uris":{"android":"levelo://app?vid=c3aa0a81-3529-47fb-a29b-591c04ea80e8","ios":"levelo://app?vid=c3aa0a81-3529-47fb-a29b-591c04ea80e8"},"vehicle_type_id":"4","last_reported":1704996566,"current_range_meters":20000,"station_id":"ce4bgih2rcd13ifvqba0","pricing_plan_id":"free"},{"bike_id":"f8ecb450-a199-4fdc-81e8-bbfb8a343a9a","system_id":"levelo_inurba_marseille","lat":43.300852,"lon":5.390859,"is_reserved":false,"is_disabled":false,"rental_uris":{"android":"levelo://app?vid=f8ecb450-a199-4fdc-81e8-bbfb8a343a9a","ios":"levelo://app?vid=f8ecb450-a199-4fdc-81e8-bbfb8a343a9a"},"vehicle_type_id":"4","last_reported":1704996566,"current_range_meters":14000,"station_id":"ce4bh192rcd13ifvqdb0","pricing_plan_id":"free"},{"bike_id":"5dec7569-3c58-419e-8643-862ba724c75c","system_id":"levelo_inurba_marseille","lat":43.290779,"lon":5.371482,"is_reserved":false,"is_disabled":false,"rental_uris":{"android":"levelo://app?vid=5dec7569-3c58-419e-8643-862ba724c75c","ios":"levelo://app?vid=5dec7569-3c58-419e-8643-862ba724c75c"},"vehicle_type_id":"4","last_reported":1704996566,"current_range_meters":18400,"station_id":"ce4bh5p2rcd13ifvqe4g","pricing_plan_id":"free"},{"bike_id":"545a782e-9c03-4aeb-a49b-36759c2afe15","system_id":"levelo_inurba_marseille","lat":43.290779,"lon":5.371482,"is_reserved":false,"is_disabled":false,"rental_uris":{"android":"levelo://app?vid=545a782e-9c03-4aeb-a49b-36759c2afe15","ios":"levelo://app?vid=545a782e-9c03-4aeb-a49b-36759c2afe15"},"vehicle_type_id":"4","last_reported":1704996566,"current_range_meters":0,"station_id":"ce4bh5p2rcd13ifvqe4g","pricing_plan_id":"free"},{"bike_id":"d67f4362-a680-4a60-b9ba-c0492cf31bda","system_id":"levelo_inurba_marseille","lat":43.290631,"lon":5.359244,"is_reserved":false,"is_disabled":false,"rental_uris":{"android":"levelo://app?vid=d67f4362-a680-4a60-b9ba-c0492cf31bda","ios":"levelo://app?vid=d67f4362-a680-4a60-b9ba-c0492cf31bda"},"vehicle_type_id":"4","last_reported":1704996566,"current_range_meters":20000,"station_id":"ce4bha92rcd13ifvqeg0","pricing_plan_id":"free"},{"bike_id":"21b0a5dd-db0f-415b-82e7-b626a12dd804","system_id":"levelo_inurba_marseille","lat":43.290624,"lon":5.359245,"is_reserved":false,"is_disabled":false,"rental_uris":{"android":"levelo://app?vid=21b0a5dd-db0f-415b-82e7-b626a12dd804","ios":"levelo://app?vid=21b0a5dd-db0f-415b-82e7-b626a12dd804"},"vehicle_type_id":"4","last_reported":1704996566,"current_range_meters":19600,"station_id":"ce4bha92rcd13ifvqeg0","pricing_plan_id":"free"},{"bike_id":"d87d62f5-7c71-4ec2-9bca-f24c80bd63d3","system_id":"levelo_inurba_marseille","lat":43.294153,"lon":5.386305,"is_reserved":false,"is_disabled":false,"rental_uris":{"android":"levelo://app?vid=d87d62f5-7c71-4ec2-9bca-f24c80bd63d3","ios":"levelo://app?vid=d87d62f5-7c71-4ec2-9bca-f24c80bd63d3"},"vehicle_type_id":"4","last_reported":1704996566,"current_range_meters":18400,"station_id":"ce4bh2h2rcd13ifvqdh0","pricing_plan_id":"free"},{"bike_id":"3786de08-f8b4-41a7-ae08-ab8fb56f00db","system_id":"levelo_inurba_marseille","lat":43.28948,"lon":5.36634,"is_reserved":false,"is_disabled":false,"rental_uris":{"android":"levelo://app?vid=3786de08-f8b4-41a7-ae08-ab8fb56f00db","ios":"levelo://app?vid=3786de08-f8b4-41a7-ae08-ab8fb56f00db"},"vehicle_type_id":"4","last_reported":1704996566,"current_range_meters":31200,"station_id":"ce4bhap2rcd13ifvqek0","pricing_plan_id":"free"},{"bike_id":"694e919d-a4bb-44fa-bcbf-6140a790e1e2","system_id":"levelo_inurba_marseille","lat":43.294162,"lon":5.386292,"is_reserved":false,"is_disabled":false,"rental_uris":{"android":"levelo://app?vid=694e919d-a4bb-44fa-bcbf-6140a790e1e2","ios":"levelo://app?vid=694e919d-a4bb-44fa-bcbf-6140a790e1e2"},"vehicle_type_id":"4","last_reported":1704996566,"current_range_meters":10800,"station_id":"ce4bh2h2rcd13ifvqdh0","pricing_plan_id":"free"},{"bike_id":"3f53653f-33d6-421b-b0b9-5f14d6bb86b2","system_id":"levelo_inurba_marseille","lat":43.294153,"lon":5.386305,"is_reserved":false,"is_disabled":false,"rental_uris":{"android":"levelo://app?vid=3f53653f-33d6-421b-b0b9-5f14d6bb86b2","ios":"levelo://app?vid=3f53653f-33d6-421b-b0b9-5f14d6bb86b2"},"vehicle_type_id":"4","last_reported":1704996566,"current_range_meters":17200,"station_id":"ce4bh2h2rcd13ifvqdh0","pricing_plan_id":"free"},{"bike_id":"e93b3ae2-7305-4db8-920d-cc0a100e4f96","system_id":"levelo_inurba_marseille","lat":43.289184,"lon":5.366408,"is_reserved":false,"is_disabled":false,"rental_uris":{"android":"levelo://app?vid=e93b3ae2-7305-4db8-920d-cc0a100e4f96","ios":"levelo://app?vid=e93b3ae2-7305-4db8-920d-cc0a100e4f96"},"vehicle_type_id":"4","last_reported":1704996566,"current_range_meters":22000,"station_id":"ce4bhap2rcd13ifvqek0","pricing_plan_id":"free"},{"bike_id":"47d27662-8cff-4f06-af9c-7428b68ceb7e","system_id":"levelo_inurba_marseille","lat":43.289184,"lon":5.366408,"is_reserved":false,"is_disabled":false,"rental_uris":{"android":"levelo://app?vid=47d27662-8cff-4f06-af9c-7428b68ceb7e","ios":"levelo://app?vid=47d27662-8cff-4f06-af9c-7428b68ceb7e"},"vehicle_type_id":"4","last_reported":1704996566,"current_range_meters":28800,"station_id":"ce4bhap2rcd13ifvqek0","pricing_plan_id":"free"},{"bike_id":"d717acf6-49c1-40ab-8a23-02c8ff23fb87","system_id":"levelo_inurba_marseille","lat":43.289184,"lon":5.366408,"is_reserved":false,"is_disabled":false,"rental_uris":{"android":"levelo://app?vid=d717acf6-49c1-40ab-8a23-02c8ff23fb87","ios":"levelo://app?vid=d717acf6-49c1-40ab-8a23-02c8ff23fb87"},"vehicle_type_id":"4","last_reported":1704996566,"current_range_meters":26800,"station_id":"ce4bhap2rcd13ifvqek0","pricing_plan_id":"free"},{"bike_id":"9dc4783b-2f10-4913-8b4f-f8a7c95f757f","system_id":"levelo_inurba_marseille","lat":43.289468,"lon":5.363719,"is_reserved":false,"is_disabled":false,"rental_uris":{"android":"levelo://app?vid=9dc4783b-2f10-4913-8b4f-f8a7c95f757f","ios":"levelo://app?vid=9dc4783b-2f10-4913-8b4f-f8a7c95f757f"},"vehicle_type_id":"4","last_reported":1704996566,"current_range_meters":26000,"station_id":"ce4bhc92rcd13ifvqetg","pricing_plan_id":"free"},{"bike_id":"4844e214-ff9d-43db-ba27-cc49ceb8b980","system_id":"levelo_inurba_marseille","lat":43.292642,"lon":5.384254,"is_reserved":false,"is_disabled":false,"rental_uris":{"android":"levelo://app?vid=4844e214-ff9d-43db-ba27-cc49ceb8b980","ios":"levelo://app?vid=4844e214-ff9d-43db-ba27-cc49ceb8b980"},"vehicle_type_id":"4","last_reported":1704996566,"current_range_meters":8800,"station_id":"ce4bh692rcd13ifvqea0","pricing_plan_id":"free"},{"bike_id":"22f6a3c9-2fac-4436-9c6f-bfb74a32daad","system_id":"levelo_inurba_marseille","lat":43.29251,"lon":5.38459,"is_reserved":false,"is_disabled":false,"rental_uris":{"android":"levelo://app?vid=22f6a3c9-2fac-4436-9c6f-bfb74a32daad","ios":"levelo://app?vid=22f6a3c9-2fac-4436-9c6f-bfb74a32daad"},"vehicle_type_id":"4","last_reported":1704996566,"current_range_meters":20000,"station_id":"ce4bh692rcd13ifvqea0","pricing_plan_id":"free"},{"bike_id":"db4cb9db-aa51-4530-8fb1-6fc512380a39","system_id":"levelo_inurba_marseille","lat":43.290024,"lon":5.356129,"is_reserved":false,"is_disabled":false,"rental_uris":{"android":"levelo://app?vid=db4cb9db-aa51-4530-8fb1-6fc512380a39","ios":"levelo://app?vid=db4cb9db-aa51-4530-8fb1-6fc512380a39"},"vehicle_type_id":"4","last_reported":1704996566,"current_range_meters":22800,"station_id":"","pricing_plan_id":"free"},{"bike_id":"f1d31f96-0469-4a08-941f-471ab3509bee","system_id":"levelo_inurba_marseille","lat":43.289743,"lon":5.378304,"is_reserved":false,"is_disabled":false,"rental_uris":{"android":"levelo://app?vid=f1d31f96-0469-4a08-941f-471ab3509bee","ios":"levelo://app?vid=f1d31f96-0469-4a08-941f-471ab3509bee"},"vehicle_type_id":"4","last_reported":1704996566,"current_range_meters":16800,"station_id":"ce4bh9p2rcd13ifvqed0","pricing_plan_id":"free"},{"bike_id":"d0823403-2070-4163-bec2-e8fbdaa17087","system_id":"levelo_inurba_marseille","lat":43.29789,"lon":5.39341,"is_reserved":false,"is_disabled":false,"rental_uris":{"android":"levelo://app?vid=d0823403-2070-4163-bec2-e8fbdaa17087","ios":"levelo://app?vid=d0823403-2070-4163-bec2-e8fbdaa17087"},"vehicle_type_id":"4","last_reported":1704996566,"current_range_meters":25600,"station_id":"chh1huq6cuj3fo74tm60","pricing_plan_id":"free"},{"bike_id":"c01314d7-1ab9-4278-862e-e43df7570a49","system_id":"levelo_inurba_marseille","lat":43.297815,"lon":5.393548,"is_reserved":false,"is_disabled":false,"rental_uris":{"android":"levelo://app?vid=c01314d7-1ab9-4278-862e-e43df7570a49","ios":"levelo://app?vid=c01314d7-1ab9-4278-862e-e43df7570a49"},"vehicle_type_id":"4","last_reported":1704996566,"current_range_meters":2400,"station_id":"chh1huq6cuj3fo74tm60","pricing_plan_id":"free"},{"bike_id":"80599f20-d75d-4d26-a842-764dcc8e0cfe","system_id":"levelo_inurba_marseille","lat":43.33013,"lon":5.39033,"is_reserved":false,"is_disabled":false,"rental_uris":{"android":"levelo://app?vid=80599f20-d75d-4d26-a842-764dcc8e0cfe","ios":"levelo://app?vid=80599f20-d75d-4d26-a842-764dcc8e0cfe"},"vehicle_type_id":"4","last_reported":1704996566,"current_range_meters":17600,"station_id":"","pricing_plan_id":"free"},{"bike_id":"fe108f99-4139-4020-acb3-711e6f40cdcf","system_id":"levelo_inurba_marseille","lat":43.295169,"lon":5.390426,"is_reserved":false,"is_disabled":false,"rental_uris":{"android":"levelo://app?vid=fe108f99-4139-4020-acb3-711e6f40cdcf","ios":"levelo://app?vid=fe108f99-4139-4020-acb3-711e6f40cdcf"},"vehicle_type_id":"4","last_reported":1704996566,"current_range_meters":21200,"station_id":"ce4bh3p2rcd13ifvqdp0","pricing_plan_id":"free"},{"bike_id":"0904bcbe-6b2e-4fb4-84b3-9666a350d09e","system_id":"levelo_inurba_marseille","lat":43.330201,"lon":5.39037,"is_reserved":false,"is_disabled":false,"rental_uris":{"android":"levelo://app?vid=0904bcbe-6b2e-4fb4-84b3-9666a350d09e","ios":"levelo://app?vid=0904bcbe-6b2e-4fb4-84b3-9666a350d09e"},"vehicle_type_id":"4","last_reported":1704996566,"current_range_meters":11200,"station_id":"","pricing_plan_id":"free"},{"bike_id":"49658f1f-95d3-4f7f-a903-fbeacc92dafa","system_id":"levelo_inurba_marseille","lat":43.295169,"lon":5.390426,"is_reserved":false,"is_disabled":false,"rental_uris":{"android":"levelo://app?vid=49658f1f-95d3-4f7f-a903-fbeacc92dafa","ios":"levelo://app?vid=49658f1f-95d3-4f7f-a903-fbeacc92dafa"},"vehicle_type_id":"4","last_reported":1704996566,"current_range_meters":0,"station_id":"ce4bh3p2rcd13ifvqdp0","pricing_plan_id":"free"},{"bike_id":"d290d5fb-a452-4812-a30b-6dd29b08acc4","system_id":"levelo_inurba_marseille","lat":43.295169,"lon":5.390426,"is_reserved":false,"is_disabled":false,"rental_uris":{"android":"levelo://app?vid=d290d5fb-a452-4812-a30b-6dd29b08acc4","ios":"levelo://app?vid=d290d5fb-a452-4812-a30b-6dd29b08acc4"},"vehicle_type_id":"4","last_reported":1704996566,"current_range_meters":13600,"station_id":"ce4bh3p2rcd13ifvqdp0","pricing_plan_id":"free"},{"bike_id":"9ff5941f-d86b-4d3a-8d9b-6e95602c207f","system_id":"levelo_inurba_marseille","lat":43.295169,"lon":5.390426,"is_reserved":false,"is_disabled":false,"rental_uris":{"android":"levelo://app?vid=9ff5941f-d86b-4d3a-8d9b-6e95602c207f","ios":"levelo://app?vid=9ff5941f-d86b-4d3a-8d9b-6e95602c207f"},"vehicle_type_id":"4","last_reported":1704996566,"current_range_meters":31600,"station_id":"ce4bh3p2rcd13ifvqdp0","pricing_plan_id":"free"},{"bike_id":"c8dfd4e1-b8a2-4a47-81f8-65e2d2497f1d","system_id":"levelo_inurba_marseille","lat":43.33017,"lon":5.39046,"is_reserved":false,"is_disabled":false,"rental_uris":{"android":"levelo://app?vid=c8dfd4e1-b8a2-4a47-81f8-65e2d2497f1d","ios":"levelo://app?vid=c8dfd4e1-b8a2-4a47-81f8-65e2d2497f1d"},"vehicle_type_id":"4","last_reported":1704996566,"current_range_meters":30400,"station_id":"","pricing_plan_id":"free"},{"bike_id":"f075a941-d4ba-4711-bdaa-989dd4b0bb45","system_id":"levelo_inurba_marseille","lat":43.295169,"lon":5.390426,"is_reserved":false,"is_disabled":false,"rental_uris":{"android":"levelo://app?vid=f075a941-d4ba-4711-bdaa-989dd4b0bb45","ios":"levelo://app?vid=f075a941-d4ba-4711-bdaa-989dd4b0bb45"},"vehicle_type_id":"4","last_reported":1704996566,"current_range_meters":30000,"station_id":"ce4bh3p2rcd13ifvqdp0","pricing_plan_id":"free"},{"bike_id":"29877edf-f914-4818-a395-be7aee9e9d72","system_id":"levelo_inurba_marseille","lat":43.33024,"lon":5.39038,"is_reserved":false,"is_disabled":false,"rental_uris":{"android":"levelo://app?vid=29877edf-f914-4818-a395-be7aee9e9d72","ios":"levelo://app?vid=29877edf-f914-4818-a395-be7aee9e9d72"},"vehicle_type_id":"4","last_reported":1704996566,"current_range_meters":20000,"station_id":"","pricing_plan_id":"free"},{"bike_id":"e7dcaaa9-cc06-45af-bfbd-9ecd35e01aae","system_id":"levelo_inurba_marseille","lat":43.330198,"lon":5.390463,"is_reserved":false,"is_disabled":false,"rental_uris":{"android":"levelo://app?vid=e7dcaaa9-cc06-45af-bfbd-9ecd35e01aae","ios":"levelo://app?vid=e7dcaaa9-cc06-45af-bfbd-9ecd35e01aae"},"vehicle_type_id":"4","last_reported":1704996566,"current_range_meters":17600,"station_id":"","pricing_plan_id":"free"},{"bike_id":"4e808507-0e18-4e18-9ea4-5dafe1ce4990","system_id":"levelo_inurba_marseille","lat":43.295169,"lon":5.390426,"is_reserved":false,"is_disabled":false,"rental_uris":{"android":"levelo://app?vid=4e808507-0e18-4e18-9ea4-5dafe1ce4990","ios":"levelo://app?vid=4e808507-0e18-4e18-9ea4-5dafe1ce4990"},"vehicle_type_id":"4","last_reported":1704996566,"current_range_meters":21200,"station_id":"ce4bh3p2rcd13ifvqdp0","pricing_plan_id":"free"},{"bike_id":"8fe359a3-7109-4a83-a4f9-b0904a0a2302","system_id":"levelo_inurba_marseille","lat":43.330261,"lon":5.39039,"is_reserved":false,"is_disabled":false,"rental_uris":{"android":"levelo://app?vid=8fe359a3-7109-4a83-a4f9-b0904a0a2302","ios":"levelo://app?vid=8fe359a3-7109-4a83-a4f9-b0904a0a2302"},"vehicle_type_id":"4","last_reported":1704996566,"current_range_meters":18800,"station_id":"","pricing_plan_id":"free"},{"bike_id":"25fbee09-e328-4565-8086-dfd5d4b4a0ab","system_id":"levelo_inurba_marseille","lat":43.295169,"lon":5.390426,"is_reserved":false,"is_disabled":false,"rental_uris":{"android":"levelo://app?vid=25fbee09-e328-4565-8086-dfd5d4b4a0ab","ios":"levelo://app?vid=25fbee09-e328-4565-8086-dfd5d4b4a0ab"},"vehicle_type_id":"4","last_reported":1704996566,"current_range_meters":26400,"station_id":"ce4bh3p2rcd13ifvqdp0","pricing_plan_id":"free"},{"bike_id":"e0fc462b-d274-4653-b05d-8e799e350e05","system_id":"levelo_inurba_marseille","lat":43.295169,"lon":5.390426,"is_reserved":false,"is_disabled":false,"rental_uris":{"android":"levelo://app?vid=e0fc462b-d274-4653-b05d-8e799e350e05","ios":"levelo://app?vid=e0fc462b-d274-4653-b05d-8e799e350e05"},"vehicle_type_id":"4","last_reported":1704996566,"current_range_meters":26000,"station_id":"ce4bh3p2rcd13ifvqdp0","pricing_plan_id":"free"},{"bike_id":"725d0a4f-0595-4c35-a754-3c2cb4923bf2","system_id":"levelo_inurba_marseille","lat":43.295169,"lon":5.390426,"is_reserved":false,"is_disabled":false,"rental_uris":{"android":"levelo://app?vid=725d0a4f-0595-4c35-a754-3c2cb4923bf2","ios":"levelo://app?vid=725d0a4f-0595-4c35-a754-3c2cb4923bf2"},"vehicle_type_id":"4","last_reported":1704996566,"current_range_meters":24800,"station_id":"ce4bh3p2rcd13ifvqdp0","pricing_plan_id":"free"},{"bike_id":"0714a4a6-67eb-4d48-acb6-9eb2c57020ed","system_id":"levelo_inurba_marseille","lat":43.295169,"lon":5.390426,"is_reserved":false,"is_disabled":false,"rental_uris":{"android":"levelo://app?vid=0714a4a6-67eb-4d48-acb6-9eb2c57020ed","ios":"levelo://app?vid=0714a4a6-67eb-4d48-acb6-9eb2c57020ed"},"vehicle_type_id":"4","last_reported":1704996566,"current_range_meters":14800,"station_id":"ce4bh3p2rcd13ifvqdp0","pricing_plan_id":"free"},{"bike_id":"57a9e790-e938-4953-a578-654c8db7c6b3","system_id":"levelo_inurba_marseille","lat":43.295169,"lon":5.390426,"is_reserved":false,"is_disabled":false,"rental_uris":{"android":"levelo://app?vid=57a9e790-e938-4953-a578-654c8db7c6b3","ios":"levelo://app?vid=57a9e790-e938-4953-a578-654c8db7c6b3"},"vehicle_type_id":"4","last_reported":1704996566,"current_range_meters":28000,"station_id":"ce4bh3p2rcd13ifvqdp0","pricing_plan_id":"free"},{"bike_id":"fbd2ca6a-333e-4506-a9e0-f63e06fb2bb5","system_id":"levelo_inurba_marseille","lat":43.295169,"lon":5.390426,"is_reserved":false,"is_disabled":false,"rental_uris":{"android":"levelo://app?vid=fbd2ca6a-333e-4506-a9e0-f63e06fb2bb5","ios":"levelo://app?vid=fbd2ca6a-333e-4506-a9e0-f63e06fb2bb5"},"vehicle_type_id":"4","last_reported":1704996566,"current_range_meters":23600,"station_id":"ce4bh3p2rcd13ifvqdp0","pricing_plan_id":"free"},{"bike_id":"e7563d82-2e3d-42f8-abe5-63a03148a63f","system_id":"levelo_inurba_marseille","lat":43.28856,"lon":5.358371,"is_reserved":false,"is_disabled":false,"rental_uris":{"android":"levelo://app?vid=e7563d82-2e3d-42f8-abe5-63a03148a63f","ios":"levelo://app?vid=e7563d82-2e3d-42f8-abe5-63a03148a63f"},"vehicle_type_id":"4","last_reported":1704996566,"current_range_meters":25600,"station_id":"ce4bhb12rcd13ifvqem0","pricing_plan_id":"free"},{"bike_id":"33319782-2899-4236-b2fc-ad67d705f30f","system_id":"levelo_inurba_marseille","lat":43.28856,"lon":5.358371,"is_reserved":false,"is_disabled":false,"rental_uris":{"android":"levelo://app?vid=33319782-2899-4236-b2fc-ad67d705f30f","ios":"levelo://app?vid=33319782-2899-4236-b2fc-ad67d705f30f"},"vehicle_type_id":"4","last_reported":1704996566,"current_range_meters":26400,"station_id":"ce4bhb12rcd13ifvqem0","pricing_plan_id":"free"},{"bike_id":"90cc195e-a183-44ce-8e12-2ca769de9540","system_id":"levelo_inurba_marseille","lat":43.28856,"lon":5.358371,"is_reserved":false,"is_disabled":false,"rental_uris":{"android":"levelo://app?vid=90cc195e-a183-44ce-8e12-2ca769de9540","ios":"levelo://app?vid=90cc195e-a183-44ce-8e12-2ca769de9540"},"vehicle_type_id":"4","last_reported":1704996566,"current_range_meters":4400,"station_id":"ce4bhb12rcd13ifvqem0","pricing_plan_id":"free"},{"bike_id":"0431c259-37f8-4ab9-8ca7-6ecd05ea0a19","system_id":"levelo_inurba_marseille","lat":43.309371,"lon":5.401449,"is_reserved":false,"is_disabled":false,"rental_uris":{"android":"levelo://app?vid=0431c259-37f8-4ab9-8ca7-6ecd05ea0a19","ios":"levelo://app?vid=0431c259-37f8-4ab9-8ca7-6ecd05ea0a19"},"vehicle_type_id":"4","last_reported":1704996566,"current_range_meters":3600,"station_id":"ce4bgvp2rcd13ifvqct0","pricing_plan_id":"free"},{"bike_id":"dd401ffe-c0da-4f7a-8d65-b8fce458540e","system_id":"levelo_inurba_marseille","lat":43.3374,"lon":5.37448,"is_reserved":false,"is_disabled":false,"rental_uris":{"android":"levelo://app?vid=dd401ffe-c0da-4f7a-8d65-b8fce458540e","ios":"levelo://app?vid=dd401ffe-c0da-4f7a-8d65-b8fce458540e"},"vehicle_type_id":"4","last_reported":1704996566,"current_range_meters":22800,"station_id":"","pricing_plan_id":"free"},{"bike_id":"15ea7858-b2ed-4d73-b95a-779a48b45d34","system_id":"levelo_inurba_marseille","lat":43.312609,"lon":5.401662,"is_reserved":false,"is_disabled":false,"rental_uris":{"android":"levelo://app?vid=15ea7858-b2ed-4d73-b95a-779a48b45d34","ios":"levelo://app?vid=15ea7858-b2ed-4d73-b95a-779a48b45d34"},"vehicle_type_id":"4","last_reported":1704996566,"current_range_meters":17200,"station_id":"ce4bh092rcd13ifvqd30","pricing_plan_id":"free"},{"bike_id":"640217e1-caa8-48b6-b30c-7f2a7a56db15","system_id":"levelo_inurba_marseille","lat":43.30937,"lon":5.40136,"is_reserved":false,"is_disabled":false,"rental_uris":{"android":"levelo://app?vid=640217e1-caa8-48b6-b30c-7f2a7a56db15","ios":"levelo://app?vid=640217e1-caa8-48b6-b30c-7f2a7a56db15"},"vehicle_type_id":"4","last_reported":1704996566,"current_range_meters":24800,"station_id":"ce4bgvp2rcd13ifvqct0","pricing_plan_id":"free"},{"bike_id":"7dbbd0d0-0fe0-4a7e-bce3-6765ff51695c","system_id":"levelo_inurba_marseille","lat":43.31283,"lon":5.401677,"is_reserved":false,"is_disabled":false,"rental_uris":{"android":"levelo://app?vid=7dbbd0d0-0fe0-4a7e-bce3-6765ff51695c","ios":"levelo://app?vid=7dbbd0d0-0fe0-4a7e-bce3-6765ff51695c"},"vehicle_type_id":"4","last_reported":1704996566,"current_range_meters":30000,"station_id":"ce4bh092rcd13ifvqd30","pricing_plan_id":"free"},{"bike_id":"3bfc4c83-10ac-46de-89e5-cf3212328901","system_id":"levelo_inurba_marseille","lat":43.309399,"lon":5.401383,"is_reserved":false,"is_disabled":false,"rental_uris":{"android":"levelo://app?vid=3bfc4c83-10ac-46de-89e5-cf3212328901","ios":"levelo://app?vid=3bfc4c83-10ac-46de-89e5-cf3212328901"},"vehicle_type_id":"4","last_reported":1704996566,"current_range_meters":12000,"station_id":"ce4bgvp2rcd13ifvqct0","pricing_plan_id":"free"},{"bike_id":"f481ef2c-f442-421b-be8c-fb1c4d039a61","system_id":"levelo_inurba_marseille","lat":43.309371,"lon":5.401449,"is_reserved":false,"is_disabled":false,"rental_uris":{"android":"levelo://app?vid=f481ef2c-f442-421b-be8c-fb1c4d039a61","ios":"levelo://app?vid=f481ef2c-f442-421b-be8c-fb1c4d039a61"},"vehicle_type_id":"4","last_reported":1704996566,"current_range_meters":18400,"station_id":"ce4bgvp2rcd13ifvqct0","pricing_plan_id":"free"},{"bike_id":"00013623-5361-4b74-9040-a4d9aa055b64","system_id":"levelo_inurba_marseille","lat":43.309371,"lon":5.401449,"is_reserved":false,"is_disabled":false,"rental_uris":{"android":"levelo://app?vid=00013623-5361-4b74-9040-a4d9aa055b64","ios":"levelo://app?vid=00013623-5361-4b74-9040-a4d9aa055b64"},"vehicle_type_id":"4","last_reported":1704996566,"current_range_meters":26800,"station_id":"ce4bgvp2rcd13ifvqct0","pricing_plan_id":"free"},{"bike_id":"6b88bec0-0096-45c5-9762-e4f8787be6ee","system_id":"levelo_inurba_marseille","lat":43.313291,"lon":5.396838,"is_reserved":false,"is_disabled":false,"rental_uris":{"android":"levelo://app?vid=6b88bec0-0096-45c5-9762-e4f8787be6ee","ios":"levelo://app?vid=6b88bec0-0096-45c5-9762-e4f8787be6ee"},"vehicle_type_id":"4","last_reported":1704996566,"current_range_meters":0,"station_id":"ce4bgvp2rcd13ifvqcu0","pricing_plan_id":"free"},{"bike_id":"d4632afc-35e3-4069-86f7-ff142e5cadb3","system_id":"levelo_inurba_marseille","lat":43.31286,"lon":5.40173,"is_reserved":false,"is_disabled":false,"rental_uris":{"android":"levelo://app?vid=d4632afc-35e3-4069-86f7-ff142e5cadb3","ios":"levelo://app?vid=d4632afc-35e3-4069-86f7-ff142e5cadb3"},"vehicle_type_id":"4","last_reported":1704996566,"current_range_meters":13600,"station_id":"ce4bh092rcd13ifvqd30","pricing_plan_id":"free"},{"bike_id":"0686d897-4dab-4e56-98cb-bf4866c3324b","system_id":"levelo_inurba_marseille","lat":43.3093,"lon":5.40142,"is_reserved":false,"is_disabled":false,"rental_uris":{"android":"levelo://app?vid=0686d897-4dab-4e56-98cb-bf4866c3324b","ios":"levelo://app?vid=0686d897-4dab-4e56-98cb-bf4866c3324b"},"vehicle_type_id":"4","last_reported":1704996566,"current_range_meters":19200,"station_id":"ce4bgvp2rcd13ifvqct0","pricing_plan_id":"free"},{"bike_id":"d575caef-2b53-4899-9b1e-271e38eac812","system_id":"levelo_inurba_marseille","lat":43.30928,"lon":5.40142,"is_reserved":false,"is_disabled":false,"rental_uris":{"android":"levelo://app?vid=d575caef-2b53-4899-9b1e-271e38eac812","ios":"levelo://app?vid=d575caef-2b53-4899-9b1e-271e38eac812"},"vehicle_type_id":"4","last_reported":1704996566,"current_range_meters":26000,"station_id":"ce4bgvp2rcd13ifvqct0","pricing_plan_id":"free"},{"bike_id":"94e23f1b-dbf5-4680-8560-03f0ad22de3d","system_id":"levelo_inurba_marseille","lat":43.30933,"lon":5.40143,"is_reserved":false,"is_disabled":false,"rental_uris":{"android":"levelo://app?vid=94e23f1b-dbf5-4680-8560-03f0ad22de3d","ios":"levelo://app?vid=94e23f1b-dbf5-4680-8560-03f0ad22de3d"},"vehicle_type_id":"4","last_reported":1704996566,"current_range_meters":12800,"station_id":"ce4bgvp2rcd13ifvqct0","pricing_plan_id":"free"},{"bike_id":"27d43ea9-fc6e-4aff-bca5-883f14746cc7","system_id":"levelo_inurba_marseille","lat":43.33746,"lon":5.37459,"is_reserved":false,"is_disabled":false,"rental_uris":{"android":"levelo://app?vid=27d43ea9-fc6e-4aff-bca5-883f14746cc7","ios":"levelo://app?vid=27d43ea9-fc6e-4aff-bca5-883f14746cc7"},"vehicle_type_id":"4","last_reported":1704996566,"current_range_meters":22800,"station_id":"","pricing_plan_id":"free"},{"bike_id":"07d7104d-5ee2-4ff2-b3d9-f8f9edd0ad53","system_id":"levelo_inurba_marseille","lat":43.30929,"lon":5.40143,"is_reserved":false,"is_disabled":false,"rental_uris":{"android":"levelo://app?vid=07d7104d-5ee2-4ff2-b3d9-f8f9edd0ad53","ios":"levelo://app?vid=07d7104d-5ee2-4ff2-b3d9-f8f9edd0ad53"},"vehicle_type_id":"4","last_reported":1704996566,"current_range_meters":17200,"station_id":"ce4bgvp2rcd13ifvqct0","pricing_plan_id":"free"},{"bike_id":"afdb4d06-b2e3-4fbb-b398-43c1a3b99dd1","system_id":"levelo_inurba_marseille","lat":43.309371,"lon":5.401449,"is_reserved":false,"is_disabled":false,"rental_uris":{"android":"levelo://app?vid=afdb4d06-b2e3-4fbb-b398-43c1a3b99dd1","ios":"levelo://app?vid=afdb4d06-b2e3-4fbb-b398-43c1a3b99dd1"},"vehicle_type_id":"4","last_reported":1704996566,"current_range_meters":26000,"station_id":"ce4bgvp2rcd13ifvqct0","pricing_plan_id":"free"},{"bike_id":"c0caa469-d1c2-46d1-bf8c-b8e161fab45f","system_id":"levelo_inurba_marseille","lat":43.30927,"lon":5.40144,"is_reserved":false,"is_disabled":false,"rental_uris":{"android":"levelo://app?vid=c0caa469-d1c2-46d1-bf8c-b8e161fab45f","ios":"levelo://app?vid=c0caa469-d1c2-46d1-bf8c-b8e161fab45f"},"vehicle_type_id":"4","last_reported":1704996566,"current_range_meters":18000,"station_id":"ce4bgvp2rcd13ifvqct0","pricing_plan_id":"free"},{"bike_id":"d977fa02-4383-45bb-b005-e18c525e392a","system_id":"levelo_inurba_marseille","lat":43.337485,"lon":5.374575,"is_reserved":false,"is_disabled":false,"rental_uris":{"android":"levelo://app?vid=d977fa02-4383-45bb-b005-e18c525e392a","ios":"levelo://app?vid=d977fa02-4383-45bb-b005-e18c525e392a"},"vehicle_type_id":"4","last_reported":1704996566,"current_range_meters":21200,"station_id":"","pricing_plan_id":"free"},{"bike_id":"e6b414c9-54ac-4a4b-905d-e8b009155f7d","system_id":"levelo_inurba_marseille","lat":43.337495,"lon":5.374555,"is_reserved":false,"is_disabled":false,"rental_uris":{"android":"levelo://app?vid=e6b414c9-54ac-4a4b-905d-e8b009155f7d","ios":"levelo://app?vid=e6b414c9-54ac-4a4b-905d-e8b009155f7d"},"vehicle_type_id":"4","last_reported":1704996566,"current_range_meters":26000,"station_id":"","pricing_plan_id":"free"},{"bike_id":"e7159978-ccca-4b3f-841b-c3f8ec92da80","system_id":"levelo_inurba_marseille","lat":43.30661,"lon":5.40076,"is_reserved":false,"is_disabled":false,"rental_uris":{"android":"levelo://app?vid=e7159978-ccca-4b3f-841b-c3f8ec92da80","ios":"levelo://app?vid=e7159978-ccca-4b3f-841b-c3f8ec92da80"},"vehicle_type_id":"4","last_reported":1704996566,"current_range_meters":5600,"station_id":"ce4bh112rcd13ifvqda0","pricing_plan_id":"free"},{"bike_id":"a9824bca-b0dd-47e1-823f-a61b3552cfdc","system_id":"levelo_inurba_marseille","lat":43.306412,"lon":5.401035,"is_reserved":false,"is_disabled":false,"rental_uris":{"android":"levelo://app?vid=a9824bca-b0dd-47e1-823f-a61b3552cfdc","ios":"levelo://app?vid=a9824bca-b0dd-47e1-823f-a61b3552cfdc"},"vehicle_type_id":"4","last_reported":1704996566,"current_range_meters":26000,"station_id":"ce4bh112rcd13ifvqda0","pricing_plan_id":"free"},{"bike_id":"2d31d90c-18cc-493a-ad93-91a966057af0","system_id":"levelo_inurba_marseille","lat":43.337504,"lon":5.374546,"is_reserved":false,"is_disabled":false,"rental_uris":{"android":"levelo://app?vid=2d31d90c-18cc-493a-ad93-91a966057af0","ios":"levelo://app?vid=2d31d90c-18cc-493a-ad93-91a966057af0"},"vehicle_type_id":"4","last_reported":1704996566,"current_range_meters":27600,"station_id":"","pricing_plan_id":"free"},{"bike_id":"cb019ca3-9e8d-480b-9ad5-8ee476f75c25","system_id":"levelo_inurba_marseille","lat":43.306412,"lon":5.401035,"is_reserved":false,"is_disabled":false,"rental_uris":{"android":"levelo://app?vid=cb019ca3-9e8d-480b-9ad5-8ee476f75c25","ios":"levelo://app?vid=cb019ca3-9e8d-480b-9ad5-8ee476f75c25"},"vehicle_type_id":"4","last_reported":1704996566,"current_range_meters":23200,"station_id":"ce4bh112rcd13ifvqda0","pricing_plan_id":"free"},{"bike_id":"1dacac17-d2bc-497f-99d5-e12744329d09","system_id":"levelo_inurba_marseille","lat":43.306412,"lon":5.401035,"is_reserved":false,"is_disabled":false,"rental_uris":{"android":"levelo://app?vid=1dacac17-d2bc-497f-99d5-e12744329d09","ios":"levelo://app?vid=1dacac17-d2bc-497f-99d5-e12744329d09"},"vehicle_type_id":"4","last_reported":1704996566,"current_range_meters":22800,"station_id":"ce4bh112rcd13ifvqda0","pricing_plan_id":"free"},{"bike_id":"f2405833-6e9c-4a74-b868-5b525cac8876","system_id":"levelo_inurba_marseille","lat":43.30926,"lon":5.40154,"is_reserved":false,"is_disabled":false,"rental_uris":{"android":"levelo://app?vid=f2405833-6e9c-4a74-b868-5b525cac8876","ios":"levelo://app?vid=f2405833-6e9c-4a74-b868-5b525cac8876"},"vehicle_type_id":"4","last_reported":1704996566,"current_range_meters":11600,"station_id":"ce4bgvp2rcd13ifvqct0","pricing_plan_id":"free"},{"bike_id":"979f4289-125b-415e-8553-9f4e8183c788","system_id":"levelo_inurba_marseille","lat":43.33757,"lon":5.37462,"is_reserved":false,"is_disabled":false,"rental_uris":{"android":"levelo://app?vid=979f4289-125b-415e-8553-9f4e8183c788","ios":"levelo://app?vid=979f4289-125b-415e-8553-9f4e8183c788"},"vehicle_type_id":"4","last_reported":1704996566,"current_range_meters":30000,"station_id":"","pricing_plan_id":"free"},{"bike_id":"04363b7e-0ad4-4554-8a0d-6126fa8981bc","system_id":"levelo_inurba_marseille","lat":43.30642,"lon":5.401031,"is_reserved":false,"is_disabled":false,"rental_uris":{"android":"levelo://app?vid=04363b7e-0ad4-4554-8a0d-6126fa8981bc","ios":"levelo://app?vid=04363b7e-0ad4-4554-8a0d-6126fa8981bc"},"vehicle_type_id":"4","last_reported":1704996566,"current_range_meters":15200,"station_id":"ce4bh112rcd13ifvqda0","pricing_plan_id":"free"},{"bike_id":"6b25a654-0bbf-42c2-9dbd-f38e7fedabe7","system_id":"levelo_inurba_marseille","lat":43.30642,"lon":5.401031,"is_reserved":false,"is_disabled":false,"rental_uris":{"android":"levelo://app?vid=6b25a654-0bbf-42c2-9dbd-f38e7fedabe7","ios":"levelo://app?vid=6b25a654-0bbf-42c2-9dbd-f38e7fedabe7"},"vehicle_type_id":"4","last_reported":1704996566,"current_range_meters":2400,"station_id":"ce4bh112rcd13ifvqda0","pricing_plan_id":"free"},{"bike_id":"c5c48f76-9372-4c4c-8a8a-3549f1214b17","system_id":"levelo_inurba_marseille","lat":43.28731,"lon":5.36075,"is_reserved":false,"is_disabled":false,"rental_uris":{"android":"levelo://app?vid=c5c48f76-9372-4c4c-8a8a-3549f1214b17","ios":"levelo://app?vid=c5c48f76-9372-4c4c-8a8a-3549f1214b17"},"vehicle_type_id":"4","last_reported":1704996566,"current_range_meters":24000,"station_id":"cki0cbj6b192h4jlfktg","pricing_plan_id":"free"},{"bike_id":"20e0275c-546c-4d2d-a6bf-b2f29fd72a2c","system_id":"levelo_inurba_marseille","lat":43.301287,"lon":5.398756,"is_reserved":false,"is_disabled":false,"rental_uris":{"android":"levelo://app?vid=20e0275c-546c-4d2d-a6bf-b2f29fd72a2c","ios":"levelo://app?vid=20e0275c-546c-4d2d-a6bf-b2f29fd72a2c"},"vehicle_type_id":"4","last_reported":1704996566,"current_range_meters":24400,"station_id":"","pricing_plan_id":"free"},{"bike_id":"a4e66af0-89e2-4e98-b04b-e5bb31b530e6","system_id":"levelo_inurba_marseille","lat":43.28727,"lon":5.36078,"is_reserved":false,"is_disabled":false,"rental_uris":{"android":"levelo://app?vid=a4e66af0-89e2-4e98-b04b-e5bb31b530e6","ios":"levelo://app?vid=a4e66af0-89e2-4e98-b04b-e5bb31b530e6"},"vehicle_type_id":"4","last_reported":1704996566,"current_range_meters":20400,"station_id":"cki0cbj6b192h4jlfktg","pricing_plan_id":"free"},{"bike_id":"f3682688-b079-4f02-8c11-8db7ac98b34e","system_id":"levelo_inurba_marseille","lat":43.287279,"lon":5.360784,"is_reserved":false,"is_disabled":false,"rental_uris":{"android":"levelo://app?vid=f3682688-b079-4f02-8c11-8db7ac98b34e","ios":"levelo://app?vid=f3682688-b079-4f02-8c11-8db7ac98b34e"},"vehicle_type_id":"4","last_reported":1704996566,"current_range_meters":24000,"station_id":"cki0cbj6b192h4jlfktg","pricing_plan_id":"free"},{"bike_id":"5a0b1cd9-f6c7-4372-863c-80046f90865c","system_id":"levelo_inurba_marseille","lat":43.28727,"lon":5.36078,"is_reserved":false,"is_disabled":false,"rental_uris":{"android":"levelo://app?vid=5a0b1cd9-f6c7-4372-863c-80046f90865c","ios":"levelo://app?vid=5a0b1cd9-f6c7-4372-863c-80046f90865c"},"vehicle_type_id":"4","last_reported":1704996566,"current_range_meters":27600,"station_id":"cki0cbj6b192h4jlfktg","pricing_plan_id":"free"},{"bike_id":"deb8eb55-b317-4c0a-a46e-6dae13875cef","system_id":"levelo_inurba_marseille","lat":43.28727,"lon":5.36078,"is_reserved":false,"is_disabled":false,"rental_uris":{"android":"levelo://app?vid=deb8eb55-b317-4c0a-a46e-6dae13875cef","ios":"levelo://app?vid=deb8eb55-b317-4c0a-a46e-6dae13875cef"},"vehicle_type_id":"4","last_reported":1704996566,"current_range_meters":7200,"station_id":"cki0cbj6b192h4jlfktg","pricing_plan_id":"free"},{"bike_id":"620ead68-6747-4f65-9dad-d6a92251cf99","system_id":"levelo_inurba_marseille","lat":43.295196,"lon":5.39397,"is_reserved":false,"is_disabled":false,"rental_uris":{"android":"levelo://app?vid=620ead68-6747-4f65-9dad-d6a92251cf99","ios":"levelo://app?vid=620ead68-6747-4f65-9dad-d6a92251cf99"},"vehicle_type_id":"4","last_reported":1704996566,"current_range_meters":800,"station_id":"ce4bh292rcd13ifvqdf0","pricing_plan_id":"free"},{"bike_id":"773f0276-95a7-4abb-8dea-573ab1eaa558","system_id":"levelo_inurba_marseille","lat":43.286591,"lon":5.363346,"is_reserved":false,"is_disabled":false,"rental_uris":{"android":"levelo://app?vid=773f0276-95a7-4abb-8dea-573ab1eaa558","ios":"levelo://app?vid=773f0276-95a7-4abb-8dea-573ab1eaa558"},"vehicle_type_id":"4","last_reported":1704996566,"current_range_meters":2400,"station_id":"ce4bhah2rcd13ifvqej0","pricing_plan_id":"free"},{"bike_id":"5daa7ff4-6811-4029-b1c7-b367865842ad","system_id":"levelo_inurba_marseille","lat":43.290345,"lon":5.38646,"is_reserved":false,"is_disabled":false,"rental_uris":{"android":"levelo://app?vid=5daa7ff4-6811-4029-b1c7-b367865842ad","ios":"levelo://app?vid=5daa7ff4-6811-4029-b1c7-b367865842ad"},"vehicle_type_id":"4","last_reported":1704996566,"current_range_meters":10000,"station_id":"ce4bh4p2rcd13ifvqe0g","pricing_plan_id":"free"},{"bike_id":"92135c6c-7013-4dc3-a04e-c693ea95379d","system_id":"levelo_inurba_marseille","lat":43.286591,"lon":5.363346,"is_reserved":false,"is_disabled":false,"rental_uris":{"android":"levelo://app?vid=92135c6c-7013-4dc3-a04e-c693ea95379d","ios":"levelo://app?vid=92135c6c-7013-4dc3-a04e-c693ea95379d"},"vehicle_type_id":"4","last_reported":1704996566,"current_range_meters":4000,"station_id":"ce4bhah2rcd13ifvqej0","pricing_plan_id":"free"},{"bike_id":"4c33517d-d627-49f0-880d-6fc85bcf6cec","system_id":"levelo_inurba_marseille","lat":43.295196,"lon":5.39397,"is_reserved":false,"is_disabled":false,"rental_uris":{"android":"levelo://app?vid=4c33517d-d627-49f0-880d-6fc85bcf6cec","ios":"levelo://app?vid=4c33517d-d627-49f0-880d-6fc85bcf6cec"},"vehicle_type_id":"4","last_reported":1704996566,"current_range_meters":6400,"station_id":"ce4bh292rcd13ifvqdf0","pricing_plan_id":"free"},{"bike_id":"13bff07e-6b53-4718-b916-f23a986d17d0","system_id":"levelo_inurba_marseille","lat":43.295196,"lon":5.39397,"is_reserved":false,"is_disabled":false,"rental_uris":{"android":"levelo://app?vid=13bff07e-6b53-4718-b916-f23a986d17d0","ios":"levelo://app?vid=13bff07e-6b53-4718-b916-f23a986d17d0"},"vehicle_type_id":"4","last_reported":1704996566,"current_range_meters":8400,"station_id":"ce4bh292rcd13ifvqdf0","pricing_plan_id":"free"},{"bike_id":"9a4e778e-157b-485c-8343-0538d7b15d11","system_id":"levelo_inurba_marseille","lat":43.286961,"lon":5.373785,"is_reserved":false,"is_disabled":false,"rental_uris":{"android":"levelo://app?vid=9a4e778e-157b-485c-8343-0538d7b15d11","ios":"levelo://app?vid=9a4e778e-157b-485c-8343-0538d7b15d11"},"vehicle_type_id":"4","last_reported":1704996566,"current_range_meters":8800,"station_id":"ce4bh3p2rcd13ifvqdq0","pricing_plan_id":"free"},{"bike_id":"94dd095d-23f4-4e61-b3d9-cb114d802706","system_id":"levelo_inurba_marseille","lat":43.290345,"lon":5.38646,"is_reserved":false,"is_disabled":false,"rental_uris":{"android":"levelo://app?vid=94dd095d-23f4-4e61-b3d9-cb114d802706","ios":"levelo://app?vid=94dd095d-23f4-4e61-b3d9-cb114d802706"},"vehicle_type_id":"4","last_reported":1704996566,"current_range_meters":8400,"station_id":"ce4bh4p2rcd13ifvqe0g","pricing_plan_id":"free"},{"bike_id":"90602230-869f-4333-aae3-f4ab93024b77","system_id":"levelo_inurba_marseille","lat":43.289307,"lon":5.38406,"is_reserved":false,"is_disabled":false,"rental_uris":{"android":"levelo://app?vid=90602230-869f-4333-aae3-f4ab93024b77","ios":"levelo://app?vid=90602230-869f-4333-aae3-f4ab93024b77"},"vehicle_type_id":"4","last_reported":1704996566,"current_range_meters":31200,"station_id":"ce4bh612rcd13ifvqe6g","pricing_plan_id":"free"},{"bike_id":"5f938f10-bad0-417a-b3cf-ae33202195cf","system_id":"levelo_inurba_marseille","lat":43.289307,"lon":5.38406,"is_reserved":false,"is_disabled":false,"rental_uris":{"android":"levelo://app?vid=5f938f10-bad0-417a-b3cf-ae33202195cf","ios":"levelo://app?vid=5f938f10-bad0-417a-b3cf-ae33202195cf"},"vehicle_type_id":"4","last_reported":1704996566,"current_range_meters":18800,"station_id":"ce4bh612rcd13ifvqe6g","pricing_plan_id":"free"},{"bike_id":"2796a74d-53a8-452a-a3a6-79043c36da56","system_id":"levelo_inurba_marseille","lat":43.302759,"lon":5.400793,"is_reserved":false,"is_disabled":false,"rental_uris":{"android":"levelo://app?vid=2796a74d-53a8-452a-a3a6-79043c36da56","ios":"levelo://app?vid=2796a74d-53a8-452a-a3a6-79043c36da56"},"vehicle_type_id":"4","last_reported":1704996566,"current_range_meters":2800,"station_id":"ce4bgvh2rcd13ifvqcs0","pricing_plan_id":"free"},{"bike_id":"3e1080ba-98bf-486a-ac6b-00cf15c5d2bf","system_id":"levelo_inurba_marseille","lat":43.289307,"lon":5.38406,"is_reserved":false,"is_disabled":false,"rental_uris":{"android":"levelo://app?vid=3e1080ba-98bf-486a-ac6b-00cf15c5d2bf","ios":"levelo://app?vid=3e1080ba-98bf-486a-ac6b-00cf15c5d2bf"},"vehicle_type_id":"4","last_reported":1704996566,"current_range_meters":26400,"station_id":"ce4bh612rcd13ifvqe6g","pricing_plan_id":"free"},{"bike_id":"8d2e6d82-7a43-4ce7-8de3-55e79246e037","system_id":"levelo_inurba_marseille","lat":43.289307,"lon":5.38406,"is_reserved":false,"is_disabled":false,"rental_uris":{"android":"levelo://app?vid=8d2e6d82-7a43-4ce7-8de3-55e79246e037","ios":"levelo://app?vid=8d2e6d82-7a43-4ce7-8de3-55e79246e037"},"vehicle_type_id":"4","last_reported":1704996566,"current_range_meters":21200,"station_id":"ce4bh612rcd13ifvqe6g","pricing_plan_id":"free"},{"bike_id":"12105deb-a663-4b83-8ef0-6d5a07983d0d","system_id":"levelo_inurba_marseille","lat":43.289307,"lon":5.38406,"is_reserved":false,"is_disabled":false,"rental_uris":{"android":"levelo://app?vid=12105deb-a663-4b83-8ef0-6d5a07983d0d","ios":"levelo://app?vid=12105deb-a663-4b83-8ef0-6d5a07983d0d"},"vehicle_type_id":"4","last_reported":1704996566,"current_range_meters":28400,"station_id":"ce4bh612rcd13ifvqe6g","pricing_plan_id":"free"},{"bike_id":"15097936-b8ce-497e-aa08-8c623037bc71","system_id":"levelo_inurba_marseille","lat":43.302759,"lon":5.400793,"is_reserved":false,"is_disabled":false,"rental_uris":{"android":"levelo://app?vid=15097936-b8ce-497e-aa08-8c623037bc71","ios":"levelo://app?vid=15097936-b8ce-497e-aa08-8c623037bc71"},"vehicle_type_id":"4","last_reported":1704996566,"current_range_meters":6800,"station_id":"ce4bgvh2rcd13ifvqcs0","pricing_plan_id":"free"},{"bike_id":"fabcfe42-7a90-4968-95f5-5cc6be2afc5a","system_id":"levelo_inurba_marseille","lat":43.286039,"lon":5.370681,"is_reserved":false,"is_disabled":false,"rental_uris":{"android":"levelo://app?vid=fabcfe42-7a90-4968-95f5-5cc6be2afc5a","ios":"levelo://app?vid=fabcfe42-7a90-4968-95f5-5cc6be2afc5a"},"vehicle_type_id":"4","last_reported":1704996566,"current_range_meters":12800,"station_id":"ce4bht12rcd13ifvqi60","pricing_plan_id":"free"},{"bike_id":"9b087de0-1ee7-4008-a6d8-3cd5c9f6c6fb","system_id":"levelo_inurba_marseille","lat":43.287184,"lon":5.37937,"is_reserved":false,"is_disabled":false,"rental_uris":{"android":"levelo://app?vid=9b087de0-1ee7-4008-a6d8-3cd5c9f6c6fb","ios":"levelo://app?vid=9b087de0-1ee7-4008-a6d8-3cd5c9f6c6fb"},"vehicle_type_id":"4","last_reported":1704996566,"current_range_meters":30400,"station_id":"ce4bh9p2rcd13ifvqec0","pricing_plan_id":"free"},{"bike_id":"0e4c756f-866a-43b2-940c-6deba78b643b","system_id":"levelo_inurba_marseille","lat":43.287185,"lon":5.379373,"is_reserved":false,"is_disabled":false,"rental_uris":{"android":"levelo://app?vid=0e4c756f-866a-43b2-940c-6deba78b643b","ios":"levelo://app?vid=0e4c756f-866a-43b2-940c-6deba78b643b"},"vehicle_type_id":"4","last_reported":1704996566,"current_range_meters":23200,"station_id":"ce4bh9p2rcd13ifvqec0","pricing_plan_id":"free"},{"bike_id":"fcd1059b-9e4f-4028-8a59-9d721bad4fac","system_id":"levelo_inurba_marseille","lat":43.290345,"lon":5.38646,"is_reserved":false,"is_disabled":false,"rental_uris":{"android":"levelo://app?vid=fcd1059b-9e4f-4028-8a59-9d721bad4fac","ios":"levelo://app?vid=fcd1059b-9e4f-4028-8a59-9d721bad4fac"},"vehicle_type_id":"4","last_reported":1704996566,"current_range_meters":6800,"station_id":"ce4bh4p2rcd13ifvqe0g","pricing_plan_id":"free"},{"bike_id":"99467e2e-3f65-4d99-a0f4-3d3e5a672d17","system_id":"levelo_inurba_marseille","lat":43.284534,"lon":5.358662,"is_reserved":false,"is_disabled":false,"rental_uris":{"android":"levelo://app?vid=99467e2e-3f65-4d99-a0f4-3d3e5a672d17","ios":"levelo://app?vid=99467e2e-3f65-4d99-a0f4-3d3e5a672d17"},"vehicle_type_id":"4","last_reported":1704996566,"current_range_meters":10800,"station_id":"ce4bhah2rcd13ifvqei0","pricing_plan_id":"free"},{"bike_id":"beccba81-e735-44df-9dad-36217ca374a6","system_id":"levelo_inurba_marseille","lat":43.286595,"lon":5.386795,"is_reserved":false,"is_disabled":false,"rental_uris":{"android":"levelo://app?vid=beccba81-e735-44df-9dad-36217ca374a6","ios":"levelo://app?vid=beccba81-e735-44df-9dad-36217ca374a6"},"vehicle_type_id":"4","last_reported":1704996566,"current_range_meters":27200,"station_id":"ce4bh492rcd13ifvqdug","pricing_plan_id":"free"},{"bike_id":"af6f7988-b13c-491c-b61c-b9ca3bf84dbd","system_id":"levelo_inurba_marseille","lat":43.317042,"lon":5.404607,"is_reserved":false,"is_disabled":false,"rental_uris":{"android":"levelo://app?vid=af6f7988-b13c-491c-b61c-b9ca3bf84dbd","ios":"levelo://app?vid=af6f7988-b13c-491c-b61c-b9ca3bf84dbd"},"vehicle_type_id":"4","last_reported":1704996566,"current_range_meters":2000,"station_id":"ce4bh012rcd13ifvqd00","pricing_plan_id":"free"},{"bike_id":"1f4f0323-40ef-43e5-8af7-11bcb993a67e","system_id":"levelo_inurba_marseille","lat":43.316828,"lon":5.404723,"is_reserved":false,"is_disabled":false,"rental_uris":{"android":"levelo://app?vid=1f4f0323-40ef-43e5-8af7-11bcb993a67e","ios":"levelo://app?vid=1f4f0323-40ef-43e5-8af7-11bcb993a67e"},"vehicle_type_id":"4","last_reported":1704996566,"current_range_meters":27600,"station_id":"ce4bh012rcd13ifvqd00","pricing_plan_id":"free"},{"bike_id":"1dbd1b15-11ca-4501-940a-44a546641c2f","system_id":"levelo_inurba_marseille","lat":43.31683,"lon":5.40469,"is_reserved":false,"is_disabled":false,"rental_uris":{"android":"levelo://app?vid=1dbd1b15-11ca-4501-940a-44a546641c2f","ios":"levelo://app?vid=1dbd1b15-11ca-4501-940a-44a546641c2f"},"vehicle_type_id":"4","last_reported":1704996566,"current_range_meters":14800,"station_id":"ce4bh012rcd13ifvqd00","pricing_plan_id":"free"},{"bike_id":"3b510622-2e69-4dcb-b1fd-661373ad4ee9","system_id":"levelo_inurba_marseille","lat":43.316828,"lon":5.404723,"is_reserved":false,"is_disabled":false,"rental_uris":{"android":"levelo://app?vid=3b510622-2e69-4dcb-b1fd-661373ad4ee9","ios":"levelo://app?vid=3b510622-2e69-4dcb-b1fd-661373ad4ee9"},"vehicle_type_id":"4","last_reported":1704996566,"current_range_meters":21200,"station_id":"ce4bh012rcd13ifvqd00","pricing_plan_id":"free"},{"bike_id":"36407712-549d-4e59-a773-bb2438e51645","system_id":"levelo_inurba_marseille","lat":43.316999,"lon":5.404676,"is_reserved":false,"is_disabled":false,"rental_uris":{"android":"levelo://app?vid=36407712-549d-4e59-a773-bb2438e51645","ios":"levelo://app?vid=36407712-549d-4e59-a773-bb2438e51645"},"vehicle_type_id":"4","last_reported":1704996566,"current_range_meters":19600,"station_id":"ce4bh012rcd13ifvqd00","pricing_plan_id":"free"},{"bike_id":"35af9306-8fc1-47fb-b3b3-76b31447fd89","system_id":"levelo_inurba_marseille","lat":43.31685,"lon":5.40474,"is_reserved":false,"is_disabled":false,"rental_uris":{"android":"levelo://app?vid=35af9306-8fc1-47fb-b3b3-76b31447fd89","ios":"levelo://app?vid=35af9306-8fc1-47fb-b3b3-76b31447fd89"},"vehicle_type_id":"4","last_reported":1704996566,"current_range_meters":17600,"station_id":"ce4bh012rcd13ifvqd00","pricing_plan_id":"free"},{"bike_id":"5f0332cf-dc5d-4725-8541-4b4b381498ca","system_id":"levelo_inurba_marseille","lat":43.292,"lon":5.39315,"is_reserved":false,"is_disabled":false,"rental_uris":{"android":"levelo://app?vid=5f0332cf-dc5d-4725-8541-4b4b381498ca","ios":"levelo://app?vid=5f0332cf-dc5d-4725-8541-4b4b381498ca"},"vehicle_type_id":"4","last_reported":1704996566,"current_range_meters":9200,"station_id":"ce4bh192rcd13ifvqdd0","pricing_plan_id":"free"},{"bike_id":"b4ac8a75-41ad-4a05-8ea8-94476528dd85","system_id":"levelo_inurba_marseille","lat":43.29201,"lon":5.393256,"is_reserved":false,"is_disabled":false,"rental_uris":{"android":"levelo://app?vid=b4ac8a75-41ad-4a05-8ea8-94476528dd85","ios":"levelo://app?vid=b4ac8a75-41ad-4a05-8ea8-94476528dd85"},"vehicle_type_id":"4","last_reported":1704996566,"current_range_meters":31200,"station_id":"ce4bh192rcd13ifvqdd0","pricing_plan_id":"free"},