{"last_updated":1744967432,"ttl":60,"version":"2.2","data":{"bikes":[{"bike_id":"1c2b1d51-e0d9-4b04-9d1a-d20dcfdc47b4","system_id":"levelo_inurba_marseille","lat":43.25927,"lon":5.40907,"is_reserved":false,"is_disabled":false,"rental_uris":{"android":"levelo://app?vid=1c2b1d51-e0d9-4b04-9d1a-d20dcfdc47b4","ios":"levelo://app?vid=1c2b1d51-e0d9-4b04-9d1a-d20dcfdc47b4"},"vehicle_type_id":"4","last_reported":1744967432,"current_range_meters":3200,"station_id":"ce4bhm92rcd13ifvqglg","pricing_plan_id":"cebpf4jnsgd1na2vs0mg"},{"bike_id":"557c779a-6b03-4080-9ade-a8ea333664d0","system_id":"levelo_inurba_marseille","lat":43.279962,"lon":5.416733,"is_reserved":false,"is_disabled":false,"rental_uris":{"android":"levelo://app?vid=557c779a-6b03-4080-9ade-a8ea333664d0","ios":"levelo://app?vid=557c779a-6b03-4080-9ade-a8ea333664d0"},"vehicle_type_id":"4","last_reported":1744967432,"current_range_meters":3600,"station_id":"ce4bho12rcd13ifvqh1g","pricing_plan_id":"cebpf4jnsgd1na2vs0mg"},{"bike_id":"593f200f-acc6-4515-9b2c-377663e6c433","system_id":"levelo_inurba_marseille","lat":43.21744,"lon":5.34607,"is_reserved":false,"is_disabled":true,"rental_uris":{"android":"levelo://app?vid=593f200f-acc6-4515-9b2c-377663e6c433","ios":"levelo://app?vid=593f200f-acc6-4515-9b2c-377663e6c433"},"vehicle_type_id":"4","last_reported":1744967432,"current_range_meters":4400,"station_id":"st_cvj6r9ubvosntc0bgbag","pricing_plan_id":"cebpf4jnsgd1na2vs0mg"},{"bike_id":"e6f4e0cd-c5a0-445b-ba57-17405d2b4331","system_id":"levelo_inurba_marseille","lat":43.28478,"lon":5.38407,"is_reserved":false,"is_disabled":false,"rental_uris":{"android":"levelo://app?vid=e6f4e0cd-c5a0-445b-ba57-17405d2b4331","ios":"levelo://app?vid=e6f4e0cd-c5a0-445b-ba57-17405d2b4331"},"vehicle_type_id":"4","last_reported":1744967432,"current_range_meters":4400,"station_id":"ce4bh512rcd13ifvqe3g","pricing_plan_id":"cebpf4jnsgd1na2vs0mg"},{"bike_id":"f98ded00-67d9-44bc-8f69-cfb08c1ddeac","system_id":"levelo_inurba_marseille","lat":43.28613,"lon":5.37058,"is_reserved":false,"is_disabled":false,"rental_uris":{"android":"levelo://app?vid=f98ded00-67d9-44bc-8f69-cfb08c1ddeac","ios":"levelo://app?vid=f98ded00-67d9-44bc-8f69-cfb08c1ddeac"},"vehicle_type_id":"4","last_reported":1744967432,"current_range_meters":4800,"station_id":"ce4bht12rcd13ifvqi60","pricing_plan_id":"cebpf4jnsgd1na2vs0mg"},{"bike_id":"206e6eed-90ee-4177-ab5a-4bcb1810ce02","system_id":"levelo_inurba_marseille","lat":43.32358,"lon":5.36759,"is_reserved":false,"is_disabled":false,"rental_uris":{"android":"levelo://app?vid=206e6eed-90ee-4177-ab5a-4bcb1810ce02","ios":"levelo://app?vid=206e6eed-90ee-4177-ab5a-4bcb1810ce02"},"vehicle_type_id":"4","last_reported":1744967432,"current_range_meters":5600,"station_id":"ce4bhsh2rcd13ifvqi2g","pricing_plan_id":"cebpf4jnsgd1na2vs0mg"},{"bike_id":"1d1e26a8-49be-4c65-9d56-8ed632f35d8f","system_id":"levelo_inurba_marseille","lat":43.30613,"lon":5.393416,"is_reserved":false,"is_disabled":false,"rental_uris":{"android":"levelo://app?vid=1d1e26a8-49be-4c65-9d56-8ed632f35d8f","ios":"levelo://app?vid=1d1e26a8-49be-4c65-9d56-8ed632f35d8f"},"vehicle_type_id":"4","last_reported":1744967432,"current_range_meters":6000,"station_id":"ce4bh0p2rcd13ifvqd80","pricing_plan_id":"cebpf4jnsgd1na2vs0mg"},{"bike_id":"a08018b4-409f-4527-8dd1-79de9d571187","system_id":"levelo_inurba_marseille","lat":43.28488,"lon":5.38421,"is_reserved":false,"is_disabled":false,"rental_uris":{"android":"levelo://app?vid=a08018b4-409f-4527-8dd1-79de9d571187","ios":"levelo://app?vid=a08018b4-409f-4527-8dd1-79de9d571187"},"vehicle_type_id":"4","last_reported":1744967432,"current_range_meters":6000,"station_id":"ce4bh512rcd13ifvqe3g","pricing_plan_id":"cebpf4jnsgd1na2vs0mg"},{"bike_id":"2df22311-bac1-4b8f-abff-11893969de63","system_id":"levelo_inurba_marseille","lat":43.31076,"lon":5.37818,"is_reserved":false,"is_disabled":false,"rental_uris":{"android":"levelo://app?vid=2df22311-bac1-4b8f-abff-11893969de63","ios":"levelo://app?vid=2df22311-bac1-4b8f-abff-11893969de63"},"vehicle_type_id":"4","last_reported":1744967432,"current_range_meters":6400,"station_id":"","pricing_plan_id":"cebpf4jnsgd1na2vs0mg"},{"bike_id":"7b09dfe8-4549-4e15-baf3-df132e32d464","system_id":"levelo_inurba_marseille","lat":43.24183,"lon":5.39736,"is_reserved":false,"is_disabled":false,"rental_uris":{"android":"levelo://app?vid=7b09dfe8-4549-4e15-baf3-df132e32d464","ios":"levelo://app?vid=7b09dfe8-4549-4e15-baf3-df132e32d464"},"vehicle_type_id":"4","last_reported":1744967432,"current_range_meters":6400,"station_id":"ce4bhn12rcd13ifvqgpg","pricing_plan_id":"cebpf4jnsgd1na2vs0mg"},{"bike_id":"efe2c559-3f1f-4eae-8f0d-9b098103009d","system_id":"levelo_inurba_marseille","lat":43.30959,"lon":5.39032,"is_reserved":false,"is_disabled":true,"rental_uris":{"android":"levelo://app?vid=efe2c559-3f1f-4eae-8f0d-9b098103009d","ios":"levelo://app?vid=efe2c559-3f1f-4eae-8f0d-9b098103009d"},"vehicle_type_id":"4","last_reported":1744967432,"current_range_meters":6400,"station_id":"ce4bgup2rcd13ifvqco0","pricing_plan_id":"cebpf4jnsgd1na2vs0mg"},{"bike_id":"88ce086b-91b3-4da1-a45f-e9ca4f83e1d2","system_id":"levelo_inurba_marseille","lat":43.284668,"lon":5.384033,"is_reserved":false,"is_disabled":true,"rental_uris":{"android":"levelo://app?vid=88ce086b-91b3-4da1-a45f-e9ca4f83e1d2","ios":"levelo://app?vid=88ce086b-91b3-4da1-a45f-e9ca4f83e1d2"},"vehicle_type_id":"4","last_reported":1744967432,"current_range_meters":6400,"station_id":"ce4bhbh2rcd13ifvqeo0","pricing_plan_id":"cebpf4jnsgd1na2vs0mg"},{"bike_id":"1812e504-d01c-4a74-9e55-135c932d22ed","system_id":"levelo_inurba_marseille","lat":43.27422,"lon":5.39403,"is_reserved":false,"is_disabled":false,"rental_uris":{"android":"levelo://app?vid=1812e504-d01c-4a74-9e55-135c932d22ed","ios":"levelo://app?vid=1812e504-d01c-4a74-9e55-135c932d22ed"},"vehicle_type_id":"4","last_reported":1744967432,"current_range_meters":6400,"station_id":"ce4bhdp2rcd13ifvqf20","pricing_plan_id":"cebpf4jnsgd1na2vs0mg"},{"bike_id":"f57acb1a-2d22-481f-9311-39903e65c833","system_id":"levelo_inurba_marseille","lat":43.24671,"lon":5.38167,"is_reserved":false,"is_disabled":false,"rental_uris":{"android":"levelo://app?vid=f57acb1a-2d22-481f-9311-39903e65c833","ios":"levelo://app?vid=f57acb1a-2d22-481f-9311-39903e65c833"},"vehicle_type_id":"4","last_reported":1744967432,"current_range_meters":6400,"station_id":"ce4bhih2rcd13ifvqfr0","pricing_plan_id":"cebpf4jnsgd1na2vs0mg"},{"bike_id":"2a297b53-e6c9-4a44-8832-a1535085da75","system_id":"levelo_inurba_marseille","lat":43.31989,"lon":5.38135,"is_reserved":false,"is_disabled":true,"rental_uris":{"android":"levelo://app?vid=2a297b53-e6c9-4a44-8832-a1535085da75","ios":"levelo://app?vid=2a297b53-e6c9-4a44-8832-a1535085da75"},"vehicle_type_id":"4","last_reported":1744967432,"current_range_meters":6800,"station_id":"ce4bhr12rcd13ifvqhpg","pricing_plan_id":"cebpf4jnsgd1na2vs0mg"},{"bike_id":"4e70cebe-a81d-41e8-abdf-03514e1ad08c","system_id":"levelo_inurba_marseille","lat":43.27985,"lon":5.38733,"is_reserved":false,"is_disabled":false,"rental_uris":{"android":"levelo://app?vid=4e70cebe-a81d-41e8-abdf-03514e1ad08c","ios":"levelo://app?vid=4e70cebe-a81d-41e8-abdf-03514e1ad08c"},"vehicle_type_id":"4","last_reported":1744967432,"current_range_meters":6800,"station_id":"ce4bhg12rcd13ifvqf80","pricing_plan_id":"cebpf4jnsgd1na2vs0mg"},{"bike_id":"683727aa-af5c-4a30-b620-923da0da034b","system_id":"levelo_inurba_marseille","lat":43.26851,"lon":5.40455,"is_reserved":false,"is_disabled":false,"rental_uris":{"android":"levelo://app?vid=683727aa-af5c-4a30-b620-923da0da034b","ios":"levelo://app?vid=683727aa-af5c-4a30-b620-923da0da034b"},"vehicle_type_id":"4","last_reported":1744967432,"current_range_meters":6800,"station_id":"cjm6bp8fraef2m0cb0m0","pricing_plan_id":"cebpf4jnsgd1na2vs0mg"},{"bike_id":"aa218f95-160e-4f32-8136-18fcfa03334d","system_id":"levelo_inurba_marseille","lat":43.26567,"lon":5.38999,"is_reserved":false,"is_disabled":false,"rental_uris":{"android":"levelo://app?vid=aa218f95-160e-4f32-8136-18fcfa03334d","ios":"levelo://app?vid=aa218f95-160e-4f32-8136-18fcfa03334d"},"vehicle_type_id":"4","last_reported":1744967432,"current_range_meters":7200,"station_id":"ce4bhe12rcd13ifvqf30","pricing_plan_id":"cebpf4jnsgd1na2vs0mg"},{"bike_id":"318178ab-18c4-4763-a7ec-fd9e64268800","system_id":"levelo_inurba_marseille","lat":43.27995,"lon":5.41665,"is_reserved":false,"is_disabled":false,"rental_uris":{"android":"levelo://app?vid=318178ab-18c4-4763-a7ec-fd9e64268800","ios":"levelo://app?vid=318178ab-18c4-4763-a7ec-fd9e64268800"},"vehicle_type_id":"4","last_reported":1744967432,"current_range_meters":7200,"station_id":"ce4bho12rcd13ifvqh1g","pricing_plan_id":"cebpf4jnsgd1na2vs0mg"},{"bike_id":"76fedda9-5184-4c30-9c84-0c1b5b7d550f","system_id":"levelo_inurba_marseille","lat":43.24803,"lon":5.37453,"is_reserved":false,"is_disabled":false,"rental_uris":{"android":"levelo://app?vid=76fedda9-5184-4c30-9c84-0c1b5b7d550f","ios":"levelo://app?vid=76fedda9-5184-4c30-9c84-0c1b5b7d550f"},"vehicle_type_id":"4","last_reported":1744967432,"current_range_meters":8000,"station_id":"ce4bhgh2rcd13ifvqfb0","pricing_plan_id":"cebpf4jnsgd1na2vs0mg"},{"bike_id":"634d8e15-416b-4c50-8ebb-215dec257ec9","system_id":"levelo_inurba_marseille","lat":43.25921,"lon":5.4087,"is_reserved":false,"is_disabled":false,"rental_uris":{"android":"levelo://app?vid=634d8e15-416b-4c50-8ebb-215dec257ec9","ios":"levelo://app?vid=634d8e15-416b-4c50-8ebb-215dec257ec9"},"vehicle_type_id":"4","last_reported":1744967432,"current_range_meters":8000,"station_id":"ce4bhm92rcd13ifvqglg","pricing_plan_id":"cebpf4jnsgd1na2vs0mg"},{"bike_id":"9dac2e69-a062-49d6-92a9-7e004e1a897d","system_id":"levelo_inurba_marseille","lat":43.24185,"lon":5.39724,"is_reserved":false,"is_disabled":false,"rental_uris":{"android":"levelo://app?vid=9dac2e69-a062-49d6-92a9-7e004e1a897d","ios":"levelo://app?vid=9dac2e69-a062-49d6-92a9-7e004e1a897d"},"vehicle_type_id":"4","last_reported":1744967432,"current_range_meters":8400,"station_id":"ce4bhn12rcd13ifvqgpg","pricing_plan_id":"cebpf4jnsgd1na2vs0mg"},{"bike_id":"3aa21b95-1b32-4a0f-afd5-5b5e7c484284","system_id":"levelo_inurba_marseille","lat":43.25938,"lon":5.40883,"is_reserved":false,"is_disabled":false,"rental_uris":{"android":"levelo://app?vid=3aa21b95-1b32-4a0f-afd5-5b5e7c484284","ios":"levelo://app?vid=3aa21b95-1b32-4a0f-afd5-5b5e7c484284"},"vehicle_type_id":"4","last_reported":1744967432,"current_range_meters":8400,"station_id":"ce4bhm92rcd13ifvqglg","pricing_plan_id":"cebpf4jnsgd1na2vs0mg"},{"bike_id":"7d6f2107-1eb6-481d-a164-e0ea88807014","system_id":"levelo_inurba_marseille","lat":43.27983,"lon":5.38728,"is_reserved":false,"is_disabled":false,"rental_uris":{"android":"levelo://app?vid=7d6f2107-1eb6-481d-a164-e0ea88807014","ios":"levelo://app?vid=7d6f2107-1eb6-481d-a164-e0ea88807014"},"vehicle_type_id":"4","last_reported":1744967432,"current_range_meters":8400,"station_id":"ce4bhg12rcd13ifvqf80","pricing_plan_id":"cebpf4jnsgd1na2vs0mg"},{"bike_id":"15485c9d-2cdd-4f1f-b42d-c426178e2b89","system_id":"levelo_inurba_marseille","lat":43.26212,"lon":5.37441,"is_reserved":false,"is_disabled":false,"rental_uris":{"android":"levelo://app?vid=15485c9d-2cdd-4f1f-b42d-c426178e2b89","ios":"levelo://app?vid=15485c9d-2cdd-4f1f-b42d-c426178e2b89"},"vehicle_type_id":"4","last_reported":1744967432,"current_range_meters":8400,"station_id":"ce4bhgp2rcd13ifvqfc0","pricing_plan_id":"cebpf4jnsgd1na2vs0mg"},{"bike_id":"e3061286-add2-4bc6-a803-66a4d7d63e42","system_id":"levelo_inurba_marseille","lat":43.28622,"lon":5.35096,"is_reserved":false,"is_disabled":false,"rental_uris":{"android":"levelo://app?vid=e3061286-add2-4bc6-a803-66a4d7d63e42","ios":"levelo://app?vid=e3061286-add2-4bc6-a803-66a4d7d63e42"},"vehicle_type_id":"4","last_reported":1744967432,"current_range_meters":8400,"station_id":"ce4bhch2rcd13ifvqeug","pricing_plan_id":"cebpf4jnsgd1na2vs0mg"},{"bike_id":"72823705-7f07-4adb-897d-e1709234e554","system_id":"levelo_inurba_marseille","lat":43.23178,"lon":5.40019,"is_reserved":false,"is_disabled":false,"rental_uris":{"android":"levelo://app?vid=72823705-7f07-4adb-897d-e1709234e554","ios":"levelo://app?vid=72823705-7f07-4adb-897d-e1709234e554"},"vehicle_type_id":"4","last_reported":1744967432,"current_range_meters":8400,"station_id":"ce4bhn12rcd13ifvqgqg","pricing_plan_id":"cebpf4jnsgd1na2vs0mg"},{"bike_id":"3f4e1186-3d94-409e-8a28-6e2e16b869a1","system_id":"levelo_inurba_marseille","lat":43.266848,"lon":5.382771,"is_reserved":false,"is_disabled":true,"rental_uris":{"android":"levelo://app?vid=3f4e1186-3d94-409e-8a28-6e2e16b869a1","ios":"levelo://app?vid=3f4e1186-3d94-409e-8a28-6e2e16b869a1"},"vehicle_type_id":"4","last_reported":1744967432,"current_range_meters":8400,"station_id":"ce4bhg92rcd13ifvqf90","pricing_plan_id":"cebpf4jnsgd1na2vs0mg"},{"bike_id":"49837562-a922-4c03-84be-d931322ecea3","system_id":"levelo_inurba_marseille","lat":43.30598,"lon":5.39356,"is_reserved":false,"is_disabled":false,"rental_uris":{"android":"levelo://app?vid=49837562-a922-4c03-84be-d931322ecea3","ios":"levelo://app?vid=49837562-a922-4c03-84be-d931322ecea3"},"vehicle_type_id":"4","last_reported":1744967432,"current_range_meters":8400,"station_id":"ce4bh0p2rcd13ifvqd80","pricing_plan_id":"cebpf4jnsgd1na2vs0mg"},{"bike_id":"692d9163-a033-450e-9d18-5ccbc8045ce2","system_id":"levelo_inurba_marseille","lat":43.25114,"lon":5.4032,"is_reserved":false,"is_disabled":false,"rental_uris":{"android":"levelo://app?vid=692d9163-a033-450e-9d18-5ccbc8045ce2","ios":"levelo://app?vid=692d9163-a033-450e-9d18-5ccbc8045ce2"},"vehicle_type_id":"4","last_reported":1744967432,"current_range_meters":8400,"station_id":"ce4bhlh2rcd13ifvqgig","pricing_plan_id":"cebpf4jnsgd1na2vs0mg"},{"bike_id":"95697eab-92be-4e1f-ac97-1423780cffb9","system_id":"levelo_inurba_marseille","lat":43.31326,"lon":5.39688,"is_reserved":false,"is_disabled":false,"rental_uris":{"android":"levelo://app?vid=95697eab-92be-4e1f-ac97-1423780cffb9","ios":"levelo://app?vid=95697eab-92be-4e1f-ac97-1423780cffb9"},"vehicle_type_id":"4","last_reported":1744967432,"current_range_meters":9200,"station_id":"ce4bgvp2rcd13ifvqcu0","pricing_plan_id":"cebpf4jnsgd1na2vs0mg"},{"bike_id":"c5ad34a5-de23-413d-9e8b-ec61ed7009c1","system_id":"levelo_inurba_marseille","lat":43.28624,"lon":5.35113,"is_reserved":false,"is_disabled":false,"rental_uris":{"android":"levelo://app?vid=c5ad34a5-de23-413d-9e8b-ec61ed7009c1","ios":"levelo://app?vid=c5ad34a5-de23-413d-9e8b-ec61ed7009c1"},"vehicle_type_id":"4","last_reported":1744967432,"current_range_meters":9200,"station_id":"ce4bhch2rcd13ifvqeug","pricing_plan_id":"cebpf4jnsgd1na2vs0mg"},{"bike_id":"b5f21405-31b6-4146-bc04-e82845a77fd4","system_id":"levelo_inurba_marseille","lat":43.30327,"lon":5.36854,"is_reserved":false,"is_disabled":false,"rental_uris":{"android":"levelo://app?vid=b5f21405-31b6-4146-bc04-e82845a77fd4","ios":"levelo://app?vid=b5f21405-31b6-4146-bc04-e82845a77fd4"},"vehicle_type_id":"4","last_reported":1744967432,"current_range_meters":9600,"station_id":"ce4bgqh2rcd13ifvqc5g","pricing_plan_id":"cebpf4jnsgd1na2vs0mg"},{"bike_id":"41fb0398-f2fe-4abb-ae37-a38f47615ea9","system_id":"levelo_inurba_marseille","lat":43.32359,"lon":5.36717,"is_reserved":false,"is_disabled":true,"rental_uris":{"android":"levelo://app?vid=41fb0398-f2fe-4abb-ae37-a38f47615ea9","ios":"levelo://app?vid=41fb0398-f2fe-4abb-ae37-a38f47615ea9"},"vehicle_type_id":"4","last_reported":1744967432,"current_range_meters":9600,"station_id":"ce4bhsh2rcd13ifvqi2g","pricing_plan_id":"cebpf4jnsgd1na2vs0mg"},{"bike_id":"4a17a27b-4979-4133-9ae1-996785f8fee4","system_id":"levelo_inurba_marseille","lat":43.23075,"lon":5.3549,"is_reserved":false,"is_disabled":false,"rental_uris":{"android":"levelo://app?vid=4a17a27b-4979-4133-9ae1-996785f8fee4","ios":"levelo://app?vid=4a17a27b-4979-4133-9ae1-996785f8fee4"},"vehicle_type_id":"4","last_reported":1744967432,"current_range_meters":9600,"station_id":"cpo3342slgdg3j2ifvpg","pricing_plan_id":"cebpf4jnsgd1na2vs0mg"},{"bike_id":"2f52d163-dd56-4334-be9f-8d6905835b03","system_id":"levelo_inurba_marseille","lat":43.31393,"lon":5.36666,"is_reserved":false,"is_disabled":false,"rental_uris":{"android":"levelo://app?vid=2f52d163-dd56-4334-be9f-8d6905835b03","ios":"levelo://app?vid=2f52d163-dd56-4334-be9f-8d6905835b03"},"vehicle_type_id":"4","last_reported":1744967432,"current_range_meters":9600,"station_id":"","pricing_plan_id":"cebpf4jnsgd1na2vs0mg"},{"bike_id":"8033c8a6-9666-4125-9e17-3e7eaf5cf07f","system_id":"levelo_inurba_marseille","lat":43.2558,"lon":5.38241,"is_reserved":false,"is_disabled":false,"rental_uris":{"android":"levelo://app?vid=8033c8a6-9666-4125-9e17-3e7eaf5cf07f","ios":"levelo://app?vid=8033c8a6-9666-4125-9e17-3e7eaf5cf07f"},"vehicle_type_id":"4","last_reported":1744967432,"current_range_meters":9600,"station_id":"ce4bhih2rcd13ifvqfs0","pricing_plan_id":"cebpf4jnsgd1na2vs0mg"},{"bike_id":"c6525b00-a980-408d-a69e-4561d1c1c9eb","system_id":"levelo_inurba_marseille","lat":43.28153,"lon":5.42646,"is_reserved":false,"is_disabled":false,"rental_uris":{"android":"levelo://app?vid=c6525b00-a980-408d-a69e-4561d1c1c9eb","ios":"levelo://app?vid=c6525b00-a980-408d-a69e-4561d1c1c9eb"},"vehicle_type_id":"4","last_reported":1744967432,"current_range_meters":9600,"station_id":"ce4bhnh2rcd13ifvqgug","pricing_plan_id":"cebpf4jnsgd1na2vs0mg"},{"bike_id":"ec8c9ac7-1e95-4171-97f3-226ce1e3c951","system_id":"levelo_inurba_marseille","lat":43.32109,"lon":5.36777,"is_reserved":false,"is_disabled":false,"rental_uris":{"android":"levelo://app?vid=ec8c9ac7-1e95-4171-97f3-226ce1e3c951","ios":"levelo://app?vid=ec8c9ac7-1e95-4171-97f3-226ce1e3c951"},"vehicle_type_id":"4","last_reported":1744967432,"current_range_meters":10000,"station_id":"ce4bhrh2rcd13ifvqhug","pricing_plan_id":"cebpf4jnsgd1na2vs0mg"},{"bike_id":"35f0c2b6-9a06-495e-8706-de8e51ba7f42","system_id":"levelo_inurba_marseille","lat":43.31237,"lon":5.36898,"is_reserved":false,"is_disabled":true,"rental_uris":{"android":"levelo://app?vid=35f0c2b6-9a06-495e-8706-de8e51ba7f42","ios":"levelo://app?vid=35f0c2b6-9a06-495e-8706-de8e51ba7f42"},"vehicle_type_id":"4","last_reported":1744967432,"current_range_meters":10000,"station_id":"ce4bgl92rcd13ifvqbq0","pricing_plan_id":"cebpf4jnsgd1na2vs0mg"},{"bike_id":"70b6b133-6705-4dfd-b4a7-6e88067904e8","system_id":"levelo_inurba_marseille","lat":43.24181,"lon":5.36469,"is_reserved":false,"is_disabled":false,"rental_uris":{"android":"levelo://app?vid=70b6b133-6705-4dfd-b4a7-6e88067904e8","ios":"levelo://app?vid=70b6b133-6705-4dfd-b4a7-6e88067904e8"},"vehicle_type_id":"4","last_reported":1744967432,"current_range_meters":10000,"station_id":"cpo36qri1sfpv3e86is0","pricing_plan_id":"cebpf4jnsgd1na2vs0mg"},{"bike_id":"f85d96c5-43aa-42d3-a992-c2e785d61e81","system_id":"levelo_inurba_marseille","lat":43.2672,"lon":5.38271,"is_reserved":false,"is_disabled":false,"rental_uris":{"android":"levelo://app?vid=f85d96c5-43aa-42d3-a992-c2e785d61e81","ios":"levelo://app?vid=f85d96c5-43aa-42d3-a992-c2e785d61e81"},"vehicle_type_id":"4","last_reported":1744967432,"current_range_meters":10000,"station_id":"ce4bhg92rcd13ifvqf90","pricing_plan_id":"cebpf4jnsgd1na2vs0mg"},{"bike_id":"d7e9d8be-e49c-45a8-80f8-1f65bfb83645","system_id":"levelo_inurba_marseille","lat":43.23596,"lon":5.40335,"is_reserved":false,"is_disabled":false,"rental_uris":{"android":"levelo://app?vid=d7e9d8be-e49c-45a8-80f8-1f65bfb83645","ios":"levelo://app?vid=d7e9d8be-e49c-45a8-80f8-1f65bfb83645"},"vehicle_type_id":"4","last_reported":1744967432,"current_range_meters":10000,"station_id":"","pricing_plan_id":"cebpf4jnsgd1na2vs0mg"},{"bike_id":"e14c265e-eca3-4791-a3e7-f534121ae166","system_id":"levelo_inurba_marseille","lat":43.229395,"lon":5.353788,"is_reserved":false,"is_disabled":true,"rental_uris":{"android":"levelo://app?vid=e14c265e-eca3-4791-a3e7-f534121ae166","ios":"levelo://app?vid=e14c265e-eca3-4791-a3e7-f534121ae166"},"vehicle_type_id":"4","last_reported":1744967432,"current_range_meters":10800,"station_id":"cpo3532slgdg3j2ikp40","pricing_plan_id":"cebpf4jnsgd1na2vs0mg"},{"bike_id":"5fddd535-ab4d-402f-9080-0ad0b96c0735","system_id":"levelo_inurba_marseille","lat":43.30955,"lon":5.36737,"is_reserved":false,"is_disabled":false,"rental_uris":{"android":"levelo://app?vid=5fddd535-ab4d-402f-9080-0ad0b96c0735","ios":"levelo://app?vid=5fddd535-ab4d-402f-9080-0ad0b96c0735"},"vehicle_type_id":"4","last_reported":1744967432,"current_range_meters":10800,"station_id":"","pricing_plan_id":"cebpf4jnsgd1na2vs0mg"},{"bike_id":"5e08de35-3e0c-4d5f-b69b-a662212c4dac","system_id":"levelo_inurba_marseille","lat":43.24179,"lon":5.3974,"is_reserved":false,"is_disabled":false,"rental_uris":{"android":"levelo://app?vid=5e08de35-3e0c-4d5f-b69b-a662212c4dac","ios":"levelo://app?vid=5e08de35-3e0c-4d5f-b69b-a662212c4dac"},"vehicle_type_id":"4","last_reported":1744967432,"current_range_meters":10800,"station_id":"ce4bhn12rcd13ifvqgpg","pricing_plan_id":"cebpf4jnsgd1na2vs0mg"},{"bike_id":"312d1188-64c1-4680-9826-1329a80d177c","system_id":"levelo_inurba_marseille","lat":43.24996,"lon":5.38933,"is_reserved":false,"is_disabled":false,"rental_uris":{"android":"levelo://app?vid=312d1188-64c1-4680-9826-1329a80d177c","ios":"levelo://app?vid=312d1188-64c1-4680-9826-1329a80d177c"},"vehicle_type_id":"4","last_reported":1744967432,"current_range_meters":10800,"station_id":"ce4bhgp2rcd13ifvqfd0","pricing_plan_id":"cebpf4jnsgd1na2vs0mg"},{"bike_id":"cdd048ff-d73e-4946-9893-e1f15f2e3dc8","system_id":"levelo_inurba_marseille","lat":43.297089,"lon":5.365809,"is_reserved":false,"is_disabled":false,"rental_uris":{"android":"levelo://app?vid=cdd048ff-d73e-4946-9893-e1f15f2e3dc8","ios":"levelo://app?vid=cdd048ff-d73e-4946-9893-e1f15f2e3dc8"},"vehicle_type_id":"4","last_reported":1744967432,"current_range_meters":10000,"station_id":"ce4bgn12rcd13ifvqbt0","pricing_plan_id":"cebpf4jnsgd1na2vs0mg"},{"bike_id":"03650c45-0174-4b91-8587-2d45b43f952f","system_id":"levelo_inurba_marseille","lat":43.23964,"lon":5.36635,"is_reserved":false,"is_disabled":false,"rental_uris":{"android":"levelo://app?vid=03650c45-0174-4b91-8587-2d45b43f952f","ios":"levelo://app?vid=03650c45-0174-4b91-8587-2d45b43f952f"},"vehicle_type_id":"4","last_reported":1744967432,"current_range_meters":11200,"station_id":"ce4bhi12rcd13ifvqfp0","pricing_plan_id":"cebpf4jnsgd1na2vs0mg"},{"bike_id":"d03355fa-c7f9-4104-958e-81d7994c7f64","system_id":"levelo_inurba_marseille","lat":43.28137,"lon":5.42659,"is_reserved":false,"is_disabled":false,"rental_uris":{"android":"levelo://app?vid=d03355fa-c7f9-4104-958e-81d7994c7f64","ios":"levelo://app?vid=d03355fa-c7f9-4104-958e-81d7994c7f64"},"vehicle_type_id":"4","last_reported":1744967432,"current_range_meters":10800,"station_id":"ce4bhnh2rcd13ifvqgug","pricing_plan_id":"cebpf4jnsgd1na2vs0mg"},{"bike_id":"1e954ebd-6f87-4cd4-8c0c-e1f08423f7c4","system_id":"levelo_inurba_marseille","lat":43.29935,"lon":5.36522,"is_reserved":false,"is_disabled":false,"rental_uris":{"android":"levelo://app?vid=1e954ebd-6f87-4cd4-8c0c-e1f08423f7c4","ios":"levelo://app?vid=1e954ebd-6f87-4cd4-8c0c-e1f08423f7c4"},"vehicle_type_id":"4","last_reported":1744967432,"current_range_meters":11200,"station_id":"ce4bgm92rcd13ifvqbr0","pricing_plan_id":"cebpf4jnsgd1na2vs0mg"},{"bike_id":"1210dc72-37b8-49f7-b249-6faa54daba28","system_id":"levelo_inurba_marseille","lat":43.32358,"lon":5.36702,"is_reserved":false,"is_disabled":false,"rental_uris":{"android":"levelo://app?vid=1210dc72-37b8-49f7-b249-6faa54daba28","ios":"levelo://app?vid=1210dc72-37b8-49f7-b249-6faa54daba28"},"vehicle_type_id":"4","last_reported":1744967432,"current_range_meters":11200,"station_id":"","pricing_plan_id":"cebpf4jnsgd1na2vs0mg"},{"bike_id":"3d6ad01f-e233-4ed4-bd4b-9dd88ce78cb3","system_id":"levelo_inurba_marseille","lat":43.31356,"lon":5.36692,"is_reserved":false,"is_disabled":false,"rental_uris":{"android":"levelo://app?vid=3d6ad01f-e233-4ed4-bd4b-9dd88ce78cb3","ios":"levelo://app?vid=3d6ad01f-e233-4ed4-bd4b-9dd88ce78cb3"},"vehicle_type_id":"4","last_reported":1744967432,"current_range_meters":11200,"station_id":"ce4bgr92rcd13ifvqc6g","pricing_plan_id":"cebpf4jnsgd1na2vs0mg"},{"bike_id":"8c9cb089-ecfb-4b82-a678-09b0f352f9b9","system_id":"levelo_inurba_marseille","lat":43.23157,"lon":5.43707,"is_reserved":false,"is_disabled":false,"rental_uris":{"android":"levelo://app?vid=8c9cb089-ecfb-4b82-a678-09b0f352f9b9","ios":"levelo://app?vid=8c9cb089-ecfb-4b82-a678-09b0f352f9b9"},"vehicle_type_id":"4","last_reported":1744967432,"current_range_meters":11200,"station_id":"ce4bhmp2rcd13ifvqgog","pricing_plan_id":"cebpf4jnsgd1na2vs0mg"},{"bike_id":"5bbd2d52-d7ee-4e1b-97d2-bcf5e846b1d7","system_id":"levelo_inurba_marseille","lat":43.29002,"lon":5.35616,"is_reserved":false,"is_disabled":false,"rental_uris":{"android":"levelo://app?vid=5bbd2d52-d7ee-4e1b-97d2-bcf5e846b1d7","ios":"levelo://app?vid=5bbd2d52-d7ee-4e1b-97d2-bcf5e846b1d7"},"vehicle_type_id":"4","last_reported":1744967432,"current_range_meters":11600,"station_id":"ce4bhb92rcd13ifvqen0","pricing_plan_id":"cebpf4jnsgd1na2vs0mg"},{"bike_id":"0fb1a105-b046-4c66-baab-c2dec6ff86a2","system_id":"levelo_inurba_marseille","lat":43.28606,"lon":5.37062,"is_reserved":false,"is_disabled":false,"rental_uris":{"android":"levelo://app?vid=0fb1a105-b046-4c66-baab-c2dec6ff86a2","ios":"levelo://app?vid=0fb1a105-b046-4c66-baab-c2dec6ff86a2"},"vehicle_type_id":"4","last_reported":1744967432,"current_range_meters":11600,"station_id":"ce4bht12rcd13ifvqi60","pricing_plan_id":"cebpf4jnsgd1na2vs0mg"},{"bike_id":"f720e68a-58c8-440f-bcbc-822e9ccaaecb","system_id":"levelo_inurba_marseille","lat":43.29924,"lon":5.36492,"is_reserved":false,"is_disabled":false,"rental_uris":{"android":"levelo://app?vid=f720e68a-58c8-440f-bcbc-822e9ccaaecb","ios":"levelo://app?vid=f720e68a-58c8-440f-bcbc-822e9ccaaecb"},"vehicle_type_id":"4","last_reported":1744967432,"current_range_meters":11600,"station_id":"","pricing_plan_id":"cebpf4jnsgd1na2vs0mg"},{"bike_id":"6f4197c6-b568-4aaf-8ec8-5bdf83b87701","system_id":"levelo_inurba_marseille","lat":43.29716,"lon":5.37688,"is_reserved":false,"is_disabled":false,"rental_uris":{"android":"levelo://app?vid=6f4197c6-b568-4aaf-8ec8-5bdf83b87701","ios":"levelo://app?vid=6f4197c6-b568-4aaf-8ec8-5bdf83b87701"},"vehicle_type_id":"4","last_reported":1744967432,"current_range_meters":11600,"station_id":"ce4bgkh2rcd13ifvqbl0","pricing_plan_id":"cebpf4jnsgd1na2vs0mg"},{"bike_id":"851c61e0-397f-4923-bdc4-79d184b53e8a","system_id":"levelo_inurba_marseille","lat":43.286994,"lon":5.379429,"is_reserved":false,"is_disabled":false,"rental_uris":{"android":"levelo://app?vid=851c61e0-397f-4923-bdc4-79d184b53e8a","ios":"levelo://app?vid=851c61e0-397f-4923-bdc4-79d184b53e8a"},"vehicle_type_id":"4","last_reported":1744967432,"current_range_meters":12000,"station_id":"ce4bh9p2rcd13ifvqec0","pricing_plan_id":"cebpf4jnsgd1na2vs0mg"},{"bike_id":"80e897ed-764d-4553-8a10-27cd3972481d","system_id":"levelo_inurba_marseille","lat":43.30965,"lon":5.39039,"is_reserved":false,"is_disabled":true,"rental_uris":{"android":"levelo://app?vid=80e897ed-764d-4553-8a10-27cd3972481d","ios":"levelo://app?vid=80e897ed-764d-4553-8a10-27cd3972481d"},"vehicle_type_id":"4","last_reported":1744967432,"current_range_meters":12000,"station_id":"ce4bgup2rcd13ifvqco0","pricing_plan_id":"cebpf4jnsgd1na2vs0mg"},{"bike_id":"ba9786bb-1cac-4b75-83c5-e113aaf2f7c3","system_id":"levelo_inurba_marseille","lat":43.31358,"lon":5.36712,"is_reserved":false,"is_disabled":false,"rental_uris":{"android":"levelo://app?vid=ba9786bb-1cac-4b75-83c5-e113aaf2f7c3","ios":"levelo://app?vid=ba9786bb-1cac-4b75-83c5-e113aaf2f7c3"},"vehicle_type_id":"4","last_reported":1744967432,"current_range_meters":12000,"station_id":"ce4bgr92rcd13ifvqc6g","pricing_plan_id":"cebpf4jnsgd1na2vs0mg"},{"bike_id":"e66d6e70-8d4e-4f97-896a-4833bac5378b","system_id":"levelo_inurba_marseille","lat":43.258326,"lon":5.394366,"is_reserved":false,"is_disabled":false,"rental_uris":{"android":"levelo://app?vid=e66d6e70-8d4e-4f97-896a-4833bac5378b","ios":"levelo://app?vid=e66d6e70-8d4e-4f97-896a-4833bac5378b"},"vehicle_type_id":"4","last_reported":1744967432,"current_range_meters":12000,"station_id":"ce4bhh92rcd13ifvqfj0","pricing_plan_id":"cebpf4jnsgd1na2vs0mg"},{"bike_id":"7b78b99c-eca5-488a-a1ac-be39ba2c69c9","system_id":"levelo_inurba_marseille","lat":43.30541,"lon":5.38428,"is_reserved":false,"is_disabled":false,"rental_uris":{"android":"levelo://app?vid=7b78b99c-eca5-488a-a1ac-be39ba2c69c9","ios":"levelo://app?vid=7b78b99c-eca5-488a-a1ac-be39ba2c69c9"},"vehicle_type_id":"4","last_reported":1744967432,"current_range_meters":12000,"station_id":"ce4bgg92rcd13ifvqb30","pricing_plan_id":"cebpf4jnsgd1na2vs0mg"},{"bike_id":"7ed91d22-3d5b-4254-83bf-64eb2a7d5481","system_id":"levelo_inurba_marseille","lat":43.22507,"lon":5.34779,"is_reserved":false,"is_disabled":false,"rental_uris":{"android":"levelo://app?vid=7ed91d22-3d5b-4254-83bf-64eb2a7d5481","ios":"levelo://app?vid=7ed91d22-3d5b-4254-83bf-64eb2a7d5481"},"vehicle_type_id":"4","last_reported":1744967432,"current_range_meters":12000,"station_id":"","pricing_plan_id":"cebpf4jnsgd1na2vs0mg"},{"bike_id":"2e59fbb5-ef08-4013-a503-420a4fc4a8b0","system_id":"levelo_inurba_marseille","lat":43.27426,"lon":5.3942,"is_reserved":false,"is_disabled":false,"rental_uris":{"android":"levelo://app?vid=2e59fbb5-ef08-4013-a503-420a4fc4a8b0","ios":"levelo://app?vid=2e59fbb5-ef08-4013-a503-420a4fc4a8b0"},"vehicle_type_id":"4","last_reported":1744967432,"current_range_meters":12000,"station_id":"ce4bhdp2rcd13ifvqf20","pricing_plan_id":"cebpf4jnsgd1na2vs0mg"},{"bike_id":"ba85b500-921e-4a4c-bfa1-a0b8af268f72","system_id":"levelo_inurba_marseille","lat":43.25107,"lon":5.40322,"is_reserved":false,"is_disabled":false,"rental_uris":{"android":"levelo://app?vid=ba85b500-921e-4a4c-bfa1-a0b8af268f72","ios":"levelo://app?vid=ba85b500-921e-4a4c-bfa1-a0b8af268f72"},"vehicle_type_id":"4","last_reported":1744967432,"current_range_meters":11600,"station_id":"ce4bhlh2rcd13ifvqgig","pricing_plan_id":"cebpf4jnsgd1na2vs0mg"},{"bike_id":"7ac2d338-3082-4dcd-bd51-590e0a489ac9","system_id":"levelo_inurba_marseille","lat":43.25117,"lon":5.40317,"is_reserved":false,"is_disabled":false,"rental_uris":{"android":"levelo://app?vid=7ac2d338-3082-4dcd-bd51-590e0a489ac9","ios":"levelo://app?vid=7ac2d338-3082-4dcd-bd51-590e0a489ac9"},"vehicle_type_id":"4","last_reported":1744967432,"current_range_meters":12000,"station_id":"ce4bhlh2rcd13ifvqgig","pricing_plan_id":"cebpf4jnsgd1na2vs0mg"},{"bike_id":"9ccc1250-0ff6-4acc-bd2f-67431ef76582","system_id":"levelo_inurba_marseille","lat":43.284151,"lon":5.349858,"is_reserved":false,"is_disabled":false,"rental_uris":{"android":"levelo://app?vid=9ccc1250-0ff6-4acc-bd2f-67431ef76582","ios":"levelo://app?vid=9ccc1250-0ff6-4acc-bd2f-67431ef76582"},"vehicle_type_id":"4","last_reported":1744967432,"current_range_meters":12400,"station_id":"ce4bhbh2rcd13ifvqepg","pricing_plan_id":"cebpf4jnsgd1na2vs0mg"},{"bike_id":"5c22bf2e-516f-4b37-a884-d04838810cf5","system_id":"levelo_inurba_marseille","lat":43.26208,"lon":5.37949,"is_reserved":false,"is_disabled":false,"rental_uris":{"android":"levelo://app?vid=5c22bf2e-516f-4b37-a884-d04838810cf5","ios":"levelo://app?vid=5c22bf2e-516f-4b37-a884-d04838810cf5"},"vehicle_type_id":"4","last_reported":1744967432,"current_range_meters":12400,"station_id":"ce4bhlp2rcd13ifvqgjg","pricing_plan_id":"cebpf4jnsgd1na2vs0mg"},{"bike_id":"64a47f4a-f4e2-4e1b-949e-3e6cf7bc5e72","system_id":"levelo_inurba_marseille","lat":43.27203,"lon":5.40986,"is_reserved":false,"is_disabled":false,"rental_uris":{"android":"levelo://app?vid=64a47f4a-f4e2-4e1b-949e-3e6cf7bc5e72","ios":"levelo://app?vid=64a47f4a-f4e2-4e1b-949e-3e6cf7bc5e72"},"vehicle_type_id":"4","last_reported":1744967432,"current_range_meters":12800,"station_id":"ce4bhl12rcd13ifvqgf0","pricing_plan_id":"cebpf4jnsgd1na2vs0mg"},{"bike_id":"1eaca8f5-0017-418a-9bfc-52185bf67513","system_id":"levelo_inurba_marseille","lat":43.33725,"lon":5.39192,"is_reserved":false,"is_disabled":false,"rental_uris":{"android":"levelo://app?vid=1eaca8f5-0017-418a-9bfc-52185bf67513","ios":"levelo://app?vid=1eaca8f5-0017-418a-9bfc-52185bf67513"},"vehicle_type_id":"4","last_reported":1744967432,"current_range_meters":13600,"station_id":"ce4bhr92rcd13ifvqhsg","pricing_plan_id":"cebpf4jnsgd1na2vs0mg"},{"bike_id":"186d8a38-4769-4a0e-a71e-ddb8e0f7cfdd","system_id":"levelo_inurba_marseille","lat":43.29197,"lon":5.35801,"is_reserved":false,"is_disabled":false,"rental_uris":{"android":"levelo://app?vid=186d8a38-4769-4a0e-a71e-ddb8e0f7cfdd","ios":"levelo://app?vid=186d8a38-4769-4a0e-a71e-ddb8e0f7cfdd"},"vehicle_type_id":"4","last_reported":1744967432,"current_range_meters":13600,"station_id":"ce4bhb12rcd13ifvqel0","pricing_plan_id":"cebpf4jnsgd1na2vs0mg"},{"bike_id":"0347ecdc-bb39-463f-aa80-0d4af532e022","system_id":"levelo_inurba_marseille","lat":43.29274,"lon":5.36841,"is_reserved":false,"is_disabled":false,"rental_uris":{"android":"levelo://app?vid=0347ecdc-bb39-463f-aa80-0d4af532e022","ios":"levelo://app?vid=0347ecdc-bb39-463f-aa80-0d4af532e022"},"vehicle_type_id":"4","last_reported":1744967432,"current_range_meters":13600,"station_id":"ce4bhbp2rcd13ifvqesg","pricing_plan_id":"cebpf4jnsgd1na2vs0mg"},{"bike_id":"fdb736b6-d23f-4fa0-8b91-7424bf67be26","system_id":"levelo_inurba_marseille","lat":43.341378,"lon":5.409283,"is_reserved":false,"is_disabled":false,"rental_uris":{"android":"levelo://app?vid=fdb736b6-d23f-4fa0-8b91-7424bf67be26","ios":"levelo://app?vid=fdb736b6-d23f-4fa0-8b91-7424bf67be26"},"vehicle_type_id":"4","last_reported":1744967432,"current_range_meters":13600,"station_id":"ce4bhqh2rcd13ifvqhlg","pricing_plan_id":"cebpf4jnsgd1na2vs0mg"},{"bike_id":"9fe6b68c-b08e-4d81-8c7d-760938ace4d6","system_id":"levelo_inurba_marseille","lat":43.29222,"lon":5.36066,"is_reserved":false,"is_disabled":false,"rental_uris":{"android":"levelo://app?vid=9fe6b68c-b08e-4d81-8c7d-760938ace4d6","ios":"levelo://app?vid=9fe6b68c-b08e-4d81-8c7d-760938ace4d6"},"vehicle_type_id":"4","last_reported":1744967432,"current_range_meters":14000,"station_id":"ce4bhbh2rcd13ifvqeqg","pricing_plan_id":"cebpf4jnsgd1na2vs0mg"},{"bike_id":"bbb1c662-cc65-4c72-8489-de78d2f0f12f","system_id":"levelo_inurba_marseille","lat":43.23058,"lon":5.35492,"is_reserved":false,"is_disabled":false,"rental_uris":{"android":"levelo://app?vid=bbb1c662-cc65-4c72-8489-de78d2f0f12f","ios":"levelo://app?vid=bbb1c662-cc65-4c72-8489-de78d2f0f12f"},"vehicle_type_id":"4","last_reported":1744967432,"current_range_meters":14000,"station_id":"cpo3342slgdg3j2ifvpg","pricing_plan_id":"cebpf4jnsgd1na2vs0mg"},{"bike_id":"007ee9c7-c769-4de9-a218-517ff098b9cd","system_id":"levelo_inurba_marseille","lat":43.314505,"lon":5.373787,"is_reserved":false,"is_disabled":false,"rental_uris":{"android":"levelo://app?vid=007ee9c7-c769-4de9-a218-517ff098b9cd","ios":"levelo://app?vid=007ee9c7-c769-4de9-a218-517ff098b9cd"},"vehicle_type_id":"4","last_reported":1744967432,"current_range_meters":14000,"station_id":"","pricing_plan_id":"cebpf4jnsgd1na2vs0mg"},{"bike_id":"0412a1ca-4def-4ac7-bfaa-effc8cbb5510","system_id":"levelo_inurba_marseille","lat":43.22926,"lon":5.3537,"is_reserved":false,"is_disabled":false,"rental_uris":{"android":"levelo://app?vid=0412a1ca-4def-4ac7-bfaa-effc8cbb5510","ios":"levelo://app?vid=0412a1ca-4def-4ac7-bfaa-effc8cbb5510"},"vehicle_type_id":"4","last_reported":1744967432,"current_range_meters":14000,"station_id":"cpo3532slgdg3j2ikp40","pricing_plan_id":"cebpf4jnsgd1na2vs0mg"},{"bike_id":"95d975d7-8b02-49ed-98b8-71ea37818776","system_id":"levelo_inurba_marseille","lat":43.31223,"lon":5.41722,"is_reserved":false,"is_disabled":false,"rental_uris":{"android":"levelo://app?vid=95d975d7-8b02-49ed-98b8-71ea37818776","ios":"levelo://app?vid=95d975d7-8b02-49ed-98b8-71ea37818776"},"vehicle_type_id":"4","last_reported":1744967432,"current_range_meters":14000,"station_id":"","pricing_plan_id":"cebpf4jnsgd1na2vs0mg"},{"bike_id":"934a8fc0-98f8-4aaf-a145-d485dee937c7","system_id":"levelo_inurba_marseille","lat":43.32373,"lon":5.36774,"is_reserved":false,"is_disabled":false,"rental_uris":{"android":"levelo://app?vid=934a8fc0-98f8-4aaf-a145-d485dee937c7","ios":"levelo://app?vid=934a8fc0-98f8-4aaf-a145-d485dee937c7"},"vehicle_type_id":"4","last_reported":1744967432,"current_range_meters":14000,"station_id":"ce4bhsh2rcd13ifvqi2g","pricing_plan_id":"cebpf4jnsgd1na2vs0mg"},{"bike_id":"a0ddb0a5-f7f0-4281-aa27-9e82747cc573","system_id":"levelo_inurba_marseille","lat":43.33754,"lon":5.37491,"is_reserved":false,"is_disabled":false,"rental_uris":{"android":"levelo://app?vid=a0ddb0a5-f7f0-4281-aa27-9e82747cc573","ios":"levelo://app?vid=a0ddb0a5-f7f0-4281-aa27-9e82747cc573"},"vehicle_type_id":"4","last_reported":1744967432,"current_range_meters":14000,"station_id":"","pricing_plan_id":"cebpf4jnsgd1na2vs0mg"},{"bike_id":"135f0758-d03d-42f1-a2d6-49e93dc7a634","system_id":"levelo_inurba_marseille","lat":43.29848,"lon":5.36283,"is_reserved":false,"is_disabled":false,"rental_uris":{"android":"levelo://app?vid=135f0758-d03d-42f1-a2d6-49e93dc7a634","ios":"levelo://app?vid=135f0758-d03d-42f1-a2d6-49e93dc7a634"},"vehicle_type_id":"4","last_reported":1744967432,"current_range_meters":14000,"station_id":"ce4bgpp2rcd13ifvqc3g","pricing_plan_id":"cebpf4jnsgd1na2vs0mg"},{"bike_id":"bd492354-2d79-4427-82ee-84e4a12dea30","system_id":"levelo_inurba_marseille","lat":43.212,"lon":5.35072,"is_reserved":false,"is_disabled":false,"rental_uris":{"android":"levelo://app?vid=bd492354-2d79-4427-82ee-84e4a12dea30","ios":"levelo://app?vid=bd492354-2d79-4427-82ee-84e4a12dea30"},"vehicle_type_id":"4","last_reported":1744967432,"current_range_meters":14400,"station_id":"st_cvj6sg6p6f1abm77japg","pricing_plan_id":"cebpf4jnsgd1na2vs0mg"},{"bike_id":"a0867a44-b656-4aae-826c-434ff2cb3e2b","system_id":"levelo_inurba_marseille","lat":43.27978,"lon":5.38746,"is_reserved":false,"is_disabled":false,"rental_uris":{"android":"levelo://app?vid=a0867a44-b656-4aae-826c-434ff2cb3e2b","ios":"levelo://app?vid=a0867a44-b656-4aae-826c-434ff2cb3e2b"},"vehicle_type_id":"4","last_reported":1744967432,"current_range_meters":14000,"station_id":"ce4bhg12rcd13ifvqf80","pricing_plan_id":"cebpf4jnsgd1na2vs0mg"},{"bike_id":"b2e0978d-ed45-4d30-a659-0713196ea711","system_id":"levelo_inurba_marseille","lat":43.29978,"lon":5.38478,"is_reserved":false,"is_disabled":false,"rental_uris":{"android":"levelo://app?vid=b2e0978d-ed45-4d30-a659-0713196ea711","ios":"levelo://app?vid=b2e0978d-ed45-4d30-a659-0713196ea711"},"vehicle_type_id":"4","last_reported":1744967432,"current_range_meters":14800,"station_id":"ce4bgj92rcd13ifvqbd0","pricing_plan_id":"cebpf4jnsgd1na2vs0mg"},{"bike_id":"7552f8cd-55e3-4846-8b01-d41c40d98dea","system_id":"levelo_inurba_marseille","lat":43.29198,"lon":5.39332,"is_reserved":false,"is_disabled":false,"rental_uris":{"android":"levelo://app?vid=7552f8cd-55e3-4846-8b01-d41c40d98dea","ios":"levelo://app?vid=7552f8cd-55e3-4846-8b01-d41c40d98dea"},"vehicle_type_id":"4","last_reported":1744967432,"current_range_meters":14800,"station_id":"ce4bh192rcd13ifvqdd0","pricing_plan_id":"cebpf4jnsgd1na2vs0mg"},{"bike_id":"87dfde22-0946-4fff-8481-b20f78b7b350","system_id":"levelo_inurba_marseille","lat":43.31238,"lon":5.36874,"is_reserved":false,"is_disabled":false,"rental_uris":{"android":"levelo://app?vid=87dfde22-0946-4fff-8481-b20f78b7b350","ios":"levelo://app?vid=87dfde22-0946-4fff-8481-b20f78b7b350"},"vehicle_type_id":"4","last_reported":1744967432,"current_range_meters":14800,"station_id":"ce4bgl92rcd13ifvqbq0","pricing_plan_id":"cebpf4jnsgd1na2vs0mg"},{"bike_id":"a5576019-43e7-4c3f-9b3f-bda5c803876a","system_id":"levelo_inurba_marseille","lat":43.2418,"lon":5.39723,"is_reserved":false,"is_disabled":false,"rental_uris":{"android":"levelo://app?vid=a5576019-43e7-4c3f-9b3f-bda5c803876a","ios":"levelo://app?vid=a5576019-43e7-4c3f-9b3f-bda5c803876a"},"vehicle_type_id":"4","last_reported":1744967432,"current_range_meters":14800,"station_id":"ce4bhn12rcd13ifvqgpg","pricing_plan_id":"cebpf4jnsgd1na2vs0mg"},{"bike_id":"48229575-bb87-4106-aa7e-b66ccc2bfdc5","system_id":"levelo_inurba_marseille","lat":43.3136,"lon":5.367,"is_reserved":false,"is_disabled":false,"rental_uris":{"android":"levelo://app?vid=48229575-bb87-4106-aa7e-b66ccc2bfdc5","ios":"levelo://app?vid=48229575-bb87-4106-aa7e-b66ccc2bfdc5"},"vehicle_type_id":"4","last_reported":1744967432,"current_range_meters":14800,"station_id":"ce4bgr92rcd13ifvqc6g","pricing_plan_id":"cebpf4jnsgd1na2vs0mg"},{"bike_id":"5ea3100f-c34b-4bbd-b4ea-bf9621895fc6","system_id":"levelo_inurba_marseille","lat":43.29554,"lon":5.42292,"is_reserved":false,"is_disabled":false,"rental_uris":{"android":"levelo://app?vid=5ea3100f-c34b-4bbd-b4ea-bf9621895fc6","ios":"levelo://app?vid=5ea3100f-c34b-4bbd-b4ea-bf9621895fc6"},"vehicle_type_id":"4","last_reported":1744967432,"current_range_meters":15200,"station_id":"ce4bhph2rcd13ifvqhdg","pricing_plan_id":"cebpf4jnsgd1na2vs0mg"},{"bike_id":"ef6e9c6f-8f69-4fcf-9727-b556a001e5bc","system_id":"levelo_inurba_marseille","lat":43.2955,"lon":5.4227,"is_reserved":false,"is_disabled":false,"rental_uris":{"android":"levelo://app?vid=ef6e9c6f-8f69-4fcf-9727-b556a001e5bc","ios":"levelo://app?vid=ef6e9c6f-8f69-4fcf-9727-b556a001e5bc"},"vehicle_type_id":"4","last_reported":1744967432,"current_range_meters":15200,"station_id":"ce4bhph2rcd13ifvqhdg","pricing_plan_id":"cebpf4jnsgd1na2vs0mg"},{"bike_id":"33efbe4e-e642-4271-be29-4926b421ca5b","system_id":"levelo_inurba_marseille","lat":43.24159,"lon":5.36441,"is_reserved":false,"is_disabled":false,"rental_uris":{"android":"levelo://app?vid=33efbe4e-e642-4271-be29-4926b421ca5b","ios":"levelo://app?vid=33efbe4e-e642-4271-be29-4926b421ca5b"},"vehicle_type_id":"4","last_reported":1744967432,"current_range_meters":15200,"station_id":"cpo36qri1sfpv3e86is0","pricing_plan_id":"cebpf4jnsgd1na2vs0mg"},{"bike_id":"68342d9f-f0b6-47e7-b690-b27078e67a77","system_id":"levelo_inurba_marseille","lat":43.24156,"lon":5.36408,"is_reserved":false,"is_disabled":false,"rental_uris":{"android":"levelo://app?vid=68342d9f-f0b6-47e7-b690-b27078e67a77","ios":"levelo://app?vid=68342d9f-f0b6-47e7-b690-b27078e67a77"},"vehicle_type_id":"4","last_reported":1744967432,"current_range_meters":16000,"station_id":"cpo36qri1sfpv3e86is0","pricing_plan_id":"cebpf4jnsgd1na2vs0mg"},{"bike_id":"b2b8f4a4-015d-4be7-a11c-467aeb189a37","system_id":"levelo_inurba_marseille","lat":43.32273,"lon":5.3827,"is_reserved":false,"is_disabled":false,"rental_uris":{"android":"levelo://app?vid=b2b8f4a4-015d-4be7-a11c-467aeb189a37","ios":"levelo://app?vid=b2b8f4a4-015d-4be7-a11c-467aeb189a37"},"vehicle_type_id":"4","last_reported":1744967432,"current_range_meters":16000,"station_id":"ce4bhr12rcd13ifvqhqg","pricing_plan_id":"cebpf4jnsgd1na2vs0mg"},{"bike_id":"ae6f6bc3-b076-4713-869e-a7f6201bc7ea","system_id":"levelo_inurba_marseille","lat":43.24809,"lon":5.37462,"is_reserved":false,"is_disabled":false,"rental_uris":{"android":"levelo://app?vid=ae6f6bc3-b076-4713-869e-a7f6201bc7ea","ios":"levelo://app?vid=ae6f6bc3-b076-4713-869e-a7f6201bc7ea"},"vehicle_type_id":"4","last_reported":1744967432,"current_range_meters":16000,"station_id":"ce4bhgh2rcd13ifvqfb0","pricing_plan_id":"cebpf4jnsgd1na2vs0mg"},{"bike_id":"3d8c248e-bb6e-4b01-81fc-fc98a296095f","system_id":"levelo_inurba_marseille","lat":43.26216,"lon":5.37526,"is_reserved":false,"is_disabled":false,"rental_uris":{"android":"levelo://app?vid=3d8c248e-bb6e-4b01-81fc-fc98a296095f","ios":"levelo://app?vid=3d8c248e-bb6e-4b01-81fc-fc98a296095f"},"vehicle_type_id":"4","last_reported":1744967432,"current_range_meters":16000,"station_id":"ce4bhgp2rcd13ifvqfc0","pricing_plan_id":"cebpf4jnsgd1na2vs0mg"},{"bike_id":"a1183122-2c11-405c-8c55-e035bd8761a2","system_id":"levelo_inurba_marseille","lat":43.27377,"lon":5.36256,"is_reserved":false,"is_disabled":false,"rental_uris":{"android":"levelo://app?vid=a1183122-2c11-405c-8c55-e035bd8761a2","ios":"levelo://app?vid=a1183122-2c11-405c-8c55-e035bd8761a2"},"vehicle_type_id":"4","last_reported":1744967432,"current_range_meters":16000,"station_id":"ce4bhbh2rcd13ifvqeo0","pricing_plan_id":"cebpf4jnsgd1na2vs0mg"},{"bike_id":"4a53cae3-8265-4d80-8007-a23e33453319","system_id":"levelo_inurba_marseille","lat":43.30961,"lon":5.39051,"is_reserved":false,"is_disabled":false,"rental_uris":{"android":"levelo://app?vid=4a53cae3-8265-4d80-8007-a23e33453319","ios":"levelo://app?vid=4a53cae3-8265-4d80-8007-a23e33453319"},"vehicle_type_id":"4","last_reported":1744967432,"current_range_meters":16000,"station_id":"ce4bgup2rcd13ifvqco0","pricing_plan_id":"cebpf4jnsgd1na2vs0mg"},{"bike_id":"50d4a2c6-4a96-473e-8d34-d513024f852d","system_id":"levelo_inurba_marseille","lat":43.23967,"lon":5.36635,"is_reserved":false,"is_disabled":false,"rental_uris":{"android":"levelo://app?vid=50d4a2c6-4a96-473e-8d34-d513024f852d","ios":"levelo://app?vid=50d4a2c6-4a96-473e-8d34-d513024f852d"},"vehicle_type_id":"4","last_reported":1744967432,"current_range_meters":16000,"station_id":"ce4bhi12rcd13ifvqfp0","pricing_plan_id":"cebpf4jnsgd1na2vs0mg"},{"bike_id":"7eb8853e-3665-40f5-8308-1299f0674652","system_id":"levelo_inurba_marseille","lat":43.30369,"lon":5.42479,"is_reserved":false,"is_disabled":false,"rental_uris":{"android":"levelo://app?vid=7eb8853e-3665-40f5-8308-1299f0674652","ios":"levelo://app?vid=7eb8853e-3665-40f5-8308-1299f0674652"},"vehicle_type_id":"4","last_reported":1744967432,"current_range_meters":16000,"station_id":"ce4bhoh2rcd13ifvqh6g","pricing_plan_id":"cebpf4jnsgd1na2vs0mg"},{"bike_id":"f9d3fbe6-73e5-424e-af02-f446d5b07152","system_id":"levelo_inurba_marseille","lat":43.21759,"lon":5.34606,"is_reserved":false,"is_disabled":false,"rental_uris":{"android":"levelo://app?vid=f9d3fbe6-73e5-424e-af02-f446d5b07152","ios":"levelo://app?vid=f9d3fbe6-73e5-424e-af02-f446d5b07152"},"vehicle_type_id":"4","last_reported":1744967432,"current_range_meters":16000,"station_id":"st_cvj6r9ubvosntc0bgbag","pricing_plan_id":"cebpf4jnsgd1na2vs0mg"},{"bike_id":"f9257457-af89-46ea-a09c-323ad0c42b2f","system_id":"levelo_inurba_marseille","lat":43.31364,"lon":5.36699,"is_reserved":false,"is_disabled":false,"rental_uris":{"android":"levelo://app?vid=f9257457-af89-46ea-a09c-323ad0c42b2f","ios":"levelo://app?vid=f9257457-af89-46ea-a09c-323ad0c42b2f"},"vehicle_type_id":"4","last_reported":1744967432,"current_range_meters":16000,"station_id":"ce4bgr92rcd13ifvqc6g","pricing_plan_id":"cebpf4jnsgd1na2vs0mg"},{"bike_id":"235e4b3a-29e9-45b2-aa3f-3fd62435937a","system_id":"levelo_inurba_marseille","lat":43.30478,"lon":5.37913,"is_reserved":false,"is_disabled":false,"rental_uris":{"android":"levelo://app?vid=235e4b3a-29e9-45b2-aa3f-3fd62435937a","ios":"levelo://app?vid=235e4b3a-29e9-45b2-aa3f-3fd62435937a"},"vehicle_type_id":"4","last_reported":1744967432,"current_range_meters":16400,"station_id":"ce4bgup2rcd13ifvqcn0","pricing_plan_id":"cebpf4jnsgd1na2vs0mg"},{"bike_id":"19481d9b-6a00-4a11-8cb7-677b61ea5d1e","system_id":"levelo_inurba_marseille","lat":43.28161,"lon":5.42641,"is_reserved":false,"is_disabled":false,"rental_uris":{"android":"levelo://app?vid=19481d9b-6a00-4a11-8cb7-677b61ea5d1e","ios":"levelo://app?vid=19481d9b-6a00-4a11-8cb7-677b61ea5d1e"},"vehicle_type_id":"4","last_reported":1744967432,"current_range_meters":16400,"station_id":"ce4bhnh2rcd13ifvqgug","pricing_plan_id":"cebpf4jnsgd1na2vs0mg"},{"bike_id":"d67219f9-c90b-45db-b424-a3511feb8353","system_id":"levelo_inurba_marseille","lat":43.30469,"lon":5.37908,"is_reserved":false,"is_disabled":false,"rental_uris":{"android":"levelo://app?vid=d67219f9-c90b-45db-b424-a3511feb8353","ios":"levelo://app?vid=d67219f9-c90b-45db-b424-a3511feb8353"},"vehicle_type_id":"4","last_reported":1744967432,"current_range_meters":16400,"station_id":"ce4bgup2rcd13ifvqcn0","pricing_plan_id":"cebpf4jnsgd1na2vs0mg"},{"bike_id":"38f3965c-7391-46cb-a55d-a74d728bc029","system_id":"levelo_inurba_marseille","lat":43.28279,"lon":5.35069,"is_reserved":false,"is_disabled":true,"rental_uris":{"android":"levelo://app?vid=38f3965c-7391-46cb-a55d-a74d728bc029","ios":"levelo://app?vid=38f3965c-7391-46cb-a55d-a74d728bc029"},"vehicle_type_id":"4","last_reported":1744967432,"current_range_meters":16400,"station_id":"ce4bhbp2rcd13ifvqerg","pricing_plan_id":"cebpf4jnsgd1na2vs0mg"},{"bike_id":"5fba1097-d266-4f11-ba7e-0f0b630b3da9","system_id":"levelo_inurba_marseille","lat":43.30801,"lon":5.43534,"is_reserved":false,"is_disabled":false,"rental_uris":{"android":"levelo://app?vid=5fba1097-d266-4f11-ba7e-0f0b630b3da9","ios":"levelo://app?vid=5fba1097-d266-4f11-ba7e-0f0b630b3da9"},"vehicle_type_id":"4","last_reported":1744967432,"current_range_meters":16400,"station_id":"ce4bhph2rcd13ifvqheg","pricing_plan_id":"cebpf4jnsgd1na2vs0mg"},{"bike_id":"07006dad-1eac-4c5b-8e9f-977d282a6f86","system_id":"levelo_inurba_marseille","lat":43.307348,"lon":5.424408,"is_reserved":false,"is_disabled":false,"rental_uris":{"android":"levelo://app?vid=07006dad-1eac-4c5b-8e9f-977d282a6f86","ios":"levelo://app?vid=07006dad-1eac-4c5b-8e9f-977d282a6f86"},"vehicle_type_id":"4","last_reported":1744967432,"current_range_meters":16400,"station_id":"st_cvj6ca6bvosntc0bfgr0","pricing_plan_id":"cebpf4jnsgd1na2vs0mg"},{"bike_id":"ebaff16c-8ef4-432e-84d3-3a9a9025ea40","system_id":"levelo_inurba_marseille","lat":43.336173,"lon":5.410271,"is_reserved":false,"is_disabled":false,"rental_uris":{"android":"levelo://app?vid=ebaff16c-8ef4-432e-84d3-3a9a9025ea40","ios":"levelo://app?vid=ebaff16c-8ef4-432e-84d3-3a9a9025ea40"},"vehicle_type_id":"4","last_reported":1744967432,"current_range_meters":16400,"station_id":"ce4bhqh2rcd13ifvqhmg","pricing_plan_id":"cebpf4jnsgd1na2vs0mg"},{"bike_id":"ab277574-2a7a-4f49-80a5-c8cb07868809","system_id":"levelo_inurba_marseille","lat":43.288643,"lon":5.366507,"is_reserved":false,"is_disabled":false,"rental_uris":{"android":"levelo://app?vid=ab277574-2a7a-4f49-80a5-c8cb07868809","ios":"levelo://app?vid=ab277574-2a7a-4f49-80a5-c8cb07868809"},"vehicle_type_id":"4","last_reported":1744967432,"current_range_meters":16000,"station_id":"ce4bhap2rcd13ifvqek0","pricing_plan_id":"cebpf4jnsgd1na2vs0mg"},{"bike_id":"5e6be620-a3d0-49c3-9ff0-b85332cde817","system_id":"levelo_inurba_marseille","lat":43.23199,"lon":5.35556,"is_reserved":false,"is_disabled":false,"rental_uris":{"android":"levelo://app?vid=5e6be620-a3d0-49c3-9ff0-b85332cde817","ios":"levelo://app?vid=5e6be620-a3d0-49c3-9ff0-b85332cde817"},"vehicle_type_id":"4","last_reported":1744967432,"current_range_meters":16400,"station_id":"ce4bhu92rcd13ifvqi70","pricing_plan_id":"cebpf4jnsgd1na2vs0mg"},{"bike_id":"54c18ae4-fb9e-4f9c-8e98-a792665bc160","system_id":"levelo_inurba_marseille","lat":43.32098,"lon":5.36761,"is_reserved":false,"is_disabled":false,"rental_uris":{"android":"levelo://app?vid=54c18ae4-fb9e-4f9c-8e98-a792665bc160","ios":"levelo://app?vid=54c18ae4-fb9e-4f9c-8e98-a792665bc160"},"vehicle_type_id":"4","last_reported":1744967432,"current_range_meters":16400,"station_id":"ce4bhrh2rcd13ifvqhug","pricing_plan_id":"cebpf4jnsgd1na2vs0mg"},{"bike_id":"f11c1877-2531-4187-8a4e-82f9bf9c66d8","system_id":"levelo_inurba_marseille","lat":43.2501,"lon":5.3892,"is_reserved":false,"is_disabled":false,"rental_uris":{"android":"levelo://app?vid=f11c1877-2531-4187-8a4e-82f9bf9c66d8","ios":"levelo://app?vid=f11c1877-2531-4187-8a4e-82f9bf9c66d8"},"vehicle_type_id":"4","last_reported":1744967432,"current_range_meters":16800,"station_id":"ce4bhgp2rcd13ifvqfd0","pricing_plan_id":"cebpf4jnsgd1na2vs0mg"},{"bike_id":"9f45b2bf-53d1-4e39-9a64-fb391bdbd395","system_id":"levelo_inurba_marseille","lat":43.33728,"lon":5.39186,"is_reserved":false,"is_disabled":false,"rental_uris":{"android":"levelo://app?vid=9f45b2bf-53d1-4e39-9a64-fb391bdbd395","ios":"levelo://app?vid=9f45b2bf-53d1-4e39-9a64-fb391bdbd395"},"vehicle_type_id":"4","last_reported":1744967432,"current_range_meters":16800,"station_id":"ce4bhr92rcd13ifvqhsg","pricing_plan_id":"cebpf4jnsgd1na2vs0mg"},{"bike_id":"789c3822-56ca-4769-bcd4-8845bdea2fda","system_id":"levelo_inurba_marseille","lat":43.24165,"lon":5.364,"is_reserved":false,"is_disabled":false,"rental_uris":{"android":"levelo://app?vid=789c3822-56ca-4769-bcd4-8845bdea2fda","ios":"levelo://app?vid=789c3822-56ca-4769-bcd4-8845bdea2fda"},"vehicle_type_id":"4","last_reported":1744967432,"current_range_meters":16800,"station_id":"cpo36qri1sfpv3e86is0","pricing_plan_id":"cebpf4jnsgd1na2vs0mg"},{"bike_id":"030978cd-eddc-40be-b582-b7fe69c6a341","system_id":"levelo_inurba_marseille","lat":43.30478,"lon":5.37904,"is_reserved":false,"is_disabled":false,"rental_uris":{"android":"levelo://app?vid=030978cd-eddc-40be-b582-b7fe69c6a341","ios":"levelo://app?vid=030978cd-eddc-40be-b582-b7fe69c6a341"},"vehicle_type_id":"4","last_reported":1744967432,"current_range_meters":16800,"station_id":"ce4bgup2rcd13ifvqcn0","pricing_plan_id":"cebpf4jnsgd1na2vs0mg"},{"bike_id":"3adf5b62-6a8b-461a-911e-33e770e233be","system_id":"levelo_inurba_marseille","lat":43.28612,"lon":5.37055,"is_reserved":false,"is_disabled":false,"rental_uris":{"android":"levelo://app?vid=3adf5b62-6a8b-461a-911e-33e770e233be","ios":"levelo://app?vid=3adf5b62-6a8b-461a-911e-33e770e233be"},"vehicle_type_id":"4","last_reported":1744967432,"current_range_meters":16800,"station_id":"ce4bht12rcd13ifvqi60","pricing_plan_id":"cebpf4jnsgd1na2vs0mg"},{"bike_id":"f9144f39-8fcf-4d58-8071-682bff6704f1","system_id":"levelo_inurba_marseille","lat":43.30545,"lon":5.36527,"is_reserved":false,"is_disabled":false,"rental_uris":{"android":"levelo://app?vid=f9144f39-8fcf-4d58-8071-682bff6704f1","ios":"levelo://app?vid=f9144f39-8fcf-4d58-8071-682bff6704f1"},"vehicle_type_id":"4","last_reported":1744967432,"current_range_meters":16800,"station_id":"ce4bgs12rcd13ifvqcag","pricing_plan_id":"cebpf4jnsgd1na2vs0mg"},{"bike_id":"35153b2d-d81c-4f04-a823-f8049c6c6d5c","system_id":"levelo_inurba_marseille","lat":43.29223,"lon":5.36066,"is_reserved":false,"is_disabled":false,"rental_uris":{"android":"levelo://app?vid=35153b2d-d81c-4f04-a823-f8049c6c6d5c","ios":"levelo://app?vid=35153b2d-d81c-4f04-a823-f8049c6c6d5c"},"vehicle_type_id":"4","last_reported":1744967432,"current_range_meters":17200,"station_id":"ce4bhbh2rcd13ifvqeqg","pricing_plan_id":"cebpf4jnsgd1na2vs0mg"},{"bike_id":"06c69cbf-f6a8-4497-b97f-4ec81764e0ec","system_id":"levelo_inurba_marseille","lat":43.25577,"lon":5.38241,"is_reserved":false,"is_disabled":false,"rental_uris":{"android":"levelo://app?vid=06c69cbf-f6a8-4497-b97f-4ec81764e0ec","ios":"levelo://app?vid=06c69cbf-f6a8-4497-b97f-4ec81764e0ec"},"vehicle_type_id":"4","last_reported":1744967432,"current_range_meters":17200,"station_id":"ce4bhih2rcd13ifvqfs0","pricing_plan_id":"cebpf4jnsgd1na2vs0mg"},{"bike_id":"016b5804-3630-4af5-a387-481387d4652c","system_id":"levelo_inurba_marseille","lat":43.292743,"lon":5.368403,"is_reserved":false,"is_disabled":false,"rental_uris":{"android":"levelo://app?vid=016b5804-3630-4af5-a387-481387d4652c","ios":"levelo://app?vid=016b5804-3630-4af5-a387-481387d4652c"},"vehicle_type_id":"4","last_reported":1744967432,"current_range_meters":17200,"station_id":"ce4bhbp2rcd13ifvqesg","pricing_plan_id":"cebpf4jnsgd1na2vs0mg"},{"bike_id":"b2786285-c550-4e2b-ae66-6ff3ce3b73f0","system_id":"levelo_inurba_marseille","lat":43.29628,"lon":5.37178,"is_reserved":false,"is_disabled":false,"rental_uris":{"android":"levelo://app?vid=b2786285-c550-4e2b-ae66-6ff3ce3b73f0","ios":"levelo://app?vid=b2786285-c550-4e2b-ae66-6ff3ce3b73f0"},"vehicle_type_id":"4","last_reported":1744967432,"current_range_meters":17600,"station_id":"ce4bgnh2rcd13ifvqc0g","pricing_plan_id":"cebpf4jnsgd1na2vs0mg"},{"bike_id":"36b90cff-40d2-47e2-985b-e09410752cc5","system_id":"levelo_inurba_marseille","lat":43.29887,"lon":5.43655,"is_reserved":false,"is_disabled":false,"rental_uris":{"android":"levelo://app?vid=36b90cff-40d2-47e2-985b-e09410752cc5","ios":"levelo://app?vid=36b90cff-40d2-47e2-985b-e09410752cc5"},"vehicle_type_id":"4","last_reported":1744967432,"current_range_meters":17600,"station_id":"ce4bhpp2rcd13ifvqhfg","pricing_plan_id":"cebpf4jnsgd1na2vs0mg"},{"bike_id":"efad763c-5ba9-4eee-a69c-dfbb136427d4","system_id":"levelo_inurba_marseille","lat":43.2315,"lon":5.43719,"is_reserved":false,"is_disabled":false,"rental_uris":{"android":"levelo://app?vid=efad763c-5ba9-4eee-a69c-dfbb136427d4","ios":"levelo://app?vid=efad763c-5ba9-4eee-a69c-dfbb136427d4"},"vehicle_type_id":"4","last_reported":1744967432,"current_range_meters":17600,"station_id":"ce4bhmp2rcd13ifvqgog","pricing_plan_id":"cebpf4jnsgd1na2vs0mg"},{"bike_id":"1c481122-b99d-42c3-a571-8174d7a00b0d","system_id":"levelo_inurba_marseille","lat":43.29912,"lon":5.37151,"is_reserved":false,"is_disabled":false,"rental_uris":{"android":"levelo://app?vid=1c481122-b99d-42c3-a571-8174d7a00b0d","ios":"levelo://app?vid=1c481122-b99d-42c3-a571-8174d7a00b0d"},"vehicle_type_id":"4","last_reported":1744967432,"current_range_meters":17600,"station_id":"","pricing_plan_id":"cebpf4jnsgd1na2vs0mg"},{"bike_id":"4c05fc04-5a3e-4846-ae6c-06609c17f5be","system_id":"levelo_inurba_marseille","lat":43.26231,"lon":5.40472,"is_reserved":false,"is_disabled":false,"rental_uris":{"android":"levelo://app?vid=4c05fc04-5a3e-4846-ae6c-06609c17f5be","ios":"levelo://app?vid=4c05fc04-5a3e-4846-ae6c-06609c17f5be"},"vehicle_type_id":"4","last_reported":1744967432,"current_range_meters":17600,"station_id":"ce4bhmh2rcd13ifvqgmg","pricing_plan_id":"cebpf4jnsgd1na2vs0mg"},{"bike_id":"bfa49018-87e7-4e6d-a73f-f9b53d1a144b","system_id":"levelo_inurba_marseille","lat":43.31371,"lon":5.36735,"is_reserved":false,"is_disabled":false,"rental_uris":{"android":"levelo://app?vid=bfa49018-87e7-4e6d-a73f-f9b53d1a144b","ios":"levelo://app?vid=bfa49018-87e7-4e6d-a73f-f9b53d1a144b"},"vehicle_type_id":"4","last_reported":1744967432,"current_range_meters":17600,"station_id":"ce4bgr92rcd13ifvqc6g","pricing_plan_id":"cebpf4jnsgd1na2vs0mg"},{"bike_id":"f1d513e7-93f2-472b-b840-4c42490aad95","system_id":"levelo_inurba_marseille","lat":43.24161,"lon":5.36397,"is_reserved":false,"is_disabled":false,"rental_uris":{"android":"levelo://app?vid=f1d513e7-93f2-472b-b840-4c42490aad95","ios":"levelo://app?vid=f1d513e7-93f2-472b-b840-4c42490aad95"},"vehicle_type_id":"4","last_reported":1744967432,"current_range_meters":17600,"station_id":"cpo36qri1sfpv3e86is0","pricing_plan_id":"cebpf4jnsgd1na2vs0mg"},{"bike_id":"3f94f560-bc6a-40aa-9ab6-722f782cddfb","system_id":"levelo_inurba_marseille","lat":43.292568,"lon":5.40912,"is_reserved":false,"is_disabled":false,"rental_uris":{"android":"levelo://app?vid=3f94f560-bc6a-40aa-9ab6-722f782cddfb","ios":"levelo://app?vid=3f94f560-bc6a-40aa-9ab6-722f782cddfb"},"vehicle_type_id":"4","last_reported":1744967432,"current_range_meters":17600,"station_id":"ce4bh192rcd13ifvqdc0","pricing_plan_id":"cebpf4jnsgd1na2vs0mg"},{"bike_id":"23cc3c21-39d5-401a-998d-6365ef24751a","system_id":"levelo_inurba_marseille","lat":43.22935,"lon":5.35379,"is_reserved":false,"is_disabled":false,"rental_uris":{"android":"levelo://app?vid=23cc3c21-39d5-401a-998d-6365ef24751a","ios":"levelo://app?vid=23cc3c21-39d5-401a-998d-6365ef24751a"},"vehicle_type_id":"4","last_reported":1744967432,"current_range_meters":17600,"station_id":"cpo3532slgdg3j2ikp40","pricing_plan_id":"cebpf4jnsgd1na2vs0mg"},{"bike_id":"e8c35f53-33e9-4cc6-90e3-4f5913565f51","system_id":"levelo_inurba_marseille","lat":43.2315,"lon":5.43723,"is_reserved":false,"is_disabled":false,"rental_uris":{"android":"levelo://app?vid=e8c35f53-33e9-4cc6-90e3-4f5913565f51","ios":"levelo://app?vid=e8c35f53-33e9-4cc6-90e3-4f5913565f51"},"vehicle_type_id":"4","last_reported":1744967432,"current_range_meters":18000,"station_id":"ce4bhmp2rcd13ifvqgog","pricing_plan_id":"cebpf4jnsgd1na2vs0mg"},{"bike_id":"91aa591a-3e56-4092-a295-ecb6aebe69eb","system_id":"levelo_inurba_marseille","lat":43.22498,"lon":5.34799,"is_reserved":false,"is_disabled":false,"rental_uris":{"android":"levelo://app?vid=91aa591a-3e56-4092-a295-ecb6aebe69eb","ios":"levelo://app?vid=91aa591a-3e56-4092-a295-ecb6aebe69eb"},"vehicle_type_id":"4","last_reported":1744967432,"current_range_meters":18000,"station_id":"st_cvj5dfep6f1abm77gieg","pricing_plan_id":"cebpf4jnsgd1na2vs0mg"},{"bike_id":"c7db8fbe-474e-4c60-bd3a-d6ada47a4f96","system_id":"levelo_inurba_marseille","lat":43.29421,"lon":5.3861,"is_reserved":false,"is_disabled":false,"rental_uris":{"android":"levelo://app?vid=c7db8fbe-474e-4c60-bd3a-d6ada47a4f96","ios":"levelo://app?vid=c7db8fbe-474e-4c60-bd3a-d6ada47a4f96"},"vehicle_type_id":"4","last_reported":1744967432,"current_range_meters":17600,"station_id":"ce4bh2h2rcd13ifvqdh0","pricing_plan_id":"cebpf4jnsgd1na2vs0mg"},{"bike_id":"aea2afb6-112e-4c3a-968a-5eb5aa77e9be","system_id":"levelo_inurba_marseille","lat":43.21189,"lon":5.3508,"is_reserved":false,"is_disabled":false,"rental_uris":{"android":"levelo://app?vid=aea2afb6-112e-4c3a-968a-5eb5aa77e9be","ios":"levelo://app?vid=aea2afb6-112e-4c3a-968a-5eb5aa77e9be"},"vehicle_type_id":"4","last_reported":1744967432,"current_range_meters":18000,"station_id":"st_cvj6sg6p6f1abm77japg","pricing_plan_id":"cebpf4jnsgd1na2vs0mg"},{"bike_id":"82a001e1-327f-4a58-b355-bcf2e1a86bf6","system_id":"levelo_inurba_marseille","lat":43.30913,"lon":5.36675,"is_reserved":false,"is_disabled":false,"rental_uris":{"android":"levelo://app?vid=82a001e1-327f-4a58-b355-bcf2e1a86bf6","ios":"levelo://app?vid=82a001e1-327f-4a58-b355-bcf2e1a86bf6"},"vehicle_type_id":"4","last_reported":1744967432,"current_range_meters":18000,"station_id":"","pricing_plan_id":"cebpf4jnsgd1na2vs0mg"},{"bike_id":"5db7c5ab-73d5-47e4-9713-3ef31de4325c","system_id":"levelo_inurba_marseille","lat":43.30803,"lon":5.37356,"is_reserved":false,"is_disabled":false,"rental_uris":{"android":"levelo://app?vid=5db7c5ab-73d5-47e4-9713-3ef31de4325c","ios":"levelo://app?vid=5db7c5ab-73d5-47e4-9713-3ef31de4325c"},"vehicle_type_id":"4","last_reported":1744967432,"current_range_meters":18000,"station_id":"","pricing_plan_id":"cebpf4jnsgd1na2vs0mg"},{"bike_id":"beae55ab-1a39-49d3-9e51-9498979f641f","system_id":"levelo_inurba_marseille","lat":43.29942,"lon":5.36555,"is_reserved":false,"is_disabled":false,"rental_uris":{"android":"levelo://app?vid=beae55ab-1a39-49d3-9e51-9498979f641f","ios":"levelo://app?vid=beae55ab-1a39-49d3-9e51-9498979f641f"},"vehicle_type_id":"4","last_reported":1744967432,"current_range_meters":18000,"station_id":"ce4bgm92rcd13ifvqbr0","pricing_plan_id":"cebpf4jnsgd1na2vs0mg"},{"bike_id":"9eb6738d-486c-4d0a-88f4-70b8d81983d1","system_id":"levelo_inurba_marseille","lat":43.21759,"lon":5.34601,"is_reserved":false,"is_disabled":false,"rental_uris":{"android":"levelo://app?vid=9eb6738d-486c-4d0a-88f4-70b8d81983d1","ios":"levelo://app?vid=9eb6738d-486c-4d0a-88f4-70b8d81983d1"},"vehicle_type_id":"4","last_reported":1744967432,"current_range_meters":18000,"station_id":"st_cvj6r9ubvosntc0bgbag","pricing_plan_id":"cebpf4jnsgd1na2vs0mg"},{"bike_id":"9d3aeb7b-1b96-499b-82d6-128ac0441875","system_id":"levelo_inurba_marseille","lat":43.2315,"lon":5.43722,"is_reserved":false,"is_disabled":false,"rental_uris":{"android":"levelo://app?vid=9d3aeb7b-1b96-499b-82d6-128ac0441875","ios":"levelo://app?vid=9d3aeb7b-1b96-499b-82d6-128ac0441875"},"vehicle_type_id":"4","last_reported":1744967432,"current_range_meters":18000,"station_id":"ce4bhmp2rcd13ifvqgog","pricing_plan_id":"cebpf4jnsgd1na2vs0mg"},{"bike_id":"80bac1fe-218c-4068-937c-4aa733df023f","system_id":"levelo_inurba_marseille","lat":43.28622,"lon":5.3708,"is_reserved":false,"is_disabled":false,"rental_uris":{"android":"levelo://app?vid=80bac1fe-218c-4068-937c-4aa733df023f","ios":"levelo://app?vid=80bac1fe-218c-4068-937c-4aa733df023f"},"vehicle_type_id":"4","last_reported":1744967432,"current_range_meters":18000,"station_id":"ce4bht12rcd13ifvqi60","pricing_plan_id":"cebpf4jnsgd1na2vs0mg"},{"bike_id":"0513d50a-d6e4-4093-a8cf-4d32d2c45b4c","system_id":"levelo_inurba_marseille","lat":43.324996,"lon":5.365646,"is_reserved":false,"is_disabled":false,"rental_uris":{"android":"levelo://app?vid=0513d50a-d6e4-4093-a8cf-4d32d2c45b4c","ios":"levelo://app?vid=0513d50a-d6e4-4093-a8cf-4d32d2c45b4c"},"vehicle_type_id":"4","last_reported":1744967432,"current_range_meters":18000,"station_id":"ce4bhs12rcd13ifvqhvg","pricing_plan_id":"cebpf4jnsgd1na2vs0mg"},{"bike_id":"846231f6-6953-4ff8-b8a5-3a085f1dbb55","system_id":"levelo_inurba_marseille","lat":43.29895,"lon":5.43675,"is_reserved":false,"is_disabled":false,"rental_uris":{"android":"levelo://app?vid=846231f6-6953-4ff8-b8a5-3a085f1dbb55","ios":"levelo://app?vid=846231f6-6953-4ff8-b8a5-3a085f1dbb55"},"vehicle_type_id":"4","last_reported":1744967432,"current_range_meters":18000,"station_id":"ce4bhpp2rcd13ifvqhfg","pricing_plan_id":"cebpf4jnsgd1na2vs0mg"},{"bike_id":"5f3b2417-cf31-40f9-959b-dd62355d1573","system_id":"levelo_inurba_marseille","lat":43.33597,"lon":5.40992,"is_reserved":false,"is_disabled":false,"rental_uris":{"android":"levelo://app?vid=5f3b2417-cf31-40f9-959b-dd62355d1573","ios":"levelo://app?vid=5f3b2417-cf31-40f9-959b-dd62355d1573"},"vehicle_type_id":"4","last_reported":1744967432,"current_range_meters":18800,"station_id":"ce4bhqh2rcd13ifvqhmg","pricing_plan_id":"cebpf4jnsgd1na2vs0mg"},{"bike_id":"bb9cc5b6-0c7a-4871-8383-15ba04455dec","system_id":"levelo_inurba_marseille","lat":43.29896,"lon":5.43674,"is_reserved":false,"is_disabled":false,"rental_uris":{"android":"levelo://app?vid=bb9cc5b6-0c7a-4871-8383-15ba04455dec","ios":"levelo://app?vid=bb9cc5b6-0c7a-4871-8383-15ba04455dec"},"vehicle_type_id":"4","last_reported":1744967432,"current_range_meters":18800,"station_id":"ce4bhpp2rcd13ifvqhfg","pricing_plan_id":"cebpf4jnsgd1na2vs0mg"},{"bike_id":"8296043d-2944-485e-b916-c0e8588a8c06","system_id":"levelo_inurba_marseille","lat":43.31294,"lon":5.36855,"is_reserved":false,"is_disabled":false,"rental_uris":{"android":"levelo://app?vid=8296043d-2944-485e-b916-c0e8588a8c06","ios":"levelo://app?vid=8296043d-2944-485e-b916-c0e8588a8c06"},"vehicle_type_id":"4","last_reported":1744967432,"current_range_meters":18800,"station_id":"ce4bgl92rcd13ifvqbq0","pricing_plan_id":"cebpf4jnsgd1na2vs0mg"},{"bike_id":"d1d39195-7105-40ac-9e9f-412e283490af","system_id":"levelo_inurba_marseille","lat":43.26196,"lon":5.37452,"is_reserved":false,"is_disabled":false,"rental_uris":{"android":"levelo://app?vid=d1d39195-7105-40ac-9e9f-412e283490af","ios":"levelo://app?vid=d1d39195-7105-40ac-9e9f-412e283490af"},"vehicle_type_id":"4","last_reported":1744967432,"current_range_meters":18800,"station_id":"ce4bhgp2rcd13ifvqfc0","pricing_plan_id":"cebpf4jnsgd1na2vs0mg"},{"bike_id":"5bfdd3ac-ac87-4124-a941-1bd318b8cd03","system_id":"levelo_inurba_marseille","lat":43.304621,"lon":5.379118,"is_reserved":false,"is_disabled":false,"rental_uris":{"android":"levelo://app?vid=5bfdd3ac-ac87-4124-a941-1bd318b8cd03","ios":"levelo://app?vid=5bfdd3ac-ac87-4124-a941-1bd318b8cd03"},"vehicle_type_id":"4","last_reported":1744967432,"current_range_meters":18800,"station_id":"ce4bgup2rcd13ifvqcn0","pricing_plan_id":"cebpf4jnsgd1na2vs0mg"},{"bike_id":"c0591a27-cac0-448f-81e1-85c1613fa735","system_id":"levelo_inurba_marseille","lat":43.272054,"lon":5.391915,"is_reserved":false,"is_disabled":false,"rental_uris":{"android":"levelo://app?vid=c0591a27-cac0-448f-81e1-85c1613fa735","ios":"levelo://app?vid=c0591a27-cac0-448f-81e1-85c1613fa735"},"vehicle_type_id":"4","last_reported":1744967432,"current_range_meters":18800,"station_id":"ce4bhhp2rcd13ifvqfm0","pricing_plan_id":"cebpf4jnsgd1na2vs0mg"},{"bike_id":"b3db7714-dbf3-4bc4-a6f1-64ff1086c08f","system_id":"levelo_inurba_marseille","lat":43.21752,"lon":5.34601,"is_reserved":false,"is_disabled":false,"rental_uris":{"android":"levelo://app?vid=b3db7714-dbf3-4bc4-a6f1-64ff1086c08f","ios":"levelo://app?vid=b3db7714-dbf3-4bc4-a6f1-64ff1086c08f"},"vehicle_type_id":"4","last_reported":1744967432,"current_range_meters":18800,"station_id":"st_cvj6r9ubvosntc0bgbag","pricing_plan_id":"cebpf4jnsgd1na2vs0mg"},{"bike_id":"98fe4d37-d8c0-4f00-8054-516bc255211f","system_id":"levelo_inurba_marseille","lat":43.33606,"lon":5.4102,"is_reserved":false,"is_disabled":false,"rental_uris":{"android":"levelo://app?vid=98fe4d37-d8c0-4f00-8054-516bc255211f","ios":"levelo://app?vid=98fe4d37-d8c0-4f00-8054-516bc255211f"},"vehicle_type_id":"4","last_reported":1744967432,"current_range_meters":19200,"station_id":"ce4bhqh2rcd13ifvqhmg","pricing_plan_id":"cebpf4jnsgd1na2vs0mg"},{"bike_id":"bf4996f6-a558-4f7a-b69d-1640d84d2545","system_id":"levelo_inurba_marseille","lat":43.31755,"lon":5.39019,"is_reserved":false,"is_disabled":false,"rental_uris":{"android":"levelo://app?vid=bf4996f6-a558-4f7a-b69d-1640d84d2545","ios":"levelo://app?vid=bf4996f6-a558-4f7a-b69d-1640d84d2545"},"vehicle_type_id":"4","last_reported":1744967432,"current_range_meters":19200,"station_id":"ce4bhqp2rcd13ifvqhng","pricing_plan_id":"cebpf4jnsgd1na2vs0mg"},{"bike_id":"056beed3-732b-4c15-871c-8c4749c0b234","system_id":"levelo_inurba_marseille","lat":43.26555,"lon":5.39013,"is_reserved":false,"is_disabled":false,"rental_uris":{"android":"levelo://app?vid=056beed3-732b-4c15-871c-8c4749c0b234","ios":"levelo://app?vid=056beed3-732b-4c15-871c-8c4749c0b234"},"vehicle_type_id":"4","last_reported":1744967432,"current_range_meters":19200,"station_id":"ce4bhe12rcd13ifvqf30","pricing_plan_id":"cebpf4jnsgd1na2vs0mg"},{"bike_id":"ec896f1e-d411-46d3-953d-cf7a315e78b3","system_id":"levelo_inurba_marseille","lat":43.30615,"lon":5.37226,"is_reserved":false,"is_disabled":false,"rental_uris":{"android":"levelo://app?vid=ec896f1e-d411-46d3-953d-cf7a315e78b3","ios":"levelo://app?vid=ec896f1e-d411-46d3-953d-cf7a315e78b3"},"vehicle_type_id":"4","last_reported":1744967432,"current_range_meters":19200,"station_id":"ce4bgqh2rcd13ifvqc4g","pricing_plan_id":"cebpf4jnsgd1na2vs0mg"},{"bike_id":"e2eb71d4-2f31-44f3-b81a-a046a627aa3e","system_id":"levelo_inurba_marseille","lat":43.30555,"lon":5.36557,"is_reserved":false,"is_disabled":true,"rental_uris":{"android":"levelo://app?vid=e2eb71d4-2f31-44f3-b81a-a046a627aa3e","ios":"levelo://app?vid=e2eb71d4-2f31-44f3-b81a-a046a627aa3e"},"vehicle_type_id":"4","last_reported":1744967432,"current_range_meters":19200,"station_id":"ce4bgs12rcd13ifvqcag","pricing_plan_id":"cebpf4jnsgd1na2vs0mg"},{"bike_id":"24213b37-b766-4d9c-a174-f6bf34920497","system_id":"levelo_inurba_marseille","lat":43.28469,"lon":5.384178,"is_reserved":false,"is_disabled":false,"rental_uris":{"android":"levelo://app?vid=24213b37-b766-4d9c-a174-f6bf34920497","ios":"levelo://app?vid=24213b37-b766-4d9c-a174-f6bf34920497"},"vehicle_type_id":"4","last_reported":1744967432,"current_range_meters":19200,"station_id":"ce4bh512rcd13ifvqe3g","pricing_plan_id":"cebpf4jnsgd1na2vs0mg"},{"bike_id":"17de6571-3c1c-4621-995b-d445cb9c6f14","system_id":"levelo_inurba_marseille","lat":43.21197,"lon":5.35078,"is_reserved":false,"is_disabled":false,"rental_uris":{"android":"levelo://app?vid=17de6571-3c1c-4621-995b-d445cb9c6f14","ios":"levelo://app?vid=17de6571-3c1c-4621-995b-d445cb9c6f14"},"vehicle_type_id":"4","last_reported":1744967432,"current_range_meters":19200,"station_id":"st_cvj6sg6p6f1abm77japg","pricing_plan_id":"cebpf4jnsgd1na2vs0mg"},{"bike_id":"5c87a66e-a468-4c06-bf6a-016059f2b476","system_id":"levelo_inurba_marseille","lat":43.22921,"lon":5.35367,"is_reserved":false,"is_disabled":false,"rental_uris":{"android":"levelo://app?vid=5c87a66e-a468-4c06-bf6a-016059f2b476","ios":"levelo://app?vid=5c87a66e-a468-4c06-bf6a-016059f2b476"},"vehicle_type_id":"4","last_reported":1744967432,"current_range_meters":19200,"station_id":"cpo3532slgdg3j2ikp40","pricing_plan_id":"cebpf4jnsgd1na2vs0mg"},{"bike_id":"9b227aba-105e-4676-816a-5a19de633530","system_id":"levelo_inurba_marseille","lat":43.248077,"lon":5.374533,"is_reserved":false,"is_disabled":false,"rental_uris":{"android":"levelo://app?vid=9b227aba-105e-4676-816a-5a19de633530","ios":"levelo://app?vid=9b227aba-105e-4676-816a-5a19de633530"},"vehicle_type_id":"4","last_reported":1744967432,"current_range_meters":19200,"station_id":"ce4bhgh2rcd13ifvqfb0","pricing_plan_id":"cebpf4jnsgd1na2vs0mg"},{"bike_id":"d05b7cc4-f88b-4d02-ae6c-c344f22c0e5c","system_id":"levelo_inurba_marseille","lat":43.29792,"lon":5.36534,"is_reserved":false,"is_disabled":false,"rental_uris":{"android":"levelo://app?vid=d05b7cc4-f88b-4d02-ae6c-c344f22c0e5c","ios":"levelo://app?vid=d05b7cc4-f88b-4d02-ae6c-c344f22c0e5c"},"vehicle_type_id":"4","last_reported":1744967432,"current_range_meters":19600,"station_id":"","pricing_plan_id":"cebpf4jnsgd1na2vs0mg"},{"bike_id":"9950e33d-b11f-4159-9f4a-2e5394518b44","system_id":"levelo_inurba_marseille","lat":43.29262,"lon":5.38443,"is_reserved":false,"is_disabled":false,"rental_uris":{"android":"levelo://app?vid=9950e33d-b11f-4159-9f4a-2e5394518b44","ios":"levelo://app?vid=9950e33d-b11f-4159-9f4a-2e5394518b44"},"vehicle_type_id":"4","last_reported":1744967432,"current_range_meters":19600,"station_id":"ce4bh692rcd13ifvqea0","pricing_plan_id":"cebpf4jnsgd1na2vs0mg"},{"bike_id":"57e4bf49-afd3-40be-be28-f9c625a8dbad","system_id":"levelo_inurba_marseille","lat":43.273546,"lon":5.362418,"is_reserved":false,"is_disabled":false,"rental_uris":{"android":"levelo://app?vid=57e4bf49-afd3-40be-be28-f9c625a8dbad","ios":"levelo://app?vid=57e4bf49-afd3-40be-be28-f9c625a8dbad"},"vehicle_type_id":"4","last_reported":1744967432,"current_range_meters":19600,"station_id":"ce4bhbh2rcd13ifvqeo0","pricing_plan_id":"cebpf4jnsgd1na2vs0mg"},{"bike_id":"48acabeb-7f6c-485d-9a82-a2528985f5ad","system_id":"levelo_inurba_marseille","lat":43.29311,"lon":5.37172,"is_reserved":false,"is_disabled":false,"rental_uris":{"android":"levelo://app?vid=48acabeb-7f6c-485d-9a82-a2528985f5ad","ios":"levelo://app?vid=48acabeb-7f6c-485d-9a82-a2528985f5ad"},"vehicle_type_id":"4","last_reported":1744967432,"current_range_meters":19600,"station_id":"ce4bgh92rcd13ifvqb40","pricing_plan_id":"cebpf4jnsgd1na2vs0mg"},{"bike_id":"935377c0-a8c8-47e7-8726-21d70a212587","system_id":"levelo_inurba_marseille","lat":43.33749,"lon":5.37446,"is_reserved":false,"is_disabled":false,"rental_uris":{"android":"levelo://app?vid=935377c0-a8c8-47e7-8726-21d70a212587","ios":"levelo://app?vid=935377c0-a8c8-47e7-8726-21d70a212587"},"vehicle_type_id":"4","last_reported":1744967432,"current_range_meters":19600,"station_id":"ce4bh2h2rcd13ifvqdh0","pricing_plan_id":"cebpf4jnsgd1na2vs0mg"},{"bike_id":"e2fb8f13-893e-42f2-bc76-7e47ec81fcbb","system_id":"levelo_inurba_marseille","lat":43.24176,"lon":5.39731,"is_reserved":false,"is_disabled":false,"rental_uris":{"android":"levelo://app?vid=e2fb8f13-893e-42f2-bc76-7e47ec81fcbb","ios":"levelo://app?vid=e2fb8f13-893e-42f2-bc76-7e47ec81fcbb"},"vehicle_type_id":"4","last_reported":1744967432,"current_range_meters":20000,"station_id":"ce4bhn12rcd13ifvqgpg","pricing_plan_id":"cebpf4jnsgd1na2vs0mg"},{"bike_id":"7de48f14-7797-4b06-ac93-3d5cdc757db4","system_id":"levelo_inurba_marseille","lat":43.30478,"lon":5.37916,"is_reserved":false,"is_disabled":false,"rental_uris":{"android":"levelo://app?vid=7de48f14-7797-4b06-ac93-3d5cdc757db4","ios":"levelo://app?vid=7de48f14-7797-4b06-ac93-3d5cdc757db4"},"vehicle_type_id":"4","last_reported":1744967432,"current_range_meters":20000,"station_id":"ce4bgup2rcd13ifvqcn0","pricing_plan_id":"cebpf4jnsgd1na2vs0mg"},{"bike_id":"d52be970-ec48-4545-bc59-de81d161700d","system_id":"levelo_inurba_marseille","lat":43.25569,"lon":5.38246,"is_reserved":false,"is_disabled":false,"rental_uris":{"android":"levelo://app?vid=d52be970-ec48-4545-bc59-de81d161700d","ios":"levelo://app?vid=d52be970-ec48-4545-bc59-de81d161700d"},"vehicle_type_id":"4","last_reported":1744967432,"current_range_meters":20000,"station_id":"ce4bhih2rcd13ifvqfs0","pricing_plan_id":"cebpf4jnsgd1na2vs0mg"},{"bike_id":"ef0fa83d-c2db-4f2d-bc20-56895905ed1e","system_id":"levelo_inurba_marseille","lat":43.29264,"lon":5.38439,"is_reserved":false,"is_disabled":false,"rental_uris":{"android":"levelo://app?vid=ef0fa83d-c2db-4f2d-bc20-56895905ed1e","ios":"levelo://app?vid=ef0fa83d-c2db-4f2d-bc20-56895905ed1e"},"vehicle_type_id":"4","last_reported":1744967432,"current_range_meters":20000,"station_id":"ce4bh692rcd13ifvqea0","pricing_plan_id":"cebpf4jnsgd1na2vs0mg"},{"bike_id":"9d997225-9865-4ccf-b2b2-7ed93e3f7c96","system_id":"levelo_inurba_marseille","lat":43.273136,"lon":5.390675,"is_reserved":false,"is_disabled":false,"rental_uris":{"android":"levelo://app?vid=9d997225-9865-4ccf-b2b2-7ed93e3f7c96","ios":"levelo://app?vid=9d997225-9865-4ccf-b2b2-7ed93e3f7c96"},"vehicle_type_id":"4","last_reported":1744967432,"current_range_meters":19600,"station_id":"ce4bhgp2rcd13ifvqfe0","pricing_plan_id":"cebpf4jnsgd1na2vs0mg"},{"bike_id":"3eab262d-44bd-47f2-8450-1e74c612cfc9","system_id":"levelo_inurba_marseille","lat":43.243907,"lon":5.370625,"is_reserved":false,"is_disabled":false,"rental_uris":{"android":"levelo://app?vid=3eab262d-44bd-47f2-8450-1e74c612cfc9","ios":"levelo://app?vid=3eab262d-44bd-47f2-8450-1e74c612cfc9"},"vehicle_type_id":"4","last_reported":1744967432,"current_range_meters":20000,"station_id":"ce4bhhh2rcd13ifvqfk0","pricing_plan_id":"cebpf4jnsgd1na2vs0mg"},{"bike_id":"3c37d3ec-c1f3-47c3-9356-b25b0d14152b","system_id":"levelo_inurba_marseille","lat":43.28623,"lon":5.37071,"is_reserved":false,"is_disabled":false,"rental_uris":{"android":"levelo://app?vid=3c37d3ec-c1f3-47c3-9356-b25b0d14152b","ios":"levelo://app?vid=3c37d3ec-c1f3-47c3-9356-b25b0d14152b"},"vehicle_type_id":"4","last_reported":1744967432,"current_range_meters":20000,"station_id":"ce4bht12rcd13ifvqi60","pricing_plan_id":"cebpf4jnsgd1na2vs0mg"},{"bike_id":"51ccb4bc-5adc-4feb-a4f2-db5ff476375c","system_id":"levelo_inurba_marseille","lat":43.23151,"lon":5.437129,"is_reserved":false,"is_disabled":false,"rental_uris":{"android":"levelo://app?vid=51ccb4bc-5adc-4feb-a4f2-db5ff476375c","ios":"levelo://app?vid=51ccb4bc-5adc-4feb-a4f2-db5ff476375c"},"vehicle_type_id":"4","last_reported":1744967432,"current_range_meters":20000,"station_id":"ce4bhmp2rcd13ifvqgog","pricing_plan_id":"cebpf4jnsgd1na2vs0mg"},{"bike_id":"9a641abd-ec25-4279-91b4-4db6f2130a08","system_id":"levelo_inurba_marseille","lat":43.24177,"lon":5.39729,"is_reserved":false,"is_disabled":false,"rental_uris":{"android":"levelo://app?vid=9a641abd-ec25-4279-91b4-4db6f2130a08","ios":"levelo://app?vid=9a641abd-ec25-4279-91b4-4db6f2130a08"},"vehicle_type_id":"4","last_reported":1744967432,"current_range_meters":20000,"station_id":"ce4bhn12rcd13ifvqgpg","pricing_plan_id":"cebpf4jnsgd1na2vs0mg"},{"bike_id":"32e1baf6-f2a8-4876-8b0a-9cc13511ff65","system_id":"levelo_inurba_marseille","lat":43.2419,"lon":5.39722,"is_reserved":false,"is_disabled":false,"rental_uris":{"android":"levelo://app?vid=32e1baf6-f2a8-4876-8b0a-9cc13511ff65","ios":"levelo://app?vid=32e1baf6-f2a8-4876-8b0a-9cc13511ff65"},"vehicle_type_id":"4","last_reported":1744967432,"current_range_meters":20000,"station_id":"ce4bhn12rcd13ifvqgpg","pricing_plan_id":"cebpf4jnsgd1na2vs0mg"},{"bike_id":"cc735365-65e5-4f89-b2c1-e62e207d1883","system_id":"levelo_inurba_marseille","lat":43.29851,"lon":5.3629,"is_reserved":false,"is_disabled":false,"rental_uris":{"android":"levelo://app?vid=cc735365-65e5-4f89-b2c1-e62e207d1883","ios":"levelo://app?vid=cc735365-65e5-4f89-b2c1-e62e207d1883"},"vehicle_type_id":"4","last_reported":1744967432,"current_range_meters":20000,"station_id":"ce4bgpp2rcd13ifvqc3g","pricing_plan_id":"cebpf4jnsgd1na2vs0mg"},{"bike_id":"20dd2fb4-8e76-4164-aeb7-8c4771f432e4","system_id":"levelo_inurba_marseille","lat":43.28156,"lon":5.42635,"is_reserved":false,"is_disabled":true,"rental_uris":{"android":"levelo://app?vid=20dd2fb4-8e76-4164-aeb7-8c4771f432e4","ios":"levelo://app?vid=20dd2fb4-8e76-4164-aeb7-8c4771f432e4"},"vehicle_type_id":"4","last_reported":1744967432,"current_range_meters":20000,"station_id":"ce4bhnh2rcd13ifvqgug","pricing_plan_id":"cebpf4jnsgd1na2vs0mg"},{"bike_id":"3dca9ff4-45de-426b-b04e-59041297c9a0","system_id":"levelo_inurba_marseille","lat":43.31111,"lon":5.37768,"is_reserved":false,"is_disabled":false,"rental_uris":{"android":"levelo://app?vid=3dca9ff4-45de-426b-b04e-59041297c9a0","ios":"levelo://app?vid=3dca9ff4-45de-426b-b04e-59041297c9a0"},"vehicle_type_id":"4","last_reported":1744967432,"current_range_meters":20000,"station_id":"ce4bgt92rcd13ifvqcg0","pricing_plan_id":"cebpf4jnsgd1na2vs0mg"},{"bike_id":"bd66b46f-a7c7-4043-ac9a-439fd10dacb1","system_id":"levelo_inurba_marseille","lat":43.29264,"lon":5.38432,"is_reserved":false,"is_disabled":false,"rental_uris":{"android":"levelo://app?vid=bd66b46f-a7c7-4043-ac9a-439fd10dacb1","ios":"levelo://app?vid=bd66b46f-a7c7-4043-ac9a-439fd10dacb1"},"vehicle_type_id":"4","last_reported":1744967432,"current_range_meters":20000,"station_id":"ce4bh692rcd13ifvqea0","pricing_plan_id":"cebpf4jnsgd1na2vs0mg"},{"bike_id":"625caf8d-0c30-4178-b98b-e24b4a4fa9d0","system_id":"levelo_inurba_marseille","lat":43.27368,"lon":5.36252,"is_reserved":false,"is_disabled":false,"rental_uris":{"android":"levelo://app?vid=625caf8d-0c30-4178-b98b-e24b4a4fa9d0","ios":"levelo://app?vid=625caf8d-0c30-4178-b98b-e24b4a4fa9d0"},"vehicle_type_id":"4","last_reported":1744967432,"current_range_meters":20400,"station_id":"ce4bhbh2rcd13ifvqeo0","pricing_plan_id":"cebpf4jnsgd1na2vs0mg"},{"bike_id":"261e4488-84fa-4efb-907e-3da1f8c84503","system_id":"levelo_inurba_marseille","lat":43.246642,"lon":5.381657,"is_reserved":false,"is_disabled":false,"rental_uris":{"android":"levelo://app?vid=261e4488-84fa-4efb-907e-3da1f8c84503","ios":"levelo://app?vid=261e4488-84fa-4efb-907e-3da1f8c84503"},"vehicle_type_id":"4","last_reported":1744967432,"current_range_meters":20000,"station_id":"cjm6bp8fraef2m0cb0m0","pricing_plan_id":"cebpf4jnsgd1na2vs0mg"},{"bike_id":"ff6fdeb3-4f98-4ba9-96e2-a417ad336a28","system_id":"levelo_inurba_marseille","lat":43.24805,"lon":5.37457,"is_reserved":false,"is_disabled":false,"rental_uris":{"android":"levelo://app?vid=ff6fdeb3-4f98-4ba9-96e2-a417ad336a28","ios":"levelo://app?vid=ff6fdeb3-4f98-4ba9-96e2-a417ad336a28"},"vehicle_type_id":"4","last_reported":1744967432,"current_range_meters":20400,"station_id":"ce4bhgh2rcd13ifvqfb0","pricing_plan_id":"cebpf4jnsgd1na2vs0mg"},{"bike_id":"4d0fe1f6-838b-46db-b219-17db28fe7767","system_id":"levelo_inurba_marseille","lat":43.27212,"lon":5.39176,"is_reserved":false,"is_disabled":false,"rental_uris":{"android":"levelo://app?vid=4d0fe1f6-838b-46db-b219-17db28fe7767","ios":"levelo://app?vid=4d0fe1f6-838b-46db-b219-17db28fe7767"},"vehicle_type_id":"4","last_reported":1744967432,"current_range_meters":20400,"station_id":"ce4bhhp2rcd13ifvqfm0","pricing_plan_id":"cebpf4jnsgd1na2vs0mg"},{"bike_id":"154def0d-0d4f-486e-8308-5952a9e62ef1","system_id":"levelo_inurba_marseille","lat":43.2293,"lon":5.35379,"is_reserved":false,"is_disabled":false,"rental_uris":{"android":"levelo://app?vid=154def0d-0d4f-486e-8308-5952a9e62ef1","ios":"levelo://app?vid=154def0d-0d4f-486e-8308-5952a9e62ef1"},"vehicle_type_id":"4","last_reported":1744967432,"current_range_meters":20400,"station_id":"cpo3532slgdg3j2ikp40","pricing_plan_id":"cebpf4jnsgd1na2vs0mg"},{"bike_id":"e4411806-4dc3-469a-aaee-6bea1de5e4b6","system_id":"levelo_inurba_marseille","lat":43.29559,"lon":5.42286,"is_reserved":false,"is_disabled":false,"rental_uris":{"android":"levelo://app?vid=e4411806-4dc3-469a-aaee-6bea1de5e4b6","ios":"levelo://app?vid=e4411806-4dc3-469a-aaee-6bea1de5e4b6"},"vehicle_type_id":"4","last_reported":1744967432,"current_range_meters":20400,"station_id":"ce4bhph2rcd13ifvqhdg","pricing_plan_id":"cebpf4jnsgd1na2vs0mg"},{"bike_id":"ab7aa78a-dffe-48f3-9800-a734a922d783","system_id":"levelo_inurba_marseille","lat":43.28445,"lon":5.3921,"is_reserved":false,"is_disabled":false,"rental_uris":{"android":"levelo://app?vid=ab7aa78a-dffe-48f3-9800-a734a922d783","ios":"levelo://app?vid=ab7aa78a-dffe-48f3-9800-a734a922d783"},"vehicle_type_id":"4","last_reported":1744967432,"current_range_meters":20400,"station_id":"ce4bhoh2rcd13ifvqh5g","pricing_plan_id":"cebpf4jnsgd1na2vs0mg"},{"bike_id":"09f95fea-c6da-4763-8600-a88272da027a","system_id":"levelo_inurba_marseille","lat":43.3137,"lon":5.36732,"is_reserved":false,"is_disabled":false,"rental_uris":{"android":"levelo://app?vid=09f95fea-c6da-4763-8600-a88272da027a","ios":"levelo://app?vid=09f95fea-c6da-4763-8600-a88272da027a"},"vehicle_type_id":"4","last_reported":1744967432,"current_range_meters":20800,"station_id":"ce4bgr92rcd13ifvqc6g","pricing_plan_id":"cebpf4jnsgd1na2vs0mg"},{"bike_id":"2c7763c2-4820-4121-ba08-c10f56dcd64f","system_id":"levelo_inurba_marseille","lat":43.32489,"lon":5.36581,"is_reserved":false,"is_disabled":false,"rental_uris":{"android":"levelo://app?vid=2c7763c2-4820-4121-ba08-c10f56dcd64f","ios":"levelo://app?vid=2c7763c2-4820-4121-ba08-c10f56dcd64f"},"vehicle_type_id":"4","last_reported":1744967432,"current_range_meters":21600,"station_id":"ce4bhs12rcd13ifvqhvg","pricing_plan_id":"cebpf4jnsgd1na2vs0mg"},{"bike_id":"9603cf39-4992-44b6-8d7d-d6207666041e","system_id":"levelo_inurba_marseille","lat":43.31211,"lon":5.41735,"is_reserved":false,"is_disabled":false,"rental_uris":{"android":"levelo://app?vid=9603cf39-4992-44b6-8d7d-d6207666041e","ios":"levelo://app?vid=9603cf39-4992-44b6-8d7d-d6207666041e"},"vehicle_type_id":"4","last_reported":1744967432,"current_range_meters":21600,"station_id":"","pricing_plan_id":"cebpf4jnsgd1na2vs0mg"},{"bike_id":"2b99f081-4f05-46ee-b560-dbfbd455ff86","system_id":"levelo_inurba_marseille","lat":43.2417,"lon":5.39735,"is_reserved":false,"is_disabled":false,"rental_uris":{"android":"levelo://app?vid=2b99f081-4f05-46ee-b560-dbfbd455ff86","ios":"levelo://app?vid=2b99f081-4f05-46ee-b560-dbfbd455ff86"},"vehicle_type_id":"4","last_reported":1744967432,"current_range_meters":21600,"station_id":"ce4bhn12rcd13ifvqgpg","pricing_plan_id":"cebpf4jnsgd1na2vs0mg"},{"bike_id":"e16a18ba-0344-4422-b501-0f65fc0f558f","system_id":"levelo_inurba_marseille","lat":43.26955,"lon":5.38627,"is_reserved":false,"is_disabled":false,"rental_uris":{"android":"levelo://app?vid=e16a18ba-0344-4422-b501-0f65fc0f558f","ios":"levelo://app?vid=e16a18ba-0344-4422-b501-0f65fc0f558f"},"vehicle_type_id":"4","last_reported":1744967432,"current_range_meters":21600,"station_id":"ce4bhh92rcd13ifvqfh0","pricing_plan_id":"cebpf4jnsgd1na2vs0mg"},{"bike_id":"680205ba-dd59-466e-9b44-30aa95795b05","system_id":"levelo_inurba_marseille","lat":43.23061,"lon":5.35492,"is_reserved":false,"is_disabled":false,"rental_uris":{"android":"levelo://app?vid=680205ba-dd59-466e-9b44-30aa95795b05","ios":"levelo://app?vid=680205ba-dd59-466e-9b44-30aa95795b05"},"vehicle_type_id":"4","last_reported":1744967432,"current_range_meters":22000,"station_id":"cpo3342slgdg3j2ifvpg","pricing_plan_id":"cebpf4jnsgd1na2vs0mg"},{"bike_id":"1b52c923-b111-451f-aedb-eb3ba7a1498c","system_id":"levelo_inurba_marseille","lat":43.28424,"lon":5.35003,"is_reserved":false,"is_disabled":false,"rental_uris":{"android":"levelo://app?vid=1b52c923-b111-451f-aedb-eb3ba7a1498c","ios":"levelo://app?vid=1b52c923-b111-451f-aedb-eb3ba7a1498c"},"vehicle_type_id":"4","last_reported":1744967432,"current_range_meters":22000,"station_id":"ce4bhbh2rcd13ifvqepg","pricing_plan_id":"cebpf4jnsgd1na2vs0mg"},{"bike_id":"a3983475-e2dd-4cdb-a7f7-824a42aaad22","system_id":"levelo_inurba_marseille","lat":43.305414,"lon":5.365426,"is_reserved":false,"is_disabled":false,"rental_uris":{"android":"levelo://app?vid=a3983475-e2dd-4cdb-a7f7-824a42aaad22","ios":"levelo://app?vid=a3983475-e2dd-4cdb-a7f7-824a42aaad22"},"vehicle_type_id":"4","last_reported":1744967432,"current_range_meters":22000,"station_id":"ce4bgs12rcd13ifvqcag","pricing_plan_id":"cebpf4jnsgd1na2vs0mg"},{"bike_id":"23ad8614-333d-461f-aa4c-5b46cf021d14","system_id":"levelo_inurba_marseille","lat":43.24056,"lon":5.37752,"is_reserved":false,"is_disabled":false,"rental_uris":{"android":"levelo://app?vid=23ad8614-333d-461f-aa4c-5b46cf021d14","ios":"levelo://app?vid=23ad8614-333d-461f-aa4c-5b46cf021d14"},"vehicle_type_id":"4","last_reported":1744967432,"current_range_meters":22000,"station_id":"ce4bhnp2rcd13ifvqgvg","pricing_plan_id":"cebpf4jnsgd1na2vs0mg"},{"bike_id":"c6af8e20-0757-49a7-9e90-4ab9254669fc","system_id":"levelo_inurba_marseille","lat":43.23965,"lon":5.36635,"is_reserved":false,"is_disabled":false,"rental_uris":{"android":"levelo://app?vid=c6af8e20-0757-49a7-9e90-4ab9254669fc","ios":"levelo://app?vid=c6af8e20-0757-49a7-9e90-4ab9254669fc"},"vehicle_type_id":"4","last_reported":1744967432,"current_range_meters":22000,"station_id":"ce4bhi12rcd13ifvqfp0","pricing_plan_id":"cebpf4jnsgd1na2vs0mg"},{"bike_id":"0efeb020-a7c2-4910-af5f-6e5ad446f2f1","system_id":"levelo_inurba_marseille","lat":43.29936,"lon":5.36551,"is_reserved":false,"is_disabled":false,"rental_uris":{"android":"levelo://app?vid=0efeb020-a7c2-4910-af5f-6e5ad446f2f1","ios":"levelo://app?vid=0efeb020-a7c2-4910-af5f-6e5ad446f2f1"},"vehicle_type_id":"4","last_reported":1744967432,"current_range_meters":19600,"station_id":"ce4bgm92rcd13ifvqbr0","pricing_plan_id":"cebpf4jnsgd1na2vs0mg"},{"bike_id":"eacc958b-b248-4edb-85ed-714aca7709bc","system_id":"levelo_inurba_marseille","lat":43.30954,"lon":5.39035,"is_reserved":false,"is_disabled":false,"rental_uris":{"android":"levelo://app?vid=eacc958b-b248-4edb-85ed-714aca7709bc","ios":"levelo://app?vid=eacc958b-b248-4edb-85ed-714aca7709bc"},"vehicle_type_id":"4","last_reported":1744967432,"current_range_meters":22000,"station_id":"ce4bgup2rcd13ifvqco0","pricing_plan_id":"cebpf4jnsgd1na2vs0mg"},{"bike_id":"99062e51-0348-47f0-b002-ff3974ccfd47","system_id":"levelo_inurba_marseille","lat":43.21193,"lon":5.35077,"is_reserved":false,"is_disabled":false,"rental_uris":{"android":"levelo://app?vid=99062e51-0348-47f0-b002-ff3974ccfd47","ios":"levelo://app?vid=99062e51-0348-47f0-b002-ff3974ccfd47"},"vehicle_type_id":"4","last_reported":1744967432,"current_range_meters":22400,"station_id":"st_cvj6sg6p6f1abm77japg","pricing_plan_id":"cebpf4jnsgd1na2vs0mg"},{"bike_id":"52285cb7-873a-40ae-97c5-8e054808bb9f","system_id":"levelo_inurba_marseille","lat":43.26685,"lon":5.38266,"is_reserved":false,"is_disabled":false,"rental_uris":{"android":"levelo://app?vid=52285cb7-873a-40ae-97c5-8e054808bb9f","ios":"levelo://app?vid=52285cb7-873a-40ae-97c5-8e054808bb9f"},"vehicle_type_id":"4","last_reported":1744967432,"current_range_meters":22400,"station_id":"ce4bhg92rcd13ifvqf90","pricing_plan_id":"cebpf4jnsgd1na2vs0mg"},{"bike_id":"02d18992-49fc-4a47-a2ca-18eece0ae0a4","system_id":"levelo_inurba_marseille","lat":43.28462,"lon":5.35897,"is_reserved":false,"is_disabled":true,"rental_uris":{"android":"levelo://app?vid=02d18992-49fc-4a47-a2ca-18eece0ae0a4","ios":"levelo://app?vid=02d18992-49fc-4a47-a2ca-18eece0ae0a4"},"vehicle_type_id":"4","last_reported":1744967432,"current_range_meters":22400,"station_id":"ce4bhah2rcd13ifvqei0","pricing_plan_id":"cebpf4jnsgd1na2vs0mg"},{"bike_id":"d775a69a-2038-4c31-b285-96fb9d926a56","system_id":"levelo_inurba_marseille","lat":43.31366,"lon":5.36678,"is_reserved":false,"is_disabled":false,"rental_uris":{"android":"levelo://app?vid=d775a69a-2038-4c31-b285-96fb9d926a56","ios":"levelo://app?vid=d775a69a-2038-4c31-b285-96fb9d926a56"},"vehicle_type_id":"4","last_reported":1744967432,"current_range_meters":22400,"station_id":"ce4bgr92rcd13ifvqc6g","pricing_plan_id":"cebpf4jnsgd1na2vs0mg"},{"bike_id":"84b952e2-6eb6-409a-8e0f-b68207a75e9f","system_id":"levelo_inurba_marseille","lat":43.33597,"lon":5.41016,"is_reserved":false,"is_disabled":false,"rental_uris":{"android":"levelo://app?vid=84b952e2-6eb6-409a-8e0f-b68207a75e9f","ios":"levelo://app?vid=84b952e2-6eb6-409a-8e0f-b68207a75e9f"},"vehicle_type_id":"4","last_reported":1744967432,"current_range_meters":22400,"station_id":"ce4bhqh2rcd13ifvqhmg","pricing_plan_id":"cebpf4jnsgd1na2vs0mg"},{"bike_id":"b9256e4c-9f36-4e1a-b77a-1a381867ca37","system_id":"levelo_inurba_marseille","lat":43.26573,"lon":5.39002,"is_reserved":false,"is_disabled":false,"rental_uris":{"android":"levelo://app?vid=b9256e4c-9f36-4e1a-b77a-1a381867ca37","ios":"levelo://app?vid=b9256e4c-9f36-4e1a-b77a-1a381867ca37"},"vehicle_type_id":"4","last_reported":1744967432,"current_range_meters":22400,"station_id":"ce4bhe12rcd13ifvqf30","pricing_plan_id":"cebpf4jnsgd1na2vs0mg"},{"bike_id":"9554a1b7-f280-4c5b-8912-bd2d781e4e5d","system_id":"levelo_inurba_marseille","lat":43.26218,"lon":5.37446,"is_reserved":false,"is_disabled":false,"rental_uris":{"android":"levelo://app?vid=9554a1b7-f280-4c5b-8912-bd2d781e4e5d","ios":"levelo://app?vid=9554a1b7-f280-4c5b-8912-bd2d781e4e5d"},"vehicle_type_id":"4","last_reported":1744967432,"current_range_meters":22400,"station_id":"ce4bhgp2rcd13ifvqfc0","pricing_plan_id":"cebpf4jnsgd1na2vs0mg"},{"bike_id":"099d4632-eb56-4519-aabd-ad40bae38c61","system_id":"levelo_inurba_marseille","lat":43.28428,"lon":5.34979,"is_reserved":false,"is_disabled":false,"rental_uris":{"android":"levelo://app?vid=099d4632-eb56-4519-aabd-ad40bae38c61","ios":"levelo://app?vid=099d4632-eb56-4519-aabd-ad40bae38c61"},"vehicle_type_id":"4","last_reported":1744967432,"current_range_meters":22400,"station_id":"ce4bhbh2rcd13ifvqepg","pricing_plan_id":"cebpf4jnsgd1na2vs0mg"},{"bike_id":"94529fe1-c301-46f5-a50d-c48834da4dc1","system_id":"levelo_inurba_marseille","lat":43.24385,"lon":5.37053,"is_reserved":false,"is_disabled":false,"rental_uris":{"android":"levelo://app?vid=94529fe1-c301-46f5-a50d-c48834da4dc1","ios":"levelo://app?vid=94529fe1-c301-46f5-a50d-c48834da4dc1"},"vehicle_type_id":"4","last_reported":1744967432,"current_range_meters":22400,"station_id":"ce4bhhh2rcd13ifvqfk0","pricing_plan_id":"cebpf4jnsgd1na2vs0mg"},{"bike_id":"46938029-32bd-4477-80f0-69c6876ad488","system_id":"levelo_inurba_marseille","lat":43.30969,"lon":5.39055,"is_reserved":false,"is_disabled":false,"rental_uris":{"android":"levelo://app?vid=46938029-32bd-4477-80f0-69c6876ad488","ios":"levelo://app?vid=46938029-32bd-4477-80f0-69c6876ad488"},"vehicle_type_id":"4","last_reported":1744967432,"current_range_meters":22400,"station_id":"ce4bgup2rcd13ifvqco0","pricing_plan_id":"cebpf4jnsgd1na2vs0mg"},{"bike_id":"b1ac05fc-7a9e-4d53-8434-ea2c7c5106f5","system_id":"levelo_inurba_marseille","lat":43.286127,"lon":5.351019,"is_reserved":false,"is_disabled":false,"rental_uris":{"android":"levelo://app?vid=b1ac05fc-7a9e-4d53-8434-ea2c7c5106f5","ios":"levelo://app?vid=b1ac05fc-7a9e-4d53-8434-ea2c7c5106f5"},"vehicle_type_id":"4","last_reported":1744967432,"current_range_meters":22400,"station_id":"ce4bhch2rcd13ifvqeug","pricing_plan_id":"cebpf4jnsgd1na2vs0mg"},{"bike_id":"9f87218f-476c-4818-b2b1-325a51dc8349","system_id":"levelo_inurba_marseille","lat":43.32482,"lon":5.36585,"is_reserved":false,"is_disabled":false,"rental_uris":{"android":"levelo://app?vid=9f87218f-476c-4818-b2b1-325a51dc8349","ios":"levelo://app?vid=9f87218f-476c-4818-b2b1-325a51dc8349"},"vehicle_type_id":"4","last_reported":1744967432,"current_range_meters":22400,"station_id":"ce4bhs12rcd13ifvqhvg","pricing_plan_id":"cebpf4jnsgd1na2vs0mg"},{"bike_id":"ac056a46-72ad-4861-b65c-1aac07ceaf22","system_id":"levelo_inurba_marseille","lat":43.26696,"lon":5.38263,"is_reserved":false,"is_disabled":false,"rental_uris":{"android":"levelo://app?vid=ac056a46-72ad-4861-b65c-1aac07ceaf22","ios":"levelo://app?vid=ac056a46-72ad-4861-b65c-1aac07ceaf22"},"vehicle_type_id":"4","last_reported":1744967432,"current_range_meters":22400,"station_id":"ce4bhg92rcd13ifvqf90","pricing_plan_id":"cebpf4jnsgd1na2vs0mg"},{"bike_id":"ea6fd639-f9f4-4fbd-9b5c-f3c77e453173","system_id":"levelo_inurba_marseille","lat":43.295524,"lon":5.422715,"is_reserved":false,"is_disabled":false,"rental_uris":{"android":"levelo://app?vid=ea6fd639-f9f4-4fbd-9b5c-f3c77e453173","ios":"levelo://app?vid=ea6fd639-f9f4-4fbd-9b5c-f3c77e453173"},"vehicle_type_id":"4","last_reported":1744967432,"current_range_meters":22800,"station_id":"ce4bhph2rcd13ifvqhdg","pricing_plan_id":"cebpf4jnsgd1na2vs0mg"},{"bike_id":"96b7fd0f-474b-4442-8884-7fdaa9650478","system_id":"levelo_inurba_marseille","lat":43.28617,"lon":5.37068,"is_reserved":false,"is_disabled":false,"rental_uris":{"android":"levelo://app?vid=96b7fd0f-474b-4442-8884-7fdaa9650478","ios":"levelo://app?vid=96b7fd0f-474b-4442-8884-7fdaa9650478"},"vehicle_type_id":"4","last_reported":1744967432,"current_range_meters":22800,"station_id":"ce4bht12rcd13ifvqi60","pricing_plan_id":"cebpf4jnsgd1na2vs0mg"},{"bike_id":"56b8b8b2-fe25-4bd6-b8ee-89ebffa2b48b","system_id":"levelo_inurba_marseille","lat":43.27376,"lon":5.36265,"is_reserved":false,"is_disabled":false,"rental_uris":{"android":"levelo://app?vid=56b8b8b2-fe25-4bd6-b8ee-89ebffa2b48b","ios":"levelo://app?vid=56b8b8b2-fe25-4bd6-b8ee-89ebffa2b48b"},"vehicle_type_id":"4","last_reported":1744967432,"current_range_meters":22800,"station_id":"ce4bhbh2rcd13ifvqeo0","pricing_plan_id":"cebpf4jnsgd1na2vs0mg"},{"bike_id":"8f9ffb34-869d-4176-b4cb-16b3b2587c2c","system_id":"levelo_inurba_marseille","lat":43.30463,"lon":5.379,"is_reserved":false,"is_disabled":false,"rental_uris":{"android":"levelo://app?vid=8f9ffb34-869d-4176-b4cb-16b3b2587c2c","ios":"levelo://app?vid=8f9ffb34-869d-4176-b4cb-16b3b2587c2c"},"vehicle_type_id":"4","last_reported":1744967432,"current_range_meters":22800,"station_id":"ce4bgup2rcd13ifvqcn0","pricing_plan_id":"cebpf4jnsgd1na2vs0mg"},{"bike_id":"7624d237-103d-47e9-acfe-425705ad8992","system_id":"levelo_inurba_marseille","lat":43.23973,"lon":5.36623,"is_reserved":false,"is_disabled":true,"rental_uris":{"android":"levelo://app?vid=7624d237-103d-47e9-acfe-425705ad8992","ios":"levelo://app?vid=7624d237-103d-47e9-acfe-425705ad8992"},"vehicle_type_id":"4","last_reported":1744967432,"current_range_meters":22800,"station_id":"ce4bhi12rcd13ifvqfp0","pricing_plan_id":"cebpf4jnsgd1na2vs0mg"},{"bike_id":"7431058b-54fb-4ad0-8c6f-04801fd40473","system_id":"levelo_inurba_marseille","lat":43.28612,"lon":5.37051,"is_reserved":false,"is_disabled":false,"rental_uris":{"android":"levelo://app?vid=7431058b-54fb-4ad0-8c6f-04801fd40473","ios":"levelo://app?vid=7431058b-54fb-4ad0-8c6f-04801fd40473"},"vehicle_type_id":"4","last_reported":1744967432,"current_range_meters":22800,"station_id":"ce4bht12rcd13ifvqi60","pricing_plan_id":"cebpf4jnsgd1na2vs0mg"},{"bike_id":"9b4d8359-a0da-4d75-bddc-3c4accdcbc46","system_id":"levelo_inurba_marseille","lat":43.31212,"lon":5.41796,"is_reserved":false,"is_disabled":false,"rental_uris":{"android":"levelo://app?vid=9b4d8359-a0da-4d75-bddc-3c4accdcbc46","ios":"levelo://app?vid=9b4d8359-a0da-4d75-bddc-3c4accdcbc46"},"vehicle_type_id":"4","last_reported":1744967432,"current_range_meters":22800,"station_id":"","pricing_plan_id":"cebpf4jnsgd1na2vs0mg"},{"bike_id":"41001392-f363-4731-9e16-579c1d356b65","system_id":"levelo_inurba_marseille","lat":43.31685,"lon":5.40472,"is_reserved":false,"is_disabled":false,"rental_uris":{"android":"levelo://app?vid=41001392-f363-4731-9e16-579c1d356b65","ios":"levelo://app?vid=41001392-f363-4731-9e16-579c1d356b65"},"vehicle_type_id":"4","last_reported":1744967432,"current_range_meters":22800,"station_id":"ce4bh012rcd13ifvqd00","pricing_plan_id":"cebpf4jnsgd1na2vs0mg"},{"bike_id":"3cc4219e-748c-4753-9122-e9d8e915c4ed","system_id":"levelo_inurba_marseille","lat":43.29621,"lon":5.37169,"is_reserved":false,"is_disabled":false,"rental_uris":{"android":"levelo://app?vid=3cc4219e-748c-4753-9122-e9d8e915c4ed","ios":"levelo://app?vid=3cc4219e-748c-4753-9122-e9d8e915c4ed"},"vehicle_type_id":"4","last_reported":1744967432,"current_range_meters":22800,"station_id":"ce4bgnh2rcd13ifvqc0g","pricing_plan_id":"cebpf4jnsgd1na2vs0mg"},{"bike_id":"b4f7ceb8-061f-48fd-8cb8-a98658d60202","system_id":"levelo_inurba_marseille","lat":43.29551,"lon":5.42268,"is_reserved":false,"is_disabled":false,"rental_uris":{"android":"levelo://app?vid=b4f7ceb8-061f-48fd-8cb8-a98658d60202","ios":"levelo://app?vid=b4f7ceb8-061f-48fd-8cb8-a98658d60202"},"vehicle_type_id":"4","last_reported":1744967432,"current_range_meters":23200,"station_id":"ce4bhph2rcd13ifvqhdg","pricing_plan_id":"cebpf4jnsgd1na2vs0mg"},