{"last_updated":1761657800,"ttl":60,"version":"2.2","data":{"bikes":[{"bike_id":"84799549-f658-4751-82cc-c7a4a928c2b5","system_id":"levelo_inurba_marseille","lat":43.295846,"lon":5.399803,"is_reserved":false,"is_disabled":false,"rental_uris":{"android":"levelo://app?vid=84799549-f658-4751-82cc-c7a4a928c2b5","ios":"levelo://app?vid=84799549-f658-4751-82cc-c7a4a928c2b5"},"vehicle_type_id":"4","last_reported":1761657800,"current_range_meters":2800,"station_id":"ce4bh312rcd13ifvqdj0","pricing_plan_id":"cebpf4jnsgd1na2vs0mg"},{"bike_id":"2ef0104f-2216-4481-b527-affa5aaf6112","system_id":"levelo_inurba_marseille","lat":43.29505,"lon":5.37509,"is_reserved":false,"is_disabled":false,"rental_uris":{"android":"levelo://app?vid=2ef0104f-2216-4481-b527-affa5aaf6112","ios":"levelo://app?vid=2ef0104f-2216-4481-b527-affa5aaf6112"},"vehicle_type_id":"4","last_reported":1761657800,"current_range_meters":2800,"station_id":"ce4bgkp2rcd13ifvqbmg","pricing_plan_id":"cebpf4jnsgd1na2vs0mg"},{"bike_id":"a98545d2-eea7-434b-b091-a0e1b4554ff0","system_id":"levelo_inurba_marseille","lat":43.28619,"lon":5.35094,"is_reserved":false,"is_disabled":false,"rental_uris":{"android":"levelo://app?vid=a98545d2-eea7-434b-b091-a0e1b4554ff0","ios":"levelo://app?vid=a98545d2-eea7-434b-b091-a0e1b4554ff0"},"vehicle_type_id":"4","last_reported":1761657800,"current_range_meters":2800,"station_id":"ce4bhch2rcd13ifvqeug","pricing_plan_id":"cebpf4jnsgd1na2vs0mg"},{"bike_id":"11a31364-1139-45e3-98fc-bf1f9e53b0aa","system_id":"levelo_inurba_marseille","lat":43.2842,"lon":5.34978,"is_reserved":false,"is_disabled":false,"rental_uris":{"android":"levelo://app?vid=11a31364-1139-45e3-98fc-bf1f9e53b0aa","ios":"levelo://app?vid=11a31364-1139-45e3-98fc-bf1f9e53b0aa"},"vehicle_type_id":"4","last_reported":1761657800,"current_range_meters":2800,"station_id":"ce4bhbh2rcd13ifvqepg","pricing_plan_id":"cebpf4jnsgd1na2vs0mg"},{"bike_id":"dd191eb0-ec3f-4508-a112-16bc394bb2d1","system_id":"levelo_inurba_marseille","lat":43.2895,"lon":5.36626,"is_reserved":false,"is_disabled":false,"rental_uris":{"android":"levelo://app?vid=dd191eb0-ec3f-4508-a112-16bc394bb2d1","ios":"levelo://app?vid=dd191eb0-ec3f-4508-a112-16bc394bb2d1"},"vehicle_type_id":"4","last_reported":1761657800,"current_range_meters":3200,"station_id":"ce4bhap2rcd13ifvqek0","pricing_plan_id":"cebpf4jnsgd1na2vs0mg"},{"bike_id":"cc4128ad-6ed2-4fea-8f5e-75f6ac02e898","system_id":"levelo_inurba_marseille","lat":43.290036,"lon":5.356248,"is_reserved":false,"is_disabled":false,"rental_uris":{"android":"levelo://app?vid=cc4128ad-6ed2-4fea-8f5e-75f6ac02e898","ios":"levelo://app?vid=cc4128ad-6ed2-4fea-8f5e-75f6ac02e898"},"vehicle_type_id":"4","last_reported":1761657800,"current_range_meters":3200,"station_id":"ce4bhb92rcd13ifvqen0","pricing_plan_id":"cebpf4jnsgd1na2vs0mg"},{"bike_id":"a1d58e5f-9e1e-4b64-a4c6-24a2439ea14e","system_id":"levelo_inurba_marseille","lat":43.2845,"lon":5.35906,"is_reserved":false,"is_disabled":false,"rental_uris":{"android":"levelo://app?vid=a1d58e5f-9e1e-4b64-a4c6-24a2439ea14e","ios":"levelo://app?vid=a1d58e5f-9e1e-4b64-a4c6-24a2439ea14e"},"vehicle_type_id":"4","last_reported":1761657800,"current_range_meters":3200,"station_id":"ce4bhah2rcd13ifvqei0","pricing_plan_id":"cebpf4jnsgd1na2vs0mg"},{"bike_id":"1d79a993-29a1-4042-bb9c-69fc15bbabb1","system_id":"levelo_inurba_marseille","lat":43.21755,"lon":5.34621,"is_reserved":false,"is_disabled":false,"rental_uris":{"android":"levelo://app?vid=1d79a993-29a1-4042-bb9c-69fc15bbabb1","ios":"levelo://app?vid=1d79a993-29a1-4042-bb9c-69fc15bbabb1"},"vehicle_type_id":"4","last_reported":1761657800,"current_range_meters":3600,"station_id":"st_cvj6r9ubvosntc0bgbag","pricing_plan_id":"cebpf4jnsgd1na2vs0mg"},{"bike_id":"c5670090-28e4-4a30-8b52-6f97e9f95071","system_id":"levelo_inurba_marseille","lat":43.2965,"lon":5.39174,"is_reserved":false,"is_disabled":false,"rental_uris":{"android":"levelo://app?vid=c5670090-28e4-4a30-8b52-6f97e9f95071","ios":"levelo://app?vid=c5670090-28e4-4a30-8b52-6f97e9f95071"},"vehicle_type_id":"4","last_reported":1761657800,"current_range_meters":3600,"station_id":"","pricing_plan_id":"cebpf4jnsgd1na2vs0mg"},{"bike_id":"d4a8ae80-94de-4096-9a3f-fe04b6fbf53b","system_id":"levelo_inurba_marseille","lat":43.30125,"lon":5.39854,"is_reserved":false,"is_disabled":false,"rental_uris":{"android":"levelo://app?vid=d4a8ae80-94de-4096-9a3f-fe04b6fbf53b","ios":"levelo://app?vid=d4a8ae80-94de-4096-9a3f-fe04b6fbf53b"},"vehicle_type_id":"4","last_reported":1761657800,"current_range_meters":3600,"station_id":"ce4bh0h2rcd13ifvqd40","pricing_plan_id":"cebpf4jnsgd1na2vs0mg"},{"bike_id":"a607c267-e649-4d1c-93aa-f40d6ecd3421","system_id":"levelo_inurba_marseille","lat":43.28615,"lon":5.35109,"is_reserved":false,"is_disabled":false,"rental_uris":{"android":"levelo://app?vid=a607c267-e649-4d1c-93aa-f40d6ecd3421","ios":"levelo://app?vid=a607c267-e649-4d1c-93aa-f40d6ecd3421"},"vehicle_type_id":"4","last_reported":1761657800,"current_range_meters":4000,"station_id":"ce4bhch2rcd13ifvqeug","pricing_plan_id":"cebpf4jnsgd1na2vs0mg"},{"bike_id":"f9fced10-2217-4325-ad10-99d5d178bf96","system_id":"levelo_inurba_marseille","lat":43.30533,"lon":5.36537,"is_reserved":false,"is_disabled":false,"rental_uris":{"android":"levelo://app?vid=f9fced10-2217-4325-ad10-99d5d178bf96","ios":"levelo://app?vid=f9fced10-2217-4325-ad10-99d5d178bf96"},"vehicle_type_id":"4","last_reported":1761657800,"current_range_meters":4400,"station_id":"ce4bgs12rcd13ifvqcag","pricing_plan_id":"cebpf4jnsgd1na2vs0mg"},{"bike_id":"41d45b45-3a52-4b5a-b2b3-1e62d5490ada","system_id":"levelo_inurba_marseille","lat":43.285251,"lon":5.440825,"is_reserved":false,"is_disabled":false,"rental_uris":{"android":"levelo://app?vid=41d45b45-3a52-4b5a-b2b3-1e62d5490ada","ios":"levelo://app?vid=41d45b45-3a52-4b5a-b2b3-1e62d5490ada"},"vehicle_type_id":"4","last_reported":1761657800,"current_range_meters":4400,"station_id":"st_d3j3df2ikq2c7380ej80","pricing_plan_id":"cebpf4jnsgd1na2vs0mg"},{"bike_id":"64b75b4a-3497-4861-8cc2-90dd62cd9f5e","system_id":"levelo_inurba_marseille","lat":43.29306,"lon":5.43451,"is_reserved":false,"is_disabled":false,"rental_uris":{"android":"levelo://app?vid=64b75b4a-3497-4861-8cc2-90dd62cd9f5e","ios":"levelo://app?vid=64b75b4a-3497-4861-8cc2-90dd62cd9f5e"},"vehicle_type_id":"4","last_reported":1761657800,"current_range_meters":4400,"station_id":"","pricing_plan_id":"cebpf4jnsgd1na2vs0mg"},{"bike_id":"1b8b63ec-7548-4816-b198-44e2162337ac","system_id":"levelo_inurba_marseille","lat":43.306438,"lon":5.400786,"is_reserved":false,"is_disabled":true,"rental_uris":{"android":"levelo://app?vid=1b8b63ec-7548-4816-b198-44e2162337ac","ios":"levelo://app?vid=1b8b63ec-7548-4816-b198-44e2162337ac"},"vehicle_type_id":"4","last_reported":1761657800,"current_range_meters":4800,"station_id":"ce4bh112rcd13ifvqda0","pricing_plan_id":"cebpf4jnsgd1na2vs0mg"},{"bike_id":"67f8857f-0853-46d2-b9ef-96c5ce2639bc","system_id":"levelo_inurba_marseille","lat":43.23034,"lon":5.35502,"is_reserved":false,"is_disabled":false,"rental_uris":{"android":"levelo://app?vid=67f8857f-0853-46d2-b9ef-96c5ce2639bc","ios":"levelo://app?vid=67f8857f-0853-46d2-b9ef-96c5ce2639bc"},"vehicle_type_id":"4","last_reported":1761657800,"current_range_meters":4800,"station_id":"cpo3342slgdg3j2ifvpg","pricing_plan_id":"cebpf4jnsgd1na2vs0mg"},{"bike_id":"de5cece4-6186-4ccb-b70e-a25e8bd3fc86","system_id":"levelo_inurba_marseille","lat":43.337444,"lon":5.374475,"is_reserved":false,"is_disabled":false,"rental_uris":{"android":"levelo://app?vid=de5cece4-6186-4ccb-b70e-a25e8bd3fc86","ios":"levelo://app?vid=de5cece4-6186-4ccb-b70e-a25e8bd3fc86"},"vehicle_type_id":"4","last_reported":1761657800,"current_range_meters":4800,"station_id":"","pricing_plan_id":"cebpf4jnsgd1na2vs0mg"},{"bike_id":"3bf40ce1-565d-4e4c-b920-f197206ded30","system_id":"levelo_inurba_marseille","lat":43.229313,"lon":5.35375,"is_reserved":false,"is_disabled":false,"rental_uris":{"android":"levelo://app?vid=3bf40ce1-565d-4e4c-b920-f197206ded30","ios":"levelo://app?vid=3bf40ce1-565d-4e4c-b920-f197206ded30"},"vehicle_type_id":"4","last_reported":1761657800,"current_range_meters":5600,"station_id":"cpo3532slgdg3j2ikp40","pricing_plan_id":"cebpf4jnsgd1na2vs0mg"},{"bike_id":"087e25fa-551f-4c6f-9878-7e1aa091b9aa","system_id":"levelo_inurba_marseille","lat":43.23056,"lon":5.35481,"is_reserved":false,"is_disabled":false,"rental_uris":{"android":"levelo://app?vid=087e25fa-551f-4c6f-9878-7e1aa091b9aa","ios":"levelo://app?vid=087e25fa-551f-4c6f-9878-7e1aa091b9aa"},"vehicle_type_id":"4","last_reported":1761657800,"current_range_meters":5600,"station_id":"cpo3342slgdg3j2ifvpg","pricing_plan_id":"cebpf4jnsgd1na2vs0mg"},{"bike_id":"3ea13603-c9ad-4550-9948-b83f47812af6","system_id":"levelo_inurba_marseille","lat":43.2909,"lon":5.36616,"is_reserved":false,"is_disabled":false,"rental_uris":{"android":"levelo://app?vid=3ea13603-c9ad-4550-9948-b83f47812af6","ios":"levelo://app?vid=3ea13603-c9ad-4550-9948-b83f47812af6"},"vehicle_type_id":"4","last_reported":1761657800,"current_range_meters":5600,"station_id":"","pricing_plan_id":"cebpf4jnsgd1na2vs0mg"},{"bike_id":"e4ccce50-4824-4895-aa8c-033835526f23","system_id":"levelo_inurba_marseille","lat":43.318766,"lon":5.399814,"is_reserved":false,"is_disabled":false,"rental_uris":{"android":"levelo://app?vid=e4ccce50-4824-4895-aa8c-033835526f23","ios":"levelo://app?vid=e4ccce50-4824-4895-aa8c-033835526f23"},"vehicle_type_id":"4","last_reported":1761657800,"current_range_meters":5600,"station_id":"","pricing_plan_id":"cebpf4jnsgd1na2vs0mg"},{"bike_id":"5729a099-828a-480a-a751-e8ee92c213b8","system_id":"levelo_inurba_marseille","lat":43.27675,"lon":5.3888,"is_reserved":false,"is_disabled":false,"rental_uris":{"android":"levelo://app?vid=5729a099-828a-480a-a751-e8ee92c213b8","ios":"levelo://app?vid=5729a099-828a-480a-a751-e8ee92c213b8"},"vehicle_type_id":"4","last_reported":1761657800,"current_range_meters":5600,"station_id":"ce4bhi12rcd13ifvqfo0","pricing_plan_id":"cebpf4jnsgd1na2vs0mg"},{"bike_id":"f0d3919f-cc34-4f25-b181-75cda797f017","system_id":"levelo_inurba_marseille","lat":43.25717,"lon":5.41116,"is_reserved":false,"is_disabled":false,"rental_uris":{"android":"levelo://app?vid=f0d3919f-cc34-4f25-b181-75cda797f017","ios":"levelo://app?vid=f0d3919f-cc34-4f25-b181-75cda797f017"},"vehicle_type_id":"4","last_reported":1761657800,"current_range_meters":5600,"station_id":"ce4bhkp2rcd13ifvqgd0","pricing_plan_id":"cebpf4jnsgd1na2vs0mg"},{"bike_id":"6caa2f6d-ea64-412c-8a76-9ec478c2d6c5","system_id":"levelo_inurba_marseille","lat":43.25336,"lon":5.42181,"is_reserved":false,"is_disabled":false,"rental_uris":{"android":"levelo://app?vid=6caa2f6d-ea64-412c-8a76-9ec478c2d6c5","ios":"levelo://app?vid=6caa2f6d-ea64-412c-8a76-9ec478c2d6c5"},"vehicle_type_id":"4","last_reported":1761657800,"current_range_meters":5600,"station_id":"st_d2m65c5bi1j21697t3ng","pricing_plan_id":"cebpf4jnsgd1na2vs0mg"},{"bike_id":"8847af5d-c1ad-4d8d-a5c1-273c3b41c105","system_id":"levelo_inurba_marseille","lat":43.33017,"lon":5.3908,"is_reserved":false,"is_disabled":false,"rental_uris":{"android":"levelo://app?vid=8847af5d-c1ad-4d8d-a5c1-273c3b41c105","ios":"levelo://app?vid=8847af5d-c1ad-4d8d-a5c1-273c3b41c105"},"vehicle_type_id":"4","last_reported":1761657800,"current_range_meters":6000,"station_id":"ce4bhr92rcd13ifvqhrg","pricing_plan_id":"cebpf4jnsgd1na2vs0mg"},{"bike_id":"4ade9d83-f2d5-4d19-a54e-74fbd9ec2b53","system_id":"levelo_inurba_marseille","lat":43.31195,"lon":5.40092,"is_reserved":false,"is_disabled":false,"rental_uris":{"android":"levelo://app?vid=4ade9d83-f2d5-4d19-a54e-74fbd9ec2b53","ios":"levelo://app?vid=4ade9d83-f2d5-4d19-a54e-74fbd9ec2b53"},"vehicle_type_id":"4","last_reported":1761657800,"current_range_meters":6000,"station_id":"","pricing_plan_id":"cebpf4jnsgd1na2vs0mg"},{"bike_id":"d1f76c1d-d1d4-43dc-ad44-2a033155cae1","system_id":"levelo_inurba_marseille","lat":43.24172,"lon":5.39724,"is_reserved":false,"is_disabled":false,"rental_uris":{"android":"levelo://app?vid=d1f76c1d-d1d4-43dc-ad44-2a033155cae1","ios":"levelo://app?vid=d1f76c1d-d1d4-43dc-ad44-2a033155cae1"},"vehicle_type_id":"4","last_reported":1761657800,"current_range_meters":6400,"station_id":"ce4bhn12rcd13ifvqgpg","pricing_plan_id":"cebpf4jnsgd1na2vs0mg"},{"bike_id":"c5bb853f-d274-4eb2-b0f9-c9b5b41fea56","system_id":"levelo_inurba_marseille","lat":43.23145,"lon":5.43724,"is_reserved":false,"is_disabled":false,"rental_uris":{"android":"levelo://app?vid=c5bb853f-d274-4eb2-b0f9-c9b5b41fea56","ios":"levelo://app?vid=c5bb853f-d274-4eb2-b0f9-c9b5b41fea56"},"vehicle_type_id":"4","last_reported":1761657800,"current_range_meters":6400,"station_id":"ce4bhmp2rcd13ifvqgog","pricing_plan_id":"cebpf4jnsgd1na2vs0mg"},{"bike_id":"c4e8de52-3cd2-4e23-9dfe-ef71b9d6bebc","system_id":"levelo_inurba_marseille","lat":43.312256,"lon":5.368819,"is_reserved":false,"is_disabled":false,"rental_uris":{"android":"levelo://app?vid=c4e8de52-3cd2-4e23-9dfe-ef71b9d6bebc","ios":"levelo://app?vid=c4e8de52-3cd2-4e23-9dfe-ef71b9d6bebc"},"vehicle_type_id":"4","last_reported":1761657800,"current_range_meters":6400,"station_id":"ce4bgl92rcd13ifvqbq0","pricing_plan_id":"cebpf4jnsgd1na2vs0mg"},{"bike_id":"79d8a90d-44ae-43ee-aab9-4113d1b8f3b3","system_id":"levelo_inurba_marseille","lat":43.2794,"lon":5.41051,"is_reserved":false,"is_disabled":false,"rental_uris":{"android":"levelo://app?vid=79d8a90d-44ae-43ee-aab9-4113d1b8f3b3","ios":"levelo://app?vid=79d8a90d-44ae-43ee-aab9-4113d1b8f3b3"},"vehicle_type_id":"4","last_reported":1761657800,"current_range_meters":6400,"station_id":"ce4bhnp2rcd13ifvqh0g","pricing_plan_id":"cebpf4jnsgd1na2vs0mg"},{"bike_id":"b9430502-a795-45f0-9358-8aa029f70cf5","system_id":"levelo_inurba_marseille","lat":43.30463,"lon":5.37908,"is_reserved":false,"is_disabled":false,"rental_uris":{"android":"levelo://app?vid=b9430502-a795-45f0-9358-8aa029f70cf5","ios":"levelo://app?vid=b9430502-a795-45f0-9358-8aa029f70cf5"},"vehicle_type_id":"4","last_reported":1761657800,"current_range_meters":6400,"station_id":"ce4bgup2rcd13ifvqcn0","pricing_plan_id":"cebpf4jnsgd1na2vs0mg"},{"bike_id":"a183586c-5347-43fd-a11b-e67f57c87356","system_id":"levelo_inurba_marseille","lat":43.23965,"lon":5.3663,"is_reserved":false,"is_disabled":false,"rental_uris":{"android":"levelo://app?vid=a183586c-5347-43fd-a11b-e67f57c87356","ios":"levelo://app?vid=a183586c-5347-43fd-a11b-e67f57c87356"},"vehicle_type_id":"4","last_reported":1761657800,"current_range_meters":6400,"station_id":"ce4bhi12rcd13ifvqfp0","pricing_plan_id":"cebpf4jnsgd1na2vs0mg"},{"bike_id":"c4a6a5ab-f472-4bff-80e2-092ca4fca1a0","system_id":"levelo_inurba_marseille","lat":43.29517,"lon":5.39041,"is_reserved":false,"is_disabled":true,"rental_uris":{"android":"levelo://app?vid=c4a6a5ab-f472-4bff-80e2-092ca4fca1a0","ios":"levelo://app?vid=c4a6a5ab-f472-4bff-80e2-092ca4fca1a0"},"vehicle_type_id":"4","last_reported":1761657800,"current_range_meters":6800,"station_id":"ce4bh3p2rcd13ifvqdp0","pricing_plan_id":"cebpf4jnsgd1na2vs0mg"},{"bike_id":"03828e25-5d50-4e50-9746-54250b5fcf8c","system_id":"levelo_inurba_marseille","lat":43.2861,"lon":5.35103,"is_reserved":false,"is_disabled":false,"rental_uris":{"android":"levelo://app?vid=03828e25-5d50-4e50-9746-54250b5fcf8c","ios":"levelo://app?vid=03828e25-5d50-4e50-9746-54250b5fcf8c"},"vehicle_type_id":"4","last_reported":1761657800,"current_range_meters":6800,"station_id":"ce4bhch2rcd13ifvqeug","pricing_plan_id":"cebpf4jnsgd1na2vs0mg"},{"bike_id":"e7e08c2a-bbca-4677-9d65-17c8fa539b9f","system_id":"levelo_inurba_marseille","lat":43.27056,"lon":5.40272,"is_reserved":false,"is_disabled":false,"rental_uris":{"android":"levelo://app?vid=e7e08c2a-bbca-4677-9d65-17c8fa539b9f","ios":"levelo://app?vid=e7e08c2a-bbca-4677-9d65-17c8fa539b9f"},"vehicle_type_id":"4","last_reported":1761657800,"current_range_meters":6800,"station_id":"ce4bhk92rcd13ifvqgc0","pricing_plan_id":"cebpf4jnsgd1na2vs0mg"},{"bike_id":"aba6b563-5093-4f2c-abdc-45b501f05388","system_id":"levelo_inurba_marseille","lat":43.27064,"lon":5.38313,"is_reserved":false,"is_disabled":true,"rental_uris":{"android":"levelo://app?vid=aba6b563-5093-4f2c-abdc-45b501f05388","ios":"levelo://app?vid=aba6b563-5093-4f2c-abdc-45b501f05388"},"vehicle_type_id":"4","last_reported":1761657800,"current_range_meters":6800,"station_id":"st_d3n2fo6cfp8s73cte1j0","pricing_plan_id":"cebpf4jnsgd1na2vs0mg"},{"bike_id":"1cbc2e1d-b15b-4605-a97d-21fdec1fe0d9","system_id":"levelo_inurba_marseille","lat":43.28612,"lon":5.35078,"is_reserved":false,"is_disabled":false,"rental_uris":{"android":"levelo://app?vid=1cbc2e1d-b15b-4605-a97d-21fdec1fe0d9","ios":"levelo://app?vid=1cbc2e1d-b15b-4605-a97d-21fdec1fe0d9"},"vehicle_type_id":"4","last_reported":1761657800,"current_range_meters":7200,"station_id":"ce4bhch2rcd13ifvqeug","pricing_plan_id":"cebpf4jnsgd1na2vs0mg"},{"bike_id":"3df7f550-73b9-46e8-b2d5-899b231244e2","system_id":"levelo_inurba_marseille","lat":43.28478,"lon":5.38411,"is_reserved":false,"is_disabled":false,"rental_uris":{"android":"levelo://app?vid=3df7f550-73b9-46e8-b2d5-899b231244e2","ios":"levelo://app?vid=3df7f550-73b9-46e8-b2d5-899b231244e2"},"vehicle_type_id":"4","last_reported":1761657800,"current_range_meters":8000,"station_id":"ce4bh512rcd13ifvqe3g","pricing_plan_id":"cebpf4jnsgd1na2vs0mg"},{"bike_id":"9731ce69-981c-467b-a67b-0ab4a1920263","system_id":"levelo_inurba_marseille","lat":43.28255,"lon":5.35071,"is_reserved":false,"is_disabled":false,"rental_uris":{"android":"levelo://app?vid=9731ce69-981c-467b-a67b-0ab4a1920263","ios":"levelo://app?vid=9731ce69-981c-467b-a67b-0ab4a1920263"},"vehicle_type_id":"4","last_reported":1761657800,"current_range_meters":8000,"station_id":"ce4bhbp2rcd13ifvqerg","pricing_plan_id":"cebpf4jnsgd1na2vs0mg"},{"bike_id":"84628029-dffa-4cb1-9c2b-3fe911a25c81","system_id":"levelo_inurba_marseille","lat":43.25115,"lon":5.403216,"is_reserved":false,"is_disabled":false,"rental_uris":{"android":"levelo://app?vid=84628029-dffa-4cb1-9c2b-3fe911a25c81","ios":"levelo://app?vid=84628029-dffa-4cb1-9c2b-3fe911a25c81"},"vehicle_type_id":"4","last_reported":1761657800,"current_range_meters":8000,"station_id":"ce4bhlh2rcd13ifvqgig","pricing_plan_id":"cebpf4jnsgd1na2vs0mg"},{"bike_id":"324b30df-ea7c-4882-b77e-ad653f09e928","system_id":"levelo_inurba_marseille","lat":43.282645,"lon":5.350685,"is_reserved":false,"is_disabled":false,"rental_uris":{"android":"levelo://app?vid=324b30df-ea7c-4882-b77e-ad653f09e928","ios":"levelo://app?vid=324b30df-ea7c-4882-b77e-ad653f09e928"},"vehicle_type_id":"4","last_reported":1761657800,"current_range_meters":8000,"station_id":"ce4bhbp2rcd13ifvqerg","pricing_plan_id":"cebpf4jnsgd1na2vs0mg"},{"bike_id":"ce4af739-90fa-494a-80af-6571d93194d6","system_id":"levelo_inurba_marseille","lat":43.21747,"lon":5.34608,"is_reserved":false,"is_disabled":false,"rental_uris":{"android":"levelo://app?vid=ce4af739-90fa-494a-80af-6571d93194d6","ios":"levelo://app?vid=ce4af739-90fa-494a-80af-6571d93194d6"},"vehicle_type_id":"4","last_reported":1761657800,"current_range_meters":8000,"station_id":"st_cvj6r9ubvosntc0bgbag","pricing_plan_id":"cebpf4jnsgd1na2vs0mg"},{"bike_id":"8dd34e42-1926-4338-99dd-b837ab02750f","system_id":"levelo_inurba_marseille","lat":43.26487,"lon":5.39549,"is_reserved":false,"is_disabled":false,"rental_uris":{"android":"levelo://app?vid=8dd34e42-1926-4338-99dd-b837ab02750f","ios":"levelo://app?vid=8dd34e42-1926-4338-99dd-b837ab02750f"},"vehicle_type_id":"4","last_reported":1761657800,"current_range_meters":8400,"station_id":"ce4bhi12rcd13ifvqfq0","pricing_plan_id":"cebpf4jnsgd1na2vs0mg"},{"bike_id":"95560b5f-8ea8-4033-94ba-80ee0a78620c","system_id":"levelo_inurba_marseille","lat":43.30352,"lon":5.42504,"is_reserved":false,"is_disabled":false,"rental_uris":{"android":"levelo://app?vid=95560b5f-8ea8-4033-94ba-80ee0a78620c","ios":"levelo://app?vid=95560b5f-8ea8-4033-94ba-80ee0a78620c"},"vehicle_type_id":"4","last_reported":1761657800,"current_range_meters":8400,"station_id":"","pricing_plan_id":"cebpf4jnsgd1na2vs0mg"},{"bike_id":"db3e2648-1678-48fd-b16e-a4883db65fe7","system_id":"levelo_inurba_marseille","lat":43.294884,"lon":5.433023,"is_reserved":false,"is_disabled":false,"rental_uris":{"android":"levelo://app?vid=db3e2648-1678-48fd-b16e-a4883db65fe7","ios":"levelo://app?vid=db3e2648-1678-48fd-b16e-a4883db65fe7"},"vehicle_type_id":"4","last_reported":1761657800,"current_range_meters":8800,"station_id":"st_d3j5ugp08ojc73fj9d10","pricing_plan_id":"cebpf4jnsgd1na2vs0mg"},{"bike_id":"bbbf3dbb-fbe2-4b7e-bfad-c027ca4e1c25","system_id":"levelo_inurba_marseille","lat":43.28473,"lon":5.484,"is_reserved":false,"is_disabled":false,"rental_uris":{"android":"levelo://app?vid=bbbf3dbb-fbe2-4b7e-bfad-c027ca4e1c25","ios":"levelo://app?vid=bbbf3dbb-fbe2-4b7e-bfad-c027ca4e1c25"},"vehicle_type_id":"4","last_reported":1761657800,"current_range_meters":8800,"station_id":"st_d3svhcjqgbts73a3dn0g","pricing_plan_id":"cebpf4jnsgd1na2vs0mg"},{"bike_id":"acee65c5-d1cb-4bf2-8938-c5892470f21f","system_id":"levelo_inurba_marseille","lat":43.302968,"lon":5.377855,"is_reserved":false,"is_disabled":false,"rental_uris":{"android":"levelo://app?vid=acee65c5-d1cb-4bf2-8938-c5892470f21f","ios":"levelo://app?vid=acee65c5-d1cb-4bf2-8938-c5892470f21f"},"vehicle_type_id":"4","last_reported":1761657800,"current_range_meters":8800,"station_id":"ce4bguh2rcd13ifvqcj0","pricing_plan_id":"cebpf4jnsgd1na2vs0mg"},{"bike_id":"3de9eaf3-d1c9-44ef-8966-8fcf5b8321c0","system_id":"levelo_inurba_marseille","lat":43.31072,"lon":5.38356,"is_reserved":false,"is_disabled":false,"rental_uris":{"android":"levelo://app?vid=3de9eaf3-d1c9-44ef-8966-8fcf5b8321c0","ios":"levelo://app?vid=3de9eaf3-d1c9-44ef-8966-8fcf5b8321c0"},"vehicle_type_id":"4","last_reported":1761657800,"current_range_meters":8800,"station_id":"ce4bgv92rcd13ifvqcr0","pricing_plan_id":"cebpf4jnsgd1na2vs0mg"},{"bike_id":"f5adc0f6-8f78-420c-a3cc-2381696afa4a","system_id":"levelo_inurba_marseille","lat":43.28861,"lon":5.42523,"is_reserved":false,"is_disabled":true,"rental_uris":{"android":"levelo://app?vid=f5adc0f6-8f78-420c-a3cc-2381696afa4a","ios":"levelo://app?vid=f5adc0f6-8f78-420c-a3cc-2381696afa4a"},"vehicle_type_id":"4","last_reported":1761657800,"current_range_meters":8800,"station_id":"st_d3b462108ojc7389ooeg","pricing_plan_id":"cebpf4jnsgd1na2vs0mg"},{"bike_id":"b5733d8b-34ae-4650-897a-d0cd9cf8ff28","system_id":"levelo_inurba_marseille","lat":43.29356,"lon":5.37827,"is_reserved":false,"is_disabled":false,"rental_uris":{"android":"levelo://app?vid=b5733d8b-34ae-4650-897a-d0cd9cf8ff28","ios":"levelo://app?vid=b5733d8b-34ae-4650-897a-d0cd9cf8ff28"},"vehicle_type_id":"4","last_reported":1761657800,"current_range_meters":8800,"station_id":"ce4bgjh2rcd13ifvqbf0","pricing_plan_id":"cebpf4jnsgd1na2vs0mg"},{"bike_id":"a8e7fee9-4b47-487f-aa96-53bac735c567","system_id":"levelo_inurba_marseille","lat":43.29844,"lon":5.36278,"is_reserved":false,"is_disabled":false,"rental_uris":{"android":"levelo://app?vid=a8e7fee9-4b47-487f-aa96-53bac735c567","ios":"levelo://app?vid=a8e7fee9-4b47-487f-aa96-53bac735c567"},"vehicle_type_id":"4","last_reported":1761657800,"current_range_meters":8800,"station_id":"ce4bgpp2rcd13ifvqc3g","pricing_plan_id":"cebpf4jnsgd1na2vs0mg"},{"bike_id":"d8df4170-d7a3-4084-bb24-138e07946e83","system_id":"levelo_inurba_marseille","lat":43.29773,"lon":5.37102,"is_reserved":false,"is_disabled":false,"rental_uris":{"android":"levelo://app?vid=d8df4170-d7a3-4084-bb24-138e07946e83","ios":"levelo://app?vid=d8df4170-d7a3-4084-bb24-138e07946e83"},"vehicle_type_id":"4","last_reported":1761657800,"current_range_meters":8800,"station_id":"ce4bgop2rcd13ifvqc1g","pricing_plan_id":"cebpf4jnsgd1na2vs0mg"},{"bike_id":"35ab1813-0477-4d0f-a308-1c152a4f0f9f","system_id":"levelo_inurba_marseille","lat":43.32656,"lon":5.40995,"is_reserved":false,"is_disabled":false,"rental_uris":{"android":"levelo://app?vid=35ab1813-0477-4d0f-a308-1c152a4f0f9f","ios":"levelo://app?vid=35ab1813-0477-4d0f-a308-1c152a4f0f9f"},"vehicle_type_id":"4","last_reported":1761657800,"current_range_meters":9200,"station_id":"ce4bhpp2rcd13ifvqhgg","pricing_plan_id":"cebpf4jnsgd1na2vs0mg"},{"bike_id":"66ea0923-034a-425c-aeb0-ab9d3ebec737","system_id":"levelo_inurba_marseille","lat":43.278747,"lon":5.380007,"is_reserved":false,"is_disabled":false,"rental_uris":{"android":"levelo://app?vid=66ea0923-034a-425c-aeb0-ab9d3ebec737","ios":"levelo://app?vid=66ea0923-034a-425c-aeb0-ab9d3ebec737"},"vehicle_type_id":"4","last_reported":1761657800,"current_range_meters":9200,"station_id":"ce4bhf92rcd13ifvqf50","pricing_plan_id":"cebpf4jnsgd1na2vs0mg"},{"bike_id":"eea3c3c3-734f-4fd3-8061-ed84cfe47b38","system_id":"levelo_inurba_marseille","lat":43.3256,"lon":5.3914,"is_reserved":false,"is_disabled":false,"rental_uris":{"android":"levelo://app?vid=eea3c3c3-734f-4fd3-8061-ed84cfe47b38","ios":"levelo://app?vid=eea3c3c3-734f-4fd3-8061-ed84cfe47b38"},"vehicle_type_id":"4","last_reported":1761657800,"current_range_meters":9200,"station_id":"","pricing_plan_id":"cebpf4jnsgd1na2vs0mg"},{"bike_id":"b3241da2-f8bb-47f5-a1fb-added95072c1","system_id":"levelo_inurba_marseille","lat":43.253371,"lon":5.421779,"is_reserved":false,"is_disabled":false,"rental_uris":{"android":"levelo://app?vid=b3241da2-f8bb-47f5-a1fb-added95072c1","ios":"levelo://app?vid=b3241da2-f8bb-47f5-a1fb-added95072c1"},"vehicle_type_id":"4","last_reported":1761657800,"current_range_meters":9200,"station_id":"st_d2m65c5bi1j21697t3ng","pricing_plan_id":"cebpf4jnsgd1na2vs0mg"},{"bike_id":"709766ee-f04b-4d29-ac1b-5e3348ac5d8b","system_id":"levelo_inurba_marseille","lat":43.27053,"lon":5.40274,"is_reserved":false,"is_disabled":false,"rental_uris":{"android":"levelo://app?vid=709766ee-f04b-4d29-ac1b-5e3348ac5d8b","ios":"levelo://app?vid=709766ee-f04b-4d29-ac1b-5e3348ac5d8b"},"vehicle_type_id":"4","last_reported":1761657800,"current_range_meters":9200,"station_id":"ce4bhk92rcd13ifvqgc0","pricing_plan_id":"cebpf4jnsgd1na2vs0mg"},{"bike_id":"b20e62a2-3026-49d5-ae80-3020d9d91cb0","system_id":"levelo_inurba_marseille","lat":43.29931,"lon":5.36546,"is_reserved":false,"is_disabled":false,"rental_uris":{"android":"levelo://app?vid=b20e62a2-3026-49d5-ae80-3020d9d91cb0","ios":"levelo://app?vid=b20e62a2-3026-49d5-ae80-3020d9d91cb0"},"vehicle_type_id":"4","last_reported":1761657800,"current_range_meters":9600,"station_id":"ce4bgm92rcd13ifvqbr0","pricing_plan_id":"cebpf4jnsgd1na2vs0mg"},{"bike_id":"1a56823a-991b-4f16-9a76-0fb69850a0a8","system_id":"levelo_inurba_marseille","lat":43.30544,"lon":5.36551,"is_reserved":false,"is_disabled":false,"rental_uris":{"android":"levelo://app?vid=1a56823a-991b-4f16-9a76-0fb69850a0a8","ios":"levelo://app?vid=1a56823a-991b-4f16-9a76-0fb69850a0a8"},"vehicle_type_id":"4","last_reported":1761657800,"current_range_meters":9600,"station_id":"ce4bgs12rcd13ifvqcag","pricing_plan_id":"cebpf4jnsgd1na2vs0mg"},{"bike_id":"71fe0d6a-f99e-45a0-9c75-e294b78524b2","system_id":"levelo_inurba_marseille","lat":43.230569,"lon":5.35496,"is_reserved":false,"is_disabled":false,"rental_uris":{"android":"levelo://app?vid=71fe0d6a-f99e-45a0-9c75-e294b78524b2","ios":"levelo://app?vid=71fe0d6a-f99e-45a0-9c75-e294b78524b2"},"vehicle_type_id":"4","last_reported":1761657800,"current_range_meters":9600,"station_id":"cpo3342slgdg3j2ifvpg","pricing_plan_id":"cebpf4jnsgd1na2vs0mg"},{"bike_id":"aa5b1d8b-20e7-4441-963d-a37d782ea6dc","system_id":"levelo_inurba_marseille","lat":43.24989,"lon":5.38941,"is_reserved":false,"is_disabled":false,"rental_uris":{"android":"levelo://app?vid=aa5b1d8b-20e7-4441-963d-a37d782ea6dc","ios":"levelo://app?vid=aa5b1d8b-20e7-4441-963d-a37d782ea6dc"},"vehicle_type_id":"4","last_reported":1761657800,"current_range_meters":9600,"station_id":"ce4bhgp2rcd13ifvqfd0","pricing_plan_id":"cebpf4jnsgd1na2vs0mg"},{"bike_id":"c84500cf-4452-45b3-8aa1-1208f79b9845","system_id":"levelo_inurba_marseille","lat":43.286114,"lon":5.351131,"is_reserved":false,"is_disabled":false,"rental_uris":{"android":"levelo://app?vid=c84500cf-4452-45b3-8aa1-1208f79b9845","ios":"levelo://app?vid=c84500cf-4452-45b3-8aa1-1208f79b9845"},"vehicle_type_id":"4","last_reported":1761657800,"current_range_meters":10000,"station_id":"ce4bhch2rcd13ifvqeug","pricing_plan_id":"cebpf4jnsgd1na2vs0mg"},{"bike_id":"8062c369-ff3b-4a48-b2ef-d270e82c4cf4","system_id":"levelo_inurba_marseille","lat":43.230569,"lon":5.354919,"is_reserved":false,"is_disabled":false,"rental_uris":{"android":"levelo://app?vid=8062c369-ff3b-4a48-b2ef-d270e82c4cf4","ios":"levelo://app?vid=8062c369-ff3b-4a48-b2ef-d270e82c4cf4"},"vehicle_type_id":"4","last_reported":1761657800,"current_range_meters":10000,"station_id":"cpo3342slgdg3j2ifvpg","pricing_plan_id":"cebpf4jnsgd1na2vs0mg"},{"bike_id":"f9484733-c07f-4293-8628-46871c65b913","system_id":"levelo_inurba_marseille","lat":43.25456,"lon":5.38104,"is_reserved":false,"is_disabled":false,"rental_uris":{"android":"levelo://app?vid=f9484733-c07f-4293-8628-46871c65b913","ios":"levelo://app?vid=f9484733-c07f-4293-8628-46871c65b913"},"vehicle_type_id":"4","last_reported":1761657800,"current_range_meters":10000,"station_id":"","pricing_plan_id":"cebpf4jnsgd1na2vs0mg"},{"bike_id":"d23bf304-8579-4071-b2a4-61dc68f83575","system_id":"levelo_inurba_marseille","lat":43.23057,"lon":5.35498,"is_reserved":false,"is_disabled":false,"rental_uris":{"android":"levelo://app?vid=d23bf304-8579-4071-b2a4-61dc68f83575","ios":"levelo://app?vid=d23bf304-8579-4071-b2a4-61dc68f83575"},"vehicle_type_id":"4","last_reported":1761657800,"current_range_meters":10000,"station_id":"cpo3342slgdg3j2ifvpg","pricing_plan_id":"cebpf4jnsgd1na2vs0mg"},{"bike_id":"8b281b6b-0add-42e1-ad10-eae89f0db3a0","system_id":"levelo_inurba_marseille","lat":43.2679,"lon":5.39413,"is_reserved":false,"is_disabled":false,"rental_uris":{"android":"levelo://app?vid=8b281b6b-0add-42e1-ad10-eae89f0db3a0","ios":"levelo://app?vid=8b281b6b-0add-42e1-ad10-eae89f0db3a0"},"vehicle_type_id":"4","last_reported":1761657800,"current_range_meters":10000,"station_id":"ce4bhh12rcd13ifvqfg0","pricing_plan_id":"cebpf4jnsgd1na2vs0mg"},{"bike_id":"f3673a60-efd2-465f-aa18-cb0baaf105f7","system_id":"levelo_inurba_marseille","lat":43.31034,"lon":5.40093,"is_reserved":false,"is_disabled":false,"rental_uris":{"android":"levelo://app?vid=f3673a60-efd2-465f-aa18-cb0baaf105f7","ios":"levelo://app?vid=f3673a60-efd2-465f-aa18-cb0baaf105f7"},"vehicle_type_id":"4","last_reported":1761657800,"current_range_meters":10000,"station_id":"","pricing_plan_id":"cebpf4jnsgd1na2vs0mg"},{"bike_id":"aae2869b-900b-4e16-b51e-3b91a63279e4","system_id":"levelo_inurba_marseille","lat":43.32365,"lon":5.38882,"is_reserved":false,"is_disabled":false,"rental_uris":{"android":"levelo://app?vid=aae2869b-900b-4e16-b51e-3b91a63279e4","ios":"levelo://app?vid=aae2869b-900b-4e16-b51e-3b91a63279e4"},"vehicle_type_id":"4","last_reported":1761657800,"current_range_meters":10000,"station_id":"ce4bhqp2rcd13ifvqhog","pricing_plan_id":"cebpf4jnsgd1na2vs0mg"},{"bike_id":"1880ebb9-7edb-463e-976b-226e958b9ebe","system_id":"levelo_inurba_marseille","lat":43.31097,"lon":5.37487,"is_reserved":false,"is_disabled":false,"rental_uris":{"android":"levelo://app?vid=1880ebb9-7edb-463e-976b-226e958b9ebe","ios":"levelo://app?vid=1880ebb9-7edb-463e-976b-226e958b9ebe"},"vehicle_type_id":"4","last_reported":1761657800,"current_range_meters":10800,"station_id":"ce4bgt12rcd13ifvqce0","pricing_plan_id":"cebpf4jnsgd1na2vs0mg"},{"bike_id":"c896b697-d7c3-47ea-81cb-50811f76c96f","system_id":"levelo_inurba_marseille","lat":43.25085,"lon":5.39527,"is_reserved":false,"is_disabled":false,"rental_uris":{"android":"levelo://app?vid=c896b697-d7c3-47ea-81cb-50811f76c96f","ios":"levelo://app?vid=c896b697-d7c3-47ea-81cb-50811f76c96f"},"vehicle_type_id":"4","last_reported":1761657800,"current_range_meters":10800,"station_id":"ce4bhm12rcd13ifvqgkg","pricing_plan_id":"cebpf4jnsgd1na2vs0mg"},{"bike_id":"d840e009-d66a-4263-964b-f2c1c855217d","system_id":"levelo_inurba_marseille","lat":43.297527,"lon":5.427803,"is_reserved":false,"is_disabled":false,"rental_uris":{"android":"levelo://app?vid=d840e009-d66a-4263-964b-f2c1c855217d","ios":"levelo://app?vid=d840e009-d66a-4263-964b-f2c1c855217d"},"vehicle_type_id":"4","last_reported":1761657800,"current_range_meters":10800,"station_id":"st_d3md5207bmas73dh9klg","pricing_plan_id":"cebpf4jnsgd1na2vs0mg"},{"bike_id":"d94806bd-d31d-4b00-ad3b-2b71edb174ca","system_id":"levelo_inurba_marseille","lat":43.24386,"lon":5.37057,"is_reserved":false,"is_disabled":false,"rental_uris":{"android":"levelo://app?vid=d94806bd-d31d-4b00-ad3b-2b71edb174ca","ios":"levelo://app?vid=d94806bd-d31d-4b00-ad3b-2b71edb174ca"},"vehicle_type_id":"4","last_reported":1761657800,"current_range_meters":11200,"station_id":"ce4bhhh2rcd13ifvqfk0","pricing_plan_id":"cebpf4jnsgd1na2vs0mg"},{"bike_id":"dbcbcef0-4b5f-446e-9d2e-80d991993c2b","system_id":"levelo_inurba_marseille","lat":43.29535,"lon":5.4024,"is_reserved":false,"is_disabled":false,"rental_uris":{"android":"levelo://app?vid=dbcbcef0-4b5f-446e-9d2e-80d991993c2b","ios":"levelo://app?vid=dbcbcef0-4b5f-446e-9d2e-80d991993c2b"},"vehicle_type_id":"4","last_reported":1761657800,"current_range_meters":11200,"station_id":"","pricing_plan_id":"cebpf4jnsgd1na2vs0mg"},{"bike_id":"9fd285d9-8a07-4803-865f-56673cf834f4","system_id":"levelo_inurba_marseille","lat":43.30226,"lon":5.36542,"is_reserved":false,"is_disabled":false,"rental_uris":{"android":"levelo://app?vid=9fd285d9-8a07-4803-865f-56673cf834f4","ios":"levelo://app?vid=9fd285d9-8a07-4803-865f-56673cf834f4"},"vehicle_type_id":"4","last_reported":1761657800,"current_range_meters":11200,"station_id":"ce4bgrh2rcd13ifvqc8g","pricing_plan_id":"cebpf4jnsgd1na2vs0mg"},{"bike_id":"4bf9d265-8b82-4e6d-af96-57b56fdfaed3","system_id":"levelo_inurba_marseille","lat":43.29755,"lon":5.42781,"is_reserved":false,"is_disabled":false,"rental_uris":{"android":"levelo://app?vid=4bf9d265-8b82-4e6d-af96-57b56fdfaed3","ios":"levelo://app?vid=4bf9d265-8b82-4e6d-af96-57b56fdfaed3"},"vehicle_type_id":"4","last_reported":1761657800,"current_range_meters":11600,"station_id":"st_d3md5207bmas73dh9klg","pricing_plan_id":"cebpf4jnsgd1na2vs0mg"},{"bike_id":"82a1d2f2-64a9-4186-91e0-3bb6596a849e","system_id":"levelo_inurba_marseille","lat":43.28405,"lon":5.35001,"is_reserved":false,"is_disabled":false,"rental_uris":{"android":"levelo://app?vid=82a1d2f2-64a9-4186-91e0-3bb6596a849e","ios":"levelo://app?vid=82a1d2f2-64a9-4186-91e0-3bb6596a849e"},"vehicle_type_id":"4","last_reported":1761657800,"current_range_meters":11600,"station_id":"ce4bhbh2rcd13ifvqepg","pricing_plan_id":"cebpf4jnsgd1na2vs0mg"},{"bike_id":"d54f762a-cbdb-44aa-9c15-011e4d4fd3ca","system_id":"levelo_inurba_marseille","lat":43.30142,"lon":5.37426,"is_reserved":false,"is_disabled":false,"rental_uris":{"android":"levelo://app?vid=d54f762a-cbdb-44aa-9c15-011e4d4fd3ca","ios":"levelo://app?vid=d54f762a-cbdb-44aa-9c15-011e4d4fd3ca"},"vehicle_type_id":"4","last_reported":1761657800,"current_range_meters":11600,"station_id":"ce4bgs92rcd13ifvqcc0","pricing_plan_id":"cebpf4jnsgd1na2vs0mg"},{"bike_id":"69930069-e70d-492f-864f-9204a708fb20","system_id":"levelo_inurba_marseille","lat":43.26781,"lon":5.39418,"is_reserved":false,"is_disabled":false,"rental_uris":{"android":"levelo://app?vid=69930069-e70d-492f-864f-9204a708fb20","ios":"levelo://app?vid=69930069-e70d-492f-864f-9204a708fb20"},"vehicle_type_id":"4","last_reported":1761657800,"current_range_meters":11600,"station_id":"ce4bhh12rcd13ifvqfg0","pricing_plan_id":"cebpf4jnsgd1na2vs0mg"},{"bike_id":"7b1b6fda-acbf-4bcc-9c4e-eb02a7bb672a","system_id":"levelo_inurba_marseille","lat":43.24161,"lon":5.36395,"is_reserved":false,"is_disabled":false,"rental_uris":{"android":"levelo://app?vid=7b1b6fda-acbf-4bcc-9c4e-eb02a7bb672a","ios":"levelo://app?vid=7b1b6fda-acbf-4bcc-9c4e-eb02a7bb672a"},"vehicle_type_id":"4","last_reported":1761657800,"current_range_meters":12000,"station_id":"cpo36qri1sfpv3e86is0","pricing_plan_id":"cebpf4jnsgd1na2vs0mg"},{"bike_id":"6c6185f9-114c-4b6e-9eb7-2e47566011fc","system_id":"levelo_inurba_marseille","lat":43.27203,"lon":5.39176,"is_reserved":false,"is_disabled":false,"rental_uris":{"android":"levelo://app?vid=6c6185f9-114c-4b6e-9eb7-2e47566011fc","ios":"levelo://app?vid=6c6185f9-114c-4b6e-9eb7-2e47566011fc"},"vehicle_type_id":"4","last_reported":1761657800,"current_range_meters":12000,"station_id":"ce4bhhp2rcd13ifvqfm0","pricing_plan_id":"cebpf4jnsgd1na2vs0mg"},{"bike_id":"3b82aff6-7cb9-43aa-944c-0f02fe4ef9fa","system_id":"levelo_inurba_marseille","lat":43.27956,"lon":5.38731,"is_reserved":false,"is_disabled":true,"rental_uris":{"android":"levelo://app?vid=3b82aff6-7cb9-43aa-944c-0f02fe4ef9fa","ios":"levelo://app?vid=3b82aff6-7cb9-43aa-944c-0f02fe4ef9fa"},"vehicle_type_id":"4","last_reported":1761657800,"current_range_meters":12000,"station_id":"ce4bhg12rcd13ifvqf80","pricing_plan_id":"cebpf4jnsgd1na2vs0mg"},{"bike_id":"9eb27e8b-0951-4c08-8214-6e629081e2a3","system_id":"levelo_inurba_marseille","lat":43.24168,"lon":5.36411,"is_reserved":false,"is_disabled":false,"rental_uris":{"android":"levelo://app?vid=9eb27e8b-0951-4c08-8214-6e629081e2a3","ios":"levelo://app?vid=9eb27e8b-0951-4c08-8214-6e629081e2a3"},"vehicle_type_id":"4","last_reported":1761657800,"current_range_meters":12000,"station_id":"cpo36qri1sfpv3e86is0","pricing_plan_id":"cebpf4jnsgd1na2vs0mg"},{"bike_id":"6abb9e09-33f3-43f3-9417-8cc0cf0144f6","system_id":"levelo_inurba_marseille","lat":43.29903,"lon":5.37462,"is_reserved":false,"is_disabled":true,"rental_uris":{"android":"levelo://app?vid=6abb9e09-33f3-43f3-9417-8cc0cf0144f6","ios":"levelo://app?vid=6abb9e09-33f3-43f3-9417-8cc0cf0144f6"},"vehicle_type_id":"4","last_reported":1761657800,"current_range_meters":12000,"station_id":"ce4bgjh2rcd13ifvqbg0","pricing_plan_id":"cebpf4jnsgd1na2vs0mg"},{"bike_id":"9f19e62a-755c-4ffe-97c2-7dd30a6077fa","system_id":"levelo_inurba_marseille","lat":43.29371,"lon":5.37857,"is_reserved":false,"is_disabled":false,"rental_uris":{"android":"levelo://app?vid=9f19e62a-755c-4ffe-97c2-7dd30a6077fa","ios":"levelo://app?vid=9f19e62a-755c-4ffe-97c2-7dd30a6077fa"},"vehicle_type_id":"4","last_reported":1761657800,"current_range_meters":12400,"station_id":"ce4bgjh2rcd13ifvqbf0","pricing_plan_id":"cebpf4jnsgd1na2vs0mg"},{"bike_id":"b5e5ca93-bac9-4e3e-90fd-2ab20ee6702f","system_id":"levelo_inurba_marseille","lat":43.217372,"lon":5.346084,"is_reserved":false,"is_disabled":false,"rental_uris":{"android":"levelo://app?vid=b5e5ca93-bac9-4e3e-90fd-2ab20ee6702f","ios":"levelo://app?vid=b5e5ca93-bac9-4e3e-90fd-2ab20ee6702f"},"vehicle_type_id":"4","last_reported":1761657800,"current_range_meters":12400,"station_id":"st_cvj6r9ubvosntc0bgbag","pricing_plan_id":"cebpf4jnsgd1na2vs0mg"},{"bike_id":"5db38c72-d0bc-4f6f-a6e0-84e775443c28","system_id":"levelo_inurba_marseille","lat":43.295227,"lon":5.390511,"is_reserved":false,"is_disabled":false,"rental_uris":{"android":"levelo://app?vid=5db38c72-d0bc-4f6f-a6e0-84e775443c28","ios":"levelo://app?vid=5db38c72-d0bc-4f6f-a6e0-84e775443c28"},"vehicle_type_id":"4","last_reported":1761657800,"current_range_meters":12400,"station_id":"ce4bh3p2rcd13ifvqdp0","pricing_plan_id":"cebpf4jnsgd1na2vs0mg"},{"bike_id":"e1312b22-c311-461d-8a8b-e352a74dbad9","system_id":"levelo_inurba_marseille","lat":43.27199,"lon":5.39177,"is_reserved":false,"is_disabled":false,"rental_uris":{"android":"levelo://app?vid=e1312b22-c311-461d-8a8b-e352a74dbad9","ios":"levelo://app?vid=e1312b22-c311-461d-8a8b-e352a74dbad9"},"vehicle_type_id":"4","last_reported":1761657800,"current_range_meters":12400,"station_id":"ce4bhhp2rcd13ifvqfm0","pricing_plan_id":"cebpf4jnsgd1na2vs0mg"},{"bike_id":"fe7446d6-e79b-4cea-a26d-f0b0ca54a597","system_id":"levelo_inurba_marseille","lat":43.217516,"lon":5.346139,"is_reserved":false,"is_disabled":false,"rental_uris":{"android":"levelo://app?vid=fe7446d6-e79b-4cea-a26d-f0b0ca54a597","ios":"levelo://app?vid=fe7446d6-e79b-4cea-a26d-f0b0ca54a597"},"vehicle_type_id":"4","last_reported":1761657800,"current_range_meters":12800,"station_id":"","pricing_plan_id":"cebpf4jnsgd1na2vs0mg"},{"bike_id":"41e5e4f2-44dd-4c18-8344-1b66a6f1c8d9","system_id":"levelo_inurba_marseille","lat":43.23784,"lon":5.36631,"is_reserved":false,"is_disabled":false,"rental_uris":{"android":"levelo://app?vid=41e5e4f2-44dd-4c18-8344-1b66a6f1c8d9","ios":"levelo://app?vid=41e5e4f2-44dd-4c18-8344-1b66a6f1c8d9"},"vehicle_type_id":"4","last_reported":1761657800,"current_range_meters":12800,"station_id":"st_d3nk18o9ro0c73en2l3g","pricing_plan_id":"cebpf4jnsgd1na2vs0mg"},{"bike_id":"d7b556e6-ac3d-4fe4-b136-c7cd05c756e3","system_id":"levelo_inurba_marseille","lat":43.23064,"lon":5.35487,"is_reserved":false,"is_disabled":false,"rental_uris":{"android":"levelo://app?vid=d7b556e6-ac3d-4fe4-b136-c7cd05c756e3","ios":"levelo://app?vid=d7b556e6-ac3d-4fe4-b136-c7cd05c756e3"},"vehicle_type_id":"4","last_reported":1761657800,"current_range_meters":12800,"station_id":"cpo3342slgdg3j2ifvpg","pricing_plan_id":"cebpf4jnsgd1na2vs0mg"},{"bike_id":"d5ca831f-8041-403e-ada8-7b4196c3d5be","system_id":"levelo_inurba_marseille","lat":43.293714,"lon":5.379385,"is_reserved":false,"is_disabled":false,"rental_uris":{"android":"levelo://app?vid=d5ca831f-8041-403e-ada8-7b4196c3d5be","ios":"levelo://app?vid=d5ca831f-8041-403e-ada8-7b4196c3d5be"},"vehicle_type_id":"4","last_reported":1761657800,"current_range_meters":12800,"station_id":"","pricing_plan_id":"cebpf4jnsgd1na2vs0mg"},{"bike_id":"2456b005-c34c-4aee-9f79-1101a681a09d","system_id":"levelo_inurba_marseille","lat":43.27809,"lon":5.40714,"is_reserved":false,"is_disabled":false,"rental_uris":{"android":"levelo://app?vid=2456b005-c34c-4aee-9f79-1101a681a09d","ios":"levelo://app?vid=2456b005-c34c-4aee-9f79-1101a681a09d"},"vehicle_type_id":"4","last_reported":1761657800,"current_range_meters":12800,"station_id":"ce4bhnh2rcd13ifvqgtg","pricing_plan_id":"cebpf4jnsgd1na2vs0mg"},{"bike_id":"897d1025-cdde-48ec-9b73-6418bafdbbc5","system_id":"levelo_inurba_marseille","lat":43.28062,"lon":5.34772,"is_reserved":false,"is_disabled":false,"rental_uris":{"android":"levelo://app?vid=897d1025-cdde-48ec-9b73-6418bafdbbc5","ios":"levelo://app?vid=897d1025-cdde-48ec-9b73-6418bafdbbc5"},"vehicle_type_id":"4","last_reported":1761657800,"current_range_meters":12800,"station_id":"","pricing_plan_id":"cebpf4jnsgd1na2vs0mg"},{"bike_id":"f0d949c7-e28e-4a59-acc4-e6ebf7ffe49e","system_id":"levelo_inurba_marseille","lat":43.30601,"lon":5.37216,"is_reserved":false,"is_disabled":false,"rental_uris":{"android":"levelo://app?vid=f0d949c7-e28e-4a59-acc4-e6ebf7ffe49e","ios":"levelo://app?vid=f0d949c7-e28e-4a59-acc4-e6ebf7ffe49e"},"vehicle_type_id":"4","last_reported":1761657800,"current_range_meters":12800,"station_id":"ce4bgqh2rcd13ifvqc4g","pricing_plan_id":"cebpf4jnsgd1na2vs0mg"},{"bike_id":"dccef0b1-edb3-49b5-866c-43e10e5763cc","system_id":"levelo_inurba_marseille","lat":43.28877,"lon":5.43778,"is_reserved":false,"is_disabled":false,"rental_uris":{"android":"levelo://app?vid=dccef0b1-edb3-49b5-866c-43e10e5763cc","ios":"levelo://app?vid=dccef0b1-edb3-49b5-866c-43e10e5763cc"},"vehicle_type_id":"4","last_reported":1761657800,"current_range_meters":13600,"station_id":"","pricing_plan_id":"cebpf4jnsgd1na2vs0mg"},{"bike_id":"da1ab5c2-f93c-4e38-ab02-3398697b4587","system_id":"levelo_inurba_marseille","lat":43.24386,"lon":5.37055,"is_reserved":false,"is_disabled":false,"rental_uris":{"android":"levelo://app?vid=da1ab5c2-f93c-4e38-ab02-3398697b4587","ios":"levelo://app?vid=da1ab5c2-f93c-4e38-ab02-3398697b4587"},"vehicle_type_id":"4","last_reported":1761657800,"current_range_meters":13600,"station_id":"ce4bhhh2rcd13ifvqfk0","pricing_plan_id":"cebpf4jnsgd1na2vs0mg"},{"bike_id":"346d6f79-04b0-4e22-920d-e52df028ef66","system_id":"levelo_inurba_marseille","lat":43.23969,"lon":5.36633,"is_reserved":false,"is_disabled":false,"rental_uris":{"android":"levelo://app?vid=346d6f79-04b0-4e22-920d-e52df028ef66","ios":"levelo://app?vid=346d6f79-04b0-4e22-920d-e52df028ef66"},"vehicle_type_id":"4","last_reported":1761657800,"current_range_meters":13600,"station_id":"ce4bhi12rcd13ifvqfp0","pricing_plan_id":"cebpf4jnsgd1na2vs0mg"},{"bike_id":"2e29e5d5-f02d-4370-b8c2-460ebc9602c5","system_id":"levelo_inurba_marseille","lat":43.27054,"lon":5.40263,"is_reserved":false,"is_disabled":false,"rental_uris":{"android":"levelo://app?vid=2e29e5d5-f02d-4370-b8c2-460ebc9602c5","ios":"levelo://app?vid=2e29e5d5-f02d-4370-b8c2-460ebc9602c5"},"vehicle_type_id":"4","last_reported":1761657800,"current_range_meters":13600,"station_id":"ce4bhk92rcd13ifvqgc0","pricing_plan_id":"cebpf4jnsgd1na2vs0mg"},{"bike_id":"473d573e-3467-44c2-9df3-75a9f385194e","system_id":"levelo_inurba_marseille","lat":43.2936,"lon":5.37837,"is_reserved":false,"is_disabled":false,"rental_uris":{"android":"levelo://app?vid=473d573e-3467-44c2-9df3-75a9f385194e","ios":"levelo://app?vid=473d573e-3467-44c2-9df3-75a9f385194e"},"vehicle_type_id":"4","last_reported":1761657800,"current_range_meters":13600,"station_id":"ce4bgjh2rcd13ifvqbf0","pricing_plan_id":"cebpf4jnsgd1na2vs0mg"},{"bike_id":"1fd266e2-e6c9-4a7e-8908-3af2fd2d0233","system_id":"levelo_inurba_marseille","lat":43.23795,"lon":5.36409,"is_reserved":false,"is_disabled":false,"rental_uris":{"android":"levelo://app?vid=1fd266e2-e6c9-4a7e-8908-3af2fd2d0233","ios":"levelo://app?vid=1fd266e2-e6c9-4a7e-8908-3af2fd2d0233"},"vehicle_type_id":"4","last_reported":1761657800,"current_range_meters":13600,"station_id":"","pricing_plan_id":"cebpf4jnsgd1na2vs0mg"},{"bike_id":"0954906c-101c-4476-a985-e1b43801b267","system_id":"levelo_inurba_marseille","lat":43.22561,"lon":5.41626,"is_reserved":false,"is_disabled":false,"rental_uris":{"android":"levelo://app?vid=0954906c-101c-4476-a985-e1b43801b267","ios":"levelo://app?vid=0954906c-101c-4476-a985-e1b43801b267"},"vehicle_type_id":"4","last_reported":1761657800,"current_range_meters":13600,"station_id":"st_d2o4gvlbi1j2169b742g","pricing_plan_id":"cebpf4jnsgd1na2vs0mg"},{"bike_id":"8e95fc5a-d6f8-4fbd-8c6d-856f0af0f2e5","system_id":"levelo_inurba_marseille","lat":43.29931,"lon":5.3654,"is_reserved":false,"is_disabled":false,"rental_uris":{"android":"levelo://app?vid=8e95fc5a-d6f8-4fbd-8c6d-856f0af0f2e5","ios":"levelo://app?vid=8e95fc5a-d6f8-4fbd-8c6d-856f0af0f2e5"},"vehicle_type_id":"4","last_reported":1761657800,"current_range_meters":13600,"station_id":"ce4bgm92rcd13ifvqbr0","pricing_plan_id":"cebpf4jnsgd1na2vs0mg"},{"bike_id":"e1ca1064-3ac1-495e-b8d2-df8047d11b2e","system_id":"levelo_inurba_marseille","lat":43.28476,"lon":5.48389,"is_reserved":false,"is_disabled":false,"rental_uris":{"android":"levelo://app?vid=e1ca1064-3ac1-495e-b8d2-df8047d11b2e","ios":"levelo://app?vid=e1ca1064-3ac1-495e-b8d2-df8047d11b2e"},"vehicle_type_id":"4","last_reported":1761657800,"current_range_meters":13600,"station_id":"st_d3svhcjqgbts73a3dn0g","pricing_plan_id":"cebpf4jnsgd1na2vs0mg"},{"bike_id":"0514a3f3-67b0-4c2b-ad12-4e0494958384","system_id":"levelo_inurba_marseille","lat":43.241751,"lon":5.397215,"is_reserved":false,"is_disabled":false,"rental_uris":{"android":"levelo://app?vid=0514a3f3-67b0-4c2b-ad12-4e0494958384","ios":"levelo://app?vid=0514a3f3-67b0-4c2b-ad12-4e0494958384"},"vehicle_type_id":"4","last_reported":1761657800,"current_range_meters":14000,"station_id":"ce4bhn12rcd13ifvqgpg","pricing_plan_id":"cebpf4jnsgd1na2vs0mg"},{"bike_id":"310e927d-d5b8-4a6f-82be-2d623690659d","system_id":"levelo_inurba_marseille","lat":43.31281,"lon":5.37753,"is_reserved":false,"is_disabled":false,"rental_uris":{"android":"levelo://app?vid=310e927d-d5b8-4a6f-82be-2d623690659d","ios":"levelo://app?vid=310e927d-d5b8-4a6f-82be-2d623690659d"},"vehicle_type_id":"4","last_reported":1761657800,"current_range_meters":14000,"station_id":"","pricing_plan_id":"cebpf4jnsgd1na2vs0mg"},{"bike_id":"db88a8a5-5637-4384-a6d7-41d8f099747a","system_id":"levelo_inurba_marseille","lat":43.312379,"lon":5.368484,"is_reserved":false,"is_disabled":false,"rental_uris":{"android":"levelo://app?vid=db88a8a5-5637-4384-a6d7-41d8f099747a","ios":"levelo://app?vid=db88a8a5-5637-4384-a6d7-41d8f099747a"},"vehicle_type_id":"4","last_reported":1761657800,"current_range_meters":14000,"station_id":"ce4bgr92rcd13ifvqc6g","pricing_plan_id":"cebpf4jnsgd1na2vs0mg"},{"bike_id":"a60cb070-d57c-4cd2-8d5d-f1d4b549ff3a","system_id":"levelo_inurba_marseille","lat":43.32351,"lon":5.36711,"is_reserved":false,"is_disabled":false,"rental_uris":{"android":"levelo://app?vid=a60cb070-d57c-4cd2-8d5d-f1d4b549ff3a","ios":"levelo://app?vid=a60cb070-d57c-4cd2-8d5d-f1d4b549ff3a"},"vehicle_type_id":"4","last_reported":1761657800,"current_range_meters":14000,"station_id":"ce4bhsh2rcd13ifvqi2g","pricing_plan_id":"cebpf4jnsgd1na2vs0mg"},{"bike_id":"49ed0d39-51fe-4cd4-8527-50556baa8749","system_id":"levelo_inurba_marseille","lat":43.22531,"lon":5.348321,"is_reserved":false,"is_disabled":false,"rental_uris":{"android":"levelo://app?vid=49ed0d39-51fe-4cd4-8527-50556baa8749","ios":"levelo://app?vid=49ed0d39-51fe-4cd4-8527-50556baa8749"},"vehicle_type_id":"4","last_reported":1761657800,"current_range_meters":14000,"station_id":"","pricing_plan_id":"cebpf4jnsgd1na2vs0mg"},{"bike_id":"e975e8a7-f7cd-4da8-aa29-5220da96c704","system_id":"levelo_inurba_marseille","lat":43.32342,"lon":5.36743,"is_reserved":false,"is_disabled":false,"rental_uris":{"android":"levelo://app?vid=e975e8a7-f7cd-4da8-aa29-5220da96c704","ios":"levelo://app?vid=e975e8a7-f7cd-4da8-aa29-5220da96c704"},"vehicle_type_id":"4","last_reported":1761657800,"current_range_meters":14000,"station_id":"ce4bhsh2rcd13ifvqi2g","pricing_plan_id":"cebpf4jnsgd1na2vs0mg"},{"bike_id":"0a673bde-80fa-4734-be8c-0ba452eecc92","system_id":"levelo_inurba_marseille","lat":43.3125,"lon":5.36884,"is_reserved":false,"is_disabled":false,"rental_uris":{"android":"levelo://app?vid=0a673bde-80fa-4734-be8c-0ba452eecc92","ios":"levelo://app?vid=0a673bde-80fa-4734-be8c-0ba452eecc92"},"vehicle_type_id":"4","last_reported":1761657800,"current_range_meters":14400,"station_id":"ce4bgl92rcd13ifvqbq0","pricing_plan_id":"cebpf4jnsgd1na2vs0mg"},{"bike_id":"dced2bcc-e95f-44ce-b7d8-7bb47def612a","system_id":"levelo_inurba_marseille","lat":43.230596,"lon":5.354894,"is_reserved":false,"is_disabled":false,"rental_uris":{"android":"levelo://app?vid=dced2bcc-e95f-44ce-b7d8-7bb47def612a","ios":"levelo://app?vid=dced2bcc-e95f-44ce-b7d8-7bb47def612a"},"vehicle_type_id":"4","last_reported":1761657800,"current_range_meters":14400,"station_id":"cpo3342slgdg3j2ifvpg","pricing_plan_id":"cebpf4jnsgd1na2vs0mg"},{"bike_id":"391ea9da-1fb3-409b-be1f-2afa93e0e963","system_id":"levelo_inurba_marseille","lat":43.30541,"lon":5.36549,"is_reserved":false,"is_disabled":false,"rental_uris":{"android":"levelo://app?vid=391ea9da-1fb3-409b-be1f-2afa93e0e963","ios":"levelo://app?vid=391ea9da-1fb3-409b-be1f-2afa93e0e963"},"vehicle_type_id":"4","last_reported":1761657800,"current_range_meters":14400,"station_id":"ce4bgs12rcd13ifvqcag","pricing_plan_id":"cebpf4jnsgd1na2vs0mg"},{"bike_id":"d7a783d7-c52a-46a0-8c50-cc8678507b83","system_id":"levelo_inurba_marseille","lat":43.301663,"lon":5.366123,"is_reserved":false,"is_disabled":false,"rental_uris":{"android":"levelo://app?vid=d7a783d7-c52a-46a0-8c50-cc8678507b83","ios":"levelo://app?vid=d7a783d7-c52a-46a0-8c50-cc8678507b83"},"vehicle_type_id":"4","last_reported":1761657800,"current_range_meters":14400,"station_id":"ce4bgrh2rcd13ifvqc8g","pricing_plan_id":"cebpf4jnsgd1na2vs0mg"},{"bike_id":"653b8e05-be85-45e5-8c66-8b8211dfe63a","system_id":"levelo_inurba_marseille","lat":43.225281,"lon":5.348404,"is_reserved":false,"is_disabled":false,"rental_uris":{"android":"levelo://app?vid=653b8e05-be85-45e5-8c66-8b8211dfe63a","ios":"levelo://app?vid=653b8e05-be85-45e5-8c66-8b8211dfe63a"},"vehicle_type_id":"4","last_reported":1761657800,"current_range_meters":14400,"station_id":"","pricing_plan_id":"cebpf4jnsgd1na2vs0mg"},{"bike_id":"07b66ac4-7c4e-4484-a9be-f79316621d0f","system_id":"levelo_inurba_marseille","lat":43.299129,"lon":5.374733,"is_reserved":false,"is_disabled":false,"rental_uris":{"android":"levelo://app?vid=07b66ac4-7c4e-4484-a9be-f79316621d0f","ios":"levelo://app?vid=07b66ac4-7c4e-4484-a9be-f79316621d0f"},"vehicle_type_id":"4","last_reported":1761657800,"current_range_meters":14800,"station_id":"ce4bgjh2rcd13ifvqbg0","pricing_plan_id":"cebpf4jnsgd1na2vs0mg"},{"bike_id":"2be3bf9b-39f4-4c37-8c01-9e9bcabe1c53","system_id":"levelo_inurba_marseille","lat":43.33741,"lon":5.37444,"is_reserved":false,"is_disabled":false,"rental_uris":{"android":"levelo://app?vid=2be3bf9b-39f4-4c37-8c01-9e9bcabe1c53","ios":"levelo://app?vid=2be3bf9b-39f4-4c37-8c01-9e9bcabe1c53"},"vehicle_type_id":"4","last_reported":1761657800,"current_range_meters":14800,"station_id":"","pricing_plan_id":"cebpf4jnsgd1na2vs0mg"},{"bike_id":"9f060ac9-2b9b-49e2-a0d4-ca83839e62e9","system_id":"levelo_inurba_marseille","lat":43.304645,"lon":5.379134,"is_reserved":false,"is_disabled":false,"rental_uris":{"android":"levelo://app?vid=9f060ac9-2b9b-49e2-a0d4-ca83839e62e9","ios":"levelo://app?vid=9f060ac9-2b9b-49e2-a0d4-ca83839e62e9"},"vehicle_type_id":"4","last_reported":1761657800,"current_range_meters":14800,"station_id":"ce4bgup2rcd13ifvqcn0","pricing_plan_id":"cebpf4jnsgd1na2vs0mg"},{"bike_id":"a1d36066-483f-4245-8f71-981873efc5f9","system_id":"levelo_inurba_marseille","lat":43.240664,"lon":5.377601,"is_reserved":false,"is_disabled":false,"rental_uris":{"android":"levelo://app?vid=a1d36066-483f-4245-8f71-981873efc5f9","ios":"levelo://app?vid=a1d36066-483f-4245-8f71-981873efc5f9"},"vehicle_type_id":"4","last_reported":1761657800,"current_range_meters":14800,"station_id":"ce4bhnp2rcd13ifvqgvg","pricing_plan_id":"cebpf4jnsgd1na2vs0mg"},{"bike_id":"f0e92081-7a93-4d76-8582-adf39cbaf116","system_id":"levelo_inurba_marseille","lat":43.25936,"lon":5.40895,"is_reserved":false,"is_disabled":false,"rental_uris":{"android":"levelo://app?vid=f0e92081-7a93-4d76-8582-adf39cbaf116","ios":"levelo://app?vid=f0e92081-7a93-4d76-8582-adf39cbaf116"},"vehicle_type_id":"4","last_reported":1761657800,"current_range_meters":14800,"station_id":"ce4bhm92rcd13ifvqglg","pricing_plan_id":"cebpf4jnsgd1na2vs0mg"},{"bike_id":"94e6b0aa-f8c9-477e-8091-c3a189e0f238","system_id":"levelo_inurba_marseille","lat":43.29663,"lon":5.38127,"is_reserved":false,"is_disabled":false,"rental_uris":{"android":"levelo://app?vid=94e6b0aa-f8c9-477e-8091-c3a189e0f238","ios":"levelo://app?vid=94e6b0aa-f8c9-477e-8091-c3a189e0f238"},"vehicle_type_id":"4","last_reported":1761657800,"current_range_meters":15200,"station_id":"","pricing_plan_id":"cebpf4jnsgd1na2vs0mg"},{"bike_id":"6e0b849b-e9ae-4a04-a9d7-267dd091bca4","system_id":"levelo_inurba_marseille","lat":43.308823,"lon":5.36813,"is_reserved":false,"is_disabled":false,"rental_uris":{"android":"levelo://app?vid=6e0b849b-e9ae-4a04-a9d7-267dd091bca4","ios":"levelo://app?vid=6e0b849b-e9ae-4a04-a9d7-267dd091bca4"},"vehicle_type_id":"4","last_reported":1761657800,"current_range_meters":15200,"station_id":"ce4bgn92rcd13ifvqbvg","pricing_plan_id":"cebpf4jnsgd1na2vs0mg"},{"bike_id":"f4ae8a8d-d71a-4e48-9339-66550bde7b84","system_id":"levelo_inurba_marseille","lat":43.296782,"lon":5.378637,"is_reserved":false,"is_disabled":true,"rental_uris":{"android":"levelo://app?vid=f4ae8a8d-d71a-4e48-9339-66550bde7b84","ios":"levelo://app?vid=f4ae8a8d-d71a-4e48-9339-66550bde7b84"},"vehicle_type_id":"4","last_reported":1761657800,"current_range_meters":15200,"station_id":"","pricing_plan_id":"cebpf4jnsgd1na2vs0mg"},{"bike_id":"4ddfb4bb-556a-4528-9867-2221062f07d7","system_id":"levelo_inurba_marseille","lat":43.25929,"lon":5.40901,"is_reserved":false,"is_disabled":false,"rental_uris":{"android":"levelo://app?vid=4ddfb4bb-556a-4528-9867-2221062f07d7","ios":"levelo://app?vid=4ddfb4bb-556a-4528-9867-2221062f07d7"},"vehicle_type_id":"4","last_reported":1761657800,"current_range_meters":15200,"station_id":"ce4bhm92rcd13ifvqglg","pricing_plan_id":"cebpf4jnsgd1na2vs0mg"},{"bike_id":"b5821bab-7159-4d11-ae27-a8bfd4f60bfb","system_id":"levelo_inurba_marseille","lat":43.26196,"lon":5.374355,"is_reserved":false,"is_disabled":false,"rental_uris":{"android":"levelo://app?vid=b5821bab-7159-4d11-ae27-a8bfd4f60bfb","ios":"levelo://app?vid=b5821bab-7159-4d11-ae27-a8bfd4f60bfb"},"vehicle_type_id":"4","last_reported":1761657800,"current_range_meters":15200,"station_id":"ce4bhgp2rcd13ifvqfc0","pricing_plan_id":"cebpf4jnsgd1na2vs0mg"},{"bike_id":"71d296e2-043f-49e6-9689-fa3baf3e1638","system_id":"levelo_inurba_marseille","lat":43.28421,"lon":5.34984,"is_reserved":false,"is_disabled":false,"rental_uris":{"android":"levelo://app?vid=71d296e2-043f-49e6-9689-fa3baf3e1638","ios":"levelo://app?vid=71d296e2-043f-49e6-9689-fa3baf3e1638"},"vehicle_type_id":"4","last_reported":1761657800,"current_range_meters":16000,"station_id":"ce4bhbh2rcd13ifvqepg","pricing_plan_id":"cebpf4jnsgd1na2vs0mg"},{"bike_id":"ae8ebe94-fc0f-4409-8f77-39eb5c613a67","system_id":"levelo_inurba_marseille","lat":43.337444,"lon":5.374475,"is_reserved":false,"is_disabled":false,"rental_uris":{"android":"levelo://app?vid=ae8ebe94-fc0f-4409-8f77-39eb5c613a67","ios":"levelo://app?vid=ae8ebe94-fc0f-4409-8f77-39eb5c613a67"},"vehicle_type_id":"4","last_reported":1761657800,"current_range_meters":16000,"station_id":"","pricing_plan_id":"cebpf4jnsgd1na2vs0mg"},{"bike_id":"dc3f4f27-0c87-4208-8c15-6b40e049f762","system_id":"levelo_inurba_marseille","lat":43.231555,"lon":5.437056,"is_reserved":false,"is_disabled":false,"rental_uris":{"android":"levelo://app?vid=dc3f4f27-0c87-4208-8c15-6b40e049f762","ios":"levelo://app?vid=dc3f4f27-0c87-4208-8c15-6b40e049f762"},"vehicle_type_id":"4","last_reported":1761657800,"current_range_meters":16000,"station_id":"","pricing_plan_id":"cebpf4jnsgd1na2vs0mg"},{"bike_id":"cd0c84ba-521c-4dab-84db-462f9bd1c17f","system_id":"levelo_inurba_marseille","lat":43.28418,"lon":5.34977,"is_reserved":false,"is_disabled":false,"rental_uris":{"android":"levelo://app?vid=cd0c84ba-521c-4dab-84db-462f9bd1c17f","ios":"levelo://app?vid=cd0c84ba-521c-4dab-84db-462f9bd1c17f"},"vehicle_type_id":"4","last_reported":1761657800,"current_range_meters":16000,"station_id":"ce4bhbh2rcd13ifvqepg","pricing_plan_id":"cebpf4jnsgd1na2vs0mg"},{"bike_id":"d2ce14a1-e9f5-407b-a0c3-2e69d0a16a79","system_id":"levelo_inurba_marseille","lat":43.28208,"lon":5.39062,"is_reserved":false,"is_disabled":true,"rental_uris":{"android":"levelo://app?vid=d2ce14a1-e9f5-407b-a0c3-2e69d0a16a79","ios":"levelo://app?vid=d2ce14a1-e9f5-407b-a0c3-2e69d0a16a79"},"vehicle_type_id":"4","last_reported":1761657800,"current_range_meters":16400,"station_id":"ce4bhn92rcd13ifvqgsg","pricing_plan_id":"cebpf4jnsgd1na2vs0mg"},{"bike_id":"e07f7e90-86fd-483c-9921-33cdea61a754","system_id":"levelo_inurba_marseille","lat":43.27615,"lon":5.36125,"is_reserved":false,"is_disabled":false,"rental_uris":{"android":"levelo://app?vid=e07f7e90-86fd-483c-9921-33cdea61a754","ios":"levelo://app?vid=e07f7e90-86fd-483c-9921-33cdea61a754"},"vehicle_type_id":"4","last_reported":1761657800,"current_range_meters":16400,"station_id":"ce4bgj92rcd13ifvqbe0","pricing_plan_id":"cebpf4jnsgd1na2vs0mg"},{"bike_id":"32d7653e-b033-4183-b4c0-f44169bb9067","system_id":"levelo_inurba_marseille","lat":43.327046,"lon":5.392005,"is_reserved":false,"is_disabled":false,"rental_uris":{"android":"levelo://app?vid=32d7653e-b033-4183-b4c0-f44169bb9067","ios":"levelo://app?vid=32d7653e-b033-4183-b4c0-f44169bb9067"},"vehicle_type_id":"4","last_reported":1761657800,"current_range_meters":16400,"station_id":"","pricing_plan_id":"cebpf4jnsgd1na2vs0mg"},{"bike_id":"452e8e6e-6805-4d8b-9b13-79df7a637126","system_id":"levelo_inurba_marseille","lat":43.243947,"lon":5.370609,"is_reserved":false,"is_disabled":false,"rental_uris":{"android":"levelo://app?vid=452e8e6e-6805-4d8b-9b13-79df7a637126","ios":"levelo://app?vid=452e8e6e-6805-4d8b-9b13-79df7a637126"},"vehicle_type_id":"4","last_reported":1761657800,"current_range_meters":16400,"station_id":"ce4bhhh2rcd13ifvqfk0","pricing_plan_id":"cebpf4jnsgd1na2vs0mg"},{"bike_id":"29b36fc6-c7e8-41a2-9e02-f4c54b9b1434","system_id":"levelo_inurba_marseille","lat":43.31274,"lon":5.40182,"is_reserved":false,"is_disabled":false,"rental_uris":{"android":"levelo://app?vid=29b36fc6-c7e8-41a2-9e02-f4c54b9b1434","ios":"levelo://app?vid=29b36fc6-c7e8-41a2-9e02-f4c54b9b1434"},"vehicle_type_id":"4","last_reported":1761657800,"current_range_meters":16400,"station_id":"ce4bh092rcd13ifvqd30","pricing_plan_id":"cebpf4jnsgd1na2vs0mg"},{"bike_id":"fc689893-6350-4e0a-916a-a88878849e6a","system_id":"levelo_inurba_marseille","lat":43.30372,"lon":5.42504,"is_reserved":false,"is_disabled":false,"rental_uris":{"android":"levelo://app?vid=fc689893-6350-4e0a-916a-a88878849e6a","ios":"levelo://app?vid=fc689893-6350-4e0a-916a-a88878849e6a"},"vehicle_type_id":"4","last_reported":1761657800,"current_range_meters":16800,"station_id":"ce4bhoh2rcd13ifvqh6g","pricing_plan_id":"cebpf4jnsgd1na2vs0mg"},{"bike_id":"f3671794-6f15-43c5-baa8-7c171ed25769","system_id":"levelo_inurba_marseille","lat":43.25931,"lon":5.40911,"is_reserved":false,"is_disabled":false,"rental_uris":{"android":"levelo://app?vid=f3671794-6f15-43c5-baa8-7c171ed25769","ios":"levelo://app?vid=f3671794-6f15-43c5-baa8-7c171ed25769"},"vehicle_type_id":"4","last_reported":1761657800,"current_range_meters":16800,"station_id":"ce4bhm92rcd13ifvqglg","pricing_plan_id":"cebpf4jnsgd1na2vs0mg"},{"bike_id":"02dd205b-e97c-4104-9683-066d2523fd3f","system_id":"levelo_inurba_marseille","lat":43.230639,"lon":5.354898,"is_reserved":false,"is_disabled":false,"rental_uris":{"android":"levelo://app?vid=02dd205b-e97c-4104-9683-066d2523fd3f","ios":"levelo://app?vid=02dd205b-e97c-4104-9683-066d2523fd3f"},"vehicle_type_id":"4","last_reported":1761657800,"current_range_meters":16800,"station_id":"cpo3342slgdg3j2ifvpg","pricing_plan_id":"cebpf4jnsgd1na2vs0mg"},{"bike_id":"f79a84f4-55d0-4441-8119-340765a2973b","system_id":"levelo_inurba_marseille","lat":43.25927,"lon":5.40903,"is_reserved":false,"is_disabled":false,"rental_uris":{"android":"levelo://app?vid=f79a84f4-55d0-4441-8119-340765a2973b","ios":"levelo://app?vid=f79a84f4-55d0-4441-8119-340765a2973b"},"vehicle_type_id":"4","last_reported":1761657800,"current_range_meters":17200,"station_id":"ce4bhm92rcd13ifvqglg","pricing_plan_id":"cebpf4jnsgd1na2vs0mg"},{"bike_id":"1f423b4b-7313-4496-aa7c-f50ef4391689","system_id":"levelo_inurba_marseille","lat":43.24388,"lon":5.37075,"is_reserved":false,"is_disabled":false,"rental_uris":{"android":"levelo://app?vid=1f423b4b-7313-4496-aa7c-f50ef4391689","ios":"levelo://app?vid=1f423b4b-7313-4496-aa7c-f50ef4391689"},"vehicle_type_id":"4","last_reported":1761657800,"current_range_meters":17200,"station_id":"ce4bhhh2rcd13ifvqfk0","pricing_plan_id":"cebpf4jnsgd1na2vs0mg"},{"bike_id":"99373ff4-c6ad-47a3-8ec0-acdae6a78daf","system_id":"levelo_inurba_marseille","lat":43.3055,"lon":5.36531,"is_reserved":false,"is_disabled":false,"rental_uris":{"android":"levelo://app?vid=99373ff4-c6ad-47a3-8ec0-acdae6a78daf","ios":"levelo://app?vid=99373ff4-c6ad-47a3-8ec0-acdae6a78daf"},"vehicle_type_id":"4","last_reported":1761657800,"current_range_meters":17200,"station_id":"ce4bgs12rcd13ifvqcag","pricing_plan_id":"cebpf4jnsgd1na2vs0mg"},{"bike_id":"9342b9ea-a013-42ac-9bcf-44c66ffe190d","system_id":"levelo_inurba_marseille","lat":43.27996,"lon":5.40014,"is_reserved":false,"is_disabled":false,"rental_uris":{"android":"levelo://app?vid=9342b9ea-a013-42ac-9bcf-44c66ffe190d","ios":"levelo://app?vid=9342b9ea-a013-42ac-9bcf-44c66ffe190d"},"vehicle_type_id":"4","last_reported":1761657800,"current_range_meters":17200,"station_id":"ce4bho92rcd13ifvqh4g","pricing_plan_id":"cebpf4jnsgd1na2vs0mg"},{"bike_id":"81a1b6fb-1f88-4713-82cd-8758a38cffd9","system_id":"levelo_inurba_marseille","lat":43.23075,"lon":5.35514,"is_reserved":false,"is_disabled":false,"rental_uris":{"android":"levelo://app?vid=81a1b6fb-1f88-4713-82cd-8758a38cffd9","ios":"levelo://app?vid=81a1b6fb-1f88-4713-82cd-8758a38cffd9"},"vehicle_type_id":"4","last_reported":1761657800,"current_range_meters":17200,"station_id":"cpo3342slgdg3j2ifvpg","pricing_plan_id":"cebpf4jnsgd1na2vs0mg"},{"bike_id":"3dbbdcb0-6feb-4ab6-bfa3-4195b34b8f7e","system_id":"levelo_inurba_marseille","lat":43.2293,"lon":5.353744,"is_reserved":false,"is_disabled":false,"rental_uris":{"android":"levelo://app?vid=3dbbdcb0-6feb-4ab6-bfa3-4195b34b8f7e","ios":"levelo://app?vid=3dbbdcb0-6feb-4ab6-bfa3-4195b34b8f7e"},"vehicle_type_id":"4","last_reported":1761657800,"current_range_meters":17200,"station_id":"ce4bhb12rcd13ifvqel0","pricing_plan_id":"cebpf4jnsgd1na2vs0mg"},{"bike_id":"0855fb1c-44b3-4348-a209-cd4792a05e93","system_id":"levelo_inurba_marseille","lat":43.30463,"lon":5.3791,"is_reserved":false,"is_disabled":false,"rental_uris":{"android":"levelo://app?vid=0855fb1c-44b3-4348-a209-cd4792a05e93","ios":"levelo://app?vid=0855fb1c-44b3-4348-a209-cd4792a05e93"},"vehicle_type_id":"4","last_reported":1761657800,"current_range_meters":17200,"station_id":"ce4bgup2rcd13ifvqcn0","pricing_plan_id":"cebpf4jnsgd1na2vs0mg"},{"bike_id":"83bd686c-30e2-4aae-8f48-fe5c9fe3f6ce","system_id":"levelo_inurba_marseille","lat":43.25507,"lon":5.37654,"is_reserved":false,"is_disabled":false,"rental_uris":{"android":"levelo://app?vid=83bd686c-30e2-4aae-8f48-fe5c9fe3f6ce","ios":"levelo://app?vid=83bd686c-30e2-4aae-8f48-fe5c9fe3f6ce"},"vehicle_type_id":"4","last_reported":1761657800,"current_range_meters":17200,"station_id":"ce4bhh12rcd13ifvqff0","pricing_plan_id":"cebpf4jnsgd1na2vs0mg"},{"bike_id":"edfdd850-f3d8-4265-b894-7082fb1338f5","system_id":"levelo_inurba_marseille","lat":43.23152,"lon":5.43706,"is_reserved":false,"is_disabled":false,"rental_uris":{"android":"levelo://app?vid=edfdd850-f3d8-4265-b894-7082fb1338f5","ios":"levelo://app?vid=edfdd850-f3d8-4265-b894-7082fb1338f5"},"vehicle_type_id":"4","last_reported":1761657800,"current_range_meters":17600,"station_id":"ce4bhmp2rcd13ifvqgog","pricing_plan_id":"cebpf4jnsgd1na2vs0mg"},{"bike_id":"aa0e7e4b-f890-4f53-a40a-615d9f77115a","system_id":"levelo_inurba_marseille","lat":43.321073,"lon":5.36774,"is_reserved":false,"is_disabled":false,"rental_uris":{"android":"levelo://app?vid=aa0e7e4b-f890-4f53-a40a-615d9f77115a","ios":"levelo://app?vid=aa0e7e4b-f890-4f53-a40a-615d9f77115a"},"vehicle_type_id":"4","last_reported":1761657800,"current_range_meters":17600,"station_id":"ce4bhrh2rcd13ifvqhug","pricing_plan_id":"cebpf4jnsgd1na2vs0mg"},{"bike_id":"a5b9631c-fc00-4689-bef7-803838a946a9","system_id":"levelo_inurba_marseille","lat":43.23158,"lon":5.43741,"is_reserved":false,"is_disabled":false,"rental_uris":{"android":"levelo://app?vid=a5b9631c-fc00-4689-bef7-803838a946a9","ios":"levelo://app?vid=a5b9631c-fc00-4689-bef7-803838a946a9"},"vehicle_type_id":"4","last_reported":1761657800,"current_range_meters":17600,"station_id":"ce4bhmp2rcd13ifvqgog","pricing_plan_id":"cebpf4jnsgd1na2vs0mg"},{"bike_id":"7e2c67ba-5858-48cd-a796-fe26967bd9ec","system_id":"levelo_inurba_marseille","lat":43.24665,"lon":5.38165,"is_reserved":false,"is_disabled":false,"rental_uris":{"android":"levelo://app?vid=7e2c67ba-5858-48cd-a796-fe26967bd9ec","ios":"levelo://app?vid=7e2c67ba-5858-48cd-a796-fe26967bd9ec"},"vehicle_type_id":"4","last_reported":1761657800,"current_range_meters":17600,"station_id":"ce4bhih2rcd13ifvqfr0","pricing_plan_id":"cebpf4jnsgd1na2vs0mg"},{"bike_id":"31f57ff6-6be6-4ae3-942c-ae0f33d8f6bb","system_id":"levelo_inurba_marseille","lat":43.284132,"lon":5.349835,"is_reserved":false,"is_disabled":false,"rental_uris":{"android":"levelo://app?vid=31f57ff6-6be6-4ae3-942c-ae0f33d8f6bb","ios":"levelo://app?vid=31f57ff6-6be6-4ae3-942c-ae0f33d8f6bb"},"vehicle_type_id":"4","last_reported":1761657800,"current_range_meters":18000,"station_id":"ce4bhbh2rcd13ifvqepg","pricing_plan_id":"cebpf4jnsgd1na2vs0mg"},{"bike_id":"d2f4ea73-d40d-4278-869d-326caa328ad0","system_id":"levelo_inurba_marseille","lat":43.26194,"lon":5.37445,"is_reserved":false,"is_disabled":false,"rental_uris":{"android":"levelo://app?vid=d2f4ea73-d40d-4278-869d-326caa328ad0","ios":"levelo://app?vid=d2f4ea73-d40d-4278-869d-326caa328ad0"},"vehicle_type_id":"4","last_reported":1761657800,"current_range_meters":18000,"station_id":"ce4bhgp2rcd13ifvqfc0","pricing_plan_id":"cebpf4jnsgd1na2vs0mg"},{"bike_id":"1ff14011-1bb3-49a1-9941-97d38a0c81be","system_id":"levelo_inurba_marseille","lat":43.25077,"lon":5.39504,"is_reserved":false,"is_disabled":false,"rental_uris":{"android":"levelo://app?vid=1ff14011-1bb3-49a1-9941-97d38a0c81be","ios":"levelo://app?vid=1ff14011-1bb3-49a1-9941-97d38a0c81be"},"vehicle_type_id":"4","last_reported":1761657800,"current_range_meters":18000,"station_id":"ce4bhm12rcd13ifvqgkg","pricing_plan_id":"cebpf4jnsgd1na2vs0mg"},{"bike_id":"8dafbf37-a2e6-4177-baf2-d33c935c68b1","system_id":"levelo_inurba_marseille","lat":43.2761,"lon":5.36108,"is_reserved":false,"is_disabled":false,"rental_uris":{"android":"levelo://app?vid=8dafbf37-a2e6-4177-baf2-d33c935c68b1","ios":"levelo://app?vid=8dafbf37-a2e6-4177-baf2-d33c935c68b1"},"vehicle_type_id":"4","last_reported":1761657800,"current_range_meters":18000,"station_id":"ce4bgj92rcd13ifvqbe0","pricing_plan_id":"cebpf4jnsgd1na2vs0mg"},{"bike_id":"8743deb1-3e1b-4fe6-ab63-b75dc0a57f17","system_id":"levelo_inurba_marseille","lat":43.230662,"lon":5.354852,"is_reserved":false,"is_disabled":false,"rental_uris":{"android":"levelo://app?vid=8743deb1-3e1b-4fe6-ab63-b75dc0a57f17","ios":"levelo://app?vid=8743deb1-3e1b-4fe6-ab63-b75dc0a57f17"},"vehicle_type_id":"4","last_reported":1761657800,"current_range_meters":18000,"station_id":"cpo3342slgdg3j2ifvpg","pricing_plan_id":"cebpf4jnsgd1na2vs0mg"},{"bike_id":"6ce8387a-7217-4885-b90c-41215d188545","system_id":"levelo_inurba_marseille","lat":43.28857,"lon":5.40939,"is_reserved":false,"is_disabled":false,"rental_uris":{"android":"levelo://app?vid=6ce8387a-7217-4885-b90c-41215d188545","ios":"levelo://app?vid=6ce8387a-7217-4885-b90c-41215d188545"},"vehicle_type_id":"4","last_reported":1761657800,"current_range_meters":18000,"station_id":"","pricing_plan_id":"cebpf4jnsgd1na2vs0mg"},{"bike_id":"3c172d5e-4be3-4447-81d6-5d4b4efa8bc0","system_id":"levelo_inurba_marseille","lat":43.26533,"lon":5.38535,"is_reserved":false,"is_disabled":false,"rental_uris":{"android":"levelo://app?vid=3c172d5e-4be3-4447-81d6-5d4b4efa8bc0","ios":"levelo://app?vid=3c172d5e-4be3-4447-81d6-5d4b4efa8bc0"},"vehicle_type_id":"4","last_reported":1761657800,"current_range_meters":18000,"station_id":"","pricing_plan_id":"cebpf4jnsgd1na2vs0mg"},{"bike_id":"3cb7496b-d3bf-4536-b23d-3a53fea4f6ca","system_id":"levelo_inurba_marseille","lat":43.22554,"lon":5.4163,"is_reserved":false,"is_disabled":false,"rental_uris":{"android":"levelo://app?vid=3cb7496b-d3bf-4536-b23d-3a53fea4f6ca","ios":"levelo://app?vid=3cb7496b-d3bf-4536-b23d-3a53fea4f6ca"},"vehicle_type_id":"4","last_reported":1761657800,"current_range_meters":18800,"station_id":"st_d2o4gvlbi1j2169b742g","pricing_plan_id":"cebpf4jnsgd1na2vs0mg"},{"bike_id":"e9ef27c8-e6fd-4242-b482-cdf6b54940c1","system_id":"levelo_inurba_marseille","lat":43.29912,"lon":5.37474,"is_reserved":false,"is_disabled":false,"rental_uris":{"android":"levelo://app?vid=e9ef27c8-e6fd-4242-b482-cdf6b54940c1","ios":"levelo://app?vid=e9ef27c8-e6fd-4242-b482-cdf6b54940c1"},"vehicle_type_id":"4","last_reported":1761657800,"current_range_meters":18800,"station_id":"ce4bgjh2rcd13ifvqbg0","pricing_plan_id":"cebpf4jnsgd1na2vs0mg"},{"bike_id":"96b93a83-82f2-4d31-acb8-139fbce4500d","system_id":"levelo_inurba_marseille","lat":43.2293,"lon":5.35369,"is_reserved":false,"is_disabled":false,"rental_uris":{"android":"levelo://app?vid=96b93a83-82f2-4d31-acb8-139fbce4500d","ios":"levelo://app?vid=96b93a83-82f2-4d31-acb8-139fbce4500d"},"vehicle_type_id":"4","last_reported":1761657800,"current_range_meters":18800,"station_id":"cpo3532slgdg3j2ikp40","pricing_plan_id":"cebpf4jnsgd1na2vs0mg"},{"bike_id":"5c293ab7-eb33-4943-8d0e-900cabbdce72","system_id":"levelo_inurba_marseille","lat":43.2731,"lon":5.3909,"is_reserved":false,"is_disabled":false,"rental_uris":{"android":"levelo://app?vid=5c293ab7-eb33-4943-8d0e-900cabbdce72","ios":"levelo://app?vid=5c293ab7-eb33-4943-8d0e-900cabbdce72"},"vehicle_type_id":"4","last_reported":1761657800,"current_range_meters":18800,"station_id":"ce4bhgp2rcd13ifvqfe0","pricing_plan_id":"cebpf4jnsgd1na2vs0mg"},{"bike_id":"09884e49-b43c-4ec9-85a5-6243e16f6787","system_id":"levelo_inurba_marseille","lat":43.30531,"lon":5.36531,"is_reserved":false,"is_disabled":false,"rental_uris":{"android":"levelo://app?vid=09884e49-b43c-4ec9-85a5-6243e16f6787","ios":"levelo://app?vid=09884e49-b43c-4ec9-85a5-6243e16f6787"},"vehicle_type_id":"4","last_reported":1761657800,"current_range_meters":19200,"station_id":"ce4bgs12rcd13ifvqcag","pricing_plan_id":"cebpf4jnsgd1na2vs0mg"},{"bike_id":"f21707c0-3739-4ff7-84c8-4ea794774ac6","system_id":"levelo_inurba_marseille","lat":43.28224,"lon":5.39074,"is_reserved":false,"is_disabled":false,"rental_uris":{"android":"levelo://app?vid=f21707c0-3739-4ff7-84c8-4ea794774ac6","ios":"levelo://app?vid=f21707c0-3739-4ff7-84c8-4ea794774ac6"},"vehicle_type_id":"4","last_reported":1761657800,"current_range_meters":19200,"station_id":"ce4bhn92rcd13ifvqgsg","pricing_plan_id":"cebpf4jnsgd1na2vs0mg"},{"bike_id":"941eca81-61b6-4376-acbb-773a2fc9f625","system_id":"levelo_inurba_marseille","lat":43.320936,"lon":5.367755,"is_reserved":false,"is_disabled":false,"rental_uris":{"android":"levelo://app?vid=941eca81-61b6-4376-acbb-773a2fc9f625","ios":"levelo://app?vid=941eca81-61b6-4376-acbb-773a2fc9f625"},"vehicle_type_id":"4","last_reported":1761657800,"current_range_meters":19200,"station_id":"ce4bhrh2rcd13ifvqhug","pricing_plan_id":"cebpf4jnsgd1na2vs0mg"},{"bike_id":"e5cda64f-a4d3-42c0-ba84-b7016ffa057f","system_id":"levelo_inurba_marseille","lat":43.27374,"lon":5.36254,"is_reserved":false,"is_disabled":false,"rental_uris":{"android":"levelo://app?vid=e5cda64f-a4d3-42c0-ba84-b7016ffa057f","ios":"levelo://app?vid=e5cda64f-a4d3-42c0-ba84-b7016ffa057f"},"vehicle_type_id":"4","last_reported":1761657800,"current_range_meters":19200,"station_id":"ce4bhbh2rcd13ifvqeo0","pricing_plan_id":"cebpf4jnsgd1na2vs0mg"},{"bike_id":"6d8da19b-0143-43ba-a2b6-b774a32597d4","system_id":"levelo_inurba_marseille","lat":43.28147,"lon":5.34774,"is_reserved":false,"is_disabled":false,"rental_uris":{"android":"levelo://app?vid=6d8da19b-0143-43ba-a2b6-b774a32597d4","ios":"levelo://app?vid=6d8da19b-0143-43ba-a2b6-b774a32597d4"},"vehicle_type_id":"4","last_reported":1761657800,"current_range_meters":19200,"station_id":"","pricing_plan_id":"cebpf4jnsgd1na2vs0mg"},{"bike_id":"669215d5-09b3-4dd5-84d4-a6061a739db2","system_id":"levelo_inurba_marseille","lat":43.282777,"lon":5.399706,"is_reserved":false,"is_disabled":false,"rental_uris":{"android":"levelo://app?vid=669215d5-09b3-4dd5-84d4-a6061a739db2","ios":"levelo://app?vid=669215d5-09b3-4dd5-84d4-a6061a739db2"},"vehicle_type_id":"4","last_reported":1761657800,"current_range_meters":19200,"station_id":"ce4bho92rcd13ifvqh3g","pricing_plan_id":"cebpf4jnsgd1na2vs0mg"},{"bike_id":"0c32fe25-1184-44a6-9dea-60a6fe9eed43","system_id":"levelo_inurba_marseille","lat":43.310187,"lon":5.384163,"is_reserved":false,"is_disabled":false,"rental_uris":{"android":"levelo://app?vid=0c32fe25-1184-44a6-9dea-60a6fe9eed43","ios":"levelo://app?vid=0c32fe25-1184-44a6-9dea-60a6fe9eed43"},"vehicle_type_id":"4","last_reported":1761657800,"current_range_meters":19200,"station_id":"ce4bgv12rcd13ifvqcp0","pricing_plan_id":"cebpf4jnsgd1na2vs0mg"},{"bike_id":"68fb8eb8-a4bc-4ad1-8fdc-7879d671900c","system_id":"levelo_inurba_marseille","lat":43.28431,"lon":5.34986,"is_reserved":false,"is_disabled":false,"rental_uris":{"android":"levelo://app?vid=68fb8eb8-a4bc-4ad1-8fdc-7879d671900c","ios":"levelo://app?vid=68fb8eb8-a4bc-4ad1-8fdc-7879d671900c"},"vehicle_type_id":"4","last_reported":1761657800,"current_range_meters":19200,"station_id":"ce4bhbh2rcd13ifvqepg","pricing_plan_id":"cebpf4jnsgd1na2vs0mg"},{"bike_id":"14fed8bf-0e52-4b67-9780-8d00ed00b796","system_id":"levelo_inurba_marseille","lat":43.250874,"lon":5.395126,"is_reserved":false,"is_disabled":false,"rental_uris":{"android":"levelo://app?vid=14fed8bf-0e52-4b67-9780-8d00ed00b796","ios":"levelo://app?vid=14fed8bf-0e52-4b67-9780-8d00ed00b796"},"vehicle_type_id":"4","last_reported":1761657800,"current_range_meters":19200,"station_id":"ce4bhm12rcd13ifvqgkg","pricing_plan_id":"cebpf4jnsgd1na2vs0mg"},{"bike_id":"17b54b23-d60b-4af1-8ead-39989afbcfba","system_id":"levelo_inurba_marseille","lat":43.24994,"lon":5.38934,"is_reserved":false,"is_disabled":false,"rental_uris":{"android":"levelo://app?vid=17b54b23-d60b-4af1-8ead-39989afbcfba","ios":"levelo://app?vid=17b54b23-d60b-4af1-8ead-39989afbcfba"},"vehicle_type_id":"4","last_reported":1761657800,"current_range_meters":19200,"station_id":"ce4bhgp2rcd13ifvqfd0","pricing_plan_id":"cebpf4jnsgd1na2vs0mg"},{"bike_id":"6a0ac5d0-94c9-4f7e-990f-e01e1b3f84c9","system_id":"levelo_inurba_marseille","lat":43.309,"lon":5.36844,"is_reserved":false,"is_disabled":false,"rental_uris":{"android":"levelo://app?vid=6a0ac5d0-94c9-4f7e-990f-e01e1b3f84c9","ios":"levelo://app?vid=6a0ac5d0-94c9-4f7e-990f-e01e1b3f84c9"},"vehicle_type_id":"4","last_reported":1761657800,"current_range_meters":19200,"station_id":"ce4bgn92rcd13ifvqbvg","pricing_plan_id":"cebpf4jnsgd1na2vs0mg"},{"bike_id":"313ba948-c3d9-4eda-bea1-7f852b61ef8a","system_id":"levelo_inurba_marseille","lat":43.250878,"lon":5.39527,"is_reserved":false,"is_disabled":false,"rental_uris":{"android":"levelo://app?vid=313ba948-c3d9-4eda-bea1-7f852b61ef8a","ios":"levelo://app?vid=313ba948-c3d9-4eda-bea1-7f852b61ef8a"},"vehicle_type_id":"4","last_reported":1761657800,"current_range_meters":19200,"station_id":"ce4bhm12rcd13ifvqgkg","pricing_plan_id":"cebpf4jnsgd1na2vs0mg"},{"bike_id":"f6adb9c1-4a78-4322-baec-aa5f6f5d93b6","system_id":"levelo_inurba_marseille","lat":43.225321,"lon":5.348302,"is_reserved":false,"is_disabled":false,"rental_uris":{"android":"levelo://app?vid=f6adb9c1-4a78-4322-baec-aa5f6f5d93b6","ios":"levelo://app?vid=f6adb9c1-4a78-4322-baec-aa5f6f5d93b6"},"vehicle_type_id":"4","last_reported":1761657800,"current_range_meters":19200,"station_id":"","pricing_plan_id":"cebpf4jnsgd1na2vs0mg"},{"bike_id":"e3260d53-1f31-4048-a6b1-57d9b1375877","system_id":"levelo_inurba_marseille","lat":43.28513,"lon":5.44117,"is_reserved":false,"is_disabled":false,"rental_uris":{"android":"levelo://app?vid=e3260d53-1f31-4048-a6b1-57d9b1375877","ios":"levelo://app?vid=e3260d53-1f31-4048-a6b1-57d9b1375877"},"vehicle_type_id":"4","last_reported":1761657800,"current_range_meters":19600,"station_id":"st_d3j3df2ikq2c7380ej80","pricing_plan_id":"cebpf4jnsgd1na2vs0mg"},{"bike_id":"8e2dcd31-6a9c-4b7f-a366-5e2640173d3c","system_id":"levelo_inurba_marseille","lat":43.229418,"lon":5.353776,"is_reserved":false,"is_disabled":false,"rental_uris":{"android":"levelo://app?vid=8e2dcd31-6a9c-4b7f-a366-5e2640173d3c","ios":"levelo://app?vid=8e2dcd31-6a9c-4b7f-a366-5e2640173d3c"},"vehicle_type_id":"4","last_reported":1761657800,"current_range_meters":19600,"station_id":"cpo3532slgdg3j2ikp40","pricing_plan_id":"cebpf4jnsgd1na2vs0mg"},{"bike_id":"faee4aed-34d1-4e59-9f3e-bc2337688920","system_id":"levelo_inurba_marseille","lat":43.31702,"lon":5.43693,"is_reserved":false,"is_disabled":true,"rental_uris":{"android":"levelo://app?vid=faee4aed-34d1-4e59-9f3e-bc2337688920","ios":"levelo://app?vid=faee4aed-34d1-4e59-9f3e-bc2337688920"},"vehicle_type_id":"4","last_reported":1761657800,"current_range_meters":19600,"station_id":"ce4bhp92rcd13ifvqhcg","pricing_plan_id":"cebpf4jnsgd1na2vs0mg"},{"bike_id":"1d2f5121-1156-406d-9bfb-6de607efd7cf","system_id":"levelo_inurba_marseille","lat":43.25918,"lon":5.40923,"is_reserved":false,"is_disabled":false,"rental_uris":{"android":"levelo://app?vid=1d2f5121-1156-406d-9bfb-6de607efd7cf","ios":"levelo://app?vid=1d2f5121-1156-406d-9bfb-6de607efd7cf"},"vehicle_type_id":"4","last_reported":1761657800,"current_range_meters":19600,"station_id":"ce4bhm92rcd13ifvqglg","pricing_plan_id":"cebpf4jnsgd1na2vs0mg"},{"bike_id":"4f24d0df-7b9a-48fa-a400-a6a0ae0f4ff8","system_id":"levelo_inurba_marseille","lat":43.24151,"lon":5.39762,"is_reserved":false,"is_disabled":false,"rental_uris":{"android":"levelo://app?vid=4f24d0df-7b9a-48fa-a400-a6a0ae0f4ff8","ios":"levelo://app?vid=4f24d0df-7b9a-48fa-a400-a6a0ae0f4ff8"},"vehicle_type_id":"4","last_reported":1761657800,"current_range_meters":19600,"station_id":"ce4bhn12rcd13ifvqgpg","pricing_plan_id":"cebpf4jnsgd1na2vs0mg"},{"bike_id":"75dc66b3-0d26-400d-85b7-e985f64e2136","system_id":"levelo_inurba_marseille","lat":43.29004,"lon":5.43717,"is_reserved":false,"is_disabled":false,"rental_uris":{"android":"levelo://app?vid=75dc66b3-0d26-400d-85b7-e985f64e2136","ios":"levelo://app?vid=75dc66b3-0d26-400d-85b7-e985f64e2136"},"vehicle_type_id":"4","last_reported":1761657800,"current_range_meters":20000,"station_id":"","pricing_plan_id":"cebpf4jnsgd1na2vs0mg"},{"bike_id":"3d00cf23-a66b-47a1-8eb3-f05af16b09a1","system_id":"levelo_inurba_marseille","lat":43.24391,"lon":5.37089,"is_reserved":false,"is_disabled":false,"rental_uris":{"android":"levelo://app?vid=3d00cf23-a66b-47a1-8eb3-f05af16b09a1","ios":"levelo://app?vid=3d00cf23-a66b-47a1-8eb3-f05af16b09a1"},"vehicle_type_id":"4","last_reported":1761657800,"current_range_meters":20000,"station_id":"ce4bhhh2rcd13ifvqfk0","pricing_plan_id":"cebpf4jnsgd1na2vs0mg"},{"bike_id":"39d094ac-6017-4390-8e80-c3e2498dcfcf","system_id":"levelo_inurba_marseille","lat":43.24624,"lon":5.4315,"is_reserved":false,"is_disabled":false,"rental_uris":{"android":"levelo://app?vid=39d094ac-6017-4390-8e80-c3e2498dcfcf","ios":"levelo://app?vid=39d094ac-6017-4390-8e80-c3e2498dcfcf"},"vehicle_type_id":"4","last_reported":1761657800,"current_range_meters":20000,"station_id":"st_d2m6c4gdas8pm72e190g","pricing_plan_id":"cebpf4jnsgd1na2vs0mg"},{"bike_id":"33aaeb69-4596-4be7-a9ff-47bdc3a2e241","system_id":"levelo_inurba_marseille","lat":43.30353,"lon":5.41881,"is_reserved":false,"is_disabled":false,"rental_uris":{"android":"levelo://app?vid=33aaeb69-4596-4be7-a9ff-47bdc3a2e241","ios":"levelo://app?vid=33aaeb69-4596-4be7-a9ff-47bdc3a2e241"},"vehicle_type_id":"4","last_reported":1761657800,"current_range_meters":20000,"station_id":"ce4bhop2rcd13ifvqh7g","pricing_plan_id":"cebpf4jnsgd1na2vs0mg"},{"bike_id":"1a34b5a4-3c1e-479b-b6f5-76f97d5c5c52","system_id":"levelo_inurba_marseille","lat":43.28523,"lon":5.44103,"is_reserved":false,"is_disabled":false,"rental_uris":{"android":"levelo://app?vid=1a34b5a4-3c1e-479b-b6f5-76f97d5c5c52","ios":"levelo://app?vid=1a34b5a4-3c1e-479b-b6f5-76f97d5c5c52"},"vehicle_type_id":"4","last_reported":1761657800,"current_range_meters":20000,"station_id":"st_d3j3df2ikq2c7380ej80","pricing_plan_id":"cebpf4jnsgd1na2vs0mg"},{"bike_id":"a049967b-d347-4414-83a8-1154d36b087e","system_id":"levelo_inurba_marseille","lat":43.24407,"lon":5.37044,"is_reserved":false,"is_disabled":false,"rental_uris":{"android":"levelo://app?vid=a049967b-d347-4414-83a8-1154d36b087e","ios":"levelo://app?vid=a049967b-d347-4414-83a8-1154d36b087e"},"vehicle_type_id":"4","last_reported":1761657800,"current_range_meters":20000,"station_id":"ce4bhhh2rcd13ifvqfk0","pricing_plan_id":"cebpf4jnsgd1na2vs0mg"},{"bike_id":"a5c56734-aacf-4d9e-a1f9-7450f867f83f","system_id":"levelo_inurba_marseille","lat":43.24181,"lon":5.39737,"is_reserved":false,"is_disabled":false,"rental_uris":{"android":"levelo://app?vid=a5c56734-aacf-4d9e-a1f9-7450f867f83f","ios":"levelo://app?vid=a5c56734-aacf-4d9e-a1f9-7450f867f83f"},"vehicle_type_id":"4","last_reported":1761657800,"current_range_meters":20000,"station_id":"ce4bhn12rcd13ifvqgpg","pricing_plan_id":"cebpf4jnsgd1na2vs0mg"},{"bike_id":"43785a65-fe3d-466c-a9a5-041b18944f49","system_id":"levelo_inurba_marseille","lat":43.28616,"lon":5.3507,"is_reserved":false,"is_disabled":false,"rental_uris":{"android":"levelo://app?vid=43785a65-fe3d-466c-a9a5-041b18944f49","ios":"levelo://app?vid=43785a65-fe3d-466c-a9a5-041b18944f49"},"vehicle_type_id":"4","last_reported":1761657800,"current_range_meters":20000,"station_id":"ce4bhch2rcd13ifvqeug","pricing_plan_id":"cebpf4jnsgd1na2vs0mg"},{"bike_id":"2ef07117-4d0a-4bc1-b997-40ea2f10e73d","system_id":"levelo_inurba_marseille","lat":43.30462,"lon":5.37905,"is_reserved":false,"is_disabled":false,"rental_uris":{"android":"levelo://app?vid=2ef07117-4d0a-4bc1-b997-40ea2f10e73d","ios":"levelo://app?vid=2ef07117-4d0a-4bc1-b997-40ea2f10e73d"},"vehicle_type_id":"4","last_reported":1761657800,"current_range_meters":20400,"station_id":"ce4bgup2rcd13ifvqcn0","pricing_plan_id":"cebpf4jnsgd1na2vs0mg"},{"bike_id":"3a970ed5-0f76-4e11-a376-49eb8c907059","system_id":"levelo_inurba_marseille","lat":43.29552,"lon":5.42297,"is_reserved":false,"is_disabled":false,"rental_uris":{"android":"levelo://app?vid=3a970ed5-0f76-4e11-a376-49eb8c907059","ios":"levelo://app?vid=3a970ed5-0f76-4e11-a376-49eb8c907059"},"vehicle_type_id":"4","last_reported":1761657800,"current_range_meters":20400,"station_id":"ce4bhph2rcd13ifvqhdg","pricing_plan_id":"cebpf4jnsgd1na2vs0mg"},{"bike_id":"02959000-2269-40ae-92c8-3a6e1d7614d4","system_id":"levelo_inurba_marseille","lat":43.30495,"lon":5.38245,"is_reserved":false,"is_disabled":false,"rental_uris":{"android":"levelo://app?vid=02959000-2269-40ae-92c8-3a6e1d7614d4","ios":"levelo://app?vid=02959000-2269-40ae-92c8-3a6e1d7614d4"},"vehicle_type_id":"4","last_reported":1761657800,"current_range_meters":20400,"station_id":"","pricing_plan_id":"cebpf4jnsgd1na2vs0mg"},{"bike_id":"a4ae8120-c0c7-43cc-80fb-ae15f280e263","system_id":"levelo_inurba_marseille","lat":43.30328,"lon":5.40434,"is_reserved":false,"is_disabled":false,"rental_uris":{"android":"levelo://app?vid=a4ae8120-c0c7-43cc-80fb-ae15f280e263","ios":"levelo://app?vid=a4ae8120-c0c7-43cc-80fb-ae15f280e263"},"vehicle_type_id":"4","last_reported":1761657800,"current_range_meters":20400,"station_id":"ce4bh012rcd13ifvqd10","pricing_plan_id":"cebpf4jnsgd1na2vs0mg"},{"bike_id":"36b87f57-baa6-4d7e-b4c8-35675113e45f","system_id":"levelo_inurba_marseille","lat":43.244068,"lon":5.396516,"is_reserved":false,"is_disabled":false,"rental_uris":{"android":"levelo://app?vid=36b87f57-baa6-4d7e-b4c8-35675113e45f","ios":"levelo://app?vid=36b87f57-baa6-4d7e-b4c8-35675113e45f"},"vehicle_type_id":"4","last_reported":1761657800,"current_range_meters":20400,"station_id":"ce4bhlp2rcd13ifvqgjg","pricing_plan_id":"cebpf4jnsgd1na2vs0mg"},{"bike_id":"723a003b-69e7-40c1-8770-b8861d0b490a","system_id":"levelo_inurba_marseille","lat":43.22924,"lon":5.35389,"is_reserved":false,"is_disabled":false,"rental_uris":{"android":"levelo://app?vid=723a003b-69e7-40c1-8770-b8861d0b490a","ios":"levelo://app?vid=723a003b-69e7-40c1-8770-b8861d0b490a"},"vehicle_type_id":"4","last_reported":1761657800,"current_range_meters":20400,"station_id":"cpo3532slgdg3j2ikp40","pricing_plan_id":"cebpf4jnsgd1na2vs0mg"},{"bike_id":"c7529051-caa3-452f-91b4-2bb1a497b11d","system_id":"levelo_inurba_marseille","lat":43.231532,"lon":5.437081,"is_reserved":false,"is_disabled":false,"rental_uris":{"android":"levelo://app?vid=c7529051-caa3-452f-91b4-2bb1a497b11d","ios":"levelo://app?vid=c7529051-caa3-452f-91b4-2bb1a497b11d"},"vehicle_type_id":"4","last_reported":1761657800,"current_range_meters":20400,"station_id":"ce4bhmp2rcd13ifvqgog","pricing_plan_id":"cebpf4jnsgd1na2vs0mg"},{"bike_id":"db0d7fd2-78fb-49f2-88b1-362741a795cb","system_id":"levelo_inurba_marseille","lat":43.337444,"lon":5.374475,"is_reserved":false,"is_disabled":false,"rental_uris":{"android":"levelo://app?vid=db0d7fd2-78fb-49f2-88b1-362741a795cb","ios":"levelo://app?vid=db0d7fd2-78fb-49f2-88b1-362741a795cb"},"vehicle_type_id":"4","last_reported":1761657800,"current_range_meters":20800,"station_id":"","pricing_plan_id":"cebpf4jnsgd1na2vs0mg"},{"bike_id":"54b14a5b-1cb9-4119-885b-796c26f33979","system_id":"levelo_inurba_marseille","lat":43.33023,"lon":5.39039,"is_reserved":false,"is_disabled":false,"rental_uris":{"android":"levelo://app?vid=54b14a5b-1cb9-4119-885b-796c26f33979","ios":"levelo://app?vid=54b14a5b-1cb9-4119-885b-796c26f33979"},"vehicle_type_id":"4","last_reported":1761657800,"current_range_meters":20800,"station_id":"ce4bhr92rcd13ifvqhrg","pricing_plan_id":"cebpf4jnsgd1na2vs0mg"},{"bike_id":"26fe4e43-6685-4528-a529-fbd524981758","system_id":"levelo_inurba_marseille","lat":43.24065,"lon":5.377479,"is_reserved":false,"is_disabled":false,"rental_uris":{"android":"levelo://app?vid=26fe4e43-6685-4528-a529-fbd524981758","ios":"levelo://app?vid=26fe4e43-6685-4528-a529-fbd524981758"},"vehicle_type_id":"4","last_reported":1761657800,"current_range_meters":20800,"station_id":"ce4bhnp2rcd13ifvqgvg","pricing_plan_id":"cebpf4jnsgd1na2vs0mg"},{"bike_id":"6ddfb4f7-5607-43c7-8d86-e53892364f1c","system_id":"levelo_inurba_marseille","lat":43.28502,"lon":5.38565,"is_reserved":false,"is_disabled":false,"rental_uris":{"android":"levelo://app?vid=6ddfb4f7-5607-43c7-8d86-e53892364f1c","ios":"levelo://app?vid=6ddfb4f7-5607-43c7-8d86-e53892364f1c"},"vehicle_type_id":"4","last_reported":1761657800,"current_range_meters":20800,"station_id":"ce4bh8p2rcd13ifvqeb0","pricing_plan_id":"cebpf4jnsgd1na2vs0mg"},{"bike_id":"d9a6a1f6-ad3e-4d83-b3dd-5f0ef903b947","system_id":"levelo_inurba_marseille","lat":43.230866,"lon":5.354803,"is_reserved":false,"is_disabled":false,"rental_uris":{"android":"levelo://app?vid=d9a6a1f6-ad3e-4d83-b3dd-5f0ef903b947","ios":"levelo://app?vid=d9a6a1f6-ad3e-4d83-b3dd-5f0ef903b947"},"vehicle_type_id":"4","last_reported":1761657800,"current_range_meters":21600,"station_id":"","pricing_plan_id":"cebpf4jnsgd1na2vs0mg"},{"bike_id":"a0474314-7ae2-4494-9e0f-783c40c1c91a","system_id":"levelo_inurba_marseille","lat":43.23059,"lon":5.35486,"is_reserved":false,"is_disabled":false,"rental_uris":{"android":"levelo://app?vid=a0474314-7ae2-4494-9e0f-783c40c1c91a","ios":"levelo://app?vid=a0474314-7ae2-4494-9e0f-783c40c1c91a"},"vehicle_type_id":"4","last_reported":1761657800,"current_range_meters":21600,"station_id":"","pricing_plan_id":"cebpf4jnsgd1na2vs0mg"},{"bike_id":"556c95c4-e39d-4a50-b32b-6e1b11658636","system_id":"levelo_inurba_marseille","lat":43.24155,"lon":5.36393,"is_reserved":false,"is_disabled":false,"rental_uris":{"android":"levelo://app?vid=556c95c4-e39d-4a50-b32b-6e1b11658636","ios":"levelo://app?vid=556c95c4-e39d-4a50-b32b-6e1b11658636"},"vehicle_type_id":"4","last_reported":1761657800,"current_range_meters":21600,"station_id":"cpo36qri1sfpv3e86is0","pricing_plan_id":"cebpf4jnsgd1na2vs0mg"},{"bike_id":"d52eaf65-2a2a-41b8-a5de-9739e590ec9b","system_id":"levelo_inurba_marseille","lat":43.248005,"lon":5.374575,"is_reserved":false,"is_disabled":false,"rental_uris":{"android":"levelo://app?vid=d52eaf65-2a2a-41b8-a5de-9739e590ec9b","ios":"levelo://app?vid=d52eaf65-2a2a-41b8-a5de-9739e590ec9b"},"vehicle_type_id":"4","last_reported":1761657800,"current_range_meters":21600,"station_id":"ce4bhgh2rcd13ifvqfb0","pricing_plan_id":"cebpf4jnsgd1na2vs0mg"},{"bike_id":"867c2f2c-a525-4c7f-861e-4ba9193858e5","system_id":"levelo_inurba_marseille","lat":43.27203,"lon":5.39191,"is_reserved":false,"is_disabled":false,"rental_uris":{"android":"levelo://app?vid=867c2f2c-a525-4c7f-861e-4ba9193858e5","ios":"levelo://app?vid=867c2f2c-a525-4c7f-861e-4ba9193858e5"},"vehicle_type_id":"4","last_reported":1761657800,"current_range_meters":21600,"station_id":"ce4bhhp2rcd13ifvqfm0","pricing_plan_id":"cebpf4jnsgd1na2vs0mg"},{"bike_id":"15f85aec-5db7-4ae6-8b95-81c3db0a6aae","system_id":"levelo_inurba_marseille","lat":43.23139,"lon":5.43725,"is_reserved":false,"is_disabled":false,"rental_uris":{"android":"levelo://app?vid=15f85aec-5db7-4ae6-8b95-81c3db0a6aae","ios":"levelo://app?vid=15f85aec-5db7-4ae6-8b95-81c3db0a6aae"},"vehicle_type_id":"4","last_reported":1761657800,"current_range_meters":21600,"station_id":"ce4bhmp2rcd13ifvqgog","pricing_plan_id":"cebpf4jnsgd1na2vs0mg"},{"bike_id":"70b7cc64-568f-4d5c-92ad-162d6e03c342","system_id":"levelo_inurba_marseille","lat":43.2256,"lon":5.41636,"is_reserved":false,"is_disabled":false,"rental_uris":{"android":"levelo://app?vid=70b7cc64-568f-4d5c-92ad-162d6e03c342","ios":"levelo://app?vid=70b7cc64-568f-4d5c-92ad-162d6e03c342"},"vehicle_type_id":"4","last_reported":1761657800,"current_range_meters":21600,"station_id":"st_d2o4gvlbi1j2169b742g","pricing_plan_id":"cebpf4jnsgd1na2vs0mg"},{"bike_id":"6eab395f-908f-4e05-896e-00982c676b97","system_id":"levelo_inurba_marseille","lat":43.26547,"lon":5.37285,"is_reserved":false,"is_disabled":false,"rental_uris":{"android":"levelo://app?vid=6eab395f-908f-4e05-896e-00982c676b97","ios":"levelo://app?vid=6eab395f-908f-4e05-896e-00982c676b97"},"vehicle_type_id":"4","last_reported":1761657800,"current_range_meters":21600,"station_id":"ce4bhg12rcd13ifvqf70","pricing_plan_id":"cebpf4jnsgd1na2vs0mg"},{"bike_id":"7e8c1e26-ecbd-4814-afed-2c8de011139c","system_id":"levelo_inurba_marseille","lat":43.266895,"lon":5.382737,"is_reserved":false,"is_disabled":false,"rental_uris":{"android":"levelo://app?vid=7e8c1e26-ecbd-4814-afed-2c8de011139c","ios":"levelo://app?vid=7e8c1e26-ecbd-4814-afed-2c8de011139c"},"vehicle_type_id":"4","last_reported":1761657800,"current_range_meters":22000,"station_id":"ce4bhg92rcd13ifvqf90","pricing_plan_id":"cebpf4jnsgd1na2vs0mg"},{"bike_id":"0aaccd4f-3ae6-4377-997d-dfcefde2220d","system_id":"levelo_inurba_marseille","lat":43.23959,"lon":5.3663,"is_reserved":false,"is_disabled":false,"rental_uris":{"android":"levelo://app?vid=0aaccd4f-3ae6-4377-997d-dfcefde2220d","ios":"levelo://app?vid=0aaccd4f-3ae6-4377-997d-dfcefde2220d"},"vehicle_type_id":"4","last_reported":1761657800,"current_range_meters":22000,"station_id":"ce4bhi12rcd13ifvqfp0","pricing_plan_id":"cebpf4jnsgd1na2vs0mg"},{"bike_id":"6fa77929-e505-416b-9afd-2bfca1b80818","system_id":"levelo_inurba_marseille","lat":43.30925,"lon":5.36842,"is_reserved":false,"is_disabled":false,"rental_uris":{"android":"levelo://app?vid=6fa77929-e505-416b-9afd-2bfca1b80818","ios":"levelo://app?vid=6fa77929-e505-416b-9afd-2bfca1b80818"},"vehicle_type_id":"4","last_reported":1761657800,"current_range_meters":22000,"station_id":"ce4bgn92rcd13ifvqbvg","pricing_plan_id":"cebpf4jnsgd1na2vs0mg"},{"bike_id":"51f5d3a4-5ca4-428d-8c3a-6dc58c961bd7","system_id":"levelo_inurba_marseille","lat":43.31295,"lon":5.36817,"is_reserved":false,"is_disabled":false,"rental_uris":{"android":"levelo://app?vid=51f5d3a4-5ca4-428d-8c3a-6dc58c961bd7","ios":"levelo://app?vid=51f5d3a4-5ca4-428d-8c3a-6dc58c961bd7"},"vehicle_type_id":"4","last_reported":1761657800,"current_range_meters":22000,"station_id":"ce4bgl92rcd13ifvqbq0","pricing_plan_id":"cebpf4jnsgd1na2vs0mg"},{"bike_id":"47e1e78b-045c-462a-97bf-cd3a9dfd847d","system_id":"levelo_inurba_marseille","lat":43.29839,"lon":5.36286,"is_reserved":false,"is_disabled":false,"rental_uris":{"android":"levelo://app?vid=47e1e78b-045c-462a-97bf-cd3a9dfd847d","ios":"levelo://app?vid=47e1e78b-045c-462a-97bf-cd3a9dfd847d"},"vehicle_type_id":"4","last_reported":1761657800,"current_range_meters":22000,"station_id":"ce4bgpp2rcd13ifvqc3g","pricing_plan_id":"cebpf4jnsgd1na2vs0mg"},{"bike_id":"e0fbdcc5-6675-4290-bb45-c9c73d698af6","system_id":"levelo_inurba_marseille","lat":43.22567,"lon":5.4163,"is_reserved":false,"is_disabled":false,"rental_uris":{"android":"levelo://app?vid=e0fbdcc5-6675-4290-bb45-c9c73d698af6","ios":"levelo://app?vid=e0fbdcc5-6675-4290-bb45-c9c73d698af6"},"vehicle_type_id":"4","last_reported":1761657800,"current_range_meters":22000,"station_id":"st_d2o4gvlbi1j2169b742g","pricing_plan_id":"cebpf4jnsgd1na2vs0mg"},{"bike_id":"e0796d62-6d37-4965-a904-8fb182679a18","system_id":"levelo_inurba_marseille","lat":43.25573,"lon":5.38239,"is_reserved":false,"is_disabled":false,"rental_uris":{"android":"levelo://app?vid=e0796d62-6d37-4965-a904-8fb182679a18","ios":"levelo://app?vid=e0796d62-6d37-4965-a904-8fb182679a18"},"vehicle_type_id":"4","last_reported":1761657800,"current_range_meters":22000,"station_id":"ce4bhih2rcd13ifvqfs0","pricing_plan_id":"cebpf4jnsgd1na2vs0mg"},{"bike_id":"f6071b78-6d8c-44e6-a7ac-f0ad68d12a87","system_id":"levelo_inurba_marseille","lat":43.25337,"lon":5.42178,"is_reserved":false,"is_disabled":false,"rental_uris":{"android":"levelo://app?vid=f6071b78-6d8c-44e6-a7ac-f0ad68d12a87","ios":"levelo://app?vid=f6071b78-6d8c-44e6-a7ac-f0ad68d12a87"},"vehicle_type_id":"4","last_reported":1761657800,"current_range_meters":22000,"station_id":"st_d2m65c5bi1j21697t3ng","pricing_plan_id":"cebpf4jnsgd1na2vs0mg"},{"bike_id":"9d19aa12-f7d8-4182-8cd0-6d800ec08c05","system_id":"levelo_inurba_marseille","lat":43.276166,"lon":5.360981,"is_reserved":false,"is_disabled":true,"rental_uris":{"android":"levelo://app?vid=9d19aa12-f7d8-4182-8cd0-6d800ec08c05","ios":"levelo://app?vid=9d19aa12-f7d8-4182-8cd0-6d800ec08c05"},"vehicle_type_id":"4","last_reported":1761657800,"current_range_meters":22000,"station_id":"ce4bgj92rcd13ifvqbe0","pricing_plan_id":"cebpf4jnsgd1na2vs0mg"},{"bike_id":"48a10761-c8e4-4754-bd36-dda7626a0acc","system_id":"levelo_inurba_marseille","lat":43.30546,"lon":5.365658,"is_reserved":false,"is_disabled":false,"rental_uris":{"android":"levelo://app?vid=48a10761-c8e4-4754-bd36-dda7626a0acc","ios":"levelo://app?vid=48a10761-c8e4-4754-bd36-dda7626a0acc"},"vehicle_type_id":"4","last_reported":1761657800,"current_range_meters":22000,"station_id":"ce4bgs12rcd13ifvqcag","pricing_plan_id":"cebpf4jnsgd1na2vs0mg"},{"bike_id":"cce5e579-74d7-4001-8bed-2339db92afeb","system_id":"levelo_inurba_marseille","lat":43.24066,"lon":5.37757,"is_reserved":false,"is_disabled":false,"rental_uris":{"android":"levelo://app?vid=cce5e579-74d7-4001-8bed-2339db92afeb","ios":"levelo://app?vid=cce5e579-74d7-4001-8bed-2339db92afeb"},"vehicle_type_id":"4","last_reported":1761657800,"current_range_meters":22400,"station_id":"ce4bhnp2rcd13ifvqgvg","pricing_plan_id":"cebpf4jnsgd1na2vs0mg"},{"bike_id":"f1fd0721-ff1a-4bd5-988e-a77e52cf7919","system_id":"levelo_inurba_marseille","lat":43.321,"lon":5.3676,"is_reserved":false,"is_disabled":false,"rental_uris":{"android":"levelo://app?vid=f1fd0721-ff1a-4bd5-988e-a77e52cf7919","ios":"levelo://app?vid=f1fd0721-ff1a-4bd5-988e-a77e52cf7919"},"vehicle_type_id":"4","last_reported":1761657800,"current_range_meters":22400,"station_id":"ce4bhrh2rcd13ifvqhug","pricing_plan_id":"cebpf4jnsgd1na2vs0mg"},{"bike_id":"3ba52ea8-0ea0-4fb5-ac42-028d4d8a821d","system_id":"levelo_inurba_marseille","lat":43.25491,"lon":5.37655,"is_reserved":false,"is_disabled":false,"rental_uris":{"android":"levelo://app?vid=3ba52ea8-0ea0-4fb5-ac42-028d4d8a821d","ios":"levelo://app?vid=3ba52ea8-0ea0-4fb5-ac42-028d4d8a821d"},"vehicle_type_id":"4","last_reported":1761657800,"current_range_meters":22400,"station_id":"ce4bhh12rcd13ifvqff0","pricing_plan_id":"cebpf4jnsgd1na2vs0mg"},{"bike_id":"f5aa09e5-d97d-4991-991f-acf2b2d323eb","system_id":"levelo_inurba_marseille","lat":43.217478,"lon":5.346052,"is_reserved":false,"is_disabled":false,"rental_uris":{"android":"levelo://app?vid=f5aa09e5-d97d-4991-991f-acf2b2d323eb","ios":"levelo://app?vid=f5aa09e5-d97d-4991-991f-acf2b2d323eb"},"vehicle_type_id":"4","last_reported":1761657800,"current_range_meters":22400,"station_id":"","pricing_plan_id":"cebpf4jnsgd1na2vs0mg"},{"bike_id":"c5f2c7e9-f7a5-4eb8-ba3e-0bfdb1226950","system_id":"levelo_inurba_marseille","lat":43.26785,"lon":5.39431,"is_reserved":false,"is_disabled":false,"rental_uris":{"android":"levelo://app?vid=c5f2c7e9-f7a5-4eb8-ba3e-0bfdb1226950","ios":"levelo://app?vid=c5f2c7e9-f7a5-4eb8-ba3e-0bfdb1226950"},"vehicle_type_id":"4","last_reported":1761657800,"current_range_meters":22400,"station_id":"ce4bhh12rcd13ifvqfg0","pricing_plan_id":"cebpf4jnsgd1na2vs0mg"},{"bike_id":"e7648629-0488-45b6-9788-6dcb1c23e80a","system_id":"levelo_inurba_marseille","lat":43.30924,"lon":5.36851,"is_reserved":false,"is_disabled":false,"rental_uris":{"android":"levelo://app?vid=e7648629-0488-45b6-9788-6dcb1c23e80a","ios":"levelo://app?vid=e7648629-0488-45b6-9788-6dcb1c23e80a"},"vehicle_type_id":"4","last_reported":1761657800,"current_range_meters":22400,"station_id":"ce4bgn92rcd13ifvqbvg","pricing_plan_id":"cebpf4jnsgd1na2vs0mg"},