{"last_updated":1716840461,"ttl":30,"version":"2.2","data":{"bikes":[{"bike_id":"cd3177a4-9e4a-4aab-b8f4-b350a66afc02","system_id":"levelo_inurba_marseille","lat":43.312115,"lon":5.368296,"is_reserved":false,"is_disabled":false,"rental_uris":{"android":"levelo://app?vid=cd3177a4-9e4a-4aab-b8f4-b350a66afc02","ios":"levelo://app?vid=cd3177a4-9e4a-4aab-b8f4-b350a66afc02"},"vehicle_type_id":"4","last_reported":1716840462,"current_range_meters":4800,"station_id":"ce4bgpp2rcd13ifvqc3g","pricing_plan_id":"cebpf4jnsgd1na2vs0mg"},{"bike_id":"3d8c6da0-0973-4be4-a958-cc87ec1584eb","system_id":"levelo_inurba_marseille","lat":43.312239,"lon":5.368562,"is_reserved":false,"is_disabled":false,"rental_uris":{"android":"levelo://app?vid=3d8c6da0-0973-4be4-a958-cc87ec1584eb","ios":"levelo://app?vid=3d8c6da0-0973-4be4-a958-cc87ec1584eb"},"vehicle_type_id":"4","last_reported":1716840462,"current_range_meters":23200,"station_id":"ce4bgl92rcd13ifvqbq0","pricing_plan_id":"cebpf4jnsgd1na2vs0mg"},{"bike_id":"5edc151c-4f1c-4d10-a03b-40b61dfebb95","system_id":"levelo_inurba_marseille","lat":43.309076,"lon":5.368465,"is_reserved":false,"is_disabled":false,"rental_uris":{"android":"levelo://app?vid=5edc151c-4f1c-4d10-a03b-40b61dfebb95","ios":"levelo://app?vid=5edc151c-4f1c-4d10-a03b-40b61dfebb95"},"vehicle_type_id":"4","last_reported":1716840462,"current_range_meters":16800,"station_id":"ce4bgn92rcd13ifvqbvg","pricing_plan_id":"cebpf4jnsgd1na2vs0mg"},{"bike_id":"6eaf2e57-2de7-4a8a-b1d1-c2ddca52a5be","system_id":"levelo_inurba_marseille","lat":43.309076,"lon":5.368465,"is_reserved":false,"is_disabled":false,"rental_uris":{"android":"levelo://app?vid=6eaf2e57-2de7-4a8a-b1d1-c2ddca52a5be","ios":"levelo://app?vid=6eaf2e57-2de7-4a8a-b1d1-c2ddca52a5be"},"vehicle_type_id":"4","last_reported":1716840462,"current_range_meters":22400,"station_id":"ce4bgn92rcd13ifvqbvg","pricing_plan_id":"cebpf4jnsgd1na2vs0mg"},{"bike_id":"95a8d575-017e-40bc-8d00-2215758e81b5","system_id":"levelo_inurba_marseille","lat":43.314811,"lon":5.373103,"is_reserved":false,"is_disabled":false,"rental_uris":{"android":"levelo://app?vid=95a8d575-017e-40bc-8d00-2215758e81b5","ios":"levelo://app?vid=95a8d575-017e-40bc-8d00-2215758e81b5"},"vehicle_type_id":"4","last_reported":1716840462,"current_range_meters":0,"station_id":"ce4bgt12rcd13ifvqcd0","pricing_plan_id":"cebpf4jnsgd1na2vs0mg"},{"bike_id":"3cd302e8-fd02-4deb-ace6-cff41f947cfd","system_id":"levelo_inurba_marseille","lat":43.315022,"lon":5.373102,"is_reserved":false,"is_disabled":false,"rental_uris":{"android":"levelo://app?vid=3cd302e8-fd02-4deb-ace6-cff41f947cfd","ios":"levelo://app?vid=3cd302e8-fd02-4deb-ace6-cff41f947cfd"},"vehicle_type_id":"4","last_reported":1716840462,"current_range_meters":25200,"station_id":"ce4bgt12rcd13ifvqcd0","pricing_plan_id":"cebpf4jnsgd1na2vs0mg"},{"bike_id":"02e523f3-d534-49ff-a90f-5c2655aa3fa4","system_id":"levelo_inurba_marseille","lat":43.309039,"lon":5.371797,"is_reserved":false,"is_disabled":false,"rental_uris":{"android":"levelo://app?vid=02e523f3-d534-49ff-a90f-5c2655aa3fa4","ios":"levelo://app?vid=02e523f3-d534-49ff-a90f-5c2655aa3fa4"},"vehicle_type_id":"4","last_reported":1716840462,"current_range_meters":12000,"station_id":"ce4bguh2rcd13ifvqckg","pricing_plan_id":"cebpf4jnsgd1na2vs0mg"},{"bike_id":"e9c35f1e-c905-415e-a6b7-652035f1608f","system_id":"levelo_inurba_marseille","lat":43.309039,"lon":5.371797,"is_reserved":false,"is_disabled":false,"rental_uris":{"android":"levelo://app?vid=e9c35f1e-c905-415e-a6b7-652035f1608f","ios":"levelo://app?vid=e9c35f1e-c905-415e-a6b7-652035f1608f"},"vehicle_type_id":"4","last_reported":1716840462,"current_range_meters":17200,"station_id":"ce4bguh2rcd13ifvqckg","pricing_plan_id":"cebpf4jnsgd1na2vs0mg"},{"bike_id":"29a39f65-5f0e-4b0e-b6a8-aeb8412bb44d","system_id":"levelo_inurba_marseille","lat":43.324771,"lon":5.36557,"is_reserved":false,"is_disabled":false,"rental_uris":{"android":"levelo://app?vid=29a39f65-5f0e-4b0e-b6a8-aeb8412bb44d","ios":"levelo://app?vid=29a39f65-5f0e-4b0e-b6a8-aeb8412bb44d"},"vehicle_type_id":"4","last_reported":1716840462,"current_range_meters":12400,"station_id":"ce4bhs12rcd13ifvqhvg","pricing_plan_id":"cebpf4jnsgd1na2vs0mg"},{"bike_id":"af75e7d8-ab22-437e-877d-e6be079015eb","system_id":"levelo_inurba_marseille","lat":43.309039,"lon":5.371797,"is_reserved":false,"is_disabled":false,"rental_uris":{"android":"levelo://app?vid=af75e7d8-ab22-437e-877d-e6be079015eb","ios":"levelo://app?vid=af75e7d8-ab22-437e-877d-e6be079015eb"},"vehicle_type_id":"4","last_reported":1716840462,"current_range_meters":22800,"station_id":"ce4bguh2rcd13ifvqckg","pricing_plan_id":"cebpf4jnsgd1na2vs0mg"},{"bike_id":"e0657f46-192b-45ce-811f-b3f3cd725080","system_id":"levelo_inurba_marseille","lat":43.309039,"lon":5.371797,"is_reserved":false,"is_disabled":false,"rental_uris":{"android":"levelo://app?vid=e0657f46-192b-45ce-811f-b3f3cd725080","ios":"levelo://app?vid=e0657f46-192b-45ce-811f-b3f3cd725080"},"vehicle_type_id":"4","last_reported":1716840462,"current_range_meters":10000,"station_id":"ce4bguh2rcd13ifvqckg","pricing_plan_id":"cebpf4jnsgd1na2vs0mg"},{"bike_id":"98b43243-c4de-433c-8c8f-398ad5c4b30a","system_id":"levelo_inurba_marseille","lat":43.309039,"lon":5.371797,"is_reserved":false,"is_disabled":false,"rental_uris":{"android":"levelo://app?vid=98b43243-c4de-433c-8c8f-398ad5c4b30a","ios":"levelo://app?vid=98b43243-c4de-433c-8c8f-398ad5c4b30a"},"vehicle_type_id":"4","last_reported":1716840462,"current_range_meters":1600,"station_id":"ce4bguh2rcd13ifvqckg","pricing_plan_id":"cebpf4jnsgd1na2vs0mg"},{"bike_id":"e5b9c934-a0ad-4ac3-a861-45b491160763","system_id":"levelo_inurba_marseille","lat":43.305444,"lon":5.367049,"is_reserved":false,"is_disabled":false,"rental_uris":{"android":"levelo://app?vid=e5b9c934-a0ad-4ac3-a861-45b491160763","ios":"levelo://app?vid=e5b9c934-a0ad-4ac3-a861-45b491160763"},"vehicle_type_id":"4","last_reported":1716840462,"current_range_meters":0,"station_id":"ce4bgrp2rcd13ifvqc9g","pricing_plan_id":"cebpf4jnsgd1na2vs0mg"},{"bike_id":"7cb49e2f-038d-424d-a423-3df7590217eb","system_id":"levelo_inurba_marseille","lat":43.305468,"lon":5.365412,"is_reserved":false,"is_disabled":false,"rental_uris":{"android":"levelo://app?vid=7cb49e2f-038d-424d-a423-3df7590217eb","ios":"levelo://app?vid=7cb49e2f-038d-424d-a423-3df7590217eb"},"vehicle_type_id":"4","last_reported":1716840462,"current_range_meters":0,"station_id":"ce4bgs12rcd13ifvqcag","pricing_plan_id":"cebpf4jnsgd1na2vs0mg"},{"bike_id":"a0df47c2-d4e8-4efc-81d5-647391bfdbb8","system_id":"levelo_inurba_marseille","lat":43.305209,"lon":5.366983,"is_reserved":false,"is_disabled":false,"rental_uris":{"android":"levelo://app?vid=a0df47c2-d4e8-4efc-81d5-647391bfdbb8","ios":"levelo://app?vid=a0df47c2-d4e8-4efc-81d5-647391bfdbb8"},"vehicle_type_id":"4","last_reported":1716840462,"current_range_meters":0,"station_id":"ce4bgrp2rcd13ifvqc9g","pricing_plan_id":"cebpf4jnsgd1na2vs0mg"},{"bike_id":"b283e0bd-290e-4808-9463-f33cc0f7e6d8","system_id":"levelo_inurba_marseille","lat":43.31117,"lon":5.37757,"is_reserved":false,"is_disabled":false,"rental_uris":{"android":"levelo://app?vid=b283e0bd-290e-4808-9463-f33cc0f7e6d8","ios":"levelo://app?vid=b283e0bd-290e-4808-9463-f33cc0f7e6d8"},"vehicle_type_id":"4","last_reported":1716840462,"current_range_meters":13600,"station_id":"ce4bgt92rcd13ifvqcg0","pricing_plan_id":"cebpf4jnsgd1na2vs0mg"},{"bike_id":"18ba747a-c38d-4e2d-8317-d3d2a4a5f7d6","system_id":"levelo_inurba_marseille","lat":43.311243,"lon":5.377631,"is_reserved":false,"is_disabled":false,"rental_uris":{"android":"levelo://app?vid=18ba747a-c38d-4e2d-8317-d3d2a4a5f7d6","ios":"levelo://app?vid=18ba747a-c38d-4e2d-8317-d3d2a4a5f7d6"},"vehicle_type_id":"4","last_reported":1716840462,"current_range_meters":3600,"station_id":"ce4bgt92rcd13ifvqcg0","pricing_plan_id":"cebpf4jnsgd1na2vs0mg"},{"bike_id":"b3a20ada-38e5-4d4c-9760-3ecfffb6b71f","system_id":"levelo_inurba_marseille","lat":43.311125,"lon":5.377624,"is_reserved":false,"is_disabled":false,"rental_uris":{"android":"levelo://app?vid=b3a20ada-38e5-4d4c-9760-3ecfffb6b71f","ios":"levelo://app?vid=b3a20ada-38e5-4d4c-9760-3ecfffb6b71f"},"vehicle_type_id":"4","last_reported":1716840462,"current_range_meters":9200,"station_id":"ce4bgt92rcd13ifvqcg0","pricing_plan_id":"cebpf4jnsgd1na2vs0mg"},{"bike_id":"bdc99289-c05c-4d21-a69e-5ed5302ac825","system_id":"levelo_inurba_marseille","lat":43.311243,"lon":5.377686,"is_reserved":false,"is_disabled":false,"rental_uris":{"android":"levelo://app?vid=bdc99289-c05c-4d21-a69e-5ed5302ac825","ios":"levelo://app?vid=bdc99289-c05c-4d21-a69e-5ed5302ac825"},"vehicle_type_id":"4","last_reported":1716840462,"current_range_meters":23200,"station_id":"ce4bgt92rcd13ifvqcg0","pricing_plan_id":"cebpf4jnsgd1na2vs0mg"},{"bike_id":"65108ca7-4060-44b9-aa9b-343de4306483","system_id":"levelo_inurba_marseille","lat":43.318507,"lon":5.374589,"is_reserved":false,"is_disabled":false,"rental_uris":{"android":"levelo://app?vid=65108ca7-4060-44b9-aa9b-343de4306483","ios":"levelo://app?vid=65108ca7-4060-44b9-aa9b-343de4306483"},"vehicle_type_id":"4","last_reported":1716840462,"current_range_meters":6400,"station_id":"","pricing_plan_id":"cebpf4jnsgd1na2vs0mg"},{"bike_id":"2090990f-7e3f-4deb-a925-4195cd6b46ff","system_id":"levelo_inurba_marseille","lat":43.311125,"lon":5.377624,"is_reserved":false,"is_disabled":false,"rental_uris":{"android":"levelo://app?vid=2090990f-7e3f-4deb-a925-4195cd6b46ff","ios":"levelo://app?vid=2090990f-7e3f-4deb-a925-4195cd6b46ff"},"vehicle_type_id":"4","last_reported":1716840462,"current_range_meters":18400,"station_id":"ce4bgt92rcd13ifvqcg0","pricing_plan_id":"cebpf4jnsgd1na2vs0mg"},{"bike_id":"62c7be4d-80b9-41bc-ab7f-24ffd861909f","system_id":"levelo_inurba_marseille","lat":43.311131,"lon":5.377651,"is_reserved":false,"is_disabled":false,"rental_uris":{"android":"levelo://app?vid=62c7be4d-80b9-41bc-ab7f-24ffd861909f","ios":"levelo://app?vid=62c7be4d-80b9-41bc-ab7f-24ffd861909f"},"vehicle_type_id":"4","last_reported":1716840462,"current_range_meters":0,"station_id":"ce4bgt92rcd13ifvqcg0","pricing_plan_id":"cebpf4jnsgd1na2vs0mg"},{"bike_id":"a6db660d-75b6-4b2b-8179-ac141ffe0aaf","system_id":"levelo_inurba_marseille","lat":43.307926,"lon":5.376319,"is_reserved":false,"is_disabled":false,"rental_uris":{"android":"levelo://app?vid=a6db660d-75b6-4b2b-8179-ac141ffe0aaf","ios":"levelo://app?vid=a6db660d-75b6-4b2b-8179-ac141ffe0aaf"},"vehicle_type_id":"4","last_reported":1716840462,"current_range_meters":0,"station_id":"ce4bgv92rcd13ifvqcq0","pricing_plan_id":"cebpf4jnsgd1na2vs0mg"},{"bike_id":"f5baf346-49ce-40d8-af09-fb5a94e153b6","system_id":"levelo_inurba_marseille","lat":43.307875,"lon":5.376314,"is_reserved":false,"is_disabled":false,"rental_uris":{"android":"levelo://app?vid=f5baf346-49ce-40d8-af09-fb5a94e153b6","ios":"levelo://app?vid=f5baf346-49ce-40d8-af09-fb5a94e153b6"},"vehicle_type_id":"4","last_reported":1716840462,"current_range_meters":0,"station_id":"ce4bgv92rcd13ifvqcq0","pricing_plan_id":"cebpf4jnsgd1na2vs0mg"},{"bike_id":"847fdbf6-44be-4f34-9743-2bd8c9c66572","system_id":"levelo_inurba_marseille","lat":43.307945,"lon":5.376487,"is_reserved":false,"is_disabled":false,"rental_uris":{"android":"levelo://app?vid=847fdbf6-44be-4f34-9743-2bd8c9c66572","ios":"levelo://app?vid=847fdbf6-44be-4f34-9743-2bd8c9c66572"},"vehicle_type_id":"4","last_reported":1716840462,"current_range_meters":3600,"station_id":"ce4bgv92rcd13ifvqcq0","pricing_plan_id":"cebpf4jnsgd1na2vs0mg"},{"bike_id":"cf4d9b61-3938-43af-9c8b-812b0899bda5","system_id":"levelo_inurba_marseille","lat":43.317062,"lon":5.377325,"is_reserved":false,"is_disabled":false,"rental_uris":{"android":"levelo://app?vid=cf4d9b61-3938-43af-9c8b-812b0899bda5","ios":"levelo://app?vid=cf4d9b61-3938-43af-9c8b-812b0899bda5"},"vehicle_type_id":"4","last_reported":1716840462,"current_range_meters":5200,"station_id":"ce4bgth2rcd13ifvqch0","pricing_plan_id":"cebpf4jnsgd1na2vs0mg"},{"bike_id":"e55d33eb-2a6d-49c3-a0a3-a08e3114858b","system_id":"levelo_inurba_marseille","lat":43.31714,"lon":5.377277,"is_reserved":false,"is_disabled":false,"rental_uris":{"android":"levelo://app?vid=e55d33eb-2a6d-49c3-a0a3-a08e3114858b","ios":"levelo://app?vid=e55d33eb-2a6d-49c3-a0a3-a08e3114858b"},"vehicle_type_id":"4","last_reported":1716840462,"current_range_meters":6000,"station_id":"ce4bgth2rcd13ifvqch0","pricing_plan_id":"cebpf4jnsgd1na2vs0mg"},{"bike_id":"2e9f1483-92b0-4792-a184-3b5670c25f9c","system_id":"levelo_inurba_marseille","lat":43.316994,"lon":5.377517,"is_reserved":false,"is_disabled":false,"rental_uris":{"android":"levelo://app?vid=2e9f1483-92b0-4792-a184-3b5670c25f9c","ios":"levelo://app?vid=2e9f1483-92b0-4792-a184-3b5670c25f9c"},"vehicle_type_id":"4","last_reported":1716840462,"current_range_meters":8800,"station_id":"ce4bgth2rcd13ifvqch0","pricing_plan_id":"cebpf4jnsgd1na2vs0mg"},{"bike_id":"30993bfa-22e8-48fc-b3ba-14d1b85ca4d9","system_id":"levelo_inurba_marseille","lat":43.317125,"lon":5.377463,"is_reserved":false,"is_disabled":false,"rental_uris":{"android":"levelo://app?vid=30993bfa-22e8-48fc-b3ba-14d1b85ca4d9","ios":"levelo://app?vid=30993bfa-22e8-48fc-b3ba-14d1b85ca4d9"},"vehicle_type_id":"4","last_reported":1716840462,"current_range_meters":2800,"station_id":"ce4bgth2rcd13ifvqch0","pricing_plan_id":"cebpf4jnsgd1na2vs0mg"},{"bike_id":"241e28e8-a252-4394-bde7-a3c37b515b08","system_id":"levelo_inurba_marseille","lat":43.317218,"lon":5.377462,"is_reserved":false,"is_disabled":false,"rental_uris":{"android":"levelo://app?vid=241e28e8-a252-4394-bde7-a3c37b515b08","ios":"levelo://app?vid=241e28e8-a252-4394-bde7-a3c37b515b08"},"vehicle_type_id":"4","last_reported":1716840462,"current_range_meters":0,"station_id":"ce4bgth2rcd13ifvqch0","pricing_plan_id":"cebpf4jnsgd1na2vs0mg"},{"bike_id":"2896b12d-f22c-448a-a659-808a61241b7c","system_id":"levelo_inurba_marseille","lat":43.317075,"lon":5.377367,"is_reserved":false,"is_disabled":false,"rental_uris":{"android":"levelo://app?vid=2896b12d-f22c-448a-a659-808a61241b7c","ios":"levelo://app?vid=2896b12d-f22c-448a-a659-808a61241b7c"},"vehicle_type_id":"4","last_reported":1716840462,"current_range_meters":30800,"station_id":"ce4bgth2rcd13ifvqch0","pricing_plan_id":"cebpf4jnsgd1na2vs0mg"},{"bike_id":"1cf6bf2f-32cb-4099-a244-86594d8031b9","system_id":"levelo_inurba_marseille","lat":43.303046,"lon":5.368981,"is_reserved":false,"is_disabled":false,"rental_uris":{"android":"levelo://app?vid=1cf6bf2f-32cb-4099-a244-86594d8031b9","ios":"levelo://app?vid=1cf6bf2f-32cb-4099-a244-86594d8031b9"},"vehicle_type_id":"4","last_reported":1716840462,"current_range_meters":3200,"station_id":"ce4bgqh2rcd13ifvqc5g","pricing_plan_id":"cebpf4jnsgd1na2vs0mg"},{"bike_id":"05ab9df8-018d-49dd-85dd-774245bd37de","system_id":"levelo_inurba_marseille","lat":43.30304,"lon":5.368987,"is_reserved":false,"is_disabled":false,"rental_uris":{"android":"levelo://app?vid=05ab9df8-018d-49dd-85dd-774245bd37de","ios":"levelo://app?vid=05ab9df8-018d-49dd-85dd-774245bd37de"},"vehicle_type_id":"4","last_reported":1716840462,"current_range_meters":3200,"station_id":"ce4bgqh2rcd13ifvqc5g","pricing_plan_id":"cebpf4jnsgd1na2vs0mg"},{"bike_id":"e2eea353-992a-4ad6-bbf7-9585e5a27359","system_id":"levelo_inurba_marseille","lat":43.303046,"lon":5.368981,"is_reserved":false,"is_disabled":false,"rental_uris":{"android":"levelo://app?vid=e2eea353-992a-4ad6-bbf7-9585e5a27359","ios":"levelo://app?vid=e2eea353-992a-4ad6-bbf7-9585e5a27359"},"vehicle_type_id":"4","last_reported":1716840462,"current_range_meters":2400,"station_id":"ce4bgqh2rcd13ifvqc5g","pricing_plan_id":"cebpf4jnsgd1na2vs0mg"},{"bike_id":"b1db79ea-5293-48a8-83d7-9d7740917cc6","system_id":"levelo_inurba_marseille","lat":43.303046,"lon":5.368981,"is_reserved":false,"is_disabled":false,"rental_uris":{"android":"levelo://app?vid=b1db79ea-5293-48a8-83d7-9d7740917cc6","ios":"levelo://app?vid=b1db79ea-5293-48a8-83d7-9d7740917cc6"},"vehicle_type_id":"4","last_reported":1716840462,"current_range_meters":19200,"station_id":"ce4bgqh2rcd13ifvqc5g","pricing_plan_id":"cebpf4jnsgd1na2vs0mg"},{"bike_id":"12b8d33b-1974-4aed-94c1-d1b4335d6934","system_id":"levelo_inurba_marseille","lat":43.303046,"lon":5.368981,"is_reserved":false,"is_disabled":false,"rental_uris":{"android":"levelo://app?vid=12b8d33b-1974-4aed-94c1-d1b4335d6934","ios":"levelo://app?vid=12b8d33b-1974-4aed-94c1-d1b4335d6934"},"vehicle_type_id":"4","last_reported":1716840462,"current_range_meters":4800,"station_id":"ce4bgqh2rcd13ifvqc5g","pricing_plan_id":"cebpf4jnsgd1na2vs0mg"},{"bike_id":"8ab276cb-a6a0-46de-aafd-392323ef5830","system_id":"levelo_inurba_marseille","lat":43.30304,"lon":5.368987,"is_reserved":false,"is_disabled":false,"rental_uris":{"android":"levelo://app?vid=8ab276cb-a6a0-46de-aafd-392323ef5830","ios":"levelo://app?vid=8ab276cb-a6a0-46de-aafd-392323ef5830"},"vehicle_type_id":"4","last_reported":1716840462,"current_range_meters":24800,"station_id":"ce4bgqh2rcd13ifvqc5g","pricing_plan_id":"cebpf4jnsgd1na2vs0mg"},{"bike_id":"92e29132-27e9-4d1b-841a-a8b4cf009159","system_id":"levelo_inurba_marseille","lat":43.303046,"lon":5.368981,"is_reserved":false,"is_disabled":false,"rental_uris":{"android":"levelo://app?vid=92e29132-27e9-4d1b-841a-a8b4cf009159","ios":"levelo://app?vid=92e29132-27e9-4d1b-841a-a8b4cf009159"},"vehicle_type_id":"4","last_reported":1716840462,"current_range_meters":16800,"station_id":"ce4bgqh2rcd13ifvqc5g","pricing_plan_id":"cebpf4jnsgd1na2vs0mg"},{"bike_id":"a284dec8-27b6-460c-9120-fb3b3e7e8bfd","system_id":"levelo_inurba_marseille","lat":43.303046,"lon":5.368981,"is_reserved":false,"is_disabled":false,"rental_uris":{"android":"levelo://app?vid=a284dec8-27b6-460c-9120-fb3b3e7e8bfd","ios":"levelo://app?vid=a284dec8-27b6-460c-9120-fb3b3e7e8bfd"},"vehicle_type_id":"4","last_reported":1716840462,"current_range_meters":2800,"station_id":"ce4bgqh2rcd13ifvqc5g","pricing_plan_id":"cebpf4jnsgd1na2vs0mg"},{"bike_id":"5f079e10-cdd2-4c04-b195-928a687ff5b4","system_id":"levelo_inurba_marseille","lat":43.315289,"lon":5.380349,"is_reserved":false,"is_disabled":false,"rental_uris":{"android":"levelo://app?vid=5f079e10-cdd2-4c04-b195-928a687ff5b4","ios":"levelo://app?vid=5f079e10-cdd2-4c04-b195-928a687ff5b4"},"vehicle_type_id":"4","last_reported":1716840462,"current_range_meters":16000,"station_id":"ce4bhsp2rcd13ifvqi50","pricing_plan_id":"cebpf4jnsgd1na2vs0mg"},{"bike_id":"49f0f582-2f39-4f73-afb4-419a587cef3a","system_id":"levelo_inurba_marseille","lat":43.315289,"lon":5.380349,"is_reserved":false,"is_disabled":false,"rental_uris":{"android":"levelo://app?vid=49f0f582-2f39-4f73-afb4-419a587cef3a","ios":"levelo://app?vid=49f0f582-2f39-4f73-afb4-419a587cef3a"},"vehicle_type_id":"4","last_reported":1716840462,"current_range_meters":10000,"station_id":"ce4bhsp2rcd13ifvqi50","pricing_plan_id":"cebpf4jnsgd1na2vs0mg"},{"bike_id":"52dc63b4-7e66-4a8f-897a-ded06ca7bae9","system_id":"levelo_inurba_marseille","lat":43.315293,"lon":5.380349,"is_reserved":false,"is_disabled":false,"rental_uris":{"android":"levelo://app?vid=52dc63b4-7e66-4a8f-897a-ded06ca7bae9","ios":"levelo://app?vid=52dc63b4-7e66-4a8f-897a-ded06ca7bae9"},"vehicle_type_id":"4","last_reported":1716840462,"current_range_meters":8400,"station_id":"ce4bhsp2rcd13ifvqi50","pricing_plan_id":"cebpf4jnsgd1na2vs0mg"},{"bike_id":"55bd2453-dfb2-4ae1-8a1c-6a25468e7edb","system_id":"levelo_inurba_marseille","lat":43.315289,"lon":5.380349,"is_reserved":false,"is_disabled":false,"rental_uris":{"android":"levelo://app?vid=55bd2453-dfb2-4ae1-8a1c-6a25468e7edb","ios":"levelo://app?vid=55bd2453-dfb2-4ae1-8a1c-6a25468e7edb"},"vehicle_type_id":"4","last_reported":1716840462,"current_range_meters":10800,"station_id":"ce4bhsp2rcd13ifvqi50","pricing_plan_id":"cebpf4jnsgd1na2vs0mg"},{"bike_id":"b18e87bf-01cc-49c9-b9e7-ea6771d528e1","system_id":"levelo_inurba_marseille","lat":43.303046,"lon":5.368981,"is_reserved":false,"is_disabled":false,"rental_uris":{"android":"levelo://app?vid=b18e87bf-01cc-49c9-b9e7-ea6771d528e1","ios":"levelo://app?vid=b18e87bf-01cc-49c9-b9e7-ea6771d528e1"},"vehicle_type_id":"4","last_reported":1716840462,"current_range_meters":14800,"station_id":"ce4bgqh2rcd13ifvqc5g","pricing_plan_id":"cebpf4jnsgd1na2vs0mg"},{"bike_id":"f2304046-399d-4cb9-8846-158b978cc511","system_id":"levelo_inurba_marseille","lat":43.308012,"lon":5.381511,"is_reserved":false,"is_disabled":false,"rental_uris":{"android":"levelo://app?vid=f2304046-399d-4cb9-8846-158b978cc511","ios":"levelo://app?vid=f2304046-399d-4cb9-8846-158b978cc511"},"vehicle_type_id":"4","last_reported":1716840462,"current_range_meters":16800,"station_id":"ce4bgt12rcd13ifvqce0","pricing_plan_id":"cebpf4jnsgd1na2vs0mg"},{"bike_id":"9574b18f-ce0a-44df-b6e9-b0ac368eed85","system_id":"levelo_inurba_marseille","lat":43.318069,"lon":5.380696,"is_reserved":false,"is_disabled":false,"rental_uris":{"android":"levelo://app?vid=9574b18f-ce0a-44df-b6e9-b0ac368eed85","ios":"levelo://app?vid=9574b18f-ce0a-44df-b6e9-b0ac368eed85"},"vehicle_type_id":"4","last_reported":1716840462,"current_range_meters":800,"station_id":"ce4bhr12rcd13ifvqhpg","pricing_plan_id":"cebpf4jnsgd1na2vs0mg"},{"bike_id":"0279d243-180c-48b8-94af-c5b639741be6","system_id":"levelo_inurba_marseille","lat":43.308012,"lon":5.381511,"is_reserved":false,"is_disabled":false,"rental_uris":{"android":"levelo://app?vid=0279d243-180c-48b8-94af-c5b639741be6","ios":"levelo://app?vid=0279d243-180c-48b8-94af-c5b639741be6"},"vehicle_type_id":"4","last_reported":1716840462,"current_range_meters":6800,"station_id":"ce4bgt12rcd13ifvqce0","pricing_plan_id":"cebpf4jnsgd1na2vs0mg"},{"bike_id":"b06483e5-14c5-4d7d-952d-58fa139dddf6","system_id":"levelo_inurba_marseille","lat":43.30817,"lon":5.3815,"is_reserved":false,"is_disabled":false,"rental_uris":{"android":"levelo://app?vid=b06483e5-14c5-4d7d-952d-58fa139dddf6","ios":"levelo://app?vid=b06483e5-14c5-4d7d-952d-58fa139dddf6"},"vehicle_type_id":"4","last_reported":1716840462,"current_range_meters":19600,"station_id":"ce4bgt12rcd13ifvqce0","pricing_plan_id":"cebpf4jnsgd1na2vs0mg"},{"bike_id":"ee442914-a58c-4006-a796-d7bd4bb43fea","system_id":"levelo_inurba_marseille","lat":43.308012,"lon":5.381511,"is_reserved":false,"is_disabled":false,"rental_uris":{"android":"levelo://app?vid=ee442914-a58c-4006-a796-d7bd4bb43fea","ios":"levelo://app?vid=ee442914-a58c-4006-a796-d7bd4bb43fea"},"vehicle_type_id":"4","last_reported":1716840462,"current_range_meters":22000,"station_id":"ce4bgt12rcd13ifvqce0","pricing_plan_id":"cebpf4jnsgd1na2vs0mg"},{"bike_id":"dfbc095f-5da6-475d-bcaf-8bccb3531413","system_id":"levelo_inurba_marseille","lat":43.324771,"lon":5.36557,"is_reserved":false,"is_disabled":false,"rental_uris":{"android":"levelo://app?vid=dfbc095f-5da6-475d-bcaf-8bccb3531413","ios":"levelo://app?vid=dfbc095f-5da6-475d-bcaf-8bccb3531413"},"vehicle_type_id":"4","last_reported":1716840462,"current_range_meters":19600,"station_id":"ce4bhs12rcd13ifvqhvg","pricing_plan_id":"cebpf4jnsgd1na2vs0mg"},{"bike_id":"a291a034-ea73-4243-ac66-fd1f72fd4bdd","system_id":"levelo_inurba_marseille","lat":43.304606,"lon":5.379026,"is_reserved":false,"is_disabled":false,"rental_uris":{"android":"levelo://app?vid=a291a034-ea73-4243-ac66-fd1f72fd4bdd","ios":"levelo://app?vid=a291a034-ea73-4243-ac66-fd1f72fd4bdd"},"vehicle_type_id":"4","last_reported":1716840462,"current_range_meters":0,"station_id":"ce4bgup2rcd13ifvqcn0","pricing_plan_id":"cebpf4jnsgd1na2vs0mg"},{"bike_id":"95bca74b-ea5a-4706-9551-aac65bf48036","system_id":"levelo_inurba_marseille","lat":43.305364,"lon":5.384119,"is_reserved":false,"is_disabled":false,"rental_uris":{"android":"levelo://app?vid=95bca74b-ea5a-4706-9551-aac65bf48036","ios":"levelo://app?vid=95bca74b-ea5a-4706-9551-aac65bf48036"},"vehicle_type_id":"4","last_reported":1716840462,"current_range_meters":6000,"station_id":"ce4bgg92rcd13ifvqb30","pricing_plan_id":"cebpf4jnsgd1na2vs0mg"},{"bike_id":"6ef10e5a-9b6e-47ae-b689-cddc6692dcf7","system_id":"levelo_inurba_marseille","lat":43.304606,"lon":5.379026,"is_reserved":false,"is_disabled":false,"rental_uris":{"android":"levelo://app?vid=6ef10e5a-9b6e-47ae-b689-cddc6692dcf7","ios":"levelo://app?vid=6ef10e5a-9b6e-47ae-b689-cddc6692dcf7"},"vehicle_type_id":"4","last_reported":1716840462,"current_range_meters":800,"station_id":"ce4bgup2rcd13ifvqcn0","pricing_plan_id":"cebpf4jnsgd1na2vs0mg"},{"bike_id":"a76acb05-4c39-4604-a648-f8d17c889ca0","system_id":"levelo_inurba_marseille","lat":43.324722,"lon":5.365616,"is_reserved":false,"is_disabled":false,"rental_uris":{"android":"levelo://app?vid=a76acb05-4c39-4604-a648-f8d17c889ca0","ios":"levelo://app?vid=a76acb05-4c39-4604-a648-f8d17c889ca0"},"vehicle_type_id":"4","last_reported":1716840462,"current_range_meters":13600,"station_id":"ce4bhs12rcd13ifvqhvg","pricing_plan_id":"cebpf4jnsgd1na2vs0mg"},{"bike_id":"b273d524-74b1-4be9-8bab-969b996a3874","system_id":"levelo_inurba_marseille","lat":43.324771,"lon":5.36557,"is_reserved":false,"is_disabled":false,"rental_uris":{"android":"levelo://app?vid=b273d524-74b1-4be9-8bab-969b996a3874","ios":"levelo://app?vid=b273d524-74b1-4be9-8bab-969b996a3874"},"vehicle_type_id":"4","last_reported":1716840462,"current_range_meters":6000,"station_id":"ce4bhs12rcd13ifvqhvg","pricing_plan_id":"cebpf4jnsgd1na2vs0mg"},{"bike_id":"878fa2b4-65e0-476d-93a9-670232cd461a","system_id":"levelo_inurba_marseille","lat":43.324774,"lon":5.365763,"is_reserved":false,"is_disabled":false,"rental_uris":{"android":"levelo://app?vid=878fa2b4-65e0-476d-93a9-670232cd461a","ios":"levelo://app?vid=878fa2b4-65e0-476d-93a9-670232cd461a"},"vehicle_type_id":"4","last_reported":1716840462,"current_range_meters":4400,"station_id":"ce4bhs12rcd13ifvqhvg","pricing_plan_id":"cebpf4jnsgd1na2vs0mg"},{"bike_id":"99590859-1f2d-4cd8-9b6c-8cc68d82b22d","system_id":"levelo_inurba_marseille","lat":43.324771,"lon":5.36557,"is_reserved":false,"is_disabled":false,"rental_uris":{"android":"levelo://app?vid=99590859-1f2d-4cd8-9b6c-8cc68d82b22d","ios":"levelo://app?vid=99590859-1f2d-4cd8-9b6c-8cc68d82b22d"},"vehicle_type_id":"4","last_reported":1716840462,"current_range_meters":20400,"station_id":"ce4bhs12rcd13ifvqhvg","pricing_plan_id":"cebpf4jnsgd1na2vs0mg"},{"bike_id":"69132c19-b175-4e9d-9215-6e7a4ce85aa4","system_id":"levelo_inurba_marseille","lat":43.324771,"lon":5.36557,"is_reserved":false,"is_disabled":false,"rental_uris":{"android":"levelo://app?vid=69132c19-b175-4e9d-9215-6e7a4ce85aa4","ios":"levelo://app?vid=69132c19-b175-4e9d-9215-6e7a4ce85aa4"},"vehicle_type_id":"4","last_reported":1716840462,"current_range_meters":8000,"station_id":"ce4bhs12rcd13ifvqhvg","pricing_plan_id":"cebpf4jnsgd1na2vs0mg"},{"bike_id":"a110de59-f87f-45ba-9be8-73cef6eac67a","system_id":"levelo_inurba_marseille","lat":43.324771,"lon":5.36557,"is_reserved":false,"is_disabled":false,"rental_uris":{"android":"levelo://app?vid=a110de59-f87f-45ba-9be8-73cef6eac67a","ios":"levelo://app?vid=a110de59-f87f-45ba-9be8-73cef6eac67a"},"vehicle_type_id":"4","last_reported":1716840462,"current_range_meters":26000,"station_id":"ce4bhs12rcd13ifvqhvg","pricing_plan_id":"cebpf4jnsgd1na2vs0mg"},{"bike_id":"c7b9fac7-e7d7-4c7c-b1d0-b6b3363eb091","system_id":"levelo_inurba_marseille","lat":43.324771,"lon":5.36557,"is_reserved":false,"is_disabled":false,"rental_uris":{"android":"levelo://app?vid=c7b9fac7-e7d7-4c7c-b1d0-b6b3363eb091","ios":"levelo://app?vid=c7b9fac7-e7d7-4c7c-b1d0-b6b3363eb091"},"vehicle_type_id":"4","last_reported":1716840462,"current_range_meters":22000,"station_id":"ce4bhs12rcd13ifvqhvg","pricing_plan_id":"cebpf4jnsgd1na2vs0mg"},{"bike_id":"24984c48-272e-44aa-a0ae-676cf5cc3f90","system_id":"levelo_inurba_marseille","lat":43.324771,"lon":5.36557,"is_reserved":false,"is_disabled":false,"rental_uris":{"android":"levelo://app?vid=24984c48-272e-44aa-a0ae-676cf5cc3f90","ios":"levelo://app?vid=24984c48-272e-44aa-a0ae-676cf5cc3f90"},"vehicle_type_id":"4","last_reported":1716840462,"current_range_meters":4400,"station_id":"ce4bhs12rcd13ifvqhvg","pricing_plan_id":"cebpf4jnsgd1na2vs0mg"},{"bike_id":"5c69a74d-6766-47dc-92d4-edf0f298aedd","system_id":"levelo_inurba_marseille","lat":43.324771,"lon":5.36557,"is_reserved":false,"is_disabled":false,"rental_uris":{"android":"levelo://app?vid=5c69a74d-6766-47dc-92d4-edf0f298aedd","ios":"levelo://app?vid=5c69a74d-6766-47dc-92d4-edf0f298aedd"},"vehicle_type_id":"4","last_reported":1716840462,"current_range_meters":10800,"station_id":"ce4bhs12rcd13ifvqhvg","pricing_plan_id":"cebpf4jnsgd1na2vs0mg"},{"bike_id":"0af85a23-a067-42f5-b665-de840df19cd4","system_id":"levelo_inurba_marseille","lat":43.324771,"lon":5.36557,"is_reserved":false,"is_disabled":false,"rental_uris":{"android":"levelo://app?vid=0af85a23-a067-42f5-b665-de840df19cd4","ios":"levelo://app?vid=0af85a23-a067-42f5-b665-de840df19cd4"},"vehicle_type_id":"4","last_reported":1716840462,"current_range_meters":17600,"station_id":"ce4bhs12rcd13ifvqhvg","pricing_plan_id":"cebpf4jnsgd1na2vs0mg"},{"bike_id":"e102970e-75fe-43ec-8628-d8567e4267f2","system_id":"levelo_inurba_marseille","lat":43.324771,"lon":5.36557,"is_reserved":false,"is_disabled":false,"rental_uris":{"android":"levelo://app?vid=e102970e-75fe-43ec-8628-d8567e4267f2","ios":"levelo://app?vid=e102970e-75fe-43ec-8628-d8567e4267f2"},"vehicle_type_id":"4","last_reported":1716840462,"current_range_meters":9200,"station_id":"ce4bhs12rcd13ifvqhvg","pricing_plan_id":"cebpf4jnsgd1na2vs0mg"},{"bike_id":"2cfd1804-d02f-4b6d-9260-bcd70111175e","system_id":"levelo_inurba_marseille","lat":43.310804,"lon":5.38359,"is_reserved":false,"is_disabled":false,"rental_uris":{"android":"levelo://app?vid=2cfd1804-d02f-4b6d-9260-bcd70111175e","ios":"levelo://app?vid=2cfd1804-d02f-4b6d-9260-bcd70111175e"},"vehicle_type_id":"4","last_reported":1716840462,"current_range_meters":12400,"station_id":"ce4bgv92rcd13ifvqcr0","pricing_plan_id":"cebpf4jnsgd1na2vs0mg"},{"bike_id":"e77a354a-da12-4126-99b7-e7cef2b91094","system_id":"levelo_inurba_marseille","lat":43.324771,"lon":5.36557,"is_reserved":false,"is_disabled":false,"rental_uris":{"android":"levelo://app?vid=e77a354a-da12-4126-99b7-e7cef2b91094","ios":"levelo://app?vid=e77a354a-da12-4126-99b7-e7cef2b91094"},"vehicle_type_id":"4","last_reported":1716840462,"current_range_meters":31200,"station_id":"ce4bhs12rcd13ifvqhvg","pricing_plan_id":"cebpf4jnsgd1na2vs0mg"},{"bike_id":"3bdde72b-1abf-4443-889c-5f7fcf5721c6","system_id":"levelo_inurba_marseille","lat":43.310671,"lon":5.383515,"is_reserved":false,"is_disabled":false,"rental_uris":{"android":"levelo://app?vid=3bdde72b-1abf-4443-889c-5f7fcf5721c6","ios":"levelo://app?vid=3bdde72b-1abf-4443-889c-5f7fcf5721c6"},"vehicle_type_id":"4","last_reported":1716840462,"current_range_meters":26000,"station_id":"ce4bgv92rcd13ifvqcr0","pricing_plan_id":"cebpf4jnsgd1na2vs0mg"},{"bike_id":"fecd55fb-426c-479e-8a87-e8e5e9dcd8f4","system_id":"levelo_inurba_marseille","lat":43.31068,"lon":5.38352,"is_reserved":false,"is_disabled":false,"rental_uris":{"android":"levelo://app?vid=fecd55fb-426c-479e-8a87-e8e5e9dcd8f4","ios":"levelo://app?vid=fecd55fb-426c-479e-8a87-e8e5e9dcd8f4"},"vehicle_type_id":"4","last_reported":1716840462,"current_range_meters":31200,"station_id":"ce4bgv92rcd13ifvqcr0","pricing_plan_id":"cebpf4jnsgd1na2vs0mg"},{"bike_id":"90c10ce7-9d50-473e-ae32-2c8c5fa06a7b","system_id":"levelo_inurba_marseille","lat":43.310804,"lon":5.38359,"is_reserved":false,"is_disabled":false,"rental_uris":{"android":"levelo://app?vid=90c10ce7-9d50-473e-ae32-2c8c5fa06a7b","ios":"levelo://app?vid=90c10ce7-9d50-473e-ae32-2c8c5fa06a7b"},"vehicle_type_id":"4","last_reported":1716840462,"current_range_meters":31200,"station_id":"ce4bgv92rcd13ifvqcr0","pricing_plan_id":"cebpf4jnsgd1na2vs0mg"},{"bike_id":"1cc7be20-a318-41d0-a359-46b612d8f35e","system_id":"levelo_inurba_marseille","lat":43.310804,"lon":5.38359,"is_reserved":false,"is_disabled":false,"rental_uris":{"android":"levelo://app?vid=1cc7be20-a318-41d0-a359-46b612d8f35e","ios":"levelo://app?vid=1cc7be20-a318-41d0-a359-46b612d8f35e"},"vehicle_type_id":"4","last_reported":1716840462,"current_range_meters":28400,"station_id":"ce4bgv92rcd13ifvqcr0","pricing_plan_id":"cebpf4jnsgd1na2vs0mg"},{"bike_id":"ed753739-90e3-4084-be81-7ce41b44389c","system_id":"levelo_inurba_marseille","lat":43.310804,"lon":5.38359,"is_reserved":false,"is_disabled":false,"rental_uris":{"android":"levelo://app?vid=ed753739-90e3-4084-be81-7ce41b44389c","ios":"levelo://app?vid=ed753739-90e3-4084-be81-7ce41b44389c"},"vehicle_type_id":"4","last_reported":1716840462,"current_range_meters":21200,"station_id":"ce4bgv92rcd13ifvqcr0","pricing_plan_id":"cebpf4jnsgd1na2vs0mg"},{"bike_id":"a380d304-2cfe-4dbd-a806-24ec16aa4bcb","system_id":"levelo_inurba_marseille","lat":43.31064,"lon":5.38359,"is_reserved":false,"is_disabled":false,"rental_uris":{"android":"levelo://app?vid=a380d304-2cfe-4dbd-a806-24ec16aa4bcb","ios":"levelo://app?vid=a380d304-2cfe-4dbd-a806-24ec16aa4bcb"},"vehicle_type_id":"4","last_reported":1716840462,"current_range_meters":31200,"station_id":"ce4bgv92rcd13ifvqcr0","pricing_plan_id":"cebpf4jnsgd1na2vs0mg"},{"bike_id":"a41f7279-a74a-4e49-a508-2c2959c906ed","system_id":"levelo_inurba_marseille","lat":43.306391,"lon":5.381458,"is_reserved":false,"is_disabled":false,"rental_uris":{"android":"levelo://app?vid=a41f7279-a74a-4e49-a508-2c2959c906ed","ios":"levelo://app?vid=a41f7279-a74a-4e49-a508-2c2959c906ed"},"vehicle_type_id":"4","last_reported":1716840462,"current_range_meters":1600,"station_id":"","pricing_plan_id":"cebpf4jnsgd1na2vs0mg"},{"bike_id":"fb876611-4a13-4ab3-b36f-192ec87394f0","system_id":"levelo_inurba_marseille","lat":43.302784,"lon":5.377158,"is_reserved":false,"is_disabled":false,"rental_uris":{"android":"levelo://app?vid=fb876611-4a13-4ab3-b36f-192ec87394f0","ios":"levelo://app?vid=fb876611-4a13-4ab3-b36f-192ec87394f0"},"vehicle_type_id":"4","last_reported":1716840462,"current_range_meters":19600,"station_id":"ce4bguh2rcd13ifvqcj0","pricing_plan_id":"cebpf4jnsgd1na2vs0mg"},{"bike_id":"d54228c7-0f9b-4bec-b0a8-92375010e5c0","system_id":"levelo_inurba_marseille","lat":43.302784,"lon":5.377158,"is_reserved":false,"is_disabled":false,"rental_uris":{"android":"levelo://app?vid=d54228c7-0f9b-4bec-b0a8-92375010e5c0","ios":"levelo://app?vid=d54228c7-0f9b-4bec-b0a8-92375010e5c0"},"vehicle_type_id":"4","last_reported":1716840462,"current_range_meters":16800,"station_id":"ce4bguh2rcd13ifvqcj0","pricing_plan_id":"cebpf4jnsgd1na2vs0mg"},{"bike_id":"702ade54-fded-45c7-8619-58a241aae8f8","system_id":"levelo_inurba_marseille","lat":43.319901,"lon":5.380952,"is_reserved":false,"is_disabled":false,"rental_uris":{"android":"levelo://app?vid=702ade54-fded-45c7-8619-58a241aae8f8","ios":"levelo://app?vid=702ade54-fded-45c7-8619-58a241aae8f8"},"vehicle_type_id":"4","last_reported":1716840462,"current_range_meters":1200,"station_id":"ce4bhr12rcd13ifvqhpg","pricing_plan_id":"cebpf4jnsgd1na2vs0mg"},{"bike_id":"37ab61d0-7511-4284-91fc-a3353f1444ed","system_id":"levelo_inurba_marseille","lat":43.301429,"lon":5.37413,"is_reserved":false,"is_disabled":false,"rental_uris":{"android":"levelo://app?vid=37ab61d0-7511-4284-91fc-a3353f1444ed","ios":"levelo://app?vid=37ab61d0-7511-4284-91fc-a3353f1444ed"},"vehicle_type_id":"4","last_reported":1716840462,"current_range_meters":18400,"station_id":"ce4bgs92rcd13ifvqcc0","pricing_plan_id":"cebpf4jnsgd1na2vs0mg"},{"bike_id":"466fe6e7-2b44-4898-951c-2f3be7fb60c8","system_id":"levelo_inurba_marseille","lat":43.31993,"lon":5.3814,"is_reserved":false,"is_disabled":false,"rental_uris":{"android":"levelo://app?vid=466fe6e7-2b44-4898-951c-2f3be7fb60c8","ios":"levelo://app?vid=466fe6e7-2b44-4898-951c-2f3be7fb60c8"},"vehicle_type_id":"4","last_reported":1716840462,"current_range_meters":30800,"station_id":"ce4bhr12rcd13ifvqhpg","pricing_plan_id":"cebpf4jnsgd1na2vs0mg"},{"bike_id":"785f4dd3-303a-45e0-81c1-c186fe0ca071","system_id":"levelo_inurba_marseille","lat":43.31995,"lon":5.38145,"is_reserved":false,"is_disabled":false,"rental_uris":{"android":"levelo://app?vid=785f4dd3-303a-45e0-81c1-c186fe0ca071","ios":"levelo://app?vid=785f4dd3-303a-45e0-81c1-c186fe0ca071"},"vehicle_type_id":"4","last_reported":1716840462,"current_range_meters":13600,"station_id":"ce4bhr12rcd13ifvqhpg","pricing_plan_id":"cebpf4jnsgd1na2vs0mg"},{"bike_id":"2e27f0ea-2374-4a41-a431-d4a659e1a4c8","system_id":"levelo_inurba_marseille","lat":43.319935,"lon":5.381699,"is_reserved":false,"is_disabled":false,"rental_uris":{"android":"levelo://app?vid=2e27f0ea-2374-4a41-a431-d4a659e1a4c8","ios":"levelo://app?vid=2e27f0ea-2374-4a41-a431-d4a659e1a4c8"},"vehicle_type_id":"4","last_reported":1716840462,"current_range_meters":25600,"station_id":"ce4bhr12rcd13ifvqhpg","pricing_plan_id":"cebpf4jnsgd1na2vs0mg"},{"bike_id":"5a9e3cbb-fbf9-45b1-aec3-802279c1a38f","system_id":"levelo_inurba_marseille","lat":43.319935,"lon":5.381699,"is_reserved":false,"is_disabled":false,"rental_uris":{"android":"levelo://app?vid=5a9e3cbb-fbf9-45b1-aec3-802279c1a38f","ios":"levelo://app?vid=5a9e3cbb-fbf9-45b1-aec3-802279c1a38f"},"vehicle_type_id":"4","last_reported":1716840462,"current_range_meters":31200,"station_id":"ce4bhr12rcd13ifvqhpg","pricing_plan_id":"cebpf4jnsgd1na2vs0mg"},{"bike_id":"93d22fc2-a3fa-4827-877e-01fc381275a3","system_id":"levelo_inurba_marseille","lat":43.319957,"lon":5.381479,"is_reserved":false,"is_disabled":false,"rental_uris":{"android":"levelo://app?vid=93d22fc2-a3fa-4827-877e-01fc381275a3","ios":"levelo://app?vid=93d22fc2-a3fa-4827-877e-01fc381275a3"},"vehicle_type_id":"4","last_reported":1716840462,"current_range_meters":28000,"station_id":"ce4bhr12rcd13ifvqhpg","pricing_plan_id":"cebpf4jnsgd1na2vs0mg"},{"bike_id":"9316fa35-12dc-45a6-881d-f86b6aaab944","system_id":"levelo_inurba_marseille","lat":43.319996,"lon":5.381465,"is_reserved":false,"is_disabled":false,"rental_uris":{"android":"levelo://app?vid=9316fa35-12dc-45a6-881d-f86b6aaab944","ios":"levelo://app?vid=9316fa35-12dc-45a6-881d-f86b6aaab944"},"vehicle_type_id":"4","last_reported":1716840462,"current_range_meters":27200,"station_id":"ce4bhr12rcd13ifvqhpg","pricing_plan_id":"cebpf4jnsgd1na2vs0mg"},{"bike_id":"a1badf69-f4a4-4cc2-9200-293783b5b76a","system_id":"levelo_inurba_marseille","lat":43.319935,"lon":5.381699,"is_reserved":false,"is_disabled":false,"rental_uris":{"android":"levelo://app?vid=a1badf69-f4a4-4cc2-9200-293783b5b76a","ios":"levelo://app?vid=a1badf69-f4a4-4cc2-9200-293783b5b76a"},"vehicle_type_id":"4","last_reported":1716840462,"current_range_meters":29200,"station_id":"ce4bhr12rcd13ifvqhpg","pricing_plan_id":"cebpf4jnsgd1na2vs0mg"},{"bike_id":"7f363a37-aa5e-4513-8819-eb2415367182","system_id":"levelo_inurba_marseille","lat":43.32,"lon":5.38158,"is_reserved":false,"is_disabled":false,"rental_uris":{"android":"levelo://app?vid=7f363a37-aa5e-4513-8819-eb2415367182","ios":"levelo://app?vid=7f363a37-aa5e-4513-8819-eb2415367182"},"vehicle_type_id":"4","last_reported":1716840462,"current_range_meters":2400,"station_id":"ce4bhr12rcd13ifvqhpg","pricing_plan_id":"cebpf4jnsgd1na2vs0mg"},{"bike_id":"aea8732b-9b16-42e0-a4df-d4274c65ed60","system_id":"levelo_inurba_marseille","lat":43.32001,"lon":5.38158,"is_reserved":false,"is_disabled":false,"rental_uris":{"android":"levelo://app?vid=aea8732b-9b16-42e0-a4df-d4274c65ed60","ios":"levelo://app?vid=aea8732b-9b16-42e0-a4df-d4274c65ed60"},"vehicle_type_id":"4","last_reported":1716840462,"current_range_meters":20000,"station_id":"ce4bhr12rcd13ifvqhpg","pricing_plan_id":"cebpf4jnsgd1na2vs0mg"},{"bike_id":"46c83444-e6ea-4812-b079-b86570d024d6","system_id":"levelo_inurba_marseille","lat":43.313571,"lon":5.384829,"is_reserved":false,"is_disabled":false,"rental_uris":{"android":"levelo://app?vid=46c83444-e6ea-4812-b079-b86570d024d6","ios":"levelo://app?vid=46c83444-e6ea-4812-b079-b86570d024d6"},"vehicle_type_id":"4","last_reported":1716840462,"current_range_meters":5600,"station_id":"ce4bgt92rcd13ifvqcf0","pricing_plan_id":"cebpf4jnsgd1na2vs0mg"},{"bike_id":"fadec73d-6a0b-4ae1-a606-174733b905d3","system_id":"levelo_inurba_marseille","lat":43.313571,"lon":5.384829,"is_reserved":false,"is_disabled":false,"rental_uris":{"android":"levelo://app?vid=fadec73d-6a0b-4ae1-a606-174733b905d3","ios":"levelo://app?vid=fadec73d-6a0b-4ae1-a606-174733b905d3"},"vehicle_type_id":"4","last_reported":1716840462,"current_range_meters":0,"station_id":"ce4bgt92rcd13ifvqcf0","pricing_plan_id":"cebpf4jnsgd1na2vs0mg"},{"bike_id":"048ac923-1996-4cbb-a4b2-838faaafab3e","system_id":"levelo_inurba_marseille","lat":43.313571,"lon":5.384829,"is_reserved":false,"is_disabled":false,"rental_uris":{"android":"levelo://app?vid=048ac923-1996-4cbb-a4b2-838faaafab3e","ios":"levelo://app?vid=048ac923-1996-4cbb-a4b2-838faaafab3e"},"vehicle_type_id":"4","last_reported":1716840462,"current_range_meters":29200,"station_id":"ce4bgt92rcd13ifvqcf0","pricing_plan_id":"cebpf4jnsgd1na2vs0mg"},{"bike_id":"74e842c9-fa8d-4c7a-bc4b-b7a5e2f43995","system_id":"levelo_inurba_marseille","lat":43.299432,"lon":5.365504,"is_reserved":false,"is_disabled":false,"rental_uris":{"android":"levelo://app?vid=74e842c9-fa8d-4c7a-bc4b-b7a5e2f43995","ios":"levelo://app?vid=74e842c9-fa8d-4c7a-bc4b-b7a5e2f43995"},"vehicle_type_id":"4","last_reported":1716840462,"current_range_meters":8800,"station_id":"ce4bgm92rcd13ifvqbr0","pricing_plan_id":"cebpf4jnsgd1na2vs0mg"},{"bike_id":"bd3902c8-1ca8-4f2b-804c-6f296dd9be04","system_id":"levelo_inurba_marseille","lat":43.279742,"lon":5.38744,"is_reserved":false,"is_disabled":false,"rental_uris":{"android":"levelo://app?vid=bd3902c8-1ca8-4f2b-804c-6f296dd9be04","ios":"levelo://app?vid=bd3902c8-1ca8-4f2b-804c-6f296dd9be04"},"vehicle_type_id":"4","last_reported":1716840462,"current_range_meters":1600,"station_id":"ce4bhg12rcd13ifvqf80","pricing_plan_id":"cebpf4jnsgd1na2vs0mg"},{"bike_id":"da161fe4-8a59-496a-940a-348a6c56e8d0","system_id":"levelo_inurba_marseille","lat":43.299724,"lon":5.371829,"is_reserved":false,"is_disabled":false,"rental_uris":{"android":"levelo://app?vid=da161fe4-8a59-496a-940a-348a6c56e8d0","ios":"levelo://app?vid=da161fe4-8a59-496a-940a-348a6c56e8d0"},"vehicle_type_id":"4","last_reported":1716840462,"current_range_meters":9200,"station_id":"ce4bgr92rcd13ifvqc7g","pricing_plan_id":"cebpf4jnsgd1na2vs0mg"},{"bike_id":"af369528-683d-4914-8e8c-f30e1074f6fd","system_id":"levelo_inurba_marseille","lat":43.299222,"lon":5.365554,"is_reserved":false,"is_disabled":false,"rental_uris":{"android":"levelo://app?vid=af369528-683d-4914-8e8c-f30e1074f6fd","ios":"levelo://app?vid=af369528-683d-4914-8e8c-f30e1074f6fd"},"vehicle_type_id":"4","last_reported":1716840462,"current_range_meters":5600,"station_id":"ce4bgm92rcd13ifvqbr0","pricing_plan_id":"cebpf4jnsgd1na2vs0mg"},{"bike_id":"f8778e48-cc3b-4565-a080-6b7dbdf2fcfb","system_id":"levelo_inurba_marseille","lat":43.299724,"lon":5.371829,"is_reserved":false,"is_disabled":false,"rental_uris":{"android":"levelo://app?vid=f8778e48-cc3b-4565-a080-6b7dbdf2fcfb","ios":"levelo://app?vid=f8778e48-cc3b-4565-a080-6b7dbdf2fcfb"},"vehicle_type_id":"4","last_reported":1716840462,"current_range_meters":0,"station_id":"ce4bgr92rcd13ifvqc7g","pricing_plan_id":"cebpf4jnsgd1na2vs0mg"},{"bike_id":"9491f9ca-2364-42ed-aa9c-e261446f267a","system_id":"levelo_inurba_marseille","lat":43.299222,"lon":5.365554,"is_reserved":false,"is_disabled":false,"rental_uris":{"android":"levelo://app?vid=9491f9ca-2364-42ed-aa9c-e261446f267a","ios":"levelo://app?vid=9491f9ca-2364-42ed-aa9c-e261446f267a"},"vehicle_type_id":"4","last_reported":1716840462,"current_range_meters":0,"station_id":"ce4bgm92rcd13ifvqbr0","pricing_plan_id":"cebpf4jnsgd1na2vs0mg"},{"bike_id":"b607b3a4-22a6-40b7-aa64-1526f4869d33","system_id":"levelo_inurba_marseille","lat":43.29974,"lon":5.37175,"is_reserved":false,"is_disabled":false,"rental_uris":{"android":"levelo://app?vid=b607b3a4-22a6-40b7-aa64-1526f4869d33","ios":"levelo://app?vid=b607b3a4-22a6-40b7-aa64-1526f4869d33"},"vehicle_type_id":"4","last_reported":1716840462,"current_range_meters":13600,"station_id":"ce4bgr92rcd13ifvqc7g","pricing_plan_id":"cebpf4jnsgd1na2vs0mg"},{"bike_id":"c37842f3-a324-441a-94ac-cfe4c0bc4670","system_id":"levelo_inurba_marseille","lat":43.305364,"lon":5.384119,"is_reserved":false,"is_disabled":false,"rental_uris":{"android":"levelo://app?vid=c37842f3-a324-441a-94ac-cfe4c0bc4670","ios":"levelo://app?vid=c37842f3-a324-441a-94ac-cfe4c0bc4670"},"vehicle_type_id":"4","last_reported":1716840462,"current_range_meters":3600,"station_id":"ce4bgg92rcd13ifvqb30","pricing_plan_id":"cebpf4jnsgd1na2vs0mg"},{"bike_id":"24083334-5316-40e5-b6a1-5589cba8979e","system_id":"levelo_inurba_marseille","lat":43.29854,"lon":5.36281,"is_reserved":false,"is_disabled":false,"rental_uris":{"android":"levelo://app?vid=24083334-5316-40e5-b6a1-5589cba8979e","ios":"levelo://app?vid=24083334-5316-40e5-b6a1-5589cba8979e"},"vehicle_type_id":"4","last_reported":1716840462,"current_range_meters":4000,"station_id":"ce4bgpp2rcd13ifvqc3g","pricing_plan_id":"cebpf4jnsgd1na2vs0mg"},{"bike_id":"e2c9a53c-481b-4fb2-a3a2-0e0ced08c1ca","system_id":"levelo_inurba_marseille","lat":43.3055,"lon":5.38422,"is_reserved":false,"is_disabled":false,"rental_uris":{"android":"levelo://app?vid=e2c9a53c-481b-4fb2-a3a2-0e0ced08c1ca","ios":"levelo://app?vid=e2c9a53c-481b-4fb2-a3a2-0e0ced08c1ca"},"vehicle_type_id":"4","last_reported":1716840462,"current_range_meters":0,"station_id":"ce4bgg92rcd13ifvqb30","pricing_plan_id":"cebpf4jnsgd1na2vs0mg"},{"bike_id":"84a74d4f-5b62-4e27-a247-95910b652308","system_id":"levelo_inurba_marseille","lat":43.298433,"lon":5.362774,"is_reserved":false,"is_disabled":false,"rental_uris":{"android":"levelo://app?vid=84a74d4f-5b62-4e27-a247-95910b652308","ios":"levelo://app?vid=84a74d4f-5b62-4e27-a247-95910b652308"},"vehicle_type_id":"4","last_reported":1716840462,"current_range_meters":20800,"station_id":"ce4bgpp2rcd13ifvqc3g","pricing_plan_id":"cebpf4jnsgd1na2vs0mg"},{"bike_id":"b3627183-1657-4034-a716-4b79731d8294","system_id":"levelo_inurba_marseille","lat":43.298471,"lon":5.36271,"is_reserved":false,"is_disabled":false,"rental_uris":{"android":"levelo://app?vid=b3627183-1657-4034-a716-4b79731d8294","ios":"levelo://app?vid=b3627183-1657-4034-a716-4b79731d8294"},"vehicle_type_id":"4","last_reported":1716840462,"current_range_meters":6400,"station_id":"ce4bgpp2rcd13ifvqc3g","pricing_plan_id":"cebpf4jnsgd1na2vs0mg"},{"bike_id":"7c0279c4-785e-41cc-9875-11b1aa5697b0","system_id":"levelo_inurba_marseille","lat":43.298433,"lon":5.362774,"is_reserved":false,"is_disabled":false,"rental_uris":{"android":"levelo://app?vid=7c0279c4-785e-41cc-9875-11b1aa5697b0","ios":"levelo://app?vid=7c0279c4-785e-41cc-9875-11b1aa5697b0"},"vehicle_type_id":"4","last_reported":1716840462,"current_range_meters":31200,"station_id":"ce4bgpp2rcd13ifvqc3g","pricing_plan_id":"cebpf4jnsgd1na2vs0mg"},{"bike_id":"ca1cf624-e633-4b5f-8581-f3342bb8827c","system_id":"levelo_inurba_marseille","lat":43.29843,"lon":5.362642,"is_reserved":false,"is_disabled":false,"rental_uris":{"android":"levelo://app?vid=ca1cf624-e633-4b5f-8581-f3342bb8827c","ios":"levelo://app?vid=ca1cf624-e633-4b5f-8581-f3342bb8827c"},"vehicle_type_id":"4","last_reported":1716840462,"current_range_meters":3200,"station_id":"ce4bgpp2rcd13ifvqc3g","pricing_plan_id":"cebpf4jnsgd1na2vs0mg"},{"bike_id":"ed492a4e-944e-43b3-bd26-4581a8e6f7a8","system_id":"levelo_inurba_marseille","lat":43.297774,"lon":5.370875,"is_reserved":false,"is_disabled":false,"rental_uris":{"android":"levelo://app?vid=ed492a4e-944e-43b3-bd26-4581a8e6f7a8","ios":"levelo://app?vid=ed492a4e-944e-43b3-bd26-4581a8e6f7a8"},"vehicle_type_id":"4","last_reported":1716840462,"current_range_meters":29600,"station_id":"ce4bgop2rcd13ifvqc1g","pricing_plan_id":"cebpf4jnsgd1na2vs0mg"},{"bike_id":"5bd24252-fbe7-44ae-a8e6-f794b48eff45","system_id":"levelo_inurba_marseille","lat":43.297794,"lon":5.370888,"is_reserved":false,"is_disabled":false,"rental_uris":{"android":"levelo://app?vid=5bd24252-fbe7-44ae-a8e6-f794b48eff45","ios":"levelo://app?vid=5bd24252-fbe7-44ae-a8e6-f794b48eff45"},"vehicle_type_id":"4","last_reported":1716840462,"current_range_meters":2000,"station_id":"ce4bgop2rcd13ifvqc1g","pricing_plan_id":"cebpf4jnsgd1na2vs0mg"},{"bike_id":"996cd84f-4979-4bf0-b56c-ca5c3252d3c6","system_id":"levelo_inurba_marseille","lat":43.297794,"lon":5.370888,"is_reserved":false,"is_disabled":false,"rental_uris":{"android":"levelo://app?vid=996cd84f-4979-4bf0-b56c-ca5c3252d3c6","ios":"levelo://app?vid=996cd84f-4979-4bf0-b56c-ca5c3252d3c6"},"vehicle_type_id":"4","last_reported":1716840462,"current_range_meters":10400,"station_id":"ce4bgop2rcd13ifvqc1g","pricing_plan_id":"cebpf4jnsgd1na2vs0mg"},{"bike_id":"ed8dbbdc-20b1-49dd-bbb6-1d54f868714c","system_id":"levelo_inurba_marseille","lat":43.297794,"lon":5.370888,"is_reserved":false,"is_disabled":false,"rental_uris":{"android":"levelo://app?vid=ed8dbbdc-20b1-49dd-bbb6-1d54f868714c","ios":"levelo://app?vid=ed8dbbdc-20b1-49dd-bbb6-1d54f868714c"},"vehicle_type_id":"4","last_reported":1716840462,"current_range_meters":0,"station_id":"ce4bgop2rcd13ifvqc1g","pricing_plan_id":"cebpf4jnsgd1na2vs0mg"},{"bike_id":"e031fb8d-c209-4e77-8213-86cdb1e75355","system_id":"levelo_inurba_marseille","lat":43.322872,"lon":5.382756,"is_reserved":false,"is_disabled":false,"rental_uris":{"android":"levelo://app?vid=e031fb8d-c209-4e77-8213-86cdb1e75355","ios":"levelo://app?vid=e031fb8d-c209-4e77-8213-86cdb1e75355"},"vehicle_type_id":"4","last_reported":1716840462,"current_range_meters":29600,"station_id":"ce4bhr12rcd13ifvqhqg","pricing_plan_id":"cebpf4jnsgd1na2vs0mg"},{"bike_id":"99af79de-3e72-4223-904b-796880684ca3","system_id":"levelo_inurba_marseille","lat":43.322872,"lon":5.382756,"is_reserved":false,"is_disabled":false,"rental_uris":{"android":"levelo://app?vid=99af79de-3e72-4223-904b-796880684ca3","ios":"levelo://app?vid=99af79de-3e72-4223-904b-796880684ca3"},"vehicle_type_id":"4","last_reported":1716840462,"current_range_meters":30000,"station_id":"ce4bhr12rcd13ifvqhqg","pricing_plan_id":"cebpf4jnsgd1na2vs0mg"},{"bike_id":"5d706551-d271-46d8-8a85-531fbecaa894","system_id":"levelo_inurba_marseille","lat":43.322872,"lon":5.382756,"is_reserved":false,"is_disabled":false,"rental_uris":{"android":"levelo://app?vid=5d706551-d271-46d8-8a85-531fbecaa894","ios":"levelo://app?vid=5d706551-d271-46d8-8a85-531fbecaa894"},"vehicle_type_id":"4","last_reported":1716840462,"current_range_meters":31200,"station_id":"ce4bhr12rcd13ifvqhqg","pricing_plan_id":"cebpf4jnsgd1na2vs0mg"},{"bike_id":"369c0031-2ea4-407e-ab99-a384f3123643","system_id":"levelo_inurba_marseille","lat":43.322872,"lon":5.382756,"is_reserved":false,"is_disabled":false,"rental_uris":{"android":"levelo://app?vid=369c0031-2ea4-407e-ab99-a384f3123643","ios":"levelo://app?vid=369c0031-2ea4-407e-ab99-a384f3123643"},"vehicle_type_id":"4","last_reported":1716840462,"current_range_meters":12000,"station_id":"ce4bhr12rcd13ifvqhqg","pricing_plan_id":"cebpf4jnsgd1na2vs0mg"},{"bike_id":"1a42cfed-b3d9-4cf1-bd2f-9f011a66f617","system_id":"levelo_inurba_marseille","lat":43.322872,"lon":5.382756,"is_reserved":false,"is_disabled":false,"rental_uris":{"android":"levelo://app?vid=1a42cfed-b3d9-4cf1-bd2f-9f011a66f617","ios":"levelo://app?vid=1a42cfed-b3d9-4cf1-bd2f-9f011a66f617"},"vehicle_type_id":"4","last_reported":1716840462,"current_range_meters":11600,"station_id":"ce4bhr12rcd13ifvqhqg","pricing_plan_id":"cebpf4jnsgd1na2vs0mg"},{"bike_id":"ec1015ee-6e7e-4aec-81c1-e10ba2fa6621","system_id":"levelo_inurba_marseille","lat":43.322872,"lon":5.382756,"is_reserved":false,"is_disabled":false,"rental_uris":{"android":"levelo://app?vid=ec1015ee-6e7e-4aec-81c1-e10ba2fa6621","ios":"levelo://app?vid=ec1015ee-6e7e-4aec-81c1-e10ba2fa6621"},"vehicle_type_id":"4","last_reported":1716840462,"current_range_meters":29600,"station_id":"ce4bhr12rcd13ifvqhqg","pricing_plan_id":"cebpf4jnsgd1na2vs0mg"},{"bike_id":"d10c334a-60bb-4e55-84b8-1b684b39e26e","system_id":"levelo_inurba_marseille","lat":43.322872,"lon":5.382756,"is_reserved":false,"is_disabled":false,"rental_uris":{"android":"levelo://app?vid=d10c334a-60bb-4e55-84b8-1b684b39e26e","ios":"levelo://app?vid=d10c334a-60bb-4e55-84b8-1b684b39e26e"},"vehicle_type_id":"4","last_reported":1716840462,"current_range_meters":13200,"station_id":"ce4bhr12rcd13ifvqhqg","pricing_plan_id":"cebpf4jnsgd1na2vs0mg"},{"bike_id":"f57d0c1b-aaab-4115-b5d2-4d4ee0108ee7","system_id":"levelo_inurba_marseille","lat":43.322872,"lon":5.382756,"is_reserved":false,"is_disabled":false,"rental_uris":{"android":"levelo://app?vid=f57d0c1b-aaab-4115-b5d2-4d4ee0108ee7","ios":"levelo://app?vid=f57d0c1b-aaab-4115-b5d2-4d4ee0108ee7"},"vehicle_type_id":"4","last_reported":1716840462,"current_range_meters":0,"station_id":"ce4bhr12rcd13ifvqhqg","pricing_plan_id":"cebpf4jnsgd1na2vs0mg"},{"bike_id":"f645e5e7-f450-486f-bce3-1ac9433d5e15","system_id":"levelo_inurba_marseille","lat":43.322872,"lon":5.382756,"is_reserved":false,"is_disabled":false,"rental_uris":{"android":"levelo://app?vid=f645e5e7-f450-486f-bce3-1ac9433d5e15","ios":"levelo://app?vid=f645e5e7-f450-486f-bce3-1ac9433d5e15"},"vehicle_type_id":"4","last_reported":1716840462,"current_range_meters":7600,"station_id":"ce4bhr12rcd13ifvqhqg","pricing_plan_id":"cebpf4jnsgd1na2vs0mg"},{"bike_id":"b464207f-51d3-4374-860e-4a219be20940","system_id":"levelo_inurba_marseille","lat":43.322872,"lon":5.382756,"is_reserved":false,"is_disabled":false,"rental_uris":{"android":"levelo://app?vid=b464207f-51d3-4374-860e-4a219be20940","ios":"levelo://app?vid=b464207f-51d3-4374-860e-4a219be20940"},"vehicle_type_id":"4","last_reported":1716840462,"current_range_meters":26800,"station_id":"ce4bhr12rcd13ifvqhqg","pricing_plan_id":"cebpf4jnsgd1na2vs0mg"},{"bike_id":"ea0aa6cd-74f3-4053-a212-05642e95cd9c","system_id":"levelo_inurba_marseille","lat":43.322888,"lon":5.382781,"is_reserved":false,"is_disabled":false,"rental_uris":{"android":"levelo://app?vid=ea0aa6cd-74f3-4053-a212-05642e95cd9c","ios":"levelo://app?vid=ea0aa6cd-74f3-4053-a212-05642e95cd9c"},"vehicle_type_id":"4","last_reported":1716840462,"current_range_meters":8000,"station_id":"ce4bhr12rcd13ifvqhqg","pricing_plan_id":"cebpf4jnsgd1na2vs0mg"},{"bike_id":"9f5fc843-4d63-4200-b164-fd69ca8a887d","system_id":"levelo_inurba_marseille","lat":43.32291,"lon":5.38278,"is_reserved":false,"is_disabled":false,"rental_uris":{"android":"levelo://app?vid=9f5fc843-4d63-4200-b164-fd69ca8a887d","ios":"levelo://app?vid=9f5fc843-4d63-4200-b164-fd69ca8a887d"},"vehicle_type_id":"4","last_reported":1716840462,"current_range_meters":11600,"station_id":"ce4bhr12rcd13ifvqhqg","pricing_plan_id":"cebpf4jnsgd1na2vs0mg"},{"bike_id":"eb36f279-e269-4809-8ae0-a388eefeb02f","system_id":"levelo_inurba_marseille","lat":43.322872,"lon":5.382756,"is_reserved":false,"is_disabled":false,"rental_uris":{"android":"levelo://app?vid=eb36f279-e269-4809-8ae0-a388eefeb02f","ios":"levelo://app?vid=eb36f279-e269-4809-8ae0-a388eefeb02f"},"vehicle_type_id":"4","last_reported":1716840462,"current_range_meters":31200,"station_id":"ce4bhr12rcd13ifvqhqg","pricing_plan_id":"cebpf4jnsgd1na2vs0mg"},{"bike_id":"aeb1718d-3113-4a0b-995a-121fc40f6cc3","system_id":"levelo_inurba_marseille","lat":43.322872,"lon":5.382756,"is_reserved":false,"is_disabled":false,"rental_uris":{"android":"levelo://app?vid=aeb1718d-3113-4a0b-995a-121fc40f6cc3","ios":"levelo://app?vid=aeb1718d-3113-4a0b-995a-121fc40f6cc3"},"vehicle_type_id":"4","last_reported":1716840462,"current_range_meters":31200,"station_id":"ce4bhr12rcd13ifvqhqg","pricing_plan_id":"cebpf4jnsgd1na2vs0mg"},{"bike_id":"a2ed0a57-945a-416c-a663-39d9b3420c3e","system_id":"levelo_inurba_marseille","lat":43.322872,"lon":5.382756,"is_reserved":false,"is_disabled":false,"rental_uris":{"android":"levelo://app?vid=a2ed0a57-945a-416c-a663-39d9b3420c3e","ios":"levelo://app?vid=a2ed0a57-945a-416c-a663-39d9b3420c3e"},"vehicle_type_id":"4","last_reported":1716840462,"current_range_meters":31200,"station_id":"ce4bhr12rcd13ifvqhqg","pricing_plan_id":"cebpf4jnsgd1na2vs0mg"},{"bike_id":"971138d4-d0c2-48e5-9da5-11784b67a6b7","system_id":"levelo_inurba_marseille","lat":43.297163,"lon":5.365866,"is_reserved":false,"is_disabled":false,"rental_uris":{"android":"levelo://app?vid=971138d4-d0c2-48e5-9da5-11784b67a6b7","ios":"levelo://app?vid=971138d4-d0c2-48e5-9da5-11784b67a6b7"},"vehicle_type_id":"4","last_reported":1716840462,"current_range_meters":14000,"station_id":"ce4bgn12rcd13ifvqbt0","pricing_plan_id":"cebpf4jnsgd1na2vs0mg"},{"bike_id":"1c9c53c9-352d-40d4-a2e4-2a56b814ad8b","system_id":"levelo_inurba_marseille","lat":43.297163,"lon":5.365866,"is_reserved":false,"is_disabled":false,"rental_uris":{"android":"levelo://app?vid=1c9c53c9-352d-40d4-a2e4-2a56b814ad8b","ios":"levelo://app?vid=1c9c53c9-352d-40d4-a2e4-2a56b814ad8b"},"vehicle_type_id":"4","last_reported":1716840462,"current_range_meters":19600,"station_id":"ce4bgn12rcd13ifvqbt0","pricing_plan_id":"cebpf4jnsgd1na2vs0mg"},{"bike_id":"4c494db4-b1af-4898-901d-694f9317e2fe","system_id":"levelo_inurba_marseille","lat":43.297163,"lon":5.365866,"is_reserved":false,"is_disabled":false,"rental_uris":{"android":"levelo://app?vid=4c494db4-b1af-4898-901d-694f9317e2fe","ios":"levelo://app?vid=4c494db4-b1af-4898-901d-694f9317e2fe"},"vehicle_type_id":"4","last_reported":1716840462,"current_range_meters":26000,"station_id":"ce4bgn12rcd13ifvqbt0","pricing_plan_id":"cebpf4jnsgd1na2vs0mg"},{"bike_id":"73b4f5be-715e-4614-bedf-82ec48ee7f83","system_id":"levelo_inurba_marseille","lat":43.297163,"lon":5.365866,"is_reserved":false,"is_disabled":false,"rental_uris":{"android":"levelo://app?vid=73b4f5be-715e-4614-bedf-82ec48ee7f83","ios":"levelo://app?vid=73b4f5be-715e-4614-bedf-82ec48ee7f83"},"vehicle_type_id":"4","last_reported":1716840462,"current_range_meters":14000,"station_id":"ce4bgn12rcd13ifvqbt0","pricing_plan_id":"cebpf4jnsgd1na2vs0mg"},{"bike_id":"4b046c52-9a99-4f8b-91a2-72c750cb86e5","system_id":"levelo_inurba_marseille","lat":43.303133,"lon":5.385284,"is_reserved":false,"is_disabled":false,"rental_uris":{"android":"levelo://app?vid=4b046c52-9a99-4f8b-91a2-72c750cb86e5","ios":"levelo://app?vid=4b046c52-9a99-4f8b-91a2-72c750cb86e5"},"vehicle_type_id":"4","last_reported":1716840462,"current_range_meters":0,"station_id":"","pricing_plan_id":"cebpf4jnsgd1na2vs0mg"},{"bike_id":"3264b139-25bf-4e94-a9cd-9be35332dc90","system_id":"levelo_inurba_marseille","lat":43.2968,"lon":5.37291,"is_reserved":false,"is_disabled":false,"rental_uris":{"android":"levelo://app?vid=3264b139-25bf-4e94-a9cd-9be35332dc90","ios":"levelo://app?vid=3264b139-25bf-4e94-a9cd-9be35332dc90"},"vehicle_type_id":"4","last_reported":1716840462,"current_range_meters":25600,"station_id":"ce4bgk12rcd13ifvqbj0","pricing_plan_id":"cebpf4jnsgd1na2vs0mg"},{"bike_id":"b0181dbd-d16d-4347-9382-b450da867146","system_id":"levelo_inurba_marseille","lat":43.29657,"lon":5.36162,"is_reserved":false,"is_disabled":false,"rental_uris":{"android":"levelo://app?vid=b0181dbd-d16d-4347-9382-b450da867146","ios":"levelo://app?vid=b0181dbd-d16d-4347-9382-b450da867146"},"vehicle_type_id":"4","last_reported":1716840462,"current_range_meters":0,"station_id":"","pricing_plan_id":"cebpf4jnsgd1na2vs0mg"},{"bike_id":"22326cdf-0886-4b40-addd-d537aac187f0","system_id":"levelo_inurba_marseille","lat":43.299972,"lon":5.381742,"is_reserved":false,"is_disabled":false,"rental_uris":{"android":"levelo://app?vid=22326cdf-0886-4b40-addd-d537aac187f0","ios":"levelo://app?vid=22326cdf-0886-4b40-addd-d537aac187f0"},"vehicle_type_id":"4","last_reported":1716840462,"current_range_meters":26800,"station_id":"","pricing_plan_id":"cebpf4jnsgd1na2vs0mg"},{"bike_id":"faeddf09-6236-4aa0-a05f-5f199e506033","system_id":"levelo_inurba_marseille","lat":43.299028,"lon":5.381509,"is_reserved":false,"is_disabled":false,"rental_uris":{"android":"levelo://app?vid=faeddf09-6236-4aa0-a05f-5f199e506033","ios":"levelo://app?vid=faeddf09-6236-4aa0-a05f-5f199e506033"},"vehicle_type_id":"4","last_reported":1716840462,"current_range_meters":24800,"station_id":"ce4bgj12rcd13ifvqbc0","pricing_plan_id":"cebpf4jnsgd1na2vs0mg"},{"bike_id":"d4ddba7f-42df-46c9-952f-b993d9b9a14d","system_id":"levelo_inurba_marseille","lat":43.299028,"lon":5.381509,"is_reserved":false,"is_disabled":false,"rental_uris":{"android":"levelo://app?vid=d4ddba7f-42df-46c9-952f-b993d9b9a14d","ios":"levelo://app?vid=d4ddba7f-42df-46c9-952f-b993d9b9a14d"},"vehicle_type_id":"4","last_reported":1716840462,"current_range_meters":26400,"station_id":"ce4bgj12rcd13ifvqbc0","pricing_plan_id":"cebpf4jnsgd1na2vs0mg"},{"bike_id":"060b3cf1-4189-4452-b6f3-7728cce0d2a0","system_id":"levelo_inurba_marseille","lat":43.299028,"lon":5.381509,"is_reserved":false,"is_disabled":false,"rental_uris":{"android":"levelo://app?vid=060b3cf1-4189-4452-b6f3-7728cce0d2a0","ios":"levelo://app?vid=060b3cf1-4189-4452-b6f3-7728cce0d2a0"},"vehicle_type_id":"4","last_reported":1716840462,"current_range_meters":27200,"station_id":"ce4bgj12rcd13ifvqbc0","pricing_plan_id":"cebpf4jnsgd1na2vs0mg"},{"bike_id":"57febc11-2390-4737-ab4c-9e942d707956","system_id":"levelo_inurba_marseille","lat":43.31762,"lon":5.39007,"is_reserved":false,"is_disabled":false,"rental_uris":{"android":"levelo://app?vid=57febc11-2390-4737-ab4c-9e942d707956","ios":"levelo://app?vid=57febc11-2390-4737-ab4c-9e942d707956"},"vehicle_type_id":"4","last_reported":1716840462,"current_range_meters":21200,"station_id":"ce4bhqp2rcd13ifvqhng","pricing_plan_id":"cebpf4jnsgd1na2vs0mg"},{"bike_id":"a1e83dda-9d1b-4512-92ff-eb5c291501de","system_id":"levelo_inurba_marseille","lat":43.317557,"lon":5.390173,"is_reserved":false,"is_disabled":false,"rental_uris":{"android":"levelo://app?vid=a1e83dda-9d1b-4512-92ff-eb5c291501de","ios":"levelo://app?vid=a1e83dda-9d1b-4512-92ff-eb5c291501de"},"vehicle_type_id":"4","last_reported":1716840462,"current_range_meters":19600,"station_id":"ce4bhqp2rcd13ifvqhng","pricing_plan_id":"cebpf4jnsgd1na2vs0mg"},{"bike_id":"6707d757-6192-4ef7-8f4b-ebad7e419ccd","system_id":"levelo_inurba_marseille","lat":43.317557,"lon":5.390173,"is_reserved":false,"is_disabled":false,"rental_uris":{"android":"levelo://app?vid=6707d757-6192-4ef7-8f4b-ebad7e419ccd","ios":"levelo://app?vid=6707d757-6192-4ef7-8f4b-ebad7e419ccd"},"vehicle_type_id":"4","last_reported":1716840462,"current_range_meters":12800,"station_id":"ce4bhqp2rcd13ifvqhng","pricing_plan_id":"cebpf4jnsgd1na2vs0mg"},{"bike_id":"50edb496-6526-413f-997a-282b5226de08","system_id":"levelo_inurba_marseille","lat":43.317557,"lon":5.390173,"is_reserved":false,"is_disabled":false,"rental_uris":{"android":"levelo://app?vid=50edb496-6526-413f-997a-282b5226de08","ios":"levelo://app?vid=50edb496-6526-413f-997a-282b5226de08"},"vehicle_type_id":"4","last_reported":1716840462,"current_range_meters":30400,"station_id":"ce4bhqp2rcd13ifvqhng","pricing_plan_id":"cebpf4jnsgd1na2vs0mg"},{"bike_id":"46a668cc-8338-40ed-bf47-d3b0a1b62df7","system_id":"levelo_inurba_marseille","lat":43.317557,"lon":5.390173,"is_reserved":false,"is_disabled":false,"rental_uris":{"android":"levelo://app?vid=46a668cc-8338-40ed-bf47-d3b0a1b62df7","ios":"levelo://app?vid=46a668cc-8338-40ed-bf47-d3b0a1b62df7"},"vehicle_type_id":"4","last_reported":1716840462,"current_range_meters":1200,"station_id":"ce4bhqp2rcd13ifvqhng","pricing_plan_id":"cebpf4jnsgd1na2vs0mg"},{"bike_id":"70a94cfe-81a6-4253-9a20-05dd87f03900","system_id":"levelo_inurba_marseille","lat":43.317557,"lon":5.390173,"is_reserved":false,"is_disabled":false,"rental_uris":{"android":"levelo://app?vid=70a94cfe-81a6-4253-9a20-05dd87f03900","ios":"levelo://app?vid=70a94cfe-81a6-4253-9a20-05dd87f03900"},"vehicle_type_id":"4","last_reported":1716840462,"current_range_meters":800,"station_id":"ce4bhqp2rcd13ifvqhng","pricing_plan_id":"cebpf4jnsgd1na2vs0mg"},{"bike_id":"dfe80851-370b-43d6-9654-bade78148f57","system_id":"levelo_inurba_marseille","lat":43.317557,"lon":5.390173,"is_reserved":false,"is_disabled":false,"rental_uris":{"android":"levelo://app?vid=dfe80851-370b-43d6-9654-bade78148f57","ios":"levelo://app?vid=dfe80851-370b-43d6-9654-bade78148f57"},"vehicle_type_id":"4","last_reported":1716840462,"current_range_meters":22000,"station_id":"ce4bhqp2rcd13ifvqhng","pricing_plan_id":"cebpf4jnsgd1na2vs0mg"},{"bike_id":"5f7f4af4-c820-4867-89af-44130f83b35f","system_id":"levelo_inurba_marseille","lat":43.317557,"lon":5.390173,"is_reserved":false,"is_disabled":false,"rental_uris":{"android":"levelo://app?vid=5f7f4af4-c820-4867-89af-44130f83b35f","ios":"levelo://app?vid=5f7f4af4-c820-4867-89af-44130f83b35f"},"vehicle_type_id":"4","last_reported":1716840462,"current_range_meters":29600,"station_id":"ce4bhqp2rcd13ifvqhng","pricing_plan_id":"cebpf4jnsgd1na2vs0mg"},{"bike_id":"7064e80e-94b0-4794-bcb6-964538427880","system_id":"levelo_inurba_marseille","lat":43.317557,"lon":5.390173,"is_reserved":false,"is_disabled":false,"rental_uris":{"android":"levelo://app?vid=7064e80e-94b0-4794-bcb6-964538427880","ios":"levelo://app?vid=7064e80e-94b0-4794-bcb6-964538427880"},"vehicle_type_id":"4","last_reported":1716840462,"current_range_meters":2800,"station_id":"ce4bhqp2rcd13ifvqhng","pricing_plan_id":"cebpf4jnsgd1na2vs0mg"},{"bike_id":"9fbd688d-abd1-4915-ab1a-5f68974095c8","system_id":"levelo_inurba_marseille","lat":43.317557,"lon":5.390173,"is_reserved":false,"is_disabled":false,"rental_uris":{"android":"levelo://app?vid=9fbd688d-abd1-4915-ab1a-5f68974095c8","ios":"levelo://app?vid=9fbd688d-abd1-4915-ab1a-5f68974095c8"},"vehicle_type_id":"4","last_reported":1716840462,"current_range_meters":7200,"station_id":"ce4bhqp2rcd13ifvqhng","pricing_plan_id":"cebpf4jnsgd1na2vs0mg"},{"bike_id":"fe9f3e4a-060b-49b2-ad35-84bcf45fba2c","system_id":"levelo_inurba_marseille","lat":43.317557,"lon":5.390173,"is_reserved":false,"is_disabled":false,"rental_uris":{"android":"levelo://app?vid=fe9f3e4a-060b-49b2-ad35-84bcf45fba2c","ios":"levelo://app?vid=fe9f3e4a-060b-49b2-ad35-84bcf45fba2c"},"vehicle_type_id":"4","last_reported":1716840462,"current_range_meters":31600,"station_id":"ce4bhqp2rcd13ifvqhng","pricing_plan_id":"cebpf4jnsgd1na2vs0mg"},{"bike_id":"6950e146-2cca-4d2d-9fa6-51c1ffa282f5","system_id":"levelo_inurba_marseille","lat":43.317557,"lon":5.390173,"is_reserved":false,"is_disabled":false,"rental_uris":{"android":"levelo://app?vid=6950e146-2cca-4d2d-9fa6-51c1ffa282f5","ios":"levelo://app?vid=6950e146-2cca-4d2d-9fa6-51c1ffa282f5"},"vehicle_type_id":"4","last_reported":1716840462,"current_range_meters":0,"station_id":"ce4bhqp2rcd13ifvqhng","pricing_plan_id":"cebpf4jnsgd1na2vs0mg"},{"bike_id":"fa10a8a3-7163-42fc-94ab-e8b11ebbcc8a","system_id":"levelo_inurba_marseille","lat":43.317557,"lon":5.390173,"is_reserved":false,"is_disabled":false,"rental_uris":{"android":"levelo://app?vid=fa10a8a3-7163-42fc-94ab-e8b11ebbcc8a","ios":"levelo://app?vid=fa10a8a3-7163-42fc-94ab-e8b11ebbcc8a"},"vehicle_type_id":"4","last_reported":1716840462,"current_range_meters":15200,"station_id":"ce4bhqp2rcd13ifvqhng","pricing_plan_id":"cebpf4jnsgd1na2vs0mg"},{"bike_id":"2369780e-8800-485f-9da1-c18792a0f01b","system_id":"levelo_inurba_marseille","lat":43.304274,"lon":5.388873,"is_reserved":false,"is_disabled":false,"rental_uris":{"android":"levelo://app?vid=2369780e-8800-485f-9da1-c18792a0f01b","ios":"levelo://app?vid=2369780e-8800-485f-9da1-c18792a0f01b"},"vehicle_type_id":"4","last_reported":1716840462,"current_range_meters":23200,"station_id":"ce4bgk12rcd13ifvqbi0","pricing_plan_id":"cebpf4jnsgd1na2vs0mg"},{"bike_id":"ec2f2c19-dff0-4ec1-9567-ab071e482349","system_id":"levelo_inurba_marseille","lat":43.298037,"lon":5.381066,"is_reserved":false,"is_disabled":false,"rental_uris":{"android":"levelo://app?vid=ec2f2c19-dff0-4ec1-9567-ab071e482349","ios":"levelo://app?vid=ec2f2c19-dff0-4ec1-9567-ab071e482349"},"vehicle_type_id":"4","last_reported":1716840462,"current_range_meters":18000,"station_id":"ce4bgip2rcd13ifvqbb0","pricing_plan_id":"cebpf4jnsgd1na2vs0mg"},{"bike_id":"5e5dd5b6-fcd6-4667-97df-14656c5b8ca7","system_id":"levelo_inurba_marseille","lat":43.298037,"lon":5.381066,"is_reserved":false,"is_disabled":false,"rental_uris":{"android":"levelo://app?vid=5e5dd5b6-fcd6-4667-97df-14656c5b8ca7","ios":"levelo://app?vid=5e5dd5b6-fcd6-4667-97df-14656c5b8ca7"},"vehicle_type_id":"4","last_reported":1716840462,"current_range_meters":2000,"station_id":"ce4bgip2rcd13ifvqbb0","pricing_plan_id":"cebpf4jnsgd1na2vs0mg"},{"bike_id":"12aaade8-e058-4df9-a853-db40c3873d60","system_id":"levelo_inurba_marseille","lat":43.297794,"lon":5.370888,"is_reserved":false,"is_disabled":false,"rental_uris":{"android":"levelo://app?vid=12aaade8-e058-4df9-a853-db40c3873d60","ios":"levelo://app?vid=12aaade8-e058-4df9-a853-db40c3873d60"},"vehicle_type_id":"4","last_reported":1716840462,"current_range_meters":30400,"station_id":"ce4bgop2rcd13ifvqc1g","pricing_plan_id":"cebpf4jnsgd1na2vs0mg"},{"bike_id":"34ea1c51-93f2-4330-b761-86d531fc0558","system_id":"levelo_inurba_marseille","lat":43.296277,"lon":5.377108,"is_reserved":false,"is_disabled":false,"rental_uris":{"android":"levelo://app?vid=34ea1c51-93f2-4330-b761-86d531fc0558","ios":"levelo://app?vid=34ea1c51-93f2-4330-b761-86d531fc0558"},"vehicle_type_id":"4","last_reported":1716840462,"current_range_meters":26400,"station_id":"ce4bgi92rcd13ifvqb90","pricing_plan_id":"cebpf4jnsgd1na2vs0mg"},{"bike_id":"f6d51978-2b43-4a3f-a15e-03aa76db86d8","system_id":"levelo_inurba_marseille","lat":43.298037,"lon":5.381066,"is_reserved":false,"is_disabled":false,"rental_uris":{"android":"levelo://app?vid=f6d51978-2b43-4a3f-a15e-03aa76db86d8","ios":"levelo://app?vid=f6d51978-2b43-4a3f-a15e-03aa76db86d8"},"vehicle_type_id":"4","last_reported":1716840462,"current_range_meters":0,"station_id":"ce4bgip2rcd13ifvqbb0","pricing_plan_id":"cebpf4jnsgd1na2vs0mg"},{"bike_id":"b0ce4d57-a49f-45c6-ae81-ef157c9e936f","system_id":"levelo_inurba_marseille","lat":43.304278,"lon":5.388868,"is_reserved":false,"is_disabled":false,"rental_uris":{"android":"levelo://app?vid=b0ce4d57-a49f-45c6-ae81-ef157c9e936f","ios":"levelo://app?vid=b0ce4d57-a49f-45c6-ae81-ef157c9e936f"},"vehicle_type_id":"4","last_reported":1716840462,"current_range_meters":21200,"station_id":"ce4bgk12rcd13ifvqbi0","pricing_plan_id":"cebpf4jnsgd1na2vs0mg"},{"bike_id":"f14d238b-b834-4e20-ab5f-5b6eebc48803","system_id":"levelo_inurba_marseille","lat":43.298037,"lon":5.381066,"is_reserved":false,"is_disabled":false,"rental_uris":{"android":"levelo://app?vid=f14d238b-b834-4e20-ab5f-5b6eebc48803","ios":"levelo://app?vid=f14d238b-b834-4e20-ab5f-5b6eebc48803"},"vehicle_type_id":"4","last_reported":1716840462,"current_range_meters":2000,"station_id":"ce4bgip2rcd13ifvqbb0","pricing_plan_id":"cebpf4jnsgd1na2vs0mg"},{"bike_id":"bd6cf560-df3a-4d10-a089-d4f28cb9f1de","system_id":"levelo_inurba_marseille","lat":43.296263,"lon":5.377094,"is_reserved":false,"is_disabled":false,"rental_uris":{"android":"levelo://app?vid=bd6cf560-df3a-4d10-a089-d4f28cb9f1de","ios":"levelo://app?vid=bd6cf560-df3a-4d10-a089-d4f28cb9f1de"},"vehicle_type_id":"4","last_reported":1716840462,"current_range_meters":12800,"station_id":"ce4bgi92rcd13ifvqb90","pricing_plan_id":"cebpf4jnsgd1na2vs0mg"},{"bike_id":"f6403421-cf64-4d70-9095-b8449738d3a6","system_id":"levelo_inurba_marseille","lat":43.30903,"lon":5.39138,"is_reserved":false,"is_disabled":false,"rental_uris":{"android":"levelo://app?vid=f6403421-cf64-4d70-9095-b8449738d3a6","ios":"levelo://app?vid=f6403421-cf64-4d70-9095-b8449738d3a6"},"vehicle_type_id":"4","last_reported":1716840462,"current_range_meters":12400,"station_id":"","pricing_plan_id":"cebpf4jnsgd1na2vs0mg"},{"bike_id":"7f6b68fc-a556-4ce9-8060-3dc36252d6b4","system_id":"levelo_inurba_marseille","lat":43.296277,"lon":5.377108,"is_reserved":false,"is_disabled":false,"rental_uris":{"android":"levelo://app?vid=7f6b68fc-a556-4ce9-8060-3dc36252d6b4","ios":"levelo://app?vid=7f6b68fc-a556-4ce9-8060-3dc36252d6b4"},"vehicle_type_id":"4","last_reported":1716840462,"current_range_meters":6400,"station_id":"ce4bgi92rcd13ifvqb90","pricing_plan_id":"cebpf4jnsgd1na2vs0mg"},{"bike_id":"84b992a9-c474-4fba-93cb-461949dc6e23","system_id":"levelo_inurba_marseille","lat":43.32367,"lon":5.388836,"is_reserved":false,"is_disabled":false,"rental_uris":{"android":"levelo://app?vid=84b992a9-c474-4fba-93cb-461949dc6e23","ios":"levelo://app?vid=84b992a9-c474-4fba-93cb-461949dc6e23"},"vehicle_type_id":"4","last_reported":1716840462,"current_range_meters":0,"station_id":"ce4bhqp2rcd13ifvqhog","pricing_plan_id":"cebpf4jnsgd1na2vs0mg"},{"bike_id":"085f8808-1d82-4a31-a42a-8e58df7e3717","system_id":"levelo_inurba_marseille","lat":43.29468,"lon":5.36304,"is_reserved":false,"is_disabled":false,"rental_uris":{"android":"levelo://app?vid=085f8808-1d82-4a31-a42a-8e58df7e3717","ios":"levelo://app?vid=085f8808-1d82-4a31-a42a-8e58df7e3717"},"vehicle_type_id":"4","last_reported":1716840462,"current_range_meters":5200,"station_id":"","pricing_plan_id":"cebpf4jnsgd1na2vs0mg"},{"bike_id":"529781f1-cf4b-434a-9b44-b52d95dfda10","system_id":"levelo_inurba_marseille","lat":43.296263,"lon":5.377094,"is_reserved":false,"is_disabled":false,"rental_uris":{"android":"levelo://app?vid=529781f1-cf4b-434a-9b44-b52d95dfda10","ios":"levelo://app?vid=529781f1-cf4b-434a-9b44-b52d95dfda10"},"vehicle_type_id":"4","last_reported":1716840462,"current_range_meters":24400,"station_id":"ce4bgi92rcd13ifvqb90","pricing_plan_id":"cebpf4jnsgd1na2vs0mg"},{"bike_id":"659b84d8-b09b-4a52-b94f-e0d11da422ac","system_id":"levelo_inurba_marseille","lat":43.299724,"lon":5.384848,"is_reserved":false,"is_disabled":false,"rental_uris":{"android":"levelo://app?vid=659b84d8-b09b-4a52-b94f-e0d11da422ac","ios":"levelo://app?vid=659b84d8-b09b-4a52-b94f-e0d11da422ac"},"vehicle_type_id":"4","last_reported":1716840462,"current_range_meters":30400,"station_id":"ce4bgj92rcd13ifvqbd0","pricing_plan_id":"cebpf4jnsgd1na2vs0mg"},{"bike_id":"718b5a5e-89c0-4b56-bb20-8857a74a5046","system_id":"levelo_inurba_marseille","lat":43.296263,"lon":5.377094,"is_reserved":false,"is_disabled":false,"rental_uris":{"android":"levelo://app?vid=718b5a5e-89c0-4b56-bb20-8857a74a5046","ios":"levelo://app?vid=718b5a5e-89c0-4b56-bb20-8857a74a5046"},"vehicle_type_id":"4","last_reported":1716840462,"current_range_meters":18000,"station_id":"ce4bgi92rcd13ifvqb90","pricing_plan_id":"cebpf4jnsgd1na2vs0mg"},{"bike_id":"e2e7954d-ff96-449e-9173-019d247b15d6","system_id":"levelo_inurba_marseille","lat":43.32367,"lon":5.388836,"is_reserved":false,"is_disabled":false,"rental_uris":{"android":"levelo://app?vid=e2e7954d-ff96-449e-9173-019d247b15d6","ios":"levelo://app?vid=e2e7954d-ff96-449e-9173-019d247b15d6"},"vehicle_type_id":"4","last_reported":1716840462,"current_range_meters":2800,"station_id":"ce4bhqp2rcd13ifvqhog","pricing_plan_id":"cebpf4jnsgd1na2vs0mg"},{"bike_id":"f8be2c7b-eac4-4303-8687-99694b706884","system_id":"levelo_inurba_marseille","lat":43.32362,"lon":5.38882,"is_reserved":false,"is_disabled":false,"rental_uris":{"android":"levelo://app?vid=f8be2c7b-eac4-4303-8687-99694b706884","ios":"levelo://app?vid=f8be2c7b-eac4-4303-8687-99694b706884"},"vehicle_type_id":"4","last_reported":1716840462,"current_range_meters":10800,"station_id":"ce4bhqp2rcd13ifvqhog","pricing_plan_id":"cebpf4jnsgd1na2vs0mg"},{"bike_id":"15bc8e0b-e722-43f2-97da-65b2309c1c7e","system_id":"levelo_inurba_marseille","lat":43.323631,"lon":5.388825,"is_reserved":false,"is_disabled":false,"rental_uris":{"android":"levelo://app?vid=15bc8e0b-e722-43f2-97da-65b2309c1c7e","ios":"levelo://app?vid=15bc8e0b-e722-43f2-97da-65b2309c1c7e"},"vehicle_type_id":"4","last_reported":1716840462,"current_range_meters":29600,"station_id":"ce4bhqp2rcd13ifvqhog","pricing_plan_id":"cebpf4jnsgd1na2vs0mg"},{"bike_id":"6b5efc99-0449-49da-b8f1-63ebbfe36115","system_id":"levelo_inurba_marseille","lat":43.32364,"lon":5.38886,"is_reserved":false,"is_disabled":false,"rental_uris":{"android":"levelo://app?vid=6b5efc99-0449-49da-b8f1-63ebbfe36115","ios":"levelo://app?vid=6b5efc99-0449-49da-b8f1-63ebbfe36115"},"vehicle_type_id":"4","last_reported":1716840462,"current_range_meters":14000,"station_id":"ce4bhqp2rcd13ifvqhog","pricing_plan_id":"cebpf4jnsgd1na2vs0mg"},{"bike_id":"36030b36-43b0-4150-8186-c80ec092c05b","system_id":"levelo_inurba_marseille","lat":43.32367,"lon":5.388836,"is_reserved":false,"is_disabled":false,"rental_uris":{"android":"levelo://app?vid=36030b36-43b0-4150-8186-c80ec092c05b","ios":"levelo://app?vid=36030b36-43b0-4150-8186-c80ec092c05b"},"vehicle_type_id":"4","last_reported":1716840462,"current_range_meters":18000,"station_id":"ce4bhqp2rcd13ifvqhog","pricing_plan_id":"cebpf4jnsgd1na2vs0mg"},{"bike_id":"ea0fbe31-def4-46e3-9ab3-bbd3bd9026f8","system_id":"levelo_inurba_marseille","lat":43.32367,"lon":5.388836,"is_reserved":false,"is_disabled":false,"rental_uris":{"android":"levelo://app?vid=ea0fbe31-def4-46e3-9ab3-bbd3bd9026f8","ios":"levelo://app?vid=ea0fbe31-def4-46e3-9ab3-bbd3bd9026f8"},"vehicle_type_id":"4","last_reported":1716840462,"current_range_meters":6000,"station_id":"ce4bhqp2rcd13ifvqhog","pricing_plan_id":"cebpf4jnsgd1na2vs0mg"},{"bike_id":"b6b17058-e8cc-4e83-bfee-1e2eaeb49a3c","system_id":"levelo_inurba_marseille","lat":43.32367,"lon":5.388836,"is_reserved":false,"is_disabled":false,"rental_uris":{"android":"levelo://app?vid=b6b17058-e8cc-4e83-bfee-1e2eaeb49a3c","ios":"levelo://app?vid=b6b17058-e8cc-4e83-bfee-1e2eaeb49a3c"},"vehicle_type_id":"4","last_reported":1716840462,"current_range_meters":10800,"station_id":"ce4bhqp2rcd13ifvqhog","pricing_plan_id":"cebpf4jnsgd1na2vs0mg"},{"bike_id":"01816557-977d-4599-a229-c9d77b9d6f5b","system_id":"levelo_inurba_marseille","lat":43.323689,"lon":5.388836,"is_reserved":false,"is_disabled":false,"rental_uris":{"android":"levelo://app?vid=01816557-977d-4599-a229-c9d77b9d6f5b","ios":"levelo://app?vid=01816557-977d-4599-a229-c9d77b9d6f5b"},"vehicle_type_id":"4","last_reported":1716840462,"current_range_meters":5200,"station_id":"ce4bhqp2rcd13ifvqhog","pricing_plan_id":"cebpf4jnsgd1na2vs0mg"},{"bike_id":"0fb12b2c-92d6-45af-a80e-7c3f5a821171","system_id":"levelo_inurba_marseille","lat":43.32367,"lon":5.388836,"is_reserved":false,"is_disabled":false,"rental_uris":{"android":"levelo://app?vid=0fb12b2c-92d6-45af-a80e-7c3f5a821171","ios":"levelo://app?vid=0fb12b2c-92d6-45af-a80e-7c3f5a821171"},"vehicle_type_id":"4","last_reported":1716840462,"current_range_meters":28000,"station_id":"ce4bhqp2rcd13ifvqhog","pricing_plan_id":"cebpf4jnsgd1na2vs0mg"},{"bike_id":"882f352e-a843-41d0-8e73-a063af5a5f8b","system_id":"levelo_inurba_marseille","lat":43.32366,"lon":5.38887,"is_reserved":false,"is_disabled":false,"rental_uris":{"android":"levelo://app?vid=882f352e-a843-41d0-8e73-a063af5a5f8b","ios":"levelo://app?vid=882f352e-a843-41d0-8e73-a063af5a5f8b"},"vehicle_type_id":"4","last_reported":1716840462,"current_range_meters":13600,"station_id":"ce4bhqp2rcd13ifvqhog","pricing_plan_id":"cebpf4jnsgd1na2vs0mg"},{"bike_id":"9de152c9-39f5-405c-acdf-70889c128a59","system_id":"levelo_inurba_marseille","lat":43.32367,"lon":5.388836,"is_reserved":false,"is_disabled":false,"rental_uris":{"android":"levelo://app?vid=9de152c9-39f5-405c-acdf-70889c128a59","ios":"levelo://app?vid=9de152c9-39f5-405c-acdf-70889c128a59"},"vehicle_type_id":"4","last_reported":1716840462,"current_range_meters":11600,"station_id":"ce4bhqp2rcd13ifvqhog","pricing_plan_id":"cebpf4jnsgd1na2vs0mg"},{"bike_id":"cf874173-1c56-4ece-8d73-e2f1818f9539","system_id":"levelo_inurba_marseille","lat":43.29606,"lon":5.38093,"is_reserved":false,"is_disabled":false,"rental_uris":{"android":"levelo://app?vid=cf874173-1c56-4ece-8d73-e2f1818f9539","ios":"levelo://app?vid=cf874173-1c56-4ece-8d73-e2f1818f9539"},"vehicle_type_id":"4","last_reported":1716840462,"current_range_meters":7200,"station_id":"ce4bgl12rcd13ifvqbo0","pricing_plan_id":"cebpf4jnsgd1na2vs0mg"},{"bike_id":"6afb1a4c-1ce0-4dfe-822d-bca7c164abaa","system_id":"levelo_inurba_marseille","lat":43.29602,"lon":5.381084,"is_reserved":false,"is_disabled":false,"rental_uris":{"android":"levelo://app?vid=6afb1a4c-1ce0-4dfe-822d-bca7c164abaa","ios":"levelo://app?vid=6afb1a4c-1ce0-4dfe-822d-bca7c164abaa"},"vehicle_type_id":"4","last_reported":1716840462,"current_range_meters":9200,"station_id":"ce4bgl12rcd13ifvqbo0","pricing_plan_id":"cebpf4jnsgd1na2vs0mg"},{"bike_id":"d0962943-04f2-4ef4-bf7a-6b6a9c119de7","system_id":"levelo_inurba_marseille","lat":43.29602,"lon":5.38092,"is_reserved":false,"is_disabled":false,"rental_uris":{"android":"levelo://app?vid=d0962943-04f2-4ef4-bf7a-6b6a9c119de7","ios":"levelo://app?vid=d0962943-04f2-4ef4-bf7a-6b6a9c119de7"},"vehicle_type_id":"4","last_reported":1716840462,"current_range_meters":25200,"station_id":"ce4bgl12rcd13ifvqbo0","pricing_plan_id":"cebpf4jnsgd1na2vs0mg"},{"bike_id":"07e7d431-4208-4f27-b604-3badbc4695c5","system_id":"levelo_inurba_marseille","lat":43.29602,"lon":5.381084,"is_reserved":false,"is_disabled":false,"rental_uris":{"android":"levelo://app?vid=07e7d431-4208-4f27-b604-3badbc4695c5","ios":"levelo://app?vid=07e7d431-4208-4f27-b604-3badbc4695c5"},"vehicle_type_id":"4","last_reported":1716840462,"current_range_meters":24400,"station_id":"ce4bgl12rcd13ifvqbo0","pricing_plan_id":"cebpf4jnsgd1na2vs0mg"},{"bike_id":"4996316c-70d9-468f-8500-e20ae4ef2a3e","system_id":"levelo_inurba_marseille","lat":43.29599,"lon":5.3809,"is_reserved":false,"is_disabled":false,"rental_uris":{"android":"levelo://app?vid=4996316c-70d9-468f-8500-e20ae4ef2a3e","ios":"levelo://app?vid=4996316c-70d9-468f-8500-e20ae4ef2a3e"},"vehicle_type_id":"4","last_reported":1716840462,"current_range_meters":27600,"station_id":"ce4bgl12rcd13ifvqbo0","pricing_plan_id":"cebpf4jnsgd1na2vs0mg"},{"bike_id":"be913b69-e204-440c-83d0-a651a4fba882","system_id":"levelo_inurba_marseille","lat":43.324344,"lon":5.388669,"is_reserved":false,"is_disabled":false,"rental_uris":{"android":"levelo://app?vid=be913b69-e204-440c-83d0-a651a4fba882","ios":"levelo://app?vid=be913b69-e204-440c-83d0-a651a4fba882"},"vehicle_type_id":"4","last_reported":1716840462,"current_range_meters":800,"station_id":"ce4bhqp2rcd13ifvqhog","pricing_plan_id":"cebpf4jnsgd1na2vs0mg"},{"bike_id":"55233b09-3c82-4bd2-b2ce-50420bbc6983","system_id":"levelo_inurba_marseille","lat":43.29601,"lon":5.381084,"is_reserved":false,"is_disabled":false,"rental_uris":{"android":"levelo://app?vid=55233b09-3c82-4bd2-b2ce-50420bbc6983","ios":"levelo://app?vid=55233b09-3c82-4bd2-b2ce-50420bbc6983"},"vehicle_type_id":"4","last_reported":1716840462,"current_range_meters":28000,"station_id":"ce4bgl12rcd13ifvqbo0","pricing_plan_id":"cebpf4jnsgd1na2vs0mg"},{"bike_id":"d7d21485-ec8c-437a-abf0-eb4227bcfa65","system_id":"levelo_inurba_marseille","lat":43.299028,"lon":5.381509,"is_reserved":false,"is_disabled":false,"rental_uris":{"android":"levelo://app?vid=d7d21485-ec8c-437a-abf0-eb4227bcfa65","ios":"levelo://app?vid=d7d21485-ec8c-437a-abf0-eb4227bcfa65"},"vehicle_type_id":"4","last_reported":1716840462,"current_range_meters":14800,"station_id":"ce4bgj12rcd13ifvqbc0","pricing_plan_id":"cebpf4jnsgd1na2vs0mg"},{"bike_id":"ac132b29-549c-4bc4-a57c-944611eb4628","system_id":"levelo_inurba_marseille","lat":43.29602,"lon":5.381084,"is_reserved":false,"is_disabled":false,"rental_uris":{"android":"levelo://app?vid=ac132b29-549c-4bc4-a57c-944611eb4628","ios":"levelo://app?vid=ac132b29-549c-4bc4-a57c-944611eb4628"},"vehicle_type_id":"4","last_reported":1716840462,"current_range_meters":16400,"station_id":"ce4bgl12rcd13ifvqbo0","pricing_plan_id":"cebpf4jnsgd1na2vs0mg"},{"bike_id":"81d4642c-a4d6-4795-8631-e5f9f8a1e428","system_id":"levelo_inurba_marseille","lat":43.292749,"lon":5.368402,"is_reserved":false,"is_disabled":false,"rental_uris":{"android":"levelo://app?vid=81d4642c-a4d6-4795-8631-e5f9f8a1e428","ios":"levelo://app?vid=81d4642c-a4d6-4795-8631-e5f9f8a1e428"},"vehicle_type_id":"4","last_reported":1716840462,"current_range_meters":22000,"station_id":"ce4bhbp2rcd13ifvqesg","pricing_plan_id":"cebpf4jnsgd1na2vs0mg"},{"bike_id":"7b960ece-a0db-4a0a-85d2-95ce431817f1","system_id":"levelo_inurba_marseille","lat":43.2936,"lon":5.37835,"is_reserved":false,"is_disabled":false,"rental_uris":{"android":"levelo://app?vid=7b960ece-a0db-4a0a-85d2-95ce431817f1","ios":"levelo://app?vid=7b960ece-a0db-4a0a-85d2-95ce431817f1"},"vehicle_type_id":"4","last_reported":1716840462,"current_range_meters":22400,"station_id":"ce4bgjh2rcd13ifvqbf0","pricing_plan_id":"cebpf4jnsgd1na2vs0mg"},{"bike_id":"d4f1c1dc-24a8-44d2-a8a0-accc09b7af07","system_id":"levelo_inurba_marseille","lat":43.30085,"lon":5.390856,"is_reserved":false,"is_disabled":false,"rental_uris":{"android":"levelo://app?vid=d4f1c1dc-24a8-44d2-a8a0-accc09b7af07","ios":"levelo://app?vid=d4f1c1dc-24a8-44d2-a8a0-accc09b7af07"},"vehicle_type_id":"4","last_reported":1716840462,"current_range_meters":0,"station_id":"ce4bh192rcd13ifvqdb0","pricing_plan_id":"cebpf4jnsgd1na2vs0mg"},{"bike_id":"3a68defc-f62d-43d4-b6f0-f4dd885b4221","system_id":"levelo_inurba_marseille","lat":43.303002,"lon":5.392142,"is_reserved":false,"is_disabled":false,"rental_uris":{"android":"levelo://app?vid=3a68defc-f62d-43d4-b6f0-f4dd885b4221","ios":"levelo://app?vid=3a68defc-f62d-43d4-b6f0-f4dd885b4221"},"vehicle_type_id":"4","last_reported":1716840462,"current_range_meters":22400,"station_id":"ce4bgkh2rcd13ifvqbk0","pricing_plan_id":"cebpf4jnsgd1na2vs0mg"},{"bike_id":"011848d0-a0d5-41ff-8a06-f6869651c7b2","system_id":"levelo_inurba_marseille","lat":43.302992,"lon":5.392136,"is_reserved":false,"is_disabled":false,"rental_uris":{"android":"levelo://app?vid=011848d0-a0d5-41ff-8a06-f6869651c7b2","ios":"levelo://app?vid=011848d0-a0d5-41ff-8a06-f6869651c7b2"},"vehicle_type_id":"4","last_reported":1716840462,"current_range_meters":22000,"station_id":"ce4bgkh2rcd13ifvqbk0","pricing_plan_id":"cebpf4jnsgd1na2vs0mg"},{"bike_id":"bbc1482b-d407-465f-8be8-215f77e2d362","system_id":"levelo_inurba_marseille","lat":43.303002,"lon":5.392142,"is_reserved":false,"is_disabled":false,"rental_uris":{"android":"levelo://app?vid=bbc1482b-d407-465f-8be8-215f77e2d362","ios":"levelo://app?vid=bbc1482b-d407-465f-8be8-215f77e2d362"},"vehicle_type_id":"4","last_reported":1716840462,"current_range_meters":800,"station_id":"ce4bgkh2rcd13ifvqbk0","pricing_plan_id":"cebpf4jnsgd1na2vs0mg"},{"bike_id":"b53547b0-2cfc-4f0c-b627-c907b74faf59","system_id":"levelo_inurba_marseille","lat":43.30085,"lon":5.390856,"is_reserved":false,"is_disabled":false,"rental_uris":{"android":"levelo://app?vid=b53547b0-2cfc-4f0c-b627-c907b74faf59","ios":"levelo://app?vid=b53547b0-2cfc-4f0c-b627-c907b74faf59"},"vehicle_type_id":"4","last_reported":1716840462,"current_range_meters":9600,"station_id":"ce4bh192rcd13ifvqdb0","pricing_plan_id":"cebpf4jnsgd1na2vs0mg"},{"bike_id":"1ff78635-ffd1-45a8-8b5f-ec7e6fe9e317","system_id":"levelo_inurba_marseille","lat":43.303002,"lon":5.392142,"is_reserved":false,"is_disabled":false,"rental_uris":{"android":"levelo://app?vid=1ff78635-ffd1-45a8-8b5f-ec7e6fe9e317","ios":"levelo://app?vid=1ff78635-ffd1-45a8-8b5f-ec7e6fe9e317"},"vehicle_type_id":"4","last_reported":1716840462,"current_range_meters":3200,"station_id":"ce4bgkh2rcd13ifvqbk0","pricing_plan_id":"cebpf4jnsgd1na2vs0mg"},{"bike_id":"1037b4b9-d2c3-40a8-b491-de3fba0b1da1","system_id":"levelo_inurba_marseille","lat":43.302992,"lon":5.392136,"is_reserved":false,"is_disabled":false,"rental_uris":{"android":"levelo://app?vid=1037b4b9-d2c3-40a8-b491-de3fba0b1da1","ios":"levelo://app?vid=1037b4b9-d2c3-40a8-b491-de3fba0b1da1"},"vehicle_type_id":"4","last_reported":1716840462,"current_range_meters":26400,"station_id":"ce4bgkh2rcd13ifvqbk0","pricing_plan_id":"cebpf4jnsgd1na2vs0mg"},{"bike_id":"98277ca7-4b3c-4de2-835a-3b1e085dbfdb","system_id":"levelo_inurba_marseille","lat":43.302992,"lon":5.392136,"is_reserved":false,"is_disabled":false,"rental_uris":{"android":"levelo://app?vid=98277ca7-4b3c-4de2-835a-3b1e085dbfdb","ios":"levelo://app?vid=98277ca7-4b3c-4de2-835a-3b1e085dbfdb"},"vehicle_type_id":"4","last_reported":1716840462,"current_range_meters":19200,"station_id":"ce4bgkh2rcd13ifvqbk0","pricing_plan_id":"cebpf4jnsgd1na2vs0mg"},{"bike_id":"6a357dc3-4041-4b63-83ce-6626d5a775ca","system_id":"levelo_inurba_marseille","lat":43.302992,"lon":5.392136,"is_reserved":false,"is_disabled":false,"rental_uris":{"android":"levelo://app?vid=6a357dc3-4041-4b63-83ce-6626d5a775ca","ios":"levelo://app?vid=6a357dc3-4041-4b63-83ce-6626d5a775ca"},"vehicle_type_id":"4","last_reported":1716840462,"current_range_meters":18800,"station_id":"ce4bgkh2rcd13ifvqbk0","pricing_plan_id":"cebpf4jnsgd1na2vs0mg"},{"bike_id":"9637d166-10f4-40a2-8ca8-5fd1252edcb0","system_id":"levelo_inurba_marseille","lat":43.292311,"lon":5.360731,"is_reserved":false,"is_disabled":false,"rental_uris":{"android":"levelo://app?vid=9637d166-10f4-40a2-8ca8-5fd1252edcb0","ios":"levelo://app?vid=9637d166-10f4-40a2-8ca8-5fd1252edcb0"},"vehicle_type_id":"4","last_reported":1716840462,"current_range_meters":15600,"station_id":"ce4bhbh2rcd13ifvqeqg","pricing_plan_id":"cebpf4jnsgd1na2vs0mg"},{"bike_id":"26d5719a-0420-476c-8599-ac541b18f298","system_id":"levelo_inurba_marseille","lat":43.326605,"lon":5.409903,"is_reserved":false,"is_disabled":false,"rental_uris":{"android":"levelo://app?vid=26d5719a-0420-476c-8599-ac541b18f298","ios":"levelo://app?vid=26d5719a-0420-476c-8599-ac541b18f298"},"vehicle_type_id":"4","last_reported":1716840462,"current_range_meters":20400,"station_id":"ce4bhpp2rcd13ifvqhgg","pricing_plan_id":"cebpf4jnsgd1na2vs0mg"},{"bike_id":"9a2ce71b-70f1-406a-bd9b-9632803e00de","system_id":"levelo_inurba_marseille","lat":43.30085,"lon":5.390856,"is_reserved":false,"is_disabled":false,"rental_uris":{"android":"levelo://app?vid=9a2ce71b-70f1-406a-bd9b-9632803e00de","ios":"levelo://app?vid=9a2ce71b-70f1-406a-bd9b-9632803e00de"},"vehicle_type_id":"4","last_reported":1716840462,"current_range_meters":21200,"station_id":"ce4bh192rcd13ifvqdb0","pricing_plan_id":"cebpf4jnsgd1na2vs0mg"},{"bike_id":"8933dfbf-2fa4-4620-a4fc-cce89ee89ab1","system_id":"levelo_inurba_marseille","lat":43.302759,"lon":5.392318,"is_reserved":false,"is_disabled":false,"rental_uris":{"android":"levelo://app?vid=8933dfbf-2fa4-4620-a4fc-cce89ee89ab1","ios":"levelo://app?vid=8933dfbf-2fa4-4620-a4fc-cce89ee89ab1"},"vehicle_type_id":"4","last_reported":1716840462,"current_range_meters":29200,"station_id":"","pricing_plan_id":"cebpf4jnsgd1na2vs0mg"},{"bike_id":"7b47b621-94b5-4e1f-a598-3275219f6de8","system_id":"levelo_inurba_marseille","lat":43.30085,"lon":5.390856,"is_reserved":false,"is_disabled":false,"rental_uris":{"android":"levelo://app?vid=7b47b621-94b5-4e1f-a598-3275219f6de8","ios":"levelo://app?vid=7b47b621-94b5-4e1f-a598-3275219f6de8"},"vehicle_type_id":"4","last_reported":1716840462,"current_range_meters":22800,"station_id":"ce4bh192rcd13ifvqdb0","pricing_plan_id":"cebpf4jnsgd1na2vs0mg"},{"bike_id":"557177e3-2d0a-446b-a806-0eca5eeef616","system_id":"levelo_inurba_marseille","lat":43.298764,"lon":5.388973,"is_reserved":false,"is_disabled":false,"rental_uris":{"android":"levelo://app?vid=557177e3-2d0a-446b-a806-0eca5eeef616","ios":"levelo://app?vid=557177e3-2d0a-446b-a806-0eca5eeef616"},"vehicle_type_id":"4","last_reported":1716840462,"current_range_meters":23600,"station_id":"ce4bh392rcd13ifvqdl0","pricing_plan_id":"cebpf4jnsgd1na2vs0mg"},{"bike_id":"f4f09e3b-92b0-4eb5-aedc-de67f255cba7","system_id":"levelo_inurba_marseille","lat":43.298846,"lon":5.389077,"is_reserved":false,"is_disabled":false,"rental_uris":{"android":"levelo://app?vid=f4f09e3b-92b0-4eb5-aedc-de67f255cba7","ios":"levelo://app?vid=f4f09e3b-92b0-4eb5-aedc-de67f255cba7"},"vehicle_type_id":"4","last_reported":1716840462,"current_range_meters":0,"station_id":"ce4bh392rcd13ifvqdl0","pricing_plan_id":"cebpf4jnsgd1na2vs0mg"},{"bike_id":"56699478-3e32-4640-bb68-6f830b9f8d8f","system_id":"levelo_inurba_marseille","lat":43.291671,"lon":5.371575,"is_reserved":false,"is_disabled":false,"rental_uris":{"android":"levelo://app?vid=56699478-3e32-4640-bb68-6f830b9f8d8f","ios":"levelo://app?vid=56699478-3e32-4640-bb68-6f830b9f8d8f"},"vehicle_type_id":"4","last_reported":1716840462,"current_range_meters":10000,"station_id":"ce4bha92rcd13ifvqeh0","pricing_plan_id":"cebpf4jnsgd1na2vs0mg"},{"bike_id":"e147df97-2e7d-410c-abf9-1dfea0f2db01","system_id":"levelo_inurba_marseille","lat":43.290779,"lon":5.371482,"is_reserved":false,"is_disabled":false,"rental_uris":{"android":"levelo://app?vid=e147df97-2e7d-410c-abf9-1dfea0f2db01","ios":"levelo://app?vid=e147df97-2e7d-410c-abf9-1dfea0f2db01"},"vehicle_type_id":"4","last_reported":1716840462,"current_range_meters":22400,"station_id":"ce4bh5p2rcd13ifvqe4g","pricing_plan_id":"cebpf4jnsgd1na2vs0mg"},{"bike_id":"4e3a59c6-123c-4de0-aeca-41a2b78d7c4e","system_id":"levelo_inurba_marseille","lat":43.291671,"lon":5.371575,"is_reserved":false,"is_disabled":false,"rental_uris":{"android":"levelo://app?vid=4e3a59c6-123c-4de0-aeca-41a2b78d7c4e","ios":"levelo://app?vid=4e3a59c6-123c-4de0-aeca-41a2b78d7c4e"},"vehicle_type_id":"4","last_reported":1716840462,"current_range_meters":7200,"station_id":"ce4bha92rcd13ifvqeh0","pricing_plan_id":"cebpf4jnsgd1na2vs0mg"},{"bike_id":"bfe79d4c-519e-45d4-b7f5-e942dcfeb486","system_id":"levelo_inurba_marseille","lat":43.298764,"lon":5.388973,"is_reserved":false,"is_disabled":false,"rental_uris":{"android":"levelo://app?vid=bfe79d4c-519e-45d4-b7f5-e942dcfeb486","ios":"levelo://app?vid=bfe79d4c-519e-45d4-b7f5-e942dcfeb486"},"vehicle_type_id":"4","last_reported":1716840462,"current_range_meters":10800,"station_id":"ce4bh392rcd13ifvqdl0","pricing_plan_id":"cebpf4jnsgd1na2vs0mg"},{"bike_id":"a80b519d-52ec-44f2-b8f8-89404f0528ad","system_id":"levelo_inurba_marseille","lat":43.309047,"lon":5.396551,"is_reserved":false,"is_disabled":false,"rental_uris":{"android":"levelo://app?vid=a80b519d-52ec-44f2-b8f8-89404f0528ad","ios":"levelo://app?vid=a80b519d-52ec-44f2-b8f8-89404f0528ad"},"vehicle_type_id":"4","last_reported":1716840462,"current_range_meters":4400,"station_id":"ce4bh012rcd13ifvqcv0","pricing_plan_id":"cebpf4jnsgd1na2vs0mg"},{"bike_id":"3db8401e-a3f5-4f2f-8f0e-11c462afd4cb","system_id":"levelo_inurba_marseille","lat":43.309038,"lon":5.396546,"is_reserved":false,"is_disabled":false,"rental_uris":{"android":"levelo://app?vid=3db8401e-a3f5-4f2f-8f0e-11c462afd4cb","ios":"levelo://app?vid=3db8401e-a3f5-4f2f-8f0e-11c462afd4cb"},"vehicle_type_id":"4","last_reported":1716840462,"current_range_meters":12800,"station_id":"ce4bh012rcd13ifvqcv0","pricing_plan_id":"cebpf4jnsgd1na2vs0mg"},{"bike_id":"bafc623d-166d-4962-b2e4-ecf9fe5d9747","system_id":"levelo_inurba_marseille","lat":43.309038,"lon":5.396546,"is_reserved":false,"is_disabled":false,"rental_uris":{"android":"levelo://app?vid=bafc623d-166d-4962-b2e4-ecf9fe5d9747","ios":"levelo://app?vid=bafc623d-166d-4962-b2e4-ecf9fe5d9747"},"vehicle_type_id":"4","last_reported":1716840462,"current_range_meters":14800,"station_id":"ce4bh012rcd13ifvqcv0","pricing_plan_id":"cebpf4jnsgd1na2vs0mg"},{"bike_id":"b7f26d8f-c19c-40eb-802e-e45996593c41","system_id":"levelo_inurba_marseille","lat":43.309038,"lon":5.396546,"is_reserved":false,"is_disabled":false,"rental_uris":{"android":"levelo://app?vid=b7f26d8f-c19c-40eb-802e-e45996593c41","ios":"levelo://app?vid=b7f26d8f-c19c-40eb-802e-e45996593c41"},"vehicle_type_id":"4","last_reported":1716840462,"current_range_meters":31600,"station_id":"ce4bh012rcd13ifvqcv0","pricing_plan_id":"cebpf4jnsgd1na2vs0mg"},{"bike_id":"008743da-9c6c-4e2a-a951-ef72e62b2581","system_id":"levelo_inurba_marseille","lat":43.309047,"lon":5.396551,"is_reserved":false,"is_disabled":false,"rental_uris":{"android":"levelo://app?vid=008743da-9c6c-4e2a-a951-ef72e62b2581","ios":"levelo://app?vid=008743da-9c6c-4e2a-a951-ef72e62b2581"},"vehicle_type_id":"4","last_reported":1716840462,"current_range_meters":29200,"station_id":"ce4bh012rcd13ifvqcv0","pricing_plan_id":"cebpf4jnsgd1na2vs0mg"},{"bike_id":"a36442d9-0513-4b98-834b-72e037ca8ee9","system_id":"levelo_inurba_marseille","lat":43.291994,"lon":5.357886,"is_reserved":false,"is_disabled":false,"rental_uris":{"android":"levelo://app?vid=a36442d9-0513-4b98-834b-72e037ca8ee9","ios":"levelo://app?vid=a36442d9-0513-4b98-834b-72e037ca8ee9"},"vehicle_type_id":"4","last_reported":1716840462,"current_range_meters":400,"station_id":"ce4bhb12rcd13ifvqel0","pricing_plan_id":"cebpf4jnsgd1na2vs0mg"},{"bike_id":"2ee66279-bf33-4b8e-b59b-7c848f10dcbf","system_id":"levelo_inurba_marseille","lat":43.313291,"lon":5.396838,"is_reserved":false,"is_disabled":false,"rental_uris":{"android":"levelo://app?vid=2ee66279-bf33-4b8e-b59b-7c848f10dcbf","ios":"levelo://app?vid=2ee66279-bf33-4b8e-b59b-7c848f10dcbf"},"vehicle_type_id":"4","last_reported":1716840462,"current_range_meters":27200,"station_id":"ce4bgvp2rcd13ifvqcu0","pricing_plan_id":"cebpf4jnsgd1na2vs0mg"},{"bike_id":"dc8b753e-edd8-43cd-bcbf-286a80ec6c77","system_id":"levelo_inurba_marseille","lat":43.292005,"lon":5.357875,"is_reserved":false,"is_disabled":false,"rental_uris":{"android":"levelo://app?vid=dc8b753e-edd8-43cd-bcbf-286a80ec6c77","ios":"levelo://app?vid=dc8b753e-edd8-43cd-bcbf-286a80ec6c77"},"vehicle_type_id":"4","last_reported":1716840462,"current_range_meters":5600,"station_id":"ce4bhb12rcd13ifvqel0","pricing_plan_id":"cebpf4jnsgd1na2vs0mg"},{"bike_id":"73104fe8-c7f8-4a2a-a655-e8fe88bae91f","system_id":"levelo_inurba_marseille","lat":43.309038,"lon":5.396546,"is_reserved":false,"is_disabled":false,"rental_uris":{"android":"levelo://app?vid=73104fe8-c7f8-4a2a-a655-e8fe88bae91f","ios":"levelo://app?vid=73104fe8-c7f8-4a2a-a655-e8fe88bae91f"},"vehicle_type_id":"4","last_reported":1716840462,"current_range_meters":6000,"station_id":"ce4bh012rcd13ifvqcv0","pricing_plan_id":"cebpf4jnsgd1na2vs0mg"},{"bike_id":"798d43ec-3f4e-4e66-bd73-1e112c465b95","system_id":"levelo_inurba_marseille","lat":43.309047,"lon":5.396551,"is_reserved":false,"is_disabled":false,"rental_uris":{"android":"levelo://app?vid=798d43ec-3f4e-4e66-bd73-1e112c465b95","ios":"levelo://app?vid=798d43ec-3f4e-4e66-bd73-1e112c465b95"},"vehicle_type_id":"4","last_reported":1716840462,"current_range_meters":24800,"station_id":"ce4bh012rcd13ifvqcv0","pricing_plan_id":"cebpf4jnsgd1na2vs0mg"},{"bike_id":"7af18a05-db15-426e-9639-f4cbbb8d5d24","system_id":"levelo_inurba_marseille","lat":43.313291,"lon":5.396838,"is_reserved":false,"is_disabled":false,"rental_uris":{"android":"levelo://app?vid=7af18a05-db15-426e-9639-f4cbbb8d5d24","ios":"levelo://app?vid=7af18a05-db15-426e-9639-f4cbbb8d5d24"},"vehicle_type_id":"4","last_reported":1716840462,"current_range_meters":9600,"station_id":"ce4bgvp2rcd13ifvqcu0","pricing_plan_id":"cebpf4jnsgd1na2vs0mg"},{"bike_id":"16c4650b-4724-4ed3-bd06-32315c4ad29c","system_id":"levelo_inurba_marseille","lat":43.309047,"lon":5.396551,"is_reserved":false,"is_disabled":false,"rental_uris":{"android":"levelo://app?vid=16c4650b-4724-4ed3-bd06-32315c4ad29c","ios":"levelo://app?vid=16c4650b-4724-4ed3-bd06-32315c4ad29c"},"vehicle_type_id":"4","last_reported":1716840462,"current_range_meters":3600,"station_id":"ce4bh012rcd13ifvqcv0","pricing_plan_id":"cebpf4jnsgd1na2vs0mg"},{"bike_id":"481d9008-b3af-4b0b-9364-3b9647f65e21","system_id":"levelo_inurba_marseille","lat":43.309038,"lon":5.396546,"is_reserved":false,"is_disabled":false,"rental_uris":{"android":"levelo://app?vid=481d9008-b3af-4b0b-9364-3b9647f65e21","ios":"levelo://app?vid=481d9008-b3af-4b0b-9364-3b9647f65e21"},"vehicle_type_id":"4","last_reported":1716840462,"current_range_meters":0,"station_id":"ce4bh012rcd13ifvqcv0","pricing_plan_id":"cebpf4jnsgd1na2vs0mg"},{"bike_id":"fe8b160d-3cfe-42ea-a01f-7fbaf00e4768","system_id":"levelo_inurba_marseille","lat":43.313291,"lon":5.396838,"is_reserved":false,"is_disabled":false,"rental_uris":{"android":"levelo://app?vid=fe8b160d-3cfe-42ea-a01f-7fbaf00e4768","ios":"levelo://app?vid=fe8b160d-3cfe-42ea-a01f-7fbaf00e4768"},"vehicle_type_id":"4","last_reported":1716840462,"current_range_meters":24000,"station_id":"ce4bgvp2rcd13ifvqcu0","pricing_plan_id":"cebpf4jnsgd1na2vs0mg"},