{"last_updated":1687086291,"ttl":30,"version":"2.2","data":{"bikes":[{"bike_id":"2f92942c-7aad-499f-9fe2-df6dde5b4493","system_id":"levelo_inurba_marseille","lat":43.312239,"lon":5.368562,"is_reserved":false,"is_disabled":false,"rental_uris":{"android":"levelo://app?vid=2f92942c-7aad-499f-9fe2-df6dde5b4493","ios":"levelo://app?vid=2f92942c-7aad-499f-9fe2-df6dde5b4493"},"vehicle_type_id":"4","last_reported":1687086292,"current_range_meters":12400,"station_id":"ce4bgl92rcd13ifvqbq0","pricing_plan_id":"free"},{"bike_id":"833cc643-7a0b-43b4-8611-0dc0a866c5ca","system_id":"levelo_inurba_marseille","lat":43.312239,"lon":5.368562,"is_reserved":false,"is_disabled":false,"rental_uris":{"android":"levelo://app?vid=833cc643-7a0b-43b4-8611-0dc0a866c5ca","ios":"levelo://app?vid=833cc643-7a0b-43b4-8611-0dc0a866c5ca"},"vehicle_type_id":"4","last_reported":1687086292,"current_range_meters":32000,"station_id":"ce4bgl92rcd13ifvqbq0","pricing_plan_id":"free"},{"bike_id":"7bd2c147-0c26-414f-9b11-ac3217651b33","system_id":"levelo_inurba_marseille","lat":43.312239,"lon":5.368562,"is_reserved":false,"is_disabled":false,"rental_uris":{"android":"levelo://app?vid=7bd2c147-0c26-414f-9b11-ac3217651b33","ios":"levelo://app?vid=7bd2c147-0c26-414f-9b11-ac3217651b33"},"vehicle_type_id":"4","last_reported":1687086292,"current_range_meters":18800,"station_id":"ce4bgl92rcd13ifvqbq0","pricing_plan_id":"free"},{"bike_id":"3de3f67c-ff60-4e62-91ec-9acb93562be9","system_id":"levelo_inurba_marseille","lat":43.312239,"lon":5.368562,"is_reserved":false,"is_disabled":false,"rental_uris":{"android":"levelo://app?vid=3de3f67c-ff60-4e62-91ec-9acb93562be9","ios":"levelo://app?vid=3de3f67c-ff60-4e62-91ec-9acb93562be9"},"vehicle_type_id":"4","last_reported":1687086292,"current_range_meters":18000,"station_id":"ce4bgl92rcd13ifvqbq0","pricing_plan_id":"free"},{"bike_id":"15155cfc-ab8d-4327-ab1f-413cc1c9c57f","system_id":"levelo_inurba_marseille","lat":43.309076,"lon":5.368465,"is_reserved":false,"is_disabled":false,"rental_uris":{"android":"levelo://app?vid=15155cfc-ab8d-4327-ab1f-413cc1c9c57f","ios":"levelo://app?vid=15155cfc-ab8d-4327-ab1f-413cc1c9c57f"},"vehicle_type_id":"4","last_reported":1687086292,"current_range_meters":28000,"station_id":"ce4bgn92rcd13ifvqbvg","pricing_plan_id":"free"},{"bike_id":"363eaf7a-a1c5-4742-8afe-dc153957150c","system_id":"levelo_inurba_marseille","lat":43.309076,"lon":5.368465,"is_reserved":false,"is_disabled":false,"rental_uris":{"android":"levelo://app?vid=363eaf7a-a1c5-4742-8afe-dc153957150c","ios":"levelo://app?vid=363eaf7a-a1c5-4742-8afe-dc153957150c"},"vehicle_type_id":"4","last_reported":1687086292,"current_range_meters":30400,"station_id":"ce4bgn92rcd13ifvqbvg","pricing_plan_id":"free"},{"bike_id":"cfd6b286-7abf-4b0a-a5ee-6cd934ed8938","system_id":"levelo_inurba_marseille","lat":43.309076,"lon":5.368465,"is_reserved":false,"is_disabled":false,"rental_uris":{"android":"levelo://app?vid=cfd6b286-7abf-4b0a-a5ee-6cd934ed8938","ios":"levelo://app?vid=cfd6b286-7abf-4b0a-a5ee-6cd934ed8938"},"vehicle_type_id":"4","last_reported":1687086292,"current_range_meters":30800,"station_id":"ce4bgn92rcd13ifvqbvg","pricing_plan_id":"free"},{"bike_id":"bc5dfdcd-9f3f-442f-8ff0-f90c18be3eef","system_id":"levelo_inurba_marseille","lat":43.30808,"lon":5.37046,"is_reserved":false,"is_disabled":false,"rental_uris":{"android":"levelo://app?vid=bc5dfdcd-9f3f-442f-8ff0-f90c18be3eef","ios":"levelo://app?vid=bc5dfdcd-9f3f-442f-8ff0-f90c18be3eef"},"vehicle_type_id":"4","last_reported":1687086292,"current_range_meters":0,"station_id":"","pricing_plan_id":"free"},{"bike_id":"9c746439-937e-436d-8c66-cb90c42aae7f","system_id":"levelo_inurba_marseille","lat":43.31305,"lon":5.37597,"is_reserved":false,"is_disabled":false,"rental_uris":{"android":"levelo://app?vid=9c746439-937e-436d-8c66-cb90c42aae7f","ios":"levelo://app?vid=9c746439-937e-436d-8c66-cb90c42aae7f"},"vehicle_type_id":"4","last_reported":1687086292,"current_range_meters":25200,"station_id":"","pricing_plan_id":"free"},{"bike_id":"82e09261-2743-4be7-9d23-da2de394bba5","system_id":"levelo_inurba_marseille","lat":43.305706,"lon":5.365654,"is_reserved":false,"is_disabled":false,"rental_uris":{"android":"levelo://app?vid=82e09261-2743-4be7-9d23-da2de394bba5","ios":"levelo://app?vid=82e09261-2743-4be7-9d23-da2de394bba5"},"vehicle_type_id":"4","last_reported":1687086292,"current_range_meters":9200,"station_id":"ce4bgs12rcd13ifvqcag","pricing_plan_id":"free"},{"bike_id":"9e8de6b5-e3d0-4a1c-8ae8-8344254ad2f7","system_id":"levelo_inurba_marseille","lat":43.305989,"lon":5.37225,"is_reserved":false,"is_disabled":false,"rental_uris":{"android":"levelo://app?vid=9e8de6b5-e3d0-4a1c-8ae8-8344254ad2f7","ios":"levelo://app?vid=9e8de6b5-e3d0-4a1c-8ae8-8344254ad2f7"},"vehicle_type_id":"4","last_reported":1687086292,"current_range_meters":22400,"station_id":"ce4bgqh2rcd13ifvqc4g","pricing_plan_id":"free"},{"bike_id":"2424216c-0462-4ad0-b127-d0366c91b61c","system_id":"levelo_inurba_marseille","lat":43.31698,"lon":5.3771,"is_reserved":false,"is_disabled":false,"rental_uris":{"android":"levelo://app?vid=2424216c-0462-4ad0-b127-d0366c91b61c","ios":"levelo://app?vid=2424216c-0462-4ad0-b127-d0366c91b61c"},"vehicle_type_id":"4","last_reported":1687086292,"current_range_meters":28800,"station_id":"ce4bgth2rcd13ifvqch0","pricing_plan_id":"free"},{"bike_id":"03c63a22-5af4-4731-b58c-68faf2f7a292","system_id":"levelo_inurba_marseille","lat":43.31856,"lon":5.37568,"is_reserved":false,"is_disabled":false,"rental_uris":{"android":"levelo://app?vid=03c63a22-5af4-4731-b58c-68faf2f7a292","ios":"levelo://app?vid=03c63a22-5af4-4731-b58c-68faf2f7a292"},"vehicle_type_id":"4","last_reported":1687086292,"current_range_meters":29200,"station_id":"","pricing_plan_id":"free"},{"bike_id":"142ea6ff-5a56-4e78-a0fb-fc43c2431b5c","system_id":"levelo_inurba_marseille","lat":43.31718,"lon":5.37736,"is_reserved":false,"is_disabled":false,"rental_uris":{"android":"levelo://app?vid=142ea6ff-5a56-4e78-a0fb-fc43c2431b5c","ios":"levelo://app?vid=142ea6ff-5a56-4e78-a0fb-fc43c2431b5c"},"vehicle_type_id":"4","last_reported":1687086292,"current_range_meters":28400,"station_id":"ce4bgth2rcd13ifvqch0","pricing_plan_id":"free"},{"bike_id":"3bbb518e-9a83-40f5-84e5-3a5e60f17226","system_id":"levelo_inurba_marseille","lat":43.317075,"lon":5.377367,"is_reserved":false,"is_disabled":false,"rental_uris":{"android":"levelo://app?vid=3bbb518e-9a83-40f5-84e5-3a5e60f17226","ios":"levelo://app?vid=3bbb518e-9a83-40f5-84e5-3a5e60f17226"},"vehicle_type_id":"4","last_reported":1687086292,"current_range_meters":25600,"station_id":"ce4bgth2rcd13ifvqch0","pricing_plan_id":"free"},{"bike_id":"54105187-4d93-4d9f-90b5-aa0b4942a62d","system_id":"levelo_inurba_marseille","lat":43.315289,"lon":5.380349,"is_reserved":false,"is_disabled":false,"rental_uris":{"android":"levelo://app?vid=54105187-4d93-4d9f-90b5-aa0b4942a62d","ios":"levelo://app?vid=54105187-4d93-4d9f-90b5-aa0b4942a62d"},"vehicle_type_id":"4","last_reported":1687086292,"current_range_meters":30000,"station_id":"ce4bhsp2rcd13ifvqi50","pricing_plan_id":"free"},{"bike_id":"8d51db3c-ddf0-4868-a42f-0868b9c8ed86","system_id":"levelo_inurba_marseille","lat":43.31535,"lon":5.38028,"is_reserved":false,"is_disabled":false,"rental_uris":{"android":"levelo://app?vid=8d51db3c-ddf0-4868-a42f-0868b9c8ed86","ios":"levelo://app?vid=8d51db3c-ddf0-4868-a42f-0868b9c8ed86"},"vehicle_type_id":"4","last_reported":1687086292,"current_range_meters":30400,"station_id":"ce4bhsp2rcd13ifvqi50","pricing_plan_id":"free"},{"bike_id":"cada2054-cd0b-4ffd-b35d-70e3683fc5a7","system_id":"levelo_inurba_marseille","lat":43.315293,"lon":5.380349,"is_reserved":false,"is_disabled":false,"rental_uris":{"android":"levelo://app?vid=cada2054-cd0b-4ffd-b35d-70e3683fc5a7","ios":"levelo://app?vid=cada2054-cd0b-4ffd-b35d-70e3683fc5a7"},"vehicle_type_id":"4","last_reported":1687086292,"current_range_meters":29600,"station_id":"ce4bhsp2rcd13ifvqi50","pricing_plan_id":"free"},{"bike_id":"1c10f379-4b68-45fd-9b9b-70d16afa620d","system_id":"levelo_inurba_marseille","lat":43.301939,"lon":5.366286,"is_reserved":false,"is_disabled":false,"rental_uris":{"android":"levelo://app?vid=1c10f379-4b68-45fd-9b9b-70d16afa620d","ios":"levelo://app?vid=1c10f379-4b68-45fd-9b9b-70d16afa620d"},"vehicle_type_id":"4","last_reported":1687086292,"current_range_meters":22400,"station_id":"ce4bgrh2rcd13ifvqc8g","pricing_plan_id":"free"},{"bike_id":"ae33307b-fcd5-479b-9ae1-9002ed226c6e","system_id":"levelo_inurba_marseille","lat":43.30803,"lon":5.38137,"is_reserved":false,"is_disabled":false,"rental_uris":{"android":"levelo://app?vid=ae33307b-fcd5-479b-9ae1-9002ed226c6e","ios":"levelo://app?vid=ae33307b-fcd5-479b-9ae1-9002ed226c6e"},"vehicle_type_id":"4","last_reported":1687086292,"current_range_meters":30000,"station_id":"ce4bgt12rcd13ifvqce0","pricing_plan_id":"free"},{"bike_id":"481753ad-efe5-439f-bd55-7bd7d7197187","system_id":"levelo_inurba_marseille","lat":43.304606,"lon":5.379026,"is_reserved":false,"is_disabled":false,"rental_uris":{"android":"levelo://app?vid=481753ad-efe5-439f-bd55-7bd7d7197187","ios":"levelo://app?vid=481753ad-efe5-439f-bd55-7bd7d7197187"},"vehicle_type_id":"4","last_reported":1687086292,"current_range_meters":28800,"station_id":"ce4bgup2rcd13ifvqcn0","pricing_plan_id":"free"},{"bike_id":"22288afe-4860-45b2-8ba8-04e6be494da3","system_id":"levelo_inurba_marseille","lat":43.304606,"lon":5.379026,"is_reserved":false,"is_disabled":false,"rental_uris":{"android":"levelo://app?vid=22288afe-4860-45b2-8ba8-04e6be494da3","ios":"levelo://app?vid=22288afe-4860-45b2-8ba8-04e6be494da3"},"vehicle_type_id":"4","last_reported":1687086292,"current_range_meters":6400,"station_id":"ce4bgup2rcd13ifvqcn0","pricing_plan_id":"free"},{"bike_id":"0737ce77-e856-4156-bc8d-c0d8b988e131","system_id":"levelo_inurba_marseille","lat":43.304606,"lon":5.379026,"is_reserved":false,"is_disabled":false,"rental_uris":{"android":"levelo://app?vid=0737ce77-e856-4156-bc8d-c0d8b988e131","ios":"levelo://app?vid=0737ce77-e856-4156-bc8d-c0d8b988e131"},"vehicle_type_id":"4","last_reported":1687086292,"current_range_meters":27200,"station_id":"ce4bgup2rcd13ifvqcn0","pricing_plan_id":"free"},{"bike_id":"43fc693e-f2a9-4aec-8fd9-d094bb02cb70","system_id":"levelo_inurba_marseille","lat":43.304606,"lon":5.379026,"is_reserved":false,"is_disabled":false,"rental_uris":{"android":"levelo://app?vid=43fc693e-f2a9-4aec-8fd9-d094bb02cb70","ios":"levelo://app?vid=43fc693e-f2a9-4aec-8fd9-d094bb02cb70"},"vehicle_type_id":"4","last_reported":1687086292,"current_range_meters":17600,"station_id":"ce4bgup2rcd13ifvqcn0","pricing_plan_id":"free"},{"bike_id":"11819692-b441-44dd-a15e-cdf414e88482","system_id":"levelo_inurba_marseille","lat":43.3044,"lon":5.37928,"is_reserved":false,"is_disabled":false,"rental_uris":{"android":"levelo://app?vid=11819692-b441-44dd-a15e-cdf414e88482","ios":"levelo://app?vid=11819692-b441-44dd-a15e-cdf414e88482"},"vehicle_type_id":"4","last_reported":1687086292,"current_range_meters":0,"station_id":"","pricing_plan_id":"free"},{"bike_id":"09cd0a2f-5397-440d-bdb7-da28f031f592","system_id":"levelo_inurba_marseille","lat":43.30276,"lon":5.37694,"is_reserved":false,"is_disabled":false,"rental_uris":{"android":"levelo://app?vid=09cd0a2f-5397-440d-bdb7-da28f031f592","ios":"levelo://app?vid=09cd0a2f-5397-440d-bdb7-da28f031f592"},"vehicle_type_id":"4","last_reported":1687086292,"current_range_meters":2800,"station_id":"ce4bguh2rcd13ifvqcj0","pricing_plan_id":"free"},{"bike_id":"6e7d472e-f6f0-49e0-9abf-e02754fc5df6","system_id":"levelo_inurba_marseille","lat":43.302784,"lon":5.377158,"is_reserved":false,"is_disabled":false,"rental_uris":{"android":"levelo://app?vid=6e7d472e-f6f0-49e0-9abf-e02754fc5df6","ios":"levelo://app?vid=6e7d472e-f6f0-49e0-9abf-e02754fc5df6"},"vehicle_type_id":"4","last_reported":1687086292,"current_range_meters":17200,"station_id":"ce4bguh2rcd13ifvqcj0","pricing_plan_id":"free"},{"bike_id":"485bc12e-b97d-460d-a761-3f26cdf7abb4","system_id":"levelo_inurba_marseille","lat":43.319935,"lon":5.381699,"is_reserved":false,"is_disabled":false,"rental_uris":{"android":"levelo://app?vid=485bc12e-b97d-460d-a761-3f26cdf7abb4","ios":"levelo://app?vid=485bc12e-b97d-460d-a761-3f26cdf7abb4"},"vehicle_type_id":"4","last_reported":1687086292,"current_range_meters":27200,"station_id":"ce4bhr12rcd13ifvqhpg","pricing_plan_id":"free"},{"bike_id":"4c755050-5aed-45e0-9296-927fc41158ba","system_id":"levelo_inurba_marseille","lat":43.319935,"lon":5.381699,"is_reserved":false,"is_disabled":false,"rental_uris":{"android":"levelo://app?vid=4c755050-5aed-45e0-9296-927fc41158ba","ios":"levelo://app?vid=4c755050-5aed-45e0-9296-927fc41158ba"},"vehicle_type_id":"4","last_reported":1687086292,"current_range_meters":26000,"station_id":"ce4bhr12rcd13ifvqhpg","pricing_plan_id":"free"},{"bike_id":"3c3aa989-db63-4017-86a4-556c2b8f3d59","system_id":"levelo_inurba_marseille","lat":43.319935,"lon":5.381699,"is_reserved":false,"is_disabled":false,"rental_uris":{"android":"levelo://app?vid=3c3aa989-db63-4017-86a4-556c2b8f3d59","ios":"levelo://app?vid=3c3aa989-db63-4017-86a4-556c2b8f3d59"},"vehicle_type_id":"4","last_reported":1687086292,"current_range_meters":18800,"station_id":"ce4bhr12rcd13ifvqhpg","pricing_plan_id":"free"},{"bike_id":"40e7df5d-04d5-43a9-926f-863219d91841","system_id":"levelo_inurba_marseille","lat":43.319935,"lon":5.381699,"is_reserved":false,"is_disabled":false,"rental_uris":{"android":"levelo://app?vid=40e7df5d-04d5-43a9-926f-863219d91841","ios":"levelo://app?vid=40e7df5d-04d5-43a9-926f-863219d91841"},"vehicle_type_id":"4","last_reported":1687086292,"current_range_meters":28800,"station_id":"ce4bhr12rcd13ifvqhpg","pricing_plan_id":"free"},{"bike_id":"9d997f51-8b4f-4066-8e74-38cb555e670c","system_id":"levelo_inurba_marseille","lat":43.319935,"lon":5.381699,"is_reserved":false,"is_disabled":false,"rental_uris":{"android":"levelo://app?vid=9d997f51-8b4f-4066-8e74-38cb555e670c","ios":"levelo://app?vid=9d997f51-8b4f-4066-8e74-38cb555e670c"},"vehicle_type_id":"4","last_reported":1687086292,"current_range_meters":12800,"station_id":"ce4bhr12rcd13ifvqhpg","pricing_plan_id":"free"},{"bike_id":"1d47b2e2-b6b2-467e-89b2-30c2b3dd988b","system_id":"levelo_inurba_marseille","lat":43.31376,"lon":5.38523,"is_reserved":false,"is_disabled":false,"rental_uris":{"android":"levelo://app?vid=1d47b2e2-b6b2-467e-89b2-30c2b3dd988b","ios":"levelo://app?vid=1d47b2e2-b6b2-467e-89b2-30c2b3dd988b"},"vehicle_type_id":"4","last_reported":1687086292,"current_range_meters":12000,"station_id":"","pricing_plan_id":"free"},{"bike_id":"330412da-b9eb-49fa-9ba0-9288ee9ddd31","system_id":"levelo_inurba_marseille","lat":43.30043,"lon":5.37511,"is_reserved":false,"is_disabled":false,"rental_uris":{"android":"levelo://app?vid=330412da-b9eb-49fa-9ba0-9288ee9ddd31","ios":"levelo://app?vid=330412da-b9eb-49fa-9ba0-9288ee9ddd31"},"vehicle_type_id":"4","last_reported":1687086292,"current_range_meters":15200,"station_id":"","pricing_plan_id":"free"},{"bike_id":"f85b3b8d-0cdd-4254-9d33-ad5471b0c0ea","system_id":"levelo_inurba_marseille","lat":43.298433,"lon":5.362774,"is_reserved":false,"is_disabled":false,"rental_uris":{"android":"levelo://app?vid=f85b3b8d-0cdd-4254-9d33-ad5471b0c0ea","ios":"levelo://app?vid=f85b3b8d-0cdd-4254-9d33-ad5471b0c0ea"},"vehicle_type_id":"4","last_reported":1687086292,"current_range_meters":30400,"station_id":"ce4bgpp2rcd13ifvqc3g","pricing_plan_id":"free"},{"bike_id":"686a213e-42f5-458f-a677-d9aa05f7eb68","system_id":"levelo_inurba_marseille","lat":43.298433,"lon":5.362774,"is_reserved":false,"is_disabled":false,"rental_uris":{"android":"levelo://app?vid=686a213e-42f5-458f-a677-d9aa05f7eb68","ios":"levelo://app?vid=686a213e-42f5-458f-a677-d9aa05f7eb68"},"vehicle_type_id":"4","last_reported":1687086292,"current_range_meters":29200,"station_id":"ce4bgpp2rcd13ifvqc3g","pricing_plan_id":"free"},{"bike_id":"8585fa7b-0f2f-412c-a5af-2eec4d6f7cd8","system_id":"levelo_inurba_marseille","lat":43.298433,"lon":5.362774,"is_reserved":false,"is_disabled":false,"rental_uris":{"android":"levelo://app?vid=8585fa7b-0f2f-412c-a5af-2eec4d6f7cd8","ios":"levelo://app?vid=8585fa7b-0f2f-412c-a5af-2eec4d6f7cd8"},"vehicle_type_id":"4","last_reported":1687086292,"current_range_meters":29600,"station_id":"ce4bgpp2rcd13ifvqc3g","pricing_plan_id":"free"},{"bike_id":"c83941df-b79d-4ad1-a472-39928fe37360","system_id":"levelo_inurba_marseille","lat":43.299243,"lon":5.374807,"is_reserved":false,"is_disabled":false,"rental_uris":{"android":"levelo://app?vid=c83941df-b79d-4ad1-a472-39928fe37360","ios":"levelo://app?vid=c83941df-b79d-4ad1-a472-39928fe37360"},"vehicle_type_id":"4","last_reported":1687086292,"current_range_meters":29200,"station_id":"ce4bgjh2rcd13ifvqbg0","pricing_plan_id":"free"},{"bike_id":"de146585-ce6e-4f78-88a4-eebf63acb6ef","system_id":"levelo_inurba_marseille","lat":43.299243,"lon":5.37481,"is_reserved":false,"is_disabled":false,"rental_uris":{"android":"levelo://app?vid=de146585-ce6e-4f78-88a4-eebf63acb6ef","ios":"levelo://app?vid=de146585-ce6e-4f78-88a4-eebf63acb6ef"},"vehicle_type_id":"4","last_reported":1687086292,"current_range_meters":6400,"station_id":"ce4bgjh2rcd13ifvqbg0","pricing_plan_id":"free"},{"bike_id":"e77d7ab0-1c57-4844-a9fc-2e2666c6ca94","system_id":"levelo_inurba_marseille","lat":43.29774,"lon":5.36954,"is_reserved":false,"is_disabled":false,"rental_uris":{"android":"levelo://app?vid=e77d7ab0-1c57-4844-a9fc-2e2666c6ca94","ios":"levelo://app?vid=e77d7ab0-1c57-4844-a9fc-2e2666c6ca94"},"vehicle_type_id":"4","last_reported":1687086292,"current_range_meters":30800,"station_id":"","pricing_plan_id":"free"},{"bike_id":"54e5abcc-61ed-4b37-9f52-1db1c19c42a5","system_id":"levelo_inurba_marseille","lat":43.297774,"lon":5.370875,"is_reserved":false,"is_disabled":false,"rental_uris":{"android":"levelo://app?vid=54e5abcc-61ed-4b37-9f52-1db1c19c42a5","ios":"levelo://app?vid=54e5abcc-61ed-4b37-9f52-1db1c19c42a5"},"vehicle_type_id":"4","last_reported":1687086292,"current_range_meters":9200,"station_id":"ce4bgop2rcd13ifvqc1g","pricing_plan_id":"free"},{"bike_id":"01003604-ca83-4a0f-a050-81143b6da389","system_id":"levelo_inurba_marseille","lat":43.328371,"lon":5.366909,"is_reserved":false,"is_disabled":false,"rental_uris":{"android":"levelo://app?vid=01003604-ca83-4a0f-a050-81143b6da389","ios":"levelo://app?vid=01003604-ca83-4a0f-a050-81143b6da389"},"vehicle_type_id":"4","last_reported":1687086292,"current_range_meters":31200,"station_id":"ce4bhs92rcd13ifvqi0g","pricing_plan_id":"free"},{"bike_id":"dba9e30e-a749-43fa-a75b-51b691339771","system_id":"levelo_inurba_marseille","lat":43.328371,"lon":5.366909,"is_reserved":false,"is_disabled":false,"rental_uris":{"android":"levelo://app?vid=dba9e30e-a749-43fa-a75b-51b691339771","ios":"levelo://app?vid=dba9e30e-a749-43fa-a75b-51b691339771"},"vehicle_type_id":"4","last_reported":1687086292,"current_range_meters":31200,"station_id":"ce4bhs92rcd13ifvqi0g","pricing_plan_id":"free"},{"bike_id":"3b343a5c-8423-476a-a7c8-83278a85a66d","system_id":"levelo_inurba_marseille","lat":43.328371,"lon":5.366909,"is_reserved":false,"is_disabled":false,"rental_uris":{"android":"levelo://app?vid=3b343a5c-8423-476a-a7c8-83278a85a66d","ios":"levelo://app?vid=3b343a5c-8423-476a-a7c8-83278a85a66d"},"vehicle_type_id":"4","last_reported":1687086292,"current_range_meters":30800,"station_id":"ce4bhs92rcd13ifvqi0g","pricing_plan_id":"free"},{"bike_id":"eb463cab-b54c-4ed2-a710-d6d777606789","system_id":"levelo_inurba_marseille","lat":43.328371,"lon":5.366909,"is_reserved":false,"is_disabled":false,"rental_uris":{"android":"levelo://app?vid=eb463cab-b54c-4ed2-a710-d6d777606789","ios":"levelo://app?vid=eb463cab-b54c-4ed2-a710-d6d777606789"},"vehicle_type_id":"4","last_reported":1687086292,"current_range_meters":18400,"station_id":"ce4bhs92rcd13ifvqi0g","pricing_plan_id":"free"},{"bike_id":"6d5ccf33-759a-4c7a-af82-9f67388b4177","system_id":"levelo_inurba_marseille","lat":43.328371,"lon":5.366909,"is_reserved":false,"is_disabled":false,"rental_uris":{"android":"levelo://app?vid=6d5ccf33-759a-4c7a-af82-9f67388b4177","ios":"levelo://app?vid=6d5ccf33-759a-4c7a-af82-9f67388b4177"},"vehicle_type_id":"4","last_reported":1687086292,"current_range_meters":30800,"station_id":"ce4bhs92rcd13ifvqi0g","pricing_plan_id":"free"},{"bike_id":"69bf5c29-7e5d-45c7-b1b2-514d42707ee7","system_id":"levelo_inurba_marseille","lat":43.328371,"lon":5.366909,"is_reserved":false,"is_disabled":false,"rental_uris":{"android":"levelo://app?vid=69bf5c29-7e5d-45c7-b1b2-514d42707ee7","ios":"levelo://app?vid=69bf5c29-7e5d-45c7-b1b2-514d42707ee7"},"vehicle_type_id":"4","last_reported":1687086292,"current_range_meters":31200,"station_id":"ce4bhs92rcd13ifvqi0g","pricing_plan_id":"free"},{"bike_id":"5a3d057e-bbd5-40c5-982e-f22c9ac8f3e3","system_id":"levelo_inurba_marseille","lat":43.328371,"lon":5.366909,"is_reserved":false,"is_disabled":false,"rental_uris":{"android":"levelo://app?vid=5a3d057e-bbd5-40c5-982e-f22c9ac8f3e3","ios":"levelo://app?vid=5a3d057e-bbd5-40c5-982e-f22c9ac8f3e3"},"vehicle_type_id":"4","last_reported":1687086292,"current_range_meters":31200,"station_id":"ce4bhs92rcd13ifvqi0g","pricing_plan_id":"free"},{"bike_id":"d4175595-0982-4085-a219-346e22f36d28","system_id":"levelo_inurba_marseille","lat":43.328371,"lon":5.366909,"is_reserved":false,"is_disabled":false,"rental_uris":{"android":"levelo://app?vid=d4175595-0982-4085-a219-346e22f36d28","ios":"levelo://app?vid=d4175595-0982-4085-a219-346e22f36d28"},"vehicle_type_id":"4","last_reported":1687086292,"current_range_meters":30800,"station_id":"ce4bhs92rcd13ifvqi0g","pricing_plan_id":"free"},{"bike_id":"731cce5d-c725-402d-b941-54910a08f036","system_id":"levelo_inurba_marseille","lat":43.328371,"lon":5.366909,"is_reserved":false,"is_disabled":false,"rental_uris":{"android":"levelo://app?vid=731cce5d-c725-402d-b941-54910a08f036","ios":"levelo://app?vid=731cce5d-c725-402d-b941-54910a08f036"},"vehicle_type_id":"4","last_reported":1687086292,"current_range_meters":30800,"station_id":"ce4bhs92rcd13ifvqi0g","pricing_plan_id":"free"},{"bike_id":"9e60ff88-fe04-4b70-9af4-05a83fe316c7","system_id":"levelo_inurba_marseille","lat":43.328371,"lon":5.366909,"is_reserved":false,"is_disabled":false,"rental_uris":{"android":"levelo://app?vid=9e60ff88-fe04-4b70-9af4-05a83fe316c7","ios":"levelo://app?vid=9e60ff88-fe04-4b70-9af4-05a83fe316c7"},"vehicle_type_id":"4","last_reported":1687086292,"current_range_meters":29600,"station_id":"ce4bhs92rcd13ifvqi0g","pricing_plan_id":"free"},{"bike_id":"7305d8d9-7d56-41c2-ae77-869303774f4d","system_id":"levelo_inurba_marseille","lat":43.328371,"lon":5.366909,"is_reserved":false,"is_disabled":false,"rental_uris":{"android":"levelo://app?vid=7305d8d9-7d56-41c2-ae77-869303774f4d","ios":"levelo://app?vid=7305d8d9-7d56-41c2-ae77-869303774f4d"},"vehicle_type_id":"4","last_reported":1687086292,"current_range_meters":15600,"station_id":"ce4bhs92rcd13ifvqi0g","pricing_plan_id":"free"},{"bike_id":"176f4894-d7fc-460e-aa5d-7c8c1e206dc3","system_id":"levelo_inurba_marseille","lat":43.297163,"lon":5.365866,"is_reserved":false,"is_disabled":false,"rental_uris":{"android":"levelo://app?vid=176f4894-d7fc-460e-aa5d-7c8c1e206dc3","ios":"levelo://app?vid=176f4894-d7fc-460e-aa5d-7c8c1e206dc3"},"vehicle_type_id":"4","last_reported":1687086292,"current_range_meters":11200,"station_id":"ce4bgn12rcd13ifvqbt0","pricing_plan_id":"free"},{"bike_id":"88d0330c-5bb0-4a19-9b65-d4683b42e015","system_id":"levelo_inurba_marseille","lat":43.29683,"lon":5.36046,"is_reserved":false,"is_disabled":false,"rental_uris":{"android":"levelo://app?vid=88d0330c-5bb0-4a19-9b65-d4683b42e015","ios":"levelo://app?vid=88d0330c-5bb0-4a19-9b65-d4683b42e015"},"vehicle_type_id":"4","last_reported":1687086292,"current_range_meters":2800,"station_id":"","pricing_plan_id":"free"},{"bike_id":"6e31f17b-4a19-404c-9e55-e12774b633dc","system_id":"levelo_inurba_marseille","lat":43.296131,"lon":5.370773,"is_reserved":false,"is_disabled":false,"rental_uris":{"android":"levelo://app?vid=6e31f17b-4a19-404c-9e55-e12774b633dc","ios":"levelo://app?vid=6e31f17b-4a19-404c-9e55-e12774b633dc"},"vehicle_type_id":"4","last_reported":1687086292,"current_range_meters":14400,"station_id":"ce4bgnh2rcd13ifvqc0g","pricing_plan_id":"free"},{"bike_id":"73df4a49-71e0-4abd-ae51-3ca64be7a558","system_id":"levelo_inurba_marseille","lat":43.29573,"lon":5.367355,"is_reserved":false,"is_disabled":false,"rental_uris":{"android":"levelo://app?vid=73df4a49-71e0-4abd-ae51-3ca64be7a558","ios":"levelo://app?vid=73df4a49-71e0-4abd-ae51-3ca64be7a558"},"vehicle_type_id":"4","last_reported":1687086292,"current_range_meters":24000,"station_id":"ce4bgph2rcd13ifvqc2g","pricing_plan_id":"free"},{"bike_id":"33005838-378a-4fde-9580-a35f7107ff45","system_id":"levelo_inurba_marseille","lat":43.29573,"lon":5.367355,"is_reserved":false,"is_disabled":false,"rental_uris":{"android":"levelo://app?vid=33005838-378a-4fde-9580-a35f7107ff45","ios":"levelo://app?vid=33005838-378a-4fde-9580-a35f7107ff45"},"vehicle_type_id":"4","last_reported":1687086292,"current_range_meters":12400,"station_id":"ce4bgph2rcd13ifvqc2g","pricing_plan_id":"free"},{"bike_id":"c685757e-f5c4-47d5-9b90-3a4ec793d780","system_id":"levelo_inurba_marseille","lat":43.29573,"lon":5.367355,"is_reserved":false,"is_disabled":false,"rental_uris":{"android":"levelo://app?vid=c685757e-f5c4-47d5-9b90-3a4ec793d780","ios":"levelo://app?vid=c685757e-f5c4-47d5-9b90-3a4ec793d780"},"vehicle_type_id":"4","last_reported":1687086292,"current_range_meters":26800,"station_id":"ce4bgph2rcd13ifvqc2g","pricing_plan_id":"free"},{"bike_id":"0f8a3650-0635-4034-ab95-31dec0fb0d7c","system_id":"levelo_inurba_marseille","lat":43.29583,"lon":5.36742,"is_reserved":false,"is_disabled":false,"rental_uris":{"android":"levelo://app?vid=0f8a3650-0635-4034-ab95-31dec0fb0d7c","ios":"levelo://app?vid=0f8a3650-0635-4034-ab95-31dec0fb0d7c"},"vehicle_type_id":"4","last_reported":1687086292,"current_range_meters":11600,"station_id":"ce4bgph2rcd13ifvqc2g","pricing_plan_id":"free"},{"bike_id":"59627268-4aa9-4c4d-a11a-ba782e5d795d","system_id":"levelo_inurba_marseille","lat":43.29573,"lon":5.367355,"is_reserved":false,"is_disabled":false,"rental_uris":{"android":"levelo://app?vid=59627268-4aa9-4c4d-a11a-ba782e5d795d","ios":"levelo://app?vid=59627268-4aa9-4c4d-a11a-ba782e5d795d"},"vehicle_type_id":"4","last_reported":1687086292,"current_range_meters":28400,"station_id":"ce4bgph2rcd13ifvqc2g","pricing_plan_id":"free"},{"bike_id":"24f41ca5-b432-4feb-a0c8-a15026b97306","system_id":"levelo_inurba_marseille","lat":43.296131,"lon":5.370773,"is_reserved":false,"is_disabled":false,"rental_uris":{"android":"levelo://app?vid=24f41ca5-b432-4feb-a0c8-a15026b97306","ios":"levelo://app?vid=24f41ca5-b432-4feb-a0c8-a15026b97306"},"vehicle_type_id":"4","last_reported":1687086292,"current_range_meters":12400,"station_id":"ce4bgnh2rcd13ifvqc0g","pricing_plan_id":"free"},{"bike_id":"b5b404bb-4a85-4d8c-83cc-0a52efa3c348","system_id":"levelo_inurba_marseille","lat":43.29915,"lon":5.3815,"is_reserved":false,"is_disabled":false,"rental_uris":{"android":"levelo://app?vid=b5b404bb-4a85-4d8c-83cc-0a52efa3c348","ios":"levelo://app?vid=b5b404bb-4a85-4d8c-83cc-0a52efa3c348"},"vehicle_type_id":"4","last_reported":1687086292,"current_range_meters":2400,"station_id":"ce4bgj12rcd13ifvqbc0","pricing_plan_id":"free"},{"bike_id":"83f6075d-3e24-4cf1-a7cb-da5638440d94","system_id":"levelo_inurba_marseille","lat":43.3176,"lon":5.39009,"is_reserved":false,"is_disabled":false,"rental_uris":{"android":"levelo://app?vid=83f6075d-3e24-4cf1-a7cb-da5638440d94","ios":"levelo://app?vid=83f6075d-3e24-4cf1-a7cb-da5638440d94"},"vehicle_type_id":"4","last_reported":1687086292,"current_range_meters":20400,"station_id":"ce4bhqp2rcd13ifvqhng","pricing_plan_id":"free"},{"bike_id":"d89a6111-594c-4044-bab7-fa8ad5f81068","system_id":"levelo_inurba_marseille","lat":43.317557,"lon":5.390173,"is_reserved":false,"is_disabled":false,"rental_uris":{"android":"levelo://app?vid=d89a6111-594c-4044-bab7-fa8ad5f81068","ios":"levelo://app?vid=d89a6111-594c-4044-bab7-fa8ad5f81068"},"vehicle_type_id":"4","last_reported":1687086292,"current_range_meters":31200,"station_id":"ce4bhqp2rcd13ifvqhng","pricing_plan_id":"free"},{"bike_id":"dab115bf-1cab-4b8d-ad6a-67fda1d71234","system_id":"levelo_inurba_marseille","lat":43.31757,"lon":5.39022,"is_reserved":false,"is_disabled":false,"rental_uris":{"android":"levelo://app?vid=dab115bf-1cab-4b8d-ad6a-67fda1d71234","ios":"levelo://app?vid=dab115bf-1cab-4b8d-ad6a-67fda1d71234"},"vehicle_type_id":"4","last_reported":1687086292,"current_range_meters":24800,"station_id":"ce4bhqp2rcd13ifvqhng","pricing_plan_id":"free"},{"bike_id":"4a10882c-7152-4233-bc08-3e7673adbd38","system_id":"levelo_inurba_marseille","lat":43.317557,"lon":5.390173,"is_reserved":false,"is_disabled":false,"rental_uris":{"android":"levelo://app?vid=4a10882c-7152-4233-bc08-3e7673adbd38","ios":"levelo://app?vid=4a10882c-7152-4233-bc08-3e7673adbd38"},"vehicle_type_id":"4","last_reported":1687086292,"current_range_meters":25200,"station_id":"ce4bhqp2rcd13ifvqhng","pricing_plan_id":"free"},{"bike_id":"9cce6bb8-7202-4811-9636-e0527f70062e","system_id":"levelo_inurba_marseille","lat":43.298037,"lon":5.381066,"is_reserved":false,"is_disabled":false,"rental_uris":{"android":"levelo://app?vid=9cce6bb8-7202-4811-9636-e0527f70062e","ios":"levelo://app?vid=9cce6bb8-7202-4811-9636-e0527f70062e"},"vehicle_type_id":"4","last_reported":1687086292,"current_range_meters":12800,"station_id":"ce4bgip2rcd13ifvqbb0","pricing_plan_id":"free"},{"bike_id":"b59b94fa-adc7-48f7-a43a-ddfa33f3b811","system_id":"levelo_inurba_marseille","lat":43.295748,"lon":5.37522,"is_reserved":false,"is_disabled":false,"rental_uris":{"android":"levelo://app?vid=b59b94fa-adc7-48f7-a43a-ddfa33f3b811","ios":"levelo://app?vid=b59b94fa-adc7-48f7-a43a-ddfa33f3b811"},"vehicle_type_id":"4","last_reported":1687086292,"current_range_meters":22800,"station_id":"ce4bgh92rcd13ifvqb50","pricing_plan_id":"free"},{"bike_id":"523fc2c0-7036-4718-9d36-199d1e1ff94f","system_id":"levelo_inurba_marseille","lat":43.29575,"lon":5.37523,"is_reserved":false,"is_disabled":false,"rental_uris":{"android":"levelo://app?vid=523fc2c0-7036-4718-9d36-199d1e1ff94f","ios":"levelo://app?vid=523fc2c0-7036-4718-9d36-199d1e1ff94f"},"vehicle_type_id":"4","last_reported":1687086292,"current_range_meters":28000,"station_id":"ce4bgh92rcd13ifvqb50","pricing_plan_id":"free"},{"bike_id":"250c8a96-8498-4211-b8f3-1b00a8d1fbaf","system_id":"levelo_inurba_marseille","lat":43.296477,"lon":5.37768,"is_reserved":false,"is_disabled":false,"rental_uris":{"android":"levelo://app?vid=250c8a96-8498-4211-b8f3-1b00a8d1fbaf","ios":"levelo://app?vid=250c8a96-8498-4211-b8f3-1b00a8d1fbaf"},"vehicle_type_id":"4","last_reported":1687086292,"current_range_meters":13200,"station_id":"","pricing_plan_id":"free"},{"bike_id":"a04c4992-9787-43f5-af53-b9792f6a310d","system_id":"levelo_inurba_marseille","lat":43.295748,"lon":5.37522,"is_reserved":false,"is_disabled":false,"rental_uris":{"android":"levelo://app?vid=a04c4992-9787-43f5-af53-b9792f6a310d","ios":"levelo://app?vid=a04c4992-9787-43f5-af53-b9792f6a310d"},"vehicle_type_id":"4","last_reported":1687086292,"current_range_meters":14000,"station_id":"ce4bgh92rcd13ifvqb50","pricing_plan_id":"free"},{"bike_id":"c3593ca7-4465-4b84-95b0-132d22e71544","system_id":"levelo_inurba_marseille","lat":43.299707,"lon":5.384859,"is_reserved":false,"is_disabled":false,"rental_uris":{"android":"levelo://app?vid=c3593ca7-4465-4b84-95b0-132d22e71544","ios":"levelo://app?vid=c3593ca7-4465-4b84-95b0-132d22e71544"},"vehicle_type_id":"4","last_reported":1687086292,"current_range_meters":24000,"station_id":"ce4bgj92rcd13ifvqbd0","pricing_plan_id":"free"},{"bike_id":"319addc7-c020-45d0-84ef-14d21fad2f7c","system_id":"levelo_inurba_marseille","lat":43.29773,"lon":5.38154,"is_reserved":false,"is_disabled":false,"rental_uris":{"android":"levelo://app?vid=319addc7-c020-45d0-84ef-14d21fad2f7c","ios":"levelo://app?vid=319addc7-c020-45d0-84ef-14d21fad2f7c"},"vehicle_type_id":"4","last_reported":1687086292,"current_range_meters":22800,"station_id":"","pricing_plan_id":"free"},{"bike_id":"eb56f040-d7e3-440c-9d05-82afe187dd21","system_id":"levelo_inurba_marseille","lat":43.2999,"lon":5.38512,"is_reserved":false,"is_disabled":false,"rental_uris":{"android":"levelo://app?vid=eb56f040-d7e3-440c-9d05-82afe187dd21","ios":"levelo://app?vid=eb56f040-d7e3-440c-9d05-82afe187dd21"},"vehicle_type_id":"4","last_reported":1687086292,"current_range_meters":28800,"station_id":"","pricing_plan_id":"free"},{"bike_id":"1271020d-e805-4c5b-bb67-4e05309f23f2","system_id":"levelo_inurba_marseille","lat":43.299724,"lon":5.384848,"is_reserved":false,"is_disabled":false,"rental_uris":{"android":"levelo://app?vid=1271020d-e805-4c5b-bb67-4e05309f23f2","ios":"levelo://app?vid=1271020d-e805-4c5b-bb67-4e05309f23f2"},"vehicle_type_id":"4","last_reported":1687086292,"current_range_meters":31200,"station_id":"ce4bgj92rcd13ifvqbd0","pricing_plan_id":"free"},{"bike_id":"2cf296bd-7fd0-4f0b-91a0-55d4eb6eb750","system_id":"levelo_inurba_marseille","lat":43.299724,"lon":5.384848,"is_reserved":false,"is_disabled":false,"rental_uris":{"android":"levelo://app?vid=2cf296bd-7fd0-4f0b-91a0-55d4eb6eb750","ios":"levelo://app?vid=2cf296bd-7fd0-4f0b-91a0-55d4eb6eb750"},"vehicle_type_id":"4","last_reported":1687086292,"current_range_meters":29600,"station_id":"ce4bgj92rcd13ifvqbd0","pricing_plan_id":"free"},{"bike_id":"a5d34394-8ea3-4622-ac56-bc8a8abe2d11","system_id":"levelo_inurba_marseille","lat":43.32367,"lon":5.388836,"is_reserved":false,"is_disabled":false,"rental_uris":{"android":"levelo://app?vid=a5d34394-8ea3-4622-ac56-bc8a8abe2d11","ios":"levelo://app?vid=a5d34394-8ea3-4622-ac56-bc8a8abe2d11"},"vehicle_type_id":"4","last_reported":1687086292,"current_range_meters":30800,"station_id":"ce4bhqp2rcd13ifvqhog","pricing_plan_id":"free"},{"bike_id":"c25bbca6-334a-48c9-b2aa-c69eb97c9d81","system_id":"levelo_inurba_marseille","lat":43.32367,"lon":5.388836,"is_reserved":false,"is_disabled":false,"rental_uris":{"android":"levelo://app?vid=c25bbca6-334a-48c9-b2aa-c69eb97c9d81","ios":"levelo://app?vid=c25bbca6-334a-48c9-b2aa-c69eb97c9d81"},"vehicle_type_id":"4","last_reported":1687086292,"current_range_meters":10400,"station_id":"ce4bhqp2rcd13ifvqhog","pricing_plan_id":"free"},{"bike_id":"05d585c0-9c9e-4f05-83e5-50aae80e7424","system_id":"levelo_inurba_marseille","lat":43.32367,"lon":5.388836,"is_reserved":false,"is_disabled":false,"rental_uris":{"android":"levelo://app?vid=05d585c0-9c9e-4f05-83e5-50aae80e7424","ios":"levelo://app?vid=05d585c0-9c9e-4f05-83e5-50aae80e7424"},"vehicle_type_id":"4","last_reported":1687086292,"current_range_meters":31200,"station_id":"ce4bhqp2rcd13ifvqhog","pricing_plan_id":"free"},{"bike_id":"710b2464-7ad8-4f51-afc3-435cb42765b1","system_id":"levelo_inurba_marseille","lat":43.293249,"lon":5.371578,"is_reserved":false,"is_disabled":false,"rental_uris":{"android":"levelo://app?vid=710b2464-7ad8-4f51-afc3-435cb42765b1","ios":"levelo://app?vid=710b2464-7ad8-4f51-afc3-435cb42765b1"},"vehicle_type_id":"4","last_reported":1687086292,"current_range_meters":800,"station_id":"ce4bgh92rcd13ifvqb40","pricing_plan_id":"free"},{"bike_id":"68f274de-53f0-48a5-a1da-dff8ea8a8eb4","system_id":"levelo_inurba_marseille","lat":43.29307,"lon":5.37186,"is_reserved":false,"is_disabled":false,"rental_uris":{"android":"levelo://app?vid=68f274de-53f0-48a5-a1da-dff8ea8a8eb4","ios":"levelo://app?vid=68f274de-53f0-48a5-a1da-dff8ea8a8eb4"},"vehicle_type_id":"4","last_reported":1687086292,"current_range_meters":29200,"station_id":"ce4bgh92rcd13ifvqb40","pricing_plan_id":"free"},{"bike_id":"0130661b-f494-4193-a5bf-ce4daf73daa8","system_id":"levelo_inurba_marseille","lat":43.293249,"lon":5.371578,"is_reserved":false,"is_disabled":false,"rental_uris":{"android":"levelo://app?vid=0130661b-f494-4193-a5bf-ce4daf73daa8","ios":"levelo://app?vid=0130661b-f494-4193-a5bf-ce4daf73daa8"},"vehicle_type_id":"4","last_reported":1687086292,"current_range_meters":0,"station_id":"ce4bgh92rcd13ifvqb40","pricing_plan_id":"free"},{"bike_id":"a1f6b211-321e-489c-bd9a-ef8d5edf87cd","system_id":"levelo_inurba_marseille","lat":43.309589,"lon":5.390258,"is_reserved":false,"is_disabled":false,"rental_uris":{"android":"levelo://app?vid=a1f6b211-321e-489c-bd9a-ef8d5edf87cd","ios":"levelo://app?vid=a1f6b211-321e-489c-bd9a-ef8d5edf87cd"},"vehicle_type_id":"4","last_reported":1687086292,"current_range_meters":13600,"station_id":"ce4bgup2rcd13ifvqco0","pricing_plan_id":"free"},{"bike_id":"811a30ad-dc0c-4ed1-a1ab-5b175a5716ad","system_id":"levelo_inurba_marseille","lat":43.2936,"lon":5.37835,"is_reserved":false,"is_disabled":false,"rental_uris":{"android":"levelo://app?vid=811a30ad-dc0c-4ed1-a1ab-5b175a5716ad","ios":"levelo://app?vid=811a30ad-dc0c-4ed1-a1ab-5b175a5716ad"},"vehicle_type_id":"4","last_reported":1687086292,"current_range_meters":25200,"station_id":"ce4bgjh2rcd13ifvqbf0","pricing_plan_id":"free"},{"bike_id":"b5c02e69-cdde-4d5f-8726-888766b91739","system_id":"levelo_inurba_marseille","lat":43.300852,"lon":5.390859,"is_reserved":false,"is_disabled":false,"rental_uris":{"android":"levelo://app?vid=b5c02e69-cdde-4d5f-8726-888766b91739","ios":"levelo://app?vid=b5c02e69-cdde-4d5f-8726-888766b91739"},"vehicle_type_id":"4","last_reported":1687086292,"current_range_meters":4800,"station_id":"ce4bh192rcd13ifvqdb0","pricing_plan_id":"free"},{"bike_id":"e63fe77c-b30d-41f7-acdd-92d19f1b177a","system_id":"levelo_inurba_marseille","lat":43.292663,"lon":5.376394,"is_reserved":false,"is_disabled":false,"rental_uris":{"android":"levelo://app?vid=e63fe77c-b30d-41f7-acdd-92d19f1b177a","ios":"levelo://app?vid=e63fe77c-b30d-41f7-acdd-92d19f1b177a"},"vehicle_type_id":"4","last_reported":1687086292,"current_range_meters":16400,"station_id":"ce4bgi12rcd13ifvqb80","pricing_plan_id":"free"},{"bike_id":"945e1764-5457-4245-84cf-796ef659f4bb","system_id":"levelo_inurba_marseille","lat":43.291671,"lon":5.371575,"is_reserved":false,"is_disabled":false,"rental_uris":{"android":"levelo://app?vid=945e1764-5457-4245-84cf-796ef659f4bb","ios":"levelo://app?vid=945e1764-5457-4245-84cf-796ef659f4bb"},"vehicle_type_id":"4","last_reported":1687086292,"current_range_meters":28000,"station_id":"ce4bha92rcd13ifvqeh0","pricing_plan_id":"free"},{"bike_id":"54d898a5-edb9-4182-8b49-145334ba5e5d","system_id":"levelo_inurba_marseille","lat":43.29868,"lon":5.38901,"is_reserved":false,"is_disabled":false,"rental_uris":{"android":"levelo://app?vid=54d898a5-edb9-4182-8b49-145334ba5e5d","ios":"levelo://app?vid=54d898a5-edb9-4182-8b49-145334ba5e5d"},"vehicle_type_id":"4","last_reported":1687086292,"current_range_meters":0,"station_id":"ce4bh392rcd13ifvqdl0","pricing_plan_id":"free"},{"bike_id":"ba83afa3-02fd-4b56-8ff5-42ff61d38639","system_id":"levelo_inurba_marseille","lat":43.309038,"lon":5.396546,"is_reserved":false,"is_disabled":false,"rental_uris":{"android":"levelo://app?vid=ba83afa3-02fd-4b56-8ff5-42ff61d38639","ios":"levelo://app?vid=ba83afa3-02fd-4b56-8ff5-42ff61d38639"},"vehicle_type_id":"4","last_reported":1687086292,"current_range_meters":7600,"station_id":"ce4bh012rcd13ifvqcv0","pricing_plan_id":"free"},{"bike_id":"cec52245-f041-481c-bc00-d8fef745ee8f","system_id":"levelo_inurba_marseille","lat":43.309038,"lon":5.396546,"is_reserved":false,"is_disabled":false,"rental_uris":{"android":"levelo://app?vid=cec52245-f041-481c-bc00-d8fef745ee8f","ios":"levelo://app?vid=cec52245-f041-481c-bc00-d8fef745ee8f"},"vehicle_type_id":"4","last_reported":1687086292,"current_range_meters":6000,"station_id":"ce4bh012rcd13ifvqcv0","pricing_plan_id":"free"},{"bike_id":"553bbf61-79a4-4994-ba4a-be9657e781d5","system_id":"levelo_inurba_marseille","lat":43.309038,"lon":5.396546,"is_reserved":false,"is_disabled":false,"rental_uris":{"android":"levelo://app?vid=553bbf61-79a4-4994-ba4a-be9657e781d5","ios":"levelo://app?vid=553bbf61-79a4-4994-ba4a-be9657e781d5"},"vehicle_type_id":"4","last_reported":1687086292,"current_range_meters":31200,"station_id":"ce4bh012rcd13ifvqcv0","pricing_plan_id":"free"},{"bike_id":"481ddacd-b330-4e74-8183-25e0b8c95c7f","system_id":"levelo_inurba_marseille","lat":43.309038,"lon":5.396546,"is_reserved":false,"is_disabled":false,"rental_uris":{"android":"levelo://app?vid=481ddacd-b330-4e74-8183-25e0b8c95c7f","ios":"levelo://app?vid=481ddacd-b330-4e74-8183-25e0b8c95c7f"},"vehicle_type_id":"4","last_reported":1687086292,"current_range_meters":3200,"station_id":"ce4bh012rcd13ifvqcv0","pricing_plan_id":"free"},{"bike_id":"1a20af4a-e711-4ab2-a4ef-32a741ae681a","system_id":"levelo_inurba_marseille","lat":43.309038,"lon":5.396546,"is_reserved":false,"is_disabled":false,"rental_uris":{"android":"levelo://app?vid=1a20af4a-e711-4ab2-a4ef-32a741ae681a","ios":"levelo://app?vid=1a20af4a-e711-4ab2-a4ef-32a741ae681a"},"vehicle_type_id":"4","last_reported":1687086292,"current_range_meters":18400,"station_id":"ce4bh012rcd13ifvqcv0","pricing_plan_id":"free"},{"bike_id":"3f25faa2-557f-44ea-8645-463d84b41fcc","system_id":"levelo_inurba_marseille","lat":43.29529,"lon":5.385581,"is_reserved":false,"is_disabled":false,"rental_uris":{"android":"levelo://app?vid=3f25faa2-557f-44ea-8645-463d84b41fcc","ios":"levelo://app?vid=3f25faa2-557f-44ea-8645-463d84b41fcc"},"vehicle_type_id":"4","last_reported":1687086292,"current_range_meters":15200,"station_id":"ce4bgih2rcd13ifvqba0","pricing_plan_id":"free"},{"bike_id":"fcf4c778-ef89-4ae7-bf0c-c6610b909f02","system_id":"levelo_inurba_marseille","lat":43.29529,"lon":5.385581,"is_reserved":false,"is_disabled":false,"rental_uris":{"android":"levelo://app?vid=fcf4c778-ef89-4ae7-bf0c-c6610b909f02","ios":"levelo://app?vid=fcf4c778-ef89-4ae7-bf0c-c6610b909f02"},"vehicle_type_id":"4","last_reported":1687086292,"current_range_meters":15200,"station_id":"ce4bgih2rcd13ifvqba0","pricing_plan_id":"free"},{"bike_id":"6a8b856a-2769-4865-86dc-9a97782975f0","system_id":"levelo_inurba_marseille","lat":43.29041,"lon":5.35917,"is_reserved":false,"is_disabled":false,"rental_uris":{"android":"levelo://app?vid=6a8b856a-2769-4865-86dc-9a97782975f0","ios":"levelo://app?vid=6a8b856a-2769-4865-86dc-9a97782975f0"},"vehicle_type_id":"4","last_reported":1687086292,"current_range_meters":0,"station_id":"","pricing_plan_id":"free"},{"bike_id":"3d248fdd-e7e1-48a9-b95d-633776609d87","system_id":"levelo_inurba_marseille","lat":43.290327,"lon":5.375711,"is_reserved":false,"is_disabled":false,"rental_uris":{"android":"levelo://app?vid=3d248fdd-e7e1-48a9-b95d-633776609d87","ios":"levelo://app?vid=3d248fdd-e7e1-48a9-b95d-633776609d87"},"vehicle_type_id":"4","last_reported":1687086292,"current_range_meters":8800,"station_id":"ce4bh692rcd13ifvqe90","pricing_plan_id":"free"},{"bike_id":"ddaa7d4c-557e-4ccd-83e9-0016b8c26bcb","system_id":"levelo_inurba_marseille","lat":43.304296,"lon":5.397513,"is_reserved":false,"is_disabled":false,"rental_uris":{"android":"levelo://app?vid=ddaa7d4c-557e-4ccd-83e9-0016b8c26bcb","ios":"levelo://app?vid=ddaa7d4c-557e-4ccd-83e9-0016b8c26bcb"},"vehicle_type_id":"4","last_reported":1687086292,"current_range_meters":19200,"station_id":"ce4bh092rcd13ifvqd20","pricing_plan_id":"free"},{"bike_id":"0b11c831-9acb-4b2a-9739-dbd9200da1bd","system_id":"levelo_inurba_marseille","lat":43.292644,"lon":5.384257,"is_reserved":false,"is_disabled":false,"rental_uris":{"android":"levelo://app?vid=0b11c831-9acb-4b2a-9739-dbd9200da1bd","ios":"levelo://app?vid=0b11c831-9acb-4b2a-9739-dbd9200da1bd"},"vehicle_type_id":"4","last_reported":1687086292,"current_range_meters":22800,"station_id":"ce4bh692rcd13ifvqea0","pricing_plan_id":"free"},{"bike_id":"38eb09af-7166-42b9-865e-84246929498f","system_id":"levelo_inurba_marseille","lat":43.292642,"lon":5.384254,"is_reserved":false,"is_disabled":false,"rental_uris":{"android":"levelo://app?vid=38eb09af-7166-42b9-865e-84246929498f","ios":"levelo://app?vid=38eb09af-7166-42b9-865e-84246929498f"},"vehicle_type_id":"4","last_reported":1687086292,"current_range_meters":31200,"station_id":"ce4bh692rcd13ifvqea0","pricing_plan_id":"free"},{"bike_id":"07ade362-b482-428c-9399-1a5258d79835","system_id":"levelo_inurba_marseille","lat":43.304296,"lon":5.397513,"is_reserved":false,"is_disabled":false,"rental_uris":{"android":"levelo://app?vid=07ade362-b482-428c-9399-1a5258d79835","ios":"levelo://app?vid=07ade362-b482-428c-9399-1a5258d79835"},"vehicle_type_id":"4","last_reported":1687086292,"current_range_meters":13200,"station_id":"ce4bh092rcd13ifvqd20","pricing_plan_id":"free"},{"bike_id":"32a6b695-9296-48ea-95ef-2f88ea60fcb4","system_id":"levelo_inurba_marseille","lat":43.290103,"lon":5.356114,"is_reserved":false,"is_disabled":false,"rental_uris":{"android":"levelo://app?vid=32a6b695-9296-48ea-95ef-2f88ea60fcb4","ios":"levelo://app?vid=32a6b695-9296-48ea-95ef-2f88ea60fcb4"},"vehicle_type_id":"4","last_reported":1687086292,"current_range_meters":5600,"station_id":"ce4bhb92rcd13ifvqen0","pricing_plan_id":"free"},{"bike_id":"34e8793d-3e78-430c-9712-0f9923b8824e","system_id":"levelo_inurba_marseille","lat":43.3304,"lon":5.38919,"is_reserved":false,"is_disabled":false,"rental_uris":{"android":"levelo://app?vid=34e8793d-3e78-430c-9712-0f9923b8824e","ios":"levelo://app?vid=34e8793d-3e78-430c-9712-0f9923b8824e"},"vehicle_type_id":"4","last_reported":1687086292,"current_range_meters":28400,"station_id":"ce4bhr92rcd13ifvqhrg","pricing_plan_id":"free"},{"bike_id":"69b9077c-e52f-467f-924c-edaaf68c6e10","system_id":"levelo_inurba_marseille","lat":43.33038,"lon":5.38922,"is_reserved":false,"is_disabled":false,"rental_uris":{"android":"levelo://app?vid=69b9077c-e52f-467f-924c-edaaf68c6e10","ios":"levelo://app?vid=69b9077c-e52f-467f-924c-edaaf68c6e10"},"vehicle_type_id":"4","last_reported":1687086292,"current_range_meters":31200,"station_id":"ce4bhr92rcd13ifvqhrg","pricing_plan_id":"free"},{"bike_id":"4f0485bb-a3e4-4b20-887c-5db86f2ea8f3","system_id":"levelo_inurba_marseille","lat":43.290104,"lon":5.356111,"is_reserved":false,"is_disabled":false,"rental_uris":{"android":"levelo://app?vid=4f0485bb-a3e4-4b20-887c-5db86f2ea8f3","ios":"levelo://app?vid=4f0485bb-a3e4-4b20-887c-5db86f2ea8f3"},"vehicle_type_id":"4","last_reported":1687086292,"current_range_meters":26800,"station_id":"ce4bhb92rcd13ifvqen0","pricing_plan_id":"free"},{"bike_id":"6fd182bb-679f-44ad-ac98-b6322c0035fe","system_id":"levelo_inurba_marseille","lat":43.29008,"lon":5.35602,"is_reserved":false,"is_disabled":false,"rental_uris":{"android":"levelo://app?vid=6fd182bb-679f-44ad-ac98-b6322c0035fe","ios":"levelo://app?vid=6fd182bb-679f-44ad-ac98-b6322c0035fe"},"vehicle_type_id":"4","last_reported":1687086292,"current_range_meters":20800,"station_id":"","pricing_plan_id":"free"},{"bike_id":"f95d8be0-c840-4b03-9e0d-b8050ae0f057","system_id":"levelo_inurba_marseille","lat":43.33045,"lon":5.38921,"is_reserved":false,"is_disabled":false,"rental_uris":{"android":"levelo://app?vid=f95d8be0-c840-4b03-9e0d-b8050ae0f057","ios":"levelo://app?vid=f95d8be0-c840-4b03-9e0d-b8050ae0f057"},"vehicle_type_id":"4","last_reported":1687086292,"current_range_meters":24400,"station_id":"ce4bhr92rcd13ifvqhrg","pricing_plan_id":"free"},{"bike_id":"05959213-7412-4300-a4d0-ecb0734f2e86","system_id":"levelo_inurba_marseille","lat":43.290104,"lon":5.356111,"is_reserved":false,"is_disabled":false,"rental_uris":{"android":"levelo://app?vid=05959213-7412-4300-a4d0-ecb0734f2e86","ios":"levelo://app?vid=05959213-7412-4300-a4d0-ecb0734f2e86"},"vehicle_type_id":"4","last_reported":1687086292,"current_range_meters":24000,"station_id":"ce4bhb92rcd13ifvqen0","pricing_plan_id":"free"},{"bike_id":"d8dd6fef-0af1-43d2-9a11-f128736adec6","system_id":"levelo_inurba_marseille","lat":43.290104,"lon":5.356111,"is_reserved":false,"is_disabled":false,"rental_uris":{"android":"levelo://app?vid=d8dd6fef-0af1-43d2-9a11-f128736adec6","ios":"levelo://app?vid=d8dd6fef-0af1-43d2-9a11-f128736adec6"},"vehicle_type_id":"4","last_reported":1687086292,"current_range_meters":24400,"station_id":"ce4bhb92rcd13ifvqen0","pricing_plan_id":"free"},{"bike_id":"8fff2c6b-7de2-42eb-b9c7-b4957e635223","system_id":"levelo_inurba_marseille","lat":43.33045,"lon":5.38922,"is_reserved":false,"is_disabled":false,"rental_uris":{"android":"levelo://app?vid=8fff2c6b-7de2-42eb-b9c7-b4957e635223","ios":"levelo://app?vid=8fff2c6b-7de2-42eb-b9c7-b4957e635223"},"vehicle_type_id":"4","last_reported":1687086292,"current_range_meters":17200,"station_id":"ce4bhr92rcd13ifvqhrg","pricing_plan_id":"free"},{"bike_id":"055b4979-a33e-412f-b3be-6f6e9ba1c9c2","system_id":"levelo_inurba_marseille","lat":43.290103,"lon":5.356114,"is_reserved":false,"is_disabled":false,"rental_uris":{"android":"levelo://app?vid=055b4979-a33e-412f-b3be-6f6e9ba1c9c2","ios":"levelo://app?vid=055b4979-a33e-412f-b3be-6f6e9ba1c9c2"},"vehicle_type_id":"4","last_reported":1687086292,"current_range_meters":13200,"station_id":"ce4bhb92rcd13ifvqen0","pricing_plan_id":"free"},{"bike_id":"b2d01bcb-c1ed-4121-8c3c-44b5a0ff660c","system_id":"levelo_inurba_marseille","lat":43.290027,"lon":5.356123,"is_reserved":false,"is_disabled":false,"rental_uris":{"android":"levelo://app?vid=b2d01bcb-c1ed-4121-8c3c-44b5a0ff660c","ios":"levelo://app?vid=b2d01bcb-c1ed-4121-8c3c-44b5a0ff660c"},"vehicle_type_id":"4","last_reported":1687086292,"current_range_meters":23200,"station_id":"ce4bhb92rcd13ifvqen0","pricing_plan_id":"free"},{"bike_id":"2ee110b5-ab7a-4368-a0da-a53c541ffe03","system_id":"levelo_inurba_marseille","lat":43.290103,"lon":5.356114,"is_reserved":false,"is_disabled":false,"rental_uris":{"android":"levelo://app?vid=2ee110b5-ab7a-4368-a0da-a53c541ffe03","ios":"levelo://app?vid=2ee110b5-ab7a-4368-a0da-a53c541ffe03"},"vehicle_type_id":"4","last_reported":1687086292,"current_range_meters":7600,"station_id":"ce4bhb92rcd13ifvqen0","pricing_plan_id":"free"},{"bike_id":"2cab7c50-3422-403c-8f06-9ddd78f9b901","system_id":"levelo_inurba_marseille","lat":43.290104,"lon":5.356111,"is_reserved":false,"is_disabled":false,"rental_uris":{"android":"levelo://app?vid=2cab7c50-3422-403c-8f06-9ddd78f9b901","ios":"levelo://app?vid=2cab7c50-3422-403c-8f06-9ddd78f9b901"},"vehicle_type_id":"4","last_reported":1687086292,"current_range_meters":22400,"station_id":"ce4bhb92rcd13ifvqen0","pricing_plan_id":"free"},{"bike_id":"b9b44b37-7edf-4ab6-8685-17eb58a26dbc","system_id":"levelo_inurba_marseille","lat":43.295169,"lon":5.390426,"is_reserved":false,"is_disabled":false,"rental_uris":{"android":"levelo://app?vid=b9b44b37-7edf-4ab6-8685-17eb58a26dbc","ios":"levelo://app?vid=b9b44b37-7edf-4ab6-8685-17eb58a26dbc"},"vehicle_type_id":"4","last_reported":1687086292,"current_range_meters":29200,"station_id":"ce4bh3p2rcd13ifvqdp0","pricing_plan_id":"free"},{"bike_id":"5163578d-8747-43d5-b8fa-a2ad8c8b0efb","system_id":"levelo_inurba_marseille","lat":43.33736,"lon":5.37466,"is_reserved":false,"is_disabled":false,"rental_uris":{"android":"levelo://app?vid=5163578d-8747-43d5-b8fa-a2ad8c8b0efb","ios":"levelo://app?vid=5163578d-8747-43d5-b8fa-a2ad8c8b0efb"},"vehicle_type_id":"4","last_reported":1687086292,"current_range_meters":29200,"station_id":"","pricing_plan_id":"free"},{"bike_id":"c0fb8083-e02d-4dec-b1b9-fa095e6c5b75","system_id":"levelo_inurba_marseille","lat":43.337396,"lon":5.374526,"is_reserved":false,"is_disabled":false,"rental_uris":{"android":"levelo://app?vid=c0fb8083-e02d-4dec-b1b9-fa095e6c5b75","ios":"levelo://app?vid=c0fb8083-e02d-4dec-b1b9-fa095e6c5b75"},"vehicle_type_id":"4","last_reported":1687086292,"current_range_meters":0,"station_id":"ce4bhp92rcd13ifvqhag","pricing_plan_id":"free"},{"bike_id":"fecbd0c2-bfeb-4320-8680-9bf772d4dcfa","system_id":"levelo_inurba_marseille","lat":43.33739,"lon":5.37463,"is_reserved":false,"is_disabled":false,"rental_uris":{"android":"levelo://app?vid=fecbd0c2-bfeb-4320-8680-9bf772d4dcfa","ios":"levelo://app?vid=fecbd0c2-bfeb-4320-8680-9bf772d4dcfa"},"vehicle_type_id":"4","last_reported":1687086292,"current_range_meters":30400,"station_id":"","pricing_plan_id":"free"},{"bike_id":"130e1bb3-e177-4e02-a443-95e92fd0767b","system_id":"levelo_inurba_marseille","lat":43.309371,"lon":5.401449,"is_reserved":false,"is_disabled":false,"rental_uris":{"android":"levelo://app?vid=130e1bb3-e177-4e02-a443-95e92fd0767b","ios":"levelo://app?vid=130e1bb3-e177-4e02-a443-95e92fd0767b"},"vehicle_type_id":"4","last_reported":1687086292,"current_range_meters":23600,"station_id":"ce4bgvp2rcd13ifvqct0","pricing_plan_id":"free"},{"bike_id":"6710aab3-387f-41d9-a59f-8d810769116b","system_id":"levelo_inurba_marseille","lat":43.30642,"lon":5.401031,"is_reserved":false,"is_disabled":false,"rental_uris":{"android":"levelo://app?vid=6710aab3-387f-41d9-a59f-8d810769116b","ios":"levelo://app?vid=6710aab3-387f-41d9-a59f-8d810769116b"},"vehicle_type_id":"4","last_reported":1687086292,"current_range_meters":24000,"station_id":"ce4bh112rcd13ifvqda0","pricing_plan_id":"free"},{"bike_id":"41a8749b-6d93-4d1b-8e52-c5f60f65ae7c","system_id":"levelo_inurba_marseille","lat":43.33752,"lon":5.37443,"is_reserved":false,"is_disabled":false,"rental_uris":{"android":"levelo://app?vid=41a8749b-6d93-4d1b-8e52-c5f60f65ae7c","ios":"levelo://app?vid=41a8749b-6d93-4d1b-8e52-c5f60f65ae7c"},"vehicle_type_id":"4","last_reported":1687086292,"current_range_meters":27200,"station_id":"","pricing_plan_id":"free"},{"bike_id":"b2bef3be-e84f-42fb-925d-746bb4ea9104","system_id":"levelo_inurba_marseille","lat":43.301117,"lon":5.398795,"is_reserved":false,"is_disabled":false,"rental_uris":{"android":"levelo://app?vid=b2bef3be-e84f-42fb-925d-746bb4ea9104","ios":"levelo://app?vid=b2bef3be-e84f-42fb-925d-746bb4ea9104"},"vehicle_type_id":"4","last_reported":1687086292,"current_range_meters":27600,"station_id":"ce4bh0h2rcd13ifvqd40","pricing_plan_id":"free"},{"bike_id":"7b5c2cc9-2818-47c9-a153-8d056745f294","system_id":"levelo_inurba_marseille","lat":43.301117,"lon":5.398795,"is_reserved":false,"is_disabled":false,"rental_uris":{"android":"levelo://app?vid=7b5c2cc9-2818-47c9-a153-8d056745f294","ios":"levelo://app?vid=7b5c2cc9-2818-47c9-a153-8d056745f294"},"vehicle_type_id":"4","last_reported":1687086292,"current_range_meters":8800,"station_id":"ce4bh0h2rcd13ifvqd40","pricing_plan_id":"free"},{"bike_id":"d7609247-8dc9-4f3d-ac68-99205e3a7833","system_id":"levelo_inurba_marseille","lat":43.30139,"lon":5.39875,"is_reserved":false,"is_disabled":false,"rental_uris":{"android":"levelo://app?vid=d7609247-8dc9-4f3d-ac68-99205e3a7833","ios":"levelo://app?vid=d7609247-8dc9-4f3d-ac68-99205e3a7833"},"vehicle_type_id":"4","last_reported":1687086292,"current_range_meters":12400,"station_id":"ce4bh0h2rcd13ifvqd40","pricing_plan_id":"free"},{"bike_id":"188262f7-c801-4df0-bf87-c8ca7e262925","system_id":"levelo_inurba_marseille","lat":43.29876,"lon":5.39723,"is_reserved":false,"is_disabled":false,"rental_uris":{"android":"levelo://app?vid=188262f7-c801-4df0-bf87-c8ca7e262925","ios":"levelo://app?vid=188262f7-c801-4df0-bf87-c8ca7e262925"},"vehicle_type_id":"4","last_reported":1687086292,"current_range_meters":22800,"station_id":"","pricing_plan_id":"free"},{"bike_id":"beca1915-ea86-45ac-9221-7d2a5bf109dc","system_id":"levelo_inurba_marseille","lat":43.2987,"lon":5.39729,"is_reserved":false,"is_disabled":false,"rental_uris":{"android":"levelo://app?vid=beca1915-ea86-45ac-9221-7d2a5bf109dc","ios":"levelo://app?vid=beca1915-ea86-45ac-9221-7d2a5bf109dc"},"vehicle_type_id":"4","last_reported":1687086292,"current_range_meters":20800,"station_id":"ce4bh0h2rcd13ifvqd50","pricing_plan_id":"free"},{"bike_id":"9c7e6a99-b308-447a-82fc-fce8b6576448","system_id":"levelo_inurba_marseille","lat":43.302759,"lon":5.400793,"is_reserved":false,"is_disabled":false,"rental_uris":{"android":"levelo://app?vid=9c7e6a99-b308-447a-82fc-fce8b6576448","ios":"levelo://app?vid=9c7e6a99-b308-447a-82fc-fce8b6576448"},"vehicle_type_id":"4","last_reported":1687086292,"current_range_meters":24800,"station_id":"ce4bgvh2rcd13ifvqcs0","pricing_plan_id":"free"},{"bike_id":"fa573054-5fb9-4631-955f-2426267fb99c","system_id":"levelo_inurba_marseille","lat":43.290336,"lon":5.386425,"is_reserved":false,"is_disabled":false,"rental_uris":{"android":"levelo://app?vid=fa573054-5fb9-4631-955f-2426267fb99c","ios":"levelo://app?vid=fa573054-5fb9-4631-955f-2426267fb99c"},"vehicle_type_id":"4","last_reported":1687086292,"current_range_meters":26000,"station_id":"ce4bh4p2rcd13ifvqe0g","pricing_plan_id":"free"},{"bike_id":"8e7ad265-1a50-4335-be38-58a0167bb96e","system_id":"levelo_inurba_marseille","lat":43.302759,"lon":5.400793,"is_reserved":false,"is_disabled":false,"rental_uris":{"android":"levelo://app?vid=8e7ad265-1a50-4335-be38-58a0167bb96e","ios":"levelo://app?vid=8e7ad265-1a50-4335-be38-58a0167bb96e"},"vehicle_type_id":"4","last_reported":1687086292,"current_range_meters":18800,"station_id":"ce4bgvh2rcd13ifvqcs0","pricing_plan_id":"free"},{"bike_id":"83c0bd0a-dbc7-4d30-9fee-8b6d3e01f7db","system_id":"levelo_inurba_marseille","lat":43.29024,"lon":5.38643,"is_reserved":false,"is_disabled":false,"rental_uris":{"android":"levelo://app?vid=83c0bd0a-dbc7-4d30-9fee-8b6d3e01f7db","ios":"levelo://app?vid=83c0bd0a-dbc7-4d30-9fee-8b6d3e01f7db"},"vehicle_type_id":"4","last_reported":1687086292,"current_range_meters":19600,"station_id":"","pricing_plan_id":"free"},{"bike_id":"363358b6-1711-4e58-99d3-4183c9c5eb18","system_id":"levelo_inurba_marseille","lat":43.302759,"lon":5.400793,"is_reserved":false,"is_disabled":false,"rental_uris":{"android":"levelo://app?vid=363358b6-1711-4e58-99d3-4183c9c5eb18","ios":"levelo://app?vid=363358b6-1711-4e58-99d3-4183c9c5eb18"},"vehicle_type_id":"4","last_reported":1687086292,"current_range_meters":20800,"station_id":"ce4bgvh2rcd13ifvqcs0","pricing_plan_id":"free"},{"bike_id":"0287f98a-d338-4eda-825e-5d11bf3aa33a","system_id":"levelo_inurba_marseille","lat":43.3025,"lon":5.40069,"is_reserved":false,"is_disabled":false,"rental_uris":{"android":"levelo://app?vid=0287f98a-d338-4eda-825e-5d11bf3aa33a","ios":"levelo://app?vid=0287f98a-d338-4eda-825e-5d11bf3aa33a"},"vehicle_type_id":"4","last_reported":1687086292,"current_range_meters":26400,"station_id":"","pricing_plan_id":"free"},{"bike_id":"533121de-47c3-457e-bdcc-d81f3e48da48","system_id":"levelo_inurba_marseille","lat":43.3025,"lon":5.40069,"is_reserved":false,"is_disabled":false,"rental_uris":{"android":"levelo://app?vid=533121de-47c3-457e-bdcc-d81f3e48da48","ios":"levelo://app?vid=533121de-47c3-457e-bdcc-d81f3e48da48"},"vehicle_type_id":"4","last_reported":1687086292,"current_range_meters":18000,"station_id":"","pricing_plan_id":"free"},{"bike_id":"c16cd8a2-f45f-40d1-aaac-a94463da4f69","system_id":"levelo_inurba_marseille","lat":43.30249,"lon":5.40069,"is_reserved":false,"is_disabled":false,"rental_uris":{"android":"levelo://app?vid=c16cd8a2-f45f-40d1-aaac-a94463da4f69","ios":"levelo://app?vid=c16cd8a2-f45f-40d1-aaac-a94463da4f69"},"vehicle_type_id":"4","last_reported":1687086292,"current_range_meters":18800,"station_id":"","pricing_plan_id":"free"},{"bike_id":"2724b277-3342-4a61-8f2f-7eac0f1f36b4","system_id":"levelo_inurba_marseille","lat":43.30249,"lon":5.4007,"is_reserved":false,"is_disabled":false,"rental_uris":{"android":"levelo://app?vid=2724b277-3342-4a61-8f2f-7eac0f1f36b4","ios":"levelo://app?vid=2724b277-3342-4a61-8f2f-7eac0f1f36b4"},"vehicle_type_id":"4","last_reported":1687086292,"current_range_meters":25600,"station_id":"","pricing_plan_id":"free"},{"bike_id":"9b626bf4-13fb-47d1-9c45-ba0a74abde7b","system_id":"levelo_inurba_marseille","lat":43.30246,"lon":5.40069,"is_reserved":false,"is_disabled":false,"rental_uris":{"android":"levelo://app?vid=9b626bf4-13fb-47d1-9c45-ba0a74abde7b","ios":"levelo://app?vid=9b626bf4-13fb-47d1-9c45-ba0a74abde7b"},"vehicle_type_id":"4","last_reported":1687086292,"current_range_meters":16800,"station_id":"","pricing_plan_id":"free"},{"bike_id":"23ed75f5-98f9-4078-b293-962b7f6d8657","system_id":"levelo_inurba_marseille","lat":43.302759,"lon":5.400793,"is_reserved":false,"is_disabled":false,"rental_uris":{"android":"levelo://app?vid=23ed75f5-98f9-4078-b293-962b7f6d8657","ios":"levelo://app?vid=23ed75f5-98f9-4078-b293-962b7f6d8657"},"vehicle_type_id":"4","last_reported":1687086292,"current_range_meters":31600,"station_id":"ce4bgvh2rcd13ifvqcs0","pricing_plan_id":"free"},{"bike_id":"21cf0a29-31c0-46c5-9516-b0f5847b8ecc","system_id":"levelo_inurba_marseille","lat":43.3025,"lon":5.40074,"is_reserved":false,"is_disabled":false,"rental_uris":{"android":"levelo://app?vid=21cf0a29-31c0-46c5-9516-b0f5847b8ecc","ios":"levelo://app?vid=21cf0a29-31c0-46c5-9516-b0f5847b8ecc"},"vehicle_type_id":"4","last_reported":1687086292,"current_range_meters":13600,"station_id":"","pricing_plan_id":"free"},{"bike_id":"272722ad-e1cc-41ed-a7bd-0bd2e257044a","system_id":"levelo_inurba_marseille","lat":43.302759,"lon":5.400793,"is_reserved":false,"is_disabled":false,"rental_uris":{"android":"levelo://app?vid=272722ad-e1cc-41ed-a7bd-0bd2e257044a","ios":"levelo://app?vid=272722ad-e1cc-41ed-a7bd-0bd2e257044a"},"vehicle_type_id":"4","last_reported":1687086292,"current_range_meters":29600,"station_id":"ce4bgvh2rcd13ifvqcs0","pricing_plan_id":"free"},{"bike_id":"39ebb783-a4ad-497a-a8b4-f26310952609","system_id":"levelo_inurba_marseille","lat":43.30246,"lon":5.40077,"is_reserved":false,"is_disabled":false,"rental_uris":{"android":"levelo://app?vid=39ebb783-a4ad-497a-a8b4-f26310952609","ios":"levelo://app?vid=39ebb783-a4ad-497a-a8b4-f26310952609"},"vehicle_type_id":"4","last_reported":1687086292,"current_range_meters":24400,"station_id":"","pricing_plan_id":"free"},{"bike_id":"8f392288-48e8-4530-bc9b-7a4bd7128a0b","system_id":"levelo_inurba_marseille","lat":43.302759,"lon":5.400793,"is_reserved":false,"is_disabled":false,"rental_uris":{"android":"levelo://app?vid=8f392288-48e8-4530-bc9b-7a4bd7128a0b","ios":"levelo://app?vid=8f392288-48e8-4530-bc9b-7a4bd7128a0b"},"vehicle_type_id":"4","last_reported":1687086292,"current_range_meters":32000,"station_id":"ce4bgvh2rcd13ifvqcs0","pricing_plan_id":"free"},{"bike_id":"79242b60-5005-4cc8-947b-7860a8fd6230","system_id":"levelo_inurba_marseille","lat":43.286039,"lon":5.370679,"is_reserved":false,"is_disabled":false,"rental_uris":{"android":"levelo://app?vid=79242b60-5005-4cc8-947b-7860a8fd6230","ios":"levelo://app?vid=79242b60-5005-4cc8-947b-7860a8fd6230"},"vehicle_type_id":"4","last_reported":1687086292,"current_range_meters":7200,"station_id":"ce4bht12rcd13ifvqi60","pricing_plan_id":"free"},{"bike_id":"b60bc646-4240-4b9e-9e24-be831bda7074","system_id":"levelo_inurba_marseille","lat":43.286116,"lon":5.370582,"is_reserved":false,"is_disabled":false,"rental_uris":{"android":"levelo://app?vid=b60bc646-4240-4b9e-9e24-be831bda7074","ios":"levelo://app?vid=b60bc646-4240-4b9e-9e24-be831bda7074"},"vehicle_type_id":"4","last_reported":1687086292,"current_range_meters":30800,"station_id":"ce4bht12rcd13ifvqi60","pricing_plan_id":"free"},{"bike_id":"e4b11fe5-d29a-4b18-b97b-4ee4ce8aa9e0","system_id":"levelo_inurba_marseille","lat":43.286039,"lon":5.370679,"is_reserved":false,"is_disabled":false,"rental_uris":{"android":"levelo://app?vid=e4b11fe5-d29a-4b18-b97b-4ee4ce8aa9e0","ios":"levelo://app?vid=e4b11fe5-d29a-4b18-b97b-4ee4ce8aa9e0"},"vehicle_type_id":"4","last_reported":1687086292,"current_range_meters":17600,"station_id":"ce4bht12rcd13ifvqi60","pricing_plan_id":"free"},{"bike_id":"d7cd4c68-a844-4f58-9fe7-6c3af5478bb2","system_id":"levelo_inurba_marseille","lat":43.286039,"lon":5.370679,"is_reserved":false,"is_disabled":false,"rental_uris":{"android":"levelo://app?vid=d7cd4c68-a844-4f58-9fe7-6c3af5478bb2","ios":"levelo://app?vid=d7cd4c68-a844-4f58-9fe7-6c3af5478bb2"},"vehicle_type_id":"4","last_reported":1687086292,"current_range_meters":12400,"station_id":"ce4bht12rcd13ifvqi60","pricing_plan_id":"free"},{"bike_id":"9d177bd8-b696-4005-91a8-d21b049eec6a","system_id":"levelo_inurba_marseille","lat":43.286039,"lon":5.370679,"is_reserved":false,"is_disabled":false,"rental_uris":{"android":"levelo://app?vid=9d177bd8-b696-4005-91a8-d21b049eec6a","ios":"levelo://app?vid=9d177bd8-b696-4005-91a8-d21b049eec6a"},"vehicle_type_id":"4","last_reported":1687086292,"current_range_meters":20000,"station_id":"ce4bht12rcd13ifvqi60","pricing_plan_id":"free"},{"bike_id":"4134c28e-20cb-4b27-b417-fd02be5cd803","system_id":"levelo_inurba_marseille","lat":43.286039,"lon":5.370679,"is_reserved":false,"is_disabled":false,"rental_uris":{"android":"levelo://app?vid=4134c28e-20cb-4b27-b417-fd02be5cd803","ios":"levelo://app?vid=4134c28e-20cb-4b27-b417-fd02be5cd803"},"vehicle_type_id":"4","last_reported":1687086292,"current_range_meters":20800,"station_id":"ce4bht12rcd13ifvqi60","pricing_plan_id":"free"},{"bike_id":"e799a2af-517e-4f5d-8de1-2901168c7d4f","system_id":"levelo_inurba_marseille","lat":43.28604,"lon":5.37066,"is_reserved":false,"is_disabled":false,"rental_uris":{"android":"levelo://app?vid=e799a2af-517e-4f5d-8de1-2901168c7d4f","ios":"levelo://app?vid=e799a2af-517e-4f5d-8de1-2901168c7d4f"},"vehicle_type_id":"4","last_reported":1687086292,"current_range_meters":31200,"station_id":"ce4bht12rcd13ifvqi60","pricing_plan_id":"free"},{"bike_id":"a60d2e0b-86c6-43af-bf6a-788e539c286b","system_id":"levelo_inurba_marseille","lat":43.316517,"lon":5.404375,"is_reserved":false,"is_disabled":false,"rental_uris":{"android":"levelo://app?vid=a60d2e0b-86c6-43af-bf6a-788e539c286b","ios":"levelo://app?vid=a60d2e0b-86c6-43af-bf6a-788e539c286b"},"vehicle_type_id":"4","last_reported":1687086292,"current_range_meters":31200,"station_id":"ce4bh012rcd13ifvqd00","pricing_plan_id":"free"},{"bike_id":"f53f8b0c-3c08-4e86-ac89-0156aaafe9f9","system_id":"levelo_inurba_marseille","lat":43.316517,"lon":5.404375,"is_reserved":false,"is_disabled":false,"rental_uris":{"android":"levelo://app?vid=f53f8b0c-3c08-4e86-ac89-0156aaafe9f9","ios":"levelo://app?vid=f53f8b0c-3c08-4e86-ac89-0156aaafe9f9"},"vehicle_type_id":"4","last_reported":1687086292,"current_range_meters":29600,"station_id":"ce4bh012rcd13ifvqd00","pricing_plan_id":"free"},{"bike_id":"601d3e1f-4251-432d-9d88-4605b3d186eb","system_id":"levelo_inurba_marseille","lat":43.316517,"lon":5.404375,"is_reserved":false,"is_disabled":false,"rental_uris":{"android":"levelo://app?vid=601d3e1f-4251-432d-9d88-4605b3d186eb","ios":"levelo://app?vid=601d3e1f-4251-432d-9d88-4605b3d186eb"},"vehicle_type_id":"4","last_reported":1687086292,"current_range_meters":27200,"station_id":"ce4bh012rcd13ifvqd00","pricing_plan_id":"free"},{"bike_id":"6545cebb-fbb9-47db-8d14-52a4e106c357","system_id":"levelo_inurba_marseille","lat":43.316517,"lon":5.404375,"is_reserved":false,"is_disabled":false,"rental_uris":{"android":"levelo://app?vid=6545cebb-fbb9-47db-8d14-52a4e106c357","ios":"levelo://app?vid=6545cebb-fbb9-47db-8d14-52a4e106c357"},"vehicle_type_id":"4","last_reported":1687086292,"current_range_meters":24800,"station_id":"ce4bh012rcd13ifvqd00","pricing_plan_id":"free"},{"bike_id":"10a7d262-767e-41b0-abf1-430f79909f24","system_id":"levelo_inurba_marseille","lat":43.28465,"lon":5.35883,"is_reserved":false,"is_disabled":false,"rental_uris":{"android":"levelo://app?vid=10a7d262-767e-41b0-abf1-430f79909f24","ios":"levelo://app?vid=10a7d262-767e-41b0-abf1-430f79909f24"},"vehicle_type_id":"4","last_reported":1687086292,"current_range_meters":15200,"station_id":"ce4bhah2rcd13ifvqei0","pricing_plan_id":"free"},{"bike_id":"b1fdaa2e-5a46-48b5-91a5-96bae97b48cc","system_id":"levelo_inurba_marseille","lat":43.284534,"lon":5.358662,"is_reserved":false,"is_disabled":false,"rental_uris":{"android":"levelo://app?vid=b1fdaa2e-5a46-48b5-91a5-96bae97b48cc","ios":"levelo://app?vid=b1fdaa2e-5a46-48b5-91a5-96bae97b48cc"},"vehicle_type_id":"4","last_reported":1687086292,"current_range_meters":14400,"station_id":"ce4bhah2rcd13ifvqei0","pricing_plan_id":"free"},{"bike_id":"1ea3baf3-a9d0-46f4-a92a-861b800fea1f","system_id":"levelo_inurba_marseille","lat":43.284534,"lon":5.358662,"is_reserved":false,"is_disabled":false,"rental_uris":{"android":"levelo://app?vid=1ea3baf3-a9d0-46f4-a92a-861b800fea1f","ios":"levelo://app?vid=1ea3baf3-a9d0-46f4-a92a-861b800fea1f"},"vehicle_type_id":"4","last_reported":1687086292,"current_range_meters":18400,"station_id":"ce4bhah2rcd13ifvqei0","pricing_plan_id":"free"},{"bike_id":"e704db5f-130f-40d9-9d05-bf3438b5a77e","system_id":"levelo_inurba_marseille","lat":43.284534,"lon":5.358662,"is_reserved":false,"is_disabled":false,"rental_uris":{"android":"levelo://app?vid=e704db5f-130f-40d9-9d05-bf3438b5a77e","ios":"levelo://app?vid=e704db5f-130f-40d9-9d05-bf3438b5a77e"},"vehicle_type_id":"4","last_reported":1687086292,"current_range_meters":16400,"station_id":"ce4bhah2rcd13ifvqei0","pricing_plan_id":"free"},{"bike_id":"d7c827c8-1a7d-449c-a4cb-6b4540e2f7b2","system_id":"levelo_inurba_marseille","lat":43.284534,"lon":5.358662,"is_reserved":false,"is_disabled":false,"rental_uris":{"android":"levelo://app?vid=d7c827c8-1a7d-449c-a4cb-6b4540e2f7b2","ios":"levelo://app?vid=d7c827c8-1a7d-449c-a4cb-6b4540e2f7b2"},"vehicle_type_id":"4","last_reported":1687086292,"current_range_meters":31200,"station_id":"ce4bhah2rcd13ifvqei0","pricing_plan_id":"free"},{"bike_id":"70c1473b-715d-4ec6-b70e-9713b86ca1fe","system_id":"levelo_inurba_marseille","lat":43.284534,"lon":5.358662,"is_reserved":false,"is_disabled":false,"rental_uris":{"android":"levelo://app?vid=70c1473b-715d-4ec6-b70e-9713b86ca1fe","ios":"levelo://app?vid=70c1473b-715d-4ec6-b70e-9713b86ca1fe"},"vehicle_type_id":"4","last_reported":1687086292,"current_range_meters":16800,"station_id":"ce4bhah2rcd13ifvqei0","pricing_plan_id":"free"},{"bike_id":"c0164bc7-6d10-4a4b-b270-7fbd5ff89734","system_id":"levelo_inurba_marseille","lat":43.284534,"lon":5.358662,"is_reserved":false,"is_disabled":false,"rental_uris":{"android":"levelo://app?vid=c0164bc7-6d10-4a4b-b270-7fbd5ff89734","ios":"levelo://app?vid=c0164bc7-6d10-4a4b-b270-7fbd5ff89734"},"vehicle_type_id":"4","last_reported":1687086292,"current_range_meters":26000,"station_id":"ce4bhah2rcd13ifvqei0","pricing_plan_id":"free"},{"bike_id":"702339c2-b7ab-46a6-a318-568abe8bf93a","system_id":"levelo_inurba_marseille","lat":43.29436,"lon":5.3976,"is_reserved":false,"is_disabled":false,"rental_uris":{"android":"levelo://app?vid=702339c2-b7ab-46a6-a318-568abe8bf93a","ios":"levelo://app?vid=702339c2-b7ab-46a6-a318-568abe8bf93a"},"vehicle_type_id":"4","last_reported":1687086292,"current_range_meters":1600,"station_id":"ce4bh3h2rcd13ifvqdo0","pricing_plan_id":"free"},{"bike_id":"5aa0ea34-43dd-4046-b5ef-67f2ff4c7f09","system_id":"levelo_inurba_marseille","lat":43.28623,"lon":5.35104,"is_reserved":false,"is_disabled":false,"rental_uris":{"android":"levelo://app?vid=5aa0ea34-43dd-4046-b5ef-67f2ff4c7f09","ios":"levelo://app?vid=5aa0ea34-43dd-4046-b5ef-67f2ff4c7f09"},"vehicle_type_id":"4","last_reported":1687086292,"current_range_meters":31200,"station_id":"ce4bhch2rcd13ifvqeug","pricing_plan_id":"free"},{"bike_id":"cb82f7b4-a043-4e39-be66-b4b7697c997b","system_id":"levelo_inurba_marseille","lat":43.28619,"lon":5.35108,"is_reserved":false,"is_disabled":false,"rental_uris":{"android":"levelo://app?vid=cb82f7b4-a043-4e39-be66-b4b7697c997b","ios":"levelo://app?vid=cb82f7b4-a043-4e39-be66-b4b7697c997b"},"vehicle_type_id":"4","last_reported":1687086292,"current_range_meters":29200,"station_id":"ce4bhch2rcd13ifvqeug","pricing_plan_id":"free"},{"bike_id":"768c22b1-4d4e-4e0a-9608-aa408f18f18c","system_id":"levelo_inurba_marseille","lat":43.285856,"lon":5.350771,"is_reserved":false,"is_disabled":false,"rental_uris":{"android":"levelo://app?vid=768c22b1-4d4e-4e0a-9608-aa408f18f18c","ios":"levelo://app?vid=768c22b1-4d4e-4e0a-9608-aa408f18f18c"},"vehicle_type_id":"4","last_reported":1687086292,"current_range_meters":30400,"station_id":"ce4bhch2rcd13ifvqeug","pricing_plan_id":"free"},{"bike_id":"c7831798-a5e4-4cd1-9169-b91d21a5b852","system_id":"levelo_inurba_marseille","lat":43.285856,"lon":5.350771,"is_reserved":false,"is_disabled":false,"rental_uris":{"android":"levelo://app?vid=c7831798-a5e4-4cd1-9169-b91d21a5b852","ios":"levelo://app?vid=c7831798-a5e4-4cd1-9169-b91d21a5b852"},"vehicle_type_id":"4","last_reported":1687086292,"current_range_meters":14800,"station_id":"ce4bhch2rcd13ifvqeug","pricing_plan_id":"free"},{"bike_id":"e84b6224-1996-4985-88b0-9bc7307f648a","system_id":"levelo_inurba_marseille","lat":43.286166,"lon":5.351034,"is_reserved":false,"is_disabled":false,"rental_uris":{"android":"levelo://app?vid=e84b6224-1996-4985-88b0-9bc7307f648a","ios":"levelo://app?vid=e84b6224-1996-4985-88b0-9bc7307f648a"},"vehicle_type_id":"4","last_reported":1687086292,"current_range_meters":4400,"station_id":"","pricing_plan_id":"free"},{"bike_id":"b17a8dfb-a7c7-47b4-839e-9fc51a1e81e3","system_id":"levelo_inurba_marseille","lat":43.285856,"lon":5.350771,"is_reserved":false,"is_disabled":false,"rental_uris":{"android":"levelo://app?vid=b17a8dfb-a7c7-47b4-839e-9fc51a1e81e3","ios":"levelo://app?vid=b17a8dfb-a7c7-47b4-839e-9fc51a1e81e3"},"vehicle_type_id":"4","last_reported":1687086292,"current_range_meters":31200,"station_id":"ce4bhch2rcd13ifvqeug","pricing_plan_id":"free"},{"bike_id":"46b45f1d-e36a-41f0-9fc5-d8262b4c6a24","system_id":"levelo_inurba_marseille","lat":43.285856,"lon":5.350771,"is_reserved":false,"is_disabled":false,"rental_uris":{"android":"levelo://app?vid=46b45f1d-e36a-41f0-9fc5-d8262b4c6a24","ios":"levelo://app?vid=46b45f1d-e36a-41f0-9fc5-d8262b4c6a24"},"vehicle_type_id":"4","last_reported":1687086292,"current_range_meters":15200,"station_id":"ce4bhch2rcd13ifvqeug","pricing_plan_id":"free"},{"bike_id":"576e4348-ae36-4d53-b57d-fa557aea4d4d","system_id":"levelo_inurba_marseille","lat":43.285856,"lon":5.350771,"is_reserved":false,"is_disabled":false,"rental_uris":{"android":"levelo://app?vid=576e4348-ae36-4d53-b57d-fa557aea4d4d","ios":"levelo://app?vid=576e4348-ae36-4d53-b57d-fa557aea4d4d"},"vehicle_type_id":"4","last_reported":1687086292,"current_range_meters":24400,"station_id":"ce4bhch2rcd13ifvqeug","pricing_plan_id":"free"},{"bike_id":"af4dd12b-1912-4e6d-b53a-039796841ae0","system_id":"levelo_inurba_marseille","lat":43.285856,"lon":5.350771,"is_reserved":false,"is_disabled":false,"rental_uris":{"android":"levelo://app?vid=af4dd12b-1912-4e6d-b53a-039796841ae0","ios":"levelo://app?vid=af4dd12b-1912-4e6d-b53a-039796841ae0"},"vehicle_type_id":"4","last_reported":1687086292,"current_range_meters":17200,"station_id":"ce4bhch2rcd13ifvqeug","pricing_plan_id":"free"},{"bike_id":"2f45ea44-29fe-4d1f-ac6d-237f6e705c23","system_id":"levelo_inurba_marseille","lat":43.28615,"lon":5.35105,"is_reserved":false,"is_disabled":false,"rental_uris":{"android":"levelo://app?vid=2f45ea44-29fe-4d1f-ac6d-237f6e705c23","ios":"levelo://app?vid=2f45ea44-29fe-4d1f-ac6d-237f6e705c23"},"vehicle_type_id":"4","last_reported":1687086292,"current_range_meters":20800,"station_id":"ce4bhch2rcd13ifvqeug","pricing_plan_id":"free"},{"bike_id":"7351815f-9f67-4ce5-97c0-637c1081b300","system_id":"levelo_inurba_marseille","lat":43.285856,"lon":5.350771,"is_reserved":false,"is_disabled":false,"rental_uris":{"android":"levelo://app?vid=7351815f-9f67-4ce5-97c0-637c1081b300","ios":"levelo://app?vid=7351815f-9f67-4ce5-97c0-637c1081b300"},"vehicle_type_id":"4","last_reported":1687086292,"current_range_meters":13600,"station_id":"ce4bhch2rcd13ifvqeug","pricing_plan_id":"free"},{"bike_id":"9c3ef927-d07b-479f-90fa-2a9187f5c8c6","system_id":"levelo_inurba_marseille","lat":43.285856,"lon":5.350771,"is_reserved":false,"is_disabled":false,"rental_uris":{"android":"levelo://app?vid=9c3ef927-d07b-479f-90fa-2a9187f5c8c6","ios":"levelo://app?vid=9c3ef927-d07b-479f-90fa-2a9187f5c8c6"},"vehicle_type_id":"4","last_reported":1687086292,"current_range_meters":7200,"station_id":"ce4bhch2rcd13ifvqeug","pricing_plan_id":"free"},{"bike_id":"af29ed08-afe9-4c1b-842d-6677b0025af2","system_id":"levelo_inurba_marseille","lat":43.285856,"lon":5.350771,"is_reserved":false,"is_disabled":false,"rental_uris":{"android":"levelo://app?vid=af29ed08-afe9-4c1b-842d-6677b0025af2","ios":"levelo://app?vid=af29ed08-afe9-4c1b-842d-6677b0025af2"},"vehicle_type_id":"4","last_reported":1687086292,"current_range_meters":13600,"station_id":"ce4bhch2rcd13ifvqeug","pricing_plan_id":"free"},{"bike_id":"646342b4-601e-441b-bfaf-82400a1b4de7","system_id":"levelo_inurba_marseille","lat":43.28612,"lon":5.35108,"is_reserved":false,"is_disabled":false,"rental_uris":{"android":"levelo://app?vid=646342b4-601e-441b-bfaf-82400a1b4de7","ios":"levelo://app?vid=646342b4-601e-441b-bfaf-82400a1b4de7"},"vehicle_type_id":"4","last_reported":1687086292,"current_range_meters":12400,"station_id":"ce4bhch2rcd13ifvqeug","pricing_plan_id":"free"},{"bike_id":"25840b2d-ea39-4d0a-840a-3687fe39f1c2","system_id":"levelo_inurba_marseille","lat":43.28612,"lon":5.35105,"is_reserved":false,"is_disabled":false,"rental_uris":{"android":"levelo://app?vid=25840b2d-ea39-4d0a-840a-3687fe39f1c2","ios":"levelo://app?vid=25840b2d-ea39-4d0a-840a-3687fe39f1c2"},"vehicle_type_id":"4","last_reported":1687086292,"current_range_meters":18000,"station_id":"ce4bhch2rcd13ifvqeug","pricing_plan_id":"free"},{"bike_id":"af8a55e4-5fd6-495c-9fab-05b01d873d72","system_id":"levelo_inurba_marseille","lat":43.285856,"lon":5.350771,"is_reserved":false,"is_disabled":false,"rental_uris":{"android":"levelo://app?vid=af8a55e4-5fd6-495c-9fab-05b01d873d72","ios":"levelo://app?vid=af8a55e4-5fd6-495c-9fab-05b01d873d72"},"vehicle_type_id":"4","last_reported":1687086292,"current_range_meters":31200,"station_id":"ce4bhch2rcd13ifvqeug","pricing_plan_id":"free"},{"bike_id":"ff6bb60a-d9fc-4a26-8aef-1d2cbbaf4c01","system_id":"levelo_inurba_marseille","lat":43.285856,"lon":5.350771,"is_reserved":false,"is_disabled":false,"rental_uris":{"android":"levelo://app?vid=ff6bb60a-d9fc-4a26-8aef-1d2cbbaf4c01","ios":"levelo://app?vid=ff6bb60a-d9fc-4a26-8aef-1d2cbbaf4c01"},"vehicle_type_id":"4","last_reported":1687086292,"current_range_meters":28400,"station_id":"ce4bhch2rcd13ifvqeug","pricing_plan_id":"free"},{"bike_id":"11270292-fe9c-4cb1-ac90-1272dbdeccda","system_id":"levelo_inurba_marseille","lat":43.286595,"lon":5.386795,"is_reserved":false,"is_disabled":false,"rental_uris":{"android":"levelo://app?vid=11270292-fe9c-4cb1-ac90-1272dbdeccda","ios":"levelo://app?vid=11270292-fe9c-4cb1-ac90-1272dbdeccda"},"vehicle_type_id":"4","last_reported":1687086292,"current_range_meters":0,"station_id":"ce4bh492rcd13ifvqdug","pricing_plan_id":"free"},{"bike_id":"7c44c586-3b54-4304-b792-e3fa74fa9e97","system_id":"levelo_inurba_marseille","lat":43.28673,"lon":5.38668,"is_reserved":false,"is_disabled":false,"rental_uris":{"android":"levelo://app?vid=7c44c586-3b54-4304-b792-e3fa74fa9e97","ios":"levelo://app?vid=7c44c586-3b54-4304-b792-e3fa74fa9e97"},"vehicle_type_id":"4","last_reported":1687086292,"current_range_meters":8800,"station_id":"ce4bh492rcd13ifvqdug","pricing_plan_id":"free"},{"bike_id":"43275ef6-770c-4f0e-926c-1c3aecd7abec","system_id":"levelo_inurba_marseille","lat":43.287909,"lon":5.390554,"is_reserved":false,"is_disabled":false,"rental_uris":{"android":"levelo://app?vid=43275ef6-770c-4f0e-926c-1c3aecd7abec","ios":"levelo://app?vid=43275ef6-770c-4f0e-926c-1c3aecd7abec"},"vehicle_type_id":"4","last_reported":1687086292,"current_range_meters":12800,"station_id":"","pricing_plan_id":"free"},{"bike_id":"536b47a7-25f9-49cb-9608-1b3c49b68cf4","system_id":"levelo_inurba_marseille","lat":43.33716,"lon":5.39184,"is_reserved":false,"is_disabled":false,"rental_uris":{"android":"levelo://app?vid=536b47a7-25f9-49cb-9608-1b3c49b68cf4","ios":"levelo://app?vid=536b47a7-25f9-49cb-9608-1b3c49b68cf4"},"vehicle_type_id":"4","last_reported":1687086292,"current_range_meters":11200,"station_id":"","pricing_plan_id":"free"},{"bike_id":"e31dd5ec-111c-4c37-abde-ca5e54fbd5e9","system_id":"levelo_inurba_marseille","lat":43.323464,"lon":5.406297,"is_reserved":false,"is_disabled":false,"rental_uris":{"android":"levelo://app?vid=e31dd5ec-111c-4c37-abde-ca5e54fbd5e9","ios":"levelo://app?vid=e31dd5ec-111c-4c37-abde-ca5e54fbd5e9"},"vehicle_type_id":"4","last_reported":1687086292,"current_range_meters":31600,"station_id":"ce4bhq92rcd13ifvqhjg","pricing_plan_id":"free"},{"bike_id":"16e5fedd-6e86-436a-a0a2-72c7cd60a6ea","system_id":"levelo_inurba_marseille","lat":43.323464,"lon":5.406297,"is_reserved":false,"is_disabled":false,"rental_uris":{"android":"levelo://app?vid=16e5fedd-6e86-436a-a0a2-72c7cd60a6ea","ios":"levelo://app?vid=16e5fedd-6e86-436a-a0a2-72c7cd60a6ea"},"vehicle_type_id":"4","last_reported":1687086292,"current_range_meters":31600,"station_id":"ce4bhq92rcd13ifvqhjg","pricing_plan_id":"free"},{"bike_id":"72611642-d420-4b07-b473-f6153c62d01f","system_id":"levelo_inurba_marseille","lat":43.32342,"lon":5.40621,"is_reserved":false,"is_disabled":false,"rental_uris":{"android":"levelo://app?vid=72611642-d420-4b07-b473-f6153c62d01f","ios":"levelo://app?vid=72611642-d420-4b07-b473-f6153c62d01f"},"vehicle_type_id":"4","last_reported":1687086292,"current_range_meters":31200,"station_id":"ce4bhq92rcd13ifvqhjg","pricing_plan_id":"free"},{"bike_id":"4c7bb745-bc5b-4e15-ab18-6954b71e42f4","system_id":"levelo_inurba_marseille","lat":43.32344,"lon":5.40621,"is_reserved":false,"is_disabled":false,"rental_uris":{"android":"levelo://app?vid=4c7bb745-bc5b-4e15-ab18-6954b71e42f4","ios":"levelo://app?vid=4c7bb745-bc5b-4e15-ab18-6954b71e42f4"},"vehicle_type_id":"4","last_reported":1687086292,"current_range_meters":23200,"station_id":"ce4bhq92rcd13ifvqhjg","pricing_plan_id":"free"},{"bike_id":"00b4d942-d645-4a17-a320-9c02b5ecca68","system_id":"levelo_inurba_marseille","lat":43.288497,"lon":5.393089,"is_reserved":false,"is_disabled":false,"rental_uris":{"android":"levelo://app?vid=00b4d942-d645-4a17-a320-9c02b5ecca68","ios":"levelo://app?vid=00b4d942-d645-4a17-a320-9c02b5ecca68"},"vehicle_type_id":"4","last_reported":1687086292,"current_range_meters":22400,"station_id":"ce4bh2p2rcd13ifvqdi0","pricing_plan_id":"free"},{"bike_id":"67c102d5-445b-413e-8f04-0d8b1d6a1ba7","system_id":"levelo_inurba_marseille","lat":43.2842,"lon":5.34982,"is_reserved":false,"is_disabled":false,"rental_uris":{"android":"levelo://app?vid=67c102d5-445b-413e-8f04-0d8b1d6a1ba7","ios":"levelo://app?vid=67c102d5-445b-413e-8f04-0d8b1d6a1ba7"},"vehicle_type_id":"4","last_reported":1687086292,"current_range_meters":30000,"station_id":"ce4bhbh2rcd13ifvqepg","pricing_plan_id":"free"},{"bike_id":"cfbe5c99-3ef1-467f-a9f4-775e0efe1777","system_id":"levelo_inurba_marseille","lat":43.2842,"lon":5.34982,"is_reserved":false,"is_disabled":false,"rental_uris":{"android":"levelo://app?vid=cfbe5c99-3ef1-467f-a9f4-775e0efe1777","ios":"levelo://app?vid=cfbe5c99-3ef1-467f-a9f4-775e0efe1777"},"vehicle_type_id":"4","last_reported":1687086292,"current_range_meters":26000,"station_id":"ce4bhbh2rcd13ifvqepg","pricing_plan_id":"free"},{"bike_id":"a2faeb74-c96c-4a11-b169-e5acc36ad081","system_id":"levelo_inurba_marseille","lat":43.28417,"lon":5.34987,"is_reserved":false,"is_disabled":false,"rental_uris":{"android":"levelo://app?vid=a2faeb74-c96c-4a11-b169-e5acc36ad081","ios":"levelo://app?vid=a2faeb74-c96c-4a11-b169-e5acc36ad081"},"vehicle_type_id":"4","last_reported":1687086292,"current_range_meters":28400,"station_id":"ce4bhbh2rcd13ifvqepg","pricing_plan_id":"free"},{"bike_id":"ae280e74-f758-40b4-824d-6dca93447e32","system_id":"levelo_inurba_marseille","lat":43.28421,"lon":5.34974,"is_reserved":false,"is_disabled":false,"rental_uris":{"android":"levelo://app?vid=ae280e74-f758-40b4-824d-6dca93447e32","ios":"levelo://app?vid=ae280e74-f758-40b4-824d-6dca93447e32"},"vehicle_type_id":"4","last_reported":1687086292,"current_range_meters":4400,"station_id":"ce4bhbh2rcd13ifvqepg","pricing_plan_id":"free"},{"bike_id":"292db270-d322-41f1-8752-c3c358872b40","system_id":"levelo_inurba_marseille","lat":43.2842,"lon":5.34976,"is_reserved":false,"is_disabled":false,"rental_uris":{"android":"levelo://app?vid=292db270-d322-41f1-8752-c3c358872b40","ios":"levelo://app?vid=292db270-d322-41f1-8752-c3c358872b40"},"vehicle_type_id":"4","last_reported":1687086292,"current_range_meters":10000,"station_id":"ce4bhbh2rcd13ifvqepg","pricing_plan_id":"free"},{"bike_id":"1a55a783-27b2-4926-906d-f42f27707d72","system_id":"levelo_inurba_marseille","lat":43.2842,"lon":5.34975,"is_reserved":false,"is_disabled":false,"rental_uris":{"android":"levelo://app?vid=1a55a783-27b2-4926-906d-f42f27707d72","ios":"levelo://app?vid=1a55a783-27b2-4926-906d-f42f27707d72"},"vehicle_type_id":"4","last_reported":1687086292,"current_range_meters":11600,"station_id":"ce4bhbh2rcd13ifvqepg","pricing_plan_id":"free"},{"bike_id":"6c5b4e1b-0910-4a59-addf-87b009f879c1","system_id":"levelo_inurba_marseille","lat":43.28419,"lon":5.34974,"is_reserved":false,"is_disabled":false,"rental_uris":{"android":"levelo://app?vid=6c5b4e1b-0910-4a59-addf-87b009f879c1","ios":"levelo://app?vid=6c5b4e1b-0910-4a59-addf-87b009f879c1"},"vehicle_type_id":"4","last_reported":1687086292,"current_range_meters":5600,"station_id":"ce4bhbh2rcd13ifvqepg","pricing_plan_id":"free"},{"bike_id":"8c092103-b929-4007-a0ec-9988db866eb2","system_id":"levelo_inurba_marseille","lat":43.284217,"lon":5.349697,"is_reserved":false,"is_disabled":false,"rental_uris":{"android":"levelo://app?vid=8c092103-b929-4007-a0ec-9988db866eb2","ios":"levelo://app?vid=8c092103-b929-4007-a0ec-9988db866eb2"},"vehicle_type_id":"4","last_reported":1687086292,"current_range_meters":21600,"station_id":"ce4bhbh2rcd13ifvqepg","pricing_plan_id":"free"},{"bike_id":"c736c3c1-d144-45f8-ad42-5cd5f9229f14","system_id":"levelo_inurba_marseille","lat":43.284217,"lon":5.349697,"is_reserved":false,"is_disabled":false,"rental_uris":{"android":"levelo://app?vid=c736c3c1-d144-45f8-ad42-5cd5f9229f14","ios":"levelo://app?vid=c736c3c1-d144-45f8-ad42-5cd5f9229f14"},"vehicle_type_id":"4","last_reported":1687086292,"current_range_meters":30400,"station_id":"ce4bhbh2rcd13ifvqepg","pricing_plan_id":"free"},{"bike_id":"aba29aaf-bbd0-4941-922b-176a349ae6a6","system_id":"levelo_inurba_marseille","lat":43.284217,"lon":5.349697,"is_reserved":false,"is_disabled":false,"rental_uris":{"android":"levelo://app?vid=aba29aaf-bbd0-4941-922b-176a349ae6a6","ios":"levelo://app?vid=aba29aaf-bbd0-4941-922b-176a349ae6a6"},"vehicle_type_id":"4","last_reported":1687086292,"current_range_meters":30400,"station_id":"ce4bhbh2rcd13ifvqepg","pricing_plan_id":"free"},{"bike_id":"b58fbe21-f58d-490f-ad8b-0700a030ccf2","system_id":"levelo_inurba_marseille","lat":43.292724,"lon":5.401131,"is_reserved":false,"is_disabled":false,"rental_uris":{"android":"levelo://app?vid=b58fbe21-f58d-490f-ad8b-0700a030ccf2","ios":"levelo://app?vid=b58fbe21-f58d-490f-ad8b-0700a030ccf2"},"vehicle_type_id":"4","last_reported":1687086292,"current_range_meters":13200,"station_id":"ce4bh312rcd13ifvqdk0","pricing_plan_id":"free"},{"bike_id":"147c89bd-e61a-408d-a1ea-801ab774973c","system_id":"levelo_inurba_marseille","lat":43.282744,"lon":5.350533,"is_reserved":false,"is_disabled":false,"rental_uris":{"android":"levelo://app?vid=147c89bd-e61a-408d-a1ea-801ab774973c","ios":"levelo://app?vid=147c89bd-e61a-408d-a1ea-801ab774973c"},"vehicle_type_id":"4","last_reported":1687086292,"current_range_meters":31600,"station_id":"ce4bhbp2rcd13ifvqerg","pricing_plan_id":"free"},{"bike_id":"9e07b556-c094-4196-83a7-10027ba50214","system_id":"levelo_inurba_marseille","lat":43.282754,"lon":5.350519,"is_reserved":false,"is_disabled":false,"rental_uris":{"android":"levelo://app?vid=9e07b556-c094-4196-83a7-10027ba50214","ios":"levelo://app?vid=9e07b556-c094-4196-83a7-10027ba50214"},"vehicle_type_id":"4","last_reported":1687086292,"current_range_meters":0,"station_id":"ce4bhbp2rcd13ifvqerg","pricing_plan_id":"free"},{"bike_id":"5227146c-c814-4a8f-b65b-9a2930b680e4","system_id":"levelo_inurba_marseille","lat":43.282754,"lon":5.350519,"is_reserved":false,"is_disabled":false,"rental_uris":{"android":"levelo://app?vid=5227146c-c814-4a8f-b65b-9a2930b680e4","ios":"levelo://app?vid=5227146c-c814-4a8f-b65b-9a2930b680e4"},"vehicle_type_id":"4","last_reported":1687086292,"current_range_meters":31600,"station_id":"ce4bhbp2rcd13ifvqerg","pricing_plan_id":"free"},{"bike_id":"9b58e796-31a7-47a2-a4de-b68e7947a53f","system_id":"levelo_inurba_marseille","lat":43.28274,"lon":5.35065,"is_reserved":false,"is_disabled":false,"rental_uris":{"android":"levelo://app?vid=9b58e796-31a7-47a2-a4de-b68e7947a53f","ios":"levelo://app?vid=9b58e796-31a7-47a2-a4de-b68e7947a53f"},"vehicle_type_id":"4","last_reported":1687086292,"current_range_meters":21600,"station_id":"ce4bhbp2rcd13ifvqerg","pricing_plan_id":"free"},{"bike_id":"b18dd7a3-e717-4ae1-ab50-9d1404a02c8e","system_id":"levelo_inurba_marseille","lat":43.28274,"lon":5.35065,"is_reserved":false,"is_disabled":false,"rental_uris":{"android":"levelo://app?vid=b18dd7a3-e717-4ae1-ab50-9d1404a02c8e","ios":"levelo://app?vid=b18dd7a3-e717-4ae1-ab50-9d1404a02c8e"},"vehicle_type_id":"4","last_reported":1687086292,"current_range_meters":17600,"station_id":"ce4bhbp2rcd13ifvqerg","pricing_plan_id":"free"},{"bike_id":"b39d2246-cf3c-44b8-9286-f513be6b6894","system_id":"levelo_inurba_marseille","lat":43.28273,"lon":5.35059,"is_reserved":false,"is_disabled":false,"rental_uris":{"android":"levelo://app?vid=b39d2246-cf3c-44b8-9286-f513be6b6894","ios":"levelo://app?vid=b39d2246-cf3c-44b8-9286-f513be6b6894"},"vehicle_type_id":"4","last_reported":1687086292,"current_range_meters":8800,"station_id":"ce4bhbp2rcd13ifvqerg","pricing_plan_id":"free"},{"bike_id":"1e8c087e-b30d-4654-8319-20695873f33c","system_id":"levelo_inurba_marseille","lat":43.282754,"lon":5.350519,"is_reserved":false,"is_disabled":false,"rental_uris":{"android":"levelo://app?vid=1e8c087e-b30d-4654-8319-20695873f33c","ios":"levelo://app?vid=1e8c087e-b30d-4654-8319-20695873f33c"},"vehicle_type_id":"4","last_reported":1687086292,"current_range_meters":32000,"station_id":"ce4bhbp2rcd13ifvqerg","pricing_plan_id":"free"},{"bike_id":"abb66f2e-6a3a-4784-a61a-436dae2c1c09","system_id":"levelo_inurba_marseille","lat":43.282754,"lon":5.350519,"is_reserved":false,"is_disabled":false,"rental_uris":{"android":"levelo://app?vid=abb66f2e-6a3a-4784-a61a-436dae2c1c09","ios":"levelo://app?vid=abb66f2e-6a3a-4784-a61a-436dae2c1c09"},"vehicle_type_id":"4","last_reported":1687086292,"current_range_meters":22400,"station_id":"ce4bhbp2rcd13ifvqerg","pricing_plan_id":"free"},{"bike_id":"eb3feaaf-1eca-45f7-874b-610705a44cdc","system_id":"levelo_inurba_marseille","lat":43.282744,"lon":5.350533,"is_reserved":false,"is_disabled":false,"rental_uris":{"android":"levelo://app?vid=eb3feaaf-1eca-45f7-874b-610705a44cdc","ios":"levelo://app?vid=eb3feaaf-1eca-45f7-874b-610705a44cdc"},"vehicle_type_id":"4","last_reported":1687086292,"current_range_meters":17600,"station_id":"ce4bhbp2rcd13ifvqerg","pricing_plan_id":"free"},{"bike_id":"063c6575-d05c-4d8b-944d-e9779f187c5b","system_id":"levelo_inurba_marseille","lat":43.282744,"lon":5.350533,"is_reserved":false,"is_disabled":false,"rental_uris":{"android":"levelo://app?vid=063c6575-d05c-4d8b-944d-e9779f187c5b","ios":"levelo://app?vid=063c6575-d05c-4d8b-944d-e9779f187c5b"},"vehicle_type_id":"4","last_reported":1687086292,"current_range_meters":29600,"station_id":"ce4bhbp2rcd13ifvqerg","pricing_plan_id":"free"},{"bike_id":"0ad23a9e-a99f-4a3b-bce0-da9bab31c7a9","system_id":"levelo_inurba_marseille","lat":43.282744,"lon":5.350533,"is_reserved":false,"is_disabled":false,"rental_uris":{"android":"levelo://app?vid=0ad23a9e-a99f-4a3b-bce0-da9bab31c7a9","ios":"levelo://app?vid=0ad23a9e-a99f-4a3b-bce0-da9bab31c7a9"},"vehicle_type_id":"4","last_reported":1687086292,"current_range_meters":31200,"station_id":"ce4bhbp2rcd13ifvqerg","pricing_plan_id":"free"},{"bike_id":"c1c6d937-2ef1-44fb-81d3-7276532d839c","system_id":"levelo_inurba_marseille","lat":43.2827,"lon":5.35058,"is_reserved":false,"is_disabled":false,"rental_uris":{"android":"levelo://app?vid=c1c6d937-2ef1-44fb-81d3-7276532d839c","ios":"levelo://app?vid=c1c6d937-2ef1-44fb-81d3-7276532d839c"},"vehicle_type_id":"4","last_reported":1687086292,"current_range_meters":9200,"station_id":"ce4bhbp2rcd13ifvqerg","pricing_plan_id":"free"},{"bike_id":"3588da72-be6d-42db-a14a-b4478011b883","system_id":"levelo_inurba_marseille","lat":43.28266,"lon":5.35071,"is_reserved":false,"is_disabled":false,"rental_uris":{"android":"levelo://app?vid=3588da72-be6d-42db-a14a-b4478011b883","ios":"levelo://app?vid=3588da72-be6d-42db-a14a-b4478011b883"},"vehicle_type_id":"4","last_reported":1687086292,"current_range_meters":26400,"station_id":"ce4bhbp2rcd13ifvqerg","pricing_plan_id":"free"},{"bike_id":"a3ac772a-41e6-4c7c-b13d-3d8fac9c859e","system_id":"levelo_inurba_marseille","lat":43.282754,"lon":5.350519,"is_reserved":false,"is_disabled":false,"rental_uris":{"android":"levelo://app?vid=a3ac772a-41e6-4c7c-b13d-3d8fac9c859e","ios":"levelo://app?vid=a3ac772a-41e6-4c7c-b13d-3d8fac9c859e"},"vehicle_type_id":"4","last_reported":1687086292,"current_range_meters":26400,"station_id":"ce4bhbp2rcd13ifvqerg","pricing_plan_id":"free"},{"bike_id":"7f5fcc98-9021-4e57-9979-870cb9719b99","system_id":"levelo_inurba_marseille","lat":43.282744,"lon":5.350533,"is_reserved":false,"is_disabled":false,"rental_uris":{"android":"levelo://app?vid=7f5fcc98-9021-4e57-9979-870cb9719b99","ios":"levelo://app?vid=7f5fcc98-9021-4e57-9979-870cb9719b99"},"vehicle_type_id":"4","last_reported":1687086292,"current_range_meters":31600,"station_id":"ce4bhbp2rcd13ifvqerg","pricing_plan_id":"free"},{"bike_id":"ead173d2-9ed2-4b94-afca-28b3a862cb16","system_id":"levelo_inurba_marseille","lat":43.282754,"lon":5.350519,"is_reserved":false,"is_disabled":false,"rental_uris":{"android":"levelo://app?vid=ead173d2-9ed2-4b94-afca-28b3a862cb16","ios":"levelo://app?vid=ead173d2-9ed2-4b94-afca-28b3a862cb16"},"vehicle_type_id":"4","last_reported":1687086292,"current_range_meters":30000,"station_id":"ce4bhbp2rcd13ifvqerg","pricing_plan_id":"free"},{"bike_id":"47e1e83f-3455-47b5-ab5a-cbceb55948b3","system_id":"levelo_inurba_marseille","lat":43.29048,"lon":5.39937,"is_reserved":false,"is_disabled":false,"rental_uris":{"android":"levelo://app?vid=47e1e83f-3455-47b5-ab5a-cbceb55948b3","ios":"levelo://app?vid=47e1e83f-3455-47b5-ab5a-cbceb55948b3"},"vehicle_type_id":"4","last_reported":1687086292,"current_range_meters":11200,"station_id":"","pricing_plan_id":"free"},{"bike_id":"fb4104cf-c8e1-4f4a-81c3-909231eafd91","system_id":"levelo_inurba_marseille","lat":43.29636,"lon":5.40591,"is_reserved":false,"is_disabled":false,"rental_uris":{"android":"levelo://app?vid=fb4104cf-c8e1-4f4a-81c3-909231eafd91","ios":"levelo://app?vid=fb4104cf-c8e1-4f4a-81c3-909231eafd91"},"vehicle_type_id":"4","last_reported":1687086292,"current_range_meters":22800,"station_id":"ce4bh0h2rcd13ifvqd60","pricing_plan_id":"free"},{"bike_id":"3ef6f295-2240-4052-b79a-70b14d2f63ba","system_id":"levelo_inurba_marseille","lat":43.281044,"lon":5.378308,"is_reserved":false,"is_disabled":false,"rental_uris":{"android":"levelo://app?vid=3ef6f295-2240-4052-b79a-70b14d2f63ba","ios":"levelo://app?vid=3ef6f295-2240-4052-b79a-70b14d2f63ba"},"vehicle_type_id":"4","last_reported":1687086292,"current_range_meters":27200,"station_id":"ce4bha12rcd13ifvqee0","pricing_plan_id":"free"},{"bike_id":"8bcd5082-4e0a-4f92-85e3-4710058af1b0","system_id":"levelo_inurba_marseille","lat":43.29639,"lon":5.40598,"is_reserved":false,"is_disabled":false,"rental_uris":{"android":"levelo://app?vid=8bcd5082-4e0a-4f92-85e3-4710058af1b0","ios":"levelo://app?vid=8bcd5082-4e0a-4f92-85e3-4710058af1b0"},"vehicle_type_id":"4","last_reported":1687086292,"current_range_meters":2000,"station_id":"","pricing_plan_id":"free"},{"bike_id":"03e9ae6e-9fbc-4e4f-8fcd-208deb076873","system_id":"levelo_inurba_marseille","lat":43.29636,"lon":5.40596,"is_reserved":false,"is_disabled":false,"rental_uris":{"android":"levelo://app?vid=03e9ae6e-9fbc-4e4f-8fcd-208deb076873","ios":"levelo://app?vid=03e9ae6e-9fbc-4e4f-8fcd-208deb076873"},"vehicle_type_id":"4","last_reported":1687086292,"current_range_meters":31200,"station_id":"ce4bh0h2rcd13ifvqd60","pricing_plan_id":"free"},{"bike_id":"a723341f-b08a-4abb-b3b6-73c7ce1952d9","system_id":"levelo_inurba_marseille","lat":43.29629,"lon":5.40591,"is_reserved":false,"is_disabled":false,"rental_uris":{"android":"levelo://app?vid=a723341f-b08a-4abb-b3b6-73c7ce1952d9","ios":"levelo://app?vid=a723341f-b08a-4abb-b3b6-73c7ce1952d9"},"vehicle_type_id":"4","last_reported":1687086292,"current_range_meters":17200,"station_id":"ce4bh0h2rcd13ifvqd60","pricing_plan_id":"free"},{"bike_id":"2552993e-163b-4e0c-8ada-d8114d660f4f","system_id":"levelo_inurba_marseille","lat":43.29634,"lon":5.40599,"is_reserved":false,"is_disabled":false,"rental_uris":{"android":"levelo://app?vid=2552993e-163b-4e0c-8ada-d8114d660f4f","ios":"levelo://app?vid=2552993e-163b-4e0c-8ada-d8114d660f4f"},"vehicle_type_id":"4","last_reported":1687086292,"current_range_meters":22800,"station_id":"ce4bh0h2rcd13ifvqd60","pricing_plan_id":"free"},{"bike_id":"23995f37-d549-4a7c-803f-2d059ba429b0","system_id":"levelo_inurba_marseille","lat":43.28099,"lon":5.37845,"is_reserved":false,"is_disabled":false,"rental_uris":{"android":"levelo://app?vid=23995f37-d549-4a7c-803f-2d059ba429b0","ios":"levelo://app?vid=23995f37-d549-4a7c-803f-2d059ba429b0"},"vehicle_type_id":"4","last_reported":1687086292,"current_range_meters":23200,"station_id":"ce4bha12rcd13ifvqee0","pricing_plan_id":"free"},{"bike_id":"f1b2e4c0-f7ba-4ec4-9a98-cc247ac5e765","system_id":"levelo_inurba_marseille","lat":43.284462,"lon":5.392121,"is_reserved":false,"is_disabled":false,"rental_uris":{"android":"levelo://app?vid=f1b2e4c0-f7ba-4ec4-9a98-cc247ac5e765","ios":"levelo://app?vid=f1b2e4c0-f7ba-4ec4-9a98-cc247ac5e765"},"vehicle_type_id":"4","last_reported":1687086292,"current_range_meters":19600,"station_id":"ce4bhoh2rcd13ifvqh5g","pricing_plan_id":"free"},{"bike_id":"672ca5d9-8b55-4ab1-836e-86961f106880","system_id":"levelo_inurba_marseille","lat":43.3266,"lon":5.40985,"is_reserved":false,"is_disabled":false,"rental_uris":{"android":"levelo://app?vid=672ca5d9-8b55-4ab1-836e-86961f106880","ios":"levelo://app?vid=672ca5d9-8b55-4ab1-836e-86961f106880"},"vehicle_type_id":"4","last_reported":1687086292,"current_range_meters":30400,"station_id":"ce4bhpp2rcd13ifvqhgg","pricing_plan_id":"free"},{"bike_id":"134b50b1-98c1-452f-abf8-fc15a7646bbb","system_id":"levelo_inurba_marseille","lat":43.32655,"lon":5.40989,"is_reserved":false,"is_disabled":false,"rental_uris":{"android":"levelo://app?vid=134b50b1-98c1-452f-abf8-fc15a7646bbb","ios":"levelo://app?vid=134b50b1-98c1-452f-abf8-fc15a7646bbb"},"vehicle_type_id":"4","last_reported":1687086292,"current_range_meters":31200,"station_id":"ce4bhpp2rcd13ifvqhgg","pricing_plan_id":"free"},{"bike_id":"24cbc78d-f628-4185-ad65-aa2e8554e74e","system_id":"levelo_inurba_marseille","lat":43.32663,"lon":5.40992,"is_reserved":false,"is_disabled":false,"rental_uris":{"android":"levelo://app?vid=24cbc78d-f628-4185-ad65-aa2e8554e74e","ios":"levelo://app?vid=24cbc78d-f628-4185-ad65-aa2e8554e74e"},"vehicle_type_id":"4","last_reported":1687086292,"current_range_meters":31200,"station_id":"ce4bhpp2rcd13ifvqhgg","pricing_plan_id":"free"},{"bike_id":"7ff2d762-82f2-4c1f-90e3-1655b6b6a556","system_id":"levelo_inurba_marseille","lat":43.304188,"lon":5.412904,"is_reserved":false,"is_disabled":false,"rental_uris":{"android":"levelo://app?vid=7ff2d762-82f2-4c1f-90e3-1655b6b6a556","ios":"levelo://app?vid=7ff2d762-82f2-4c1f-90e3-1655b6b6a556"},"vehicle_type_id":"4","last_reported":1687086292,"current_range_meters":0,"station_id":"ce4bhop2rcd13ifvqh8g","pricing_plan_id":"free"},{"bike_id":"fbdd0ff4-77ba-4748-927b-03c14fbef21a","system_id":"levelo_inurba_marseille","lat":43.304188,"lon":5.412904,"is_reserved":false,"is_disabled":false,"rental_uris":{"android":"levelo://app?vid=fbdd0ff4-77ba-4748-927b-03c14fbef21a","ios":"levelo://app?vid=fbdd0ff4-77ba-4748-927b-03c14fbef21a"},"vehicle_type_id":"4","last_reported":1687086292,"current_range_meters":32000,"station_id":"ce4bhop2rcd13ifvqh8g","pricing_plan_id":"free"},