{"last_updated":1744719578,"ttl":60,"version":"2.2","data":{"bikes":[{"bike_id":"e96b3320-c739-4d9d-b38d-37f6ad68ae56","system_id":"levelo_inurba_marseille","lat":43.31236,"lon":5.36855,"is_reserved":false,"is_disabled":false,"rental_uris":{"android":"levelo://app?vid=e96b3320-c739-4d9d-b38d-37f6ad68ae56","ios":"levelo://app?vid=e96b3320-c739-4d9d-b38d-37f6ad68ae56"},"vehicle_type_id":"4","last_reported":1744719578,"current_range_meters":2800,"station_id":"ce4bgl92rcd13ifvqbq0","pricing_plan_id":"cebpf4jnsgd1na2vs0mg"},{"bike_id":"a7f508ae-5644-48b0-b637-206531d700a2","system_id":"levelo_inurba_marseille","lat":43.25937,"lon":5.40896,"is_reserved":false,"is_disabled":true,"rental_uris":{"android":"levelo://app?vid=a7f508ae-5644-48b0-b637-206531d700a2","ios":"levelo://app?vid=a7f508ae-5644-48b0-b637-206531d700a2"},"vehicle_type_id":"4","last_reported":1744719578,"current_range_meters":2800,"station_id":"ce4bhm92rcd13ifvqglg","pricing_plan_id":"cebpf4jnsgd1na2vs0mg"},{"bike_id":"6875dbe2-b2ac-47d7-a8b4-73fe7cd09128","system_id":"levelo_inurba_marseille","lat":43.2929,"lon":5.37452,"is_reserved":false,"is_disabled":false,"rental_uris":{"android":"levelo://app?vid=6875dbe2-b2ac-47d7-a8b4-73fe7cd09128","ios":"levelo://app?vid=6875dbe2-b2ac-47d7-a8b4-73fe7cd09128"},"vehicle_type_id":"4","last_reported":1744719578,"current_range_meters":2800,"station_id":"ce4bgi12rcd13ifvqb70","pricing_plan_id":"cebpf4jnsgd1na2vs0mg"},{"bike_id":"515271b0-9b96-43f1-9b62-f663213b7c02","system_id":"levelo_inurba_marseille","lat":43.29044,"lon":5.35684,"is_reserved":false,"is_disabled":false,"rental_uris":{"android":"levelo://app?vid=515271b0-9b96-43f1-9b62-f663213b7c02","ios":"levelo://app?vid=515271b0-9b96-43f1-9b62-f663213b7c02"},"vehicle_type_id":"4","last_reported":1744719578,"current_range_meters":2800,"station_id":"","pricing_plan_id":"cebpf4jnsgd1na2vs0mg"},{"bike_id":"1e28a0a0-8ca1-4255-9925-0bc79647d0a4","system_id":"levelo_inurba_marseille","lat":43.3113,"lon":5.3778,"is_reserved":false,"is_disabled":false,"rental_uris":{"android":"levelo://app?vid=1e28a0a0-8ca1-4255-9925-0bc79647d0a4","ios":"levelo://app?vid=1e28a0a0-8ca1-4255-9925-0bc79647d0a4"},"vehicle_type_id":"4","last_reported":1744719578,"current_range_meters":2800,"station_id":"ce4bgt92rcd13ifvqcg0","pricing_plan_id":"cebpf4jnsgd1na2vs0mg"},{"bike_id":"1e5d3b49-1af9-44e7-b54e-07dd0da6fbf7","system_id":"levelo_inurba_marseille","lat":43.26795,"lon":5.39413,"is_reserved":false,"is_disabled":false,"rental_uris":{"android":"levelo://app?vid=1e5d3b49-1af9-44e7-b54e-07dd0da6fbf7","ios":"levelo://app?vid=1e5d3b49-1af9-44e7-b54e-07dd0da6fbf7"},"vehicle_type_id":"4","last_reported":1744719578,"current_range_meters":2800,"station_id":"ce4bhh12rcd13ifvqfg0","pricing_plan_id":"cebpf4jnsgd1na2vs0mg"},{"bike_id":"763bde6e-44ec-4e3f-bbda-8bca2f2dd6c6","system_id":"levelo_inurba_marseille","lat":43.33019,"lon":5.39029,"is_reserved":false,"is_disabled":false,"rental_uris":{"android":"levelo://app?vid=763bde6e-44ec-4e3f-bbda-8bca2f2dd6c6","ios":"levelo://app?vid=763bde6e-44ec-4e3f-bbda-8bca2f2dd6c6"},"vehicle_type_id":"4","last_reported":1744719578,"current_range_meters":3200,"station_id":"ce4bhr92rcd13ifvqhrg","pricing_plan_id":"cebpf4jnsgd1na2vs0mg"},{"bike_id":"5dee014e-df77-4fa9-8bb6-c61be1b695f8","system_id":"levelo_inurba_marseille","lat":43.26191,"lon":5.37459,"is_reserved":false,"is_disabled":false,"rental_uris":{"android":"levelo://app?vid=5dee014e-df77-4fa9-8bb6-c61be1b695f8","ios":"levelo://app?vid=5dee014e-df77-4fa9-8bb6-c61be1b695f8"},"vehicle_type_id":"4","last_reported":1744719578,"current_range_meters":4400,"station_id":"ce4bhgp2rcd13ifvqfc0","pricing_plan_id":"cebpf4jnsgd1na2vs0mg"},{"bike_id":"92352422-3b67-4e26-af81-b3aecb405792","system_id":"levelo_inurba_marseille","lat":43.30828,"lon":5.39668,"is_reserved":false,"is_disabled":false,"rental_uris":{"android":"levelo://app?vid=92352422-3b67-4e26-af81-b3aecb405792","ios":"levelo://app?vid=92352422-3b67-4e26-af81-b3aecb405792"},"vehicle_type_id":"4","last_reported":1744719578,"current_range_meters":4400,"station_id":"ce4bh012rcd13ifvqcv0","pricing_plan_id":"cebpf4jnsgd1na2vs0mg"},{"bike_id":"4267604a-ba17-4938-8d9f-a315e4a496cc","system_id":"levelo_inurba_marseille","lat":43.29575,"lon":5.375,"is_reserved":false,"is_disabled":false,"rental_uris":{"android":"levelo://app?vid=4267604a-ba17-4938-8d9f-a315e4a496cc","ios":"levelo://app?vid=4267604a-ba17-4938-8d9f-a315e4a496cc"},"vehicle_type_id":"4","last_reported":1744719578,"current_range_meters":4400,"station_id":"ce4bgh92rcd13ifvqb50","pricing_plan_id":"cebpf4jnsgd1na2vs0mg"},{"bike_id":"96c3e5e4-5553-4a22-845b-0afc18ac9091","system_id":"levelo_inurba_marseille","lat":43.30463,"lon":5.37907,"is_reserved":false,"is_disabled":false,"rental_uris":{"android":"levelo://app?vid=96c3e5e4-5553-4a22-845b-0afc18ac9091","ios":"levelo://app?vid=96c3e5e4-5553-4a22-845b-0afc18ac9091"},"vehicle_type_id":"4","last_reported":1744719578,"current_range_meters":4800,"station_id":"ce4bgup2rcd13ifvqcn0","pricing_plan_id":"cebpf4jnsgd1na2vs0mg"},{"bike_id":"f796a6b6-726c-4117-8a13-d22355b9e52b","system_id":"levelo_inurba_marseille","lat":43.28851,"lon":5.39319,"is_reserved":false,"is_disabled":false,"rental_uris":{"android":"levelo://app?vid=f796a6b6-726c-4117-8a13-d22355b9e52b","ios":"levelo://app?vid=f796a6b6-726c-4117-8a13-d22355b9e52b"},"vehicle_type_id":"4","last_reported":1744719578,"current_range_meters":5600,"station_id":"ce4bh2p2rcd13ifvqdi0","pricing_plan_id":"cebpf4jnsgd1na2vs0mg"},{"bike_id":"2938bc9c-a915-484e-9b02-b4a924f19077","system_id":"levelo_inurba_marseille","lat":43.24172,"lon":5.36373,"is_reserved":false,"is_disabled":false,"rental_uris":{"android":"levelo://app?vid=2938bc9c-a915-484e-9b02-b4a924f19077","ios":"levelo://app?vid=2938bc9c-a915-484e-9b02-b4a924f19077"},"vehicle_type_id":"4","last_reported":1744719578,"current_range_meters":6000,"station_id":"cpo36qri1sfpv3e86is0","pricing_plan_id":"cebpf4jnsgd1na2vs0mg"},{"bike_id":"bdb69645-ec31-4514-bcda-8de862d35425","system_id":"levelo_inurba_marseille","lat":43.25719,"lon":5.41117,"is_reserved":false,"is_disabled":false,"rental_uris":{"android":"levelo://app?vid=bdb69645-ec31-4514-bcda-8de862d35425","ios":"levelo://app?vid=bdb69645-ec31-4514-bcda-8de862d35425"},"vehicle_type_id":"4","last_reported":1744719578,"current_range_meters":6000,"station_id":"ce4bhkp2rcd13ifvqgd0","pricing_plan_id":"cebpf4jnsgd1na2vs0mg"},{"bike_id":"c90796ad-a244-4ab0-99e6-ebb5d8f14975","system_id":"levelo_inurba_marseille","lat":43.30561,"lon":5.36515,"is_reserved":false,"is_disabled":false,"rental_uris":{"android":"levelo://app?vid=c90796ad-a244-4ab0-99e6-ebb5d8f14975","ios":"levelo://app?vid=c90796ad-a244-4ab0-99e6-ebb5d8f14975"},"vehicle_type_id":"4","last_reported":1744719578,"current_range_meters":6400,"station_id":"ce4bgs12rcd13ifvqcag","pricing_plan_id":"cebpf4jnsgd1na2vs0mg"},{"bike_id":"a7977848-b679-43e5-932f-85fd760cbc60","system_id":"levelo_inurba_marseille","lat":43.31535,"lon":5.38044,"is_reserved":false,"is_disabled":false,"rental_uris":{"android":"levelo://app?vid=a7977848-b679-43e5-932f-85fd760cbc60","ios":"levelo://app?vid=a7977848-b679-43e5-932f-85fd760cbc60"},"vehicle_type_id":"4","last_reported":1744719578,"current_range_meters":6400,"station_id":"ce4bhsp2rcd13ifvqi50","pricing_plan_id":"cebpf4jnsgd1na2vs0mg"},{"bike_id":"e7816af6-b51f-4a54-bfd2-977771406aea","system_id":"levelo_inurba_marseille","lat":43.23156,"lon":5.43731,"is_reserved":false,"is_disabled":false,"rental_uris":{"android":"levelo://app?vid=e7816af6-b51f-4a54-bfd2-977771406aea","ios":"levelo://app?vid=e7816af6-b51f-4a54-bfd2-977771406aea"},"vehicle_type_id":"4","last_reported":1744719578,"current_range_meters":6400,"station_id":"ce4bhmp2rcd13ifvqgog","pricing_plan_id":"cebpf4jnsgd1na2vs0mg"},{"bike_id":"19378efa-ee97-45b6-8bad-ce2d1d2a020d","system_id":"levelo_inurba_marseille","lat":43.30312,"lon":5.39222,"is_reserved":false,"is_disabled":true,"rental_uris":{"android":"levelo://app?vid=19378efa-ee97-45b6-8bad-ce2d1d2a020d","ios":"levelo://app?vid=19378efa-ee97-45b6-8bad-ce2d1d2a020d"},"vehicle_type_id":"4","last_reported":1744719578,"current_range_meters":6800,"station_id":"ce4bgkh2rcd13ifvqbk0","pricing_plan_id":"cebpf4jnsgd1na2vs0mg"},{"bike_id":"d521b1c3-d39b-4f66-8b66-c0d0e3dc0abc","system_id":"levelo_inurba_marseille","lat":43.30378,"lon":5.42483,"is_reserved":false,"is_disabled":false,"rental_uris":{"android":"levelo://app?vid=d521b1c3-d39b-4f66-8b66-c0d0e3dc0abc","ios":"levelo://app?vid=d521b1c3-d39b-4f66-8b66-c0d0e3dc0abc"},"vehicle_type_id":"4","last_reported":1744719578,"current_range_meters":6800,"station_id":"ce4bhoh2rcd13ifvqh6g","pricing_plan_id":"cebpf4jnsgd1na2vs0mg"},{"bike_id":"42bbe6d2-4e06-4c96-bdd6-86c1b1389ff5","system_id":"levelo_inurba_marseille","lat":43.29799,"lon":5.40406,"is_reserved":false,"is_disabled":false,"rental_uris":{"android":"levelo://app?vid=42bbe6d2-4e06-4c96-bdd6-86c1b1389ff5","ios":"levelo://app?vid=42bbe6d2-4e06-4c96-bdd6-86c1b1389ff5"},"vehicle_type_id":"4","last_reported":1744719578,"current_range_meters":7200,"station_id":"ce4bh112rcd13ifvqd90","pricing_plan_id":"cebpf4jnsgd1na2vs0mg"},{"bike_id":"50d1c769-78d0-4bbe-bcea-5856c9ba50eb","system_id":"levelo_inurba_marseille","lat":43.2794,"lon":5.41048,"is_reserved":false,"is_disabled":false,"rental_uris":{"android":"levelo://app?vid=50d1c769-78d0-4bbe-bcea-5856c9ba50eb","ios":"levelo://app?vid=50d1c769-78d0-4bbe-bcea-5856c9ba50eb"},"vehicle_type_id":"4","last_reported":1744719578,"current_range_meters":7200,"station_id":"ce4bhnp2rcd13ifvqh0g","pricing_plan_id":"cebpf4jnsgd1na2vs0mg"},{"bike_id":"2840dd03-7e3c-473f-8550-a29070d3bba2","system_id":"levelo_inurba_marseille","lat":43.29482,"lon":5.38262,"is_reserved":false,"is_disabled":false,"rental_uris":{"android":"levelo://app?vid=2840dd03-7e3c-473f-8550-a29070d3bba2","ios":"levelo://app?vid=2840dd03-7e3c-473f-8550-a29070d3bba2"},"vehicle_type_id":"4","last_reported":1744719578,"current_range_meters":7200,"station_id":"","pricing_plan_id":"cebpf4jnsgd1na2vs0mg"},{"bike_id":"845417ce-58f8-4fd0-a812-396ebdabaa1c","system_id":"levelo_inurba_marseille","lat":43.25108,"lon":5.40324,"is_reserved":false,"is_disabled":false,"rental_uris":{"android":"levelo://app?vid=845417ce-58f8-4fd0-a812-396ebdabaa1c","ios":"levelo://app?vid=845417ce-58f8-4fd0-a812-396ebdabaa1c"},"vehicle_type_id":"4","last_reported":1744719578,"current_range_meters":7200,"station_id":"ce4bhlh2rcd13ifvqgig","pricing_plan_id":"cebpf4jnsgd1na2vs0mg"},{"bike_id":"2a428e68-fcf5-4c3f-937e-455519c232aa","system_id":"levelo_inurba_marseille","lat":43.297729,"lon":5.381087,"is_reserved":false,"is_disabled":true,"rental_uris":{"android":"levelo://app?vid=2a428e68-fcf5-4c3f-937e-455519c232aa","ios":"levelo://app?vid=2a428e68-fcf5-4c3f-937e-455519c232aa"},"vehicle_type_id":"4","last_reported":1744719578,"current_range_meters":8000,"station_id":"ce4bgip2rcd13ifvqbb0","pricing_plan_id":"cebpf4jnsgd1na2vs0mg"},{"bike_id":"8a58a04e-f069-487b-905a-c2f308a407cd","system_id":"levelo_inurba_marseille","lat":43.33019,"lon":5.39041,"is_reserved":false,"is_disabled":false,"rental_uris":{"android":"levelo://app?vid=8a58a04e-f069-487b-905a-c2f308a407cd","ios":"levelo://app?vid=8a58a04e-f069-487b-905a-c2f308a407cd"},"vehicle_type_id":"4","last_reported":1744719578,"current_range_meters":8000,"station_id":"ce4bhr92rcd13ifvqhrg","pricing_plan_id":"cebpf4jnsgd1na2vs0mg"},{"bike_id":"111872dc-41ae-4831-9879-87b83fe93a55","system_id":"levelo_inurba_marseille","lat":43.31106,"lon":5.37815,"is_reserved":false,"is_disabled":false,"rental_uris":{"android":"levelo://app?vid=111872dc-41ae-4831-9879-87b83fe93a55","ios":"levelo://app?vid=111872dc-41ae-4831-9879-87b83fe93a55"},"vehicle_type_id":"4","last_reported":1744719578,"current_range_meters":8400,"station_id":"ce4bgt92rcd13ifvqcg0","pricing_plan_id":"cebpf4jnsgd1na2vs0mg"},{"bike_id":"521ff293-089c-4d75-8412-a7493db9e608","system_id":"levelo_inurba_marseille","lat":43.28096,"lon":5.37868,"is_reserved":false,"is_disabled":false,"rental_uris":{"android":"levelo://app?vid=521ff293-089c-4d75-8412-a7493db9e608","ios":"levelo://app?vid=521ff293-089c-4d75-8412-a7493db9e608"},"vehicle_type_id":"4","last_reported":1744719578,"current_range_meters":8400,"station_id":"ce4bha12rcd13ifvqee0","pricing_plan_id":"cebpf4jnsgd1na2vs0mg"},{"bike_id":"465070c6-ec06-44fe-aaea-7b3bd0eb78f6","system_id":"levelo_inurba_marseille","lat":43.33612,"lon":5.41017,"is_reserved":false,"is_disabled":false,"rental_uris":{"android":"levelo://app?vid=465070c6-ec06-44fe-aaea-7b3bd0eb78f6","ios":"levelo://app?vid=465070c6-ec06-44fe-aaea-7b3bd0eb78f6"},"vehicle_type_id":"4","last_reported":1744719578,"current_range_meters":8400,"station_id":"ce4bhqh2rcd13ifvqhmg","pricing_plan_id":"cebpf4jnsgd1na2vs0mg"},{"bike_id":"6c1e846f-960a-47c5-8ada-2274ea7457a7","system_id":"levelo_inurba_marseille","lat":43.26804,"lon":5.40279,"is_reserved":false,"is_disabled":false,"rental_uris":{"android":"levelo://app?vid=6c1e846f-960a-47c5-8ada-2274ea7457a7","ios":"levelo://app?vid=6c1e846f-960a-47c5-8ada-2274ea7457a7"},"vehicle_type_id":"4","last_reported":1744719578,"current_range_meters":8400,"station_id":"ce501612rcd8frsf0b60","pricing_plan_id":"cebpf4jnsgd1na2vs0mg"},{"bike_id":"2f93173f-d02c-4e29-ab59-1fff882697d7","system_id":"levelo_inurba_marseille","lat":43.24043,"lon":5.37812,"is_reserved":false,"is_disabled":false,"rental_uris":{"android":"levelo://app?vid=2f93173f-d02c-4e29-ab59-1fff882697d7","ios":"levelo://app?vid=2f93173f-d02c-4e29-ab59-1fff882697d7"},"vehicle_type_id":"4","last_reported":1744719578,"current_range_meters":8400,"station_id":"","pricing_plan_id":"cebpf4jnsgd1na2vs0mg"},{"bike_id":"6cd5b479-d186-445f-9a00-d252e7f50032","system_id":"levelo_inurba_marseille","lat":43.24999,"lon":5.38942,"is_reserved":false,"is_disabled":false,"rental_uris":{"android":"levelo://app?vid=6cd5b479-d186-445f-9a00-d252e7f50032","ios":"levelo://app?vid=6cd5b479-d186-445f-9a00-d252e7f50032"},"vehicle_type_id":"4","last_reported":1744719578,"current_range_meters":8800,"station_id":"ce4bhgp2rcd13ifvqfd0","pricing_plan_id":"cebpf4jnsgd1na2vs0mg"},{"bike_id":"5f71bcd6-dad4-4aa7-af7a-856cdf4e712e","system_id":"levelo_inurba_marseille","lat":43.25952,"lon":5.40889,"is_reserved":false,"is_disabled":false,"rental_uris":{"android":"levelo://app?vid=5f71bcd6-dad4-4aa7-af7a-856cdf4e712e","ios":"levelo://app?vid=5f71bcd6-dad4-4aa7-af7a-856cdf4e712e"},"vehicle_type_id":"4","last_reported":1744719578,"current_range_meters":8800,"station_id":"ce4bhm92rcd13ifvqglg","pricing_plan_id":"cebpf4jnsgd1na2vs0mg"},{"bike_id":"78bb1255-19c9-430d-a542-4dd64c7e8d56","system_id":"levelo_inurba_marseille","lat":43.31225,"lon":5.36857,"is_reserved":false,"is_disabled":false,"rental_uris":{"android":"levelo://app?vid=78bb1255-19c9-430d-a542-4dd64c7e8d56","ios":"levelo://app?vid=78bb1255-19c9-430d-a542-4dd64c7e8d56"},"vehicle_type_id":"4","last_reported":1744719578,"current_range_meters":8800,"station_id":"ce4bgl92rcd13ifvqbq0","pricing_plan_id":"cebpf4jnsgd1na2vs0mg"},{"bike_id":"ef734429-5e24-498b-98db-95ee16873a56","system_id":"levelo_inurba_marseille","lat":43.270707,"lon":5.42271,"is_reserved":false,"is_disabled":false,"rental_uris":{"android":"levelo://app?vid=ef734429-5e24-498b-98db-95ee16873a56","ios":"levelo://app?vid=ef734429-5e24-498b-98db-95ee16873a56"},"vehicle_type_id":"4","last_reported":1744719578,"current_range_meters":9200,"station_id":"ce4bhk92rcd13ifvqgb0","pricing_plan_id":"cebpf4jnsgd1na2vs0mg"},{"bike_id":"660d2eb3-0dca-4724-8d5d-ef301fa8b51b","system_id":"levelo_inurba_marseille","lat":43.33021,"lon":5.3905,"is_reserved":false,"is_disabled":false,"rental_uris":{"android":"levelo://app?vid=660d2eb3-0dca-4724-8d5d-ef301fa8b51b","ios":"levelo://app?vid=660d2eb3-0dca-4724-8d5d-ef301fa8b51b"},"vehicle_type_id":"4","last_reported":1744719578,"current_range_meters":9200,"station_id":"ce4bhr92rcd13ifvqhrg","pricing_plan_id":"cebpf4jnsgd1na2vs0mg"},{"bike_id":"fdff6306-af1a-4d29-9356-d9b0cbb5f11d","system_id":"levelo_inurba_marseille","lat":43.23968,"lon":5.36636,"is_reserved":false,"is_disabled":false,"rental_uris":{"android":"levelo://app?vid=fdff6306-af1a-4d29-9356-d9b0cbb5f11d","ios":"levelo://app?vid=fdff6306-af1a-4d29-9356-d9b0cbb5f11d"},"vehicle_type_id":"4","last_reported":1744719578,"current_range_meters":4800,"station_id":"ce4bhi12rcd13ifvqfp0","pricing_plan_id":"cebpf4jnsgd1na2vs0mg"},{"bike_id":"c2599b18-ad7c-47f3-ad71-b33ed8017d7c","system_id":"levelo_inurba_marseille","lat":43.27996,"lon":5.41663,"is_reserved":false,"is_disabled":false,"rental_uris":{"android":"levelo://app?vid=c2599b18-ad7c-47f3-ad71-b33ed8017d7c","ios":"levelo://app?vid=c2599b18-ad7c-47f3-ad71-b33ed8017d7c"},"vehicle_type_id":"4","last_reported":1744719578,"current_range_meters":9200,"station_id":"ce4bho12rcd13ifvqh1g","pricing_plan_id":"cebpf4jnsgd1na2vs0mg"},{"bike_id":"c7cf98a0-2a9b-4e94-84c8-d25e45ab4cd8","system_id":"levelo_inurba_marseille","lat":43.28575,"lon":5.39507,"is_reserved":false,"is_disabled":false,"rental_uris":{"android":"levelo://app?vid=c7cf98a0-2a9b-4e94-84c8-d25e45ab4cd8","ios":"levelo://app?vid=c7cf98a0-2a9b-4e94-84c8-d25e45ab4cd8"},"vehicle_type_id":"4","last_reported":1744719578,"current_range_meters":9200,"station_id":"ce4bh292rcd13ifvqdg0","pricing_plan_id":"cebpf4jnsgd1na2vs0mg"},{"bike_id":"27a55245-8dd2-4f1a-af63-95a9d7b71690","system_id":"levelo_inurba_marseille","lat":43.31063,"lon":5.37836,"is_reserved":false,"is_disabled":false,"rental_uris":{"android":"levelo://app?vid=27a55245-8dd2-4f1a-af63-95a9d7b71690","ios":"levelo://app?vid=27a55245-8dd2-4f1a-af63-95a9d7b71690"},"vehicle_type_id":"4","last_reported":1744719578,"current_range_meters":10000,"station_id":"","pricing_plan_id":"cebpf4jnsgd1na2vs0mg"},{"bike_id":"bdfd6a7d-9584-410a-a499-6176968e23dd","system_id":"levelo_inurba_marseille","lat":43.29689,"lon":5.37308,"is_reserved":false,"is_disabled":false,"rental_uris":{"android":"levelo://app?vid=bdfd6a7d-9584-410a-a499-6176968e23dd","ios":"levelo://app?vid=bdfd6a7d-9584-410a-a499-6176968e23dd"},"vehicle_type_id":"4","last_reported":1744719578,"current_range_meters":10800,"station_id":"ce4bgk12rcd13ifvqbj0","pricing_plan_id":"cebpf4jnsgd1na2vs0mg"},{"bike_id":"76b474bb-51c3-4ddf-998b-32f36fbc53a0","system_id":"levelo_inurba_marseille","lat":43.27945,"lon":5.41059,"is_reserved":false,"is_disabled":false,"rental_uris":{"android":"levelo://app?vid=76b474bb-51c3-4ddf-998b-32f36fbc53a0","ios":"levelo://app?vid=76b474bb-51c3-4ddf-998b-32f36fbc53a0"},"vehicle_type_id":"4","last_reported":1744719578,"current_range_meters":10800,"station_id":"ce4bhnp2rcd13ifvqh0g","pricing_plan_id":"cebpf4jnsgd1na2vs0mg"},{"bike_id":"e2a758b5-ef8f-44fd-8895-127b2fb484c7","system_id":"levelo_inurba_marseille","lat":43.28966,"lon":5.37854,"is_reserved":false,"is_disabled":false,"rental_uris":{"android":"levelo://app?vid=e2a758b5-ef8f-44fd-8895-127b2fb484c7","ios":"levelo://app?vid=e2a758b5-ef8f-44fd-8895-127b2fb484c7"},"vehicle_type_id":"4","last_reported":1744719578,"current_range_meters":10800,"station_id":"ce4bh9p2rcd13ifvqed0","pricing_plan_id":"cebpf4jnsgd1na2vs0mg"},{"bike_id":"572f1bc3-546c-41e0-8730-39609b4006f1","system_id":"levelo_inurba_marseille","lat":43.32492,"lon":5.36586,"is_reserved":false,"is_disabled":false,"rental_uris":{"android":"levelo://app?vid=572f1bc3-546c-41e0-8730-39609b4006f1","ios":"levelo://app?vid=572f1bc3-546c-41e0-8730-39609b4006f1"},"vehicle_type_id":"4","last_reported":1744719578,"current_range_meters":10800,"station_id":"ce4bhs12rcd13ifvqhvg","pricing_plan_id":"cebpf4jnsgd1na2vs0mg"},{"bike_id":"45152fd8-c07c-4d52-b7a7-6670add35e00","system_id":"levelo_inurba_marseille","lat":43.2611,"lon":5.4208,"is_reserved":false,"is_disabled":false,"rental_uris":{"android":"levelo://app?vid=45152fd8-c07c-4d52-b7a7-6670add35e00","ios":"levelo://app?vid=45152fd8-c07c-4d52-b7a7-6670add35e00"},"vehicle_type_id":"4","last_reported":1744719578,"current_range_meters":10800,"station_id":"","pricing_plan_id":"cebpf4jnsgd1na2vs0mg"},{"bike_id":"e5153cbb-eac4-4b32-9d07-e32f67a7eb69","system_id":"levelo_inurba_marseille","lat":43.29628,"lon":5.37172,"is_reserved":false,"is_disabled":false,"rental_uris":{"android":"levelo://app?vid=e5153cbb-eac4-4b32-9d07-e32f67a7eb69","ios":"levelo://app?vid=e5153cbb-eac4-4b32-9d07-e32f67a7eb69"},"vehicle_type_id":"4","last_reported":1744719578,"current_range_meters":11200,"station_id":"ce4bgnh2rcd13ifvqc0g","pricing_plan_id":"cebpf4jnsgd1na2vs0mg"},{"bike_id":"4810a73d-5efd-4bc0-84ba-716d51691df5","system_id":"levelo_inurba_marseille","lat":43.24169,"lon":5.39684,"is_reserved":false,"is_disabled":false,"rental_uris":{"android":"levelo://app?vid=4810a73d-5efd-4bc0-84ba-716d51691df5","ios":"levelo://app?vid=4810a73d-5efd-4bc0-84ba-716d51691df5"},"vehicle_type_id":"4","last_reported":1744719578,"current_range_meters":11600,"station_id":"ce4bhn12rcd13ifvqgpg","pricing_plan_id":"cebpf4jnsgd1na2vs0mg"},{"bike_id":"a6b4f83f-3821-43df-a2af-8379d5ea08cc","system_id":"levelo_inurba_marseille","lat":43.3031,"lon":5.3691,"is_reserved":false,"is_disabled":false,"rental_uris":{"android":"levelo://app?vid=a6b4f83f-3821-43df-a2af-8379d5ea08cc","ios":"levelo://app?vid=a6b4f83f-3821-43df-a2af-8379d5ea08cc"},"vehicle_type_id":"4","last_reported":1744719578,"current_range_meters":11600,"station_id":"ce4bgqh2rcd13ifvqc5g","pricing_plan_id":"cebpf4jnsgd1na2vs0mg"},{"bike_id":"8cbfe1e4-76d5-40e1-b358-577eb4dee524","system_id":"levelo_inurba_marseille","lat":43.31133,"lon":5.37773,"is_reserved":false,"is_disabled":false,"rental_uris":{"android":"levelo://app?vid=8cbfe1e4-76d5-40e1-b358-577eb4dee524","ios":"levelo://app?vid=8cbfe1e4-76d5-40e1-b358-577eb4dee524"},"vehicle_type_id":"4","last_reported":1744719578,"current_range_meters":11600,"station_id":"ce4bgt92rcd13ifvqcg0","pricing_plan_id":"cebpf4jnsgd1na2vs0mg"},{"bike_id":"15941f3d-e844-4a1b-afa8-d1095c17b656","system_id":"levelo_inurba_marseille","lat":43.23156,"lon":5.4371,"is_reserved":false,"is_disabled":false,"rental_uris":{"android":"levelo://app?vid=15941f3d-e844-4a1b-afa8-d1095c17b656","ios":"levelo://app?vid=15941f3d-e844-4a1b-afa8-d1095c17b656"},"vehicle_type_id":"4","last_reported":1744719578,"current_range_meters":11600,"station_id":"ce4bhmp2rcd13ifvqgog","pricing_plan_id":"cebpf4jnsgd1na2vs0mg"},{"bike_id":"37342bdf-d586-43ba-a25b-da22b3393da6","system_id":"levelo_inurba_marseille","lat":43.29147,"lon":5.37461,"is_reserved":false,"is_disabled":false,"rental_uris":{"android":"levelo://app?vid=37342bdf-d586-43ba-a25b-da22b3393da6","ios":"levelo://app?vid=37342bdf-d586-43ba-a25b-da22b3393da6"},"vehicle_type_id":"4","last_reported":1744719578,"current_range_meters":11600,"station_id":"","pricing_plan_id":"cebpf4jnsgd1na2vs0mg"},{"bike_id":"c88c9232-d990-4082-ab87-d452c31b2d32","system_id":"levelo_inurba_marseille","lat":43.2926,"lon":5.40915,"is_reserved":false,"is_disabled":false,"rental_uris":{"android":"levelo://app?vid=c88c9232-d990-4082-ab87-d452c31b2d32","ios":"levelo://app?vid=c88c9232-d990-4082-ab87-d452c31b2d32"},"vehicle_type_id":"4","last_reported":1744719578,"current_range_meters":12000,"station_id":"ce4bh192rcd13ifvqdc0","pricing_plan_id":"cebpf4jnsgd1na2vs0mg"},{"bike_id":"93676aa8-d320-4c2d-8b07-a119495392e0","system_id":"levelo_inurba_marseille","lat":43.30317,"lon":5.36901,"is_reserved":false,"is_disabled":false,"rental_uris":{"android":"levelo://app?vid=93676aa8-d320-4c2d-8b07-a119495392e0","ios":"levelo://app?vid=93676aa8-d320-4c2d-8b07-a119495392e0"},"vehicle_type_id":"4","last_reported":1744719578,"current_range_meters":12000,"station_id":"ce4bgqh2rcd13ifvqc5g","pricing_plan_id":"cebpf4jnsgd1na2vs0mg"},{"bike_id":"b30b4e21-7857-49b8-bc74-77182c7d3aec","system_id":"levelo_inurba_marseille","lat":43.27617,"lon":5.36118,"is_reserved":false,"is_disabled":false,"rental_uris":{"android":"levelo://app?vid=b30b4e21-7857-49b8-bc74-77182c7d3aec","ios":"levelo://app?vid=b30b4e21-7857-49b8-bc74-77182c7d3aec"},"vehicle_type_id":"4","last_reported":1744719578,"current_range_meters":12000,"station_id":"ce4bgj92rcd13ifvqbe0","pricing_plan_id":"cebpf4jnsgd1na2vs0mg"},{"bike_id":"54d93669-ba49-4c3f-bc88-05529ed793cd","system_id":"levelo_inurba_marseille","lat":43.30535,"lon":5.36532,"is_reserved":false,"is_disabled":false,"rental_uris":{"android":"levelo://app?vid=54d93669-ba49-4c3f-bc88-05529ed793cd","ios":"levelo://app?vid=54d93669-ba49-4c3f-bc88-05529ed793cd"},"vehicle_type_id":"4","last_reported":1744719578,"current_range_meters":12000,"station_id":"ce4bgs12rcd13ifvqcag","pricing_plan_id":"cebpf4jnsgd1na2vs0mg"},{"bike_id":"5236d04d-7a25-42e7-905b-1c4d0427728e","system_id":"levelo_inurba_marseille","lat":43.26561,"lon":5.39009,"is_reserved":false,"is_disabled":false,"rental_uris":{"android":"levelo://app?vid=5236d04d-7a25-42e7-905b-1c4d0427728e","ios":"levelo://app?vid=5236d04d-7a25-42e7-905b-1c4d0427728e"},"vehicle_type_id":"4","last_reported":1744719578,"current_range_meters":12400,"station_id":"ce4bhe12rcd13ifvqf30","pricing_plan_id":"cebpf4jnsgd1na2vs0mg"},{"bike_id":"9c364736-40cc-4068-ad7e-8f047e196713","system_id":"levelo_inurba_marseille","lat":43.3088,"lon":5.3965,"is_reserved":false,"is_disabled":false,"rental_uris":{"android":"levelo://app?vid=9c364736-40cc-4068-ad7e-8f047e196713","ios":"levelo://app?vid=9c364736-40cc-4068-ad7e-8f047e196713"},"vehicle_type_id":"4","last_reported":1744719578,"current_range_meters":12800,"station_id":"ce4bh012rcd13ifvqcv0","pricing_plan_id":"cebpf4jnsgd1na2vs0mg"},{"bike_id":"129e1c37-93e9-483a-b799-a451e622173f","system_id":"levelo_inurba_marseille","lat":43.29619,"lon":5.37159,"is_reserved":false,"is_disabled":false,"rental_uris":{"android":"levelo://app?vid=129e1c37-93e9-483a-b799-a451e622173f","ios":"levelo://app?vid=129e1c37-93e9-483a-b799-a451e622173f"},"vehicle_type_id":"4","last_reported":1744719578,"current_range_meters":12800,"station_id":"ce4bgnh2rcd13ifvqc0g","pricing_plan_id":"cebpf4jnsgd1na2vs0mg"},{"bike_id":"b98ff1ad-137e-4458-8952-f2e9b7f08663","system_id":"levelo_inurba_marseille","lat":43.31381,"lon":5.36696,"is_reserved":false,"is_disabled":false,"rental_uris":{"android":"levelo://app?vid=b98ff1ad-137e-4458-8952-f2e9b7f08663","ios":"levelo://app?vid=b98ff1ad-137e-4458-8952-f2e9b7f08663"},"vehicle_type_id":"4","last_reported":1744719578,"current_range_meters":12800,"station_id":"ce4bgr92rcd13ifvqc6g","pricing_plan_id":"cebpf4jnsgd1na2vs0mg"},{"bike_id":"9ae67100-c706-43c4-9edb-50bce7eff2ad","system_id":"levelo_inurba_marseille","lat":43.255094,"lon":5.376454,"is_reserved":false,"is_disabled":false,"rental_uris":{"android":"levelo://app?vid=9ae67100-c706-43c4-9edb-50bce7eff2ad","ios":"levelo://app?vid=9ae67100-c706-43c4-9edb-50bce7eff2ad"},"vehicle_type_id":"4","last_reported":1744719578,"current_range_meters":12800,"station_id":"ce4bhh12rcd13ifvqff0","pricing_plan_id":"cebpf4jnsgd1na2vs0mg"},{"bike_id":"176e5662-5b80-483a-80f1-1787e24f6140","system_id":"levelo_inurba_marseille","lat":43.2795,"lon":5.41049,"is_reserved":false,"is_disabled":false,"rental_uris":{"android":"levelo://app?vid=176e5662-5b80-483a-80f1-1787e24f6140","ios":"levelo://app?vid=176e5662-5b80-483a-80f1-1787e24f6140"},"vehicle_type_id":"4","last_reported":1744719578,"current_range_meters":12800,"station_id":"ce4bhnp2rcd13ifvqh0g","pricing_plan_id":"cebpf4jnsgd1na2vs0mg"},{"bike_id":"33941653-45a7-4a37-8a83-b97caee3c9aa","system_id":"levelo_inurba_marseille","lat":43.2706,"lon":5.40266,"is_reserved":false,"is_disabled":false,"rental_uris":{"android":"levelo://app?vid=33941653-45a7-4a37-8a83-b97caee3c9aa","ios":"levelo://app?vid=33941653-45a7-4a37-8a83-b97caee3c9aa"},"vehicle_type_id":"4","last_reported":1744719578,"current_range_meters":12800,"station_id":"ce4bhk92rcd13ifvqgc0","pricing_plan_id":"cebpf4jnsgd1na2vs0mg"},{"bike_id":"df4aee74-9817-4f21-8a44-fac098ea6a89","system_id":"levelo_inurba_marseille","lat":43.2842,"lon":5.34979,"is_reserved":false,"is_disabled":false,"rental_uris":{"android":"levelo://app?vid=df4aee74-9817-4f21-8a44-fac098ea6a89","ios":"levelo://app?vid=df4aee74-9817-4f21-8a44-fac098ea6a89"},"vehicle_type_id":"4","last_reported":1744719578,"current_range_meters":12800,"station_id":"ce4bhbh2rcd13ifvqepg","pricing_plan_id":"cebpf4jnsgd1na2vs0mg"},{"bike_id":"795d95d6-ad06-46d6-8b93-0372fdaa87fa","system_id":"levelo_inurba_marseille","lat":43.31106,"lon":5.37815,"is_reserved":false,"is_disabled":false,"rental_uris":{"android":"levelo://app?vid=795d95d6-ad06-46d6-8b93-0372fdaa87fa","ios":"levelo://app?vid=795d95d6-ad06-46d6-8b93-0372fdaa87fa"},"vehicle_type_id":"4","last_reported":1744719578,"current_range_meters":12800,"station_id":"ce4bgt92rcd13ifvqcg0","pricing_plan_id":"cebpf4jnsgd1na2vs0mg"},{"bike_id":"32a859f0-8104-409c-8c4b-eb68dc2ec387","system_id":"levelo_inurba_marseille","lat":43.30718,"lon":5.395425,"is_reserved":false,"is_disabled":false,"rental_uris":{"android":"levelo://app?vid=32a859f0-8104-409c-8c4b-eb68dc2ec387","ios":"levelo://app?vid=32a859f0-8104-409c-8c4b-eb68dc2ec387"},"vehicle_type_id":"4","last_reported":1744719578,"current_range_meters":13600,"station_id":"ce4bh012rcd13ifvqcv0","pricing_plan_id":"cebpf4jnsgd1na2vs0mg"},{"bike_id":"d2d37f01-fa46-4fbc-a721-7789f4003663","system_id":"levelo_inurba_marseille","lat":43.24982,"lon":5.38963,"is_reserved":false,"is_disabled":false,"rental_uris":{"android":"levelo://app?vid=d2d37f01-fa46-4fbc-a721-7789f4003663","ios":"levelo://app?vid=d2d37f01-fa46-4fbc-a721-7789f4003663"},"vehicle_type_id":"4","last_reported":1744719578,"current_range_meters":13600,"station_id":"ce4bhgp2rcd13ifvqfd0","pricing_plan_id":"cebpf4jnsgd1na2vs0mg"},{"bike_id":"192632e2-2665-465c-9c1c-47eaef1fd2bb","system_id":"levelo_inurba_marseille","lat":43.3361,"lon":5.4102,"is_reserved":false,"is_disabled":false,"rental_uris":{"android":"levelo://app?vid=192632e2-2665-465c-9c1c-47eaef1fd2bb","ios":"levelo://app?vid=192632e2-2665-465c-9c1c-47eaef1fd2bb"},"vehicle_type_id":"4","last_reported":1744719578,"current_range_meters":13600,"station_id":"ce4bhqh2rcd13ifvqhmg","pricing_plan_id":"cebpf4jnsgd1na2vs0mg"},{"bike_id":"752674f5-f326-4071-a69f-217e050d1268","system_id":"levelo_inurba_marseille","lat":43.30532,"lon":5.36696,"is_reserved":false,"is_disabled":false,"rental_uris":{"android":"levelo://app?vid=752674f5-f326-4071-a69f-217e050d1268","ios":"levelo://app?vid=752674f5-f326-4071-a69f-217e050d1268"},"vehicle_type_id":"4","last_reported":1744719578,"current_range_meters":13600,"station_id":"ce4bgrp2rcd13ifvqc9g","pricing_plan_id":"cebpf4jnsgd1na2vs0mg"},{"bike_id":"47a85634-40b2-4bd1-8409-1d1cf2f06bdc","system_id":"levelo_inurba_marseille","lat":43.240553,"lon":5.377821,"is_reserved":false,"is_disabled":false,"rental_uris":{"android":"levelo://app?vid=47a85634-40b2-4bd1-8409-1d1cf2f06bdc","ios":"levelo://app?vid=47a85634-40b2-4bd1-8409-1d1cf2f06bdc"},"vehicle_type_id":"4","last_reported":1744719578,"current_range_meters":14000,"station_id":"ce4bhnp2rcd13ifvqgvg","pricing_plan_id":"cebpf4jnsgd1na2vs0mg"},{"bike_id":"bdbfa91d-f51b-4c92-a880-1cae845c2a5c","system_id":"levelo_inurba_marseille","lat":43.22923,"lon":5.35387,"is_reserved":false,"is_disabled":false,"rental_uris":{"android":"levelo://app?vid=bdbfa91d-f51b-4c92-a880-1cae845c2a5c","ios":"levelo://app?vid=bdbfa91d-f51b-4c92-a880-1cae845c2a5c"},"vehicle_type_id":"4","last_reported":1744719578,"current_range_meters":14000,"station_id":"cpo3532slgdg3j2ikp40","pricing_plan_id":"cebpf4jnsgd1na2vs0mg"},{"bike_id":"6086be1f-2f41-4b8c-9ce9-011bcea915da","system_id":"levelo_inurba_marseille","lat":43.30997,"lon":5.37351,"is_reserved":false,"is_disabled":false,"rental_uris":{"android":"levelo://app?vid=6086be1f-2f41-4b8c-9ce9-011bcea915da","ios":"levelo://app?vid=6086be1f-2f41-4b8c-9ce9-011bcea915da"},"vehicle_type_id":"4","last_reported":1744719578,"current_range_meters":14000,"station_id":"","pricing_plan_id":"cebpf4jnsgd1na2vs0mg"},{"bike_id":"c13360bf-72a6-41f8-ba61-7eadb585c0cb","system_id":"levelo_inurba_marseille","lat":43.30548,"lon":5.3653,"is_reserved":false,"is_disabled":false,"rental_uris":{"android":"levelo://app?vid=c13360bf-72a6-41f8-ba61-7eadb585c0cb","ios":"levelo://app?vid=c13360bf-72a6-41f8-ba61-7eadb585c0cb"},"vehicle_type_id":"4","last_reported":1744719578,"current_range_meters":14400,"station_id":"ce4bgs12rcd13ifvqcag","pricing_plan_id":"cebpf4jnsgd1na2vs0mg"},{"bike_id":"0076c967-7671-4c2a-8fd7-39642e6d1618","system_id":"levelo_inurba_marseille","lat":43.29098,"lon":5.38136,"is_reserved":false,"is_disabled":false,"rental_uris":{"android":"levelo://app?vid=0076c967-7671-4c2a-8fd7-39642e6d1618","ios":"levelo://app?vid=0076c967-7671-4c2a-8fd7-39642e6d1618"},"vehicle_type_id":"4","last_reported":1744719578,"current_range_meters":14400,"station_id":"ce4bh512rcd13ifvqe2g","pricing_plan_id":"cebpf4jnsgd1na2vs0mg"},{"bike_id":"3bffb734-4942-4429-be21-0822927f8b78","system_id":"levelo_inurba_marseille","lat":43.27907,"lon":5.39579,"is_reserved":false,"is_disabled":false,"rental_uris":{"android":"levelo://app?vid=3bffb734-4942-4429-be21-0822927f8b78","ios":"levelo://app?vid=3bffb734-4942-4429-be21-0822927f8b78"},"vehicle_type_id":"4","last_reported":1744719578,"current_range_meters":14400,"station_id":"ce4bhf92rcd13ifvqf40","pricing_plan_id":"cebpf4jnsgd1na2vs0mg"},{"bike_id":"c9fbfbd0-ac82-410e-8a58-1795989b1898","system_id":"levelo_inurba_marseille","lat":43.30483,"lon":5.37902,"is_reserved":false,"is_disabled":false,"rental_uris":{"android":"levelo://app?vid=c9fbfbd0-ac82-410e-8a58-1795989b1898","ios":"levelo://app?vid=c9fbfbd0-ac82-410e-8a58-1795989b1898"},"vehicle_type_id":"4","last_reported":1744719578,"current_range_meters":14400,"station_id":"ce4bgup2rcd13ifvqcn0","pricing_plan_id":"cebpf4jnsgd1na2vs0mg"},{"bike_id":"2b649e16-3c10-437c-a8fc-a0ee9069c24d","system_id":"levelo_inurba_marseille","lat":43.25583,"lon":5.3824,"is_reserved":false,"is_disabled":false,"rental_uris":{"android":"levelo://app?vid=2b649e16-3c10-437c-a8fc-a0ee9069c24d","ios":"levelo://app?vid=2b649e16-3c10-437c-a8fc-a0ee9069c24d"},"vehicle_type_id":"4","last_reported":1744719578,"current_range_meters":14400,"station_id":"ce4bhih2rcd13ifvqfs0","pricing_plan_id":"cebpf4jnsgd1na2vs0mg"},{"bike_id":"a81e5b4b-a0c6-4c9a-a2d0-0e5c4955e2ad","system_id":"levelo_inurba_marseille","lat":43.21759,"lon":5.34605,"is_reserved":false,"is_disabled":false,"rental_uris":{"android":"levelo://app?vid=a81e5b4b-a0c6-4c9a-a2d0-0e5c4955e2ad","ios":"levelo://app?vid=a81e5b4b-a0c6-4c9a-a2d0-0e5c4955e2ad"},"vehicle_type_id":"4","last_reported":1744719578,"current_range_meters":14400,"station_id":"st_cvj6r9ubvosntc0bgbag","pricing_plan_id":"cebpf4jnsgd1na2vs0mg"},{"bike_id":"e298fb17-60fe-4ee1-bc94-645f9b8b1bb4","system_id":"levelo_inurba_marseille","lat":43.29015,"lon":5.37627,"is_reserved":false,"is_disabled":false,"rental_uris":{"android":"levelo://app?vid=e298fb17-60fe-4ee1-bc94-645f9b8b1bb4","ios":"levelo://app?vid=e298fb17-60fe-4ee1-bc94-645f9b8b1bb4"},"vehicle_type_id":"4","last_reported":1744719578,"current_range_meters":14400,"station_id":"ce4bh692rcd13ifvqe90","pricing_plan_id":"cebpf4jnsgd1na2vs0mg"},{"bike_id":"92eee613-b738-43c0-9e37-fc9d1003907c","system_id":"levelo_inurba_marseille","lat":43.309813,"lon":5.37936,"is_reserved":false,"is_disabled":false,"rental_uris":{"android":"levelo://app?vid=92eee613-b738-43c0-9e37-fc9d1003907c","ios":"levelo://app?vid=92eee613-b738-43c0-9e37-fc9d1003907c"},"vehicle_type_id":"4","last_reported":1744719578,"current_range_meters":14400,"station_id":"ce4bhsp2rcd13ifvqi50","pricing_plan_id":"cebpf4jnsgd1na2vs0mg"},{"bike_id":"58e5494d-233d-4c65-95cd-9e2f5b7e4012","system_id":"levelo_inurba_marseille","lat":43.29528,"lon":5.39042,"is_reserved":false,"is_disabled":false,"rental_uris":{"android":"levelo://app?vid=58e5494d-233d-4c65-95cd-9e2f5b7e4012","ios":"levelo://app?vid=58e5494d-233d-4c65-95cd-9e2f5b7e4012"},"vehicle_type_id":"4","last_reported":1744719578,"current_range_meters":14400,"station_id":"ce4bh3p2rcd13ifvqdp0","pricing_plan_id":"cebpf4jnsgd1na2vs0mg"},{"bike_id":"14f7058f-6db2-4792-b09d-e4560dc0fad9","system_id":"levelo_inurba_marseille","lat":43.32484,"lon":5.36567,"is_reserved":false,"is_disabled":false,"rental_uris":{"android":"levelo://app?vid=14f7058f-6db2-4792-b09d-e4560dc0fad9","ios":"levelo://app?vid=14f7058f-6db2-4792-b09d-e4560dc0fad9"},"vehicle_type_id":"4","last_reported":1744719578,"current_range_meters":14800,"station_id":"ce4bhs12rcd13ifvqhvg","pricing_plan_id":"cebpf4jnsgd1na2vs0mg"},{"bike_id":"67330119-bba8-458f-9d71-51e202d98b78","system_id":"levelo_inurba_marseille","lat":43.31225,"lon":5.36862,"is_reserved":false,"is_disabled":false,"rental_uris":{"android":"levelo://app?vid=67330119-bba8-458f-9d71-51e202d98b78","ios":"levelo://app?vid=67330119-bba8-458f-9d71-51e202d98b78"},"vehicle_type_id":"4","last_reported":1744719578,"current_range_meters":14800,"station_id":"ce4bgl92rcd13ifvqbq0","pricing_plan_id":"cebpf4jnsgd1na2vs0mg"},{"bike_id":"2765f89f-ce29-44fe-affc-8f39e166205c","system_id":"levelo_inurba_marseille","lat":43.29703,"lon":5.36586,"is_reserved":false,"is_disabled":false,"rental_uris":{"android":"levelo://app?vid=2765f89f-ce29-44fe-affc-8f39e166205c","ios":"levelo://app?vid=2765f89f-ce29-44fe-affc-8f39e166205c"},"vehicle_type_id":"4","last_reported":1744719578,"current_range_meters":14800,"station_id":"ce4bgn12rcd13ifvqbt0","pricing_plan_id":"cebpf4jnsgd1na2vs0mg"},{"bike_id":"c7e87019-e41a-4654-9478-82c0a1ccf098","system_id":"levelo_inurba_marseille","lat":43.2897,"lon":5.37843,"is_reserved":false,"is_disabled":false,"rental_uris":{"android":"levelo://app?vid=c7e87019-e41a-4654-9478-82c0a1ccf098","ios":"levelo://app?vid=c7e87019-e41a-4654-9478-82c0a1ccf098"},"vehicle_type_id":"4","last_reported":1744719578,"current_range_meters":14800,"station_id":"ce4bh9p2rcd13ifvqed0","pricing_plan_id":"cebpf4jnsgd1na2vs0mg"},{"bike_id":"74e2eb36-43a1-4496-8066-61bdd83ac34b","system_id":"levelo_inurba_marseille","lat":43.27061,"lon":5.40267,"is_reserved":false,"is_disabled":false,"rental_uris":{"android":"levelo://app?vid=74e2eb36-43a1-4496-8066-61bdd83ac34b","ios":"levelo://app?vid=74e2eb36-43a1-4496-8066-61bdd83ac34b"},"vehicle_type_id":"4","last_reported":1744719578,"current_range_meters":14800,"station_id":"ce4bhk92rcd13ifvqgc0","pricing_plan_id":"cebpf4jnsgd1na2vs0mg"},{"bike_id":"96f67fc3-1d8d-4e0e-b60a-683312315db0","system_id":"levelo_inurba_marseille","lat":43.31386,"lon":5.36699,"is_reserved":false,"is_disabled":false,"rental_uris":{"android":"levelo://app?vid=96f67fc3-1d8d-4e0e-b60a-683312315db0","ios":"levelo://app?vid=96f67fc3-1d8d-4e0e-b60a-683312315db0"},"vehicle_type_id":"4","last_reported":1744719578,"current_range_meters":15200,"station_id":"","pricing_plan_id":"cebpf4jnsgd1na2vs0mg"},{"bike_id":"4b3747ad-70b8-45b3-a21f-9645dba15850","system_id":"levelo_inurba_marseille","lat":43.25978,"lon":5.40922,"is_reserved":false,"is_disabled":false,"rental_uris":{"android":"levelo://app?vid=4b3747ad-70b8-45b3-a21f-9645dba15850","ios":"levelo://app?vid=4b3747ad-70b8-45b3-a21f-9645dba15850"},"vehicle_type_id":"4","last_reported":1744719578,"current_range_meters":15200,"station_id":"","pricing_plan_id":"cebpf4jnsgd1na2vs0mg"},{"bike_id":"4362e1fa-4658-4fc3-9e76-87502b2e3949","system_id":"levelo_inurba_marseille","lat":43.29854,"lon":5.36289,"is_reserved":false,"is_disabled":false,"rental_uris":{"android":"levelo://app?vid=4362e1fa-4658-4fc3-9e76-87502b2e3949","ios":"levelo://app?vid=4362e1fa-4658-4fc3-9e76-87502b2e3949"},"vehicle_type_id":"4","last_reported":1744719578,"current_range_meters":15200,"station_id":"ce4bgpp2rcd13ifvqc3g","pricing_plan_id":"cebpf4jnsgd1na2vs0mg"},{"bike_id":"9155bc8a-cf7e-4b94-a172-173d840f44db","system_id":"levelo_inurba_marseille","lat":43.25038,"lon":5.38911,"is_reserved":false,"is_disabled":false,"rental_uris":{"android":"levelo://app?vid=9155bc8a-cf7e-4b94-a172-173d840f44db","ios":"levelo://app?vid=9155bc8a-cf7e-4b94-a172-173d840f44db"},"vehicle_type_id":"4","last_reported":1744719578,"current_range_meters":16000,"station_id":"ce4bhgp2rcd13ifvqfd0","pricing_plan_id":"cebpf4jnsgd1na2vs0mg"},{"bike_id":"a8132d22-4ce6-4e24-9e2c-e02042e4181b","system_id":"levelo_inurba_marseille","lat":43.23062,"lon":5.35502,"is_reserved":false,"is_disabled":false,"rental_uris":{"android":"levelo://app?vid=a8132d22-4ce6-4e24-9e2c-e02042e4181b","ios":"levelo://app?vid=a8132d22-4ce6-4e24-9e2c-e02042e4181b"},"vehicle_type_id":"4","last_reported":1744719578,"current_range_meters":16000,"station_id":"cpo3342slgdg3j2ifvpg","pricing_plan_id":"cebpf4jnsgd1na2vs0mg"},{"bike_id":"7eacb872-0584-4b06-8fad-feb612d3799a","system_id":"levelo_inurba_marseille","lat":43.29704,"lon":5.38135,"is_reserved":false,"is_disabled":false,"rental_uris":{"android":"levelo://app?vid=7eacb872-0584-4b06-8fad-feb612d3799a","ios":"levelo://app?vid=7eacb872-0584-4b06-8fad-feb612d3799a"},"vehicle_type_id":"4","last_reported":1744719578,"current_range_meters":16000,"station_id":"","pricing_plan_id":"cebpf4jnsgd1na2vs0mg"},{"bike_id":"b0848d1c-8878-4753-b0ff-ad11704a0b19","system_id":"levelo_inurba_marseille","lat":43.2407,"lon":5.37777,"is_reserved":false,"is_disabled":false,"rental_uris":{"android":"levelo://app?vid=b0848d1c-8878-4753-b0ff-ad11704a0b19","ios":"levelo://app?vid=b0848d1c-8878-4753-b0ff-ad11704a0b19"},"vehicle_type_id":"4","last_reported":1744719578,"current_range_meters":16000,"station_id":"ce4bhnp2rcd13ifvqgvg","pricing_plan_id":"cebpf4jnsgd1na2vs0mg"},{"bike_id":"1cda6c4a-ae57-4fc8-b8ee-0ab1f3b5a4dd","system_id":"levelo_inurba_marseille","lat":43.3091,"lon":5.36842,"is_reserved":false,"is_disabled":false,"rental_uris":{"android":"levelo://app?vid=1cda6c4a-ae57-4fc8-b8ee-0ab1f3b5a4dd","ios":"levelo://app?vid=1cda6c4a-ae57-4fc8-b8ee-0ab1f3b5a4dd"},"vehicle_type_id":"4","last_reported":1744719578,"current_range_meters":16000,"station_id":"ce4bgn92rcd13ifvqbvg","pricing_plan_id":"cebpf4jnsgd1na2vs0mg"},{"bike_id":"77037b3f-050a-4708-b85e-3feee4d6225d","system_id":"levelo_inurba_marseille","lat":43.30465,"lon":5.378936,"is_reserved":false,"is_disabled":false,"rental_uris":{"android":"levelo://app?vid=77037b3f-050a-4708-b85e-3feee4d6225d","ios":"levelo://app?vid=77037b3f-050a-4708-b85e-3feee4d6225d"},"vehicle_type_id":"4","last_reported":1744719578,"current_range_meters":16000,"station_id":"ce4bgup2rcd13ifvqcn0","pricing_plan_id":"cebpf4jnsgd1na2vs0mg"},{"bike_id":"2d6fe4c8-5d44-495b-85b2-9dce69368155","system_id":"levelo_inurba_marseille","lat":43.312262,"lon":5.368664,"is_reserved":false,"is_disabled":false,"rental_uris":{"android":"levelo://app?vid=2d6fe4c8-5d44-495b-85b2-9dce69368155","ios":"levelo://app?vid=2d6fe4c8-5d44-495b-85b2-9dce69368155"},"vehicle_type_id":"4","last_reported":1744719578,"current_range_meters":16000,"station_id":"ce4bgl92rcd13ifvqbq0","pricing_plan_id":"cebpf4jnsgd1na2vs0mg"},{"bike_id":"7a65a080-90dc-4e37-961c-8aadee638a54","system_id":"levelo_inurba_marseille","lat":43.26555,"lon":5.37288,"is_reserved":false,"is_disabled":false,"rental_uris":{"android":"levelo://app?vid=7a65a080-90dc-4e37-961c-8aadee638a54","ios":"levelo://app?vid=7a65a080-90dc-4e37-961c-8aadee638a54"},"vehicle_type_id":"4","last_reported":1744719578,"current_range_meters":16400,"station_id":"ce4bhg12rcd13ifvqf70","pricing_plan_id":"cebpf4jnsgd1na2vs0mg"},{"bike_id":"66e778a1-034a-4a7b-beae-707e8c5423bd","system_id":"levelo_inurba_marseille","lat":43.31371,"lon":5.36713,"is_reserved":false,"is_disabled":false,"rental_uris":{"android":"levelo://app?vid=66e778a1-034a-4a7b-beae-707e8c5423bd","ios":"levelo://app?vid=66e778a1-034a-4a7b-beae-707e8c5423bd"},"vehicle_type_id":"4","last_reported":1744719578,"current_range_meters":16400,"station_id":"ce4bgr92rcd13ifvqc6g","pricing_plan_id":"cebpf4jnsgd1na2vs0mg"},{"bike_id":"4aef0fa6-a0da-4fa2-9099-9fa1ba81c16a","system_id":"levelo_inurba_marseille","lat":43.281687,"lon":5.404354,"is_reserved":false,"is_disabled":false,"rental_uris":{"android":"levelo://app?vid=4aef0fa6-a0da-4fa2-9099-9fa1ba81c16a","ios":"levelo://app?vid=4aef0fa6-a0da-4fa2-9099-9fa1ba81c16a"},"vehicle_type_id":"4","last_reported":1744719578,"current_range_meters":16400,"station_id":"","pricing_plan_id":"cebpf4jnsgd1na2vs0mg"},{"bike_id":"a50353cf-8b86-4aef-9573-f1dd45c3f57e","system_id":"levelo_inurba_marseille","lat":43.28467,"lon":5.35903,"is_reserved":false,"is_disabled":false,"rental_uris":{"android":"levelo://app?vid=a50353cf-8b86-4aef-9573-f1dd45c3f57e","ios":"levelo://app?vid=a50353cf-8b86-4aef-9573-f1dd45c3f57e"},"vehicle_type_id":"4","last_reported":1744719578,"current_range_meters":16400,"station_id":"ce4bhah2rcd13ifvqei0","pricing_plan_id":"cebpf4jnsgd1na2vs0mg"},{"bike_id":"2bab8166-2290-4df3-b47f-b0762915dbbf","system_id":"levelo_inurba_marseille","lat":43.284114,"lon":5.349761,"is_reserved":false,"is_disabled":false,"rental_uris":{"android":"levelo://app?vid=2bab8166-2290-4df3-b47f-b0762915dbbf","ios":"levelo://app?vid=2bab8166-2290-4df3-b47f-b0762915dbbf"},"vehicle_type_id":"4","last_reported":1744719578,"current_range_meters":16400,"station_id":"ce4bhbh2rcd13ifvqepg","pricing_plan_id":"cebpf4jnsgd1na2vs0mg"},{"bike_id":"2caebf1c-7dd1-4d93-97aa-8cb87eccf6d4","system_id":"levelo_inurba_marseille","lat":43.31057,"lon":5.4241,"is_reserved":false,"is_disabled":false,"rental_uris":{"android":"levelo://app?vid=2caebf1c-7dd1-4d93-97aa-8cb87eccf6d4","ios":"levelo://app?vid=2caebf1c-7dd1-4d93-97aa-8cb87eccf6d4"},"vehicle_type_id":"4","last_reported":1744719578,"current_range_meters":16400,"station_id":"ce4bhp92rcd13ifvqhag","pricing_plan_id":"cebpf4jnsgd1na2vs0mg"},{"bike_id":"415db733-f514-4806-a29d-91dddd76fe1c","system_id":"levelo_inurba_marseille","lat":43.303126,"lon":5.369042,"is_reserved":false,"is_disabled":false,"rental_uris":{"android":"levelo://app?vid=415db733-f514-4806-a29d-91dddd76fe1c","ios":"levelo://app?vid=415db733-f514-4806-a29d-91dddd76fe1c"},"vehicle_type_id":"4","last_reported":1744719578,"current_range_meters":16800,"station_id":"ce4bgqh2rcd13ifvqc5g","pricing_plan_id":"cebpf4jnsgd1na2vs0mg"},{"bike_id":"504cf016-be85-40ae-bd6e-21fe1e837c30","system_id":"levelo_inurba_marseille","lat":43.32492,"lon":5.36567,"is_reserved":false,"is_disabled":false,"rental_uris":{"android":"levelo://app?vid=504cf016-be85-40ae-bd6e-21fe1e837c30","ios":"levelo://app?vid=504cf016-be85-40ae-bd6e-21fe1e837c30"},"vehicle_type_id":"4","last_reported":1744719578,"current_range_meters":16800,"station_id":"ce4bhs12rcd13ifvqhvg","pricing_plan_id":"cebpf4jnsgd1na2vs0mg"},{"bike_id":"7ee0bce8-0b7a-4655-8494-0aa9f6f25a07","system_id":"levelo_inurba_marseille","lat":43.298492,"lon":5.362918,"is_reserved":false,"is_disabled":false,"rental_uris":{"android":"levelo://app?vid=7ee0bce8-0b7a-4655-8494-0aa9f6f25a07","ios":"levelo://app?vid=7ee0bce8-0b7a-4655-8494-0aa9f6f25a07"},"vehicle_type_id":"4","last_reported":1744719578,"current_range_meters":16800,"station_id":"ce4bgpp2rcd13ifvqc3g","pricing_plan_id":"cebpf4jnsgd1na2vs0mg"},{"bike_id":"944bddab-9f41-4da7-80e2-b3e803e6b9a5","system_id":"levelo_inurba_marseille","lat":43.21193,"lon":5.3508,"is_reserved":false,"is_disabled":false,"rental_uris":{"android":"levelo://app?vid=944bddab-9f41-4da7-80e2-b3e803e6b9a5","ios":"levelo://app?vid=944bddab-9f41-4da7-80e2-b3e803e6b9a5"},"vehicle_type_id":"4","last_reported":1744719578,"current_range_meters":16800,"station_id":"st_cvj6sg6p6f1abm77japg","pricing_plan_id":"cebpf4jnsgd1na2vs0mg"},{"bike_id":"5f73a5ef-2ea8-42f2-a6c3-08a9499499d1","system_id":"levelo_inurba_marseille","lat":43.23154,"lon":5.43716,"is_reserved":false,"is_disabled":false,"rental_uris":{"android":"levelo://app?vid=5f73a5ef-2ea8-42f2-a6c3-08a9499499d1","ios":"levelo://app?vid=5f73a5ef-2ea8-42f2-a6c3-08a9499499d1"},"vehicle_type_id":"4","last_reported":1744719578,"current_range_meters":16800,"station_id":"ce4bhmp2rcd13ifvqgog","pricing_plan_id":"cebpf4jnsgd1na2vs0mg"},{"bike_id":"228d828b-82ce-49d4-938f-badfd8320ade","system_id":"levelo_inurba_marseille","lat":43.29566,"lon":5.39963,"is_reserved":false,"is_disabled":false,"rental_uris":{"android":"levelo://app?vid=228d828b-82ce-49d4-938f-badfd8320ade","ios":"levelo://app?vid=228d828b-82ce-49d4-938f-badfd8320ade"},"vehicle_type_id":"4","last_reported":1744719578,"current_range_meters":17200,"station_id":"ce4bh312rcd13ifvqdj0","pricing_plan_id":"cebpf4jnsgd1na2vs0mg"},{"bike_id":"8af38864-d622-4e04-8167-c30307f4877b","system_id":"levelo_inurba_marseille","lat":43.31329,"lon":5.39697,"is_reserved":false,"is_disabled":false,"rental_uris":{"android":"levelo://app?vid=8af38864-d622-4e04-8167-c30307f4877b","ios":"levelo://app?vid=8af38864-d622-4e04-8167-c30307f4877b"},"vehicle_type_id":"4","last_reported":1744719578,"current_range_meters":17600,"station_id":"ce4bgvp2rcd13ifvqcu0","pricing_plan_id":"cebpf4jnsgd1na2vs0mg"},{"bike_id":"8cbd2531-c5b2-48f4-8519-f32a3a880ece","system_id":"levelo_inurba_marseille","lat":43.30529,"lon":5.36531,"is_reserved":false,"is_disabled":false,"rental_uris":{"android":"levelo://app?vid=8cbd2531-c5b2-48f4-8519-f32a3a880ece","ios":"levelo://app?vid=8cbd2531-c5b2-48f4-8519-f32a3a880ece"},"vehicle_type_id":"4","last_reported":1744719578,"current_range_meters":17200,"station_id":"ce4bgs12rcd13ifvqcag","pricing_plan_id":"cebpf4jnsgd1na2vs0mg"},{"bike_id":"05664e36-336b-404a-b8de-2ca42d4238f0","system_id":"levelo_inurba_marseille","lat":43.25005,"lon":5.38194,"is_reserved":false,"is_disabled":false,"rental_uris":{"android":"levelo://app?vid=05664e36-336b-404a-b8de-2ca42d4238f0","ios":"levelo://app?vid=05664e36-336b-404a-b8de-2ca42d4238f0"},"vehicle_type_id":"4","last_reported":1744719578,"current_range_meters":17200,"station_id":"","pricing_plan_id":"cebpf4jnsgd1na2vs0mg"},{"bike_id":"fd9a63a9-56b8-4498-8eba-1f235333e38c","system_id":"levelo_inurba_marseille","lat":43.26549,"lon":5.37293,"is_reserved":false,"is_disabled":false,"rental_uris":{"android":"levelo://app?vid=fd9a63a9-56b8-4498-8eba-1f235333e38c","ios":"levelo://app?vid=fd9a63a9-56b8-4498-8eba-1f235333e38c"},"vehicle_type_id":"4","last_reported":1744719578,"current_range_meters":17200,"station_id":"ce4bhg12rcd13ifvqf70","pricing_plan_id":"cebpf4jnsgd1na2vs0mg"},{"bike_id":"578d8506-4fad-4d2c-a513-ac92e3f08947","system_id":"levelo_inurba_marseille","lat":43.25937,"lon":5.40903,"is_reserved":false,"is_disabled":false,"rental_uris":{"android":"levelo://app?vid=578d8506-4fad-4d2c-a513-ac92e3f08947","ios":"levelo://app?vid=578d8506-4fad-4d2c-a513-ac92e3f08947"},"vehicle_type_id":"4","last_reported":1744719578,"current_range_meters":17600,"station_id":"ce4bhm92rcd13ifvqglg","pricing_plan_id":"cebpf4jnsgd1na2vs0mg"},{"bike_id":"3d7fd21c-a712-4fa2-903c-f81195ba6cf6","system_id":"levelo_inurba_marseille","lat":43.29615,"lon":5.3776,"is_reserved":false,"is_disabled":false,"rental_uris":{"android":"levelo://app?vid=3d7fd21c-a712-4fa2-903c-f81195ba6cf6","ios":"levelo://app?vid=3d7fd21c-a712-4fa2-903c-f81195ba6cf6"},"vehicle_type_id":"4","last_reported":1744719578,"current_range_meters":17600,"station_id":"ce4bgi92rcd13ifvqb90","pricing_plan_id":"cebpf4jnsgd1na2vs0mg"},{"bike_id":"064c88b2-fb64-47e1-a965-dcdeb5eeacf6","system_id":"levelo_inurba_marseille","lat":43.3032,"lon":5.36901,"is_reserved":false,"is_disabled":false,"rental_uris":{"android":"levelo://app?vid=064c88b2-fb64-47e1-a965-dcdeb5eeacf6","ios":"levelo://app?vid=064c88b2-fb64-47e1-a965-dcdeb5eeacf6"},"vehicle_type_id":"4","last_reported":1744719578,"current_range_meters":18000,"station_id":"ce4bgqh2rcd13ifvqc5g","pricing_plan_id":"cebpf4jnsgd1na2vs0mg"},{"bike_id":"44be248b-85b6-4c95-aac4-5dd00edc7114","system_id":"levelo_inurba_marseille","lat":43.3055,"lon":5.3654,"is_reserved":false,"is_disabled":false,"rental_uris":{"android":"levelo://app?vid=44be248b-85b6-4c95-aac4-5dd00edc7114","ios":"levelo://app?vid=44be248b-85b6-4c95-aac4-5dd00edc7114"},"vehicle_type_id":"4","last_reported":1744719578,"current_range_meters":18000,"station_id":"ce4bgs12rcd13ifvqcag","pricing_plan_id":"cebpf4jnsgd1na2vs0mg"},{"bike_id":"067c91d6-0743-44c0-811a-a2249574626d","system_id":"levelo_inurba_marseille","lat":43.28026,"lon":5.36946,"is_reserved":false,"is_disabled":false,"rental_uris":{"android":"levelo://app?vid=067c91d6-0743-44c0-811a-a2249574626d","ios":"levelo://app?vid=067c91d6-0743-44c0-811a-a2249574626d"},"vehicle_type_id":"4","last_reported":1744719578,"current_range_meters":18000,"station_id":"ce4bha12rcd13ifvqef0","pricing_plan_id":"cebpf4jnsgd1na2vs0mg"},{"bike_id":"75da3773-350f-42a9-aa02-10de43356fcc","system_id":"levelo_inurba_marseille","lat":43.273193,"lon":5.390451,"is_reserved":false,"is_disabled":true,"rental_uris":{"android":"levelo://app?vid=75da3773-350f-42a9-aa02-10de43356fcc","ios":"levelo://app?vid=75da3773-350f-42a9-aa02-10de43356fcc"},"vehicle_type_id":"4","last_reported":1744719578,"current_range_meters":18000,"station_id":"ce4bhgp2rcd13ifvqfe0","pricing_plan_id":"cebpf4jnsgd1na2vs0mg"},{"bike_id":"449f2650-de84-4d0b-8cd9-694d3f1e1120","system_id":"levelo_inurba_marseille","lat":43.31331,"lon":5.39701,"is_reserved":false,"is_disabled":false,"rental_uris":{"android":"levelo://app?vid=449f2650-de84-4d0b-8cd9-694d3f1e1120","ios":"levelo://app?vid=449f2650-de84-4d0b-8cd9-694d3f1e1120"},"vehicle_type_id":"4","last_reported":1744719578,"current_range_meters":18000,"station_id":"ce4bgvp2rcd13ifvqcu0","pricing_plan_id":"cebpf4jnsgd1na2vs0mg"},{"bike_id":"bef5819e-5c40-4709-9265-0772c7922be7","system_id":"levelo_inurba_marseille","lat":43.27817,"lon":5.40712,"is_reserved":false,"is_disabled":false,"rental_uris":{"android":"levelo://app?vid=bef5819e-5c40-4709-9265-0772c7922be7","ios":"levelo://app?vid=bef5819e-5c40-4709-9265-0772c7922be7"},"vehicle_type_id":"4","last_reported":1744719578,"current_range_meters":18000,"station_id":"ce4bhnh2rcd13ifvqgtg","pricing_plan_id":"cebpf4jnsgd1na2vs0mg"},{"bike_id":"db06721d-1ee1-431c-a317-214c373163e8","system_id":"levelo_inurba_marseille","lat":43.310862,"lon":5.42437,"is_reserved":false,"is_disabled":false,"rental_uris":{"android":"levelo://app?vid=db06721d-1ee1-431c-a317-214c373163e8","ios":"levelo://app?vid=db06721d-1ee1-431c-a317-214c373163e8"},"vehicle_type_id":"4","last_reported":1744719578,"current_range_meters":18000,"station_id":"ce4bhp92rcd13ifvqhag","pricing_plan_id":"cebpf4jnsgd1na2vs0mg"},{"bike_id":"df48cf7d-f898-49eb-87ea-51f5181e82f8","system_id":"levelo_inurba_marseille","lat":43.29246,"lon":5.37597,"is_reserved":false,"is_disabled":false,"rental_uris":{"android":"levelo://app?vid=df48cf7d-f898-49eb-87ea-51f5181e82f8","ios":"levelo://app?vid=df48cf7d-f898-49eb-87ea-51f5181e82f8"},"vehicle_type_id":"4","last_reported":1744719578,"current_range_meters":18000,"station_id":"ce4bgi12rcd13ifvqb80","pricing_plan_id":"cebpf4jnsgd1na2vs0mg"},{"bike_id":"157c0a19-2bee-4370-95fe-e1ba11a748fb","system_id":"levelo_inurba_marseille","lat":43.30914,"lon":5.36864,"is_reserved":false,"is_disabled":false,"rental_uris":{"android":"levelo://app?vid=157c0a19-2bee-4370-95fe-e1ba11a748fb","ios":"levelo://app?vid=157c0a19-2bee-4370-95fe-e1ba11a748fb"},"vehicle_type_id":"4","last_reported":1744719578,"current_range_meters":18000,"station_id":"ce4bgn92rcd13ifvqbvg","pricing_plan_id":"cebpf4jnsgd1na2vs0mg"},{"bike_id":"6f23923f-fc67-460a-b0b8-5119c016d5b0","system_id":"levelo_inurba_marseille","lat":43.26982,"lon":5.38835,"is_reserved":false,"is_disabled":true,"rental_uris":{"android":"levelo://app?vid=6f23923f-fc67-460a-b0b8-5119c016d5b0","ios":"levelo://app?vid=6f23923f-fc67-460a-b0b8-5119c016d5b0"},"vehicle_type_id":"4","last_reported":1744719578,"current_range_meters":18000,"station_id":"ce4bhhh2rcd13ifvqfl0","pricing_plan_id":"cebpf4jnsgd1na2vs0mg"},{"bike_id":"ea3392b7-ffe1-49fa-bd8c-c851fa312bb1","system_id":"levelo_inurba_marseille","lat":43.29264,"lon":5.38437,"is_reserved":false,"is_disabled":false,"rental_uris":{"android":"levelo://app?vid=ea3392b7-ffe1-49fa-bd8c-c851fa312bb1","ios":"levelo://app?vid=ea3392b7-ffe1-49fa-bd8c-c851fa312bb1"},"vehicle_type_id":"4","last_reported":1744719578,"current_range_meters":18000,"station_id":"ce4bh692rcd13ifvqea0","pricing_plan_id":"cebpf4jnsgd1na2vs0mg"},{"bike_id":"a0ddb0a5-f7f0-4281-aa27-9e82747cc573","system_id":"levelo_inurba_marseille","lat":43.3376,"lon":5.37489,"is_reserved":false,"is_disabled":false,"rental_uris":{"android":"levelo://app?vid=a0ddb0a5-f7f0-4281-aa27-9e82747cc573","ios":"levelo://app?vid=a0ddb0a5-f7f0-4281-aa27-9e82747cc573"},"vehicle_type_id":"4","last_reported":1744719578,"current_range_meters":18000,"station_id":"","pricing_plan_id":"cebpf4jnsgd1na2vs0mg"},{"bike_id":"8422d098-67fd-4320-85a5-2bb0acedff57","system_id":"levelo_inurba_marseille","lat":43.33765,"lon":5.37446,"is_reserved":false,"is_disabled":false,"rental_uris":{"android":"levelo://app?vid=8422d098-67fd-4320-85a5-2bb0acedff57","ios":"levelo://app?vid=8422d098-67fd-4320-85a5-2bb0acedff57"},"vehicle_type_id":"4","last_reported":1744719578,"current_range_meters":18800,"station_id":"","pricing_plan_id":"cebpf4jnsgd1na2vs0mg"},{"bike_id":"439ad7cd-24b4-497d-83c1-6215fd9162e0","system_id":"levelo_inurba_marseille","lat":43.30278,"lon":5.37709,"is_reserved":false,"is_disabled":false,"rental_uris":{"android":"levelo://app?vid=439ad7cd-24b4-497d-83c1-6215fd9162e0","ios":"levelo://app?vid=439ad7cd-24b4-497d-83c1-6215fd9162e0"},"vehicle_type_id":"4","last_reported":1744719578,"current_range_meters":18800,"station_id":"ce4bguh2rcd13ifvqcj0","pricing_plan_id":"cebpf4jnsgd1na2vs0mg"},{"bike_id":"8737cfe7-eb53-458d-a686-0226e7e71e93","system_id":"levelo_inurba_marseille","lat":43.29366,"lon":5.3783,"is_reserved":false,"is_disabled":false,"rental_uris":{"android":"levelo://app?vid=8737cfe7-eb53-458d-a686-0226e7e71e93","ios":"levelo://app?vid=8737cfe7-eb53-458d-a686-0226e7e71e93"},"vehicle_type_id":"4","last_reported":1744719578,"current_range_meters":20400,"station_id":"ce4bgjh2rcd13ifvqbf0","pricing_plan_id":"cebpf4jnsgd1na2vs0mg"},{"bike_id":"c49a4f83-675f-4244-a56b-2ab36d6a6f86","system_id":"levelo_inurba_marseille","lat":43.32446,"lon":5.36659,"is_reserved":false,"is_disabled":false,"rental_uris":{"android":"levelo://app?vid=c49a4f83-675f-4244-a56b-2ab36d6a6f86","ios":"levelo://app?vid=c49a4f83-675f-4244-a56b-2ab36d6a6f86"},"vehicle_type_id":"4","last_reported":1744719578,"current_range_meters":18800,"station_id":"","pricing_plan_id":"cebpf4jnsgd1na2vs0mg"},{"bike_id":"a916ad4a-4d6e-43a1-9f24-5d1f2b30c686","system_id":"levelo_inurba_marseille","lat":43.3095,"lon":5.39037,"is_reserved":false,"is_disabled":false,"rental_uris":{"android":"levelo://app?vid=a916ad4a-4d6e-43a1-9f24-5d1f2b30c686","ios":"levelo://app?vid=a916ad4a-4d6e-43a1-9f24-5d1f2b30c686"},"vehicle_type_id":"4","last_reported":1744719578,"current_range_meters":18800,"station_id":"ce4bgup2rcd13ifvqco0","pricing_plan_id":"cebpf4jnsgd1na2vs0mg"},{"bike_id":"95110ddf-70fb-4bda-ba67-aa01de8786eb","system_id":"levelo_inurba_marseille","lat":43.26216,"lon":5.37445,"is_reserved":false,"is_disabled":false,"rental_uris":{"android":"levelo://app?vid=95110ddf-70fb-4bda-ba67-aa01de8786eb","ios":"levelo://app?vid=95110ddf-70fb-4bda-ba67-aa01de8786eb"},"vehicle_type_id":"4","last_reported":1744719578,"current_range_meters":18800,"station_id":"ce4bhgp2rcd13ifvqfc0","pricing_plan_id":"cebpf4jnsgd1na2vs0mg"},{"bike_id":"cc3f3667-2607-4b5d-8bf5-eedf50add55e","system_id":"levelo_inurba_marseille","lat":43.21762,"lon":5.34592,"is_reserved":false,"is_disabled":false,"rental_uris":{"android":"levelo://app?vid=cc3f3667-2607-4b5d-8bf5-eedf50add55e","ios":"levelo://app?vid=cc3f3667-2607-4b5d-8bf5-eedf50add55e"},"vehicle_type_id":"4","last_reported":1744719578,"current_range_meters":19200,"station_id":"st_cvj6r9ubvosntc0bgbag","pricing_plan_id":"cebpf4jnsgd1na2vs0mg"},{"bike_id":"a8ed8bfe-e018-4ae7-b755-72caf268e29f","system_id":"levelo_inurba_marseille","lat":43.30154,"lon":5.38103,"is_reserved":false,"is_disabled":true,"rental_uris":{"android":"levelo://app?vid=a8ed8bfe-e018-4ae7-b755-72caf268e29f","ios":"levelo://app?vid=a8ed8bfe-e018-4ae7-b755-72caf268e29f"},"vehicle_type_id":"4","last_reported":1744719578,"current_range_meters":19200,"station_id":"","pricing_plan_id":"cebpf4jnsgd1na2vs0mg"},{"bike_id":"834ec9e1-9d50-4bee-85ae-d1db335c55e5","system_id":"levelo_inurba_marseille","lat":43.318,"lon":5.36823,"is_reserved":false,"is_disabled":false,"rental_uris":{"android":"levelo://app?vid=834ec9e1-9d50-4bee-85ae-d1db335c55e5","ios":"levelo://app?vid=834ec9e1-9d50-4bee-85ae-d1db335c55e5"},"vehicle_type_id":"4","last_reported":1744719578,"current_range_meters":19200,"station_id":"","pricing_plan_id":"cebpf4jnsgd1na2vs0mg"},{"bike_id":"8eab135f-19c1-4bf8-aead-fc6872404fdf","system_id":"levelo_inurba_marseille","lat":43.31264,"lon":5.36848,"is_reserved":false,"is_disabled":false,"rental_uris":{"android":"levelo://app?vid=8eab135f-19c1-4bf8-aead-fc6872404fdf","ios":"levelo://app?vid=8eab135f-19c1-4bf8-aead-fc6872404fdf"},"vehicle_type_id":"4","last_reported":1744719578,"current_range_meters":19200,"station_id":"ce4bgl92rcd13ifvqbq0","pricing_plan_id":"cebpf4jnsgd1na2vs0mg"},{"bike_id":"aab6d568-e67e-4a64-9cf8-1d6738c5a39a","system_id":"levelo_inurba_marseille","lat":43.29618,"lon":5.37729,"is_reserved":false,"is_disabled":false,"rental_uris":{"android":"levelo://app?vid=aab6d568-e67e-4a64-9cf8-1d6738c5a39a","ios":"levelo://app?vid=aab6d568-e67e-4a64-9cf8-1d6738c5a39a"},"vehicle_type_id":"4","last_reported":1744719578,"current_range_meters":19200,"station_id":"ce4bgi92rcd13ifvqb90","pricing_plan_id":"cebpf4jnsgd1na2vs0mg"},{"bike_id":"25b83da7-3624-43bb-be83-26c65d165c89","system_id":"levelo_inurba_marseille","lat":43.24076,"lon":5.37752,"is_reserved":false,"is_disabled":false,"rental_uris":{"android":"levelo://app?vid=25b83da7-3624-43bb-be83-26c65d165c89","ios":"levelo://app?vid=25b83da7-3624-43bb-be83-26c65d165c89"},"vehicle_type_id":"4","last_reported":1744719578,"current_range_meters":19200,"station_id":"ce4bhnp2rcd13ifvqgvg","pricing_plan_id":"cebpf4jnsgd1na2vs0mg"},{"bike_id":"ea302315-b185-4216-9579-fbabb6fbb376","system_id":"levelo_inurba_marseille","lat":43.30146,"lon":5.38079,"is_reserved":false,"is_disabled":false,"rental_uris":{"android":"levelo://app?vid=ea302315-b185-4216-9579-fbabb6fbb376","ios":"levelo://app?vid=ea302315-b185-4216-9579-fbabb6fbb376"},"vehicle_type_id":"4","last_reported":1744719578,"current_range_meters":19200,"station_id":"ce4bgjp2rcd13ifvqbh0","pricing_plan_id":"cebpf4jnsgd1na2vs0mg"},{"bike_id":"f28ab945-c9df-4b0b-be4c-c2ea61470e17","system_id":"levelo_inurba_marseille","lat":43.32484,"lon":5.36575,"is_reserved":false,"is_disabled":false,"rental_uris":{"android":"levelo://app?vid=f28ab945-c9df-4b0b-be4c-c2ea61470e17","ios":"levelo://app?vid=f28ab945-c9df-4b0b-be4c-c2ea61470e17"},"vehicle_type_id":"4","last_reported":1744719578,"current_range_meters":19200,"station_id":"ce4bhs12rcd13ifvqhvg","pricing_plan_id":"cebpf4jnsgd1na2vs0mg"},{"bike_id":"f06c4394-df29-478f-b606-e38b32292526","system_id":"levelo_inurba_marseille","lat":43.26686,"lon":5.38274,"is_reserved":false,"is_disabled":true,"rental_uris":{"android":"levelo://app?vid=f06c4394-df29-478f-b606-e38b32292526","ios":"levelo://app?vid=f06c4394-df29-478f-b606-e38b32292526"},"vehicle_type_id":"4","last_reported":1744719578,"current_range_meters":19600,"station_id":"ce4bhg92rcd13ifvqf90","pricing_plan_id":"cebpf4jnsgd1na2vs0mg"},{"bike_id":"1c3cecba-b258-4a6c-ac0b-66008ef974cf","system_id":"levelo_inurba_marseille","lat":43.33602,"lon":5.41032,"is_reserved":false,"is_disabled":false,"rental_uris":{"android":"levelo://app?vid=1c3cecba-b258-4a6c-ac0b-66008ef974cf","ios":"levelo://app?vid=1c3cecba-b258-4a6c-ac0b-66008ef974cf"},"vehicle_type_id":"4","last_reported":1744719578,"current_range_meters":16400,"station_id":"ce4bhqh2rcd13ifvqhmg","pricing_plan_id":"cebpf4jnsgd1na2vs0mg"},{"bike_id":"846062da-9234-4287-9da7-b9e2f0d486c7","system_id":"levelo_inurba_marseille","lat":43.3055,"lon":5.36494,"is_reserved":false,"is_disabled":false,"rental_uris":{"android":"levelo://app?vid=846062da-9234-4287-9da7-b9e2f0d486c7","ios":"levelo://app?vid=846062da-9234-4287-9da7-b9e2f0d486c7"},"vehicle_type_id":"4","last_reported":1744719578,"current_range_meters":19600,"station_id":"ce4bgs12rcd13ifvqcag","pricing_plan_id":"cebpf4jnsgd1na2vs0mg"},{"bike_id":"923654e4-ec6b-4931-bf80-e4b5d19e2922","system_id":"levelo_inurba_marseille","lat":43.29901,"lon":5.43682,"is_reserved":false,"is_disabled":false,"rental_uris":{"android":"levelo://app?vid=923654e4-ec6b-4931-bf80-e4b5d19e2922","ios":"levelo://app?vid=923654e4-ec6b-4931-bf80-e4b5d19e2922"},"vehicle_type_id":"4","last_reported":1744719578,"current_range_meters":20000,"station_id":"ce4bhpp2rcd13ifvqhfg","pricing_plan_id":"cebpf4jnsgd1na2vs0mg"},{"bike_id":"810942cf-4e8e-49c5-a9b0-1039f0bcecc3","system_id":"levelo_inurba_marseille","lat":43.30596,"lon":5.36513,"is_reserved":false,"is_disabled":false,"rental_uris":{"android":"levelo://app?vid=810942cf-4e8e-49c5-a9b0-1039f0bcecc3","ios":"levelo://app?vid=810942cf-4e8e-49c5-a9b0-1039f0bcecc3"},"vehicle_type_id":"4","last_reported":1744719578,"current_range_meters":20000,"station_id":"ce4bgs12rcd13ifvqcag","pricing_plan_id":"cebpf4jnsgd1na2vs0mg"},{"bike_id":"0eb205a8-e37d-4ac2-8191-d8ab9c585865","system_id":"levelo_inurba_marseille","lat":43.27493,"lon":5.42454,"is_reserved":false,"is_disabled":false,"rental_uris":{"android":"levelo://app?vid=0eb205a8-e37d-4ac2-8191-d8ab9c585865","ios":"levelo://app?vid=0eb205a8-e37d-4ac2-8191-d8ab9c585865"},"vehicle_type_id":"4","last_reported":1744719578,"current_range_meters":20000,"station_id":"ce4bhn92rcd13ifvqgrg","pricing_plan_id":"cebpf4jnsgd1na2vs0mg"},{"bike_id":"6bf5a380-400e-4cd6-bc1e-356afac9ee45","system_id":"levelo_inurba_marseille","lat":43.24162,"lon":5.36412,"is_reserved":false,"is_disabled":false,"rental_uris":{"android":"levelo://app?vid=6bf5a380-400e-4cd6-bc1e-356afac9ee45","ios":"levelo://app?vid=6bf5a380-400e-4cd6-bc1e-356afac9ee45"},"vehicle_type_id":"4","last_reported":1744719578,"current_range_meters":20000,"station_id":"cpo36qri1sfpv3e86is0","pricing_plan_id":"cebpf4jnsgd1na2vs0mg"},{"bike_id":"2af3abd6-c824-426e-a7ec-b166d0a40d54","system_id":"levelo_inurba_marseille","lat":43.24184,"lon":5.39723,"is_reserved":false,"is_disabled":false,"rental_uris":{"android":"levelo://app?vid=2af3abd6-c824-426e-a7ec-b166d0a40d54","ios":"levelo://app?vid=2af3abd6-c824-426e-a7ec-b166d0a40d54"},"vehicle_type_id":"4","last_reported":1744719578,"current_range_meters":20000,"station_id":"ce4bhn12rcd13ifvqgpg","pricing_plan_id":"cebpf4jnsgd1na2vs0mg"},{"bike_id":"bfd3bc4a-1e42-4a47-804a-0030dd1f3a04","system_id":"levelo_inurba_marseille","lat":43.30539,"lon":5.36551,"is_reserved":false,"is_disabled":false,"rental_uris":{"android":"levelo://app?vid=bfd3bc4a-1e42-4a47-804a-0030dd1f3a04","ios":"levelo://app?vid=bfd3bc4a-1e42-4a47-804a-0030dd1f3a04"},"vehicle_type_id":"4","last_reported":1744719578,"current_range_meters":20000,"station_id":"ce4bgs12rcd13ifvqcag","pricing_plan_id":"cebpf4jnsgd1na2vs0mg"},{"bike_id":"53a696e3-fd5f-46fc-b5ed-9f5e0dcb170a","system_id":"levelo_inurba_marseille","lat":43.28104,"lon":5.37839,"is_reserved":false,"is_disabled":false,"rental_uris":{"android":"levelo://app?vid=53a696e3-fd5f-46fc-b5ed-9f5e0dcb170a","ios":"levelo://app?vid=53a696e3-fd5f-46fc-b5ed-9f5e0dcb170a"},"vehicle_type_id":"4","last_reported":1744719578,"current_range_meters":20000,"station_id":"ce4bha12rcd13ifvqee0","pricing_plan_id":"cebpf4jnsgd1na2vs0mg"},{"bike_id":"aad7815f-948b-44ab-a2d7-4c843cca007f","system_id":"levelo_inurba_marseille","lat":43.22934,"lon":5.35373,"is_reserved":false,"is_disabled":false,"rental_uris":{"android":"levelo://app?vid=aad7815f-948b-44ab-a2d7-4c843cca007f","ios":"levelo://app?vid=aad7815f-948b-44ab-a2d7-4c843cca007f"},"vehicle_type_id":"4","last_reported":1744719578,"current_range_meters":20000,"station_id":"cpo3532slgdg3j2ikp40","pricing_plan_id":"cebpf4jnsgd1na2vs0mg"},{"bike_id":"fa8b5d88-c56b-4501-99c1-1b5a6dfd1f66","system_id":"levelo_inurba_marseille","lat":43.21192,"lon":5.3508,"is_reserved":false,"is_disabled":false,"rental_uris":{"android":"levelo://app?vid=fa8b5d88-c56b-4501-99c1-1b5a6dfd1f66","ios":"levelo://app?vid=fa8b5d88-c56b-4501-99c1-1b5a6dfd1f66"},"vehicle_type_id":"4","last_reported":1744719578,"current_range_meters":20000,"station_id":"st_cvj6sg6p6f1abm77japg","pricing_plan_id":"cebpf4jnsgd1na2vs0mg"},{"bike_id":"7ad0bf0f-5294-442b-8825-791f1416a999","system_id":"levelo_inurba_marseille","lat":43.241777,"lon":5.397357,"is_reserved":false,"is_disabled":false,"rental_uris":{"android":"levelo://app?vid=7ad0bf0f-5294-442b-8825-791f1416a999","ios":"levelo://app?vid=7ad0bf0f-5294-442b-8825-791f1416a999"},"vehicle_type_id":"4","last_reported":1744719578,"current_range_meters":20000,"station_id":"ce4bhn12rcd13ifvqgpg","pricing_plan_id":"cebpf4jnsgd1na2vs0mg"},{"bike_id":"816e87e4-8f5e-48cf-8548-e27edcbea04c","system_id":"levelo_inurba_marseille","lat":43.307876,"lon":5.381507,"is_reserved":false,"is_disabled":false,"rental_uris":{"android":"levelo://app?vid=816e87e4-8f5e-48cf-8548-e27edcbea04c","ios":"levelo://app?vid=816e87e4-8f5e-48cf-8548-e27edcbea04c"},"vehicle_type_id":"4","last_reported":1744719578,"current_range_meters":20400,"station_id":"ce4bgt12rcd13ifvqce0","pricing_plan_id":"cebpf4jnsgd1na2vs0mg"},{"bike_id":"70a524cb-5cdc-4f9f-9ff9-d8c1fad8cdf4","system_id":"levelo_inurba_marseille","lat":43.30524,"lon":5.367,"is_reserved":false,"is_disabled":false,"rental_uris":{"android":"levelo://app?vid=70a524cb-5cdc-4f9f-9ff9-d8c1fad8cdf4","ios":"levelo://app?vid=70a524cb-5cdc-4f9f-9ff9-d8c1fad8cdf4"},"vehicle_type_id":"4","last_reported":1744719578,"current_range_meters":20400,"station_id":"ce4bgrp2rcd13ifvqc9g","pricing_plan_id":"cebpf4jnsgd1na2vs0mg"},{"bike_id":"130db3e8-3ac9-49c8-a646-760261c05662","system_id":"levelo_inurba_marseille","lat":43.30906,"lon":5.36849,"is_reserved":false,"is_disabled":false,"rental_uris":{"android":"levelo://app?vid=130db3e8-3ac9-49c8-a646-760261c05662","ios":"levelo://app?vid=130db3e8-3ac9-49c8-a646-760261c05662"},"vehicle_type_id":"4","last_reported":1744719578,"current_range_meters":20400,"station_id":"ce4bgn92rcd13ifvqbvg","pricing_plan_id":"cebpf4jnsgd1na2vs0mg"},{"bike_id":"70d308af-a764-4bdc-8828-6af0aed0d926","system_id":"levelo_inurba_marseille","lat":43.29876,"lon":5.39762,"is_reserved":false,"is_disabled":false,"rental_uris":{"android":"levelo://app?vid=70d308af-a764-4bdc-8828-6af0aed0d926","ios":"levelo://app?vid=70d308af-a764-4bdc-8828-6af0aed0d926"},"vehicle_type_id":"4","last_reported":1744719578,"current_range_meters":20400,"station_id":"ce4bh0h2rcd13ifvqd50","pricing_plan_id":"cebpf4jnsgd1na2vs0mg"},{"bike_id":"68281691-5ed9-4030-bb37-d00e74d5ad6a","system_id":"levelo_inurba_marseille","lat":43.29029,"lon":5.3865,"is_reserved":false,"is_disabled":false,"rental_uris":{"android":"levelo://app?vid=68281691-5ed9-4030-bb37-d00e74d5ad6a","ios":"levelo://app?vid=68281691-5ed9-4030-bb37-d00e74d5ad6a"},"vehicle_type_id":"4","last_reported":1744719578,"current_range_meters":20400,"station_id":"ce4bh4p2rcd13ifvqe0g","pricing_plan_id":"cebpf4jnsgd1na2vs0mg"},{"bike_id":"4c0ede51-6b22-44f8-8575-b86906a20779","system_id":"levelo_inurba_marseille","lat":43.21786,"lon":5.34606,"is_reserved":false,"is_disabled":false,"rental_uris":{"android":"levelo://app?vid=4c0ede51-6b22-44f8-8575-b86906a20779","ios":"levelo://app?vid=4c0ede51-6b22-44f8-8575-b86906a20779"},"vehicle_type_id":"4","last_reported":1744719578,"current_range_meters":20400,"station_id":"","pricing_plan_id":"cebpf4jnsgd1na2vs0mg"},{"bike_id":"99466e4a-5098-45b2-9de5-b2e12687e6b1","system_id":"levelo_inurba_marseille","lat":43.28614,"lon":5.37059,"is_reserved":false,"is_disabled":false,"rental_uris":{"android":"levelo://app?vid=99466e4a-5098-45b2-9de5-b2e12687e6b1","ios":"levelo://app?vid=99466e4a-5098-45b2-9de5-b2e12687e6b1"},"vehicle_type_id":"4","last_reported":1744719578,"current_range_meters":20400,"station_id":"ce4bht12rcd13ifvqi60","pricing_plan_id":"cebpf4jnsgd1na2vs0mg"},{"bike_id":"91909dde-ba62-4720-9354-9119acf3376a","system_id":"levelo_inurba_marseille","lat":43.30455,"lon":5.37917,"is_reserved":false,"is_disabled":false,"rental_uris":{"android":"levelo://app?vid=91909dde-ba62-4720-9354-9119acf3376a","ios":"levelo://app?vid=91909dde-ba62-4720-9354-9119acf3376a"},"vehicle_type_id":"4","last_reported":1744719578,"current_range_meters":20400,"station_id":"ce4bgup2rcd13ifvqcn0","pricing_plan_id":"cebpf4jnsgd1na2vs0mg"},{"bike_id":"b9496ea7-044d-4f5a-b208-650848e1a420","system_id":"levelo_inurba_marseille","lat":43.296021,"lon":5.381001,"is_reserved":false,"is_disabled":false,"rental_uris":{"android":"levelo://app?vid=b9496ea7-044d-4f5a-b208-650848e1a420","ios":"levelo://app?vid=b9496ea7-044d-4f5a-b208-650848e1a420"},"vehicle_type_id":"4","last_reported":1744719578,"current_range_meters":20400,"station_id":"ce4bgl12rcd13ifvqbo0","pricing_plan_id":"cebpf4jnsgd1na2vs0mg"},{"bike_id":"82c03c98-99e1-45ce-9065-6a18f980dfe0","system_id":"levelo_inurba_marseille","lat":43.30805,"lon":5.37664,"is_reserved":false,"is_disabled":false,"rental_uris":{"android":"levelo://app?vid=82c03c98-99e1-45ce-9065-6a18f980dfe0","ios":"levelo://app?vid=82c03c98-99e1-45ce-9065-6a18f980dfe0"},"vehicle_type_id":"4","last_reported":1744719578,"current_range_meters":20400,"station_id":"ce4bgv92rcd13ifvqcq0","pricing_plan_id":"cebpf4jnsgd1na2vs0mg"},{"bike_id":"f6eaa799-a0f4-4ae9-a7ab-bd1c7bd7f211","system_id":"levelo_inurba_marseille","lat":43.29202,"lon":5.39329,"is_reserved":false,"is_disabled":false,"rental_uris":{"android":"levelo://app?vid=f6eaa799-a0f4-4ae9-a7ab-bd1c7bd7f211","ios":"levelo://app?vid=f6eaa799-a0f4-4ae9-a7ab-bd1c7bd7f211"},"vehicle_type_id":"4","last_reported":1744719578,"current_range_meters":20800,"station_id":"ce4bh192rcd13ifvqdd0","pricing_plan_id":"cebpf4jnsgd1na2vs0mg"},{"bike_id":"12e21367-327e-401b-ad74-80e769bffd7e","system_id":"levelo_inurba_marseille","lat":43.2731,"lon":5.39087,"is_reserved":false,"is_disabled":false,"rental_uris":{"android":"levelo://app?vid=12e21367-327e-401b-ad74-80e769bffd7e","ios":"levelo://app?vid=12e21367-327e-401b-ad74-80e769bffd7e"},"vehicle_type_id":"4","last_reported":1744719578,"current_range_meters":20800,"station_id":"ce4bhgp2rcd13ifvqfe0","pricing_plan_id":"cebpf4jnsgd1na2vs0mg"},{"bike_id":"0b2e1195-f6bd-493d-b0f8-f9a82f6c26d1","system_id":"levelo_inurba_marseille","lat":43.27329,"lon":5.39081,"is_reserved":false,"is_disabled":false,"rental_uris":{"android":"levelo://app?vid=0b2e1195-f6bd-493d-b0f8-f9a82f6c26d1","ios":"levelo://app?vid=0b2e1195-f6bd-493d-b0f8-f9a82f6c26d1"},"vehicle_type_id":"4","last_reported":1744719578,"current_range_meters":20800,"station_id":"ce4bhgp2rcd13ifvqfe0","pricing_plan_id":"cebpf4jnsgd1na2vs0mg"},{"bike_id":"75aeda06-bbc2-4b16-85f7-54753a374ed6","system_id":"levelo_inurba_marseille","lat":43.23607,"lon":5.40312,"is_reserved":false,"is_disabled":false,"rental_uris":{"android":"levelo://app?vid=75aeda06-bbc2-4b16-85f7-54753a374ed6","ios":"levelo://app?vid=75aeda06-bbc2-4b16-85f7-54753a374ed6"},"vehicle_type_id":"4","last_reported":1744719578,"current_range_meters":20800,"station_id":"","pricing_plan_id":"cebpf4jnsgd1na2vs0mg"},{"bike_id":"11267844-79e4-4e74-ad18-2e49bfb13529","system_id":"levelo_inurba_marseille","lat":43.30385,"lon":5.42483,"is_reserved":false,"is_disabled":false,"rental_uris":{"android":"levelo://app?vid=11267844-79e4-4e74-ad18-2e49bfb13529","ios":"levelo://app?vid=11267844-79e4-4e74-ad18-2e49bfb13529"},"vehicle_type_id":"4","last_reported":1744719578,"current_range_meters":20800,"station_id":"ce4bhoh2rcd13ifvqh6g","pricing_plan_id":"cebpf4jnsgd1na2vs0mg"},{"bike_id":"857293f1-5378-4a00-bb4d-21869d33d155","system_id":"levelo_inurba_marseille","lat":43.27907,"lon":5.39586,"is_reserved":false,"is_disabled":false,"rental_uris":{"android":"levelo://app?vid=857293f1-5378-4a00-bb4d-21869d33d155","ios":"levelo://app?vid=857293f1-5378-4a00-bb4d-21869d33d155"},"vehicle_type_id":"4","last_reported":1744719578,"current_range_meters":21600,"station_id":"ce4bhf92rcd13ifvqf40","pricing_plan_id":"cebpf4jnsgd1na2vs0mg"},{"bike_id":"6c103f9f-c959-46ad-a2e8-e44f9660c68e","system_id":"levelo_inurba_marseille","lat":43.21198,"lon":5.35088,"is_reserved":false,"is_disabled":false,"rental_uris":{"android":"levelo://app?vid=6c103f9f-c959-46ad-a2e8-e44f9660c68e","ios":"levelo://app?vid=6c103f9f-c959-46ad-a2e8-e44f9660c68e"},"vehicle_type_id":"4","last_reported":1744719578,"current_range_meters":21600,"station_id":"st_cvj6sg6p6f1abm77japg","pricing_plan_id":"cebpf4jnsgd1na2vs0mg"},{"bike_id":"174c2c9b-2f0a-47fb-998b-9f7260f2f135","system_id":"levelo_inurba_marseille","lat":43.3074,"lon":5.42446,"is_reserved":false,"is_disabled":false,"rental_uris":{"android":"levelo://app?vid=174c2c9b-2f0a-47fb-998b-9f7260f2f135","ios":"levelo://app?vid=174c2c9b-2f0a-47fb-998b-9f7260f2f135"},"vehicle_type_id":"4","last_reported":1744719578,"current_range_meters":21600,"station_id":"st_cvj6ca6bvosntc0bfgr0","pricing_plan_id":"cebpf4jnsgd1na2vs0mg"},{"bike_id":"53ff1966-00f8-47c5-b689-d6ad78d5e05d","system_id":"levelo_inurba_marseille","lat":43.27903,"lon":5.38008,"is_reserved":false,"is_disabled":false,"rental_uris":{"android":"levelo://app?vid=53ff1966-00f8-47c5-b689-d6ad78d5e05d","ios":"levelo://app?vid=53ff1966-00f8-47c5-b689-d6ad78d5e05d"},"vehicle_type_id":"4","last_reported":1744719578,"current_range_meters":22000,"station_id":"ce4bhf92rcd13ifvqf50","pricing_plan_id":"cebpf4jnsgd1na2vs0mg"},{"bike_id":"ed97a721-7aee-47b1-b49b-a65ade99fd09","system_id":"levelo_inurba_marseille","lat":43.34339,"lon":5.37797,"is_reserved":false,"is_disabled":false,"rental_uris":{"android":"levelo://app?vid=ed97a721-7aee-47b1-b49b-a65ade99fd09","ios":"levelo://app?vid=ed97a721-7aee-47b1-b49b-a65ade99fd09"},"vehicle_type_id":"4","last_reported":1744719578,"current_range_meters":21600,"station_id":"","pricing_plan_id":"cebpf4jnsgd1na2vs0mg"},{"bike_id":"128d64a3-9a91-43bd-96ac-1b3c4ae015b9","system_id":"levelo_inurba_marseille","lat":43.26067,"lon":5.394,"is_reserved":false,"is_disabled":false,"rental_uris":{"android":"levelo://app?vid=128d64a3-9a91-43bd-96ac-1b3c4ae015b9","ios":"levelo://app?vid=128d64a3-9a91-43bd-96ac-1b3c4ae015b9"},"vehicle_type_id":"4","last_reported":1744719578,"current_range_meters":21600,"station_id":"ce4bhh92rcd13ifvqfj0","pricing_plan_id":"cebpf4jnsgd1na2vs0mg"},{"bike_id":"3cd633cb-d039-4739-9ac2-7db2980e3f3a","system_id":"levelo_inurba_marseille","lat":43.283961,"lon":5.373992,"is_reserved":false,"is_disabled":false,"rental_uris":{"android":"levelo://app?vid=3cd633cb-d039-4739-9ac2-7db2980e3f3a","ios":"levelo://app?vid=3cd633cb-d039-4739-9ac2-7db2980e3f3a"},"vehicle_type_id":"4","last_reported":1744719578,"current_range_meters":21600,"station_id":"ce4bhbp2rcd13ifvqerg","pricing_plan_id":"cebpf4jnsgd1na2vs0mg"},{"bike_id":"b082caf9-1aa9-41e8-8081-4da72e64e8e4","system_id":"levelo_inurba_marseille","lat":43.30915,"lon":5.4016,"is_reserved":false,"is_disabled":true,"rental_uris":{"android":"levelo://app?vid=b082caf9-1aa9-41e8-8081-4da72e64e8e4","ios":"levelo://app?vid=b082caf9-1aa9-41e8-8081-4da72e64e8e4"},"vehicle_type_id":"4","last_reported":1744719578,"current_range_meters":21600,"station_id":"ce4bgvp2rcd13ifvqct0","pricing_plan_id":"cebpf4jnsgd1na2vs0mg"},{"bike_id":"310292d5-bdeb-40f7-a94f-9d2b542d5222","system_id":"levelo_inurba_marseille","lat":43.24144,"lon":5.36404,"is_reserved":false,"is_disabled":false,"rental_uris":{"android":"levelo://app?vid=310292d5-bdeb-40f7-a94f-9d2b542d5222","ios":"levelo://app?vid=310292d5-bdeb-40f7-a94f-9d2b542d5222"},"vehicle_type_id":"4","last_reported":1744719578,"current_range_meters":22000,"station_id":"cpo36qri1sfpv3e86is0","pricing_plan_id":"cebpf4jnsgd1na2vs0mg"},{"bike_id":"d79cc1f4-052e-4a90-beff-3515be4ff028","system_id":"levelo_inurba_marseille","lat":43.289201,"lon":5.400069,"is_reserved":false,"is_disabled":false,"rental_uris":{"android":"levelo://app?vid=d79cc1f4-052e-4a90-beff-3515be4ff028","ios":"levelo://app?vid=d79cc1f4-052e-4a90-beff-3515be4ff028"},"vehicle_type_id":"4","last_reported":1744719578,"current_range_meters":22000,"station_id":"ce4bhh12rcd13ifvqfg0","pricing_plan_id":"cebpf4jnsgd1na2vs0mg"},{"bike_id":"4d331a86-a3cb-4d7d-a2e2-e0d35e11dfb8","system_id":"levelo_inurba_marseille","lat":43.31231,"lon":5.36854,"is_reserved":false,"is_disabled":false,"rental_uris":{"android":"levelo://app?vid=4d331a86-a3cb-4d7d-a2e2-e0d35e11dfb8","ios":"levelo://app?vid=4d331a86-a3cb-4d7d-a2e2-e0d35e11dfb8"},"vehicle_type_id":"4","last_reported":1744719578,"current_range_meters":22000,"station_id":"ce4bgl92rcd13ifvqbq0","pricing_plan_id":"cebpf4jnsgd1na2vs0mg"},{"bike_id":"e6dbfcfb-fff4-4a18-bf9a-63ddab7387f5","system_id":"levelo_inurba_marseille","lat":43.26058,"lon":5.39404,"is_reserved":false,"is_disabled":false,"rental_uris":{"android":"levelo://app?vid=e6dbfcfb-fff4-4a18-bf9a-63ddab7387f5","ios":"levelo://app?vid=e6dbfcfb-fff4-4a18-bf9a-63ddab7387f5"},"vehicle_type_id":"4","last_reported":1744719578,"current_range_meters":22000,"station_id":"ce4bhh92rcd13ifvqfj0","pricing_plan_id":"cebpf4jnsgd1na2vs0mg"},{"bike_id":"60ec4175-4537-435a-95f9-8e40681109c0","system_id":"levelo_inurba_marseille","lat":43.31395,"lon":5.36735,"is_reserved":false,"is_disabled":false,"rental_uris":{"android":"levelo://app?vid=60ec4175-4537-435a-95f9-8e40681109c0","ios":"levelo://app?vid=60ec4175-4537-435a-95f9-8e40681109c0"},"vehicle_type_id":"4","last_reported":1744719578,"current_range_meters":22000,"station_id":"","pricing_plan_id":"cebpf4jnsgd1na2vs0mg"},{"bike_id":"20ac4c4e-9240-4d2f-afa9-fdacb295cbdf","system_id":"levelo_inurba_marseille","lat":43.27928,"lon":5.39593,"is_reserved":false,"is_disabled":false,"rental_uris":{"android":"levelo://app?vid=20ac4c4e-9240-4d2f-afa9-fdacb295cbdf","ios":"levelo://app?vid=20ac4c4e-9240-4d2f-afa9-fdacb295cbdf"},"vehicle_type_id":"4","last_reported":1744719578,"current_range_meters":22000,"station_id":"ce4bhf92rcd13ifvqf40","pricing_plan_id":"cebpf4jnsgd1na2vs0mg"},{"bike_id":"6b6f9446-6e2e-44bd-9e96-255ace1c46fb","system_id":"levelo_inurba_marseille","lat":43.295623,"lon":5.37825,"is_reserved":false,"is_disabled":false,"rental_uris":{"android":"levelo://app?vid=6b6f9446-6e2e-44bd-9e96-255ace1c46fb","ios":"levelo://app?vid=6b6f9446-6e2e-44bd-9e96-255ace1c46fb"},"vehicle_type_id":"4","last_reported":1744719578,"current_range_meters":22000,"station_id":"ce4bh512rcd13ifvqe2g","pricing_plan_id":"cebpf4jnsgd1na2vs0mg"},{"bike_id":"d6fee597-3293-47ae-914e-c48760e9f772","system_id":"levelo_inurba_marseille","lat":43.24058,"lon":5.37778,"is_reserved":false,"is_disabled":false,"rental_uris":{"android":"levelo://app?vid=d6fee597-3293-47ae-914e-c48760e9f772","ios":"levelo://app?vid=d6fee597-3293-47ae-914e-c48760e9f772"},"vehicle_type_id":"4","last_reported":1744719578,"current_range_meters":22000,"station_id":"ce4bhnp2rcd13ifvqgvg","pricing_plan_id":"cebpf4jnsgd1na2vs0mg"},{"bike_id":"51dcafe7-6d76-4cfb-b8e0-6acfc8f1f9b6","system_id":"levelo_inurba_marseille","lat":43.30553,"lon":5.36541,"is_reserved":false,"is_disabled":false,"rental_uris":{"android":"levelo://app?vid=51dcafe7-6d76-4cfb-b8e0-6acfc8f1f9b6","ios":"levelo://app?vid=51dcafe7-6d76-4cfb-b8e0-6acfc8f1f9b6"},"vehicle_type_id":"4","last_reported":1744719578,"current_range_meters":22400,"station_id":"ce4bgs12rcd13ifvqcag","pricing_plan_id":"cebpf4jnsgd1na2vs0mg"},{"bike_id":"a44c2a83-f7cc-4188-b9c3-535bb880b90c","system_id":"levelo_inurba_marseille","lat":43.25917,"lon":5.40888,"is_reserved":false,"is_disabled":false,"rental_uris":{"android":"levelo://app?vid=a44c2a83-f7cc-4188-b9c3-535bb880b90c","ios":"levelo://app?vid=a44c2a83-f7cc-4188-b9c3-535bb880b90c"},"vehicle_type_id":"4","last_reported":1744719578,"current_range_meters":22400,"station_id":"ce4bhm92rcd13ifvqglg","pricing_plan_id":"cebpf4jnsgd1na2vs0mg"},{"bike_id":"01a8870f-3510-46af-88bf-115c87345b26","system_id":"levelo_inurba_marseille","lat":43.30146,"lon":5.37421,"is_reserved":false,"is_disabled":false,"rental_uris":{"android":"levelo://app?vid=01a8870f-3510-46af-88bf-115c87345b26","ios":"levelo://app?vid=01a8870f-3510-46af-88bf-115c87345b26"},"vehicle_type_id":"4","last_reported":1744719578,"current_range_meters":22400,"station_id":"ce4bgs92rcd13ifvqcc0","pricing_plan_id":"cebpf4jnsgd1na2vs0mg"},{"bike_id":"7c4c5085-5457-4e58-a4c5-5388d05f1968","system_id":"levelo_inurba_marseille","lat":43.30147,"lon":5.3986,"is_reserved":false,"is_disabled":false,"rental_uris":{"android":"levelo://app?vid=7c4c5085-5457-4e58-a4c5-5388d05f1968","ios":"levelo://app?vid=7c4c5085-5457-4e58-a4c5-5388d05f1968"},"vehicle_type_id":"4","last_reported":1744719578,"current_range_meters":22400,"station_id":"ce4bh0h2rcd13ifvqd40","pricing_plan_id":"cebpf4jnsgd1na2vs0mg"},{"bike_id":"6a8e9068-2a8d-4c93-8c2d-e30f03079545","system_id":"levelo_inurba_marseille","lat":43.25737,"lon":5.41094,"is_reserved":false,"is_disabled":true,"rental_uris":{"android":"levelo://app?vid=6a8e9068-2a8d-4c93-8c2d-e30f03079545","ios":"levelo://app?vid=6a8e9068-2a8d-4c93-8c2d-e30f03079545"},"vehicle_type_id":"4","last_reported":1744719578,"current_range_meters":22400,"station_id":"ce4bhkp2rcd13ifvqgd0","pricing_plan_id":"cebpf4jnsgd1na2vs0mg"},{"bike_id":"c2d444b5-2205-4b26-8106-50ad97c6f270","system_id":"levelo_inurba_marseille","lat":43.30558,"lon":5.36553,"is_reserved":false,"is_disabled":false,"rental_uris":{"android":"levelo://app?vid=c2d444b5-2205-4b26-8106-50ad97c6f270","ios":"levelo://app?vid=c2d444b5-2205-4b26-8106-50ad97c6f270"},"vehicle_type_id":"4","last_reported":1744719578,"current_range_meters":22800,"station_id":"ce4bgs12rcd13ifvqcag","pricing_plan_id":"cebpf4jnsgd1na2vs0mg"},{"bike_id":"34d99c71-429c-4478-b5a8-09f281194740","system_id":"levelo_inurba_marseille","lat":43.3148,"lon":5.37307,"is_reserved":false,"is_disabled":false,"rental_uris":{"android":"levelo://app?vid=34d99c71-429c-4478-b5a8-09f281194740","ios":"levelo://app?vid=34d99c71-429c-4478-b5a8-09f281194740"},"vehicle_type_id":"4","last_reported":1744719578,"current_range_meters":22800,"station_id":"ce4bgt12rcd13ifvqcd0","pricing_plan_id":"cebpf4jnsgd1na2vs0mg"},{"bike_id":"c5114398-b7b9-4c79-8ebe-2de82e096d41","system_id":"levelo_inurba_marseille","lat":43.28611,"lon":5.35099,"is_reserved":false,"is_disabled":false,"rental_uris":{"android":"levelo://app?vid=c5114398-b7b9-4c79-8ebe-2de82e096d41","ios":"levelo://app?vid=c5114398-b7b9-4c79-8ebe-2de82e096d41"},"vehicle_type_id":"4","last_reported":1744719578,"current_range_meters":22800,"station_id":"ce4bgih2rcd13ifvqba0","pricing_plan_id":"cebpf4jnsgd1na2vs0mg"},{"bike_id":"dd2fbc22-3df4-4720-a708-dd6f46ba7212","system_id":"levelo_inurba_marseille","lat":43.2119,"lon":5.35043,"is_reserved":false,"is_disabled":false,"rental_uris":{"android":"levelo://app?vid=dd2fbc22-3df4-4720-a708-dd6f46ba7212","ios":"levelo://app?vid=dd2fbc22-3df4-4720-a708-dd6f46ba7212"},"vehicle_type_id":"4","last_reported":1744719578,"current_range_meters":22800,"station_id":"st_cvj6sg6p6f1abm77japg","pricing_plan_id":"cebpf4jnsgd1na2vs0mg"},{"bike_id":"9df8365b-f082-4434-8a47-d0fa30bd03fe","system_id":"levelo_inurba_marseille","lat":43.24388,"lon":5.37061,"is_reserved":false,"is_disabled":false,"rental_uris":{"android":"levelo://app?vid=9df8365b-f082-4434-8a47-d0fa30bd03fe","ios":"levelo://app?vid=9df8365b-f082-4434-8a47-d0fa30bd03fe"},"vehicle_type_id":"4","last_reported":1744719578,"current_range_meters":23200,"station_id":"ce4bhhh2rcd13ifvqfk0","pricing_plan_id":"cebpf4jnsgd1na2vs0mg"},{"bike_id":"55c88c6b-5e7e-4bb8-86f5-972fd5aaebb3","system_id":"levelo_inurba_marseille","lat":43.302582,"lon":5.400786,"is_reserved":false,"is_disabled":false,"rental_uris":{"android":"levelo://app?vid=55c88c6b-5e7e-4bb8-86f5-972fd5aaebb3","ios":"levelo://app?vid=55c88c6b-5e7e-4bb8-86f5-972fd5aaebb3"},"vehicle_type_id":"4","last_reported":1744719578,"current_range_meters":23200,"station_id":"ce4bgvh2rcd13ifvqcs0","pricing_plan_id":"cebpf4jnsgd1na2vs0mg"},{"bike_id":"bd261c8c-f08e-4705-bd0b-3fada54540b9","system_id":"levelo_inurba_marseille","lat":43.2621,"lon":5.37451,"is_reserved":false,"is_disabled":false,"rental_uris":{"android":"levelo://app?vid=bd261c8c-f08e-4705-bd0b-3fada54540b9","ios":"levelo://app?vid=bd261c8c-f08e-4705-bd0b-3fada54540b9"},"vehicle_type_id":"4","last_reported":1744719578,"current_range_meters":23200,"station_id":"ce4bhgp2rcd13ifvqfc0","pricing_plan_id":"cebpf4jnsgd1na2vs0mg"},{"bike_id":"c3c06e79-6d3b-4a09-8841-561d4a04411d","system_id":"levelo_inurba_marseille","lat":43.29706,"lon":5.36592,"is_reserved":false,"is_disabled":false,"rental_uris":{"android":"levelo://app?vid=c3c06e79-6d3b-4a09-8841-561d4a04411d","ios":"levelo://app?vid=c3c06e79-6d3b-4a09-8841-561d4a04411d"},"vehicle_type_id":"4","last_reported":1744719578,"current_range_meters":23200,"station_id":"ce4bgn12rcd13ifvqbt0","pricing_plan_id":"cebpf4jnsgd1na2vs0mg"},{"bike_id":"f26c681f-fdca-4c04-8353-b8dea87784ae","system_id":"levelo_inurba_marseille","lat":43.299718,"lon":5.372002,"is_reserved":false,"is_disabled":false,"rental_uris":{"android":"levelo://app?vid=f26c681f-fdca-4c04-8353-b8dea87784ae","ios":"levelo://app?vid=f26c681f-fdca-4c04-8353-b8dea87784ae"},"vehicle_type_id":"4","last_reported":1744719578,"current_range_meters":23200,"station_id":"ce4bhh92rcd13ifvqfj0","pricing_plan_id":"cebpf4jnsgd1na2vs0mg"},{"bike_id":"5edb970d-3723-4d40-8f50-96e5f8fcd67b","system_id":"levelo_inurba_marseille","lat":43.29435,"lon":5.38628,"is_reserved":false,"is_disabled":false,"rental_uris":{"android":"levelo://app?vid=5edb970d-3723-4d40-8f50-96e5f8fcd67b","ios":"levelo://app?vid=5edb970d-3723-4d40-8f50-96e5f8fcd67b"},"vehicle_type_id":"4","last_reported":1744719578,"current_range_meters":23200,"station_id":"ce4bh2h2rcd13ifvqdh0","pricing_plan_id":"cebpf4jnsgd1na2vs0mg"},{"bike_id":"204d9d12-6bb5-4f88-9b8f-16552350009f","system_id":"levelo_inurba_marseille","lat":43.287481,"lon":5.385136,"is_reserved":false,"is_disabled":false,"rental_uris":{"android":"levelo://app?vid=204d9d12-6bb5-4f88-9b8f-16552350009f","ios":"levelo://app?vid=204d9d12-6bb5-4f88-9b8f-16552350009f"},"vehicle_type_id":"4","last_reported":1744719578,"current_range_meters":23200,"station_id":"ce4bh692rcd13ifvqea0","pricing_plan_id":"cebpf4jnsgd1na2vs0mg"},{"bike_id":"37024e7e-b0ed-4224-a89e-c8d634cb0894","system_id":"levelo_inurba_marseille","lat":43.301393,"lon":5.374125,"is_reserved":false,"is_disabled":false,"rental_uris":{"android":"levelo://app?vid=37024e7e-b0ed-4224-a89e-c8d634cb0894","ios":"levelo://app?vid=37024e7e-b0ed-4224-a89e-c8d634cb0894"},"vehicle_type_id":"4","last_reported":1744719578,"current_range_meters":23200,"station_id":"ce4bgs92rcd13ifvqcc0","pricing_plan_id":"cebpf4jnsgd1na2vs0mg"},{"bike_id":"f85ddc3c-5ccd-4232-bf64-6e945cd829a3","system_id":"levelo_inurba_marseille","lat":43.24181,"lon":5.39727,"is_reserved":false,"is_disabled":false,"rental_uris":{"android":"levelo://app?vid=f85ddc3c-5ccd-4232-bf64-6e945cd829a3","ios":"levelo://app?vid=f85ddc3c-5ccd-4232-bf64-6e945cd829a3"},"vehicle_type_id":"4","last_reported":1744719578,"current_range_meters":23200,"station_id":"ce4bhn12rcd13ifvqgpg","pricing_plan_id":"cebpf4jnsgd1na2vs0mg"},{"bike_id":"facf6e0d-0520-4b2b-8732-2e325af65e2b","system_id":"levelo_inurba_marseille","lat":43.29284,"lon":5.37447,"is_reserved":false,"is_disabled":false,"rental_uris":{"android":"levelo://app?vid=facf6e0d-0520-4b2b-8732-2e325af65e2b","ios":"levelo://app?vid=facf6e0d-0520-4b2b-8732-2e325af65e2b"},"vehicle_type_id":"4","last_reported":1744719578,"current_range_meters":23200,"station_id":"ce4bgi12rcd13ifvqb70","pricing_plan_id":"cebpf4jnsgd1na2vs0mg"},{"bike_id":"2f74cebc-4b25-414a-b927-cbcb869aeecf","system_id":"levelo_inurba_marseille","lat":43.279165,"lon":5.39591,"is_reserved":false,"is_disabled":false,"rental_uris":{"android":"levelo://app?vid=2f74cebc-4b25-414a-b927-cbcb869aeecf","ios":"levelo://app?vid=2f74cebc-4b25-414a-b927-cbcb869aeecf"},"vehicle_type_id":"4","last_reported":1744719578,"current_range_meters":23200,"station_id":"ce4bhf92rcd13ifvqf40","pricing_plan_id":"cebpf4jnsgd1na2vs0mg"},{"bike_id":"03c8cca9-f9e6-49a1-a258-155d60e948f3","system_id":"levelo_inurba_marseille","lat":43.301392,"lon":5.374182,"is_reserved":false,"is_disabled":false,"rental_uris":{"android":"levelo://app?vid=03c8cca9-f9e6-49a1-a258-155d60e948f3","ios":"levelo://app?vid=03c8cca9-f9e6-49a1-a258-155d60e948f3"},"vehicle_type_id":"4","last_reported":1744719578,"current_range_meters":23200,"station_id":"ce4bgs92rcd13ifvqcc0","pricing_plan_id":"cebpf4jnsgd1na2vs0mg"},{"bike_id":"9959428c-69da-44d3-8c64-8aaf5a339179","system_id":"levelo_inurba_marseille","lat":43.30991,"lon":5.40078,"is_reserved":false,"is_disabled":false,"rental_uris":{"android":"levelo://app?vid=9959428c-69da-44d3-8c64-8aaf5a339179","ios":"levelo://app?vid=9959428c-69da-44d3-8c64-8aaf5a339179"},"vehicle_type_id":"4","last_reported":1744719578,"current_range_meters":23200,"station_id":"","pricing_plan_id":"cebpf4jnsgd1na2vs0mg"},{"bike_id":"c3bb870c-a7e6-4b46-ad78-da8dec4be5b6","system_id":"levelo_inurba_marseille","lat":43.30548,"lon":5.36708,"is_reserved":false,"is_disabled":false,"rental_uris":{"android":"levelo://app?vid=c3bb870c-a7e6-4b46-ad78-da8dec4be5b6","ios":"levelo://app?vid=c3bb870c-a7e6-4b46-ad78-da8dec4be5b6"},"vehicle_type_id":"4","last_reported":1744719578,"current_range_meters":23200,"station_id":"ce4bgrp2rcd13ifvqc9g","pricing_plan_id":"cebpf4jnsgd1na2vs0mg"},{"bike_id":"617546f6-6ff5-4332-ae5e-08ec8ee56757","system_id":"levelo_inurba_marseille","lat":43.29528,"lon":5.38549,"is_reserved":false,"is_disabled":false,"rental_uris":{"android":"levelo://app?vid=617546f6-6ff5-4332-ae5e-08ec8ee56757","ios":"levelo://app?vid=617546f6-6ff5-4332-ae5e-08ec8ee56757"},"vehicle_type_id":"4","last_reported":1744719578,"current_range_meters":23200,"station_id":"ce4bgih2rcd13ifvqba0","pricing_plan_id":"cebpf4jnsgd1na2vs0mg"},{"bike_id":"5bae0c67-5d15-4251-8a71-43555b6c4c29","system_id":"levelo_inurba_marseille","lat":43.25497,"lon":5.37652,"is_reserved":false,"is_disabled":false,"rental_uris":{"android":"levelo://app?vid=5bae0c67-5d15-4251-8a71-43555b6c4c29","ios":"levelo://app?vid=5bae0c67-5d15-4251-8a71-43555b6c4c29"},"vehicle_type_id":"4","last_reported":1744719578,"current_range_meters":24000,"station_id":"ce4bhh12rcd13ifvqff0","pricing_plan_id":"cebpf4jnsgd1na2vs0mg"},{"bike_id":"14e79430-2686-4876-b515-21614e214b40","system_id":"levelo_inurba_marseille","lat":43.30878,"lon":5.39654,"is_reserved":false,"is_disabled":false,"rental_uris":{"android":"levelo://app?vid=14e79430-2686-4876-b515-21614e214b40","ios":"levelo://app?vid=14e79430-2686-4876-b515-21614e214b40"},"vehicle_type_id":"4","last_reported":1744719578,"current_range_meters":24000,"station_id":"ce4bh012rcd13ifvqcv0","pricing_plan_id":"cebpf4jnsgd1na2vs0mg"},{"bike_id":"29adbd95-028a-40a4-856b-d3d896eec2fe","system_id":"levelo_inurba_marseille","lat":43.28002,"lon":5.40052,"is_reserved":false,"is_disabled":false,"rental_uris":{"android":"levelo://app?vid=29adbd95-028a-40a4-856b-d3d896eec2fe","ios":"levelo://app?vid=29adbd95-028a-40a4-856b-d3d896eec2fe"},"vehicle_type_id":"4","last_reported":1744719578,"current_range_meters":24000,"station_id":"ce4bho92rcd13ifvqh4g","pricing_plan_id":"cebpf4jnsgd1na2vs0mg"},{"bike_id":"5230ede4-a77b-411d-bf33-2c03f11e2c04","system_id":"levelo_inurba_marseille","lat":43.29529,"lon":5.390491,"is_reserved":false,"is_disabled":false,"rental_uris":{"android":"levelo://app?vid=5230ede4-a77b-411d-bf33-2c03f11e2c04","ios":"levelo://app?vid=5230ede4-a77b-411d-bf33-2c03f11e2c04"},"vehicle_type_id":"4","last_reported":1744719578,"current_range_meters":24000,"station_id":"ce4bh3p2rcd13ifvqdp0","pricing_plan_id":"cebpf4jnsgd1na2vs0mg"},{"bike_id":"6ba75421-2540-4e6c-a03a-7cf0990137a4","system_id":"levelo_inurba_marseille","lat":43.24158,"lon":5.39692,"is_reserved":false,"is_disabled":false,"rental_uris":{"android":"levelo://app?vid=6ba75421-2540-4e6c-a03a-7cf0990137a4","ios":"levelo://app?vid=6ba75421-2540-4e6c-a03a-7cf0990137a4"},"vehicle_type_id":"4","last_reported":1744719578,"current_range_meters":24000,"station_id":"ce4bhn12rcd13ifvqgpg","pricing_plan_id":"cebpf4jnsgd1na2vs0mg"},{"bike_id":"68212f99-83c8-4c74-a586-3b28df65d58a","system_id":"levelo_inurba_marseille","lat":43.295236,"lon":5.390374,"is_reserved":false,"is_disabled":false,"rental_uris":{"android":"levelo://app?vid=68212f99-83c8-4c74-a586-3b28df65d58a","ios":"levelo://app?vid=68212f99-83c8-4c74-a586-3b28df65d58a"},"vehicle_type_id":"4","last_reported":1744719578,"current_range_meters":24000,"station_id":"ce4bh3p2rcd13ifvqdp0","pricing_plan_id":"cebpf4jnsgd1na2vs0mg"},{"bike_id":"ed277671-5069-41be-a386-38170335cdc8","system_id":"levelo_inurba_marseille","lat":43.313413,"lon":5.367163,"is_reserved":false,"is_disabled":false,"rental_uris":{"android":"levelo://app?vid=ed277671-5069-41be-a386-38170335cdc8","ios":"levelo://app?vid=ed277671-5069-41be-a386-38170335cdc8"},"vehicle_type_id":"4","last_reported":1744719578,"current_range_meters":24400,"station_id":"ce4bgr92rcd13ifvqc6g","pricing_plan_id":"cebpf4jnsgd1na2vs0mg"},{"bike_id":"20eb203e-428a-4993-8dc1-5d6a1fa8a489","system_id":"levelo_inurba_marseille","lat":43.27453,"lon":5.39407,"is_reserved":false,"is_disabled":true,"rental_uris":{"android":"levelo://app?vid=20eb203e-428a-4993-8dc1-5d6a1fa8a489","ios":"levelo://app?vid=20eb203e-428a-4993-8dc1-5d6a1fa8a489"},"vehicle_type_id":"4","last_reported":1744719578,"current_range_meters":24400,"station_id":"ce4bhdp2rcd13ifvqf20","pricing_plan_id":"cebpf4jnsgd1na2vs0mg"},{"bike_id":"d07f3575-c570-4366-9138-201949d4b627","system_id":"levelo_inurba_marseille","lat":43.22934,"lon":5.35379,"is_reserved":false,"is_disabled":false,"rental_uris":{"android":"levelo://app?vid=d07f3575-c570-4366-9138-201949d4b627","ios":"levelo://app?vid=d07f3575-c570-4366-9138-201949d4b627"},"vehicle_type_id":"4","last_reported":1744719578,"current_range_meters":24400,"station_id":"cpo3532slgdg3j2ikp40","pricing_plan_id":"cebpf4jnsgd1na2vs0mg"},{"bike_id":"2d03e3c2-09e4-4978-8dbc-31228f7e9fd5","system_id":"levelo_inurba_marseille","lat":43.25574,"lon":5.38241,"is_reserved":false,"is_disabled":false,"rental_uris":{"android":"levelo://app?vid=2d03e3c2-09e4-4978-8dbc-31228f7e9fd5","ios":"levelo://app?vid=2d03e3c2-09e4-4978-8dbc-31228f7e9fd5"},"vehicle_type_id":"4","last_reported":1744719578,"current_range_meters":24400,"station_id":"ce4bhih2rcd13ifvqfs0","pricing_plan_id":"cebpf4jnsgd1na2vs0mg"},{"bike_id":"359fdaa0-bf9c-4933-9100-7a68179b70ef","system_id":"levelo_inurba_marseille","lat":43.24175,"lon":5.39731,"is_reserved":false,"is_disabled":false,"rental_uris":{"android":"levelo://app?vid=359fdaa0-bf9c-4933-9100-7a68179b70ef","ios":"levelo://app?vid=359fdaa0-bf9c-4933-9100-7a68179b70ef"},"vehicle_type_id":"4","last_reported":1744719578,"current_range_meters":24400,"station_id":"ce4bhn12rcd13ifvqgpg","pricing_plan_id":"cebpf4jnsgd1na2vs0mg"},{"bike_id":"9a0b3597-fd06-49c6-873d-e8b422e3a95b","system_id":"levelo_inurba_marseille","lat":43.248,"lon":5.37456,"is_reserved":false,"is_disabled":false,"rental_uris":{"android":"levelo://app?vid=9a0b3597-fd06-49c6-873d-e8b422e3a95b","ios":"levelo://app?vid=9a0b3597-fd06-49c6-873d-e8b422e3a95b"},"vehicle_type_id":"4","last_reported":1744719578,"current_range_meters":24400,"station_id":"ce4bhgh2rcd13ifvqfb0","pricing_plan_id":"cebpf4jnsgd1na2vs0mg"},{"bike_id":"f4f2a3c2-2e88-42f2-a842-4b821963dedc","system_id":"levelo_inurba_marseille","lat":43.22944,"lon":5.35382,"is_reserved":false,"is_disabled":false,"rental_uris":{"android":"levelo://app?vid=f4f2a3c2-2e88-42f2-a842-4b821963dedc","ios":"levelo://app?vid=f4f2a3c2-2e88-42f2-a842-4b821963dedc"},"vehicle_type_id":"4","last_reported":1744719578,"current_range_meters":24400,"station_id":"cpo3532slgdg3j2ikp40","pricing_plan_id":"cebpf4jnsgd1na2vs0mg"},{"bike_id":"d04dd10a-be99-4a2d-a211-db0ef3c42399","system_id":"levelo_inurba_marseille","lat":43.30467,"lon":5.3791,"is_reserved":false,"is_disabled":false,"rental_uris":{"android":"levelo://app?vid=d04dd10a-be99-4a2d-a211-db0ef3c42399","ios":"levelo://app?vid=d04dd10a-be99-4a2d-a211-db0ef3c42399"},