{"last_updated":1752720944,"ttl":60,"version":"2.2","data":{"bikes":[{"bike_id":"53b742a7-31ae-4272-9bba-7740339e2a2f","system_id":"levelo_inurba_marseille","lat":43.33747,"lon":5.37463,"is_reserved":false,"is_disabled":false,"rental_uris":{"android":"levelo://app?vid=53b742a7-31ae-4272-9bba-7740339e2a2f","ios":"levelo://app?vid=53b742a7-31ae-4272-9bba-7740339e2a2f"},"vehicle_type_id":"1","last_reported":1752720944,"current_range_meters":26000,"station_id":"","pricing_plan_id":"cebpf4jnsgd1na2vs0mg"},{"bike_id":"b3894e90-3454-46f0-abaf-4f33ab0f2bae","system_id":"levelo_inurba_marseille","lat":43.31203,"lon":5.38174,"is_reserved":false,"is_disabled":false,"rental_uris":{"android":"levelo://app?vid=b3894e90-3454-46f0-abaf-4f33ab0f2bae","ios":"levelo://app?vid=b3894e90-3454-46f0-abaf-4f33ab0f2bae"},"vehicle_type_id":"4","last_reported":1752720944,"current_range_meters":2800,"station_id":"","pricing_plan_id":"cebpf4jnsgd1na2vs0mg"},{"bike_id":"8d213593-b424-4eeb-943c-d094e887bfc4","system_id":"levelo_inurba_marseille","lat":43.31486,"lon":5.37288,"is_reserved":false,"is_disabled":false,"rental_uris":{"android":"levelo://app?vid=8d213593-b424-4eeb-943c-d094e887bfc4","ios":"levelo://app?vid=8d213593-b424-4eeb-943c-d094e887bfc4"},"vehicle_type_id":"4","last_reported":1752720944,"current_range_meters":2800,"station_id":"ce4bgt12rcd13ifvqcd0","pricing_plan_id":"cebpf4jnsgd1na2vs0mg"},{"bike_id":"a8ce6efe-50ae-4699-a953-570b09452efb","system_id":"levelo_inurba_marseille","lat":43.250106,"lon":5.389216,"is_reserved":false,"is_disabled":true,"rental_uris":{"android":"levelo://app?vid=a8ce6efe-50ae-4699-a953-570b09452efb","ios":"levelo://app?vid=a8ce6efe-50ae-4699-a953-570b09452efb"},"vehicle_type_id":"4","last_reported":1752720944,"current_range_meters":2800,"station_id":"ce4bhgp2rcd13ifvqfd0","pricing_plan_id":"cebpf4jnsgd1na2vs0mg"},{"bike_id":"54f83807-6038-45cd-97bc-ade0144c2b30","system_id":"levelo_inurba_marseille","lat":43.29859,"lon":5.37626,"is_reserved":false,"is_disabled":true,"rental_uris":{"android":"levelo://app?vid=54f83807-6038-45cd-97bc-ade0144c2b30","ios":"levelo://app?vid=54f83807-6038-45cd-97bc-ade0144c2b30"},"vehicle_type_id":"4","last_reported":1752720944,"current_range_meters":3200,"station_id":"","pricing_plan_id":"cebpf4jnsgd1na2vs0mg"},{"bike_id":"3a07c0f1-7026-47e2-9f9c-1daea22494a8","system_id":"levelo_inurba_marseille","lat":43.30231,"lon":5.42244,"is_reserved":false,"is_disabled":true,"rental_uris":{"android":"levelo://app?vid=3a07c0f1-7026-47e2-9f9c-1daea22494a8","ios":"levelo://app?vid=3a07c0f1-7026-47e2-9f9c-1daea22494a8"},"vehicle_type_id":"4","last_reported":1752720944,"current_range_meters":3200,"station_id":"","pricing_plan_id":"cebpf4jnsgd1na2vs0mg"},{"bike_id":"fd12b823-9308-4951-8d3a-fc6d33d92281","system_id":"levelo_inurba_marseille","lat":43.26209,"lon":5.37463,"is_reserved":false,"is_disabled":true,"rental_uris":{"android":"levelo://app?vid=fd12b823-9308-4951-8d3a-fc6d33d92281","ios":"levelo://app?vid=fd12b823-9308-4951-8d3a-fc6d33d92281"},"vehicle_type_id":"4","last_reported":1752720944,"current_range_meters":3600,"station_id":"ce4bhgp2rcd13ifvqfc0","pricing_plan_id":"cebpf4jnsgd1na2vs0mg"},{"bike_id":"fc4b58ec-a7d6-4374-87b8-180039f8f6db","system_id":"levelo_inurba_marseille","lat":43.30293,"lon":5.37687,"is_reserved":false,"is_disabled":false,"rental_uris":{"android":"levelo://app?vid=fc4b58ec-a7d6-4374-87b8-180039f8f6db","ios":"levelo://app?vid=fc4b58ec-a7d6-4374-87b8-180039f8f6db"},"vehicle_type_id":"4","last_reported":1752720944,"current_range_meters":3600,"station_id":"ce4bguh2rcd13ifvqcj0","pricing_plan_id":"cebpf4jnsgd1na2vs0mg"},{"bike_id":"d57994d0-7251-41fb-a896-56b364219059","system_id":"levelo_inurba_marseille","lat":43.29904,"lon":5.38265,"is_reserved":false,"is_disabled":false,"rental_uris":{"android":"levelo://app?vid=d57994d0-7251-41fb-a896-56b364219059","ios":"levelo://app?vid=d57994d0-7251-41fb-a896-56b364219059"},"vehicle_type_id":"4","last_reported":1752720944,"current_range_meters":4000,"station_id":"","pricing_plan_id":"cebpf4jnsgd1na2vs0mg"},{"bike_id":"e2f2f893-16c7-42e5-8c51-893940a1136e","system_id":"levelo_inurba_marseille","lat":43.30132,"lon":5.36874,"is_reserved":false,"is_disabled":false,"rental_uris":{"android":"levelo://app?vid=e2f2f893-16c7-42e5-8c51-893940a1136e","ios":"levelo://app?vid=e2f2f893-16c7-42e5-8c51-893940a1136e"},"vehicle_type_id":"4","last_reported":1752720944,"current_range_meters":4400,"station_id":"","pricing_plan_id":"cebpf4jnsgd1na2vs0mg"},{"bike_id":"70ab5359-4de0-4c0a-90ac-a2f4e054c079","system_id":"levelo_inurba_marseille","lat":43.29869,"lon":5.39729,"is_reserved":false,"is_disabled":false,"rental_uris":{"android":"levelo://app?vid=70ab5359-4de0-4c0a-90ac-a2f4e054c079","ios":"levelo://app?vid=70ab5359-4de0-4c0a-90ac-a2f4e054c079"},"vehicle_type_id":"4","last_reported":1752720944,"current_range_meters":4400,"station_id":"ce4bh0h2rcd13ifvqd50","pricing_plan_id":"cebpf4jnsgd1na2vs0mg"},{"bike_id":"5ff06d2e-1fcb-4f7f-b26f-494ef01051e2","system_id":"levelo_inurba_marseille","lat":43.26587,"lon":5.39483,"is_reserved":false,"is_disabled":true,"rental_uris":{"android":"levelo://app?vid=5ff06d2e-1fcb-4f7f-b26f-494ef01051e2","ios":"levelo://app?vid=5ff06d2e-1fcb-4f7f-b26f-494ef01051e2"},"vehicle_type_id":"4","last_reported":1752720944,"current_range_meters":4400,"station_id":"","pricing_plan_id":"cebpf4jnsgd1na2vs0mg"},{"bike_id":"cb98f2d1-9294-40aa-8451-6bcf39af84aa","system_id":"levelo_inurba_marseille","lat":43.262034,"lon":5.374061,"is_reserved":false,"is_disabled":true,"rental_uris":{"android":"levelo://app?vid=cb98f2d1-9294-40aa-8451-6bcf39af84aa","ios":"levelo://app?vid=cb98f2d1-9294-40aa-8451-6bcf39af84aa"},"vehicle_type_id":"4","last_reported":1752720944,"current_range_meters":4800,"station_id":"","pricing_plan_id":"cebpf4jnsgd1na2vs0mg"},{"bike_id":"3859f018-7b5f-469a-871e-d6832dcfaf8e","system_id":"levelo_inurba_marseille","lat":43.24809,"lon":5.3746,"is_reserved":false,"is_disabled":true,"rental_uris":{"android":"levelo://app?vid=3859f018-7b5f-469a-871e-d6832dcfaf8e","ios":"levelo://app?vid=3859f018-7b5f-469a-871e-d6832dcfaf8e"},"vehicle_type_id":"4","last_reported":1752720944,"current_range_meters":5600,"station_id":"ce4bhgh2rcd13ifvqfb0","pricing_plan_id":"cebpf4jnsgd1na2vs0mg"},{"bike_id":"7b703aab-a011-4c43-af80-0678f53356e5","system_id":"levelo_inurba_marseille","lat":43.311113,"lon":5.377669,"is_reserved":false,"is_disabled":false,"rental_uris":{"android":"levelo://app?vid=7b703aab-a011-4c43-af80-0678f53356e5","ios":"levelo://app?vid=7b703aab-a011-4c43-af80-0678f53356e5"},"vehicle_type_id":"4","last_reported":1752720944,"current_range_meters":5600,"station_id":"ce4bgt92rcd13ifvqcg0","pricing_plan_id":"cebpf4jnsgd1na2vs0mg"},{"bike_id":"8119b35c-4128-43de-8d2f-ac4b045f393b","system_id":"levelo_inurba_marseille","lat":43.28707,"lon":5.39982,"is_reserved":false,"is_disabled":false,"rental_uris":{"android":"levelo://app?vid=8119b35c-4128-43de-8d2f-ac4b045f393b","ios":"levelo://app?vid=8119b35c-4128-43de-8d2f-ac4b045f393b"},"vehicle_type_id":"4","last_reported":1752720944,"current_range_meters":5600,"station_id":"ce4bho92rcd13ifvqh3g","pricing_plan_id":"cebpf4jnsgd1na2vs0mg"},{"bike_id":"d98ef30e-38a0-41ef-a00a-304afa979a1e","system_id":"levelo_inurba_marseille","lat":43.29909,"lon":5.43652,"is_reserved":false,"is_disabled":true,"rental_uris":{"android":"levelo://app?vid=d98ef30e-38a0-41ef-a00a-304afa979a1e","ios":"levelo://app?vid=d98ef30e-38a0-41ef-a00a-304afa979a1e"},"vehicle_type_id":"4","last_reported":1752720944,"current_range_meters":6000,"station_id":"ce4bhpp2rcd13ifvqhfg","pricing_plan_id":"cebpf4jnsgd1na2vs0mg"},{"bike_id":"e5ec4b25-dbcc-42eb-bf86-2cca309a0b15","system_id":"levelo_inurba_marseille","lat":43.264945,"lon":5.395365,"is_reserved":false,"is_disabled":true,"rental_uris":{"android":"levelo://app?vid=e5ec4b25-dbcc-42eb-bf86-2cca309a0b15","ios":"levelo://app?vid=e5ec4b25-dbcc-42eb-bf86-2cca309a0b15"},"vehicle_type_id":"4","last_reported":1752720944,"current_range_meters":6000,"station_id":"","pricing_plan_id":"cebpf4jnsgd1na2vs0mg"},{"bike_id":"bdadbfdd-02ec-43df-a8ac-0ce1d617c55c","system_id":"levelo_inurba_marseille","lat":43.28711,"lon":5.37432,"is_reserved":false,"is_disabled":false,"rental_uris":{"android":"levelo://app?vid=bdadbfdd-02ec-43df-a8ac-0ce1d617c55c","ios":"levelo://app?vid=bdadbfdd-02ec-43df-a8ac-0ce1d617c55c"},"vehicle_type_id":"4","last_reported":1752720944,"current_range_meters":6400,"station_id":"ce4bh3p2rcd13ifvqdq0","pricing_plan_id":"cebpf4jnsgd1na2vs0mg"},{"bike_id":"d553f79e-5506-425b-a687-bc062706157f","system_id":"levelo_inurba_marseille","lat":43.25818,"lon":5.39435,"is_reserved":false,"is_disabled":false,"rental_uris":{"android":"levelo://app?vid=d553f79e-5506-425b-a687-bc062706157f","ios":"levelo://app?vid=d553f79e-5506-425b-a687-bc062706157f"},"vehicle_type_id":"4","last_reported":1752720944,"current_range_meters":6800,"station_id":"ce4bhip2rcd13ifvqft0","pricing_plan_id":"cebpf4jnsgd1na2vs0mg"},{"bike_id":"1dc0f4c0-ae56-4127-9e91-7db3d392604b","system_id":"levelo_inurba_marseille","lat":43.302591,"lon":5.400559,"is_reserved":false,"is_disabled":false,"rental_uris":{"android":"levelo://app?vid=1dc0f4c0-ae56-4127-9e91-7db3d392604b","ios":"levelo://app?vid=1dc0f4c0-ae56-4127-9e91-7db3d392604b"},"vehicle_type_id":"4","last_reported":1752720944,"current_range_meters":6800,"station_id":"ce4bgvh2rcd13ifvqcs0","pricing_plan_id":"cebpf4jnsgd1na2vs0mg"},{"bike_id":"080b0f22-14dd-4044-a18f-ee7f74366cea","system_id":"levelo_inurba_marseille","lat":43.320001,"lon":5.381478,"is_reserved":false,"is_disabled":true,"rental_uris":{"android":"levelo://app?vid=080b0f22-14dd-4044-a18f-ee7f74366cea","ios":"levelo://app?vid=080b0f22-14dd-4044-a18f-ee7f74366cea"},"vehicle_type_id":"4","last_reported":1752720944,"current_range_meters":6800,"station_id":"ce4bhr12rcd13ifvqhpg","pricing_plan_id":"cebpf4jnsgd1na2vs0mg"},{"bike_id":"0e6c3bad-5270-45b9-a02b-ad436c7353cc","system_id":"levelo_inurba_marseille","lat":43.303765,"lon":5.424876,"is_reserved":false,"is_disabled":false,"rental_uris":{"android":"levelo://app?vid=0e6c3bad-5270-45b9-a02b-ad436c7353cc","ios":"levelo://app?vid=0e6c3bad-5270-45b9-a02b-ad436c7353cc"},"vehicle_type_id":"4","last_reported":1752720944,"current_range_meters":7200,"station_id":"ce4bhoh2rcd13ifvqh6g","pricing_plan_id":"cebpf4jnsgd1na2vs0mg"},{"bike_id":"2c6e34ec-e4ad-4b55-908f-732bdcecdb2f","system_id":"levelo_inurba_marseille","lat":43.21189,"lon":5.3507,"is_reserved":false,"is_disabled":false,"rental_uris":{"android":"levelo://app?vid=2c6e34ec-e4ad-4b55-908f-732bdcecdb2f","ios":"levelo://app?vid=2c6e34ec-e4ad-4b55-908f-732bdcecdb2f"},"vehicle_type_id":"4","last_reported":1752720944,"current_range_meters":8000,"station_id":"st_cvj6sg6p6f1abm77japg","pricing_plan_id":"cebpf4jnsgd1na2vs0mg"},{"bike_id":"a5b711eb-b7ea-4418-88cd-82f05b3c722a","system_id":"levelo_inurba_marseille","lat":43.26591,"lon":5.387018,"is_reserved":false,"is_disabled":true,"rental_uris":{"android":"levelo://app?vid=a5b711eb-b7ea-4418-88cd-82f05b3c722a","ios":"levelo://app?vid=a5b711eb-b7ea-4418-88cd-82f05b3c722a"},"vehicle_type_id":"4","last_reported":1752720944,"current_range_meters":8000,"station_id":"","pricing_plan_id":"cebpf4jnsgd1na2vs0mg"},{"bike_id":"5f739e88-e602-4de0-9960-58f027783b80","system_id":"levelo_inurba_marseille","lat":43.31124,"lon":5.37764,"is_reserved":false,"is_disabled":false,"rental_uris":{"android":"levelo://app?vid=5f739e88-e602-4de0-9960-58f027783b80","ios":"levelo://app?vid=5f739e88-e602-4de0-9960-58f027783b80"},"vehicle_type_id":"4","last_reported":1752720944,"current_range_meters":8400,"station_id":"ce4bgt92rcd13ifvqcg0","pricing_plan_id":"cebpf4jnsgd1na2vs0mg"},{"bike_id":"ff345cf6-8767-46c4-aa71-863dbc163faf","system_id":"levelo_inurba_marseille","lat":43.31285,"lon":5.40167,"is_reserved":false,"is_disabled":false,"rental_uris":{"android":"levelo://app?vid=ff345cf6-8767-46c4-aa71-863dbc163faf","ios":"levelo://app?vid=ff345cf6-8767-46c4-aa71-863dbc163faf"},"vehicle_type_id":"4","last_reported":1752720944,"current_range_meters":8400,"station_id":"ce4bh092rcd13ifvqd30","pricing_plan_id":"cebpf4jnsgd1na2vs0mg"},{"bike_id":"d6356d7a-7255-43cb-8445-6e63809ab718","system_id":"levelo_inurba_marseille","lat":43.32492,"lon":5.36563,"is_reserved":false,"is_disabled":false,"rental_uris":{"android":"levelo://app?vid=d6356d7a-7255-43cb-8445-6e63809ab718","ios":"levelo://app?vid=d6356d7a-7255-43cb-8445-6e63809ab718"},"vehicle_type_id":"4","last_reported":1752720944,"current_range_meters":8400,"station_id":"ce4bhs12rcd13ifvqhvg","pricing_plan_id":"cebpf4jnsgd1na2vs0mg"},{"bike_id":"21277f10-5153-4980-90c8-114919d3afab","system_id":"levelo_inurba_marseille","lat":43.31068,"lon":5.38353,"is_reserved":false,"is_disabled":true,"rental_uris":{"android":"levelo://app?vid=21277f10-5153-4980-90c8-114919d3afab","ios":"levelo://app?vid=21277f10-5153-4980-90c8-114919d3afab"},"vehicle_type_id":"4","last_reported":1752720944,"current_range_meters":8800,"station_id":"ce4bgv92rcd13ifvqcr0","pricing_plan_id":"cebpf4jnsgd1na2vs0mg"},{"bike_id":"1145602c-3b12-4604-b8ff-291284dfc532","system_id":"levelo_inurba_marseille","lat":43.22508,"lon":5.34775,"is_reserved":false,"is_disabled":false,"rental_uris":{"android":"levelo://app?vid=1145602c-3b12-4604-b8ff-291284dfc532","ios":"levelo://app?vid=1145602c-3b12-4604-b8ff-291284dfc532"},"vehicle_type_id":"4","last_reported":1752720944,"current_range_meters":8800,"station_id":"st_cvj5dfep6f1abm77gieg","pricing_plan_id":"cebpf4jnsgd1na2vs0mg"},{"bike_id":"d97bb949-0737-4e74-84dd-59b6dc55c128","system_id":"levelo_inurba_marseille","lat":43.283042,"lon":5.433018,"is_reserved":false,"is_disabled":false,"rental_uris":{"android":"levelo://app?vid=d97bb949-0737-4e74-84dd-59b6dc55c128","ios":"levelo://app?vid=d97bb949-0737-4e74-84dd-59b6dc55c128"},"vehicle_type_id":"4","last_reported":1752720944,"current_range_meters":9200,"station_id":"","pricing_plan_id":"cebpf4jnsgd1na2vs0mg"},{"bike_id":"bb5d9deb-7517-43be-8a1b-f804625d2132","system_id":"levelo_inurba_marseille","lat":43.29303,"lon":5.37442,"is_reserved":false,"is_disabled":true,"rental_uris":{"android":"levelo://app?vid=bb5d9deb-7517-43be-8a1b-f804625d2132","ios":"levelo://app?vid=bb5d9deb-7517-43be-8a1b-f804625d2132"},"vehicle_type_id":"4","last_reported":1752720944,"current_range_meters":9200,"station_id":"ce4bgi12rcd13ifvqb70","pricing_plan_id":"cebpf4jnsgd1na2vs0mg"},{"bike_id":"200d8286-fb8e-438e-82e1-3789970c48b6","system_id":"levelo_inurba_marseille","lat":43.292791,"lon":5.368412,"is_reserved":false,"is_disabled":false,"rental_uris":{"android":"levelo://app?vid=200d8286-fb8e-438e-82e1-3789970c48b6","ios":"levelo://app?vid=200d8286-fb8e-438e-82e1-3789970c48b6"},"vehicle_type_id":"4","last_reported":1752720944,"current_range_meters":9200,"station_id":"ce4bhbp2rcd13ifvqesg","pricing_plan_id":"cebpf4jnsgd1na2vs0mg"},{"bike_id":"54b283c6-c314-444c-b492-3e78ed7f2d30","system_id":"levelo_inurba_marseille","lat":43.32939,"lon":5.39054,"is_reserved":false,"is_disabled":false,"rental_uris":{"android":"levelo://app?vid=54b283c6-c314-444c-b492-3e78ed7f2d30","ios":"levelo://app?vid=54b283c6-c314-444c-b492-3e78ed7f2d30"},"vehicle_type_id":"4","last_reported":1752720944,"current_range_meters":9600,"station_id":"","pricing_plan_id":"cebpf4jnsgd1na2vs0mg"},{"bike_id":"3497b8c1-eec3-4bcf-a2a8-074629d1c01b","system_id":"levelo_inurba_marseille","lat":43.305316,"lon":5.367038,"is_reserved":false,"is_disabled":false,"rental_uris":{"android":"levelo://app?vid=3497b8c1-eec3-4bcf-a2a8-074629d1c01b","ios":"levelo://app?vid=3497b8c1-eec3-4bcf-a2a8-074629d1c01b"},"vehicle_type_id":"4","last_reported":1752720944,"current_range_meters":9600,"station_id":"","pricing_plan_id":"cebpf4jnsgd1na2vs0mg"},{"bike_id":"8cdec300-35b1-400d-9c10-683ae4321a3a","system_id":"levelo_inurba_marseille","lat":43.28704,"lon":5.37394,"is_reserved":false,"is_disabled":false,"rental_uris":{"android":"levelo://app?vid=8cdec300-35b1-400d-9c10-683ae4321a3a","ios":"levelo://app?vid=8cdec300-35b1-400d-9c10-683ae4321a3a"},"vehicle_type_id":"4","last_reported":1752720944,"current_range_meters":9600,"station_id":"ce4bh3p2rcd13ifvqdq0","pricing_plan_id":"cebpf4jnsgd1na2vs0mg"},{"bike_id":"aa69ed1b-1520-4830-b2d3-d649ce969d5c","system_id":"levelo_inurba_marseille","lat":43.28547,"lon":5.39508,"is_reserved":false,"is_disabled":false,"rental_uris":{"android":"levelo://app?vid=aa69ed1b-1520-4830-b2d3-d649ce969d5c","ios":"levelo://app?vid=aa69ed1b-1520-4830-b2d3-d649ce969d5c"},"vehicle_type_id":"4","last_reported":1752720944,"current_range_meters":9600,"station_id":"ce4bh292rcd13ifvqdg0","pricing_plan_id":"cebpf4jnsgd1na2vs0mg"},{"bike_id":"e63f05de-effa-4c72-90d4-75f3968d4a40","system_id":"levelo_inurba_marseille","lat":43.28473,"lon":5.37497,"is_reserved":false,"is_disabled":false,"rental_uris":{"android":"levelo://app?vid=e63f05de-effa-4c72-90d4-75f3968d4a40","ios":"levelo://app?vid=e63f05de-effa-4c72-90d4-75f3968d4a40"},"vehicle_type_id":"4","last_reported":1752720944,"current_range_meters":9600,"station_id":"","pricing_plan_id":"cebpf4jnsgd1na2vs0mg"},{"bike_id":"d73afb15-81f9-4367-88db-ec6b7d209561","system_id":"levelo_inurba_marseille","lat":43.29557,"lon":5.39959,"is_reserved":false,"is_disabled":false,"rental_uris":{"android":"levelo://app?vid=d73afb15-81f9-4367-88db-ec6b7d209561","ios":"levelo://app?vid=d73afb15-81f9-4367-88db-ec6b7d209561"},"vehicle_type_id":"4","last_reported":1752720944,"current_range_meters":10000,"station_id":"ce4bh312rcd13ifvqdj0","pricing_plan_id":"cebpf4jnsgd1na2vs0mg"},{"bike_id":"e5bec6b1-43e6-46f2-9810-affd93766dd8","system_id":"levelo_inurba_marseille","lat":43.337825,"lon":5.374741,"is_reserved":false,"is_disabled":true,"rental_uris":{"android":"levelo://app?vid=e5bec6b1-43e6-46f2-9810-affd93766dd8","ios":"levelo://app?vid=e5bec6b1-43e6-46f2-9810-affd93766dd8"},"vehicle_type_id":"4","last_reported":1752720944,"current_range_meters":10000,"station_id":"","pricing_plan_id":"cebpf4jnsgd1na2vs0mg"},{"bike_id":"697b62b6-8043-4f88-8466-e07cc3b9d930","system_id":"levelo_inurba_marseille","lat":43.30323,"lon":5.37746,"is_reserved":false,"is_disabled":false,"rental_uris":{"android":"levelo://app?vid=697b62b6-8043-4f88-8466-e07cc3b9d930","ios":"levelo://app?vid=697b62b6-8043-4f88-8466-e07cc3b9d930"},"vehicle_type_id":"4","last_reported":1752720944,"current_range_meters":10000,"station_id":"","pricing_plan_id":"cebpf4jnsgd1na2vs0mg"},{"bike_id":"a0240c56-90da-40fe-8c4c-6cce4610b887","system_id":"levelo_inurba_marseille","lat":43.28859,"lon":5.39324,"is_reserved":false,"is_disabled":false,"rental_uris":{"android":"levelo://app?vid=a0240c56-90da-40fe-8c4c-6cce4610b887","ios":"levelo://app?vid=a0240c56-90da-40fe-8c4c-6cce4610b887"},"vehicle_type_id":"4","last_reported":1752720944,"current_range_meters":10000,"station_id":"ce4bh2p2rcd13ifvqdi0","pricing_plan_id":"cebpf4jnsgd1na2vs0mg"},{"bike_id":"0895dc70-7c1a-43e5-b7c1-f859e1b4306e","system_id":"levelo_inurba_marseille","lat":43.28439,"lon":5.39187,"is_reserved":false,"is_disabled":false,"rental_uris":{"android":"levelo://app?vid=0895dc70-7c1a-43e5-b7c1-f859e1b4306e","ios":"levelo://app?vid=0895dc70-7c1a-43e5-b7c1-f859e1b4306e"},"vehicle_type_id":"4","last_reported":1752720944,"current_range_meters":10000,"station_id":"ce4bhoh2rcd13ifvqh5g","pricing_plan_id":"cebpf4jnsgd1na2vs0mg"},{"bike_id":"330fac4a-3c49-4cee-9fa8-86a199760139","system_id":"levelo_inurba_marseille","lat":43.28714,"lon":5.37436,"is_reserved":false,"is_disabled":false,"rental_uris":{"android":"levelo://app?vid=330fac4a-3c49-4cee-9fa8-86a199760139","ios":"levelo://app?vid=330fac4a-3c49-4cee-9fa8-86a199760139"},"vehicle_type_id":"4","last_reported":1752720944,"current_range_meters":10000,"station_id":"","pricing_plan_id":"cebpf4jnsgd1na2vs0mg"},{"bike_id":"7e387c3d-a801-40c9-a984-ce30087355e3","system_id":"levelo_inurba_marseille","lat":43.30728,"lon":5.42456,"is_reserved":false,"is_disabled":false,"rental_uris":{"android":"levelo://app?vid=7e387c3d-a801-40c9-a984-ce30087355e3","ios":"levelo://app?vid=7e387c3d-a801-40c9-a984-ce30087355e3"},"vehicle_type_id":"4","last_reported":1752720944,"current_range_meters":10000,"station_id":"st_cvj6ca6bvosntc0bfgr0","pricing_plan_id":"cebpf4jnsgd1na2vs0mg"},{"bike_id":"abf08ed8-aaf6-42db-95d1-ba59e6caa078","system_id":"levelo_inurba_marseille","lat":43.30301,"lon":5.392,"is_reserved":false,"is_disabled":false,"rental_uris":{"android":"levelo://app?vid=abf08ed8-aaf6-42db-95d1-ba59e6caa078","ios":"levelo://app?vid=abf08ed8-aaf6-42db-95d1-ba59e6caa078"},"vehicle_type_id":"4","last_reported":1752720944,"current_range_meters":10800,"station_id":"ce4bgkh2rcd13ifvqbk0","pricing_plan_id":"cebpf4jnsgd1na2vs0mg"},{"bike_id":"f0dc1077-108b-42b7-b8f6-31df7e51d2c3","system_id":"levelo_inurba_marseille","lat":43.28568,"lon":5.39484,"is_reserved":false,"is_disabled":false,"rental_uris":{"android":"levelo://app?vid=f0dc1077-108b-42b7-b8f6-31df7e51d2c3","ios":"levelo://app?vid=f0dc1077-108b-42b7-b8f6-31df7e51d2c3"},"vehicle_type_id":"4","last_reported":1752720944,"current_range_meters":10800,"station_id":"ce4bh292rcd13ifvqdg0","pricing_plan_id":"cebpf4jnsgd1na2vs0mg"},{"bike_id":"40b7d6dc-dc7d-4587-a9df-7efd0f964364","system_id":"levelo_inurba_marseille","lat":43.30794,"lon":5.37653,"is_reserved":false,"is_disabled":false,"rental_uris":{"android":"levelo://app?vid=40b7d6dc-dc7d-4587-a9df-7efd0f964364","ios":"levelo://app?vid=40b7d6dc-dc7d-4587-a9df-7efd0f964364"},"vehicle_type_id":"4","last_reported":1752720944,"current_range_meters":10800,"station_id":"ce4bgv92rcd13ifvqcq0","pricing_plan_id":"cebpf4jnsgd1na2vs0mg"},{"bike_id":"941f5e0c-adb3-4b4e-bcb7-3588acd87787","system_id":"levelo_inurba_marseille","lat":43.30153,"lon":5.38794,"is_reserved":false,"is_disabled":true,"rental_uris":{"android":"levelo://app?vid=941f5e0c-adb3-4b4e-bcb7-3588acd87787","ios":"levelo://app?vid=941f5e0c-adb3-4b4e-bcb7-3588acd87787"},"vehicle_type_id":"4","last_reported":1752720944,"current_range_meters":10800,"station_id":"ce4bghh2rcd13ifvqb60","pricing_plan_id":"cebpf4jnsgd1na2vs0mg"},{"bike_id":"0c04b831-2f49-4bc2-b4a3-8ae15bcdaa76","system_id":"levelo_inurba_marseille","lat":43.284825,"lon":5.385637,"is_reserved":false,"is_disabled":false,"rental_uris":{"android":"levelo://app?vid=0c04b831-2f49-4bc2-b4a3-8ae15bcdaa76","ios":"levelo://app?vid=0c04b831-2f49-4bc2-b4a3-8ae15bcdaa76"},"vehicle_type_id":"4","last_reported":1752720944,"current_range_meters":10800,"station_id":"ce4bh8p2rcd13ifvqeb0","pricing_plan_id":"cebpf4jnsgd1na2vs0mg"},{"bike_id":"38634dc5-64fb-4923-b7f4-05d8d0b21efb","system_id":"levelo_inurba_marseille","lat":43.21195,"lon":5.35074,"is_reserved":false,"is_disabled":false,"rental_uris":{"android":"levelo://app?vid=38634dc5-64fb-4923-b7f4-05d8d0b21efb","ios":"levelo://app?vid=38634dc5-64fb-4923-b7f4-05d8d0b21efb"},"vehicle_type_id":"4","last_reported":1752720944,"current_range_meters":10800,"station_id":"st_cvj6sg6p6f1abm77japg","pricing_plan_id":"cebpf4jnsgd1na2vs0mg"},{"bike_id":"cae5bb63-611b-487c-b504-51ba5dd4a069","system_id":"levelo_inurba_marseille","lat":43.31282,"lon":5.4017,"is_reserved":false,"is_disabled":false,"rental_uris":{"android":"levelo://app?vid=cae5bb63-611b-487c-b504-51ba5dd4a069","ios":"levelo://app?vid=cae5bb63-611b-487c-b504-51ba5dd4a069"},"vehicle_type_id":"4","last_reported":1752720944,"current_range_meters":10800,"station_id":"ce4bh092rcd13ifvqd30","pricing_plan_id":"cebpf4jnsgd1na2vs0mg"},{"bike_id":"2bacaccd-1bb2-41bf-ab2e-30b8a5fb7d5d","system_id":"levelo_inurba_marseille","lat":43.27379,"lon":5.36263,"is_reserved":false,"is_disabled":true,"rental_uris":{"android":"levelo://app?vid=2bacaccd-1bb2-41bf-ab2e-30b8a5fb7d5d","ios":"levelo://app?vid=2bacaccd-1bb2-41bf-ab2e-30b8a5fb7d5d"},"vehicle_type_id":"4","last_reported":1752720944,"current_range_meters":10800,"station_id":"ce4bhbh2rcd13ifvqeo0","pricing_plan_id":"cebpf4jnsgd1na2vs0mg"},{"bike_id":"c97f26f2-f245-4fc5-b84e-2e1e8fccbbe3","system_id":"levelo_inurba_marseille","lat":43.3067,"lon":5.40084,"is_reserved":false,"is_disabled":false,"rental_uris":{"android":"levelo://app?vid=c97f26f2-f245-4fc5-b84e-2e1e8fccbbe3","ios":"levelo://app?vid=c97f26f2-f245-4fc5-b84e-2e1e8fccbbe3"},"vehicle_type_id":"4","last_reported":1752720944,"current_range_meters":10800,"station_id":"ce4bh112rcd13ifvqda0","pricing_plan_id":"cebpf4jnsgd1na2vs0mg"},{"bike_id":"b0f534da-8e66-4152-b967-e328e4be2d91","system_id":"levelo_inurba_marseille","lat":43.2895,"lon":5.383957,"is_reserved":false,"is_disabled":false,"rental_uris":{"android":"levelo://app?vid=b0f534da-8e66-4152-b967-e328e4be2d91","ios":"levelo://app?vid=b0f534da-8e66-4152-b967-e328e4be2d91"},"vehicle_type_id":"4","last_reported":1752720944,"current_range_meters":11200,"station_id":"ce4bh612rcd13ifvqe6g","pricing_plan_id":"cebpf4jnsgd1na2vs0mg"},{"bike_id":"2c09878f-795c-47f5-9d73-108846ae1aa1","system_id":"levelo_inurba_marseille","lat":43.25738,"lon":5.41095,"is_reserved":false,"is_disabled":false,"rental_uris":{"android":"levelo://app?vid=2c09878f-795c-47f5-9d73-108846ae1aa1","ios":"levelo://app?vid=2c09878f-795c-47f5-9d73-108846ae1aa1"},"vehicle_type_id":"4","last_reported":1752720944,"current_range_meters":11200,"station_id":"ce4bhkp2rcd13ifvqgd0","pricing_plan_id":"cebpf4jnsgd1na2vs0mg"},{"bike_id":"80c45421-67b0-454e-b2c5-c13ad5f7d678","system_id":"levelo_inurba_marseille","lat":43.28697,"lon":5.37393,"is_reserved":false,"is_disabled":false,"rental_uris":{"android":"levelo://app?vid=80c45421-67b0-454e-b2c5-c13ad5f7d678","ios":"levelo://app?vid=80c45421-67b0-454e-b2c5-c13ad5f7d678"},"vehicle_type_id":"4","last_reported":1752720944,"current_range_meters":11200,"station_id":"ce4bh3p2rcd13ifvqdq0","pricing_plan_id":"cebpf4jnsgd1na2vs0mg"},{"bike_id":"61a9e916-b95f-4f2c-8dca-c5b11be80287","system_id":"levelo_inurba_marseille","lat":43.29236,"lon":5.36045,"is_reserved":false,"is_disabled":true,"rental_uris":{"android":"levelo://app?vid=61a9e916-b95f-4f2c-8dca-c5b11be80287","ios":"levelo://app?vid=61a9e916-b95f-4f2c-8dca-c5b11be80287"},"vehicle_type_id":"4","last_reported":1752720944,"current_range_meters":11200,"station_id":"ce4bhbh2rcd13ifvqeqg","pricing_plan_id":"cebpf4jnsgd1na2vs0mg"},{"bike_id":"6a92e34f-31fe-4702-93d9-5a5bfc927fb6","system_id":"levelo_inurba_marseille","lat":43.31072,"lon":5.38354,"is_reserved":false,"is_disabled":false,"rental_uris":{"android":"levelo://app?vid=6a92e34f-31fe-4702-93d9-5a5bfc927fb6","ios":"levelo://app?vid=6a92e34f-31fe-4702-93d9-5a5bfc927fb6"},"vehicle_type_id":"4","last_reported":1752720944,"current_range_meters":11200,"station_id":"ce4bgv92rcd13ifvqcr0","pricing_plan_id":"cebpf4jnsgd1na2vs0mg"},{"bike_id":"b84b9ec2-f685-4568-a1cf-15a9dfd9b3d4","system_id":"levelo_inurba_marseille","lat":43.30801,"lon":5.38154,"is_reserved":false,"is_disabled":false,"rental_uris":{"android":"levelo://app?vid=b84b9ec2-f685-4568-a1cf-15a9dfd9b3d4","ios":"levelo://app?vid=b84b9ec2-f685-4568-a1cf-15a9dfd9b3d4"},"vehicle_type_id":"4","last_reported":1752720944,"current_range_meters":11200,"station_id":"ce4bgt12rcd13ifvqce0","pricing_plan_id":"cebpf4jnsgd1na2vs0mg"},{"bike_id":"4001417f-2155-439d-8d1d-36f2b1caa07b","system_id":"levelo_inurba_marseille","lat":43.32006,"lon":5.38145,"is_reserved":false,"is_disabled":false,"rental_uris":{"android":"levelo://app?vid=4001417f-2155-439d-8d1d-36f2b1caa07b","ios":"levelo://app?vid=4001417f-2155-439d-8d1d-36f2b1caa07b"},"vehicle_type_id":"4","last_reported":1752720944,"current_range_meters":11600,"station_id":"ce4bhr12rcd13ifvqhpg","pricing_plan_id":"cebpf4jnsgd1na2vs0mg"},{"bike_id":"cfb6e539-5040-403a-880a-fc5c5a3f249b","system_id":"levelo_inurba_marseille","lat":43.241788,"lon":5.397249,"is_reserved":false,"is_disabled":false,"rental_uris":{"android":"levelo://app?vid=cfb6e539-5040-403a-880a-fc5c5a3f249b","ios":"levelo://app?vid=cfb6e539-5040-403a-880a-fc5c5a3f249b"},"vehicle_type_id":"4","last_reported":1752720944,"current_range_meters":11600,"station_id":"ce4bhn12rcd13ifvqgpg","pricing_plan_id":"cebpf4jnsgd1na2vs0mg"},{"bike_id":"7d5ad601-d30e-4f80-89c2-2ff2e9c4d139","system_id":"levelo_inurba_marseille","lat":43.29202,"lon":5.39317,"is_reserved":false,"is_disabled":false,"rental_uris":{"android":"levelo://app?vid=7d5ad601-d30e-4f80-89c2-2ff2e9c4d139","ios":"levelo://app?vid=7d5ad601-d30e-4f80-89c2-2ff2e9c4d139"},"vehicle_type_id":"4","last_reported":1752720944,"current_range_meters":11600,"station_id":"ce4bh192rcd13ifvqdd0","pricing_plan_id":"cebpf4jnsgd1na2vs0mg"},{"bike_id":"9eaf072e-fd31-4296-8388-8574f90d4c98","system_id":"levelo_inurba_marseille","lat":43.28608,"lon":5.37046,"is_reserved":false,"is_disabled":false,"rental_uris":{"android":"levelo://app?vid=9eaf072e-fd31-4296-8388-8574f90d4c98","ios":"levelo://app?vid=9eaf072e-fd31-4296-8388-8574f90d4c98"},"vehicle_type_id":"4","last_reported":1752720944,"current_range_meters":11600,"station_id":"ce4bht12rcd13ifvqi60","pricing_plan_id":"cebpf4jnsgd1na2vs0mg"},{"bike_id":"26e50bdb-d774-492b-8932-9f3629c086f1","system_id":"levelo_inurba_marseille","lat":43.28615,"lon":5.35078,"is_reserved":false,"is_disabled":false,"rental_uris":{"android":"levelo://app?vid=26e50bdb-d774-492b-8932-9f3629c086f1","ios":"levelo://app?vid=26e50bdb-d774-492b-8932-9f3629c086f1"},"vehicle_type_id":"4","last_reported":1752720944,"current_range_meters":11600,"station_id":"ce4bhch2rcd13ifvqeug","pricing_plan_id":"cebpf4jnsgd1na2vs0mg"},{"bike_id":"229a51b8-d35a-46ef-90d9-099d3d4f556b","system_id":"levelo_inurba_marseille","lat":43.29413,"lon":5.3859,"is_reserved":false,"is_disabled":true,"rental_uris":{"android":"levelo://app?vid=229a51b8-d35a-46ef-90d9-099d3d4f556b","ios":"levelo://app?vid=229a51b8-d35a-46ef-90d9-099d3d4f556b"},"vehicle_type_id":"4","last_reported":1752720944,"current_range_meters":12000,"station_id":"ce4bh2h2rcd13ifvqdh0","pricing_plan_id":"cebpf4jnsgd1na2vs0mg"},{"bike_id":"99473147-c984-4783-ab1f-af8834cc46ce","system_id":"levelo_inurba_marseille","lat":43.30889,"lon":5.3963,"is_reserved":false,"is_disabled":false,"rental_uris":{"android":"levelo://app?vid=99473147-c984-4783-ab1f-af8834cc46ce","ios":"levelo://app?vid=99473147-c984-4783-ab1f-af8834cc46ce"},"vehicle_type_id":"4","last_reported":1752720944,"current_range_meters":12000,"station_id":"ce4bh012rcd13ifvqcv0","pricing_plan_id":"cebpf4jnsgd1na2vs0mg"},{"bike_id":"2979d731-9333-4af5-a963-386268404255","system_id":"levelo_inurba_marseille","lat":43.22935,"lon":5.35386,"is_reserved":false,"is_disabled":false,"rental_uris":{"android":"levelo://app?vid=2979d731-9333-4af5-a963-386268404255","ios":"levelo://app?vid=2979d731-9333-4af5-a963-386268404255"},"vehicle_type_id":"4","last_reported":1752720944,"current_range_meters":12000,"station_id":"cpo3532slgdg3j2ikp40","pricing_plan_id":"cebpf4jnsgd1na2vs0mg"},{"bike_id":"8053bec4-5cac-4b92-aa53-91664ade9529","system_id":"levelo_inurba_marseille","lat":43.28701,"lon":5.3742,"is_reserved":false,"is_disabled":false,"rental_uris":{"android":"levelo://app?vid=8053bec4-5cac-4b92-aa53-91664ade9529","ios":"levelo://app?vid=8053bec4-5cac-4b92-aa53-91664ade9529"},"vehicle_type_id":"4","last_reported":1752720944,"current_range_meters":12000,"station_id":"ce4bh3p2rcd13ifvqdq0","pricing_plan_id":"cebpf4jnsgd1na2vs0mg"},{"bike_id":"63b68163-23ff-4509-a7ff-da745c70a782","system_id":"levelo_inurba_marseille","lat":43.295232,"lon":5.394075,"is_reserved":false,"is_disabled":false,"rental_uris":{"android":"levelo://app?vid=63b68163-23ff-4509-a7ff-da745c70a782","ios":"levelo://app?vid=63b68163-23ff-4509-a7ff-da745c70a782"},"vehicle_type_id":"4","last_reported":1752720944,"current_range_meters":12000,"station_id":"","pricing_plan_id":"cebpf4jnsgd1na2vs0mg"},{"bike_id":"bb91fdfd-e2e6-4861-a682-9985a5c5d97b","system_id":"levelo_inurba_marseille","lat":43.23186,"lon":5.39994,"is_reserved":false,"is_disabled":false,"rental_uris":{"android":"levelo://app?vid=bb91fdfd-e2e6-4861-a682-9985a5c5d97b","ios":"levelo://app?vid=bb91fdfd-e2e6-4861-a682-9985a5c5d97b"},"vehicle_type_id":"4","last_reported":1752720944,"current_range_meters":12000,"station_id":"ce4bhn12rcd13ifvqgqg","pricing_plan_id":"cebpf4jnsgd1na2vs0mg"},{"bike_id":"8c91f622-ba9b-431a-9fe3-6819815d4505","system_id":"levelo_inurba_marseille","lat":43.26211,"lon":5.40469,"is_reserved":false,"is_disabled":false,"rental_uris":{"android":"levelo://app?vid=8c91f622-ba9b-431a-9fe3-6819815d4505","ios":"levelo://app?vid=8c91f622-ba9b-431a-9fe3-6819815d4505"},"vehicle_type_id":"4","last_reported":1752720944,"current_range_meters":12000,"station_id":"ce4bhmh2rcd13ifvqgmg","pricing_plan_id":"cebpf4jnsgd1na2vs0mg"},{"bike_id":"7dee92bf-5b07-4927-aa41-9e9493644eeb","system_id":"levelo_inurba_marseille","lat":43.212034,"lon":5.350706,"is_reserved":false,"is_disabled":false,"rental_uris":{"android":"levelo://app?vid=7dee92bf-5b07-4927-aa41-9e9493644eeb","ios":"levelo://app?vid=7dee92bf-5b07-4927-aa41-9e9493644eeb"},"vehicle_type_id":"4","last_reported":1752720944,"current_range_meters":12000,"station_id":"st_cvj6sg6p6f1abm77japg","pricing_plan_id":"cebpf4jnsgd1na2vs0mg"},{"bike_id":"47e84c87-4631-48fa-8064-ac43c2313bba","system_id":"levelo_inurba_marseille","lat":43.293038,"lon":5.371829,"is_reserved":false,"is_disabled":true,"rental_uris":{"android":"levelo://app?vid=47e84c87-4631-48fa-8064-ac43c2313bba","ios":"levelo://app?vid=47e84c87-4631-48fa-8064-ac43c2313bba"},"vehicle_type_id":"4","last_reported":1752720944,"current_range_meters":12400,"station_id":"ce4bgh92rcd13ifvqb40","pricing_plan_id":"cebpf4jnsgd1na2vs0mg"},{"bike_id":"668b719f-eb0a-47ac-b1f6-9771bfc25c9f","system_id":"levelo_inurba_marseille","lat":43.24268,"lon":5.37584,"is_reserved":false,"is_disabled":false,"rental_uris":{"android":"levelo://app?vid=668b719f-eb0a-47ac-b1f6-9771bfc25c9f","ios":"levelo://app?vid=668b719f-eb0a-47ac-b1f6-9771bfc25c9f"},"vehicle_type_id":"4","last_reported":1752720944,"current_range_meters":12400,"station_id":"","pricing_plan_id":"cebpf4jnsgd1na2vs0mg"},{"bike_id":"7c2fb43c-a8c2-4f9b-b196-cd6e1238f342","system_id":"levelo_inurba_marseille","lat":43.33599,"lon":5.41013,"is_reserved":false,"is_disabled":false,"rental_uris":{"android":"levelo://app?vid=7c2fb43c-a8c2-4f9b-b196-cd6e1238f342","ios":"levelo://app?vid=7c2fb43c-a8c2-4f9b-b196-cd6e1238f342"},"vehicle_type_id":"4","last_reported":1752720944,"current_range_meters":12400,"station_id":"ce4bhqh2rcd13ifvqhmg","pricing_plan_id":"cebpf4jnsgd1na2vs0mg"},{"bike_id":"82744ac9-be40-48d9-8b95-77997f04c760","system_id":"levelo_inurba_marseille","lat":43.24684,"lon":5.38165,"is_reserved":false,"is_disabled":false,"rental_uris":{"android":"levelo://app?vid=82744ac9-be40-48d9-8b95-77997f04c760","ios":"levelo://app?vid=82744ac9-be40-48d9-8b95-77997f04c760"},"vehicle_type_id":"4","last_reported":1752720944,"current_range_meters":12400,"station_id":"ce4bhih2rcd13ifvqfr0","pricing_plan_id":"cebpf4jnsgd1na2vs0mg"},{"bike_id":"2aad0216-72a2-45b0-a34e-6ea9c45b1dfa","system_id":"levelo_inurba_marseille","lat":43.294348,"lon":5.397543,"is_reserved":false,"is_disabled":false,"rental_uris":{"android":"levelo://app?vid=2aad0216-72a2-45b0-a34e-6ea9c45b1dfa","ios":"levelo://app?vid=2aad0216-72a2-45b0-a34e-6ea9c45b1dfa"},"vehicle_type_id":"4","last_reported":1752720944,"current_range_meters":12400,"station_id":"ce4bh3h2rcd13ifvqdo0","pricing_plan_id":"cebpf4jnsgd1na2vs0mg"},{"bike_id":"e7574c06-c628-4333-a40c-7b005585c3f8","system_id":"levelo_inurba_marseille","lat":43.296052,"lon":5.377172,"is_reserved":false,"is_disabled":true,"rental_uris":{"android":"levelo://app?vid=e7574c06-c628-4333-a40c-7b005585c3f8","ios":"levelo://app?vid=e7574c06-c628-4333-a40c-7b005585c3f8"},"vehicle_type_id":"4","last_reported":1752720944,"current_range_meters":12800,"station_id":"ce4bgi92rcd13ifvqb90","pricing_plan_id":"cebpf4jnsgd1na2vs0mg"},{"bike_id":"ed507c3a-c6ff-4035-93c0-3f57091e65c4","system_id":"levelo_inurba_marseille","lat":43.23152,"lon":5.43717,"is_reserved":false,"is_disabled":false,"rental_uris":{"android":"levelo://app?vid=ed507c3a-c6ff-4035-93c0-3f57091e65c4","ios":"levelo://app?vid=ed507c3a-c6ff-4035-93c0-3f57091e65c4"},"vehicle_type_id":"4","last_reported":1752720944,"current_range_meters":12800,"station_id":"ce4bhmp2rcd13ifvqgog","pricing_plan_id":"cebpf4jnsgd1na2vs0mg"},{"bike_id":"fec9ee64-026c-46c6-a4c8-c66ae693a529","system_id":"levelo_inurba_marseille","lat":43.29305,"lon":5.37186,"is_reserved":false,"is_disabled":true,"rental_uris":{"android":"levelo://app?vid=fec9ee64-026c-46c6-a4c8-c66ae693a529","ios":"levelo://app?vid=fec9ee64-026c-46c6-a4c8-c66ae693a529"},"vehicle_type_id":"4","last_reported":1752720944,"current_range_meters":12800,"station_id":"ce4bgh92rcd13ifvqb40","pricing_plan_id":"cebpf4jnsgd1na2vs0mg"},{"bike_id":"d446b86f-ac8b-455c-854e-dd258cf5a1a6","system_id":"levelo_inurba_marseille","lat":43.241753,"lon":5.397214,"is_reserved":false,"is_disabled":false,"rental_uris":{"android":"levelo://app?vid=d446b86f-ac8b-455c-854e-dd258cf5a1a6","ios":"levelo://app?vid=d446b86f-ac8b-455c-854e-dd258cf5a1a6"},"vehicle_type_id":"4","last_reported":1752720944,"current_range_meters":12800,"station_id":"ce4bhn12rcd13ifvqgpg","pricing_plan_id":"cebpf4jnsgd1na2vs0mg"},{"bike_id":"faee7903-0873-4cae-9460-c271b034a61c","system_id":"levelo_inurba_marseille","lat":43.24661,"lon":5.38165,"is_reserved":false,"is_disabled":false,"rental_uris":{"android":"levelo://app?vid=faee7903-0873-4cae-9460-c271b034a61c","ios":"levelo://app?vid=faee7903-0873-4cae-9460-c271b034a61c"},"vehicle_type_id":"4","last_reported":1752720944,"current_range_meters":12800,"station_id":"ce4bhih2rcd13ifvqfr0","pricing_plan_id":"cebpf4jnsgd1na2vs0mg"},{"bike_id":"7fc6ebd8-c0b1-4e77-8345-e5ffce2a02ab","system_id":"levelo_inurba_marseille","lat":43.24157,"lon":5.36425,"is_reserved":false,"is_disabled":false,"rental_uris":{"android":"levelo://app?vid=7fc6ebd8-c0b1-4e77-8345-e5ffce2a02ab","ios":"levelo://app?vid=7fc6ebd8-c0b1-4e77-8345-e5ffce2a02ab"},"vehicle_type_id":"4","last_reported":1752720944,"current_range_meters":12800,"station_id":"cpo36qri1sfpv3e86is0","pricing_plan_id":"cebpf4jnsgd1na2vs0mg"},{"bike_id":"133e1511-7bc5-4a16-ba1f-ced052bbc697","system_id":"levelo_inurba_marseille","lat":43.30541,"lon":5.38438,"is_reserved":false,"is_disabled":false,"rental_uris":{"android":"levelo://app?vid=133e1511-7bc5-4a16-ba1f-ced052bbc697","ios":"levelo://app?vid=133e1511-7bc5-4a16-ba1f-ced052bbc697"},"vehicle_type_id":"4","last_reported":1752720944,"current_range_meters":12800,"station_id":"ce4bgg92rcd13ifvqb30","pricing_plan_id":"cebpf4jnsgd1na2vs0mg"},{"bike_id":"734032c8-fecd-4dec-8378-00c6c9efc560","system_id":"levelo_inurba_marseille","lat":43.29644,"lon":5.37135,"is_reserved":false,"is_disabled":true,"rental_uris":{"android":"levelo://app?vid=734032c8-fecd-4dec-8378-00c6c9efc560","ios":"levelo://app?vid=734032c8-fecd-4dec-8378-00c6c9efc560"},"vehicle_type_id":"4","last_reported":1752720944,"current_range_meters":13600,"station_id":"ce4bgnh2rcd13ifvqc0g","pricing_plan_id":"cebpf4jnsgd1na2vs0mg"},{"bike_id":"7425af41-f939-4fb5-81a7-e1169ccaa6d8","system_id":"levelo_inurba_marseille","lat":43.246762,"lon":5.381704,"is_reserved":false,"is_disabled":true,"rental_uris":{"android":"levelo://app?vid=7425af41-f939-4fb5-81a7-e1169ccaa6d8","ios":"levelo://app?vid=7425af41-f939-4fb5-81a7-e1169ccaa6d8"},"vehicle_type_id":"4","last_reported":1752720944,"current_range_meters":13600,"station_id":"ce4bhih2rcd13ifvqfr0","pricing_plan_id":"cebpf4jnsgd1na2vs0mg"},{"bike_id":"0ac495ae-107c-4a4c-882d-a9f7995b38a8","system_id":"levelo_inurba_marseille","lat":43.29019,"lon":5.39964,"is_reserved":false,"is_disabled":false,"rental_uris":{"android":"levelo://app?vid=0ac495ae-107c-4a4c-882d-a9f7995b38a8","ios":"levelo://app?vid=0ac495ae-107c-4a4c-882d-a9f7995b38a8"},"vehicle_type_id":"4","last_reported":1752720944,"current_range_meters":13600,"station_id":"ce4bh392rcd13ifvqdm0","pricing_plan_id":"cebpf4jnsgd1na2vs0mg"},{"bike_id":"abe21af3-8afd-4440-b00c-533ce2a8f41a","system_id":"levelo_inurba_marseille","lat":43.33723,"lon":5.39187,"is_reserved":false,"is_disabled":false,"rental_uris":{"android":"levelo://app?vid=abe21af3-8afd-4440-b00c-533ce2a8f41a","ios":"levelo://app?vid=abe21af3-8afd-4440-b00c-533ce2a8f41a"},"vehicle_type_id":"4","last_reported":1752720944,"current_range_meters":13600,"station_id":"ce4bhr92rcd13ifvqhsg","pricing_plan_id":"cebpf4jnsgd1na2vs0mg"},{"bike_id":"8eab5944-f22d-4a49-a1a9-69daf71642a5","system_id":"levelo_inurba_marseille","lat":43.26952,"lon":5.402823,"is_reserved":false,"is_disabled":false,"rental_uris":{"android":"levelo://app?vid=8eab5944-f22d-4a49-a1a9-69daf71642a5","ios":"levelo://app?vid=8eab5944-f22d-4a49-a1a9-69daf71642a5"},"vehicle_type_id":"4","last_reported":1752720944,"current_range_meters":14000,"station_id":"cjm6bp8fraef2m0cb0m0","pricing_plan_id":"cebpf4jnsgd1na2vs0mg"},{"bike_id":"0251491b-c678-423b-bd29-5a5e2bd56df5","system_id":"levelo_inurba_marseille","lat":43.24543,"lon":5.39524,"is_reserved":false,"is_disabled":false,"rental_uris":{"android":"levelo://app?vid=0251491b-c678-423b-bd29-5a5e2bd56df5","ios":"levelo://app?vid=0251491b-c678-423b-bd29-5a5e2bd56df5"},"vehicle_type_id":"4","last_reported":1752720944,"current_range_meters":14000,"station_id":"ce4bhlp2rcd13ifvqgjg","pricing_plan_id":"cebpf4jnsgd1na2vs0mg"},{"bike_id":"84c133eb-a2c7-4beb-83c4-2a7041dbf7bd","system_id":"levelo_inurba_marseille","lat":43.30797,"lon":5.3816,"is_reserved":false,"is_disabled":false,"rental_uris":{"android":"levelo://app?vid=84c133eb-a2c7-4beb-83c4-2a7041dbf7bd","ios":"levelo://app?vid=84c133eb-a2c7-4beb-83c4-2a7041dbf7bd"},"vehicle_type_id":"4","last_reported":1752720944,"current_range_meters":14000,"station_id":"","pricing_plan_id":"cebpf4jnsgd1na2vs0mg"},{"bike_id":"9090e647-a713-44ba-b392-5ac73cd154dd","system_id":"levelo_inurba_marseille","lat":43.23052,"lon":5.355,"is_reserved":false,"is_disabled":false,"rental_uris":{"android":"levelo://app?vid=9090e647-a713-44ba-b392-5ac73cd154dd","ios":"levelo://app?vid=9090e647-a713-44ba-b392-5ac73cd154dd"},"vehicle_type_id":"4","last_reported":1752720944,"current_range_meters":14000,"station_id":"cpo3342slgdg3j2ifvpg","pricing_plan_id":"cebpf4jnsgd1na2vs0mg"},{"bike_id":"a2123030-a0ee-46c8-9aa2-8556651b60b4","system_id":"levelo_inurba_marseille","lat":43.31127,"lon":5.37773,"is_reserved":false,"is_disabled":false,"rental_uris":{"android":"levelo://app?vid=a2123030-a0ee-46c8-9aa2-8556651b60b4","ios":"levelo://app?vid=a2123030-a0ee-46c8-9aa2-8556651b60b4"},"vehicle_type_id":"4","last_reported":1752720944,"current_range_meters":14000,"station_id":"ce4bgt92rcd13ifvqcg0","pricing_plan_id":"cebpf4jnsgd1na2vs0mg"},{"bike_id":"bd3b285b-53f7-4f4d-94f9-3faf82d12ab5","system_id":"levelo_inurba_marseille","lat":43.23217,"lon":5.39964,"is_reserved":false,"is_disabled":false,"rental_uris":{"android":"levelo://app?vid=bd3b285b-53f7-4f4d-94f9-3faf82d12ab5","ios":"levelo://app?vid=bd3b285b-53f7-4f4d-94f9-3faf82d12ab5"},"vehicle_type_id":"4","last_reported":1752720944,"current_range_meters":14000,"station_id":"","pricing_plan_id":"cebpf4jnsgd1na2vs0mg"},{"bike_id":"6a69d0cc-faf8-4dc3-8ded-5ef811a5de8d","system_id":"levelo_inurba_marseille","lat":43.307361,"lon":5.424452,"is_reserved":false,"is_disabled":false,"rental_uris":{"android":"levelo://app?vid=6a69d0cc-faf8-4dc3-8ded-5ef811a5de8d","ios":"levelo://app?vid=6a69d0cc-faf8-4dc3-8ded-5ef811a5de8d"},"vehicle_type_id":"4","last_reported":1752720944,"current_range_meters":14000,"station_id":"st_cvj6ca6bvosntc0bfgr0","pricing_plan_id":"cebpf4jnsgd1na2vs0mg"},{"bike_id":"39c6203f-25ee-487c-9399-b36ef495fc6b","system_id":"levelo_inurba_marseille","lat":43.240797,"lon":5.377306,"is_reserved":false,"is_disabled":false,"rental_uris":{"android":"levelo://app?vid=39c6203f-25ee-487c-9399-b36ef495fc6b","ios":"levelo://app?vid=39c6203f-25ee-487c-9399-b36ef495fc6b"},"vehicle_type_id":"4","last_reported":1752720944,"current_range_meters":14000,"station_id":"ce4bhnp2rcd13ifvqgvg","pricing_plan_id":"cebpf4jnsgd1na2vs0mg"},{"bike_id":"d4af6391-19a0-4505-a3ce-cfc41ecc6527","system_id":"levelo_inurba_marseille","lat":43.307841,"lon":5.376506,"is_reserved":false,"is_disabled":false,"rental_uris":{"android":"levelo://app?vid=d4af6391-19a0-4505-a3ce-cfc41ecc6527","ios":"levelo://app?vid=d4af6391-19a0-4505-a3ce-cfc41ecc6527"},"vehicle_type_id":"4","last_reported":1752720944,"current_range_meters":14000,"station_id":"ce4bgv92rcd13ifvqcq0","pricing_plan_id":"cebpf4jnsgd1na2vs0mg"},{"bike_id":"0398468c-6c0f-49fd-b525-08c45b6a4cd9","system_id":"levelo_inurba_marseille","lat":43.22514,"lon":5.34764,"is_reserved":false,"is_disabled":false,"rental_uris":{"android":"levelo://app?vid=0398468c-6c0f-49fd-b525-08c45b6a4cd9","ios":"levelo://app?vid=0398468c-6c0f-49fd-b525-08c45b6a4cd9"},"vehicle_type_id":"4","last_reported":1752720944,"current_range_meters":14400,"station_id":"st_cvj5dfep6f1abm77gieg","pricing_plan_id":"cebpf4jnsgd1na2vs0mg"},{"bike_id":"17be9910-031b-4bc1-90be-69d7b70dc316","system_id":"levelo_inurba_marseille","lat":43.30461,"lon":5.37893,"is_reserved":false,"is_disabled":false,"rental_uris":{"android":"levelo://app?vid=17be9910-031b-4bc1-90be-69d7b70dc316","ios":"levelo://app?vid=17be9910-031b-4bc1-90be-69d7b70dc316"},"vehicle_type_id":"4","last_reported":1752720944,"current_range_meters":14400,"station_id":"ce4bgup2rcd13ifvqcn0","pricing_plan_id":"cebpf4jnsgd1na2vs0mg"},{"bike_id":"555bc53e-5286-4fb6-9154-af42b3fd9792","system_id":"levelo_inurba_marseille","lat":43.3007,"lon":5.37287,"is_reserved":false,"is_disabled":false,"rental_uris":{"android":"levelo://app?vid=555bc53e-5286-4fb6-9154-af42b3fd9792","ios":"levelo://app?vid=555bc53e-5286-4fb6-9154-af42b3fd9792"},"vehicle_type_id":"4","last_reported":1752720944,"current_range_meters":14400,"station_id":"","pricing_plan_id":"cebpf4jnsgd1na2vs0mg"},{"bike_id":"8dad78b6-d6ec-4736-aeab-cdc56df6a24a","system_id":"levelo_inurba_marseille","lat":43.31277,"lon":5.40156,"is_reserved":false,"is_disabled":false,"rental_uris":{"android":"levelo://app?vid=8dad78b6-d6ec-4736-aeab-cdc56df6a24a","ios":"levelo://app?vid=8dad78b6-d6ec-4736-aeab-cdc56df6a24a"},"vehicle_type_id":"4","last_reported":1752720944,"current_range_meters":14400,"station_id":"ce4bh092rcd13ifvqd30","pricing_plan_id":"cebpf4jnsgd1na2vs0mg"},{"bike_id":"b7431c1f-d7ac-4e78-a119-41c97700dd12","system_id":"levelo_inurba_marseille","lat":43.30925,"lon":5.40137,"is_reserved":false,"is_disabled":false,"rental_uris":{"android":"levelo://app?vid=b7431c1f-d7ac-4e78-a119-41c97700dd12","ios":"levelo://app?vid=b7431c1f-d7ac-4e78-a119-41c97700dd12"},"vehicle_type_id":"4","last_reported":1752720944,"current_range_meters":14400,"station_id":"ce4bgvp2rcd13ifvqct0","pricing_plan_id":"cebpf4jnsgd1na2vs0mg"},{"bike_id":"243ff24d-c224-4f6c-8766-a9a443123038","system_id":"levelo_inurba_marseille","lat":43.23952,"lon":5.36629,"is_reserved":false,"is_disabled":false,"rental_uris":{"android":"levelo://app?vid=243ff24d-c224-4f6c-8766-a9a443123038","ios":"levelo://app?vid=243ff24d-c224-4f6c-8766-a9a443123038"},"vehicle_type_id":"4","last_reported":1752720944,"current_range_meters":14400,"station_id":"ce4bhi12rcd13ifvqfp0","pricing_plan_id":"cebpf4jnsgd1na2vs0mg"},{"bike_id":"401c7695-3adf-41e7-93ca-9198757d5b5f","system_id":"levelo_inurba_marseille","lat":43.286752,"lon":5.386584,"is_reserved":false,"is_disabled":true,"rental_uris":{"android":"levelo://app?vid=401c7695-3adf-41e7-93ca-9198757d5b5f","ios":"levelo://app?vid=401c7695-3adf-41e7-93ca-9198757d5b5f"},"vehicle_type_id":"4","last_reported":1752720944,"current_range_meters":14800,"station_id":"ce4bh492rcd13ifvqdug","pricing_plan_id":"cebpf4jnsgd1na2vs0mg"},{"bike_id":"98daf460-c45d-4be9-b03d-fde500644729","system_id":"levelo_inurba_marseille","lat":43.296223,"lon":5.377025,"is_reserved":false,"is_disabled":false,"rental_uris":{"android":"levelo://app?vid=98daf460-c45d-4be9-b03d-fde500644729","ios":"levelo://app?vid=98daf460-c45d-4be9-b03d-fde500644729"},"vehicle_type_id":"4","last_reported":1752720944,"current_range_meters":14800,"station_id":"","pricing_plan_id":"cebpf4jnsgd1na2vs0mg"},{"bike_id":"3444bdc6-514a-4ba6-9650-f9073305e33d","system_id":"levelo_inurba_marseille","lat":43.29682,"lon":5.3698,"is_reserved":false,"is_disabled":false,"rental_uris":{"android":"levelo://app?vid=3444bdc6-514a-4ba6-9650-f9073305e33d","ios":"levelo://app?vid=3444bdc6-514a-4ba6-9650-f9073305e33d"},"vehicle_type_id":"4","last_reported":1752720944,"current_range_meters":14800,"station_id":"","pricing_plan_id":"cebpf4jnsgd1na2vs0mg"},{"bike_id":"34e62ee5-3131-428c-842a-9ad03de94ba5","system_id":"levelo_inurba_marseille","lat":43.22499,"lon":5.34781,"is_reserved":false,"is_disabled":false,"rental_uris":{"android":"levelo://app?vid=34e62ee5-3131-428c-842a-9ad03de94ba5","ios":"levelo://app?vid=34e62ee5-3131-428c-842a-9ad03de94ba5"},"vehicle_type_id":"4","last_reported":1752720944,"current_range_meters":14800,"station_id":"st_cvj5dfep6f1abm77gieg","pricing_plan_id":"cebpf4jnsgd1na2vs0mg"},{"bike_id":"b0913f93-a684-4140-9689-82edfbc4235d","system_id":"levelo_inurba_marseille","lat":43.21208,"lon":5.35082,"is_reserved":false,"is_disabled":false,"rental_uris":{"android":"levelo://app?vid=b0913f93-a684-4140-9689-82edfbc4235d","ios":"levelo://app?vid=b0913f93-a684-4140-9689-82edfbc4235d"},"vehicle_type_id":"4","last_reported":1752720944,"current_range_meters":15200,"station_id":"st_cvj6sg6p6f1abm77japg","pricing_plan_id":"cebpf4jnsgd1na2vs0mg"},{"bike_id":"a68612b3-8ed6-4d3b-af65-4d1c84c2c21c","system_id":"levelo_inurba_marseille","lat":43.251032,"lon":5.403246,"is_reserved":false,"is_disabled":false,"rental_uris":{"android":"levelo://app?vid=a68612b3-8ed6-4d3b-af65-4d1c84c2c21c","ios":"levelo://app?vid=a68612b3-8ed6-4d3b-af65-4d1c84c2c21c"},"vehicle_type_id":"4","last_reported":1752720944,"current_range_meters":15200,"station_id":"ce4bhlh2rcd13ifvqgig","pricing_plan_id":"cebpf4jnsgd1na2vs0mg"},{"bike_id":"5ee72fdb-7a3a-4f38-9f44-3345045a40f2","system_id":"levelo_inurba_marseille","lat":43.30805,"lon":5.37641,"is_reserved":false,"is_disabled":false,"rental_uris":{"android":"levelo://app?vid=5ee72fdb-7a3a-4f38-9f44-3345045a40f2","ios":"levelo://app?vid=5ee72fdb-7a3a-4f38-9f44-3345045a40f2"},"vehicle_type_id":"4","last_reported":1752720944,"current_range_meters":15200,"station_id":"ce4bgv92rcd13ifvqcq0","pricing_plan_id":"cebpf4jnsgd1na2vs0mg"},{"bike_id":"07f5ae19-0925-43ef-aab4-48ec58bc62b9","system_id":"levelo_inurba_marseille","lat":43.314509,"lon":5.374391,"is_reserved":false,"is_disabled":false,"rental_uris":{"android":"levelo://app?vid=07f5ae19-0925-43ef-aab4-48ec58bc62b9","ios":"levelo://app?vid=07f5ae19-0925-43ef-aab4-48ec58bc62b9"},"vehicle_type_id":"4","last_reported":1752720944,"current_range_meters":15200,"station_id":"","pricing_plan_id":"cebpf4jnsgd1na2vs0mg"},{"bike_id":"8417ad62-2136-4647-b89c-f46e0aabae59","system_id":"levelo_inurba_marseille","lat":43.229374,"lon":5.353771,"is_reserved":false,"is_disabled":false,"rental_uris":{"android":"levelo://app?vid=8417ad62-2136-4647-b89c-f46e0aabae59","ios":"levelo://app?vid=8417ad62-2136-4647-b89c-f46e0aabae59"},"vehicle_type_id":"4","last_reported":1752720944,"current_range_meters":15200,"station_id":"cpo3532slgdg3j2ikp40","pricing_plan_id":"cebpf4jnsgd1na2vs0mg"},{"bike_id":"dfd03766-7b95-4a27-bf1c-10b7662abae2","system_id":"levelo_inurba_marseille","lat":43.29455,"lon":5.3976,"is_reserved":false,"is_disabled":false,"rental_uris":{"android":"levelo://app?vid=dfd03766-7b95-4a27-bf1c-10b7662abae2","ios":"levelo://app?vid=dfd03766-7b95-4a27-bf1c-10b7662abae2"},"vehicle_type_id":"4","last_reported":1752720944,"current_range_meters":16000,"station_id":"ce4bh3h2rcd13ifvqdo0","pricing_plan_id":"cebpf4jnsgd1na2vs0mg"},{"bike_id":"f6e67167-3686-4cae-82da-4610049996dc","system_id":"levelo_inurba_marseille","lat":43.26918,"lon":5.3852,"is_reserved":false,"is_disabled":false,"rental_uris":{"android":"levelo://app?vid=f6e67167-3686-4cae-82da-4610049996dc","ios":"levelo://app?vid=f6e67167-3686-4cae-82da-4610049996dc"},"vehicle_type_id":"4","last_reported":1752720944,"current_range_meters":16000,"station_id":"","pricing_plan_id":"cebpf4jnsgd1na2vs0mg"},{"bike_id":"f58252cf-1e04-42f5-aab4-89eede447d36","system_id":"levelo_inurba_marseille","lat":43.3065,"lon":5.40071,"is_reserved":false,"is_disabled":false,"rental_uris":{"android":"levelo://app?vid=f58252cf-1e04-42f5-aab4-89eede447d36","ios":"levelo://app?vid=f58252cf-1e04-42f5-aab4-89eede447d36"},"vehicle_type_id":"4","last_reported":1752720944,"current_range_meters":16000,"station_id":"ce4bh112rcd13ifvqda0","pricing_plan_id":"cebpf4jnsgd1na2vs0mg"},{"bike_id":"8acdf02c-787e-4a1e-956a-5c94a3dff06a","system_id":"levelo_inurba_marseille","lat":43.28516,"lon":5.40599,"is_reserved":false,"is_disabled":false,"rental_uris":{"android":"levelo://app?vid=8acdf02c-787e-4a1e-956a-5c94a3dff06a","ios":"levelo://app?vid=8acdf02c-787e-4a1e-956a-5c94a3dff06a"},"vehicle_type_id":"4","last_reported":1752720944,"current_range_meters":16000,"station_id":"","pricing_plan_id":"cebpf4jnsgd1na2vs0mg"},{"bike_id":"8c1cb90f-796f-475c-b1be-ecf66057c39d","system_id":"levelo_inurba_marseille","lat":43.31325,"lon":5.39692,"is_reserved":false,"is_disabled":false,"rental_uris":{"android":"levelo://app?vid=8c1cb90f-796f-475c-b1be-ecf66057c39d","ios":"levelo://app?vid=8c1cb90f-796f-475c-b1be-ecf66057c39d"},"vehicle_type_id":"4","last_reported":1752720944,"current_range_meters":16000,"station_id":"ce4bgvp2rcd13ifvqcu0","pricing_plan_id":"cebpf4jnsgd1na2vs0mg"},{"bike_id":"776a57f2-0b79-4f37-b367-4ddbc5cff113","system_id":"levelo_inurba_marseille","lat":43.30327,"lon":5.40428,"is_reserved":false,"is_disabled":false,"rental_uris":{"android":"levelo://app?vid=776a57f2-0b79-4f37-b367-4ddbc5cff113","ios":"levelo://app?vid=776a57f2-0b79-4f37-b367-4ddbc5cff113"},"vehicle_type_id":"4","last_reported":1752720944,"current_range_meters":16400,"station_id":"ce4bh012rcd13ifvqd10","pricing_plan_id":"cebpf4jnsgd1na2vs0mg"},{"bike_id":"15e281ac-ac0d-4b6f-b426-fa5c002bd7ee","system_id":"levelo_inurba_marseille","lat":43.27669,"lon":5.38887,"is_reserved":false,"is_disabled":true,"rental_uris":{"android":"levelo://app?vid=15e281ac-ac0d-4b6f-b426-fa5c002bd7ee","ios":"levelo://app?vid=15e281ac-ac0d-4b6f-b426-fa5c002bd7ee"},"vehicle_type_id":"4","last_reported":1752720944,"current_range_meters":16400,"station_id":"ce4bhi12rcd13ifvqfo0","pricing_plan_id":"cebpf4jnsgd1na2vs0mg"},{"bike_id":"5a1a3660-3355-4d20-86fb-4da0d01f7c08","system_id":"levelo_inurba_marseille","lat":43.30457,"lon":5.37899,"is_reserved":false,"is_disabled":false,"rental_uris":{"android":"levelo://app?vid=5a1a3660-3355-4d20-86fb-4da0d01f7c08","ios":"levelo://app?vid=5a1a3660-3355-4d20-86fb-4da0d01f7c08"},"vehicle_type_id":"4","last_reported":1752720944,"current_range_meters":16400,"station_id":"ce4bgup2rcd13ifvqcn0","pricing_plan_id":"cebpf4jnsgd1na2vs0mg"},{"bike_id":"045a641b-5c1f-49de-960c-1fbe47651d2b","system_id":"levelo_inurba_marseille","lat":43.29278,"lon":5.40125,"is_reserved":false,"is_disabled":false,"rental_uris":{"android":"levelo://app?vid=045a641b-5c1f-49de-960c-1fbe47651d2b","ios":"levelo://app?vid=045a641b-5c1f-49de-960c-1fbe47651d2b"},"vehicle_type_id":"4","last_reported":1752720944,"current_range_meters":16400,"station_id":"ce4bh312rcd13ifvqdk0","pricing_plan_id":"cebpf4jnsgd1na2vs0mg"},{"bike_id":"2c530ba2-e2e5-4965-9a28-e0cbd9937b0c","system_id":"levelo_inurba_marseille","lat":43.292304,"lon":5.360492,"is_reserved":false,"is_disabled":true,"rental_uris":{"android":"levelo://app?vid=2c530ba2-e2e5-4965-9a28-e0cbd9937b0c","ios":"levelo://app?vid=2c530ba2-e2e5-4965-9a28-e0cbd9937b0c"},"vehicle_type_id":"4","last_reported":1752720944,"current_range_meters":16400,"station_id":"","pricing_plan_id":"cebpf4jnsgd1na2vs0mg"},{"bike_id":"32bb6c57-a86c-4923-8388-50f028feee19","system_id":"levelo_inurba_marseille","lat":43.27063,"lon":5.40268,"is_reserved":false,"is_disabled":false,"rental_uris":{"android":"levelo://app?vid=32bb6c57-a86c-4923-8388-50f028feee19","ios":"levelo://app?vid=32bb6c57-a86c-4923-8388-50f028feee19"},"vehicle_type_id":"4","last_reported":1752720944,"current_range_meters":16400,"station_id":"ce4bhk92rcd13ifvqgc0","pricing_plan_id":"cebpf4jnsgd1na2vs0mg"},{"bike_id":"7112984a-55c7-4cb2-96e3-91bbe3ac83c2","system_id":"levelo_inurba_marseille","lat":43.28609,"lon":5.37064,"is_reserved":false,"is_disabled":false,"rental_uris":{"android":"levelo://app?vid=7112984a-55c7-4cb2-96e3-91bbe3ac83c2","ios":"levelo://app?vid=7112984a-55c7-4cb2-96e3-91bbe3ac83c2"},"vehicle_type_id":"4","last_reported":1752720944,"current_range_meters":16800,"station_id":"ce4bht12rcd13ifvqi60","pricing_plan_id":"cebpf4jnsgd1na2vs0mg"},{"bike_id":"1a1de22c-864f-4087-990e-227151d55abc","system_id":"levelo_inurba_marseille","lat":43.2121,"lon":5.35081,"is_reserved":false,"is_disabled":false,"rental_uris":{"android":"levelo://app?vid=1a1de22c-864f-4087-990e-227151d55abc","ios":"levelo://app?vid=1a1de22c-864f-4087-990e-227151d55abc"},"vehicle_type_id":"4","last_reported":1752720944,"current_range_meters":16800,"station_id":"st_cvj6sg6p6f1abm77japg","pricing_plan_id":"cebpf4jnsgd1na2vs0mg"},{"bike_id":"855ff8f9-641c-41af-8e00-5d71e1a04e0f","system_id":"levelo_inurba_marseille","lat":43.22502,"lon":5.34788,"is_reserved":false,"is_disabled":false,"rental_uris":{"android":"levelo://app?vid=855ff8f9-641c-41af-8e00-5d71e1a04e0f","ios":"levelo://app?vid=855ff8f9-641c-41af-8e00-5d71e1a04e0f"},"vehicle_type_id":"4","last_reported":1752720944,"current_range_meters":16800,"station_id":"st_cvj5dfep6f1abm77gieg","pricing_plan_id":"cebpf4jnsgd1na2vs0mg"},{"bike_id":"012332f9-a776-43c4-9db3-01b19351c5f0","system_id":"levelo_inurba_marseille","lat":43.278192,"lon":5.407144,"is_reserved":false,"is_disabled":false,"rental_uris":{"android":"levelo://app?vid=012332f9-a776-43c4-9db3-01b19351c5f0","ios":"levelo://app?vid=012332f9-a776-43c4-9db3-01b19351c5f0"},"vehicle_type_id":"4","last_reported":1752720944,"current_range_meters":16800,"station_id":"ce4bhnh2rcd13ifvqgtg","pricing_plan_id":"cebpf4jnsgd1na2vs0mg"},{"bike_id":"e11b2053-6ee8-4366-91f1-0bdc5412513d","system_id":"levelo_inurba_marseille","lat":43.27497,"lon":5.42458,"is_reserved":false,"is_disabled":false,"rental_uris":{"android":"levelo://app?vid=e11b2053-6ee8-4366-91f1-0bdc5412513d","ios":"levelo://app?vid=e11b2053-6ee8-4366-91f1-0bdc5412513d"},"vehicle_type_id":"4","last_reported":1752720944,"current_range_meters":16800,"station_id":"ce4bhn92rcd13ifvqgrg","pricing_plan_id":"cebpf4jnsgd1na2vs0mg"},{"bike_id":"ed95837f-07e7-4a7f-a555-8c7f94bcecc6","system_id":"levelo_inurba_marseille","lat":43.284371,"lon":5.391916,"is_reserved":false,"is_disabled":false,"rental_uris":{"android":"levelo://app?vid=ed95837f-07e7-4a7f-a555-8c7f94bcecc6","ios":"levelo://app?vid=ed95837f-07e7-4a7f-a555-8c7f94bcecc6"},"vehicle_type_id":"4","last_reported":1752720944,"current_range_meters":16800,"station_id":"ce4bhoh2rcd13ifvqh5g","pricing_plan_id":"cebpf4jnsgd1na2vs0mg"},{"bike_id":"ce2ab0d3-f679-4009-b9f7-e2f36d6bbb1d","system_id":"levelo_inurba_marseille","lat":43.336181,"lon":5.409827,"is_reserved":false,"is_disabled":false,"rental_uris":{"android":"levelo://app?vid=ce2ab0d3-f679-4009-b9f7-e2f36d6bbb1d","ios":"levelo://app?vid=ce2ab0d3-f679-4009-b9f7-e2f36d6bbb1d"},"vehicle_type_id":"4","last_reported":1752720944,"current_range_meters":17200,"station_id":"ce4bhqh2rcd13ifvqhmg","pricing_plan_id":"cebpf4jnsgd1na2vs0mg"},{"bike_id":"8716a6dc-edc9-4ce8-b2db-da4e68c247be","system_id":"levelo_inurba_marseille","lat":43.29532,"lon":5.38544,"is_reserved":false,"is_disabled":true,"rental_uris":{"android":"levelo://app?vid=8716a6dc-edc9-4ce8-b2db-da4e68c247be","ios":"levelo://app?vid=8716a6dc-edc9-4ce8-b2db-da4e68c247be"},"vehicle_type_id":"4","last_reported":1752720944,"current_range_meters":17200,"station_id":"ce4bgih2rcd13ifvqba0","pricing_plan_id":"cebpf4jnsgd1na2vs0mg"},{"bike_id":"6a86f8c6-b2e6-40d2-ae1f-9d6e8e9b58a7","system_id":"levelo_inurba_marseille","lat":43.2408,"lon":5.37742,"is_reserved":false,"is_disabled":false,"rental_uris":{"android":"levelo://app?vid=6a86f8c6-b2e6-40d2-ae1f-9d6e8e9b58a7","ios":"levelo://app?vid=6a86f8c6-b2e6-40d2-ae1f-9d6e8e9b58a7"},"vehicle_type_id":"4","last_reported":1752720944,"current_range_meters":17200,"station_id":"ce4bhnp2rcd13ifvqgvg","pricing_plan_id":"cebpf4jnsgd1na2vs0mg"},{"bike_id":"2e52c340-5a15-427d-9501-98b544c14876","system_id":"levelo_inurba_marseille","lat":43.29568,"lon":5.39959,"is_reserved":false,"is_disabled":true,"rental_uris":{"android":"levelo://app?vid=2e52c340-5a15-427d-9501-98b544c14876","ios":"levelo://app?vid=2e52c340-5a15-427d-9501-98b544c14876"},"vehicle_type_id":"4","last_reported":1752720944,"current_range_meters":17200,"station_id":"ce4bh312rcd13ifvqdj0","pricing_plan_id":"cebpf4jnsgd1na2vs0mg"},{"bike_id":"1dee3045-62aa-4e3c-8e0e-cd35af9324b2","system_id":"levelo_inurba_marseille","lat":43.23061,"lon":5.35507,"is_reserved":false,"is_disabled":false,"rental_uris":{"android":"levelo://app?vid=1dee3045-62aa-4e3c-8e0e-cd35af9324b2","ios":"levelo://app?vid=1dee3045-62aa-4e3c-8e0e-cd35af9324b2"},"vehicle_type_id":"4","last_reported":1752720944,"current_range_meters":17200,"station_id":"cpo3342slgdg3j2ifvpg","pricing_plan_id":"cebpf4jnsgd1na2vs0mg"},{"bike_id":"2ac93549-5c94-4228-8eea-782a21384d10","system_id":"levelo_inurba_marseille","lat":43.29634,"lon":5.37793,"is_reserved":false,"is_disabled":false,"rental_uris":{"android":"levelo://app?vid=2ac93549-5c94-4228-8eea-782a21384d10","ios":"levelo://app?vid=2ac93549-5c94-4228-8eea-782a21384d10"},"vehicle_type_id":"4","last_reported":1752720944,"current_range_meters":17200,"station_id":"","pricing_plan_id":"cebpf4jnsgd1na2vs0mg"},{"bike_id":"582d5e63-4946-44ff-8da5-cdf3e52be7b6","system_id":"levelo_inurba_marseille","lat":43.27072,"lon":5.40262,"is_reserved":false,"is_disabled":false,"rental_uris":{"android":"levelo://app?vid=582d5e63-4946-44ff-8da5-cdf3e52be7b6","ios":"levelo://app?vid=582d5e63-4946-44ff-8da5-cdf3e52be7b6"},"vehicle_type_id":"4","last_reported":1752720944,"current_range_meters":17200,"station_id":"ce4bhk92rcd13ifvqgc0","pricing_plan_id":"cebpf4jnsgd1na2vs0mg"},{"bike_id":"a092d05c-8017-44f5-ba8a-35792463d6a3","system_id":"levelo_inurba_marseille","lat":43.225122,"lon":5.34781,"is_reserved":false,"is_disabled":false,"rental_uris":{"android":"levelo://app?vid=a092d05c-8017-44f5-ba8a-35792463d6a3","ios":"levelo://app?vid=a092d05c-8017-44f5-ba8a-35792463d6a3"},"vehicle_type_id":"4","last_reported":1752720944,"current_range_meters":17600,"station_id":"st_cvj5dfep6f1abm77gieg","pricing_plan_id":"cebpf4jnsgd1na2vs0mg"},{"bike_id":"da891840-0cec-4ccc-961c-48903736c6fa","system_id":"levelo_inurba_marseille","lat":43.31139,"lon":5.37692,"is_reserved":false,"is_disabled":false,"rental_uris":{"android":"levelo://app?vid=da891840-0cec-4ccc-961c-48903736c6fa","ios":"levelo://app?vid=da891840-0cec-4ccc-961c-48903736c6fa"},"vehicle_type_id":"4","last_reported":1752720944,"current_range_meters":17600,"station_id":"","pricing_plan_id":"cebpf4jnsgd1na2vs0mg"},{"bike_id":"cf4cc2fb-5f88-42c6-ba3d-9fd5cb4c5c14","system_id":"levelo_inurba_marseille","lat":43.31284,"lon":5.40168,"is_reserved":false,"is_disabled":false,"rental_uris":{"android":"levelo://app?vid=cf4cc2fb-5f88-42c6-ba3d-9fd5cb4c5c14","ios":"levelo://app?vid=cf4cc2fb-5f88-42c6-ba3d-9fd5cb4c5c14"},"vehicle_type_id":"4","last_reported":1752720944,"current_range_meters":17600,"station_id":"ce4bh092rcd13ifvqd30","pricing_plan_id":"cebpf4jnsgd1na2vs0mg"},{"bike_id":"1af876d9-6e0a-45cc-bed9-deae0b87ca9c","system_id":"levelo_inurba_marseille","lat":43.2119,"lon":5.35074,"is_reserved":false,"is_disabled":false,"rental_uris":{"android":"levelo://app?vid=1af876d9-6e0a-45cc-bed9-deae0b87ca9c","ios":"levelo://app?vid=1af876d9-6e0a-45cc-bed9-deae0b87ca9c"},"vehicle_type_id":"4","last_reported":1752720944,"current_range_meters":17600,"station_id":"st_cvj6sg6p6f1abm77japg","pricing_plan_id":"cebpf4jnsgd1na2vs0mg"},{"bike_id":"531dca68-8617-41b0-a6cd-abffc94e1d45","system_id":"levelo_inurba_marseille","lat":43.312,"lon":5.37308,"is_reserved":false,"is_disabled":false,"rental_uris":{"android":"levelo://app?vid=531dca68-8617-41b0-a6cd-abffc94e1d45","ios":"levelo://app?vid=531dca68-8617-41b0-a6cd-abffc94e1d45"},"vehicle_type_id":"4","last_reported":1752720944,"current_range_meters":17600,"station_id":"","pricing_plan_id":"cebpf4jnsgd1na2vs0mg"},{"bike_id":"d644943d-bda4-463c-9cd3-e9e6743ca61f","system_id":"levelo_inurba_marseille","lat":43.288413,"lon":5.393217,"is_reserved":false,"is_disabled":false,"rental_uris":{"android":"levelo://app?vid=d644943d-bda4-463c-9cd3-e9e6743ca61f","ios":"levelo://app?vid=d644943d-bda4-463c-9cd3-e9e6743ca61f"},"vehicle_type_id":"4","last_reported":1752720944,"current_range_meters":17600,"station_id":"ce4bh2p2rcd13ifvqdi0","pricing_plan_id":"cebpf4jnsgd1na2vs0mg"},{"bike_id":"256374d2-a2ac-474f-9102-2ba00255989e","system_id":"levelo_inurba_marseille","lat":43.310664,"lon":5.383534,"is_reserved":false,"is_disabled":false,"rental_uris":{"android":"levelo://app?vid=256374d2-a2ac-474f-9102-2ba00255989e","ios":"levelo://app?vid=256374d2-a2ac-474f-9102-2ba00255989e"},"vehicle_type_id":"4","last_reported":1752720944,"current_range_meters":17600,"station_id":"ce4bgv92rcd13ifvqcr0","pricing_plan_id":"cebpf4jnsgd1na2vs0mg"},{"bike_id":"81f88721-00d0-431c-83bf-446e11578408","system_id":"levelo_inurba_marseille","lat":43.22498,"lon":5.34777,"is_reserved":false,"is_disabled":false,"rental_uris":{"android":"levelo://app?vid=81f88721-00d0-431c-83bf-446e11578408","ios":"levelo://app?vid=81f88721-00d0-431c-83bf-446e11578408"},"vehicle_type_id":"4","last_reported":1752720944,"current_range_meters":17600,"station_id":"st_cvj5dfep6f1abm77gieg","pricing_plan_id":"cebpf4jnsgd1na2vs0mg"},{"bike_id":"aebeee84-419c-4ac0-8ad4-257b0df9d04f","system_id":"levelo_inurba_marseille","lat":43.33616,"lon":5.40989,"is_reserved":false,"is_disabled":false,"rental_uris":{"android":"levelo://app?vid=aebeee84-419c-4ac0-8ad4-257b0df9d04f","ios":"levelo://app?vid=aebeee84-419c-4ac0-8ad4-257b0df9d04f"},"vehicle_type_id":"4","last_reported":1752720944,"current_range_meters":18000,"station_id":"ce4bhqh2rcd13ifvqhmg","pricing_plan_id":"cebpf4jnsgd1na2vs0mg"},{"bike_id":"8a46be9b-55f2-435a-ad73-e8aded0eaf4d","system_id":"levelo_inurba_marseille","lat":43.269365,"lon":5.402657,"is_reserved":false,"is_disabled":false,"rental_uris":{"android":"levelo://app?vid=8a46be9b-55f2-435a-ad73-e8aded0eaf4d","ios":"levelo://app?vid=8a46be9b-55f2-435a-ad73-e8aded0eaf4d"},"vehicle_type_id":"4","last_reported":1752720944,"current_range_meters":18000,"station_id":"cjm6bp8fraef2m0cb0m0","pricing_plan_id":"cebpf4jnsgd1na2vs0mg"},{"bike_id":"1c2c6e11-8bd9-4c44-9620-2e9003cf5a77","system_id":"levelo_inurba_marseille","lat":43.288422,"lon":5.393141,"is_reserved":false,"is_disabled":false,"rental_uris":{"android":"levelo://app?vid=1c2c6e11-8bd9-4c44-9620-2e9003cf5a77","ios":"levelo://app?vid=1c2c6e11-8bd9-4c44-9620-2e9003cf5a77"},"vehicle_type_id":"4","last_reported":1752720944,"current_range_meters":18000,"station_id":"ce4bh2p2rcd13ifvqdi0","pricing_plan_id":"cebpf4jnsgd1na2vs0mg"},{"bike_id":"17d7c4eb-9263-4c4c-a50b-cf87650d3360","system_id":"levelo_inurba_marseille","lat":43.25085,"lon":5.39523,"is_reserved":false,"is_disabled":false,"rental_uris":{"android":"levelo://app?vid=17d7c4eb-9263-4c4c-a50b-cf87650d3360","ios":"levelo://app?vid=17d7c4eb-9263-4c4c-a50b-cf87650d3360"},"vehicle_type_id":"4","last_reported":1752720944,"current_range_meters":18000,"station_id":"ce4bhm12rcd13ifvqgkg","pricing_plan_id":"cebpf4jnsgd1na2vs0mg"},{"bike_id":"370b5495-4112-49cd-80ba-c31203562c50","system_id":"levelo_inurba_marseille","lat":43.30297,"lon":5.37914,"is_reserved":false,"is_disabled":false,"rental_uris":{"android":"levelo://app?vid=370b5495-4112-49cd-80ba-c31203562c50","ios":"levelo://app?vid=370b5495-4112-49cd-80ba-c31203562c50"},"vehicle_type_id":"4","last_reported":1752720944,"current_range_meters":18000,"station_id":"","pricing_plan_id":"cebpf4jnsgd1na2vs0mg"},{"bike_id":"66af56f2-1df2-4ff8-9d74-213cd937e3b4","system_id":"levelo_inurba_marseille","lat":43.28714,"lon":5.37406,"is_reserved":false,"is_disabled":true,"rental_uris":{"android":"levelo://app?vid=66af56f2-1df2-4ff8-9d74-213cd937e3b4","ios":"levelo://app?vid=66af56f2-1df2-4ff8-9d74-213cd937e3b4"},"vehicle_type_id":"4","last_reported":1752720944,"current_range_meters":18000,"station_id":"ce4bh3p2rcd13ifvqdq0","pricing_plan_id":"cebpf4jnsgd1na2vs0mg"},{"bike_id":"3262e6fa-fc0e-4c84-8651-e2a249995dbd","system_id":"levelo_inurba_marseille","lat":43.32655,"lon":5.40979,"is_reserved":false,"is_disabled":false,"rental_uris":{"android":"levelo://app?vid=3262e6fa-fc0e-4c84-8651-e2a249995dbd","ios":"levelo://app?vid=3262e6fa-fc0e-4c84-8651-e2a249995dbd"},"vehicle_type_id":"4","last_reported":1752720944,"current_range_meters":18000,"station_id":"ce4bhpp2rcd13ifvqhgg","pricing_plan_id":"cebpf4jnsgd1na2vs0mg"},{"bike_id":"2c432d83-8f2b-42fd-ad15-ae3d60f37c4a","system_id":"levelo_inurba_marseille","lat":43.25855,"lon":5.39932,"is_reserved":false,"is_disabled":false,"rental_uris":{"android":"levelo://app?vid=2c432d83-8f2b-42fd-ad15-ae3d60f37c4a","ios":"levelo://app?vid=2c432d83-8f2b-42fd-ad15-ae3d60f37c4a"},"vehicle_type_id":"4","last_reported":1752720944,"current_range_meters":18000,"station_id":"ce4bhl92rcd13ifvqghg","pricing_plan_id":"cebpf4jnsgd1na2vs0mg"},{"bike_id":"409515f8-3415-426d-b0c7-61f840c7c187","system_id":"levelo_inurba_marseille","lat":43.22479,"lon":5.34805,"is_reserved":false,"is_disabled":false,"rental_uris":{"android":"levelo://app?vid=409515f8-3415-426d-b0c7-61f840c7c187","ios":"levelo://app?vid=409515f8-3415-426d-b0c7-61f840c7c187"},"vehicle_type_id":"4","last_reported":1752720944,"current_range_meters":18000,"station_id":"st_cvj5dfep6f1abm77gieg","pricing_plan_id":"cebpf4jnsgd1na2vs0mg"},{"bike_id":"789fa153-3b6f-42cb-84e7-5a2132a9cd5b","system_id":"levelo_inurba_marseille","lat":43.29355,"lon":5.37832,"is_reserved":false,"is_disabled":true,"rental_uris":{"android":"levelo://app?vid=789fa153-3b6f-42cb-84e7-5a2132a9cd5b","ios":"levelo://app?vid=789fa153-3b6f-42cb-84e7-5a2132a9cd5b"},"vehicle_type_id":"4","last_reported":1752720944,"current_range_meters":18000,"station_id":"ce4bgjh2rcd13ifvqbf0","pricing_plan_id":"cebpf4jnsgd1na2vs0mg"},{"bike_id":"5022020e-5e76-415c-b843-3f485f240626","system_id":"levelo_inurba_marseille","lat":43.286935,"lon":5.3998,"is_reserved":false,"is_disabled":false,"rental_uris":{"android":"levelo://app?vid=5022020e-5e76-415c-b843-3f485f240626","ios":"levelo://app?vid=5022020e-5e76-415c-b843-3f485f240626"},"vehicle_type_id":"4","last_reported":1752720944,"current_range_meters":18800,"station_id":"ce4bho92rcd13ifvqh3g","pricing_plan_id":"cebpf4jnsgd1na2vs0mg"},{"bike_id":"cd45269a-eb56-4f7e-94ef-066d786e546a","system_id":"levelo_inurba_marseille","lat":43.292815,"lon":5.401175,"is_reserved":false,"is_disabled":false,"rental_uris":{"android":"levelo://app?vid=cd45269a-eb56-4f7e-94ef-066d786e546a","ios":"levelo://app?vid=cd45269a-eb56-4f7e-94ef-066d786e546a"},"vehicle_type_id":"4","last_reported":1752720944,"current_range_meters":18000,"station_id":"ce4bh312rcd13ifvqdk0","pricing_plan_id":"cebpf4jnsgd1na2vs0mg"},{"bike_id":"3d81bf7d-01ed-4b33-9451-cbb539dac082","system_id":"levelo_inurba_marseille","lat":43.314877,"lon":5.372814,"is_reserved":false,"is_disabled":false,"rental_uris":{"android":"levelo://app?vid=3d81bf7d-01ed-4b33-9451-cbb539dac082","ios":"levelo://app?vid=3d81bf7d-01ed-4b33-9451-cbb539dac082"},"vehicle_type_id":"4","last_reported":1752720944,"current_range_meters":18800,"station_id":"ce4bgt12rcd13ifvqcd0","pricing_plan_id":"cebpf4jnsgd1na2vs0mg"},{"bike_id":"beeddfa1-d364-43a3-b4d2-13c6c7db37c3","system_id":"levelo_inurba_marseille","lat":43.30933,"lon":5.40139,"is_reserved":false,"is_disabled":false,"rental_uris":{"android":"levelo://app?vid=beeddfa1-d364-43a3-b4d2-13c6c7db37c3","ios":"levelo://app?vid=beeddfa1-d364-43a3-b4d2-13c6c7db37c3"},"vehicle_type_id":"4","last_reported":1752720944,"current_range_meters":18800,"station_id":"ce4bgvp2rcd13ifvqct0","pricing_plan_id":"cebpf4jnsgd1na2vs0mg"},{"bike_id":"ee77f27c-f1c1-46ed-bbc3-8ed0a48c0994","system_id":"levelo_inurba_marseille","lat":43.30409,"lon":5.36741,"is_reserved":false,"is_disabled":false,"rental_uris":{"android":"levelo://app?vid=ee77f27c-f1c1-46ed-bbc3-8ed0a48c0994","ios":"levelo://app?vid=ee77f27c-f1c1-46ed-bbc3-8ed0a48c0994"},"vehicle_type_id":"4","last_reported":1752720944,"current_range_meters":18800,"station_id":"","pricing_plan_id":"cebpf4jnsgd1na2vs0mg"},{"bike_id":"c81a46e3-e04e-4311-b645-a786dd2289e9","system_id":"levelo_inurba_marseille","lat":43.29407,"lon":5.37845,"is_reserved":false,"is_disabled":true,"rental_uris":{"android":"levelo://app?vid=c81a46e3-e04e-4311-b645-a786dd2289e9","ios":"levelo://app?vid=c81a46e3-e04e-4311-b645-a786dd2289e9"},"vehicle_type_id":"4","last_reported":1752720944,"current_range_meters":18800,"station_id":"","pricing_plan_id":"cebpf4jnsgd1na2vs0mg"},{"bike_id":"f91a0792-9d08-417c-ba4a-62910cc794d6","system_id":"levelo_inurba_marseille","lat":43.24087,"lon":5.37759,"is_reserved":false,"is_disabled":false,"rental_uris":{"android":"levelo://app?vid=f91a0792-9d08-417c-ba4a-62910cc794d6","ios":"levelo://app?vid=f91a0792-9d08-417c-ba4a-62910cc794d6"},"vehicle_type_id":"4","last_reported":1752720944,"current_range_meters":18800,"station_id":"ce4bhnp2rcd13ifvqgvg","pricing_plan_id":"cebpf4jnsgd1na2vs0mg"},{"bike_id":"656db50b-a5d5-422c-93da-4f47dda82cd9","system_id":"levelo_inurba_marseille","lat":43.301331,"lon":5.387772,"is_reserved":false,"is_disabled":false,"rental_uris":{"android":"levelo://app?vid=656db50b-a5d5-422c-93da-4f47dda82cd9","ios":"levelo://app?vid=656db50b-a5d5-422c-93da-4f47dda82cd9"},"vehicle_type_id":"4","last_reported":1752720944,"current_range_meters":18800,"station_id":"","pricing_plan_id":"cebpf4jnsgd1na2vs0mg"},{"bike_id":"f2f1e358-671c-43dc-83ac-76eb27113194","system_id":"levelo_inurba_marseille","lat":43.304276,"lon":5.412832,"is_reserved":false,"is_disabled":true,"rental_uris":{"android":"levelo://app?vid=f2f1e358-671c-43dc-83ac-76eb27113194","ios":"levelo://app?vid=f2f1e358-671c-43dc-83ac-76eb27113194"},"vehicle_type_id":"4","last_reported":1752720944,"current_range_meters":18800,"station_id":"ce4bhop2rcd13ifvqh8g","pricing_plan_id":"cebpf4jnsgd1na2vs0mg"},{"bike_id":"e54582ed-ba92-4640-a97f-9e97144ce87f","system_id":"levelo_inurba_marseille","lat":43.32267,"lon":5.40666,"is_reserved":false,"is_disabled":false,"rental_uris":{"android":"levelo://app?vid=e54582ed-ba92-4640-a97f-9e97144ce87f","ios":"levelo://app?vid=e54582ed-ba92-4640-a97f-9e97144ce87f"},"vehicle_type_id":"4","last_reported":1752720944,"current_range_meters":18800,"station_id":"","pricing_plan_id":"cebpf4jnsgd1na2vs0mg"},{"bike_id":"83f9da7a-ab8f-4fa7-bdd6-6cbe3c88b024","system_id":"levelo_inurba_marseille","lat":43.258643,"lon":5.399141,"is_reserved":false,"is_disabled":false,"rental_uris":{"android":"levelo://app?vid=83f9da7a-ab8f-4fa7-bdd6-6cbe3c88b024","ios":"levelo://app?vid=83f9da7a-ab8f-4fa7-bdd6-6cbe3c88b024"},"vehicle_type_id":"4","last_reported":1752720944,"current_range_meters":18800,"station_id":"ce4bhl92rcd13ifvqghg","pricing_plan_id":"cebpf4jnsgd1na2vs0mg"},{"bike_id":"d840ce09-7d7e-47a6-939f-d5bc435d4c05","system_id":"levelo_inurba_marseille","lat":43.245476,"lon":5.395239,"is_reserved":false,"is_disabled":false,"rental_uris":{"android":"levelo://app?vid=d840ce09-7d7e-47a6-939f-d5bc435d4c05","ios":"levelo://app?vid=d840ce09-7d7e-47a6-939f-d5bc435d4c05"},"vehicle_type_id":"4","last_reported":1752720944,"current_range_meters":18800,"station_id":"ce4bhlp2rcd13ifvqgjg","pricing_plan_id":"cebpf4jnsgd1na2vs0mg"},{"bike_id":"bda2cb93-49bb-4f55-bfed-116eaeed03ef","system_id":"levelo_inurba_marseille","lat":43.306014,"lon":5.372259,"is_reserved":false,"is_disabled":true,"rental_uris":{"android":"levelo://app?vid=bda2cb93-49bb-4f55-bfed-116eaeed03ef","ios":"levelo://app?vid=bda2cb93-49bb-4f55-bfed-116eaeed03ef"},"vehicle_type_id":"4","last_reported":1752720944,"current_range_meters":19200,"station_id":"ce4bgqh2rcd13ifvqc4g","pricing_plan_id":"cebpf4jnsgd1na2vs0mg"},{"bike_id":"83190593-dbee-4571-b7e6-3b3baa1f4536","system_id":"levelo_inurba_marseille","lat":43.30545,"lon":5.38419,"is_reserved":false,"is_disabled":false,"rental_uris":{"android":"levelo://app?vid=83190593-dbee-4571-b7e6-3b3baa1f4536","ios":"levelo://app?vid=83190593-dbee-4571-b7e6-3b3baa1f4536"},"vehicle_type_id":"4","last_reported":1752720944,"current_range_meters":19200,"station_id":"ce4bgg92rcd13ifvqb30","pricing_plan_id":"cebpf4jnsgd1na2vs0mg"},{"bike_id":"e85b5227-1176-450f-8484-95b05826591e","system_id":"levelo_inurba_marseille","lat":43.25868,"lon":5.39937,"is_reserved":false,"is_disabled":false,"rental_uris":{"android":"levelo://app?vid=e85b5227-1176-450f-8484-95b05826591e","ios":"levelo://app?vid=e85b5227-1176-450f-8484-95b05826591e"},"vehicle_type_id":"4","last_reported":1752720944,"current_range_meters":19200,"station_id":"ce4bhl92rcd13ifvqghg","pricing_plan_id":"cebpf4jnsgd1na2vs0mg"},{"bike_id":"6be86623-c65c-4a0d-b3a4-c58891bfa931","system_id":"levelo_inurba_marseille","lat":43.22519,"lon":5.34773,"is_reserved":false,"is_disabled":false,"rental_uris":{"android":"levelo://app?vid=6be86623-c65c-4a0d-b3a4-c58891bfa931","ios":"levelo://app?vid=6be86623-c65c-4a0d-b3a4-c58891bfa931"},"vehicle_type_id":"4","last_reported":1752720944,"current_range_meters":19600,"station_id":"st_cvj5dfep6f1abm77gieg","pricing_plan_id":"cebpf4jnsgd1na2vs0mg"},{"bike_id":"70325453-403c-456e-8e6e-aff3ddc381fb","system_id":"levelo_inurba_marseille","lat":43.286658,"lon":5.36345,"is_reserved":false,"is_disabled":false,"rental_uris":{"android":"levelo://app?vid=70325453-403c-456e-8e6e-aff3ddc381fb","ios":"levelo://app?vid=70325453-403c-456e-8e6e-aff3ddc381fb"},"vehicle_type_id":"4","last_reported":1752720944,"current_range_meters":19600,"station_id":"ce4bhah2rcd13ifvqej0","pricing_plan_id":"cebpf4jnsgd1na2vs0mg"},{"bike_id":"ea3ef553-1763-4213-a671-e9c7ab7b81e8","system_id":"levelo_inurba_marseille","lat":43.28445,"lon":5.35893,"is_reserved":false,"is_disabled":false,"rental_uris":{"android":"levelo://app?vid=ea3ef553-1763-4213-a671-e9c7ab7b81e8","ios":"levelo://app?vid=ea3ef553-1763-4213-a671-e9c7ab7b81e8"},"vehicle_type_id":"4","last_reported":1752720944,"current_range_meters":19600,"station_id":"ce4bhah2rcd13ifvqei0","pricing_plan_id":"cebpf4jnsgd1na2vs0mg"},{"bike_id":"e9320aa9-f9af-4bf0-923f-53ca4a9ee7dc","system_id":"levelo_inurba_marseille","lat":43.308151,"lon":5.381449,"is_reserved":false,"is_disabled":false,"rental_uris":{"android":"levelo://app?vid=e9320aa9-f9af-4bf0-923f-53ca4a9ee7dc","ios":"levelo://app?vid=e9320aa9-f9af-4bf0-923f-53ca4a9ee7dc"},"vehicle_type_id":"4","last_reported":1752720944,"current_range_meters":19600,"station_id":"ce4bgt12rcd13ifvqce0","pricing_plan_id":"cebpf4jnsgd1na2vs0mg"},{"bike_id":"d4c627e9-b3d3-449f-abfd-7eea412a5f0c","system_id":"levelo_inurba_marseille","lat":43.30619,"lon":5.39329,"is_reserved":false,"is_disabled":false,"rental_uris":{"android":"levelo://app?vid=d4c627e9-b3d3-449f-abfd-7eea412a5f0c","ios":"levelo://app?vid=d4c627e9-b3d3-449f-abfd-7eea412a5f0c"},"vehicle_type_id":"4","last_reported":1752720944,"current_range_meters":19600,"station_id":"ce4bh0p2rcd13ifvqd80","pricing_plan_id":"cebpf4jnsgd1na2vs0mg"},{"bike_id":"b10ddd0e-8430-4151-bc83-fec1308d51ba","system_id":"levelo_inurba_marseille","lat":43.30019,"lon":5.40103,"is_reserved":false,"is_disabled":false,"rental_uris":{"android":"levelo://app?vid=b10ddd0e-8430-4151-bc83-fec1308d51ba","ios":"levelo://app?vid=b10ddd0e-8430-4151-bc83-fec1308d51ba"},"vehicle_type_id":"4","last_reported":1752720944,"current_range_meters":19600,"station_id":"","pricing_plan_id":"cebpf4jnsgd1na2vs0mg"},{"bike_id":"ed822664-f978-4865-b4d3-8b7323601ddf","system_id":"levelo_inurba_marseille","lat":43.29786,"lon":5.39364,"is_reserved":false,"is_disabled":true,"rental_uris":{"android":"levelo://app?vid=ed822664-f978-4865-b4d3-8b7323601ddf","ios":"levelo://app?vid=ed822664-f978-4865-b4d3-8b7323601ddf"},"vehicle_type_id":"4","last_reported":1752720944,"current_range_meters":19600,"station_id":"chh1huq6cuj3fo74tm60","pricing_plan_id":"cebpf4jnsgd1na2vs0mg"},{"bike_id":"9739abcf-f23c-4eed-aa17-937c77dcfbff","system_id":"levelo_inurba_marseille","lat":43.307967,"lon":5.381628,"is_reserved":false,"is_disabled":false,"rental_uris":{"android":"levelo://app?vid=9739abcf-f23c-4eed-aa17-937c77dcfbff","ios":"levelo://app?vid=9739abcf-f23c-4eed-aa17-937c77dcfbff"},"vehicle_type_id":"4","last_reported":1752720944,"current_range_meters":19600,"station_id":"ce4bgt12rcd13ifvqce0","pricing_plan_id":"cebpf4jnsgd1na2vs0mg"},{"bike_id":"ba582541-e793-4189-95e1-00f826b065b2","system_id":"levelo_inurba_marseille","lat":43.28881,"lon":5.39325,"is_reserved":false,"is_disabled":false,"rental_uris":{"android":"levelo://app?vid=ba582541-e793-4189-95e1-00f826b065b2","ios":"levelo://app?vid=ba582541-e793-4189-95e1-00f826b065b2"},"vehicle_type_id":"4","last_reported":1752720944,"current_range_meters":19600,"station_id":"ce4bh2p2rcd13ifvqdi0","pricing_plan_id":"cebpf4jnsgd1na2vs0mg"},{"bike_id":"50b334e2-eaa9-40df-8e7e-80b0c537e7d5","system_id":"levelo_inurba_marseille","lat":43.29866,"lon":5.39729,"is_reserved":false,"is_disabled":false,"rental_uris":{"android":"levelo://app?vid=50b334e2-eaa9-40df-8e7e-80b0c537e7d5","ios":"levelo://app?vid=50b334e2-eaa9-40df-8e7e-80b0c537e7d5"},"vehicle_type_id":"4","last_reported":1752720944,"current_range_meters":19600,"station_id":"ce4bh0h2rcd13ifvqd50","pricing_plan_id":"cebpf4jnsgd1na2vs0mg"},{"bike_id":"af19cd9a-6a33-45b8-a763-82902122df12","system_id":"levelo_inurba_marseille","lat":43.26957,"lon":5.38621,"is_reserved":false,"is_disabled":true,"rental_uris":{"android":"levelo://app?vid=af19cd9a-6a33-45b8-a763-82902122df12","ios":"levelo://app?vid=af19cd9a-6a33-45b8-a763-82902122df12"},"vehicle_type_id":"4","last_reported":1752720944,"current_range_meters":19600,"station_id":"ce4bhh92rcd13ifvqfh0","pricing_plan_id":"cebpf4jnsgd1na2vs0mg"},{"bike_id":"c2dba01e-7253-4f47-be7e-556b63c0e205","system_id":"levelo_inurba_marseille","lat":43.3028,"lon":5.37697,"is_reserved":false,"is_disabled":false,"rental_uris":{"android":"levelo://app?vid=c2dba01e-7253-4f47-be7e-556b63c0e205","ios":"levelo://app?vid=c2dba01e-7253-4f47-be7e-556b63c0e205"},"vehicle_type_id":"4","last_reported":1752720944,"current_range_meters":19600,"station_id":"ce4bguh2rcd13ifvqcj0","pricing_plan_id":"cebpf4jnsgd1na2vs0mg"},{"bike_id":"050f5214-f2f0-4b36-98a9-d90482120fbd","system_id":"levelo_inurba_marseille","lat":43.341418,"lon":5.409141,"is_reserved":false,"is_disabled":false,"rental_uris":{"android":"levelo://app?vid=050f5214-f2f0-4b36-98a9-d90482120fbd","ios":"levelo://app?vid=050f5214-f2f0-4b36-98a9-d90482120fbd"},"vehicle_type_id":"4","last_reported":1752720944,"current_range_meters":19600,"station_id":"ce4bhqh2rcd13ifvqhlg","pricing_plan_id":"cebpf4jnsgd1na2vs0mg"},{"bike_id":"cea30ebb-fde9-40e3-bd85-83b44f0b2f93","system_id":"levelo_inurba_marseille","lat":43.291953,"lon":5.393291,"is_reserved":false,"is_disabled":false,"rental_uris":{"android":"levelo://app?vid=cea30ebb-fde9-40e3-bd85-83b44f0b2f93","ios":"levelo://app?vid=cea30ebb-fde9-40e3-bd85-83b44f0b2f93"},"vehicle_type_id":"4","last_reported":1752720944,"current_range_meters":20000,"station_id":"ce4bh192rcd13ifvqdd0","pricing_plan_id":"cebpf4jnsgd1na2vs0mg"},{"bike_id":"5c354085-d660-47eb-a2c2-30e9ee1aa42f","system_id":"levelo_inurba_marseille","lat":43.279158,"lon":5.395825,"is_reserved":false,"is_disabled":false,"rental_uris":{"android":"levelo://app?vid=5c354085-d660-47eb-a2c2-30e9ee1aa42f","ios":"levelo://app?vid=5c354085-d660-47eb-a2c2-30e9ee1aa42f"},"vehicle_type_id":"4","last_reported":1752720944,"current_range_meters":20000,"station_id":"ce4bhf92rcd13ifvqf40","pricing_plan_id":"cebpf4jnsgd1na2vs0mg"},{"bike_id":"084eace8-045f-4012-9455-c501cad7ce10","system_id":"levelo_inurba_marseille","lat":43.225,"lon":5.34775,"is_reserved":false,"is_disabled":false,"rental_uris":{"android":"levelo://app?vid=084eace8-045f-4012-9455-c501cad7ce10","ios":"levelo://app?vid=084eace8-045f-4012-9455-c501cad7ce10"},"vehicle_type_id":"4","last_reported":1752720944,"current_range_meters":20000,"station_id":"st_cvj5dfep6f1abm77gieg","pricing_plan_id":"cebpf4jnsgd1na2vs0mg"},{"bike_id":"baee1408-09b1-4135-89e2-543444a8738d","system_id":"levelo_inurba_marseille","lat":43.29871,"lon":5.39727,"is_reserved":false,"is_disabled":false,"rental_uris":{"android":"levelo://app?vid=baee1408-09b1-4135-89e2-543444a8738d","ios":"levelo://app?vid=baee1408-09b1-4135-89e2-543444a8738d"},"vehicle_type_id":"4","last_reported":1752720944,"current_range_meters":20000,"station_id":"ce4bh0h2rcd13ifvqd50","pricing_plan_id":"cebpf4jnsgd1na2vs0mg"},{"bike_id":"5858ec0b-8947-4654-9cb5-78722c01a76b","system_id":"levelo_inurba_marseille","lat":43.28033,"lon":5.36945,"is_reserved":false,"is_disabled":false,"rental_uris":{"android":"levelo://app?vid=5858ec0b-8947-4654-9cb5-78722c01a76b","ios":"levelo://app?vid=5858ec0b-8947-4654-9cb5-78722c01a76b"},"vehicle_type_id":"4","last_reported":1752720944,"current_range_meters":20000,"station_id":"ce4bha12rcd13ifvqef0","pricing_plan_id":"cebpf4jnsgd1na2vs0mg"},{"bike_id":"52405d3c-940e-4492-9e7f-0fa95bd4e4b8","system_id":"levelo_inurba_marseille","lat":43.29619,"lon":5.37711,"is_reserved":false,"is_disabled":false,"rental_uris":{"android":"levelo://app?vid=52405d3c-940e-4492-9e7f-0fa95bd4e4b8","ios":"levelo://app?vid=52405d3c-940e-4492-9e7f-0fa95bd4e4b8"},"vehicle_type_id":"4","last_reported":1752720944,"current_range_meters":20000,"station_id":"ce4bgi92rcd13ifvqb90","pricing_plan_id":"cebpf4jnsgd1na2vs0mg"},{"bike_id":"2426482d-face-4158-9d61-bfab3bc4633d","system_id":"levelo_inurba_marseille","lat":43.29089,"lon":5.38125,"is_reserved":false,"is_disabled":false,"rental_uris":{"android":"levelo://app?vid=2426482d-face-4158-9d61-bfab3bc4633d","ios":"levelo://app?vid=2426482d-face-4158-9d61-bfab3bc4633d"},"vehicle_type_id":"4","last_reported":1752720944,"current_range_meters":20000,"station_id":"ce4bh512rcd13ifvqe2g","pricing_plan_id":"cebpf4jnsgd1na2vs0mg"},{"bike_id":"5b4e5f0f-cac3-450a-9463-e6a77e2c277e","system_id":"levelo_inurba_marseille","lat":43.246423,"lon":5.388921,"is_reserved":false,"is_disabled":true,"rental_uris":{"android":"levelo://app?vid=5b4e5f0f-cac3-450a-9463-e6a77e2c277e","ios":"levelo://app?vid=5b4e5f0f-cac3-450a-9463-e6a77e2c277e"},"vehicle_type_id":"4","last_reported":1752720944,"current_range_meters":20000,"station_id":"ce4bhg12rcd13ifvqf60","pricing_plan_id":"cebpf4jnsgd1na2vs0mg"},{"bike_id":"fc921309-5bf3-4f06-a80a-1179d5226f8e","system_id":"levelo_inurba_marseille","lat":43.30776,"lon":5.3765,"is_reserved":false,"is_disabled":false,"rental_uris":{"android":"levelo://app?vid=fc921309-5bf3-4f06-a80a-1179d5226f8e","ios":"levelo://app?vid=fc921309-5bf3-4f06-a80a-1179d5226f8e"},"vehicle_type_id":"4","last_reported":1752720944,"current_range_meters":20000,"station_id":"ce4bgv92rcd13ifvqcq0","pricing_plan_id":"cebpf4jnsgd1na2vs0mg"},{"bike_id":"2b6a0076-7745-48c3-94f4-683681ebd9d0","system_id":"levelo_inurba_marseille","lat":43.26221,"lon":5.4046,"is_reserved":false,"is_disabled":false,"rental_uris":{"android":"levelo://app?vid=2b6a0076-7745-48c3-94f4-683681ebd9d0","ios":"levelo://app?vid=2b6a0076-7745-48c3-94f4-683681ebd9d0"},"vehicle_type_id":"4","last_reported":1752720944,"current_range_meters":20000,"station_id":"ce4bhmh2rcd13ifvqgmg","pricing_plan_id":"cebpf4jnsgd1na2vs0mg"},{"bike_id":"ea40e06d-471c-4672-88f6-3b4a12da0d06","system_id":"levelo_inurba_marseille","lat":43.30353,"lon":5.41876,"is_reserved":false,"is_disabled":false,"rental_uris":{"android":"levelo://app?vid=ea40e06d-471c-4672-88f6-3b4a12da0d06","ios":"levelo://app?vid=ea40e06d-471c-4672-88f6-3b4a12da0d06"},"vehicle_type_id":"4","last_reported":1752720944,"current_range_meters":20000,"station_id":"ce4bhop2rcd13ifvqh7g","pricing_plan_id":"cebpf4jnsgd1na2vs0mg"},{"bike_id":"c6db0f6a-96fe-4e1d-8ded-c2ef38c9bab4","system_id":"levelo_inurba_marseille","lat":43.304183,"lon":5.412838,"is_reserved":false,"is_disabled":false,"rental_uris":{"android":"levelo://app?vid=c6db0f6a-96fe-4e1d-8ded-c2ef38c9bab4","ios":"levelo://app?vid=c6db0f6a-96fe-4e1d-8ded-c2ef38c9bab4"},"vehicle_type_id":"4","last_reported":1752720944,"current_range_meters":20400,"station_id":"ce4bhop2rcd13ifvqh8g","pricing_plan_id":"cebpf4jnsgd1na2vs0mg"},{"bike_id":"0d1d86da-bdcf-4f7e-b857-eeee55c498d9","system_id":"levelo_inurba_marseille","lat":43.30934,"lon":5.40141,"is_reserved":false,"is_disabled":false,"rental_uris":{"android":"levelo://app?vid=0d1d86da-bdcf-4f7e-b857-eeee55c498d9","ios":"levelo://app?vid=0d1d86da-bdcf-4f7e-b857-eeee55c498d9"},"vehicle_type_id":"4","last_reported":1752720944,"current_range_meters":20400,"station_id":"ce4bgvp2rcd13ifvqct0","pricing_plan_id":"cebpf4jnsgd1na2vs0mg"},{"bike_id":"f99ff1e4-4111-475a-aa3e-cb902d081040","system_id":"levelo_inurba_marseille","lat":43.23198,"lon":5.35549,"is_reserved":false,"is_disabled":false,"rental_uris":{"android":"levelo://app?vid=f99ff1e4-4111-475a-aa3e-cb902d081040","ios":"levelo://app?vid=f99ff1e4-4111-475a-aa3e-cb902d081040"},"vehicle_type_id":"4","last_reported":1752720944,"current_range_meters":20400,"station_id":"ce4bhu92rcd13ifvqi70","pricing_plan_id":"cebpf4jnsgd1na2vs0mg"},{"bike_id":"bd3be985-991d-42ee-9d15-815db6e058b3","system_id":"levelo_inurba_marseille","lat":43.308272,"lon":5.379229,"is_reserved":false,"is_disabled":false,"rental_uris":{"android":"levelo://app?vid=bd3be985-991d-42ee-9d15-815db6e058b3","ios":"levelo://app?vid=bd3be985-991d-42ee-9d15-815db6e058b3"},"vehicle_type_id":"4","last_reported":1752720944,"current_range_meters":20400,"station_id":"","pricing_plan_id":"cebpf4jnsgd1na2vs0mg"},{"bike_id":"7b5fee1f-81ad-4e7a-a257-5e5c8b978ad6","system_id":"levelo_inurba_marseille","lat":43.28977,"lon":5.378329,"is_reserved":false,"is_disabled":true,"rental_uris":{"android":"levelo://app?vid=7b5fee1f-81ad-4e7a-a257-5e5c8b978ad6","ios":"levelo://app?vid=7b5fee1f-81ad-4e7a-a257-5e5c8b978ad6"},"vehicle_type_id":"4","last_reported":1752720944,"current_range_meters":20400,"station_id":"ce4bh9p2rcd13ifvqed0","pricing_plan_id":"cebpf4jnsgd1na2vs0mg"},{"bike_id":"ea75efb2-ac36-4344-b925-58a5bd2f6327","system_id":"levelo_inurba_marseille","lat":43.271854,"lon":5.362776,"is_reserved":false,"is_disabled":false,"rental_uris":{"android":"levelo://app?vid=ea75efb2-ac36-4344-b925-58a5bd2f6327","ios":"levelo://app?vid=ea75efb2-ac36-4344-b925-58a5bd2f6327"},"vehicle_type_id":"4","last_reported":1752720944,"current_range_meters":20400,"station_id":"","pricing_plan_id":"cebpf4jnsgd1na2vs0mg"},{"bike_id":"1fa6e47a-247c-43f3-a2d5-2457ee6c5d39","system_id":"levelo_inurba_marseille","lat":43.21202,"lon":5.35094,"is_reserved":false,"is_disabled":false,"rental_uris":{"android":"levelo://app?vid=1fa6e47a-247c-43f3-a2d5-2457ee6c5d39","ios":"levelo://app?vid=1fa6e47a-247c-43f3-a2d5-2457ee6c5d39"},"vehicle_type_id":"4","last_reported":1752720944,"current_range_meters":20400,"station_id":"st_cvj6sg6p6f1abm77japg","pricing_plan_id":"cebpf4jnsgd1na2vs0mg"},{"bike_id":"4c0580d4-f2e2-4c67-8250-a65c39c0f7d6","system_id":"levelo_inurba_marseille","lat":43.22493,"lon":5.3478,"is_reserved":false,"is_disabled":false,"rental_uris":{"android":"levelo://app?vid=4c0580d4-f2e2-4c67-8250-a65c39c0f7d6","ios":"levelo://app?vid=4c0580d4-f2e2-4c67-8250-a65c39c0f7d6"},"vehicle_type_id":"4","last_reported":1752720944,"current_range_meters":20400,"station_id":"st_cvj5dfep6f1abm77gieg","pricing_plan_id":"cebpf4jnsgd1na2vs0mg"},{"bike_id":"5c19e255-9e84-4da2-91d1-25c0164973f9","system_id":"levelo_inurba_marseille","lat":43.30683,"lon":5.40063,"is_reserved":false,"is_disabled":false,"rental_uris":{"android":"levelo://app?vid=5c19e255-9e84-4da2-91d1-25c0164973f9","ios":"levelo://app?vid=5c19e255-9e84-4da2-91d1-25c0164973f9"},"vehicle_type_id":"4","last_reported":1752720944,"current_range_meters":20400,"station_id":"","pricing_plan_id":"cebpf4jnsgd1na2vs0mg"},{"bike_id":"3da38677-6e22-452c-8f78-3d17e11c24e2","system_id":"levelo_inurba_marseille","lat":43.260588,"lon":5.393982,"is_reserved":false,"is_disabled":false,"rental_uris":{"android":"levelo://app?vid=3da38677-6e22-452c-8f78-3d17e11c24e2","ios":"levelo://app?vid=3da38677-6e22-452c-8f78-3d17e11c24e2"},"vehicle_type_id":"4","last_reported":1752720944,"current_range_meters":20400,"station_id":"ce4bhh92rcd13ifvqfj0","pricing_plan_id":"cebpf4jnsgd1na2vs0mg"},{"bike_id":"fdb35bbe-cff4-47f7-ba87-5ce9ae32304d","system_id":"levelo_inurba_marseille","lat":43.28713,"lon":5.3738,"is_reserved":false,"is_disabled":false,"rental_uris":{"android":"levelo://app?vid=fdb35bbe-cff4-47f7-ba87-5ce9ae32304d","ios":"levelo://app?vid=fdb35bbe-cff4-47f7-ba87-5ce9ae32304d"},"vehicle_type_id":"4","last_reported":1752720944,"current_range_meters":20800,"station_id":"ce4bh3p2rcd13ifvqdq0","pricing_plan_id":"cebpf4jnsgd1na2vs0mg"},{"bike_id":"627b4092-97b8-4a36-b039-168a35381f06","system_id":"levelo_inurba_marseille","lat":43.30654,"lon":5.4008,"is_reserved":false,"is_disabled":false,"rental_uris":{"android":"levelo://app?vid=627b4092-97b8-4a36-b039-168a35381f06","ios":"levelo://app?vid=627b4092-97b8-4a36-b039-168a35381f06"},"vehicle_type_id":"4","last_reported":1752720944,"current_range_meters":20800,"station_id":"ce4bh112rcd13ifvqda0","pricing_plan_id":"cebpf4jnsgd1na2vs0mg"},{"bike_id":"80e95bd9-d060-4655-9cf7-08730169b5d6","system_id":"levelo_inurba_marseille","lat":43.31063,"lon":5.38357,"is_reserved":false,"is_disabled":false,"rental_uris":{"android":"levelo://app?vid=80e95bd9-d060-4655-9cf7-08730169b5d6","ios":"levelo://app?vid=80e95bd9-d060-4655-9cf7-08730169b5d6"},"vehicle_type_id":"4","last_reported":1752720944,"current_range_meters":20800,"station_id":"ce4bgv92rcd13ifvqcr0","pricing_plan_id":"cebpf4jnsgd1na2vs0mg"},{"bike_id":"b113ef72-baa7-4eb8-80d9-09b1fe83a61f","system_id":"levelo_inurba_marseille","lat":43.28612,"lon":5.37051,"is_reserved":false,"is_disabled":false,"rental_uris":{"android":"levelo://app?vid=b113ef72-baa7-4eb8-80d9-09b1fe83a61f","ios":"levelo://app?vid=b113ef72-baa7-4eb8-80d9-09b1fe83a61f"},"vehicle_type_id":"4","last_reported":1752720944,"current_range_meters":20800,"station_id":"ce4bht12rcd13ifvqi60","pricing_plan_id":"cebpf4jnsgd1na2vs0mg"},{"bike_id":"35e07c9a-467f-46e9-b189-fcf1bbf13b83","system_id":"levelo_inurba_marseille","lat":43.25116,"lon":5.40316,"is_reserved":false,"is_disabled":false,"rental_uris":{"android":"levelo://app?vid=35e07c9a-467f-46e9-b189-fcf1bbf13b83","ios":"levelo://app?vid=35e07c9a-467f-46e9-b189-fcf1bbf13b83"},"vehicle_type_id":"4","last_reported":1752720944,"current_range_meters":20800,"station_id":"ce4bhlh2rcd13ifvqgig","pricing_plan_id":"cebpf4jnsgd1na2vs0mg"},{"bike_id":"e63db760-60f2-4063-aa2b-9e0100a40135","system_id":"levelo_inurba_marseille","lat":43.30755,"lon":5.42455,"is_reserved":false,"is_disabled":false,"rental_uris":{"android":"levelo://app?vid=e63db760-60f2-4063-aa2b-9e0100a40135","ios":"levelo://app?vid=e63db760-60f2-4063-aa2b-9e0100a40135"},"vehicle_type_id":"4","last_reported":1752720944,"current_range_meters":20800,"station_id":"st_cvj6ca6bvosntc0bfgr0","pricing_plan_id":"cebpf4jnsgd1na2vs0mg"},{"bike_id":"9cbf250f-5aee-4543-af66-2ea7e229f002","system_id":"levelo_inurba_marseille","lat":43.30804,"lon":5.38171,"is_reserved":false,"is_disabled":false,"rental_uris":{"android":"levelo://app?vid=9cbf250f-5aee-4543-af66-2ea7e229f002","ios":"levelo://app?vid=9cbf250f-5aee-4543-af66-2ea7e229f002"},"vehicle_type_id":"4","last_reported":1752720944,"current_range_meters":20800,"station_id":"ce4bgt12rcd13ifvqce0","pricing_plan_id":"cebpf4jnsgd1na2vs0mg"},{"bike_id":"9e46aa88-7b19-47c3-b789-71b8902b53cb","system_id":"levelo_inurba_marseille","lat":43.2816,"lon":5.42647,"is_reserved":false,"is_disabled":true,"rental_uris":{"android":"levelo://app?vid=9e46aa88-7b19-47c3-b789-71b8902b53cb","ios":"levelo://app?vid=9e46aa88-7b19-47c3-b789-71b8902b53cb"},"vehicle_type_id":"4","last_reported":1752720944,"current_range_meters":20800,"station_id":"ce4bhnh2rcd13ifvqgug","pricing_plan_id":"cebpf4jnsgd1na2vs0mg"},{"bike_id":"21c50eb2-dc53-491a-874a-e0c76f7bac34","system_id":"levelo_inurba_marseille","lat":43.27896,"lon":5.379843,"is_reserved":false,"is_disabled":false,"rental_uris":{"android":"levelo://app?vid=21c50eb2-dc53-491a-874a-e0c76f7bac34","ios":"levelo://app?vid=21c50eb2-dc53-491a-874a-e0c76f7bac34"},"vehicle_type_id":"4","last_reported":1752720944,"current_range_meters":20800,"station_id":"ce4bhf92rcd13ifvqf50","pricing_plan_id":"cebpf4jnsgd1na2vs0mg"},{"bike_id":"0912b2cc-efad-4219-85cb-086baa31f561","system_id":"levelo_inurba_marseille","lat":43.280464,"lon":5.369316,"is_reserved":false,"is_disabled":true,"rental_uris":{"android":"levelo://app?vid=0912b2cc-efad-4219-85cb-086baa31f561","ios":"levelo://app?vid=0912b2cc-efad-4219-85cb-086baa31f561"},"vehicle_type_id":"4","last_reported":1752720944,"current_range_meters":21600,"station_id":"ce4bha12rcd13ifvqef0","pricing_plan_id":"cebpf4jnsgd1na2vs0mg"},{"bike_id":"af445d04-545e-4008-bf6d-71b2068dfacf","system_id":"levelo_inurba_marseille","lat":43.299014,"lon":5.436674,"is_reserved":false,"is_disabled":false,"rental_uris":{"android":"levelo://app?vid=af445d04-545e-4008-bf6d-71b2068dfacf","ios":"levelo://app?vid=af445d04-545e-4008-bf6d-71b2068dfacf"},"vehicle_type_id":"4","last_reported":1752720944,"current_range_meters":21600,"station_id":"ce4bhpp2rcd13ifvqhfg","pricing_plan_id":"cebpf4jnsgd1na2vs0mg"},{"bike_id":"ac0ed4be-466c-4caa-b855-3c6bbe5a11b5","system_id":"levelo_inurba_marseille","lat":43.2677,"lon":5.37192,"is_reserved":false,"is_disabled":false,"rental_uris":{"android":"levelo://app?vid=ac0ed4be-466c-4caa-b855-3c6bbe5a11b5","ios":"levelo://app?vid=ac0ed4be-466c-4caa-b855-3c6bbe5a11b5"},"vehicle_type_id":"4","last_reported":1752720944,"current_range_meters":21600,"station_id":"","pricing_plan_id":"cebpf4jnsgd1na2vs0mg"},{"bike_id":"4d36ab4f-088c-494e-919d-7c669ac662f6","system_id":"levelo_inurba_marseille","lat":43.25862,"lon":5.39893,"is_reserved":false,"is_disabled":false,"rental_uris":{"android":"levelo://app?vid=4d36ab4f-088c-494e-919d-7c669ac662f6","ios":"levelo://app?vid=4d36ab4f-088c-494e-919d-7c669ac662f6"},"vehicle_type_id":"4","last_reported":1752720944,"current_range_meters":21600,"station_id":"ce4bhl92rcd13ifvqghg","pricing_plan_id":"cebpf4jnsgd1na2vs0mg"},{"bike_id":"bd453d9e-339a-44c2-94f2-e89cfb9d3b28","system_id":"levelo_inurba_marseille","lat":43.30927,"lon":5.40155,"is_reserved":false,"is_disabled":false,"rental_uris":{"android":"levelo://app?vid=bd453d9e-339a-44c2-94f2-e89cfb9d3b28","ios":"levelo://app?vid=bd453d9e-339a-44c2-94f2-e89cfb9d3b28"},"vehicle_type_id":"4","last_reported":1752720944,"current_range_meters":21600,"station_id":"ce4bgvp2rcd13ifvqct0","pricing_plan_id":"cebpf4jnsgd1na2vs0mg"},{"bike_id":"ce7bd25b-5213-4881-a28b-f582e6a1d712","system_id":"levelo_inurba_marseille","lat":43.31376,"lon":5.36684,"is_reserved":false,"is_disabled":true,"rental_uris":{"android":"levelo://app?vid=ce7bd25b-5213-4881-a28b-f582e6a1d712","ios":"levelo://app?vid=ce7bd25b-5213-4881-a28b-f582e6a1d712"},"vehicle_type_id":"4","last_reported":1752720944,"current_range_meters":21600,"station_id":"ce4bgr92rcd13ifvqc6g","pricing_plan_id":"cebpf4jnsgd1na2vs0mg"},{"bike_id":"9871f93a-4f9e-475b-bd81-ed55735f422f","system_id":"levelo_inurba_marseille","lat":43.27377,"lon":5.36256,"is_reserved":false,"is_disabled":true,"rental_uris":{"android":"levelo://app?vid=9871f93a-4f9e-475b-bd81-ed55735f422f","ios":"levelo://app?vid=9871f93a-4f9e-475b-bd81-ed55735f422f"},"vehicle_type_id":"4","last_reported":1752720944,"current_range_meters":22000,"station_id":"ce4bhbh2rcd13ifvqeo0","pricing_plan_id":"cebpf4jnsgd1na2vs0mg"},