{"last_updated":1727443035,"ttl":60,"version":"2.2","data":{"bikes":[{"bike_id":"e9d0b6e0-1fda-4b83-9c26-048395b2d217","system_id":"levelo_inurba_marseille","lat":43.29553,"lon":5.42281,"is_reserved":false,"is_disabled":false,"rental_uris":{"android":"levelo://app?vid=e9d0b6e0-1fda-4b83-9c26-048395b2d217","ios":"levelo://app?vid=e9d0b6e0-1fda-4b83-9c26-048395b2d217"},"vehicle_type_id":"4","last_reported":1727443035,"current_range_meters":10800,"station_id":"ce4bhph2rcd13ifvqhdg","pricing_plan_id":"cebpf4jnsgd1na2vs0mg"},{"bike_id":"662934cc-3b34-49ff-bbe9-737ad6442fa2","system_id":"levelo_inurba_marseille","lat":43.25503,"lon":5.3765,"is_reserved":false,"is_disabled":false,"rental_uris":{"android":"levelo://app?vid=662934cc-3b34-49ff-bbe9-737ad6442fa2","ios":"levelo://app?vid=662934cc-3b34-49ff-bbe9-737ad6442fa2"},"vehicle_type_id":"4","last_reported":1727443035,"current_range_meters":16800,"station_id":"ce4bhh12rcd13ifvqff0","pricing_plan_id":"cebpf4jnsgd1na2vs0mg"},{"bike_id":"a729b4f5-d010-440d-840f-59a6c875bf74","system_id":"levelo_inurba_marseille","lat":43.29572,"lon":5.39981,"is_reserved":false,"is_disabled":false,"rental_uris":{"android":"levelo://app?vid=a729b4f5-d010-440d-840f-59a6c875bf74","ios":"levelo://app?vid=a729b4f5-d010-440d-840f-59a6c875bf74"},"vehicle_type_id":"4","last_reported":1727443035,"current_range_meters":35200,"station_id":"ce4bh312rcd13ifvqdj0","pricing_plan_id":"cebpf4jnsgd1na2vs0mg"},{"bike_id":"e0d1b4a8-3001-4fe4-a32b-8324d6d2fbe4","system_id":"levelo_inurba_marseille","lat":43.23152,"lon":5.43708,"is_reserved":false,"is_disabled":false,"rental_uris":{"android":"levelo://app?vid=e0d1b4a8-3001-4fe4-a32b-8324d6d2fbe4","ios":"levelo://app?vid=e0d1b4a8-3001-4fe4-a32b-8324d6d2fbe4"},"vehicle_type_id":"4","last_reported":1727443035,"current_range_meters":25600,"station_id":"ce4bhmp2rcd13ifvqgog","pricing_plan_id":"cebpf4jnsgd1na2vs0mg"},{"bike_id":"fb3aca4d-d848-4714-ab28-228327ab220e","system_id":"levelo_inurba_marseille","lat":43.231531,"lon":5.437076,"is_reserved":false,"is_disabled":false,"rental_uris":{"android":"levelo://app?vid=fb3aca4d-d848-4714-ab28-228327ab220e","ios":"levelo://app?vid=fb3aca4d-d848-4714-ab28-228327ab220e"},"vehicle_type_id":"4","last_reported":1727443035,"current_range_meters":14400,"station_id":"ce4bhmp2rcd13ifvqgog","pricing_plan_id":"cebpf4jnsgd1na2vs0mg"},{"bike_id":"1c025657-d8da-4e0f-9c6f-61359caa6296","system_id":"levelo_inurba_marseille","lat":43.232,"lon":5.3997,"is_reserved":false,"is_disabled":false,"rental_uris":{"android":"levelo://app?vid=1c025657-d8da-4e0f-9c6f-61359caa6296","ios":"levelo://app?vid=1c025657-d8da-4e0f-9c6f-61359caa6296"},"vehicle_type_id":"4","last_reported":1727443035,"current_range_meters":28400,"station_id":"ce4bhn12rcd13ifvqgqg","pricing_plan_id":"cebpf4jnsgd1na2vs0mg"},{"bike_id":"8adb66dc-1cbe-4d41-a58d-e44958da00f4","system_id":"levelo_inurba_marseille","lat":43.31371,"lon":5.3849,"is_reserved":false,"is_disabled":false,"rental_uris":{"android":"levelo://app?vid=8adb66dc-1cbe-4d41-a58d-e44958da00f4","ios":"levelo://app?vid=8adb66dc-1cbe-4d41-a58d-e44958da00f4"},"vehicle_type_id":"4","last_reported":1727443035,"current_range_meters":3200,"station_id":"ce4bgt92rcd13ifvqcf0","pricing_plan_id":"cebpf4jnsgd1na2vs0mg"},{"bike_id":"9caaba7b-365b-40d9-8cf1-bc414769591a","system_id":"levelo_inurba_marseille","lat":43.29927,"lon":5.37471,"is_reserved":false,"is_disabled":false,"rental_uris":{"android":"levelo://app?vid=9caaba7b-365b-40d9-8cf1-bc414769591a","ios":"levelo://app?vid=9caaba7b-365b-40d9-8cf1-bc414769591a"},"vehicle_type_id":"4","last_reported":1727443035,"current_range_meters":24400,"station_id":"ce4bgjh2rcd13ifvqbg0","pricing_plan_id":"cebpf4jnsgd1na2vs0mg"},{"bike_id":"88c96776-6e23-4af1-827b-eccfb462378e","system_id":"levelo_inurba_marseille","lat":43.22929,"lon":5.35377,"is_reserved":false,"is_disabled":false,"rental_uris":{"android":"levelo://app?vid=88c96776-6e23-4af1-827b-eccfb462378e","ios":"levelo://app?vid=88c96776-6e23-4af1-827b-eccfb462378e"},"vehicle_type_id":"4","last_reported":1727443035,"current_range_meters":35600,"station_id":"cpo3532slgdg3j2ikp40","pricing_plan_id":"cebpf4jnsgd1na2vs0mg"},{"bike_id":"1eabccf2-8a92-4940-812e-077a8da9f755","system_id":"levelo_inurba_marseille","lat":43.34141,"lon":5.40898,"is_reserved":false,"is_disabled":false,"rental_uris":{"android":"levelo://app?vid=1eabccf2-8a92-4940-812e-077a8da9f755","ios":"levelo://app?vid=1eabccf2-8a92-4940-812e-077a8da9f755"},"vehicle_type_id":"4","last_reported":1727443035,"current_range_meters":28400,"station_id":"ce4bhqh2rcd13ifvqhlg","pricing_plan_id":"cebpf4jnsgd1na2vs0mg"},{"bike_id":"dd26d395-b45f-490c-9cb6-9a9daea2b4a5","system_id":"levelo_inurba_marseille","lat":43.23154,"lon":5.43707,"is_reserved":false,"is_disabled":false,"rental_uris":{"android":"levelo://app?vid=dd26d395-b45f-490c-9cb6-9a9daea2b4a5","ios":"levelo://app?vid=dd26d395-b45f-490c-9cb6-9a9daea2b4a5"},"vehicle_type_id":"4","last_reported":1727443035,"current_range_meters":8000,"station_id":"ce4bhmp2rcd13ifvqgog","pricing_plan_id":"cebpf4jnsgd1na2vs0mg"},{"bike_id":"97a2a2a4-8be1-4025-946b-5d45b077410d","system_id":"levelo_inurba_marseille","lat":43.24663,"lon":5.38164,"is_reserved":false,"is_disabled":false,"rental_uris":{"android":"levelo://app?vid=97a2a2a4-8be1-4025-946b-5d45b077410d","ios":"levelo://app?vid=97a2a2a4-8be1-4025-946b-5d45b077410d"},"vehicle_type_id":"4","last_reported":1727443035,"current_range_meters":14400,"station_id":"ce4bgj92rcd13ifvqbe0","pricing_plan_id":"cebpf4jnsgd1na2vs0mg"},{"bike_id":"8d48e600-6e79-4205-b587-792280d4a814","system_id":"levelo_inurba_marseille","lat":43.29545,"lon":5.37495,"is_reserved":false,"is_disabled":false,"rental_uris":{"android":"levelo://app?vid=8d48e600-6e79-4205-b587-792280d4a814","ios":"levelo://app?vid=8d48e600-6e79-4205-b587-792280d4a814"},"vehicle_type_id":"4","last_reported":1727443035,"current_range_meters":4000,"station_id":"ce4bgkp2rcd13ifvqbmg","pricing_plan_id":"cebpf4jnsgd1na2vs0mg"},{"bike_id":"bc588afc-4580-4e6a-b4f6-f9798baa28c0","system_id":"levelo_inurba_marseille","lat":43.30151,"lon":5.38095,"is_reserved":false,"is_disabled":false,"rental_uris":{"android":"levelo://app?vid=bc588afc-4580-4e6a-b4f6-f9798baa28c0","ios":"levelo://app?vid=bc588afc-4580-4e6a-b4f6-f9798baa28c0"},"vehicle_type_id":"4","last_reported":1727443035,"current_range_meters":18800,"station_id":"ce4bgjp2rcd13ifvqbh0","pricing_plan_id":"cebpf4jnsgd1na2vs0mg"},{"bike_id":"ee912292-d392-4b7b-af3f-3def9e05a723","system_id":"levelo_inurba_marseille","lat":43.25892,"lon":5.39219,"is_reserved":false,"is_disabled":false,"rental_uris":{"android":"levelo://app?vid=ee912292-d392-4b7b-af3f-3def9e05a723","ios":"levelo://app?vid=ee912292-d392-4b7b-af3f-3def9e05a723"},"vehicle_type_id":"4","last_reported":1727443035,"current_range_meters":16400,"station_id":"","pricing_plan_id":"cebpf4jnsgd1na2vs0mg"},{"bike_id":"44eb9390-ffa1-438a-af06-26343ac74f2f","system_id":"levelo_inurba_marseille","lat":43.30181,"lon":5.3661,"is_reserved":false,"is_disabled":false,"rental_uris":{"android":"levelo://app?vid=44eb9390-ffa1-438a-af06-26343ac74f2f","ios":"levelo://app?vid=44eb9390-ffa1-438a-af06-26343ac74f2f"},"vehicle_type_id":"4","last_reported":1727443035,"current_range_meters":30400,"station_id":"ce4bgrh2rcd13ifvqc8g","pricing_plan_id":"cebpf4jnsgd1na2vs0mg"},{"bike_id":"29442083-8ea7-45b8-890c-9435a4908ad4","system_id":"levelo_inurba_marseille","lat":43.27618,"lon":5.36118,"is_reserved":false,"is_disabled":false,"rental_uris":{"android":"levelo://app?vid=29442083-8ea7-45b8-890c-9435a4908ad4","ios":"levelo://app?vid=29442083-8ea7-45b8-890c-9435a4908ad4"},"vehicle_type_id":"4","last_reported":1727443035,"current_range_meters":20800,"station_id":"ce4bgj92rcd13ifvqbe0","pricing_plan_id":"cebpf4jnsgd1na2vs0mg"},{"bike_id":"5934e212-309c-4eb8-8f8c-36e45cc14718","system_id":"levelo_inurba_marseille","lat":43.27172,"lon":5.4099,"is_reserved":false,"is_disabled":false,"rental_uris":{"android":"levelo://app?vid=5934e212-309c-4eb8-8f8c-36e45cc14718","ios":"levelo://app?vid=5934e212-309c-4eb8-8f8c-36e45cc14718"},"vehicle_type_id":"4","last_reported":1727443035,"current_range_meters":34000,"station_id":"ce4bhl12rcd13ifvqgf0","pricing_plan_id":"cebpf4jnsgd1na2vs0mg"},{"bike_id":"a59da56a-ca33-4b20-90bb-9e45754ef314","system_id":"levelo_inurba_marseille","lat":43.31759,"lon":5.39013,"is_reserved":false,"is_disabled":false,"rental_uris":{"android":"levelo://app?vid=a59da56a-ca33-4b20-90bb-9e45754ef314","ios":"levelo://app?vid=a59da56a-ca33-4b20-90bb-9e45754ef314"},"vehicle_type_id":"4","last_reported":1727443035,"current_range_meters":38800,"station_id":"ce4bhqp2rcd13ifvqhng","pricing_plan_id":"cebpf4jnsgd1na2vs0mg"},{"bike_id":"fd90a75b-c9f7-4616-8428-60fca67a00bd","system_id":"levelo_inurba_marseille","lat":43.31711,"lon":5.43706,"is_reserved":false,"is_disabled":false,"rental_uris":{"android":"levelo://app?vid=fd90a75b-c9f7-4616-8428-60fca67a00bd","ios":"levelo://app?vid=fd90a75b-c9f7-4616-8428-60fca67a00bd"},"vehicle_type_id":"4","last_reported":1727443035,"current_range_meters":38800,"station_id":"ce4bgup2rcd13ifvqcn0","pricing_plan_id":"cebpf4jnsgd1na2vs0mg"},{"bike_id":"7730e404-407a-4f67-a0b4-cd826d4ff7cf","system_id":"levelo_inurba_marseille","lat":43.33611,"lon":5.41021,"is_reserved":false,"is_disabled":false,"rental_uris":{"android":"levelo://app?vid=7730e404-407a-4f67-a0b4-cd826d4ff7cf","ios":"levelo://app?vid=7730e404-407a-4f67-a0b4-cd826d4ff7cf"},"vehicle_type_id":"4","last_reported":1727443035,"current_range_meters":25200,"station_id":"ce4bhqh2rcd13ifvqhmg","pricing_plan_id":"cebpf4jnsgd1na2vs0mg"},{"bike_id":"dddf81e4-492f-42fa-bca8-31ade2ac81f2","system_id":"levelo_inurba_marseille","lat":43.27494,"lon":5.42454,"is_reserved":false,"is_disabled":false,"rental_uris":{"android":"levelo://app?vid=dddf81e4-492f-42fa-bca8-31ade2ac81f2","ios":"levelo://app?vid=dddf81e4-492f-42fa-bca8-31ade2ac81f2"},"vehicle_type_id":"4","last_reported":1727443035,"current_range_meters":33600,"station_id":"ce4bhn92rcd13ifvqgrg","pricing_plan_id":"cebpf4jnsgd1na2vs0mg"},{"bike_id":"dd842cfc-3919-4cc0-ba10-51b817d681d0","system_id":"levelo_inurba_marseille","lat":43.33021,"lon":5.39036,"is_reserved":false,"is_disabled":false,"rental_uris":{"android":"levelo://app?vid=dd842cfc-3919-4cc0-ba10-51b817d681d0","ios":"levelo://app?vid=dd842cfc-3919-4cc0-ba10-51b817d681d0"},"vehicle_type_id":"4","last_reported":1727443035,"current_range_meters":33200,"station_id":"ce4bhr92rcd13ifvqhrg","pricing_plan_id":"cebpf4jnsgd1na2vs0mg"},{"bike_id":"80fe4a40-a502-4db0-b980-a485af7c8744","system_id":"levelo_inurba_marseille","lat":43.33752,"lon":5.37361,"is_reserved":false,"is_disabled":false,"rental_uris":{"android":"levelo://app?vid=80fe4a40-a502-4db0-b980-a485af7c8744","ios":"levelo://app?vid=80fe4a40-a502-4db0-b980-a485af7c8744"},"vehicle_type_id":"4","last_reported":1727443035,"current_range_meters":27200,"station_id":"","pricing_plan_id":"cebpf4jnsgd1na2vs0mg"},{"bike_id":"75ceedd9-9b60-41f0-b187-8b3a942eedbc","system_id":"levelo_inurba_marseille","lat":43.31167,"lon":5.38717,"is_reserved":false,"is_disabled":false,"rental_uris":{"android":"levelo://app?vid=75ceedd9-9b60-41f0-b187-8b3a942eedbc","ios":"levelo://app?vid=75ceedd9-9b60-41f0-b187-8b3a942eedbc"},"vehicle_type_id":"4","last_reported":1727443035,"current_range_meters":37600,"station_id":"ce4bgv12rcd13ifvqcp0","pricing_plan_id":"cebpf4jnsgd1na2vs0mg"},{"bike_id":"29b51e64-6fe8-4732-80ae-d1bb78a1c779","system_id":"levelo_inurba_marseille","lat":43.29959,"lon":5.41323,"is_reserved":false,"is_disabled":false,"rental_uris":{"android":"levelo://app?vid=29b51e64-6fe8-4732-80ae-d1bb78a1c779","ios":"levelo://app?vid=29b51e64-6fe8-4732-80ae-d1bb78a1c779"},"vehicle_type_id":"4","last_reported":1727443035,"current_range_meters":13600,"station_id":"ce4bhp12rcd13ifvqh9g","pricing_plan_id":"cebpf4jnsgd1na2vs0mg"},{"bike_id":"c40e0c3a-fef8-4b24-baff-a552ed77838d","system_id":"levelo_inurba_marseille","lat":43.24165,"lon":5.36393,"is_reserved":false,"is_disabled":false,"rental_uris":{"android":"levelo://app?vid=c40e0c3a-fef8-4b24-baff-a552ed77838d","ios":"levelo://app?vid=c40e0c3a-fef8-4b24-baff-a552ed77838d"},"vehicle_type_id":"4","last_reported":1727443035,"current_range_meters":22800,"station_id":"cpo36qri1sfpv3e86is0","pricing_plan_id":"cebpf4jnsgd1na2vs0mg"},{"bike_id":"f21983c5-3265-446d-b37f-836bdc7b0f78","system_id":"levelo_inurba_marseille","lat":43.337444,"lon":5.374475,"is_reserved":false,"is_disabled":false,"rental_uris":{"android":"levelo://app?vid=f21983c5-3265-446d-b37f-836bdc7b0f78","ios":"levelo://app?vid=f21983c5-3265-446d-b37f-836bdc7b0f78"},"vehicle_type_id":"4","last_reported":1727443035,"current_range_meters":16400,"station_id":"","pricing_plan_id":"cebpf4jnsgd1na2vs0mg"},{"bike_id":"da5a9137-9416-47ba-b784-1e29cd4f466c","system_id":"levelo_inurba_marseille","lat":43.27183,"lon":5.40992,"is_reserved":false,"is_disabled":false,"rental_uris":{"android":"levelo://app?vid=da5a9137-9416-47ba-b784-1e29cd4f466c","ios":"levelo://app?vid=da5a9137-9416-47ba-b784-1e29cd4f466c"},"vehicle_type_id":"4","last_reported":1727443035,"current_range_meters":37600,"station_id":"ce4bhl12rcd13ifvqgf0","pricing_plan_id":"cebpf4jnsgd1na2vs0mg"},{"bike_id":"abb94a3c-38ae-497a-bc82-a27fd68ce79e","system_id":"levelo_inurba_marseille","lat":43.33762,"lon":5.37462,"is_reserved":false,"is_disabled":false,"rental_uris":{"android":"levelo://app?vid=abb94a3c-38ae-497a-bc82-a27fd68ce79e","ios":"levelo://app?vid=abb94a3c-38ae-497a-bc82-a27fd68ce79e"},"vehicle_type_id":"4","last_reported":1727443035,"current_range_meters":27200,"station_id":"","pricing_plan_id":"cebpf4jnsgd1na2vs0mg"},{"bike_id":"5f3d64c1-59e7-40d8-b935-d548fadc5220","system_id":"levelo_inurba_marseille","lat":43.2306,"lon":5.35495,"is_reserved":false,"is_disabled":false,"rental_uris":{"android":"levelo://app?vid=5f3d64c1-59e7-40d8-b935-d548fadc5220","ios":"levelo://app?vid=5f3d64c1-59e7-40d8-b935-d548fadc5220"},"vehicle_type_id":"4","last_reported":1727443035,"current_range_meters":36800,"station_id":"cpo3342slgdg3j2ifvpg","pricing_plan_id":"cebpf4jnsgd1na2vs0mg"},{"bike_id":"db29fb7c-0a2f-41d8-b789-1699e89bb3a1","system_id":"levelo_inurba_marseille","lat":43.260329,"lon":5.375442,"is_reserved":false,"is_disabled":false,"rental_uris":{"android":"levelo://app?vid=db29fb7c-0a2f-41d8-b789-1699e89bb3a1","ios":"levelo://app?vid=db29fb7c-0a2f-41d8-b789-1699e89bb3a1"},"vehicle_type_id":"4","last_reported":1727443035,"current_range_meters":14400,"station_id":"ce4bhgh2rcd13ifvqfa0","pricing_plan_id":"cebpf4jnsgd1na2vs0mg"},{"bike_id":"1630ceab-62e4-4ddb-8a1c-be0fd30ee9c7","system_id":"levelo_inurba_marseille","lat":43.29837,"lon":5.36264,"is_reserved":false,"is_disabled":false,"rental_uris":{"android":"levelo://app?vid=1630ceab-62e4-4ddb-8a1c-be0fd30ee9c7","ios":"levelo://app?vid=1630ceab-62e4-4ddb-8a1c-be0fd30ee9c7"},"vehicle_type_id":"4","last_reported":1727443035,"current_range_meters":17200,"station_id":"ce4bgpp2rcd13ifvqc3g","pricing_plan_id":"cebpf4jnsgd1na2vs0mg"},{"bike_id":"9184e0a4-665a-4985-a5d1-87187d166167","system_id":"levelo_inurba_marseille","lat":43.32,"lon":5.38147,"is_reserved":false,"is_disabled":false,"rental_uris":{"android":"levelo://app?vid=9184e0a4-665a-4985-a5d1-87187d166167","ios":"levelo://app?vid=9184e0a4-665a-4985-a5d1-87187d166167"},"vehicle_type_id":"4","last_reported":1727443035,"current_range_meters":24800,"station_id":"ce4bhr12rcd13ifvqhpg","pricing_plan_id":"cebpf4jnsgd1na2vs0mg"},{"bike_id":"9ae3f5b1-b966-4656-a962-71c1d8a34aee","system_id":"levelo_inurba_marseille","lat":43.33761,"lon":5.37452,"is_reserved":false,"is_disabled":false,"rental_uris":{"android":"levelo://app?vid=9ae3f5b1-b966-4656-a962-71c1d8a34aee","ios":"levelo://app?vid=9ae3f5b1-b966-4656-a962-71c1d8a34aee"},"vehicle_type_id":"4","last_reported":1727443035,"current_range_meters":26800,"station_id":"","pricing_plan_id":"cebpf4jnsgd1na2vs0mg"},{"bike_id":"0b7183e3-b50e-45d4-990b-f05acc20102d","system_id":"levelo_inurba_marseille","lat":43.25008,"lon":5.38909,"is_reserved":false,"is_disabled":false,"rental_uris":{"android":"levelo://app?vid=0b7183e3-b50e-45d4-990b-f05acc20102d","ios":"levelo://app?vid=0b7183e3-b50e-45d4-990b-f05acc20102d"},"vehicle_type_id":"4","last_reported":1727443035,"current_range_meters":11200,"station_id":"ce4bhgp2rcd13ifvqfd0","pricing_plan_id":"cebpf4jnsgd1na2vs0mg"},{"bike_id":"4a2cbfe9-f5ae-457a-bf08-7ba1aa905eed","system_id":"levelo_inurba_marseille","lat":43.31725,"lon":5.42392,"is_reserved":false,"is_disabled":false,"rental_uris":{"android":"levelo://app?vid=4a2cbfe9-f5ae-457a-bf08-7ba1aa905eed","ios":"levelo://app?vid=4a2cbfe9-f5ae-457a-bf08-7ba1aa905eed"},"vehicle_type_id":"4","last_reported":1727443035,"current_range_meters":26000,"station_id":"ce4bhp92rcd13ifvqhbg","pricing_plan_id":"cebpf4jnsgd1na2vs0mg"},{"bike_id":"2fb5e4d2-a242-444d-ab4b-fb98663da5f9","system_id":"levelo_inurba_marseille","lat":43.30944,"lon":5.3903,"is_reserved":false,"is_disabled":false,"rental_uris":{"android":"levelo://app?vid=2fb5e4d2-a242-444d-ab4b-fb98663da5f9","ios":"levelo://app?vid=2fb5e4d2-a242-444d-ab4b-fb98663da5f9"},"vehicle_type_id":"4","last_reported":1727443035,"current_range_meters":7200,"station_id":"ce4bgup2rcd13ifvqco0","pricing_plan_id":"cebpf4jnsgd1na2vs0mg"},{"bike_id":"36bb1b8e-44ce-4c2f-aed0-77cc1ce8af00","system_id":"levelo_inurba_marseille","lat":43.28938,"lon":5.36634,"is_reserved":false,"is_disabled":false,"rental_uris":{"android":"levelo://app?vid=36bb1b8e-44ce-4c2f-aed0-77cc1ce8af00","ios":"levelo://app?vid=36bb1b8e-44ce-4c2f-aed0-77cc1ce8af00"},"vehicle_type_id":"4","last_reported":1727443035,"current_range_meters":8000,"station_id":"ce4bhap2rcd13ifvqek0","pricing_plan_id":"cebpf4jnsgd1na2vs0mg"},{"bike_id":"fccee0ce-57c9-47b6-8181-a70315989ece","system_id":"levelo_inurba_marseille","lat":43.30947,"lon":5.3903,"is_reserved":false,"is_disabled":false,"rental_uris":{"android":"levelo://app?vid=fccee0ce-57c9-47b6-8181-a70315989ece","ios":"levelo://app?vid=fccee0ce-57c9-47b6-8181-a70315989ece"},"vehicle_type_id":"4","last_reported":1727443035,"current_range_meters":8800,"station_id":"ce4bgup2rcd13ifvqco0","pricing_plan_id":"cebpf4jnsgd1na2vs0mg"},{"bike_id":"4c0dd3c9-f0c4-43b0-aa3a-50ece3f3fb2a","system_id":"levelo_inurba_marseille","lat":43.31706,"lon":5.37743,"is_reserved":false,"is_disabled":false,"rental_uris":{"android":"levelo://app?vid=4c0dd3c9-f0c4-43b0-aa3a-50ece3f3fb2a","ios":"levelo://app?vid=4c0dd3c9-f0c4-43b0-aa3a-50ece3f3fb2a"},"vehicle_type_id":"4","last_reported":1727443035,"current_range_meters":16800,"station_id":"ce4bgth2rcd13ifvqch0","pricing_plan_id":"cebpf4jnsgd1na2vs0mg"},{"bike_id":"761f1151-2896-4585-a6ba-2b97c7d264d4","system_id":"levelo_inurba_marseille","lat":43.3249,"lon":5.36548,"is_reserved":false,"is_disabled":false,"rental_uris":{"android":"levelo://app?vid=761f1151-2896-4585-a6ba-2b97c7d264d4","ios":"levelo://app?vid=761f1151-2896-4585-a6ba-2b97c7d264d4"},"vehicle_type_id":"4","last_reported":1727443035,"current_range_meters":38800,"station_id":"ce4bhs12rcd13ifvqhvg","pricing_plan_id":"cebpf4jnsgd1na2vs0mg"},{"bike_id":"37c6b063-7818-4f4b-93a0-e80ffbfa0b6c","system_id":"levelo_inurba_marseille","lat":43.31228,"lon":5.36838,"is_reserved":false,"is_disabled":false,"rental_uris":{"android":"levelo://app?vid=37c6b063-7818-4f4b-93a0-e80ffbfa0b6c","ios":"levelo://app?vid=37c6b063-7818-4f4b-93a0-e80ffbfa0b6c"},"vehicle_type_id":"4","last_reported":1727443035,"current_range_meters":8400,"station_id":"ce4bgl92rcd13ifvqbq0","pricing_plan_id":"cebpf4jnsgd1na2vs0mg"},{"bike_id":"f76a5fdd-2f9d-4aee-8d41-4d46fc83c3ea","system_id":"levelo_inurba_marseille","lat":43.23151,"lon":5.43711,"is_reserved":false,"is_disabled":false,"rental_uris":{"android":"levelo://app?vid=f76a5fdd-2f9d-4aee-8d41-4d46fc83c3ea","ios":"levelo://app?vid=f76a5fdd-2f9d-4aee-8d41-4d46fc83c3ea"},"vehicle_type_id":"4","last_reported":1727443035,"current_range_meters":22800,"station_id":"ce4bhmp2rcd13ifvqgog","pricing_plan_id":"cebpf4jnsgd1na2vs0mg"},{"bike_id":"63ecd18b-9443-44ea-acdb-39cc3753d4fe","system_id":"levelo_inurba_marseille","lat":43.25497,"lon":5.37646,"is_reserved":false,"is_disabled":false,"rental_uris":{"android":"levelo://app?vid=63ecd18b-9443-44ea-acdb-39cc3753d4fe","ios":"levelo://app?vid=63ecd18b-9443-44ea-acdb-39cc3753d4fe"},"vehicle_type_id":"4","last_reported":1727443035,"current_range_meters":23200,"station_id":"ce4bhh12rcd13ifvqff0","pricing_plan_id":"cebpf4jnsgd1na2vs0mg"},{"bike_id":"ad2129e1-cef3-4e39-ab26-51e9eda3ab89","system_id":"levelo_inurba_marseille","lat":43.25938,"lon":5.40898,"is_reserved":false,"is_disabled":false,"rental_uris":{"android":"levelo://app?vid=ad2129e1-cef3-4e39-ab26-51e9eda3ab89","ios":"levelo://app?vid=ad2129e1-cef3-4e39-ab26-51e9eda3ab89"},"vehicle_type_id":"4","last_reported":1727443035,"current_range_meters":22000,"station_id":"ce4bhm92rcd13ifvqglg","pricing_plan_id":"cebpf4jnsgd1na2vs0mg"},{"bike_id":"a7333152-dbdf-4a5b-bac1-014b1a832217","system_id":"levelo_inurba_marseille","lat":43.27567,"lon":5.38422,"is_reserved":false,"is_disabled":false,"rental_uris":{"android":"levelo://app?vid=a7333152-dbdf-4a5b-bac1-014b1a832217","ios":"levelo://app?vid=a7333152-dbdf-4a5b-bac1-014b1a832217"},"vehicle_type_id":"4","last_reported":1727443035,"current_range_meters":19600,"station_id":"ce4bhh92rcd13ifvqfi0","pricing_plan_id":"cebpf4jnsgd1na2vs0mg"},{"bike_id":"53ae3c1b-e98a-41e3-9b1b-f07f3d4a7b2a","system_id":"levelo_inurba_marseille","lat":43.23156,"lon":5.43699,"is_reserved":false,"is_disabled":false,"rental_uris":{"android":"levelo://app?vid=53ae3c1b-e98a-41e3-9b1b-f07f3d4a7b2a","ios":"levelo://app?vid=53ae3c1b-e98a-41e3-9b1b-f07f3d4a7b2a"},"vehicle_type_id":"4","last_reported":1727443035,"current_range_meters":14800,"station_id":"ce4bhmp2rcd13ifvqgog","pricing_plan_id":"cebpf4jnsgd1na2vs0mg"},{"bike_id":"c5b34c79-e6a4-46bf-afee-5a7fe86c90d7","system_id":"levelo_inurba_marseille","lat":43.3015,"lon":5.38105,"is_reserved":false,"is_disabled":false,"rental_uris":{"android":"levelo://app?vid=c5b34c79-e6a4-46bf-afee-5a7fe86c90d7","ios":"levelo://app?vid=c5b34c79-e6a4-46bf-afee-5a7fe86c90d7"},"vehicle_type_id":"4","last_reported":1727443035,"current_range_meters":28800,"station_id":"ce4bgjp2rcd13ifvqbh0","pricing_plan_id":"cebpf4jnsgd1na2vs0mg"},{"bike_id":"5aa3238c-e510-4657-acbc-6b461661c18b","system_id":"levelo_inurba_marseille","lat":43.28939,"lon":5.36401,"is_reserved":false,"is_disabled":false,"rental_uris":{"android":"levelo://app?vid=5aa3238c-e510-4657-acbc-6b461661c18b","ios":"levelo://app?vid=5aa3238c-e510-4657-acbc-6b461661c18b"},"vehicle_type_id":"4","last_reported":1727443035,"current_range_meters":33200,"station_id":"ce4bhc92rcd13ifvqetg","pricing_plan_id":"cebpf4jnsgd1na2vs0mg"},{"bike_id":"581fde94-b874-4117-a0b3-ae251d1e2e4b","system_id":"levelo_inurba_marseille","lat":43.23152,"lon":5.43723,"is_reserved":false,"is_disabled":false,"rental_uris":{"android":"levelo://app?vid=581fde94-b874-4117-a0b3-ae251d1e2e4b","ios":"levelo://app?vid=581fde94-b874-4117-a0b3-ae251d1e2e4b"},"vehicle_type_id":"4","last_reported":1727443035,"current_range_meters":12000,"station_id":"ce4bhmp2rcd13ifvqgog","pricing_plan_id":"cebpf4jnsgd1na2vs0mg"},{"bike_id":"951d9741-60c3-4f33-8372-8fdc89178e7a","system_id":"levelo_inurba_marseille","lat":43.28274,"lon":5.35063,"is_reserved":false,"is_disabled":false,"rental_uris":{"android":"levelo://app?vid=951d9741-60c3-4f33-8372-8fdc89178e7a","ios":"levelo://app?vid=951d9741-60c3-4f33-8372-8fdc89178e7a"},"vehicle_type_id":"4","last_reported":1727443035,"current_range_meters":27200,"station_id":"ce4bhbp2rcd13ifvqerg","pricing_plan_id":"cebpf4jnsgd1na2vs0mg"},{"bike_id":"81f5815f-7132-4a99-a008-494f06eec1bf","system_id":"levelo_inurba_marseille","lat":43.23194,"lon":5.35557,"is_reserved":false,"is_disabled":false,"rental_uris":{"android":"levelo://app?vid=81f5815f-7132-4a99-a008-494f06eec1bf","ios":"levelo://app?vid=81f5815f-7132-4a99-a008-494f06eec1bf"},"vehicle_type_id":"4","last_reported":1727443035,"current_range_meters":20000,"station_id":"ce4bhu92rcd13ifvqi70","pricing_plan_id":"cebpf4jnsgd1na2vs0mg"},{"bike_id":"103ffac9-fd23-44d1-acf8-7cb909dcfc40","system_id":"levelo_inurba_marseille","lat":43.284526,"lon":5.392108,"is_reserved":false,"is_disabled":false,"rental_uris":{"android":"levelo://app?vid=103ffac9-fd23-44d1-acf8-7cb909dcfc40","ios":"levelo://app?vid=103ffac9-fd23-44d1-acf8-7cb909dcfc40"},"vehicle_type_id":"4","last_reported":1727443035,"current_range_meters":5600,"station_id":"ce4bhoh2rcd13ifvqh5g","pricing_plan_id":"cebpf4jnsgd1na2vs0mg"},{"bike_id":"c16a8e2b-f414-4784-b287-8164b238efb4","system_id":"levelo_inurba_marseille","lat":43.32482,"lon":5.36558,"is_reserved":false,"is_disabled":false,"rental_uris":{"android":"levelo://app?vid=c16a8e2b-f414-4784-b287-8164b238efb4","ios":"levelo://app?vid=c16a8e2b-f414-4784-b287-8164b238efb4"},"vehicle_type_id":"4","last_reported":1727443035,"current_range_meters":25600,"station_id":"ce4bhs12rcd13ifvqhvg","pricing_plan_id":"cebpf4jnsgd1na2vs0mg"},{"bike_id":"6df7c588-41fb-48d5-b5b1-a0da74a9118b","system_id":"levelo_inurba_marseille","lat":43.22934,"lon":5.35373,"is_reserved":false,"is_disabled":false,"rental_uris":{"android":"levelo://app?vid=6df7c588-41fb-48d5-b5b1-a0da74a9118b","ios":"levelo://app?vid=6df7c588-41fb-48d5-b5b1-a0da74a9118b"},"vehicle_type_id":"4","last_reported":1727443035,"current_range_meters":17600,"station_id":"cpo3532slgdg3j2ikp40","pricing_plan_id":"cebpf4jnsgd1na2vs0mg"},{"bike_id":"f2a3b0f8-f2e1-4510-a218-446c96425f66","system_id":"levelo_inurba_marseille","lat":43.34145,"lon":5.409,"is_reserved":false,"is_disabled":false,"rental_uris":{"android":"levelo://app?vid=f2a3b0f8-f2e1-4510-a218-446c96425f66","ios":"levelo://app?vid=f2a3b0f8-f2e1-4510-a218-446c96425f66"},"vehicle_type_id":"4","last_reported":1727443035,"current_range_meters":38800,"station_id":"ce4bhqh2rcd13ifvqhlg","pricing_plan_id":"cebpf4jnsgd1na2vs0mg"},{"bike_id":"4b43806d-b40b-4609-b625-3b2deba7dd44","system_id":"levelo_inurba_marseille","lat":43.3171,"lon":5.37747,"is_reserved":false,"is_disabled":false,"rental_uris":{"android":"levelo://app?vid=4b43806d-b40b-4609-b625-3b2deba7dd44","ios":"levelo://app?vid=4b43806d-b40b-4609-b625-3b2deba7dd44"},"vehicle_type_id":"4","last_reported":1727443035,"current_range_meters":29600,"station_id":"ce4bgth2rcd13ifvqch0","pricing_plan_id":"cebpf4jnsgd1na2vs0mg"},{"bike_id":"3897f6a4-8ba2-4218-8e76-a8f95526e842","system_id":"levelo_inurba_marseille","lat":43.29578,"lon":5.37498,"is_reserved":false,"is_disabled":false,"rental_uris":{"android":"levelo://app?vid=3897f6a4-8ba2-4218-8e76-a8f95526e842","ios":"levelo://app?vid=3897f6a4-8ba2-4218-8e76-a8f95526e842"},"vehicle_type_id":"4","last_reported":1727443035,"current_range_meters":10000,"station_id":"ce4bgh92rcd13ifvqb50","pricing_plan_id":"cebpf4jnsgd1na2vs0mg"},{"bike_id":"6cd542f9-56c0-4475-994d-4348499fd5cb","system_id":"levelo_inurba_marseille","lat":43.32342,"lon":5.4062,"is_reserved":false,"is_disabled":false,"rental_uris":{"android":"levelo://app?vid=6cd542f9-56c0-4475-994d-4348499fd5cb","ios":"levelo://app?vid=6cd542f9-56c0-4475-994d-4348499fd5cb"},"vehicle_type_id":"4","last_reported":1727443035,"current_range_meters":18800,"station_id":"ce4bhq92rcd13ifvqhjg","pricing_plan_id":"cebpf4jnsgd1na2vs0mg"},{"bike_id":"5af74970-d2f2-4f44-8a27-63997a8565b7","system_id":"levelo_inurba_marseille","lat":43.31225,"lon":5.36834,"is_reserved":false,"is_disabled":false,"rental_uris":{"android":"levelo://app?vid=5af74970-d2f2-4f44-8a27-63997a8565b7","ios":"levelo://app?vid=5af74970-d2f2-4f44-8a27-63997a8565b7"},"vehicle_type_id":"4","last_reported":1727443035,"current_range_meters":38800,"station_id":"ce4bgl92rcd13ifvqbq0","pricing_plan_id":"cebpf4jnsgd1na2vs0mg"},{"bike_id":"a68583db-728b-41f1-b646-f506599edaf4","system_id":"levelo_inurba_marseille","lat":43.33764,"lon":5.37433,"is_reserved":false,"is_disabled":false,"rental_uris":{"android":"levelo://app?vid=a68583db-728b-41f1-b646-f506599edaf4","ios":"levelo://app?vid=a68583db-728b-41f1-b646-f506599edaf4"},"vehicle_type_id":"4","last_reported":1727443035,"current_range_meters":37600,"station_id":"","pricing_plan_id":"cebpf4jnsgd1na2vs0mg"},{"bike_id":"93f4762d-16d3-4705-bb4d-72b4f1e6d957","system_id":"levelo_inurba_marseille","lat":43.29839,"lon":5.36266,"is_reserved":false,"is_disabled":false,"rental_uris":{"android":"levelo://app?vid=93f4762d-16d3-4705-bb4d-72b4f1e6d957","ios":"levelo://app?vid=93f4762d-16d3-4705-bb4d-72b4f1e6d957"},"vehicle_type_id":"4","last_reported":1727443035,"current_range_meters":36400,"station_id":"ce4bgpp2rcd13ifvqc3g","pricing_plan_id":"cebpf4jnsgd1na2vs0mg"},{"bike_id":"6a9355f2-38b9-422d-b039-274980423364","system_id":"levelo_inurba_marseille","lat":43.29023,"lon":5.37562,"is_reserved":false,"is_disabled":false,"rental_uris":{"android":"levelo://app?vid=6a9355f2-38b9-422d-b039-274980423364","ios":"levelo://app?vid=6a9355f2-38b9-422d-b039-274980423364"},"vehicle_type_id":"4","last_reported":1727443035,"current_range_meters":17200,"station_id":"ce4bh692rcd13ifvqe90","pricing_plan_id":"cebpf4jnsgd1na2vs0mg"},{"bike_id":"2f35e9db-80b8-4a89-8eeb-939ca0b04903","system_id":"levelo_inurba_marseille","lat":43.29568,"lon":5.37533,"is_reserved":false,"is_disabled":false,"rental_uris":{"android":"levelo://app?vid=2f35e9db-80b8-4a89-8eeb-939ca0b04903","ios":"levelo://app?vid=2f35e9db-80b8-4a89-8eeb-939ca0b04903"},"vehicle_type_id":"4","last_reported":1727443035,"current_range_meters":38000,"station_id":"ce4bgh92rcd13ifvqb50","pricing_plan_id":"cebpf4jnsgd1na2vs0mg"},{"bike_id":"65499233-c00e-4270-b366-95cce0063833","system_id":"levelo_inurba_marseille","lat":43.2894,"lon":5.39617,"is_reserved":false,"is_disabled":false,"rental_uris":{"android":"levelo://app?vid=65499233-c00e-4270-b366-95cce0063833","ios":"levelo://app?vid=65499233-c00e-4270-b366-95cce0063833"},"vehicle_type_id":"4","last_reported":1727443035,"current_range_meters":28800,"station_id":"ce4bh3h2rcd13ifvqdn0","pricing_plan_id":"cebpf4jnsgd1na2vs0mg"},{"bike_id":"6311615c-c08c-4b14-acd6-5627261e50a6","system_id":"levelo_inurba_marseille","lat":43.27494,"lon":5.4245,"is_reserved":false,"is_disabled":false,"rental_uris":{"android":"levelo://app?vid=6311615c-c08c-4b14-acd6-5627261e50a6","ios":"levelo://app?vid=6311615c-c08c-4b14-acd6-5627261e50a6"},"vehicle_type_id":"4","last_reported":1727443035,"current_range_meters":37600,"station_id":"ce4bhn92rcd13ifvqgrg","pricing_plan_id":"cebpf4jnsgd1na2vs0mg"},{"bike_id":"3ff7b5da-81a1-4726-a95f-61de5d13a159","system_id":"levelo_inurba_marseille","lat":43.26029,"lon":5.37543,"is_reserved":false,"is_disabled":false,"rental_uris":{"android":"levelo://app?vid=3ff7b5da-81a1-4726-a95f-61de5d13a159","ios":"levelo://app?vid=3ff7b5da-81a1-4726-a95f-61de5d13a159"},"vehicle_type_id":"4","last_reported":1727443035,"current_range_meters":18800,"station_id":"ce4bhgh2rcd13ifvqfa0","pricing_plan_id":"cebpf4jnsgd1na2vs0mg"},{"bike_id":"46b12b4f-8711-47fa-ad52-ef7033706d18","system_id":"levelo_inurba_marseille","lat":43.30607,"lon":5.37236,"is_reserved":false,"is_disabled":false,"rental_uris":{"android":"levelo://app?vid=46b12b4f-8711-47fa-ad52-ef7033706d18","ios":"levelo://app?vid=46b12b4f-8711-47fa-ad52-ef7033706d18"},"vehicle_type_id":"4","last_reported":1727443035,"current_range_meters":8400,"station_id":"ce4bgqh2rcd13ifvqc4g","pricing_plan_id":"cebpf4jnsgd1na2vs0mg"},{"bike_id":"eaff5abd-d4ea-46e6-86b8-478167451cb7","system_id":"levelo_inurba_marseille","lat":43.33739,"lon":5.37468,"is_reserved":false,"is_disabled":false,"rental_uris":{"android":"levelo://app?vid=eaff5abd-d4ea-46e6-86b8-478167451cb7","ios":"levelo://app?vid=eaff5abd-d4ea-46e6-86b8-478167451cb7"},"vehicle_type_id":"4","last_reported":1727443035,"current_range_meters":29600,"station_id":"","pricing_plan_id":"cebpf4jnsgd1na2vs0mg"},{"bike_id":"621d5546-c6cd-49d4-8298-d7ed985bc401","system_id":"levelo_inurba_marseille","lat":43.29851,"lon":5.36271,"is_reserved":false,"is_disabled":false,"rental_uris":{"android":"levelo://app?vid=621d5546-c6cd-49d4-8298-d7ed985bc401","ios":"levelo://app?vid=621d5546-c6cd-49d4-8298-d7ed985bc401"},"vehicle_type_id":"4","last_reported":1727443035,"current_range_meters":38800,"station_id":"ce4bgpp2rcd13ifvqc3g","pricing_plan_id":"cebpf4jnsgd1na2vs0mg"},{"bike_id":"7fd590a1-bbb2-4edd-8c0c-ea886eb47164","system_id":"levelo_inurba_marseille","lat":43.26934,"lon":5.40249,"is_reserved":false,"is_disabled":false,"rental_uris":{"android":"levelo://app?vid=7fd590a1-bbb2-4edd-8c0c-ea886eb47164","ios":"levelo://app?vid=7fd590a1-bbb2-4edd-8c0c-ea886eb47164"},"vehicle_type_id":"4","last_reported":1727443035,"current_range_meters":36400,"station_id":"cjm6bp8fraef2m0cb0m0","pricing_plan_id":"cebpf4jnsgd1na2vs0mg"},{"bike_id":"1a30fcfc-5156-4630-ba01-665d71c06a0f","system_id":"levelo_inurba_marseille","lat":43.311715,"lon":5.387147,"is_reserved":false,"is_disabled":false,"rental_uris":{"android":"levelo://app?vid=1a30fcfc-5156-4630-ba01-665d71c06a0f","ios":"levelo://app?vid=1a30fcfc-5156-4630-ba01-665d71c06a0f"},"vehicle_type_id":"4","last_reported":1727443035,"current_range_meters":26000,"station_id":"ce4bgv12rcd13ifvqcp0","pricing_plan_id":"cebpf4jnsgd1na2vs0mg"},{"bike_id":"3da20f3b-5f3c-4409-bfe0-23fb7dbdb41f","system_id":"levelo_inurba_marseille","lat":43.29218,"lon":5.36041,"is_reserved":false,"is_disabled":false,"rental_uris":{"android":"levelo://app?vid=3da20f3b-5f3c-4409-bfe0-23fb7dbdb41f","ios":"levelo://app?vid=3da20f3b-5f3c-4409-bfe0-23fb7dbdb41f"},"vehicle_type_id":"4","last_reported":1727443035,"current_range_meters":38800,"station_id":"ce4bhbh2rcd13ifvqeqg","pricing_plan_id":"cebpf4jnsgd1na2vs0mg"},{"bike_id":"e106f456-7434-4ba1-961c-63fdbe09f3f6","system_id":"levelo_inurba_marseille","lat":43.28927,"lon":5.38389,"is_reserved":false,"is_disabled":false,"rental_uris":{"android":"levelo://app?vid=e106f456-7434-4ba1-961c-63fdbe09f3f6","ios":"levelo://app?vid=e106f456-7434-4ba1-961c-63fdbe09f3f6"},"vehicle_type_id":"4","last_reported":1727443035,"current_range_meters":33600,"station_id":"ce4bh612rcd13ifvqe6g","pricing_plan_id":"cebpf4jnsgd1na2vs0mg"},{"bike_id":"d8697a4f-62ba-494e-84da-9d8b15dcfbbf","system_id":"levelo_inurba_marseille","lat":43.2481,"lon":5.37457,"is_reserved":false,"is_disabled":false,"rental_uris":{"android":"levelo://app?vid=d8697a4f-62ba-494e-84da-9d8b15dcfbbf","ios":"levelo://app?vid=d8697a4f-62ba-494e-84da-9d8b15dcfbbf"},"vehicle_type_id":"4","last_reported":1727443035,"current_range_meters":21600,"station_id":"ce4bhgh2rcd13ifvqfb0","pricing_plan_id":"cebpf4jnsgd1na2vs0mg"},{"bike_id":"df195df3-bbc0-458a-ae13-a6cf7968c4b0","system_id":"levelo_inurba_marseille","lat":43.23959,"lon":5.36613,"is_reserved":false,"is_disabled":false,"rental_uris":{"android":"levelo://app?vid=df195df3-bbc0-458a-ae13-a6cf7968c4b0","ios":"levelo://app?vid=df195df3-bbc0-458a-ae13-a6cf7968c4b0"},"vehicle_type_id":"4","last_reported":1727443035,"current_range_meters":3200,"station_id":"ce4bhi12rcd13ifvqfp0","pricing_plan_id":"cebpf4jnsgd1na2vs0mg"},{"bike_id":"0ce8a7e2-5d9b-47cf-ab83-9db6a32288e7","system_id":"levelo_inurba_marseille","lat":43.288593,"lon":5.358443,"is_reserved":false,"is_disabled":false,"rental_uris":{"android":"levelo://app?vid=0ce8a7e2-5d9b-47cf-ab83-9db6a32288e7","ios":"levelo://app?vid=0ce8a7e2-5d9b-47cf-ab83-9db6a32288e7"},"vehicle_type_id":"4","last_reported":1727443035,"current_range_meters":6800,"station_id":"ce4bhb12rcd13ifvqem0","pricing_plan_id":"cebpf4jnsgd1na2vs0mg"},{"bike_id":"41a2ca65-2a9f-4030-ac5f-14825ec5006a","system_id":"levelo_inurba_marseille","lat":43.33745,"lon":5.37438,"is_reserved":false,"is_disabled":false,"rental_uris":{"android":"levelo://app?vid=41a2ca65-2a9f-4030-ac5f-14825ec5006a","ios":"levelo://app?vid=41a2ca65-2a9f-4030-ac5f-14825ec5006a"},"vehicle_type_id":"4","last_reported":1727443035,"current_range_meters":36000,"station_id":"","pricing_plan_id":"cebpf4jnsgd1na2vs0mg"},{"bike_id":"36b937e4-602f-4291-beb0-30f79723fb4b","system_id":"levelo_inurba_marseille","lat":43.29843,"lon":5.36263,"is_reserved":false,"is_disabled":false,"rental_uris":{"android":"levelo://app?vid=36b937e4-602f-4291-beb0-30f79723fb4b","ios":"levelo://app?vid=36b937e4-602f-4291-beb0-30f79723fb4b"},"vehicle_type_id":"4","last_reported":1727443035,"current_range_meters":28400,"station_id":"ce4bgpp2rcd13ifvqc3g","pricing_plan_id":"cebpf4jnsgd1na2vs0mg"},{"bike_id":"f9570cc3-303d-4bfa-b5f6-ca333f07efdd","system_id":"levelo_inurba_marseille","lat":43.30466,"lon":5.37901,"is_reserved":false,"is_disabled":false,"rental_uris":{"android":"levelo://app?vid=f9570cc3-303d-4bfa-b5f6-ca333f07efdd","ios":"levelo://app?vid=f9570cc3-303d-4bfa-b5f6-ca333f07efdd"},"vehicle_type_id":"4","last_reported":1727443035,"current_range_meters":24800,"station_id":"ce4bgup2rcd13ifvqcn0","pricing_plan_id":"cebpf4jnsgd1na2vs0mg"},{"bike_id":"2918430f-4f2f-44d1-9575-5a5d491b2577","system_id":"levelo_inurba_marseille","lat":43.30182,"lon":5.36615,"is_reserved":false,"is_disabled":false,"rental_uris":{"android":"levelo://app?vid=2918430f-4f2f-44d1-9575-5a5d491b2577","ios":"levelo://app?vid=2918430f-4f2f-44d1-9575-5a5d491b2577"},"vehicle_type_id":"4","last_reported":1727443035,"current_range_meters":29600,"station_id":"ce4bgrh2rcd13ifvqc8g","pricing_plan_id":"cebpf4jnsgd1na2vs0mg"},{"bike_id":"f7e64263-dd57-495d-a020-06244cd5c3d5","system_id":"levelo_inurba_marseille","lat":43.33767,"lon":5.37434,"is_reserved":false,"is_disabled":false,"rental_uris":{"android":"levelo://app?vid=f7e64263-dd57-495d-a020-06244cd5c3d5","ios":"levelo://app?vid=f7e64263-dd57-495d-a020-06244cd5c3d5"},"vehicle_type_id":"4","last_reported":1727443035,"current_range_meters":3200,"station_id":"","pricing_plan_id":"cebpf4jnsgd1na2vs0mg"},{"bike_id":"925f3523-b108-4561-b8d7-2b6b151a3a09","system_id":"levelo_inurba_marseille","lat":43.31723,"lon":5.42393,"is_reserved":false,"is_disabled":false,"rental_uris":{"android":"levelo://app?vid=925f3523-b108-4561-b8d7-2b6b151a3a09","ios":"levelo://app?vid=925f3523-b108-4561-b8d7-2b6b151a3a09"},"vehicle_type_id":"4","last_reported":1727443035,"current_range_meters":32400,"station_id":"ce4bhp92rcd13ifvqhbg","pricing_plan_id":"cebpf4jnsgd1na2vs0mg"},{"bike_id":"0d9aed77-912d-4f14-a73f-114f5ba276d4","system_id":"levelo_inurba_marseille","lat":43.29269,"lon":5.36847,"is_reserved":false,"is_disabled":false,"rental_uris":{"android":"levelo://app?vid=0d9aed77-912d-4f14-a73f-114f5ba276d4","ios":"levelo://app?vid=0d9aed77-912d-4f14-a73f-114f5ba276d4"},"vehicle_type_id":"4","last_reported":1727443035,"current_range_meters":12400,"station_id":"ce4bhbp2rcd13ifvqesg","pricing_plan_id":"cebpf4jnsgd1na2vs0mg"},{"bike_id":"ee1d827b-b072-4d5f-b92e-9bafc45e801d","system_id":"levelo_inurba_marseille","lat":43.26198,"lon":5.37932,"is_reserved":false,"is_disabled":false,"rental_uris":{"android":"levelo://app?vid=ee1d827b-b072-4d5f-b92e-9bafc45e801d","ios":"levelo://app?vid=ee1d827b-b072-4d5f-b92e-9bafc45e801d"},"vehicle_type_id":"4","last_reported":1727443035,"current_range_meters":28000,"station_id":"ce4bhjp2rcd13ifvqg90","pricing_plan_id":"cebpf4jnsgd1na2vs0mg"},{"bike_id":"15612b5e-8e68-4b46-9ed7-d0a9808cbb7a","system_id":"levelo_inurba_marseille","lat":43.30596,"lon":5.37212,"is_reserved":false,"is_disabled":false,"rental_uris":{"android":"levelo://app?vid=15612b5e-8e68-4b46-9ed7-d0a9808cbb7a","ios":"levelo://app?vid=15612b5e-8e68-4b46-9ed7-d0a9808cbb7a"},"vehicle_type_id":"4","last_reported":1727443035,"current_range_meters":16800,"station_id":"ce4bgqh2rcd13ifvqc4g","pricing_plan_id":"cebpf4jnsgd1na2vs0mg"},{"bike_id":"26b2cf2c-8d5e-4d1d-9655-831734db125a","system_id":"levelo_inurba_marseille","lat":43.299,"lon":5.38891,"is_reserved":false,"is_disabled":false,"rental_uris":{"android":"levelo://app?vid=26b2cf2c-8d5e-4d1d-9655-831734db125a","ios":"levelo://app?vid=26b2cf2c-8d5e-4d1d-9655-831734db125a"},"vehicle_type_id":"4","last_reported":1727443035,"current_range_meters":26800,"station_id":"ce4bh392rcd13ifvqdl0","pricing_plan_id":"cebpf4jnsgd1na2vs0mg"},{"bike_id":"98bc40f3-d581-4aea-99ff-5523d2b955e3","system_id":"levelo_inurba_marseille","lat":43.29785,"lon":5.37097,"is_reserved":false,"is_disabled":false,"rental_uris":{"android":"levelo://app?vid=98bc40f3-d581-4aea-99ff-5523d2b955e3","ios":"levelo://app?vid=98bc40f3-d581-4aea-99ff-5523d2b955e3"},"vehicle_type_id":"4","last_reported":1727443035,"current_range_meters":38800,"station_id":"ce4bgop2rcd13ifvqc1g","pricing_plan_id":"cebpf4jnsgd1na2vs0mg"},{"bike_id":"1f9bbb50-4c3b-4acb-8544-edd9daae0b4d","system_id":"levelo_inurba_marseille","lat":43.27956,"lon":5.38703,"is_reserved":false,"is_disabled":false,"rental_uris":{"android":"levelo://app?vid=1f9bbb50-4c3b-4acb-8544-edd9daae0b4d","ios":"levelo://app?vid=1f9bbb50-4c3b-4acb-8544-edd9daae0b4d"},"vehicle_type_id":"4","last_reported":1727443035,"current_range_meters":10800,"station_id":"ce4bhg12rcd13ifvqf80","pricing_plan_id":"cebpf4jnsgd1na2vs0mg"},{"bike_id":"849334b1-689f-45db-9799-bdbe0d954dc3","system_id":"levelo_inurba_marseille","lat":43.26028,"lon":5.37552,"is_reserved":false,"is_disabled":false,"rental_uris":{"android":"levelo://app?vid=849334b1-689f-45db-9799-bdbe0d954dc3","ios":"levelo://app?vid=849334b1-689f-45db-9799-bdbe0d954dc3"},"vehicle_type_id":"4","last_reported":1727443035,"current_range_meters":25200,"station_id":"ce4bhgh2rcd13ifvqfa0","pricing_plan_id":"cebpf4jnsgd1na2vs0mg"},{"bike_id":"5e20d158-bea3-40bd-8897-92a540cd5ccc","system_id":"levelo_inurba_marseille","lat":43.23195,"lon":5.35546,"is_reserved":false,"is_disabled":false,"rental_uris":{"android":"levelo://app?vid=5e20d158-bea3-40bd-8897-92a540cd5ccc","ios":"levelo://app?vid=5e20d158-bea3-40bd-8897-92a540cd5ccc"},"vehicle_type_id":"4","last_reported":1727443035,"current_range_meters":28400,"station_id":"ce4bhu92rcd13ifvqi70","pricing_plan_id":"cebpf4jnsgd1na2vs0mg"},{"bike_id":"40f876c2-0ea1-4fd6-9a43-261de586a225","system_id":"levelo_inurba_marseille","lat":43.29622,"lon":5.37147,"is_reserved":false,"is_disabled":false,"rental_uris":{"android":"levelo://app?vid=40f876c2-0ea1-4fd6-9a43-261de586a225","ios":"levelo://app?vid=40f876c2-0ea1-4fd6-9a43-261de586a225"},"vehicle_type_id":"4","last_reported":1727443035,"current_range_meters":27200,"station_id":"ce4bgnh2rcd13ifvqc0g","pricing_plan_id":"cebpf4jnsgd1na2vs0mg"},{"bike_id":"876795c9-33aa-483c-8f51-b169a2943a96","system_id":"levelo_inurba_marseille","lat":43.29582,"lon":5.37505,"is_reserved":false,"is_disabled":false,"rental_uris":{"android":"levelo://app?vid=876795c9-33aa-483c-8f51-b169a2943a96","ios":"levelo://app?vid=876795c9-33aa-483c-8f51-b169a2943a96"},"vehicle_type_id":"4","last_reported":1727443035,"current_range_meters":18800,"station_id":"ce4bgh92rcd13ifvqb50","pricing_plan_id":"cebpf4jnsgd1na2vs0mg"},{"bike_id":"c1d5455c-6d28-42fc-8ce6-c78478847f09","system_id":"levelo_inurba_marseille","lat":43.2885,"lon":5.35853,"is_reserved":false,"is_disabled":false,"rental_uris":{"android":"levelo://app?vid=c1d5455c-6d28-42fc-8ce6-c78478847f09","ios":"levelo://app?vid=c1d5455c-6d28-42fc-8ce6-c78478847f09"},"vehicle_type_id":"4","last_reported":1727443035,"current_range_meters":27600,"station_id":"ce4bhb12rcd13ifvqem0","pricing_plan_id":"cebpf4jnsgd1na2vs0mg"},{"bike_id":"4749f597-e42c-4da5-b3d8-6fbe925d9e8c","system_id":"levelo_inurba_marseille","lat":43.31998,"lon":5.38155,"is_reserved":false,"is_disabled":false,"rental_uris":{"android":"levelo://app?vid=4749f597-e42c-4da5-b3d8-6fbe925d9e8c","ios":"levelo://app?vid=4749f597-e42c-4da5-b3d8-6fbe925d9e8c"},"vehicle_type_id":"4","last_reported":1727443035,"current_range_meters":38800,"station_id":"ce4bhr12rcd13ifvqhpg","pricing_plan_id":"cebpf4jnsgd1na2vs0mg"},{"bike_id":"f0270deb-b5d1-4a07-b961-e0b11598f39e","system_id":"levelo_inurba_marseille","lat":43.29542,"lon":5.37506,"is_reserved":false,"is_disabled":false,"rental_uris":{"android":"levelo://app?vid=f0270deb-b5d1-4a07-b961-e0b11598f39e","ios":"levelo://app?vid=f0270deb-b5d1-4a07-b961-e0b11598f39e"},"vehicle_type_id":"4","last_reported":1727443035,"current_range_meters":20800,"station_id":"ce4bgkp2rcd13ifvqbmg","pricing_plan_id":"cebpf4jnsgd1na2vs0mg"},{"bike_id":"80bc5efd-0d32-41b4-98ca-043c2aa9af3e","system_id":"levelo_inurba_marseille","lat":43.32106,"lon":5.36768,"is_reserved":false,"is_disabled":false,"rental_uris":{"android":"levelo://app?vid=80bc5efd-0d32-41b4-98ca-043c2aa9af3e","ios":"levelo://app?vid=80bc5efd-0d32-41b4-98ca-043c2aa9af3e"},"vehicle_type_id":"4","last_reported":1727443035,"current_range_meters":24800,"station_id":"ce4bhrh2rcd13ifvqhug","pricing_plan_id":"cebpf4jnsgd1na2vs0mg"},{"bike_id":"a7ccaf69-9953-49f8-bbe9-d5b06eb1f966","system_id":"levelo_inurba_marseille","lat":43.30784,"lon":5.37651,"is_reserved":false,"is_disabled":false,"rental_uris":{"android":"levelo://app?vid=a7ccaf69-9953-49f8-bbe9-d5b06eb1f966","ios":"levelo://app?vid=a7ccaf69-9953-49f8-bbe9-d5b06eb1f966"},"vehicle_type_id":"4","last_reported":1727443035,"current_range_meters":22400,"station_id":"","pricing_plan_id":"cebpf4jnsgd1na2vs0mg"},{"bike_id":"8b306f2d-4e3c-4ad6-b5c6-c38955a25e00","system_id":"levelo_inurba_marseille","lat":43.26557,"lon":5.37283,"is_reserved":false,"is_disabled":false,"rental_uris":{"android":"levelo://app?vid=8b306f2d-4e3c-4ad6-b5c6-c38955a25e00","ios":"levelo://app?vid=8b306f2d-4e3c-4ad6-b5c6-c38955a25e00"},"vehicle_type_id":"4","last_reported":1727443035,"current_range_meters":12000,"station_id":"ce4bhg12rcd13ifvqf70","pricing_plan_id":"cebpf4jnsgd1na2vs0mg"},{"bike_id":"0ff38679-ea37-447e-a818-3fe4e9db7d83","system_id":"levelo_inurba_marseille","lat":43.31864,"lon":5.42892,"is_reserved":false,"is_disabled":false,"rental_uris":{"android":"levelo://app?vid=0ff38679-ea37-447e-a818-3fe4e9db7d83","ios":"levelo://app?vid=0ff38679-ea37-447e-a818-3fe4e9db7d83"},"vehicle_type_id":"4","last_reported":1727443035,"current_range_meters":19600,"station_id":"ce4bhp92rcd13ifvqhcg","pricing_plan_id":"cebpf4jnsgd1na2vs0mg"},{"bike_id":"202d0f96-9b89-45a2-b019-3507273a30d5","system_id":"levelo_inurba_marseille","lat":43.23193,"lon":5.39981,"is_reserved":false,"is_disabled":false,"rental_uris":{"android":"levelo://app?vid=202d0f96-9b89-45a2-b019-3507273a30d5","ios":"levelo://app?vid=202d0f96-9b89-45a2-b019-3507273a30d5"},"vehicle_type_id":"4","last_reported":1727443035,"current_range_meters":6400,"station_id":"ce4bhn12rcd13ifvqgqg","pricing_plan_id":"cebpf4jnsgd1na2vs0mg"},{"bike_id":"04ae3121-02c5-4001-bc92-81871e5c37a5","system_id":"levelo_inurba_marseille","lat":43.23971,"lon":5.3662,"is_reserved":false,"is_disabled":false,"rental_uris":{"android":"levelo://app?vid=04ae3121-02c5-4001-bc92-81871e5c37a5","ios":"levelo://app?vid=04ae3121-02c5-4001-bc92-81871e5c37a5"},"vehicle_type_id":"4","last_reported":1727443035,"current_range_meters":26000,"station_id":"ce4bhi12rcd13ifvqfp0","pricing_plan_id":"cebpf4jnsgd1na2vs0mg"},{"bike_id":"1926ecb3-351f-45fd-af40-afbf66771ed1","system_id":"levelo_inurba_marseille","lat":43.28857,"lon":5.3584,"is_reserved":false,"is_disabled":false,"rental_uris":{"android":"levelo://app?vid=1926ecb3-351f-45fd-af40-afbf66771ed1","ios":"levelo://app?vid=1926ecb3-351f-45fd-af40-afbf66771ed1"},"vehicle_type_id":"4","last_reported":1727443035,"current_range_meters":33600,"station_id":"ce4bhb12rcd13ifvqem0","pricing_plan_id":"cebpf4jnsgd1na2vs0mg"},{"bike_id":"74a91e12-c903-45cc-9391-c9e93e5f12f8","system_id":"levelo_inurba_marseille","lat":43.23158,"lon":5.43696,"is_reserved":false,"is_disabled":false,"rental_uris":{"android":"levelo://app?vid=74a91e12-c903-45cc-9391-c9e93e5f12f8","ios":"levelo://app?vid=74a91e12-c903-45cc-9391-c9e93e5f12f8"},"vehicle_type_id":"4","last_reported":1727443035,"current_range_meters":6400,"station_id":"ce4bhmp2rcd13ifvqgog","pricing_plan_id":"cebpf4jnsgd1na2vs0mg"},{"bike_id":"155ec94d-0af9-4ad2-a93e-f2462b673f95","system_id":"levelo_inurba_marseille","lat":43.30289,"lon":5.37702,"is_reserved":false,"is_disabled":false,"rental_uris":{"android":"levelo://app?vid=155ec94d-0af9-4ad2-a93e-f2462b673f95","ios":"levelo://app?vid=155ec94d-0af9-4ad2-a93e-f2462b673f95"},"vehicle_type_id":"4","last_reported":1727443035,"current_range_meters":37600,"station_id":"ce4bguh2rcd13ifvqcj0","pricing_plan_id":"cebpf4jnsgd1na2vs0mg"},{"bike_id":"1c0682ca-c79f-4741-bdeb-9c082aad96c9","system_id":"levelo_inurba_marseille","lat":43.30357,"lon":5.41872,"is_reserved":false,"is_disabled":false,"rental_uris":{"android":"levelo://app?vid=1c0682ca-c79f-4741-bdeb-9c082aad96c9","ios":"levelo://app?vid=1c0682ca-c79f-4741-bdeb-9c082aad96c9"},"vehicle_type_id":"4","last_reported":1727443035,"current_range_meters":3600,"station_id":"ce4bhop2rcd13ifvqh7g","pricing_plan_id":"cebpf4jnsgd1na2vs0mg"},{"bike_id":"4471bd2f-6bfb-494f-aca8-e2a9290f5861","system_id":"levelo_inurba_marseille","lat":43.295194,"lon":5.394096,"is_reserved":false,"is_disabled":false,"rental_uris":{"android":"levelo://app?vid=4471bd2f-6bfb-494f-aca8-e2a9290f5861","ios":"levelo://app?vid=4471bd2f-6bfb-494f-aca8-e2a9290f5861"},"vehicle_type_id":"4","last_reported":1727443035,"current_range_meters":34000,"station_id":"ce4bh292rcd13ifvqdf0","pricing_plan_id":"cebpf4jnsgd1na2vs0mg"},{"bike_id":"e608134c-c6d5-4bf1-8dc4-f05593e59219","system_id":"levelo_inurba_marseille","lat":43.30595,"lon":5.37209,"is_reserved":false,"is_disabled":false,"rental_uris":{"android":"levelo://app?vid=e608134c-c6d5-4bf1-8dc4-f05593e59219","ios":"levelo://app?vid=e608134c-c6d5-4bf1-8dc4-f05593e59219"},"vehicle_type_id":"4","last_reported":1727443035,"current_range_meters":31200,"station_id":"ce4bgqh2rcd13ifvqc4g","pricing_plan_id":"cebpf4jnsgd1na2vs0mg"},{"bike_id":"080829d2-2bc7-4e97-a3bd-49b7d747d19a","system_id":"levelo_inurba_marseille","lat":43.29194,"lon":5.35799,"is_reserved":false,"is_disabled":false,"rental_uris":{"android":"levelo://app?vid=080829d2-2bc7-4e97-a3bd-49b7d747d19a","ios":"levelo://app?vid=080829d2-2bc7-4e97-a3bd-49b7d747d19a"},"vehicle_type_id":"4","last_reported":1727443035,"current_range_meters":16400,"station_id":"ce4bhb12rcd13ifvqel0","pricing_plan_id":"cebpf4jnsgd1na2vs0mg"},{"bike_id":"15571659-d5da-488d-b3be-bf88d03e8628","system_id":"levelo_inurba_marseille","lat":43.33754,"lon":5.37449,"is_reserved":false,"is_disabled":false,"rental_uris":{"android":"levelo://app?vid=15571659-d5da-488d-b3be-bf88d03e8628","ios":"levelo://app?vid=15571659-d5da-488d-b3be-bf88d03e8628"},"vehicle_type_id":"4","last_reported":1727443035,"current_range_meters":25200,"station_id":"","pricing_plan_id":"cebpf4jnsgd1na2vs0mg"},{"bike_id":"b3917098-5f32-41a4-869e-b4aacfb73554","system_id":"levelo_inurba_marseille","lat":43.30147,"lon":5.38087,"is_reserved":false,"is_disabled":false,"rental_uris":{"android":"levelo://app?vid=b3917098-5f32-41a4-869e-b4aacfb73554","ios":"levelo://app?vid=b3917098-5f32-41a4-869e-b4aacfb73554"},"vehicle_type_id":"4","last_reported":1727443035,"current_range_meters":24400,"station_id":"ce4bgjp2rcd13ifvqbh0","pricing_plan_id":"cebpf4jnsgd1na2vs0mg"},{"bike_id":"394a4b8b-dc0b-4550-829e-04a63f1c07be","system_id":"levelo_inurba_marseille","lat":43.29871,"lon":5.39734,"is_reserved":false,"is_disabled":false,"rental_uris":{"android":"levelo://app?vid=394a4b8b-dc0b-4550-829e-04a63f1c07be","ios":"levelo://app?vid=394a4b8b-dc0b-4550-829e-04a63f1c07be"},"vehicle_type_id":"4","last_reported":1727443035,"current_range_meters":27600,"station_id":"ce4bh0h2rcd13ifvqd50","pricing_plan_id":"cebpf4jnsgd1na2vs0mg"},{"bike_id":"2a0d1acf-c3be-4bf9-823a-101e9d83e939","system_id":"levelo_inurba_marseille","lat":43.22927,"lon":5.35378,"is_reserved":false,"is_disabled":false,"rental_uris":{"android":"levelo://app?vid=2a0d1acf-c3be-4bf9-823a-101e9d83e939","ios":"levelo://app?vid=2a0d1acf-c3be-4bf9-823a-101e9d83e939"},"vehicle_type_id":"4","last_reported":1727443035,"current_range_meters":10000,"station_id":"cpo3532slgdg3j2ikp40","pricing_plan_id":"cebpf4jnsgd1na2vs0mg"},{"bike_id":"e53cc0a6-6472-4dab-bfaf-0a56c5048c9e","system_id":"levelo_inurba_marseille","lat":43.27495,"lon":5.42453,"is_reserved":false,"is_disabled":false,"rental_uris":{"android":"levelo://app?vid=e53cc0a6-6472-4dab-bfaf-0a56c5048c9e","ios":"levelo://app?vid=e53cc0a6-6472-4dab-bfaf-0a56c5048c9e"},"vehicle_type_id":"4","last_reported":1727443035,"current_range_meters":15200,"station_id":"ce4bhn92rcd13ifvqgrg","pricing_plan_id":"cebpf4jnsgd1na2vs0mg"},{"bike_id":"3cbd69eb-ed19-4613-b704-5da33f1f683f","system_id":"levelo_inurba_marseille","lat":43.30237,"lon":5.40063,"is_reserved":false,"is_disabled":false,"rental_uris":{"android":"levelo://app?vid=3cbd69eb-ed19-4613-b704-5da33f1f683f","ios":"levelo://app?vid=3cbd69eb-ed19-4613-b704-5da33f1f683f"},"vehicle_type_id":"4","last_reported":1727443035,"current_range_meters":20400,"station_id":"ce4bgvh2rcd13ifvqcs0","pricing_plan_id":"cebpf4jnsgd1na2vs0mg"},{"bike_id":"6d35ed40-29b8-46ed-a969-0aa75850e1f2","system_id":"levelo_inurba_marseille","lat":43.30935,"lon":5.40145,"is_reserved":false,"is_disabled":false,"rental_uris":{"android":"levelo://app?vid=6d35ed40-29b8-46ed-a969-0aa75850e1f2","ios":"levelo://app?vid=6d35ed40-29b8-46ed-a969-0aa75850e1f2"},"vehicle_type_id":"4","last_reported":1727443035,"current_range_meters":24000,"station_id":"ce4bgvp2rcd13ifvqct0","pricing_plan_id":"cebpf4jnsgd1na2vs0mg"},{"bike_id":"d91fe40d-e5f8-4b5c-a1c0-d151dfc4039a","system_id":"levelo_inurba_marseille","lat":43.23153,"lon":5.43702,"is_reserved":false,"is_disabled":false,"rental_uris":{"android":"levelo://app?vid=d91fe40d-e5f8-4b5c-a1c0-d151dfc4039a","ios":"levelo://app?vid=d91fe40d-e5f8-4b5c-a1c0-d151dfc4039a"},"vehicle_type_id":"4","last_reported":1727443035,"current_range_meters":16400,"station_id":"ce4bhmp2rcd13ifvqgog","pricing_plan_id":"cebpf4jnsgd1na2vs0mg"},{"bike_id":"1920b3bd-caf9-4ba1-857a-c26cf03141b9","system_id":"levelo_inurba_marseille","lat":43.29936,"lon":5.36543,"is_reserved":false,"is_disabled":false,"rental_uris":{"android":"levelo://app?vid=1920b3bd-caf9-4ba1-857a-c26cf03141b9","ios":"levelo://app?vid=1920b3bd-caf9-4ba1-857a-c26cf03141b9"},"vehicle_type_id":"4","last_reported":1727443035,"current_range_meters":30000,"station_id":"ce4bgm92rcd13ifvqbr0","pricing_plan_id":"cebpf4jnsgd1na2vs0mg"},{"bike_id":"b6550d02-03f4-4ba7-a035-4ae24fc5fcf4","system_id":"levelo_inurba_marseille","lat":43.27959,"lon":5.38714,"is_reserved":false,"is_disabled":false,"rental_uris":{"android":"levelo://app?vid=b6550d02-03f4-4ba7-a035-4ae24fc5fcf4","ios":"levelo://app?vid=b6550d02-03f4-4ba7-a035-4ae24fc5fcf4"},"vehicle_type_id":"4","last_reported":1727443035,"current_range_meters":14000,"station_id":"ce4bhg12rcd13ifvqf80","pricing_plan_id":"cebpf4jnsgd1na2vs0mg"},{"bike_id":"acadc8ae-39aa-46a5-95f3-117da92127cf","system_id":"levelo_inurba_marseille","lat":43.29194,"lon":5.35804,"is_reserved":false,"is_disabled":false,"rental_uris":{"android":"levelo://app?vid=acadc8ae-39aa-46a5-95f3-117da92127cf","ios":"levelo://app?vid=acadc8ae-39aa-46a5-95f3-117da92127cf"},"vehicle_type_id":"4","last_reported":1727443035,"current_range_meters":38400,"station_id":"ce4bhb12rcd13ifvqel0","pricing_plan_id":"cebpf4jnsgd1na2vs0mg"},{"bike_id":"79a25ecf-10f9-43bc-835b-47891bc27edb","system_id":"levelo_inurba_marseille","lat":43.30351,"lon":5.41867,"is_reserved":false,"is_disabled":false,"rental_uris":{"android":"levelo://app?vid=79a25ecf-10f9-43bc-835b-47891bc27edb","ios":"levelo://app?vid=79a25ecf-10f9-43bc-835b-47891bc27edb"},"vehicle_type_id":"4","last_reported":1727443035,"current_range_meters":20800,"station_id":"ce4bhop2rcd13ifvqh7g","pricing_plan_id":"cebpf4jnsgd1na2vs0mg"},{"bike_id":"62366d2f-4870-4799-a328-c4b5024dfdab","system_id":"levelo_inurba_marseille","lat":43.29007,"lon":5.35603,"is_reserved":false,"is_disabled":false,"rental_uris":{"android":"levelo://app?vid=62366d2f-4870-4799-a328-c4b5024dfdab","ios":"levelo://app?vid=62366d2f-4870-4799-a328-c4b5024dfdab"},"vehicle_type_id":"4","last_reported":1727443035,"current_range_meters":4800,"station_id":"ce4bhb92rcd13ifvqen0","pricing_plan_id":"cebpf4jnsgd1na2vs0mg"},{"bike_id":"2336fb3b-99a7-4847-8e9e-ebe39bb9fd8e","system_id":"levelo_inurba_marseille","lat":43.30949,"lon":5.39032,"is_reserved":false,"is_disabled":false,"rental_uris":{"android":"levelo://app?vid=2336fb3b-99a7-4847-8e9e-ebe39bb9fd8e","ios":"levelo://app?vid=2336fb3b-99a7-4847-8e9e-ebe39bb9fd8e"},"vehicle_type_id":"4","last_reported":1727443035,"current_range_meters":35600,"station_id":"ce4bgup2rcd13ifvqco0","pricing_plan_id":"cebpf4jnsgd1na2vs0mg"},{"bike_id":"28514a14-20fd-4eb7-8ae6-ea8c070cc5de","system_id":"levelo_inurba_marseille","lat":43.29583,"lon":5.36728,"is_reserved":false,"is_disabled":false,"rental_uris":{"android":"levelo://app?vid=28514a14-20fd-4eb7-8ae6-ea8c070cc5de","ios":"levelo://app?vid=28514a14-20fd-4eb7-8ae6-ea8c070cc5de"},"vehicle_type_id":"4","last_reported":1727443035,"current_range_meters":8400,"station_id":"ce4bgph2rcd13ifvqc2g","pricing_plan_id":"cebpf4jnsgd1na2vs0mg"},{"bike_id":"b3dbeb5c-d384-4288-a194-134d933f42bb","system_id":"levelo_inurba_marseille","lat":43.25727,"lon":5.41106,"is_reserved":false,"is_disabled":false,"rental_uris":{"android":"levelo://app?vid=b3dbeb5c-d384-4288-a194-134d933f42bb","ios":"levelo://app?vid=b3dbeb5c-d384-4288-a194-134d933f42bb"},"vehicle_type_id":"4","last_reported":1727443035,"current_range_meters":29600,"station_id":"ce4bhg12rcd13ifvqf80","pricing_plan_id":"cebpf4jnsgd1na2vs0mg"},{"bike_id":"96aeec32-be4f-4541-878d-fd9a788f6caa","system_id":"levelo_inurba_marseille","lat":43.27317,"lon":5.39061,"is_reserved":false,"is_disabled":false,"rental_uris":{"android":"levelo://app?vid=96aeec32-be4f-4541-878d-fd9a788f6caa","ios":"levelo://app?vid=96aeec32-be4f-4541-878d-fd9a788f6caa"},"vehicle_type_id":"4","last_reported":1727443035,"current_range_meters":28800,"station_id":"ce4bhgp2rcd13ifvqfe0","pricing_plan_id":"cebpf4jnsgd1na2vs0mg"},{"bike_id":"8d7f4efa-c216-4130-aa15-6683d5fc3870","system_id":"levelo_inurba_marseille","lat":43.232,"lon":5.35548,"is_reserved":false,"is_disabled":false,"rental_uris":{"android":"levelo://app?vid=8d7f4efa-c216-4130-aa15-6683d5fc3870","ios":"levelo://app?vid=8d7f4efa-c216-4130-aa15-6683d5fc3870"},"vehicle_type_id":"4","last_reported":1727443035,"current_range_meters":15200,"station_id":"ce4bhu92rcd13ifvqi70","pricing_plan_id":"cebpf4jnsgd1na2vs0mg"},{"bike_id":"e675d4da-e88d-4e11-acb7-63f244b613e3","system_id":"levelo_inurba_marseille","lat":43.27613,"lon":5.36107,"is_reserved":false,"is_disabled":false,"rental_uris":{"android":"levelo://app?vid=e675d4da-e88d-4e11-acb7-63f244b613e3","ios":"levelo://app?vid=e675d4da-e88d-4e11-acb7-63f244b613e3"},"vehicle_type_id":"4","last_reported":1727443035,"current_range_meters":39200,"station_id":"ce4bgj92rcd13ifvqbe0","pricing_plan_id":"cebpf4jnsgd1na2vs0mg"},{"bike_id":"dfaa74ff-55b9-402d-9034-0b162cc6efb3","system_id":"levelo_inurba_marseille","lat":43.26062,"lon":5.39396,"is_reserved":false,"is_disabled":false,"rental_uris":{"android":"levelo://app?vid=dfaa74ff-55b9-402d-9034-0b162cc6efb3","ios":"levelo://app?vid=dfaa74ff-55b9-402d-9034-0b162cc6efb3"},"vehicle_type_id":"4","last_reported":1727443035,"current_range_meters":9600,"station_id":"ce4bhh92rcd13ifvqfj0","pricing_plan_id":"cebpf4jnsgd1na2vs0mg"},{"bike_id":"d54a1289-a956-4482-98dc-d104d3c95a22","system_id":"levelo_inurba_marseille","lat":43.28497,"lon":5.38979,"is_reserved":false,"is_disabled":false,"rental_uris":{"android":"levelo://app?vid=d54a1289-a956-4482-98dc-d104d3c95a22","ios":"levelo://app?vid=d54a1289-a956-4482-98dc-d104d3c95a22"},"vehicle_type_id":"4","last_reported":1727443035,"current_range_meters":36800,"station_id":"","pricing_plan_id":"cebpf4jnsgd1na2vs0mg"},{"bike_id":"13647fa2-1dd3-4603-86c5-32d4e05d583d","system_id":"levelo_inurba_marseille","lat":43.28927,"lon":5.36628,"is_reserved":false,"is_disabled":false,"rental_uris":{"android":"levelo://app?vid=13647fa2-1dd3-4603-86c5-32d4e05d583d","ios":"levelo://app?vid=13647fa2-1dd3-4603-86c5-32d4e05d583d"},"vehicle_type_id":"4","last_reported":1727443035,"current_range_meters":38800,"station_id":"ce4bhap2rcd13ifvqek0","pricing_plan_id":"cebpf4jnsgd1na2vs0mg"},{"bike_id":"a93ed487-121d-4ead-9d6e-de68e81f444f","system_id":"levelo_inurba_marseille","lat":43.31993,"lon":5.38147,"is_reserved":false,"is_disabled":false,"rental_uris":{"android":"levelo://app?vid=a93ed487-121d-4ead-9d6e-de68e81f444f","ios":"levelo://app?vid=a93ed487-121d-4ead-9d6e-de68e81f444f"},"vehicle_type_id":"4","last_reported":1727443035,"current_range_meters":27600,"station_id":"ce4bhr12rcd13ifvqhpg","pricing_plan_id":"cebpf4jnsgd1na2vs0mg"},{"bike_id":"1372645c-30c0-4619-ace4-9d92b2e8b363","system_id":"levelo_inurba_marseille","lat":43.32486,"lon":5.36576,"is_reserved":false,"is_disabled":false,"rental_uris":{"android":"levelo://app?vid=1372645c-30c0-4619-ace4-9d92b2e8b363","ios":"levelo://app?vid=1372645c-30c0-4619-ace4-9d92b2e8b363"},"vehicle_type_id":"4","last_reported":1727443035,"current_range_meters":38800,"station_id":"ce4bhs12rcd13ifvqhvg","pricing_plan_id":"cebpf4jnsgd1na2vs0mg"},{"bike_id":"c9656059-b28e-4b64-b742-b3daf1e4b552","system_id":"levelo_inurba_marseille","lat":43.28983,"lon":5.37586,"is_reserved":false,"is_disabled":false,"rental_uris":{"android":"levelo://app?vid=c9656059-b28e-4b64-b742-b3daf1e4b552","ios":"levelo://app?vid=c9656059-b28e-4b64-b742-b3daf1e4b552"},"vehicle_type_id":"4","last_reported":1727443035,"current_range_meters":33200,"station_id":"","pricing_plan_id":"cebpf4jnsgd1na2vs0mg"},{"bike_id":"d80af603-e899-43ae-b04b-2e0ca1d53e83","system_id":"levelo_inurba_marseille","lat":43.24545,"lon":5.39517,"is_reserved":false,"is_disabled":false,"rental_uris":{"android":"levelo://app?vid=d80af603-e899-43ae-b04b-2e0ca1d53e83","ios":"levelo://app?vid=d80af603-e899-43ae-b04b-2e0ca1d53e83"},"vehicle_type_id":"4","last_reported":1727443035,"current_range_meters":37600,"station_id":"ce4bhlp2rcd13ifvqgjg","pricing_plan_id":"cebpf4jnsgd1na2vs0mg"},{"bike_id":"69e22caa-5f5c-455a-bf78-34709240e7c5","system_id":"levelo_inurba_marseille","lat":43.28443,"lon":5.39177,"is_reserved":false,"is_disabled":false,"rental_uris":{"android":"levelo://app?vid=69e22caa-5f5c-455a-bf78-34709240e7c5","ios":"levelo://app?vid=69e22caa-5f5c-455a-bf78-34709240e7c5"},"vehicle_type_id":"4","last_reported":1727443035,"current_range_meters":28800,"station_id":"ce4bhoh2rcd13ifvqh5g","pricing_plan_id":"cebpf4jnsgd1na2vs0mg"},{"bike_id":"dfbb4659-f321-4e0b-98b9-5e57b7d61238","system_id":"levelo_inurba_marseille","lat":43.2905,"lon":5.35904,"is_reserved":false,"is_disabled":false,"rental_uris":{"android":"levelo://app?vid=dfbb4659-f321-4e0b-98b9-5e57b7d61238","ios":"levelo://app?vid=dfbb4659-f321-4e0b-98b9-5e57b7d61238"},"vehicle_type_id":"4","last_reported":1727443035,"current_range_meters":22800,"station_id":"ce4bha92rcd13ifvqeg0","pricing_plan_id":"cebpf4jnsgd1na2vs0mg"},{"bike_id":"6ca3115f-e46c-4625-8c66-a4821d71ad30","system_id":"levelo_inurba_marseille","lat":43.28275,"lon":5.35068,"is_reserved":false,"is_disabled":false,"rental_uris":{"android":"levelo://app?vid=6ca3115f-e46c-4625-8c66-a4821d71ad30","ios":"levelo://app?vid=6ca3115f-e46c-4625-8c66-a4821d71ad30"},"vehicle_type_id":"4","last_reported":1727443035,"current_range_meters":34000,"station_id":"ce4bhbp2rcd13ifvqerg","pricing_plan_id":"cebpf4jnsgd1na2vs0mg"},{"bike_id":"ce257004-0722-4533-8c66-ed3159b11605","system_id":"levelo_inurba_marseille","lat":43.29843,"lon":5.36269,"is_reserved":false,"is_disabled":false,"rental_uris":{"android":"levelo://app?vid=ce257004-0722-4533-8c66-ed3159b11605","ios":"levelo://app?vid=ce257004-0722-4533-8c66-ed3159b11605"},"vehicle_type_id":"4","last_reported":1727443035,"current_range_meters":38800,"station_id":"ce4bgpp2rcd13ifvqc3g","pricing_plan_id":"cebpf4jnsgd1na2vs0mg"},{"bike_id":"0701326a-6154-418d-82d6-6e1ca02585a7","system_id":"levelo_inurba_marseille","lat":43.29287,"lon":5.37459,"is_reserved":false,"is_disabled":false,"rental_uris":{"android":"levelo://app?vid=0701326a-6154-418d-82d6-6e1ca02585a7","ios":"levelo://app?vid=0701326a-6154-418d-82d6-6e1ca02585a7"},"vehicle_type_id":"4","last_reported":1727443035,"current_range_meters":4000,"station_id":"ce4bgi12rcd13ifvqb70","pricing_plan_id":"cebpf4jnsgd1na2vs0mg"},{"bike_id":"df193167-3953-40a2-8d51-5f7c638127da","system_id":"levelo_inurba_marseille","lat":43.29798,"lon":5.38113,"is_reserved":false,"is_disabled":false,"rental_uris":{"android":"levelo://app?vid=df193167-3953-40a2-8d51-5f7c638127da","ios":"levelo://app?vid=df193167-3953-40a2-8d51-5f7c638127da"},"vehicle_type_id":"4","last_reported":1727443035,"current_range_meters":25600,"station_id":"ce4bgip2rcd13ifvqbb0","pricing_plan_id":"cebpf4jnsgd1na2vs0mg"},{"bike_id":"ea76eb47-d474-4dad-b69b-0440318225ce","system_id":"levelo_inurba_marseille","lat":43.2586,"lon":5.39901,"is_reserved":false,"is_disabled":false,"rental_uris":{"android":"levelo://app?vid=ea76eb47-d474-4dad-b69b-0440318225ce","ios":"levelo://app?vid=ea76eb47-d474-4dad-b69b-0440318225ce"},"vehicle_type_id":"4","last_reported":1727443035,"current_range_meters":9200,"station_id":"ce4bhl92rcd13ifvqghg","pricing_plan_id":"cebpf4jnsgd1na2vs0mg"},{"bike_id":"5a87da7a-b5c4-4d2e-b4ad-8df219c9f6e3","system_id":"levelo_inurba_marseille","lat":43.26796,"lon":5.39403,"is_reserved":false,"is_disabled":false,"rental_uris":{"android":"levelo://app?vid=5a87da7a-b5c4-4d2e-b4ad-8df219c9f6e3","ios":"levelo://app?vid=5a87da7a-b5c4-4d2e-b4ad-8df219c9f6e3"},"vehicle_type_id":"4","last_reported":1727443035,"current_range_meters":38400,"station_id":"ce4bhh12rcd13ifvqfg0","pricing_plan_id":"cebpf4jnsgd1na2vs0mg"},{"bike_id":"f0b09be0-a70c-4172-983b-b235fffbc9d7","system_id":"levelo_inurba_marseille","lat":43.26033,"lon":5.37545,"is_reserved":false,"is_disabled":false,"rental_uris":{"android":"levelo://app?vid=f0b09be0-a70c-4172-983b-b235fffbc9d7","ios":"levelo://app?vid=f0b09be0-a70c-4172-983b-b235fffbc9d7"},"vehicle_type_id":"4","last_reported":1727443035,"current_range_meters":28800,"station_id":"ce4bhgh2rcd13ifvqfa0","pricing_plan_id":"cebpf4jnsgd1na2vs0mg"},{"bike_id":"7fa67b16-3f15-4044-a9ad-e2cc23681072","system_id":"levelo_inurba_marseille","lat":43.2397,"lon":5.3663,"is_reserved":false,"is_disabled":false,"rental_uris":{"android":"levelo://app?vid=7fa67b16-3f15-4044-a9ad-e2cc23681072","ios":"levelo://app?vid=7fa67b16-3f15-4044-a9ad-e2cc23681072"},"vehicle_type_id":"4","last_reported":1727443035,"current_range_meters":12400,"station_id":"ce4bhi12rcd13ifvqfp0","pricing_plan_id":"cebpf4jnsgd1na2vs0mg"},{"bike_id":"72b77fda-232c-48b0-99cd-815db2cd3cd0","system_id":"levelo_inurba_marseille","lat":43.28722,"lon":5.36075,"is_reserved":false,"is_disabled":false,"rental_uris":{"android":"levelo://app?vid=72b77fda-232c-48b0-99cd-815db2cd3cd0","ios":"levelo://app?vid=72b77fda-232c-48b0-99cd-815db2cd3cd0"},"vehicle_type_id":"4","last_reported":1727443035,"current_range_meters":38400,"station_id":"cki0cbj6b192h4jlfktg","pricing_plan_id":"cebpf4jnsgd1na2vs0mg"},{"bike_id":"e56ccec9-cd1a-49b4-99bc-9a5934fed89f","system_id":"levelo_inurba_marseille","lat":43.23973,"lon":5.3663,"is_reserved":false,"is_disabled":false,"rental_uris":{"android":"levelo://app?vid=e56ccec9-cd1a-49b4-99bc-9a5934fed89f","ios":"levelo://app?vid=e56ccec9-cd1a-49b4-99bc-9a5934fed89f"},"vehicle_type_id":"4","last_reported":1727443035,"current_range_meters":16400,"station_id":"ce4bhi12rcd13ifvqfp0","pricing_plan_id":"cebpf4jnsgd1na2vs0mg"},{"bike_id":"ae4a279c-0651-4be1-90a8-6345b36acf4d","system_id":"levelo_inurba_marseille","lat":43.33719,"lon":5.39178,"is_reserved":false,"is_disabled":false,"rental_uris":{"android":"levelo://app?vid=ae4a279c-0651-4be1-90a8-6345b36acf4d","ios":"levelo://app?vid=ae4a279c-0651-4be1-90a8-6345b36acf4d"},"vehicle_type_id":"4","last_reported":1727443035,"current_range_meters":38800,"station_id":"ce4bhr92rcd13ifvqhsg","pricing_plan_id":"cebpf4jnsgd1na2vs0mg"},{"bike_id":"b46879dc-eabe-44e4-afd5-fbdaec1a6d23","system_id":"levelo_inurba_marseille","lat":43.279968,"lon":5.40009,"is_reserved":false,"is_disabled":false,"rental_uris":{"android":"levelo://app?vid=b46879dc-eabe-44e4-afd5-fbdaec1a6d23","ios":"levelo://app?vid=b46879dc-eabe-44e4-afd5-fbdaec1a6d23"},"vehicle_type_id":"4","last_reported":1727443035,"current_range_meters":38800,"station_id":"ce4bho92rcd13ifvqh4g","pricing_plan_id":"cebpf4jnsgd1na2vs0mg"},{"bike_id":"47d20343-ff50-432f-912c-6804c73a2c65","system_id":"levelo_inurba_marseille","lat":43.25497,"lon":5.3765,"is_reserved":false,"is_disabled":false,"rental_uris":{"android":"levelo://app?vid=47d20343-ff50-432f-912c-6804c73a2c65","ios":"levelo://app?vid=47d20343-ff50-432f-912c-6804c73a2c65"},"vehicle_type_id":"4","last_reported":1727443035,"current_range_meters":38800,"station_id":"ce4bhh12rcd13ifvqff0","pricing_plan_id":"cebpf4jnsgd1na2vs0mg"},{"bike_id":"84e91030-21f6-4737-b5c1-37d05d2a9806","system_id":"levelo_inurba_marseille","lat":43.30863,"lon":5.3685,"is_reserved":false,"is_disabled":false,"rental_uris":{"android":"levelo://app?vid=84e91030-21f6-4737-b5c1-37d05d2a9806","ios":"levelo://app?vid=84e91030-21f6-4737-b5c1-37d05d2a9806"},"vehicle_type_id":"4","last_reported":1727443035,"current_range_meters":16400,"station_id":"ce4bgn92rcd13ifvqbvg","pricing_plan_id":"cebpf4jnsgd1na2vs0mg"},{"bike_id":"ed8e4580-269a-4463-8433-87c59a78b9c6","system_id":"levelo_inurba_marseille","lat":43.2417,"lon":5.36394,"is_reserved":false,"is_disabled":false,"rental_uris":{"android":"levelo://app?vid=ed8e4580-269a-4463-8433-87c59a78b9c6","ios":"levelo://app?vid=ed8e4580-269a-4463-8433-87c59a78b9c6"},"vehicle_type_id":"4","last_reported":1727443035,"current_range_meters":22000,"station_id":"cpo36qri1sfpv3e86is0","pricing_plan_id":"cebpf4jnsgd1na2vs0mg"},{"bike_id":"d60cac48-c512-41be-95e8-a2dc5f170b4f","system_id":"levelo_inurba_marseille","lat":43.33603,"lon":5.4103,"is_reserved":false,"is_disabled":false,"rental_uris":{"android":"levelo://app?vid=d60cac48-c512-41be-95e8-a2dc5f170b4f","ios":"levelo://app?vid=d60cac48-c512-41be-95e8-a2dc5f170b4f"},"vehicle_type_id":"4","last_reported":1727443035,"current_range_meters":20000,"station_id":"ce4bhqh2rcd13ifvqhmg","pricing_plan_id":"cebpf4jnsgd1na2vs0mg"},{"bike_id":"fd826baf-417e-412f-b75c-725db7a3b44d","system_id":"levelo_inurba_marseille","lat":43.23156,"lon":5.43704,"is_reserved":false,"is_disabled":false,"rental_uris":{"android":"levelo://app?vid=fd826baf-417e-412f-b75c-725db7a3b44d","ios":"levelo://app?vid=fd826baf-417e-412f-b75c-725db7a3b44d"},"vehicle_type_id":"4","last_reported":1727443035,"current_range_meters":12400,"station_id":"ce4bhmp2rcd13ifvqgog","pricing_plan_id":"cebpf4jnsgd1na2vs0mg"},{"bike_id":"98a56029-3c5f-4237-aac0-b77aa46cee6e","system_id":"levelo_inurba_marseille","lat":43.29196,"lon":5.39322,"is_reserved":false,"is_disabled":false,"rental_uris":{"android":"levelo://app?vid=98a56029-3c5f-4237-aac0-b77aa46cee6e","ios":"levelo://app?vid=98a56029-3c5f-4237-aac0-b77aa46cee6e"},"vehicle_type_id":"4","last_reported":1727443035,"current_range_meters":33200,"station_id":"ce4bh192rcd13ifvqdd0","pricing_plan_id":"cebpf4jnsgd1na2vs0mg"},{"bike_id":"4a00bf6e-49be-4c69-a342-60be29536004","system_id":"levelo_inurba_marseille","lat":43.30951,"lon":5.39035,"is_reserved":false,"is_disabled":false,"rental_uris":{"android":"levelo://app?vid=4a00bf6e-49be-4c69-a342-60be29536004","ios":"levelo://app?vid=4a00bf6e-49be-4c69-a342-60be29536004"},"vehicle_type_id":"4","last_reported":1727443035,"current_range_meters":18800,"station_id":"ce4bgup2rcd13ifvqco0","pricing_plan_id":"cebpf4jnsgd1na2vs0mg"},{"bike_id":"9046eec4-c40b-4b18-871d-11bbf7e30106","system_id":"levelo_inurba_marseille","lat":43.29888,"lon":5.389,"is_reserved":false,"is_disabled":false,"rental_uris":{"android":"levelo://app?vid=9046eec4-c40b-4b18-871d-11bbf7e30106","ios":"levelo://app?vid=9046eec4-c40b-4b18-871d-11bbf7e30106"},"vehicle_type_id":"4","last_reported":1727443035,"current_range_meters":27200,"station_id":"ce4bh392rcd13ifvqdl0","pricing_plan_id":"cebpf4jnsgd1na2vs0mg"},{"bike_id":"6c186c1e-b9b0-4336-ac17-7142822ced41","system_id":"levelo_inurba_marseille","lat":43.27064,"lon":5.40256,"is_reserved":false,"is_disabled":false,"rental_uris":{"android":"levelo://app?vid=6c186c1e-b9b0-4336-ac17-7142822ced41","ios":"levelo://app?vid=6c186c1e-b9b0-4336-ac17-7142822ced41"},"vehicle_type_id":"4","last_reported":1727443035,"current_range_meters":32000,"station_id":"ce4bhk92rcd13ifvqgc0","pricing_plan_id":"cebpf4jnsgd1na2vs0mg"},{"bike_id":"39a71ff9-a496-4a67-8674-6cfc7eaf8af5","system_id":"levelo_inurba_marseille","lat":43.318766,"lon":5.407347,"is_reserved":false,"is_disabled":false,"rental_uris":{"android":"levelo://app?vid=39a71ff9-a496-4a67-8674-6cfc7eaf8af5","ios":"levelo://app?vid=39a71ff9-a496-4a67-8674-6cfc7eaf8af5"},"vehicle_type_id":"4","last_reported":1727443035,"current_range_meters":22400,"station_id":"ce4bhq12rcd13ifvqhig","pricing_plan_id":"cebpf4jnsgd1na2vs0mg"},{"bike_id":"a087972b-597a-4182-9eaf-7c134fc80c43","system_id":"levelo_inurba_marseille","lat":43.24806,"lon":5.37459,"is_reserved":false,"is_disabled":false,"rental_uris":{"android":"levelo://app?vid=a087972b-597a-4182-9eaf-7c134fc80c43","ios":"levelo://app?vid=a087972b-597a-4182-9eaf-7c134fc80c43"},"vehicle_type_id":"4","last_reported":1727443035,"current_range_meters":19200,"station_id":"ce4bhgh2rcd13ifvqfb0","pricing_plan_id":"cebpf4jnsgd1na2vs0mg"},{"bike_id":"ae4e5b3e-c386-4a2b-8082-909520f5a5b6","system_id":"levelo_inurba_marseille","lat":43.23066,"lon":5.35488,"is_reserved":false,"is_disabled":false,"rental_uris":{"android":"levelo://app?vid=ae4e5b3e-c386-4a2b-8082-909520f5a5b6","ios":"levelo://app?vid=ae4e5b3e-c386-4a2b-8082-909520f5a5b6"},"vehicle_type_id":"4","last_reported":1727443035,"current_range_meters":9600,"station_id":"cpo3342slgdg3j2ifvpg","pricing_plan_id":"cebpf4jnsgd1na2vs0mg"},{"bike_id":"9a4b76ee-46a2-4b1b-9d5b-7bb4289168bd","system_id":"levelo_inurba_marseille","lat":43.30248,"lon":5.40062,"is_reserved":false,"is_disabled":false,"rental_uris":{"android":"levelo://app?vid=9a4b76ee-46a2-4b1b-9d5b-7bb4289168bd","ios":"levelo://app?vid=9a4b76ee-46a2-4b1b-9d5b-7bb4289168bd"},"vehicle_type_id":"4","last_reported":1727443035,"current_range_meters":22800,"station_id":"ce4bgvh2rcd13ifvqcs0","pricing_plan_id":"cebpf4jnsgd1na2vs0mg"},{"bike_id":"9e485d53-81d0-4af1-9b00-3d780806abbb","system_id":"levelo_inurba_marseille","lat":43.26685,"lon":5.38273,"is_reserved":false,"is_disabled":false,"rental_uris":{"android":"levelo://app?vid=9e485d53-81d0-4af1-9b00-3d780806abbb","ios":"levelo://app?vid=9e485d53-81d0-4af1-9b00-3d780806abbb"},"vehicle_type_id":"4","last_reported":1727443035,"current_range_meters":17200,"station_id":"ce4bhg92rcd13ifvqf90","pricing_plan_id":"cebpf4jnsgd1na2vs0mg"},{"bike_id":"43c0c15c-7c74-4c12-b23e-4393ebb911d0","system_id":"levelo_inurba_marseille","lat":43.32291,"lon":5.382683,"is_reserved":false,"is_disabled":false,"rental_uris":{"android":"levelo://app?vid=43c0c15c-7c74-4c12-b23e-4393ebb911d0","ios":"levelo://app?vid=43c0c15c-7c74-4c12-b23e-4393ebb911d0"},"vehicle_type_id":"4","last_reported":1727443035,"current_range_meters":20000,"station_id":"ce4bhr12rcd13ifvqhqg","pricing_plan_id":"cebpf4jnsgd1na2vs0mg"},{"bike_id":"2cacbbf1-9463-4b23-92b0-2d45d777be4e","system_id":"levelo_inurba_marseille","lat":43.28421,"lon":5.34996,"is_reserved":false,"is_disabled":false,"rental_uris":{"android":"levelo://app?vid=2cacbbf1-9463-4b23-92b0-2d45d777be4e","ios":"levelo://app?vid=2cacbbf1-9463-4b23-92b0-2d45d777be4e"},"vehicle_type_id":"4","last_reported":1727443035,"current_range_meters":30000,"station_id":"ce4bhbh2rcd13ifvqepg","pricing_plan_id":"cebpf4jnsgd1na2vs0mg"},{"bike_id":"d5b74c70-a66b-4f2c-810d-2594b9a0ef51","system_id":"levelo_inurba_marseille","lat":43.29895,"lon":5.43662,"is_reserved":false,"is_disabled":false,"rental_uris":{"android":"levelo://app?vid=d5b74c70-a66b-4f2c-810d-2594b9a0ef51","ios":"levelo://app?vid=d5b74c70-a66b-4f2c-810d-2594b9a0ef51"},"vehicle_type_id":"4","last_reported":1727443035,"current_range_meters":26800,"station_id":"ce4bhpp2rcd13ifvqhfg","pricing_plan_id":"cebpf4jnsgd1na2vs0mg"},{"bike_id":"b579715c-20e2-4755-8fdf-8d2fd1b7b809","system_id":"levelo_inurba_marseille","lat":43.337444,"lon":5.374475,"is_reserved":false,"is_disabled":false,"rental_uris":{"android":"levelo://app?vid=b579715c-20e2-4755-8fdf-8d2fd1b7b809","ios":"levelo://app?vid=b579715c-20e2-4755-8fdf-8d2fd1b7b809"},"vehicle_type_id":"4","last_reported":1727443035,"current_range_meters":35200,"station_id":"","pricing_plan_id":"cebpf4jnsgd1na2vs0mg"},{"bike_id":"dd2c6e63-e866-4272-b3f6-5a97026b1a79","system_id":"levelo_inurba_marseille","lat":43.24214,"lon":5.3843,"is_reserved":false,"is_disabled":false,"rental_uris":{"android":"levelo://app?vid=dd2c6e63-e866-4272-b3f6-5a97026b1a79","ios":"levelo://app?vid=dd2c6e63-e866-4272-b3f6-5a97026b1a79"},"vehicle_type_id":"4","last_reported":1727443035,"current_range_meters":2800,"station_id":"","pricing_plan_id":"cebpf4jnsgd1na2vs0mg"},{"bike_id":"21d8700c-4255-4f03-99ab-f557abbdc312","system_id":"levelo_inurba_marseille","lat":43.306027,"lon":5.372377,"is_reserved":false,"is_disabled":false,"rental_uris":{"android":"levelo://app?vid=21d8700c-4255-4f03-99ab-f557abbdc312","ios":"levelo://app?vid=21d8700c-4255-4f03-99ab-f557abbdc312"},"vehicle_type_id":"4","last_reported":1727443035,"current_range_meters":28400,"station_id":"ce4bgqh2rcd13ifvqc4g","pricing_plan_id":"cebpf4jnsgd1na2vs0mg"},{"bike_id":"a74e5f59-b9b4-4be5-9e3a-53ae56549cbe","system_id":"levelo_inurba_marseille","lat":43.28272,"lon":5.35071,"is_reserved":false,"is_disabled":false,"rental_uris":{"android":"levelo://app?vid=a74e5f59-b9b4-4be5-9e3a-53ae56549cbe","ios":"levelo://app?vid=a74e5f59-b9b4-4be5-9e3a-53ae56549cbe"},"vehicle_type_id":"4","last_reported":1727443035,"current_range_meters":29600,"station_id":"ce4bhbp2rcd13ifvqerg","pricing_plan_id":"cebpf4jnsgd1na2vs0mg"},{"bike_id":"28e420c8-2e70-4395-b623-87fdeee77ed6","system_id":"levelo_inurba_marseille","lat":43.24174,"lon":5.39725,"is_reserved":false,"is_disabled":false,"rental_uris":{"android":"levelo://app?vid=28e420c8-2e70-4395-b623-87fdeee77ed6","ios":"levelo://app?vid=28e420c8-2e70-4395-b623-87fdeee77ed6"},"vehicle_type_id":"4","last_reported":1727443035,"current_range_meters":25200,"station_id":"ce4bhn12rcd13ifvqgpg","pricing_plan_id":"cebpf4jnsgd1na2vs0mg"},{"bike_id":"d7cccf2b-6735-4f4a-bab6-fb1b53fe3b6b","system_id":"levelo_inurba_marseille","lat":43.29782,"lon":5.38108,"is_reserved":false,"is_disabled":false,"rental_uris":{"android":"levelo://app?vid=d7cccf2b-6735-4f4a-bab6-fb1b53fe3b6b","ios":"levelo://app?vid=d7cccf2b-6735-4f4a-bab6-fb1b53fe3b6b"},"vehicle_type_id":"4","last_reported":1727443035,"current_range_meters":19600,"station_id":"ce4bgip2rcd13ifvqbb0","pricing_plan_id":"cebpf4jnsgd1na2vs0mg"},{"bike_id":"6a3102cc-e255-46c2-a2dd-69819d1fdd6f","system_id":"levelo_inurba_marseille","lat":43.23194,"lon":5.35551,"is_reserved":false,"is_disabled":false,"rental_uris":{"android":"levelo://app?vid=6a3102cc-e255-46c2-a2dd-69819d1fdd6f","ios":"levelo://app?vid=6a3102cc-e255-46c2-a2dd-69819d1fdd6f"},"vehicle_type_id":"4","last_reported":1727443035,"current_range_meters":17600,"station_id":"ce4bhu92rcd13ifvqi70","pricing_plan_id":"cebpf4jnsgd1na2vs0mg"},{"bike_id":"a8ad96dc-e0f4-4a3f-9725-4f83b8c05346","system_id":"levelo_inurba_marseille","lat":43.23188,"lon":5.3998,"is_reserved":false,"is_disabled":false,"rental_uris":{"android":"levelo://app?vid=a8ad96dc-e0f4-4a3f-9725-4f83b8c05346","ios":"levelo://app?vid=a8ad96dc-e0f4-4a3f-9725-4f83b8c05346"},"vehicle_type_id":"4","last_reported":1727443035,"current_range_meters":20800,"station_id":"ce4bhn12rcd13ifvqgqg","pricing_plan_id":"cebpf4jnsgd1na2vs0mg"},{"bike_id":"675019da-1e89-4742-8a65-a5942fb38616","system_id":"levelo_inurba_marseille","lat":43.23151,"lon":5.43704,"is_reserved":false,"is_disabled":false,"rental_uris":{"android":"levelo://app?vid=675019da-1e89-4742-8a65-a5942fb38616","ios":"levelo://app?vid=675019da-1e89-4742-8a65-a5942fb38616"},"vehicle_type_id":"4","last_reported":1727443035,"current_range_meters":37600,"station_id":"ce4bhmp2rcd13ifvqgog","pricing_plan_id":"cebpf4jnsgd1na2vs0mg"},{"bike_id":"fd6e197d-3ea4-491e-be63-35531aa72442","system_id":"levelo_inurba_marseille","lat":43.30605,"lon":5.37146,"is_reserved":false,"is_disabled":false,"rental_uris":{"android":"levelo://app?vid=fd6e197d-3ea4-491e-be63-35531aa72442","ios":"levelo://app?vid=fd6e197d-3ea4-491e-be63-35531aa72442"},"vehicle_type_id":"4","last_reported":1727443035,"current_range_meters":10000,"station_id":"","pricing_plan_id":"cebpf4jnsgd1na2vs0mg"},{"bike_id":"a13603a8-2cb7-48a2-b881-f9720349bdb0","system_id":"levelo_inurba_marseille","lat":43.30181,"lon":5.36626,"is_reserved":false,"is_disabled":false,"rental_uris":{"android":"levelo://app?vid=a13603a8-2cb7-48a2-b881-f9720349bdb0","ios":"levelo://app?vid=a13603a8-2cb7-48a2-b881-f9720349bdb0"},"vehicle_type_id":"4","last_reported":1727443035,"current_range_meters":38800,"station_id":"ce4bgrh2rcd13ifvqc8g","pricing_plan_id":"cebpf4jnsgd1na2vs0mg"},{"bike_id":"b8f7ad51-609c-42b6-a54b-b876b785b257","system_id":"levelo_inurba_marseille","lat":43.27969,"lon":5.38738,"is_reserved":false,"is_disabled":false,"rental_uris":{"android":"levelo://app?vid=b8f7ad51-609c-42b6-a54b-b876b785b257","ios":"levelo://app?vid=b8f7ad51-609c-42b6-a54b-b876b785b257"},"vehicle_type_id":"4","last_reported":1727443035,"current_range_meters":7200,"station_id":"ce4bgvh2rcd13ifvqcs0","pricing_plan_id":"cebpf4jnsgd1na2vs0mg"},{"bike_id":"693e8e2f-e6cd-442e-80a0-9cb77d063437","system_id":"levelo_inurba_marseille","lat":43.286011,"lon":5.370755,"is_reserved":false,"is_disabled":false,"rental_uris":{"android":"levelo://app?vid=693e8e2f-e6cd-442e-80a0-9cb77d063437","ios":"levelo://app?vid=693e8e2f-e6cd-442e-80a0-9cb77d063437"},"vehicle_type_id":"4","last_reported":1727443035,"current_range_meters":30000,"station_id":"ce4bht12rcd13ifvqi60","pricing_plan_id":"cebpf4jnsgd1na2vs0mg"},{"bike_id":"937198c0-e395-4fe6-aec8-9595cc073bc2","system_id":"levelo_inurba_marseille","lat":43.29621,"lon":5.3717,"is_reserved":false,"is_disabled":false,"rental_uris":{"android":"levelo://app?vid=937198c0-e395-4fe6-aec8-9595cc073bc2","ios":"levelo://app?vid=937198c0-e395-4fe6-aec8-9595cc073bc2"},"vehicle_type_id":"4","last_reported":1727443035,"current_range_meters":18800,"station_id":"ce4bgnh2rcd13ifvqc0g","pricing_plan_id":"cebpf4jnsgd1na2vs0mg"},{"bike_id":"c40f2b99-ce97-4b03-933a-e2ed32b4fcfc","system_id":"levelo_inurba_marseille","lat":43.31365,"lon":5.38491,"is_reserved":false,"is_disabled":false,"rental_uris":{"android":"levelo://app?vid=c40f2b99-ce97-4b03-933a-e2ed32b4fcfc","ios":"levelo://app?vid=c40f2b99-ce97-4b03-933a-e2ed32b4fcfc"},"vehicle_type_id":"4","last_reported":1727443035,"current_range_meters":37600,"station_id":"ce4bgt92rcd13ifvqcf0","pricing_plan_id":"cebpf4jnsgd1na2vs0mg"},{"bike_id":"9ec6608a-5a24-4d9f-8ca5-b865e9b12173","system_id":"levelo_inurba_marseille","lat":43.2985,"lon":5.36283,"is_reserved":false,"is_disabled":false,"rental_uris":{"android":"levelo://app?vid=9ec6608a-5a24-4d9f-8ca5-b865e9b12173","ios":"levelo://app?vid=9ec6608a-5a24-4d9f-8ca5-b865e9b12173"},"vehicle_type_id":"4","last_reported":1727443035,"current_range_meters":23200,"station_id":"ce4bgpp2rcd13ifvqc3g","pricing_plan_id":"cebpf4jnsgd1na2vs0mg"},{"bike_id":"8cc1535d-3acb-4564-823a-d1bff42d60b7","system_id":"levelo_inurba_marseille","lat":43.30091,"lon":5.39072,"is_reserved":false,"is_disabled":false,"rental_uris":{"android":"levelo://app?vid=8cc1535d-3acb-4564-823a-d1bff42d60b7","ios":"levelo://app?vid=8cc1535d-3acb-4564-823a-d1bff42d60b7"},"vehicle_type_id":"4","last_reported":1727443035,"current_range_meters":34000,"station_id":"ce4bh192rcd13ifvqdb0","pricing_plan_id":"cebpf4jnsgd1na2vs0mg"},{"bike_id":"81f6fd71-5c6c-439d-bd80-6c4a511bf7ca","system_id":"levelo_inurba_marseille","lat":43.28936,"lon":5.36629,"is_reserved":false,"is_disabled":false,"rental_uris":{"android":"levelo://app?vid=81f6fd71-5c6c-439d-bd80-6c4a511bf7ca","ios":"levelo://app?vid=81f6fd71-5c6c-439d-bd80-6c4a511bf7ca"},"vehicle_type_id":"4","last_reported":1727443035,"current_range_meters":32400,"station_id":"ce4bhap2rcd13ifvqek0","pricing_plan_id":"cebpf4jnsgd1na2vs0mg"},{"bike_id":"09e72690-2b42-4e58-bd35-08ae07351777","system_id":"levelo_inurba_marseille","lat":43.31757,"lon":5.39005,"is_reserved":false,"is_disabled":false,"rental_uris":{"android":"levelo://app?vid=09e72690-2b42-4e58-bd35-08ae07351777","ios":"levelo://app?vid=09e72690-2b42-4e58-bd35-08ae07351777"},"vehicle_type_id":"4","last_reported":1727443035,"current_range_meters":36400,"station_id":"ce4bhqp2rcd13ifvqhng","pricing_plan_id":"cebpf4jnsgd1na2vs0mg"},{"bike_id":"7bf6871c-a92b-4596-9011-8f1d8c229d8e","system_id":"levelo_inurba_marseille","lat":43.25847,"lon":5.38868,"is_reserved":false,"is_disabled":false,"rental_uris":{"android":"levelo://app?vid=7bf6871c-a92b-4596-9011-8f1d8c229d8e","ios":"levelo://app?vid=7bf6871c-a92b-4596-9011-8f1d8c229d8e"},"vehicle_type_id":"4","last_reported":1727443035,"current_range_meters":36400,"station_id":"","pricing_plan_id":"cebpf4jnsgd1na2vs0mg"},{"bike_id":"e9f443d2-ac36-4f64-a929-10ee85932111","system_id":"levelo_inurba_marseille","lat":43.27496,"lon":5.42443,"is_reserved":false,"is_disabled":false,"rental_uris":{"android":"levelo://app?vid=e9f443d2-ac36-4f64-a929-10ee85932111","ios":"levelo://app?vid=e9f443d2-ac36-4f64-a929-10ee85932111"},"vehicle_type_id":"4","last_reported":1727443035,"current_range_meters":33200,"station_id":"ce4bhn92rcd13ifvqgrg","pricing_plan_id":"cebpf4jnsgd1na2vs0mg"},{"bike_id":"f773ff7a-57ec-44a4-a08b-e07c6f07024f","system_id":"levelo_inurba_marseille","lat":43.29263,"lon":5.40911,"is_reserved":false,"is_disabled":false,"rental_uris":{"android":"levelo://app?vid=f773ff7a-57ec-44a4-a08b-e07c6f07024f","ios":"levelo://app?vid=f773ff7a-57ec-44a4-a08b-e07c6f07024f"},"vehicle_type_id":"4","last_reported":1727443035,"current_range_meters":22800,"station_id":"ce4bh192rcd13ifvqdc0","pricing_plan_id":"cebpf4jnsgd1na2vs0mg"},{"bike_id":"4ebbc4df-b6c5-40b1-9b77-0a6f9fe7579f","system_id":"levelo_inurba_marseille","lat":43.23059,"lon":5.35498,"is_reserved":false,"is_disabled":false,"rental_uris":{"android":"levelo://app?vid=4ebbc4df-b6c5-40b1-9b77-0a6f9fe7579f","ios":"levelo://app?vid=4ebbc4df-b6c5-40b1-9b77-0a6f9fe7579f"},"vehicle_type_id":"4","last_reported":1727443035,"current_range_meters":36400,"station_id":"cpo3342slgdg3j2ifvpg","pricing_plan_id":"cebpf4jnsgd1na2vs0mg"},{"bike_id":"a5c0ce2f-9ebb-434e-ae36-8a5031cac6c7","system_id":"levelo_inurba_marseille","lat":43.30279,"lon":5.37683,"is_reserved":false,"is_disabled":false,"rental_uris":{"android":"levelo://app?vid=a5c0ce2f-9ebb-434e-ae36-8a5031cac6c7","ios":"levelo://app?vid=a5c0ce2f-9ebb-434e-ae36-8a5031cac6c7"},"vehicle_type_id":"4","last_reported":1727443035,"current_range_meters":38000,"station_id":"ce4bguh2rcd13ifvqcj0","pricing_plan_id":"cebpf4jnsgd1na2vs0mg"},{"bike_id":"770523de-f0ab-42b9-a874-f595878042a6","system_id":"levelo_inurba_marseille","lat":43.30459,"lon":5.379,"is_reserved":false,"is_disabled":false,"rental_uris":{"android":"levelo://app?vid=770523de-f0ab-42b9-a874-f595878042a6","ios":"levelo://app?vid=770523de-f0ab-42b9-a874-f595878042a6"},"vehicle_type_id":"4","last_reported":1727443035,"current_range_meters":14000,"station_id":"ce4bgup2rcd13ifvqcn0","pricing_plan_id":"cebpf4jnsgd1na2vs0mg"},{"bike_id":"d91df2c8-b46c-4cd0-82bb-faa65a23f602","system_id":"levelo_inurba_marseille","lat":43.300873,"lon":5.390865,"is_reserved":false,"is_disabled":false,"rental_uris":{"android":"levelo://app?vid=d91df2c8-b46c-4cd0-82bb-faa65a23f602","ios":"levelo://app?vid=d91df2c8-b46c-4cd0-82bb-faa65a23f602"},"vehicle_type_id":"4","last_reported":1727443035,"current_range_meters":2800,"station_id":"ce4bh192rcd13ifvqdb0","pricing_plan_id":"cebpf4jnsgd1na2vs0mg"},{"bike_id":"18441afc-0e1c-47ed-a35e-d2f4e8ed1d8f","system_id":"levelo_inurba_marseille","lat":43.292999,"lon":5.374592,"is_reserved":false,"is_disabled":false,"rental_uris":{"android":"levelo://app?vid=18441afc-0e1c-47ed-a35e-d2f4e8ed1d8f","ios":"levelo://app?vid=18441afc-0e1c-47ed-a35e-d2f4e8ed1d8f"},"vehicle_type_id":"4","last_reported":1727443035,"current_range_meters":38800,"station_id":"ce4bgi12rcd13ifvqb70","pricing_plan_id":"cebpf4jnsgd1na2vs0mg"},{"bike_id":"72ed140c-28b4-4209-b5cc-ca403f488f1e","system_id":"levelo_inurba_marseille","lat":43.26784,"lon":5.39417,"is_reserved":false,"is_disabled":false,"rental_uris":{"android":"levelo://app?vid=72ed140c-28b4-4209-b5cc-ca403f488f1e","ios":"levelo://app?vid=72ed140c-28b4-4209-b5cc-ca403f488f1e"},"vehicle_type_id":"4","last_reported":1727443035,"current_range_meters":17200,"station_id":"ce4bhh12rcd13ifvqfg0","pricing_plan_id":"cebpf4jnsgd1na2vs0mg"},{"bike_id":"4e3b9934-2f8f-4216-93d1-8dfcb3bc7d57","system_id":"levelo_inurba_marseille","lat":43.28098,"lon":5.37845,"is_reserved":false,"is_disabled":false,"rental_uris":{"android":"levelo://app?vid=4e3b9934-2f8f-4216-93d1-8dfcb3bc7d57","ios":"levelo://app?vid=4e3b9934-2f8f-4216-93d1-8dfcb3bc7d57"},"vehicle_type_id":"4","last_reported":1727443035,"current_range_meters":18000,"station_id":"ce4bha12rcd13ifvqee0","pricing_plan_id":"cebpf4jnsgd1na2vs0mg"},{"bike_id":"7b7681cb-62bd-4157-bf73-d22f839cfb52","system_id":"levelo_inurba_marseille","lat":43.2319,"lon":5.35554,"is_reserved":false,"is_disabled":false,"rental_uris":{"android":"levelo://app?vid=7b7681cb-62bd-4157-bf73-d22f839cfb52","ios":"levelo://app?vid=7b7681cb-62bd-4157-bf73-d22f839cfb52"},"vehicle_type_id":"4","last_reported":1727443035,"current_range_meters":25600,"station_id":"ce4bhu92rcd13ifvqi70","pricing_plan_id":"cebpf4jnsgd1na2vs0mg"},{"bike_id":"fdfc6c9c-eb78-41b1-a463-ae65f803a4f1","system_id":"levelo_inurba_marseille","lat":43.30355,"lon":5.41877,"is_reserved":false,"is_disabled":false,"rental_uris":{"android":"levelo://app?vid=fdfc6c9c-eb78-41b1-a463-ae65f803a4f1","ios":"levelo://app?vid=fdfc6c9c-eb78-41b1-a463-ae65f803a4f1"},"vehicle_type_id":"4","last_reported":1727443035,"current_range_meters":24800,"station_id":"ce4bhop2rcd13ifvqh7g","pricing_plan_id":"cebpf4jnsgd1na2vs0mg"},{"bike_id":"cb07f0fe-09ef-4da3-b729-def49a7fb7f8","system_id":"levelo_inurba_marseille","lat":43.23182,"lon":5.39987,"is_reserved":false,"is_disabled":false,"rental_uris":{"android":"levelo://app?vid=cb07f0fe-09ef-4da3-b729-def49a7fb7f8","ios":"levelo://app?vid=cb07f0fe-09ef-4da3-b729-def49a7fb7f8"},"vehicle_type_id":"4","last_reported":1727443035,"current_range_meters":34800,"station_id":"ce4bhn12rcd13ifvqgqg","pricing_plan_id":"cebpf4jnsgd1na2vs0mg"},{"bike_id":"35eeffa6-ef00-4842-a44a-3d01f0c431f9","system_id":"levelo_inurba_marseille","lat":43.298473,"lon":5.362795,"is_reserved":false,"is_disabled":false,"rental_uris":{"android":"levelo://app?vid=35eeffa6-ef00-4842-a44a-3d01f0c431f9","ios":"levelo://app?vid=35eeffa6-ef00-4842-a44a-3d01f0c431f9"},"vehicle_type_id":"4","last_reported":1727443035,"current_range_meters":28000,"station_id":"ce4bgpp2rcd13ifvqc3g","pricing_plan_id":"cebpf4jnsgd1na2vs0mg"},{"bike_id":"b793953b-a139-4255-961d-52e6b4e591d4","system_id":"levelo_inurba_marseille","lat":43.29581,"lon":5.36737,"is_reserved":false,"is_disabled":false,"rental_uris":{"android":"levelo://app?vid=b793953b-a139-4255-961d-52e6b4e591d4","ios":"levelo://app?vid=b793953b-a139-4255-961d-52e6b4e591d4"},"vehicle_type_id":"4","last_reported":1727443035,"current_range_meters":38800,"station_id":"ce4bgph2rcd13ifvqc2g","pricing_plan_id":"cebpf4jnsgd1na2vs0mg"},{"bike_id":"45b6522a-3d2e-4aa0-9dda-84d875f9fe1e","system_id":"levelo_inurba_marseille","lat":43.29027,"lon":5.38632,"is_reserved":false,"is_disabled":false,"rental_uris":{"android":"levelo://app?vid=45b6522a-3d2e-4aa0-9dda-84d875f9fe1e","ios":"levelo://app?vid=45b6522a-3d2e-4aa0-9dda-84d875f9fe1e"},"vehicle_type_id":"4","last_reported":1727443035,"current_range_meters":28800,"station_id":"ce4bh4p2rcd13ifvqe0g","pricing_plan_id":"cebpf4jnsgd1na2vs0mg"},{"bike_id":"11407574-a14f-4a04-a92d-bee30368925e","system_id":"levelo_inurba_marseille","lat":43.29212,"lon":5.36041,"is_reserved":false,"is_disabled":false,"rental_uris":{"android":"levelo://app?vid=11407574-a14f-4a04-a92d-bee30368925e","ios":"levelo://app?vid=11407574-a14f-4a04-a92d-bee30368925e"},"vehicle_type_id":"4","last_reported":1727443035,"current_range_meters":26000,"station_id":"ce4bhbh2rcd13ifvqeqg","pricing_plan_id":"cebpf4jnsgd1na2vs0mg"},{"bike_id":"7cec4afe-c07a-4fff-acc0-d57515afb864","system_id":"levelo_inurba_marseille","lat":43.337444,"lon":5.374475,"is_reserved":false,"is_disabled":false,"rental_uris":{"android":"levelo://app?vid=7cec4afe-c07a-4fff-acc0-d57515afb864","ios":"levelo://app?vid=7cec4afe-c07a-4fff-acc0-d57515afb864"},"vehicle_type_id":"4","last_reported":1727443035,"current_range_meters":7200,"station_id":"ce4bh092rcd13ifvqd20","pricing_plan_id":"cebpf4jnsgd1na2vs0mg"},{"bike_id":"9ebd4df9-afea-4013-9210-82dfc35714f5","system_id":"levelo_inurba_marseille","lat":43.30279,"lon":5.37682,"is_reserved":false,"is_disabled":false,"rental_uris":{"android":"levelo://app?vid=9ebd4df9-afea-4013-9210-82dfc35714f5","ios":"levelo://app?vid=9ebd4df9-afea-4013-9210-82dfc35714f5"},"vehicle_type_id":"4","last_reported":1727443035,"current_range_meters":38800,"station_id":"ce4bguh2rcd13ifvqcj0","pricing_plan_id":"cebpf4jnsgd1na2vs0mg"},{"bike_id":"bc11c6e6-3a36-4925-9338-549a8c49bfbe","system_id":"levelo_inurba_marseille","lat":43.32106,"lon":5.36767,"is_reserved":false,"is_disabled":false,"rental_uris":{"android":"levelo://app?vid=bc11c6e6-3a36-4925-9338-549a8c49bfbe","ios":"levelo://app?vid=bc11c6e6-3a36-4925-9338-549a8c49bfbe"},"vehicle_type_id":"4","last_reported":1727443035,"current_range_meters":26000,"station_id":"ce4bhrh2rcd13ifvqhug","pricing_plan_id":"cebpf4jnsgd1na2vs0mg"},{"bike_id":"0402e1e9-1c36-482a-bcce-363ac3e17b4d","system_id":"levelo_inurba_marseille","lat":43.29291,"lon":5.37462,"is_reserved":false,"is_disabled":false,"rental_uris":{"android":"levelo://app?vid=0402e1e9-1c36-482a-bcce-363ac3e17b4d","ios":"levelo://app?vid=0402e1e9-1c36-482a-bcce-363ac3e17b4d"},"vehicle_type_id":"4","last_reported":1727443035,"current_range_meters":19600,"station_id":"ce4bgi12rcd13ifvqb70","pricing_plan_id":"cebpf4jnsgd1na2vs0mg"},{"bike_id":"e9452e70-354f-4ee8-8dae-6dd38afcf116","system_id":"levelo_inurba_marseille","lat":43.29936,"lon":5.36541,"is_reserved":false,"is_disabled":false,"rental_uris":{"android":"levelo://app?vid=e9452e70-354f-4ee8-8dae-6dd38afcf116","ios":"levelo://app?vid=e9452e70-354f-4ee8-8dae-6dd38afcf116"},"vehicle_type_id":"4","last_reported":1727443035,"current_range_meters":18800,"station_id":"ce4bgm92rcd13ifvqbr0","pricing_plan_id":"cebpf4jnsgd1na2vs0mg"},{"bike_id":"c73e4bf2-335f-41f7-835b-3e55bdbb04dd","system_id":"levelo_inurba_marseille","lat":43.30131,"lon":5.38777,"is_reserved":false,"is_disabled":false,"rental_uris":{"android":"levelo://app?vid=c73e4bf2-335f-41f7-835b-3e55bdbb04dd","ios":"levelo://app?vid=c73e4bf2-335f-41f7-835b-3e55bdbb04dd"},"vehicle_type_id":"4","last_reported":1727443035,"current_range_meters":16400,"station_id":"ce4bghh2rcd13ifvqb60","pricing_plan_id":"cebpf4jnsgd1na2vs0mg"},{"bike_id":"024c2f4c-46a9-4ff1-9da6-bd6211b8d518","system_id":"levelo_inurba_marseille","lat":43.22931,"lon":5.35373,"is_reserved":false,"is_disabled":false,"rental_uris":{"android":"levelo://app?vid=024c2f4c-46a9-4ff1-9da6-bd6211b8d518","ios":"levelo://app?vid=024c2f4c-46a9-4ff1-9da6-bd6211b8d518"},"vehicle_type_id":"4","last_reported":1727443035,"current_range_meters":18800,"station_id":"cpo3532slgdg3j2ikp40","pricing_plan_id":"cebpf4jnsgd1na2vs0mg"},{"bike_id":"ba3b0734-5a43-4efa-ac9e-1a4d104f110e","system_id":"levelo_inurba_marseille","lat":43.28722,"lon":5.3738,"is_reserved":false,"is_disabled":false,"rental_uris":{"android":"levelo://app?vid=ba3b0734-5a43-4efa-ac9e-1a4d104f110e","ios":"levelo://app?vid=ba3b0734-5a43-4efa-ac9e-1a4d104f110e"},"vehicle_type_id":"4","last_reported":1727443035,"current_range_meters":23200,"station_id":"ce4bh3p2rcd13ifvqdq0","pricing_plan_id":"cebpf4jnsgd1na2vs0mg"},{"bike_id":"157307bb-71ef-4f1b-b02d-f21f25cce9e0","system_id":"levelo_inurba_marseille","lat":43.23149,"lon":5.43717,"is_reserved":false,"is_disabled":false,"rental_uris":{"android":"levelo://app?vid=157307bb-71ef-4f1b-b02d-f21f25cce9e0","ios":"levelo://app?vid=157307bb-71ef-4f1b-b02d-f21f25cce9e0"},"vehicle_type_id":"4","last_reported":1727443035,"current_range_meters":19600,"station_id":"ce4bhmp2rcd13ifvqgog","pricing_plan_id":"cebpf4jnsgd1na2vs0mg"},{"bike_id":"886d8de4-8f17-41c8-80a0-eeee1006da73","system_id":"levelo_inurba_marseille","lat":43.28928,"lon":5.36397,"is_reserved":false,"is_disabled":false,"rental_uris":{"android":"levelo://app?vid=886d8de4-8f17-41c8-80a0-eeee1006da73","ios":"levelo://app?vid=886d8de4-8f17-41c8-80a0-eeee1006da73"},"vehicle_type_id":"4","last_reported":1727443035,"current_range_meters":38800,"station_id":"ce4bhc92rcd13ifvqetg","pricing_plan_id":"cebpf4jnsgd1na2vs0mg"},{"bike_id":"e3aff50e-ddb4-4517-97b4-f87c63d7ae6a","system_id":"levelo_inurba_marseille","lat":43.2573,"lon":5.41107,"is_reserved":false,"is_disabled":false,"rental_uris":{"android":"levelo://app?vid=e3aff50e-ddb4-4517-97b4-f87c63d7ae6a","ios":"levelo://app?vid=e3aff50e-ddb4-4517-97b4-f87c63d7ae6a"},"vehicle_type_id":"4","last_reported":1727443035,"current_range_meters":12400,"station_id":"ce4bhkp2rcd13ifvqgd0","pricing_plan_id":"cebpf4jnsgd1na2vs0mg"},{"bike_id":"e70a2377-0863-4621-b694-9205dfda3fe2","system_id":"levelo_inurba_marseille","lat":43.26494,"lon":5.39537,"is_reserved":false,"is_disabled":false,"rental_uris":{"android":"levelo://app?vid=e70a2377-0863-4621-b694-9205dfda3fe2","ios":"levelo://app?vid=e70a2377-0863-4621-b694-9205dfda3fe2"},"vehicle_type_id":"4","last_reported":1727443035,"current_range_meters":2800,"station_id":"ce4bhi12rcd13ifvqfq0","pricing_plan_id":"cebpf4jnsgd1na2vs0mg"},{"bike_id":"ad5cd147-2fcf-4b3d-bb3f-08affe01f67e","system_id":"levelo_inurba_marseille","lat":43.2922,"lon":5.36048,"is_reserved":false,"is_disabled":false,"rental_uris":{"android":"levelo://app?vid=ad5cd147-2fcf-4b3d-bb3f-08affe01f67e","ios":"levelo://app?vid=ad5cd147-2fcf-4b3d-bb3f-08affe01f67e"},"vehicle_type_id":"4","last_reported":1727443035,"current_range_meters":38800,"station_id":"ce4bhbh2rcd13ifvqeqg","pricing_plan_id":"cebpf4jnsgd1na2vs0mg"},{"bike_id":"61b54d7a-a0de-4003-83a7-0c0f42a17447","system_id":"levelo_inurba_marseille","lat":43.29274,"lon":5.36842,"is_reserved":false,"is_disabled":false,"rental_uris":{"android":"levelo://app?vid=61b54d7a-a0de-4003-83a7-0c0f42a17447","ios":"levelo://app?vid=61b54d7a-a0de-4003-83a7-0c0f42a17447"},"vehicle_type_id":"4","last_reported":1727443035,"current_range_meters":27200,"station_id":"ce4bhbp2rcd13ifvqesg","pricing_plan_id":"cebpf4jnsgd1na2vs0mg"},{"bike_id":"039a0dfb-fa3e-4c39-97bd-d89dacf41a04","system_id":"levelo_inurba_marseille","lat":43.31995,"lon":5.38161,"is_reserved":false,"is_disabled":false,"rental_uris":{"android":"levelo://app?vid=039a0dfb-fa3e-4c39-97bd-d89dacf41a04","ios":"levelo://app?vid=039a0dfb-fa3e-4c39-97bd-d89dacf41a04"},"vehicle_type_id":"4","last_reported":1727443035,"current_range_meters":19200,"station_id":"ce4bhr12rcd13ifvqhpg","pricing_plan_id":"cebpf4jnsgd1na2vs0mg"},{"bike_id":"8d1fd845-6620-4e8e-b0da-7db3039db63b","system_id":"levelo_inurba_marseille","lat":43.2668,"lon":5.38265,"is_reserved":false,"is_disabled":false,"rental_uris":{"android":"levelo://app?vid=8d1fd845-6620-4e8e-b0da-7db3039db63b","ios":"levelo://app?vid=8d1fd845-6620-4e8e-b0da-7db3039db63b"},"vehicle_type_id":"4","last_reported":1727443035,"current_range_meters":38800,"station_id":"ce4bhg92rcd13ifvqf90","pricing_plan_id":"cebpf4jnsgd1na2vs0mg"},