{"last_updated":1744060160,"ttl":60,"version":"2.2","data":{"bikes":[{"bike_id":"eb79d1f9-7c91-4ea2-b5f8-796189743e1a","system_id":"levelo_inurba_marseille","lat":43.34267,"lon":5.38086,"is_reserved":false,"is_disabled":false,"rental_uris":{"android":"levelo://app?vid=eb79d1f9-7c91-4ea2-b5f8-796189743e1a","ios":"levelo://app?vid=eb79d1f9-7c91-4ea2-b5f8-796189743e1a"},"vehicle_type_id":"4","last_reported":1744060160,"current_range_meters":2800,"station_id":"","pricing_plan_id":"cebpf4jnsgd1na2vs0mg"},{"bike_id":"46aaf249-f504-46ae-93ce-7245839b78b5","system_id":"levelo_inurba_marseille","lat":43.26198,"lon":5.37917,"is_reserved":false,"is_disabled":true,"rental_uris":{"android":"levelo://app?vid=46aaf249-f504-46ae-93ce-7245839b78b5","ios":"levelo://app?vid=46aaf249-f504-46ae-93ce-7245839b78b5"},"vehicle_type_id":"4","last_reported":1744060160,"current_range_meters":2800,"station_id":"ce4bhjp2rcd13ifvqg90","pricing_plan_id":"cebpf4jnsgd1na2vs0mg"},{"bike_id":"655de01b-7e70-4bf7-b458-37e1d363d717","system_id":"levelo_inurba_marseille","lat":43.243906,"lon":5.370613,"is_reserved":false,"is_disabled":true,"rental_uris":{"android":"levelo://app?vid=655de01b-7e70-4bf7-b458-37e1d363d717","ios":"levelo://app?vid=655de01b-7e70-4bf7-b458-37e1d363d717"},"vehicle_type_id":"4","last_reported":1744060160,"current_range_meters":2800,"station_id":"ce4bhhh2rcd13ifvqfk0","pricing_plan_id":"cebpf4jnsgd1na2vs0mg"},{"bike_id":"74929c77-3078-412f-a915-a401a00427dc","system_id":"levelo_inurba_marseille","lat":43.28615,"lon":5.35104,"is_reserved":false,"is_disabled":false,"rental_uris":{"android":"levelo://app?vid=74929c77-3078-412f-a915-a401a00427dc","ios":"levelo://app?vid=74929c77-3078-412f-a915-a401a00427dc"},"vehicle_type_id":"4","last_reported":1744060160,"current_range_meters":2800,"station_id":"ce4bhch2rcd13ifvqeug","pricing_plan_id":"cebpf4jnsgd1na2vs0mg"},{"bike_id":"5d313498-0c3a-4518-90f1-dc0522884fbd","system_id":"levelo_inurba_marseille","lat":43.32286,"lon":5.38278,"is_reserved":false,"is_disabled":false,"rental_uris":{"android":"levelo://app?vid=5d313498-0c3a-4518-90f1-dc0522884fbd","ios":"levelo://app?vid=5d313498-0c3a-4518-90f1-dc0522884fbd"},"vehicle_type_id":"4","last_reported":1744060160,"current_range_meters":2800,"station_id":"ce4bhr12rcd13ifvqhqg","pricing_plan_id":"cebpf4jnsgd1na2vs0mg"},{"bike_id":"82bc6da8-0c0a-478d-b61d-2a40dba364a6","system_id":"levelo_inurba_marseille","lat":43.28666,"lon":5.38662,"is_reserved":false,"is_disabled":false,"rental_uris":{"android":"levelo://app?vid=82bc6da8-0c0a-478d-b61d-2a40dba364a6","ios":"levelo://app?vid=82bc6da8-0c0a-478d-b61d-2a40dba364a6"},"vehicle_type_id":"4","last_reported":1744060160,"current_range_meters":2000,"station_id":"ce4bh492rcd13ifvqdug","pricing_plan_id":"cebpf4jnsgd1na2vs0mg"},{"bike_id":"a95701a4-f816-4d17-9fa1-324398a0d5b6","system_id":"levelo_inurba_marseille","lat":43.30237,"lon":5.40047,"is_reserved":false,"is_disabled":true,"rental_uris":{"android":"levelo://app?vid=a95701a4-f816-4d17-9fa1-324398a0d5b6","ios":"levelo://app?vid=a95701a4-f816-4d17-9fa1-324398a0d5b6"},"vehicle_type_id":"4","last_reported":1744060160,"current_range_meters":2800,"station_id":"ce4bgvh2rcd13ifvqcs0","pricing_plan_id":"cebpf4jnsgd1na2vs0mg"},{"bike_id":"43dae4b5-a23f-4b28-97e6-93280573ec6a","system_id":"levelo_inurba_marseille","lat":43.2959,"lon":5.38108,"is_reserved":false,"is_disabled":true,"rental_uris":{"android":"levelo://app?vid=43dae4b5-a23f-4b28-97e6-93280573ec6a","ios":"levelo://app?vid=43dae4b5-a23f-4b28-97e6-93280573ec6a"},"vehicle_type_id":"4","last_reported":1744060160,"current_range_meters":3200,"station_id":"ce4bgl12rcd13ifvqbo0","pricing_plan_id":"cebpf4jnsgd1na2vs0mg"},{"bike_id":"eaa0040e-3fef-4a77-8b61-098c97496083","system_id":"levelo_inurba_marseille","lat":43.30252,"lon":5.40089,"is_reserved":false,"is_disabled":false,"rental_uris":{"android":"levelo://app?vid=eaa0040e-3fef-4a77-8b61-098c97496083","ios":"levelo://app?vid=eaa0040e-3fef-4a77-8b61-098c97496083"},"vehicle_type_id":"4","last_reported":1744060160,"current_range_meters":3600,"station_id":"ce4bgvh2rcd13ifvqcs0","pricing_plan_id":"cebpf4jnsgd1na2vs0mg"},{"bike_id":"fdcd27be-cdd3-4a3c-b794-5a3d1dee352c","system_id":"levelo_inurba_marseille","lat":43.305243,"lon":5.367183,"is_reserved":false,"is_disabled":false,"rental_uris":{"android":"levelo://app?vid=fdcd27be-cdd3-4a3c-b794-5a3d1dee352c","ios":"levelo://app?vid=fdcd27be-cdd3-4a3c-b794-5a3d1dee352c"},"vehicle_type_id":"4","last_reported":1744060160,"current_range_meters":3600,"station_id":"ce4bgrp2rcd13ifvqc9g","pricing_plan_id":"cebpf4jnsgd1na2vs0mg"},{"bike_id":"d8f246d4-63b0-40ac-97f8-ab32d9b8478c","system_id":"levelo_inurba_marseille","lat":43.27374,"lon":5.36248,"is_reserved":false,"is_disabled":true,"rental_uris":{"android":"levelo://app?vid=d8f246d4-63b0-40ac-97f8-ab32d9b8478c","ios":"levelo://app?vid=d8f246d4-63b0-40ac-97f8-ab32d9b8478c"},"vehicle_type_id":"4","last_reported":1744060160,"current_range_meters":3600,"station_id":"ce4bhbh2rcd13ifvqeo0","pricing_plan_id":"cebpf4jnsgd1na2vs0mg"},{"bike_id":"f5d4db43-3a12-4756-9a95-baab6e0e7313","system_id":"levelo_inurba_marseille","lat":43.23955,"lon":5.36629,"is_reserved":false,"is_disabled":false,"rental_uris":{"android":"levelo://app?vid=f5d4db43-3a12-4756-9a95-baab6e0e7313","ios":"levelo://app?vid=f5d4db43-3a12-4756-9a95-baab6e0e7313"},"vehicle_type_id":"4","last_reported":1744060160,"current_range_meters":4400,"station_id":"ce4bhi12rcd13ifvqfp0","pricing_plan_id":"cebpf4jnsgd1na2vs0mg"},{"bike_id":"2607cbcb-f01f-4a18-a84e-704e99a9c241","system_id":"levelo_inurba_marseille","lat":43.25103,"lon":5.40361,"is_reserved":false,"is_disabled":false,"rental_uris":{"android":"levelo://app?vid=2607cbcb-f01f-4a18-a84e-704e99a9c241","ios":"levelo://app?vid=2607cbcb-f01f-4a18-a84e-704e99a9c241"},"vehicle_type_id":"4","last_reported":1744060160,"current_range_meters":4800,"station_id":"ce4bhlh2rcd13ifvqgig","pricing_plan_id":"cebpf4jnsgd1na2vs0mg"},{"bike_id":"2fbe95f8-0851-44e4-971f-1fc476136b20","system_id":"levelo_inurba_marseille","lat":43.30427,"lon":5.38891,"is_reserved":false,"is_disabled":false,"rental_uris":{"android":"levelo://app?vid=2fbe95f8-0851-44e4-971f-1fc476136b20","ios":"levelo://app?vid=2fbe95f8-0851-44e4-971f-1fc476136b20"},"vehicle_type_id":"4","last_reported":1744060160,"current_range_meters":4800,"station_id":"ce4bgk12rcd13ifvqbi0","pricing_plan_id":"cebpf4jnsgd1na2vs0mg"},{"bike_id":"f3a82a8f-9c35-45c4-ba4d-a07bdb15f8b5","system_id":"levelo_inurba_marseille","lat":43.33157,"lon":5.41057,"is_reserved":false,"is_disabled":false,"rental_uris":{"android":"levelo://app?vid=f3a82a8f-9c35-45c4-ba4d-a07bdb15f8b5","ios":"levelo://app?vid=f3a82a8f-9c35-45c4-ba4d-a07bdb15f8b5"},"vehicle_type_id":"4","last_reported":1744060160,"current_range_meters":4800,"station_id":"","pricing_plan_id":"cebpf4jnsgd1na2vs0mg"},{"bike_id":"d7c6ccbc-618b-4a93-9d83-c38e89f52322","system_id":"levelo_inurba_marseille","lat":43.30306,"lon":5.36898,"is_reserved":false,"is_disabled":false,"rental_uris":{"android":"levelo://app?vid=d7c6ccbc-618b-4a93-9d83-c38e89f52322","ios":"levelo://app?vid=d7c6ccbc-618b-4a93-9d83-c38e89f52322"},"vehicle_type_id":"4","last_reported":1744060160,"current_range_meters":4800,"station_id":"ce4bgqh2rcd13ifvqc5g","pricing_plan_id":"cebpf4jnsgd1na2vs0mg"},{"bike_id":"bec659b1-2ddb-41bf-9e2d-39084f6c1a4a","system_id":"levelo_inurba_marseille","lat":43.31715,"lon":5.4241,"is_reserved":false,"is_disabled":false,"rental_uris":{"android":"levelo://app?vid=bec659b1-2ddb-41bf-9e2d-39084f6c1a4a","ios":"levelo://app?vid=bec659b1-2ddb-41bf-9e2d-39084f6c1a4a"},"vehicle_type_id":"4","last_reported":1744060160,"current_range_meters":4800,"station_id":"ce4bhp92rcd13ifvqhbg","pricing_plan_id":"cebpf4jnsgd1na2vs0mg"},{"bike_id":"18f9b0cf-18d0-4512-bc89-9d7ed885676f","system_id":"levelo_inurba_marseille","lat":43.28566,"lon":5.39492,"is_reserved":false,"is_disabled":false,"rental_uris":{"android":"levelo://app?vid=18f9b0cf-18d0-4512-bc89-9d7ed885676f","ios":"levelo://app?vid=18f9b0cf-18d0-4512-bc89-9d7ed885676f"},"vehicle_type_id":"4","last_reported":1744060160,"current_range_meters":4800,"station_id":"ce4bh292rcd13ifvqdg0","pricing_plan_id":"cebpf4jnsgd1na2vs0mg"},{"bike_id":"f85929bf-8ce3-4f64-9a38-f6ea21d51d14","system_id":"levelo_inurba_marseille","lat":43.28007,"lon":5.36913,"is_reserved":false,"is_disabled":false,"rental_uris":{"android":"levelo://app?vid=f85929bf-8ce3-4f64-9a38-f6ea21d51d14","ios":"levelo://app?vid=f85929bf-8ce3-4f64-9a38-f6ea21d51d14"},"vehicle_type_id":"4","last_reported":1744060160,"current_range_meters":5600,"station_id":"ce4bha12rcd13ifvqef0","pricing_plan_id":"cebpf4jnsgd1na2vs0mg"},{"bike_id":"bda28d1e-0f84-474d-a739-6c6b9ce16d63","system_id":"levelo_inurba_marseille","lat":43.27058,"lon":5.42294,"is_reserved":false,"is_disabled":false,"rental_uris":{"android":"levelo://app?vid=bda28d1e-0f84-474d-a739-6c6b9ce16d63","ios":"levelo://app?vid=bda28d1e-0f84-474d-a739-6c6b9ce16d63"},"vehicle_type_id":"4","last_reported":1744060160,"current_range_meters":5600,"station_id":"ce4bhk92rcd13ifvqgb0","pricing_plan_id":"cebpf4jnsgd1na2vs0mg"},{"bike_id":"00393ee2-317d-4e98-a30d-fd25773ef49f","system_id":"levelo_inurba_marseille","lat":43.3522,"lon":5.35779,"is_reserved":false,"is_disabled":false,"rental_uris":{"android":"levelo://app?vid=00393ee2-317d-4e98-a30d-fd25773ef49f","ios":"levelo://app?vid=00393ee2-317d-4e98-a30d-fd25773ef49f"},"vehicle_type_id":"4","last_reported":1744060160,"current_range_meters":6000,"station_id":"","pricing_plan_id":"cebpf4jnsgd1na2vs0mg"},{"bike_id":"aba5e844-f429-4fca-8fbd-34616f5265a2","system_id":"levelo_inurba_marseille","lat":43.28166,"lon":5.4265,"is_reserved":false,"is_disabled":false,"rental_uris":{"android":"levelo://app?vid=aba5e844-f429-4fca-8fbd-34616f5265a2","ios":"levelo://app?vid=aba5e844-f429-4fca-8fbd-34616f5265a2"},"vehicle_type_id":"4","last_reported":1744060160,"current_range_meters":6000,"station_id":"ce4bhnh2rcd13ifvqgug","pricing_plan_id":"cebpf4jnsgd1na2vs0mg"},{"bike_id":"b29aff3b-6390-4b57-b2d8-2d4f62df2edc","system_id":"levelo_inurba_marseille","lat":43.28155,"lon":5.4264,"is_reserved":false,"is_disabled":false,"rental_uris":{"android":"levelo://app?vid=b29aff3b-6390-4b57-b2d8-2d4f62df2edc","ios":"levelo://app?vid=b29aff3b-6390-4b57-b2d8-2d4f62df2edc"},"vehicle_type_id":"4","last_reported":1744060160,"current_range_meters":6000,"station_id":"ce4bhnh2rcd13ifvqgug","pricing_plan_id":"cebpf4jnsgd1na2vs0mg"},{"bike_id":"40d2f783-fcea-4182-86f8-dc6ff1df2372","system_id":"levelo_inurba_marseille","lat":43.24659,"lon":5.38896,"is_reserved":false,"is_disabled":false,"rental_uris":{"android":"levelo://app?vid=40d2f783-fcea-4182-86f8-dc6ff1df2372","ios":"levelo://app?vid=40d2f783-fcea-4182-86f8-dc6ff1df2372"},"vehicle_type_id":"4","last_reported":1744060160,"current_range_meters":6000,"station_id":"ce4bhg12rcd13ifvqf60","pricing_plan_id":"cebpf4jnsgd1na2vs0mg"},{"bike_id":"136b6e45-ee21-453e-aa22-e07947db9071","system_id":"levelo_inurba_marseille","lat":43.231556,"lon":5.43698,"is_reserved":false,"is_disabled":true,"rental_uris":{"android":"levelo://app?vid=136b6e45-ee21-453e-aa22-e07947db9071","ios":"levelo://app?vid=136b6e45-ee21-453e-aa22-e07947db9071"},"vehicle_type_id":"4","last_reported":1744060160,"current_range_meters":6000,"station_id":"ce4bhmp2rcd13ifvqgog","pricing_plan_id":"cebpf4jnsgd1na2vs0mg"},{"bike_id":"b7723d15-4b7a-4e2a-8a3e-0a66051f1876","system_id":"levelo_inurba_marseille","lat":43.26804,"lon":5.40256,"is_reserved":false,"is_disabled":false,"rental_uris":{"android":"levelo://app?vid=b7723d15-4b7a-4e2a-8a3e-0a66051f1876","ios":"levelo://app?vid=b7723d15-4b7a-4e2a-8a3e-0a66051f1876"},"vehicle_type_id":"4","last_reported":1744060160,"current_range_meters":6400,"station_id":"ce501612rcd8frsf0b60","pricing_plan_id":"cebpf4jnsgd1na2vs0mg"},{"bike_id":"351b921a-1463-4cf6-859d-ca5bd51a6e76","system_id":"levelo_inurba_marseille","lat":43.31793,"lon":5.36803,"is_reserved":false,"is_disabled":false,"rental_uris":{"android":"levelo://app?vid=351b921a-1463-4cf6-859d-ca5bd51a6e76","ios":"levelo://app?vid=351b921a-1463-4cf6-859d-ca5bd51a6e76"},"vehicle_type_id":"4","last_reported":1744060160,"current_range_meters":6800,"station_id":"","pricing_plan_id":"cebpf4jnsgd1na2vs0mg"},{"bike_id":"7c33950e-6814-43ff-99af-bcd2af9f75d1","system_id":"levelo_inurba_marseille","lat":43.29266,"lon":5.38406,"is_reserved":false,"is_disabled":false,"rental_uris":{"android":"levelo://app?vid=7c33950e-6814-43ff-99af-bcd2af9f75d1","ios":"levelo://app?vid=7c33950e-6814-43ff-99af-bcd2af9f75d1"},"vehicle_type_id":"4","last_reported":1744060160,"current_range_meters":6800,"station_id":"ce4bh692rcd13ifvqea0","pricing_plan_id":"cebpf4jnsgd1na2vs0mg"},{"bike_id":"5429fe57-4107-4d4b-bceb-36d8ad9d0e82","system_id":"levelo_inurba_marseille","lat":43.30877,"lon":5.39643,"is_reserved":false,"is_disabled":false,"rental_uris":{"android":"levelo://app?vid=5429fe57-4107-4d4b-bceb-36d8ad9d0e82","ios":"levelo://app?vid=5429fe57-4107-4d4b-bceb-36d8ad9d0e82"},"vehicle_type_id":"4","last_reported":1744060160,"current_range_meters":7200,"station_id":"ce4bh012rcd13ifvqcv0","pricing_plan_id":"cebpf4jnsgd1na2vs0mg"},{"bike_id":"79ab7e2b-c8a0-4086-a8e4-f12e17aa0560","system_id":"levelo_inurba_marseille","lat":43.30286,"lon":5.37132,"is_reserved":false,"is_disabled":false,"rental_uris":{"android":"levelo://app?vid=79ab7e2b-c8a0-4086-a8e4-f12e17aa0560","ios":"levelo://app?vid=79ab7e2b-c8a0-4086-a8e4-f12e17aa0560"},"vehicle_type_id":"4","last_reported":1744060160,"current_range_meters":7200,"station_id":"","pricing_plan_id":"cebpf4jnsgd1na2vs0mg"},{"bike_id":"c3e6d442-6282-4c88-9f90-93d85aff9e76","system_id":"levelo_inurba_marseille","lat":43.28165,"lon":5.42647,"is_reserved":false,"is_disabled":false,"rental_uris":{"android":"levelo://app?vid=c3e6d442-6282-4c88-9f90-93d85aff9e76","ios":"levelo://app?vid=c3e6d442-6282-4c88-9f90-93d85aff9e76"},"vehicle_type_id":"4","last_reported":1744060160,"current_range_meters":7200,"station_id":"ce4bhnh2rcd13ifvqgug","pricing_plan_id":"cebpf4jnsgd1na2vs0mg"},{"bike_id":"0d1b8bd3-1521-4a9a-adb5-40c43d19c6fb","system_id":"levelo_inurba_marseille","lat":43.295331,"lon":5.385486,"is_reserved":false,"is_disabled":false,"rental_uris":{"android":"levelo://app?vid=0d1b8bd3-1521-4a9a-adb5-40c43d19c6fb","ios":"levelo://app?vid=0d1b8bd3-1521-4a9a-adb5-40c43d19c6fb"},"vehicle_type_id":"4","last_reported":1744060160,"current_range_meters":8000,"station_id":"ce4bgih2rcd13ifvqba0","pricing_plan_id":"cebpf4jnsgd1na2vs0mg"},{"bike_id":"9ca4f843-dcad-4f45-8d26-7c4dac79f76c","system_id":"levelo_inurba_marseille","lat":43.29908,"lon":5.3815,"is_reserved":false,"is_disabled":false,"rental_uris":{"android":"levelo://app?vid=9ca4f843-dcad-4f45-8d26-7c4dac79f76c","ios":"levelo://app?vid=9ca4f843-dcad-4f45-8d26-7c4dac79f76c"},"vehicle_type_id":"4","last_reported":1744060160,"current_range_meters":8000,"station_id":"ce4bgj12rcd13ifvqbc0","pricing_plan_id":"cebpf4jnsgd1na2vs0mg"},{"bike_id":"8a38320c-a733-4cf5-8c8e-152497fe8f8f","system_id":"levelo_inurba_marseille","lat":43.28162,"lon":5.42632,"is_reserved":false,"is_disabled":false,"rental_uris":{"android":"levelo://app?vid=8a38320c-a733-4cf5-8c8e-152497fe8f8f","ios":"levelo://app?vid=8a38320c-a733-4cf5-8c8e-152497fe8f8f"},"vehicle_type_id":"4","last_reported":1744060160,"current_range_meters":8000,"station_id":"ce4bhnh2rcd13ifvqgug","pricing_plan_id":"cebpf4jnsgd1na2vs0mg"},{"bike_id":"6b770536-e0ee-4074-a4d5-7fac1065bae9","system_id":"levelo_inurba_marseille","lat":43.33727,"lon":5.39185,"is_reserved":false,"is_disabled":false,"rental_uris":{"android":"levelo://app?vid=6b770536-e0ee-4074-a4d5-7fac1065bae9","ios":"levelo://app?vid=6b770536-e0ee-4074-a4d5-7fac1065bae9"},"vehicle_type_id":"4","last_reported":1744060160,"current_range_meters":8000,"station_id":"ce4bhr92rcd13ifvqhsg","pricing_plan_id":"cebpf4jnsgd1na2vs0mg"},{"bike_id":"a959694d-18ce-4d80-917f-23c91ed81065","system_id":"levelo_inurba_marseille","lat":43.29905,"lon":5.4367,"is_reserved":false,"is_disabled":false,"rental_uris":{"android":"levelo://app?vid=a959694d-18ce-4d80-917f-23c91ed81065","ios":"levelo://app?vid=a959694d-18ce-4d80-917f-23c91ed81065"},"vehicle_type_id":"4","last_reported":1744060160,"current_range_meters":8000,"station_id":"ce4bhpp2rcd13ifvqhfg","pricing_plan_id":"cebpf4jnsgd1na2vs0mg"},{"bike_id":"516d1131-8d22-4c00-9743-8f8296b9be79","system_id":"levelo_inurba_marseille","lat":43.25491,"lon":5.37644,"is_reserved":false,"is_disabled":true,"rental_uris":{"android":"levelo://app?vid=516d1131-8d22-4c00-9743-8f8296b9be79","ios":"levelo://app?vid=516d1131-8d22-4c00-9743-8f8296b9be79"},"vehicle_type_id":"4","last_reported":1744060160,"current_range_meters":8000,"station_id":"ce4bhh12rcd13ifvqff0","pricing_plan_id":"cebpf4jnsgd1na2vs0mg"},{"bike_id":"73276e73-379c-4215-bfe8-0a4cdf26f8fb","system_id":"levelo_inurba_marseille","lat":43.27362,"lon":5.36228,"is_reserved":false,"is_disabled":true,"rental_uris":{"android":"levelo://app?vid=73276e73-379c-4215-bfe8-0a4cdf26f8fb","ios":"levelo://app?vid=73276e73-379c-4215-bfe8-0a4cdf26f8fb"},"vehicle_type_id":"4","last_reported":1744060160,"current_range_meters":8000,"station_id":"ce4bhbh2rcd13ifvqeo0","pricing_plan_id":"cebpf4jnsgd1na2vs0mg"},{"bike_id":"2f09e351-1fd4-46fd-aaf9-3fc007187281","system_id":"levelo_inurba_marseille","lat":43.30662,"lon":5.40075,"is_reserved":false,"is_disabled":false,"rental_uris":{"android":"levelo://app?vid=2f09e351-1fd4-46fd-aaf9-3fc007187281","ios":"levelo://app?vid=2f09e351-1fd4-46fd-aaf9-3fc007187281"},"vehicle_type_id":"4","last_reported":1744060160,"current_range_meters":8000,"station_id":"ce4bh112rcd13ifvqda0","pricing_plan_id":"cebpf4jnsgd1na2vs0mg"},{"bike_id":"70234b52-bc3d-48f7-a795-85c45f7b3313","system_id":"levelo_inurba_marseille","lat":43.30437,"lon":5.3887,"is_reserved":false,"is_disabled":false,"rental_uris":{"android":"levelo://app?vid=70234b52-bc3d-48f7-a795-85c45f7b3313","ios":"levelo://app?vid=70234b52-bc3d-48f7-a795-85c45f7b3313"},"vehicle_type_id":"4","last_reported":1744060160,"current_range_meters":8000,"station_id":"ce4bgk12rcd13ifvqbi0","pricing_plan_id":"cebpf4jnsgd1na2vs0mg"},{"bike_id":"72e975c9-40e9-4bdf-ad82-c634b1377ed7","system_id":"levelo_inurba_marseille","lat":43.278303,"lon":5.392072,"is_reserved":false,"is_disabled":false,"rental_uris":{"android":"levelo://app?vid=72e975c9-40e9-4bdf-ad82-c634b1377ed7","ios":"levelo://app?vid=72e975c9-40e9-4bdf-ad82-c634b1377ed7"},"vehicle_type_id":"4","last_reported":1744060160,"current_range_meters":8000,"station_id":"ce4bhjp2rcd13ifvqga0","pricing_plan_id":"cebpf4jnsgd1na2vs0mg"},{"bike_id":"454ad229-ae8c-47df-9402-1bfe4abd3acd","system_id":"levelo_inurba_marseille","lat":43.28171,"lon":5.42722,"is_reserved":false,"is_disabled":false,"rental_uris":{"android":"levelo://app?vid=454ad229-ae8c-47df-9402-1bfe4abd3acd","ios":"levelo://app?vid=454ad229-ae8c-47df-9402-1bfe4abd3acd"},"vehicle_type_id":"4","last_reported":1744060160,"current_range_meters":8000,"station_id":"","pricing_plan_id":"cebpf4jnsgd1na2vs0mg"},{"bike_id":"6e709287-51f5-4b86-9919-91a2017a2a00","system_id":"levelo_inurba_marseille","lat":43.29253,"lon":5.38434,"is_reserved":false,"is_disabled":false,"rental_uris":{"android":"levelo://app?vid=6e709287-51f5-4b86-9919-91a2017a2a00","ios":"levelo://app?vid=6e709287-51f5-4b86-9919-91a2017a2a00"},"vehicle_type_id":"4","last_reported":1744060160,"current_range_meters":8400,"station_id":"ce4bh692rcd13ifvqea0","pricing_plan_id":"cebpf4jnsgd1na2vs0mg"},{"bike_id":"6ebe9ec3-b74c-497b-aa8c-e68d0877c617","system_id":"levelo_inurba_marseille","lat":43.25114,"lon":5.40337,"is_reserved":false,"is_disabled":false,"rental_uris":{"android":"levelo://app?vid=6ebe9ec3-b74c-497b-aa8c-e68d0877c617","ios":"levelo://app?vid=6ebe9ec3-b74c-497b-aa8c-e68d0877c617"},"vehicle_type_id":"4","last_reported":1744060160,"current_range_meters":8400,"station_id":"ce4bhlh2rcd13ifvqgig","pricing_plan_id":"cebpf4jnsgd1na2vs0mg"},{"bike_id":"ebc84582-195b-4b4a-b4a4-256c36fe0b00","system_id":"levelo_inurba_marseille","lat":43.27071,"lon":5.42271,"is_reserved":false,"is_disabled":false,"rental_uris":{"android":"levelo://app?vid=ebc84582-195b-4b4a-b4a4-256c36fe0b00","ios":"levelo://app?vid=ebc84582-195b-4b4a-b4a4-256c36fe0b00"},"vehicle_type_id":"4","last_reported":1744060160,"current_range_meters":8400,"station_id":"ce4bhk92rcd13ifvqgb0","pricing_plan_id":"cebpf4jnsgd1na2vs0mg"},{"bike_id":"755acd57-59ea-49ed-ad6a-698107bd5c37","system_id":"levelo_inurba_marseille","lat":43.323574,"lon":5.367541,"is_reserved":false,"is_disabled":false,"rental_uris":{"android":"levelo://app?vid=755acd57-59ea-49ed-ad6a-698107bd5c37","ios":"levelo://app?vid=755acd57-59ea-49ed-ad6a-698107bd5c37"},"vehicle_type_id":"4","last_reported":1744060160,"current_range_meters":8400,"station_id":"ce4bhsh2rcd13ifvqi2g","pricing_plan_id":"cebpf4jnsgd1na2vs0mg"},{"bike_id":"f3b83e8a-c65f-4f5d-8899-2b84c089f530","system_id":"levelo_inurba_marseille","lat":43.32126,"lon":5.36771,"is_reserved":false,"is_disabled":false,"rental_uris":{"android":"levelo://app?vid=f3b83e8a-c65f-4f5d-8899-2b84c089f530","ios":"levelo://app?vid=f3b83e8a-c65f-4f5d-8899-2b84c089f530"},"vehicle_type_id":"4","last_reported":1744060160,"current_range_meters":8400,"station_id":"ce4bhrh2rcd13ifvqhug","pricing_plan_id":"cebpf4jnsgd1na2vs0mg"},{"bike_id":"6f0c8a80-7e89-4863-a8d6-f84e65c261ef","system_id":"levelo_inurba_marseille","lat":43.27201,"lon":5.40973,"is_reserved":false,"is_disabled":false,"rental_uris":{"android":"levelo://app?vid=6f0c8a80-7e89-4863-a8d6-f84e65c261ef","ios":"levelo://app?vid=6f0c8a80-7e89-4863-a8d6-f84e65c261ef"},"vehicle_type_id":"4","last_reported":1744060160,"current_range_meters":8400,"station_id":"ce4bhl12rcd13ifvqgf0","pricing_plan_id":"cebpf4jnsgd1na2vs0mg"},{"bike_id":"de9994e1-5fb8-47ad-9857-ba1fa507007f","system_id":"levelo_inurba_marseille","lat":43.29446,"lon":5.397586,"is_reserved":false,"is_disabled":false,"rental_uris":{"android":"levelo://app?vid=de9994e1-5fb8-47ad-9857-ba1fa507007f","ios":"levelo://app?vid=de9994e1-5fb8-47ad-9857-ba1fa507007f"},"vehicle_type_id":"4","last_reported":1744060160,"current_range_meters":8400,"station_id":"ce4bh3h2rcd13ifvqdo0","pricing_plan_id":"cebpf4jnsgd1na2vs0mg"},{"bike_id":"9972aee6-4470-443a-8e14-c2078bb91c0d","system_id":"levelo_inurba_marseille","lat":43.31203,"lon":5.37119,"is_reserved":false,"is_disabled":false,"rental_uris":{"android":"levelo://app?vid=9972aee6-4470-443a-8e14-c2078bb91c0d","ios":"levelo://app?vid=9972aee6-4470-443a-8e14-c2078bb91c0d"},"vehicle_type_id":"4","last_reported":1744060160,"current_range_meters":8400,"station_id":"","pricing_plan_id":"cebpf4jnsgd1na2vs0mg"},{"bike_id":"e223670b-5545-4017-934f-c2adf2f3c08b","system_id":"levelo_inurba_marseille","lat":43.27046,"lon":5.42279,"is_reserved":false,"is_disabled":false,"rental_uris":{"android":"levelo://app?vid=e223670b-5545-4017-934f-c2adf2f3c08b","ios":"levelo://app?vid=e223670b-5545-4017-934f-c2adf2f3c08b"},"vehicle_type_id":"4","last_reported":1744060160,"current_range_meters":8400,"station_id":"ce4bhk92rcd13ifvqgb0","pricing_plan_id":"cebpf4jnsgd1na2vs0mg"},{"bike_id":"7ae1c95c-1e2c-400a-8efd-618212ebe707","system_id":"levelo_inurba_marseille","lat":43.3154,"lon":5.380474,"is_reserved":false,"is_disabled":false,"rental_uris":{"android":"levelo://app?vid=7ae1c95c-1e2c-400a-8efd-618212ebe707","ios":"levelo://app?vid=7ae1c95c-1e2c-400a-8efd-618212ebe707"},"vehicle_type_id":"4","last_reported":1744060160,"current_range_meters":8400,"station_id":"ce4bhsp2rcd13ifvqi50","pricing_plan_id":"cebpf4jnsgd1na2vs0mg"},{"bike_id":"21ad2b20-e326-40c8-a3d6-b2092488dc26","system_id":"levelo_inurba_marseille","lat":43.24403,"lon":5.37017,"is_reserved":false,"is_disabled":false,"rental_uris":{"android":"levelo://app?vid=21ad2b20-e326-40c8-a3d6-b2092488dc26","ios":"levelo://app?vid=21ad2b20-e326-40c8-a3d6-b2092488dc26"},"vehicle_type_id":"4","last_reported":1744060160,"current_range_meters":8400,"station_id":"ce4bhhh2rcd13ifvqfk0","pricing_plan_id":"cebpf4jnsgd1na2vs0mg"},{"bike_id":"a5353134-0495-4e2a-a638-32c608b90f0c","system_id":"levelo_inurba_marseille","lat":43.31329,"lon":5.39706,"is_reserved":false,"is_disabled":false,"rental_uris":{"android":"levelo://app?vid=a5353134-0495-4e2a-a638-32c608b90f0c","ios":"levelo://app?vid=a5353134-0495-4e2a-a638-32c608b90f0c"},"vehicle_type_id":"4","last_reported":1744060160,"current_range_meters":8400,"station_id":"ce4bgvp2rcd13ifvqcu0","pricing_plan_id":"cebpf4jnsgd1na2vs0mg"},{"bike_id":"e78e46d5-8781-431b-806f-60cfda2c5861","system_id":"levelo_inurba_marseille","lat":43.28567,"lon":5.39495,"is_reserved":false,"is_disabled":false,"rental_uris":{"android":"levelo://app?vid=e78e46d5-8781-431b-806f-60cfda2c5861","ios":"levelo://app?vid=e78e46d5-8781-431b-806f-60cfda2c5861"},"vehicle_type_id":"4","last_reported":1744060160,"current_range_meters":8400,"station_id":"ce4bh292rcd13ifvqdg0","pricing_plan_id":"cebpf4jnsgd1na2vs0mg"},{"bike_id":"87bda883-ac94-49fc-94c2-3a86e52b4f97","system_id":"levelo_inurba_marseille","lat":43.30723,"lon":5.38351,"is_reserved":false,"is_disabled":false,"rental_uris":{"android":"levelo://app?vid=87bda883-ac94-49fc-94c2-3a86e52b4f97","ios":"levelo://app?vid=87bda883-ac94-49fc-94c2-3a86e52b4f97"},"vehicle_type_id":"4","last_reported":1744060160,"current_range_meters":8800,"station_id":"","pricing_plan_id":"cebpf4jnsgd1na2vs0mg"},{"bike_id":"71087a5b-02b6-4a46-932a-009561f906a3","system_id":"levelo_inurba_marseille","lat":43.2894,"lon":5.36627,"is_reserved":false,"is_disabled":true,"rental_uris":{"android":"levelo://app?vid=71087a5b-02b6-4a46-932a-009561f906a3","ios":"levelo://app?vid=71087a5b-02b6-4a46-932a-009561f906a3"},"vehicle_type_id":"4","last_reported":1744060160,"current_range_meters":8800,"station_id":"ce4bhap2rcd13ifvqek0","pricing_plan_id":"cebpf4jnsgd1na2vs0mg"},{"bike_id":"4e63bc7f-b907-45ea-bc67-f61c9be2b9d6","system_id":"levelo_inurba_marseille","lat":43.2997,"lon":5.38515,"is_reserved":false,"is_disabled":true,"rental_uris":{"android":"levelo://app?vid=4e63bc7f-b907-45ea-bc67-f61c9be2b9d6","ios":"levelo://app?vid=4e63bc7f-b907-45ea-bc67-f61c9be2b9d6"},"vehicle_type_id":"4","last_reported":1744060160,"current_range_meters":8800,"station_id":"ce4bgj92rcd13ifvqbd0","pricing_plan_id":"cebpf4jnsgd1na2vs0mg"},{"bike_id":"23f348ed-c392-42a5-8d99-4feb7e18e1d2","system_id":"levelo_inurba_marseille","lat":43.28418,"lon":5.34993,"is_reserved":false,"is_disabled":false,"rental_uris":{"android":"levelo://app?vid=23f348ed-c392-42a5-8d99-4feb7e18e1d2","ios":"levelo://app?vid=23f348ed-c392-42a5-8d99-4feb7e18e1d2"},"vehicle_type_id":"4","last_reported":1744060160,"current_range_meters":8800,"station_id":"ce4bhbh2rcd13ifvqepg","pricing_plan_id":"cebpf4jnsgd1na2vs0mg"},{"bike_id":"7432829c-8876-45ee-85f5-6875ee472c95","system_id":"levelo_inurba_marseille","lat":43.26685,"lon":5.38272,"is_reserved":false,"is_disabled":false,"rental_uris":{"android":"levelo://app?vid=7432829c-8876-45ee-85f5-6875ee472c95","ios":"levelo://app?vid=7432829c-8876-45ee-85f5-6875ee472c95"},"vehicle_type_id":"4","last_reported":1744060160,"current_range_meters":8800,"station_id":"ce4bhg92rcd13ifvqf90","pricing_plan_id":"cebpf4jnsgd1na2vs0mg"},{"bike_id":"d172a948-5b54-446c-9325-17335baba5c1","system_id":"levelo_inurba_marseille","lat":43.29354,"lon":5.37874,"is_reserved":false,"is_disabled":true,"rental_uris":{"android":"levelo://app?vid=d172a948-5b54-446c-9325-17335baba5c1","ios":"levelo://app?vid=d172a948-5b54-446c-9325-17335baba5c1"},"vehicle_type_id":"4","last_reported":1744060160,"current_range_meters":9200,"station_id":"ce4bgjh2rcd13ifvqbf0","pricing_plan_id":"cebpf4jnsgd1na2vs0mg"},{"bike_id":"db77aa95-72db-470c-9c43-5322da612de8","system_id":"levelo_inurba_marseille","lat":43.31789,"lon":5.402,"is_reserved":false,"is_disabled":false,"rental_uris":{"android":"levelo://app?vid=db77aa95-72db-470c-9c43-5322da612de8","ios":"levelo://app?vid=db77aa95-72db-470c-9c43-5322da612de8"},"vehicle_type_id":"4","last_reported":1744060160,"current_range_meters":9200,"station_id":"","pricing_plan_id":"cebpf4jnsgd1na2vs0mg"},{"bike_id":"1a58a830-97d6-479c-b929-678336cf052d","system_id":"levelo_inurba_marseille","lat":43.31056,"lon":5.38356,"is_reserved":false,"is_disabled":false,"rental_uris":{"android":"levelo://app?vid=1a58a830-97d6-479c-b929-678336cf052d","ios":"levelo://app?vid=1a58a830-97d6-479c-b929-678336cf052d"},"vehicle_type_id":"4","last_reported":1744060160,"current_range_meters":9200,"station_id":"ce4bgv92rcd13ifvqcr0","pricing_plan_id":"cebpf4jnsgd1na2vs0mg"},{"bike_id":"6e668542-2fd8-4333-959c-ab95ed8a37e7","system_id":"levelo_inurba_marseille","lat":43.29536,"lon":5.3903,"is_reserved":false,"is_disabled":false,"rental_uris":{"android":"levelo://app?vid=6e668542-2fd8-4333-959c-ab95ed8a37e7","ios":"levelo://app?vid=6e668542-2fd8-4333-959c-ab95ed8a37e7"},"vehicle_type_id":"4","last_reported":1744060160,"current_range_meters":9200,"station_id":"ce4bh3p2rcd13ifvqdp0","pricing_plan_id":"cebpf4jnsgd1na2vs0mg"},{"bike_id":"5ba02e57-e745-47ce-9b93-c851debe9e12","system_id":"levelo_inurba_marseille","lat":43.27171,"lon":5.41001,"is_reserved":false,"is_disabled":false,"rental_uris":{"android":"levelo://app?vid=5ba02e57-e745-47ce-9b93-c851debe9e12","ios":"levelo://app?vid=5ba02e57-e745-47ce-9b93-c851debe9e12"},"vehicle_type_id":"4","last_reported":1744060160,"current_range_meters":9200,"station_id":"ce4bhl12rcd13ifvqgf0","pricing_plan_id":"cebpf4jnsgd1na2vs0mg"},{"bike_id":"cc057f14-b1e1-4dee-b107-8741c01c5964","system_id":"levelo_inurba_marseille","lat":43.321058,"lon":5.367784,"is_reserved":false,"is_disabled":true,"rental_uris":{"android":"levelo://app?vid=cc057f14-b1e1-4dee-b107-8741c01c5964","ios":"levelo://app?vid=cc057f14-b1e1-4dee-b107-8741c01c5964"},"vehicle_type_id":"4","last_reported":1744060160,"current_range_meters":9200,"station_id":"ce4bhrh2rcd13ifvqhug","pricing_plan_id":"cebpf4jnsgd1na2vs0mg"},{"bike_id":"48fccb4f-09f1-4e65-a7d2-a88a68c57483","system_id":"levelo_inurba_marseille","lat":43.31128,"lon":5.37762,"is_reserved":false,"is_disabled":false,"rental_uris":{"android":"levelo://app?vid=48fccb4f-09f1-4e65-a7d2-a88a68c57483","ios":"levelo://app?vid=48fccb4f-09f1-4e65-a7d2-a88a68c57483"},"vehicle_type_id":"4","last_reported":1744060160,"current_range_meters":9200,"station_id":"ce4bgt92rcd13ifvqcg0","pricing_plan_id":"cebpf4jnsgd1na2vs0mg"},{"bike_id":"ff0b2453-2fbb-467c-80b5-41964aa97aa4","system_id":"levelo_inurba_marseille","lat":43.31094,"lon":5.38349,"is_reserved":false,"is_disabled":false,"rental_uris":{"android":"levelo://app?vid=ff0b2453-2fbb-467c-80b5-41964aa97aa4","ios":"levelo://app?vid=ff0b2453-2fbb-467c-80b5-41964aa97aa4"},"vehicle_type_id":"4","last_reported":1744060160,"current_range_meters":9200,"station_id":"ce4bgv92rcd13ifvqcr0","pricing_plan_id":"cebpf4jnsgd1na2vs0mg"},{"bike_id":"750bc9c2-8244-4f27-a571-77c62d7d6b92","system_id":"levelo_inurba_marseille","lat":43.31274,"lon":5.37754,"is_reserved":false,"is_disabled":false,"rental_uris":{"android":"levelo://app?vid=750bc9c2-8244-4f27-a571-77c62d7d6b92","ios":"levelo://app?vid=750bc9c2-8244-4f27-a571-77c62d7d6b92"},"vehicle_type_id":"4","last_reported":1744060160,"current_range_meters":9600,"station_id":"","pricing_plan_id":"cebpf4jnsgd1na2vs0mg"},{"bike_id":"7b216b82-9865-46c2-8bc4-e91ce2955c25","system_id":"levelo_inurba_marseille","lat":43.30459,"lon":5.37903,"is_reserved":false,"is_disabled":false,"rental_uris":{"android":"levelo://app?vid=7b216b82-9865-46c2-8bc4-e91ce2955c25","ios":"levelo://app?vid=7b216b82-9865-46c2-8bc4-e91ce2955c25"},"vehicle_type_id":"4","last_reported":1744060160,"current_range_meters":9600,"station_id":"ce4bgup2rcd13ifvqcn0","pricing_plan_id":"cebpf4jnsgd1na2vs0mg"},{"bike_id":"9389f907-78e2-4c8e-b008-de9739faa63f","system_id":"levelo_inurba_marseille","lat":43.3303,"lon":5.3942,"is_reserved":false,"is_disabled":false,"rental_uris":{"android":"levelo://app?vid=9389f907-78e2-4c8e-b008-de9739faa63f","ios":"levelo://app?vid=9389f907-78e2-4c8e-b008-de9739faa63f"},"vehicle_type_id":"4","last_reported":1744060160,"current_range_meters":9600,"station_id":"","pricing_plan_id":"cebpf4jnsgd1na2vs0mg"},{"bike_id":"62f09ee9-4a5c-4371-a1a6-0cfab82c7212","system_id":"levelo_inurba_marseille","lat":43.2949,"lon":5.38625,"is_reserved":false,"is_disabled":false,"rental_uris":{"android":"levelo://app?vid=62f09ee9-4a5c-4371-a1a6-0cfab82c7212","ios":"levelo://app?vid=62f09ee9-4a5c-4371-a1a6-0cfab82c7212"},"vehicle_type_id":"4","last_reported":1744060160,"current_range_meters":9600,"station_id":"","pricing_plan_id":"cebpf4jnsgd1na2vs0mg"},{"bike_id":"8b497f79-9857-4c2e-ae6e-95b0d6ccbc52","system_id":"levelo_inurba_marseille","lat":43.32529,"lon":5.36593,"is_reserved":false,"is_disabled":true,"rental_uris":{"android":"levelo://app?vid=8b497f79-9857-4c2e-ae6e-95b0d6ccbc52","ios":"levelo://app?vid=8b497f79-9857-4c2e-ae6e-95b0d6ccbc52"},"vehicle_type_id":"4","last_reported":1744060160,"current_range_meters":9600,"station_id":"ce4bhs12rcd13ifvqhvg","pricing_plan_id":"cebpf4jnsgd1na2vs0mg"},{"bike_id":"79537ffb-5232-4549-a0c1-44d0c11f25a2","system_id":"levelo_inurba_marseille","lat":43.317,"lon":5.43683,"is_reserved":false,"is_disabled":false,"rental_uris":{"android":"levelo://app?vid=79537ffb-5232-4549-a0c1-44d0c11f25a2","ios":"levelo://app?vid=79537ffb-5232-4549-a0c1-44d0c11f25a2"},"vehicle_type_id":"4","last_reported":1744060160,"current_range_meters":9600,"station_id":"ce4bhp92rcd13ifvqhcg","pricing_plan_id":"cebpf4jnsgd1na2vs0mg"},{"bike_id":"19224d95-e048-4cbb-8884-43e0e6b3db9b","system_id":"levelo_inurba_marseille","lat":43.29882,"lon":5.39746,"is_reserved":false,"is_disabled":true,"rental_uris":{"android":"levelo://app?vid=19224d95-e048-4cbb-8884-43e0e6b3db9b","ios":"levelo://app?vid=19224d95-e048-4cbb-8884-43e0e6b3db9b"},"vehicle_type_id":"4","last_reported":1744060160,"current_range_meters":9600,"station_id":"ce4bh0h2rcd13ifvqd50","pricing_plan_id":"cebpf4jnsgd1na2vs0mg"},{"bike_id":"090942cf-a81c-4a67-9cd7-e7cda5b12730","system_id":"levelo_inurba_marseille","lat":43.28703,"lon":5.39993,"is_reserved":false,"is_disabled":false,"rental_uris":{"android":"levelo://app?vid=090942cf-a81c-4a67-9cd7-e7cda5b12730","ios":"levelo://app?vid=090942cf-a81c-4a67-9cd7-e7cda5b12730"},"vehicle_type_id":"4","last_reported":1744060160,"current_range_meters":9600,"station_id":"ce4bho92rcd13ifvqh3g","pricing_plan_id":"cebpf4jnsgd1na2vs0mg"},{"bike_id":"3cbad1fb-d71d-4e4f-90fa-c1465f9f9b65","system_id":"levelo_inurba_marseille","lat":43.21188,"lon":5.35074,"is_reserved":false,"is_disabled":false,"rental_uris":{"android":"levelo://app?vid=3cbad1fb-d71d-4e4f-90fa-c1465f9f9b65","ios":"levelo://app?vid=3cbad1fb-d71d-4e4f-90fa-c1465f9f9b65"},"vehicle_type_id":"4","last_reported":1744060160,"current_range_meters":9600,"station_id":"st_cvj6sg6p6f1abm77japg","pricing_plan_id":"cebpf4jnsgd1na2vs0mg"},{"bike_id":"892a8b70-f096-4aab-b59d-4282869faee5","system_id":"levelo_inurba_marseille","lat":43.24803,"lon":5.37421,"is_reserved":false,"is_disabled":false,"rental_uris":{"android":"levelo://app?vid=892a8b70-f096-4aab-b59d-4282869faee5","ios":"levelo://app?vid=892a8b70-f096-4aab-b59d-4282869faee5"},"vehicle_type_id":"4","last_reported":1744060160,"current_range_meters":9600,"station_id":"ce4bhgh2rcd13ifvqfb0","pricing_plan_id":"cebpf4jnsgd1na2vs0mg"},{"bike_id":"1e135bb9-2996-44c8-a5fc-6958b4edfbec","system_id":"levelo_inurba_marseille","lat":43.28692,"lon":5.3741,"is_reserved":false,"is_disabled":false,"rental_uris":{"android":"levelo://app?vid=1e135bb9-2996-44c8-a5fc-6958b4edfbec","ios":"levelo://app?vid=1e135bb9-2996-44c8-a5fc-6958b4edfbec"},"vehicle_type_id":"4","last_reported":1744060160,"current_range_meters":10000,"station_id":"ce4bh3p2rcd13ifvqdq0","pricing_plan_id":"cebpf4jnsgd1na2vs0mg"},{"bike_id":"89a19d3f-b1d3-4f5d-8160-598b05407dcb","system_id":"levelo_inurba_marseille","lat":43.27184,"lon":5.40985,"is_reserved":false,"is_disabled":false,"rental_uris":{"android":"levelo://app?vid=89a19d3f-b1d3-4f5d-8160-598b05407dcb","ios":"levelo://app?vid=89a19d3f-b1d3-4f5d-8160-598b05407dcb"},"vehicle_type_id":"4","last_reported":1744060160,"current_range_meters":10000,"station_id":"ce4bhl12rcd13ifvqgf0","pricing_plan_id":"cebpf4jnsgd1na2vs0mg"},{"bike_id":"17d99dfd-747a-4c52-ac39-e535d04d1d82","system_id":"levelo_inurba_marseille","lat":43.28885,"lon":5.35833,"is_reserved":false,"is_disabled":false,"rental_uris":{"android":"levelo://app?vid=17d99dfd-747a-4c52-ac39-e535d04d1d82","ios":"levelo://app?vid=17d99dfd-747a-4c52-ac39-e535d04d1d82"},"vehicle_type_id":"4","last_reported":1744060160,"current_range_meters":10000,"station_id":"ce4bhb12rcd13ifvqem0","pricing_plan_id":"cebpf4jnsgd1na2vs0mg"},{"bike_id":"591f7ff7-49c6-474d-b679-0369581a4079","system_id":"levelo_inurba_marseille","lat":43.30213,"lon":5.39478,"is_reserved":false,"is_disabled":false,"rental_uris":{"android":"levelo://app?vid=591f7ff7-49c6-474d-b679-0369581a4079","ios":"levelo://app?vid=591f7ff7-49c6-474d-b679-0369581a4079"},"vehicle_type_id":"4","last_reported":1744060160,"current_range_meters":10000,"station_id":"ce4bh0p2rcd13ifvqd70","pricing_plan_id":"cebpf4jnsgd1na2vs0mg"},{"bike_id":"e53b9e9b-ac51-4f70-ad60-ed3149b8c178","system_id":"levelo_inurba_marseille","lat":43.31337,"lon":5.37355,"is_reserved":false,"is_disabled":false,"rental_uris":{"android":"levelo://app?vid=e53b9e9b-ac51-4f70-ad60-ed3149b8c178","ios":"levelo://app?vid=e53b9e9b-ac51-4f70-ad60-ed3149b8c178"},"vehicle_type_id":"4","last_reported":1744060160,"current_range_meters":10000,"station_id":"","pricing_plan_id":"cebpf4jnsgd1na2vs0mg"},{"bike_id":"89771962-fe60-4144-a8a6-39dd0f7b9fb3","system_id":"levelo_inurba_marseille","lat":43.21192,"lon":5.35097,"is_reserved":false,"is_disabled":false,"rental_uris":{"android":"levelo://app?vid=89771962-fe60-4144-a8a6-39dd0f7b9fb3","ios":"levelo://app?vid=89771962-fe60-4144-a8a6-39dd0f7b9fb3"},"vehicle_type_id":"4","last_reported":1744060160,"current_range_meters":10000,"station_id":"st_cvj6sg6p6f1abm77japg","pricing_plan_id":"cebpf4jnsgd1na2vs0mg"},{"bike_id":"7b3646e0-cbf2-40de-92a8-c829ec618775","system_id":"levelo_inurba_marseille","lat":43.32004,"lon":5.38161,"is_reserved":false,"is_disabled":true,"rental_uris":{"android":"levelo://app?vid=7b3646e0-cbf2-40de-92a8-c829ec618775","ios":"levelo://app?vid=7b3646e0-cbf2-40de-92a8-c829ec618775"},"vehicle_type_id":"4","last_reported":1744060160,"current_range_meters":10000,"station_id":"ce4bhr12rcd13ifvqhpg","pricing_plan_id":"cebpf4jnsgd1na2vs0mg"},{"bike_id":"28e0e195-0dd5-4f65-bcd6-c7c03983765a","system_id":"levelo_inurba_marseille","lat":43.31684,"lon":5.40474,"is_reserved":false,"is_disabled":false,"rental_uris":{"android":"levelo://app?vid=28e0e195-0dd5-4f65-bcd6-c7c03983765a","ios":"levelo://app?vid=28e0e195-0dd5-4f65-bcd6-c7c03983765a"},"vehicle_type_id":"4","last_reported":1744060160,"current_range_meters":10000,"station_id":"ce4bh012rcd13ifvqd00","pricing_plan_id":"cebpf4jnsgd1na2vs0mg"},{"bike_id":"76f925b2-bca7-4320-aebe-cc71b68c1352","system_id":"levelo_inurba_marseille","lat":43.27912,"lon":5.38022,"is_reserved":false,"is_disabled":false,"rental_uris":{"android":"levelo://app?vid=76f925b2-bca7-4320-aebe-cc71b68c1352","ios":"levelo://app?vid=76f925b2-bca7-4320-aebe-cc71b68c1352"},"vehicle_type_id":"4","last_reported":1744060160,"current_range_meters":10000,"station_id":"ce4bhf92rcd13ifvqf50","pricing_plan_id":"cebpf4jnsgd1na2vs0mg"},{"bike_id":"33eab9e3-83f0-4e14-afd5-e4a95f650b8d","system_id":"levelo_inurba_marseille","lat":43.298,"lon":5.40425,"is_reserved":false,"is_disabled":false,"rental_uris":{"android":"levelo://app?vid=33eab9e3-83f0-4e14-afd5-e4a95f650b8d","ios":"levelo://app?vid=33eab9e3-83f0-4e14-afd5-e4a95f650b8d"},"vehicle_type_id":"4","last_reported":1744060160,"current_range_meters":10000,"station_id":"ce4bh112rcd13ifvqd90","pricing_plan_id":"cebpf4jnsgd1na2vs0mg"},{"bike_id":"7df2dc6c-1dfa-4c54-820d-8ce9d678355e","system_id":"levelo_inurba_marseille","lat":43.2954,"lon":5.38552,"is_reserved":false,"is_disabled":false,"rental_uris":{"android":"levelo://app?vid=7df2dc6c-1dfa-4c54-820d-8ce9d678355e","ios":"levelo://app?vid=7df2dc6c-1dfa-4c54-820d-8ce9d678355e"},"vehicle_type_id":"4","last_reported":1744060160,"current_range_meters":10000,"station_id":"ce4bgih2rcd13ifvqba0","pricing_plan_id":"cebpf4jnsgd1na2vs0mg"},{"bike_id":"d5336e05-c483-42e9-9d22-06117ee9ac14","system_id":"levelo_inurba_marseille","lat":43.28622,"lon":5.35095,"is_reserved":false,"is_disabled":false,"rental_uris":{"android":"levelo://app?vid=d5336e05-c483-42e9-9d22-06117ee9ac14","ios":"levelo://app?vid=d5336e05-c483-42e9-9d22-06117ee9ac14"},"vehicle_type_id":"4","last_reported":1744060160,"current_range_meters":10000,"station_id":"ce4bhch2rcd13ifvqeug","pricing_plan_id":"cebpf4jnsgd1na2vs0mg"},{"bike_id":"9aac2fe2-cdbb-4c6c-a98a-ccac5f4e4d8e","system_id":"levelo_inurba_marseille","lat":43.27874,"lon":5.38022,"is_reserved":false,"is_disabled":false,"rental_uris":{"android":"levelo://app?vid=9aac2fe2-cdbb-4c6c-a98a-ccac5f4e4d8e","ios":"levelo://app?vid=9aac2fe2-cdbb-4c6c-a98a-ccac5f4e4d8e"},"vehicle_type_id":"4","last_reported":1744060160,"current_range_meters":10000,"station_id":"ce4bhf92rcd13ifvqf50","pricing_plan_id":"cebpf4jnsgd1na2vs0mg"},{"bike_id":"444a5f07-09c5-40f5-8d58-60f1f25c67b9","system_id":"levelo_inurba_marseille","lat":43.31987,"lon":5.38158,"is_reserved":false,"is_disabled":false,"rental_uris":{"android":"levelo://app?vid=444a5f07-09c5-40f5-8d58-60f1f25c67b9","ios":"levelo://app?vid=444a5f07-09c5-40f5-8d58-60f1f25c67b9"},"vehicle_type_id":"4","last_reported":1744060160,"current_range_meters":10000,"station_id":"ce4bhr12rcd13ifvqhpg","pricing_plan_id":"cebpf4jnsgd1na2vs0mg"},{"bike_id":"7b879770-1bbd-421d-9c8b-e0235cabedcf","system_id":"levelo_inurba_marseille","lat":43.25402,"lon":5.41898,"is_reserved":false,"is_disabled":false,"rental_uris":{"android":"levelo://app?vid=7b879770-1bbd-421d-9c8b-e0235cabedcf","ios":"levelo://app?vid=7b879770-1bbd-421d-9c8b-e0235cabedcf"},"vehicle_type_id":"4","last_reported":1744060160,"current_range_meters":10800,"station_id":"","pricing_plan_id":"cebpf4jnsgd1na2vs0mg"},{"bike_id":"20ef46eb-3f7b-455c-a8ba-38646f63cf11","system_id":"levelo_inurba_marseille","lat":43.30918,"lon":5.40158,"is_reserved":false,"is_disabled":false,"rental_uris":{"android":"levelo://app?vid=20ef46eb-3f7b-455c-a8ba-38646f63cf11","ios":"levelo://app?vid=20ef46eb-3f7b-455c-a8ba-38646f63cf11"},"vehicle_type_id":"4","last_reported":1744060160,"current_range_meters":10800,"station_id":"ce4bgvp2rcd13ifvqct0","pricing_plan_id":"cebpf4jnsgd1na2vs0mg"},{"bike_id":"ca53f4ce-a20d-441d-88c7-4b3a7e17cae3","system_id":"levelo_inurba_marseille","lat":43.27179,"lon":5.40991,"is_reserved":false,"is_disabled":false,"rental_uris":{"android":"levelo://app?vid=ca53f4ce-a20d-441d-88c7-4b3a7e17cae3","ios":"levelo://app?vid=ca53f4ce-a20d-441d-88c7-4b3a7e17cae3"},"vehicle_type_id":"4","last_reported":1744060160,"current_range_meters":10800,"station_id":"ce4bhl12rcd13ifvqgf0","pricing_plan_id":"cebpf4jnsgd1na2vs0mg"},{"bike_id":"f39be6f5-2f69-4c37-b021-559d20b299a4","system_id":"levelo_inurba_marseille","lat":43.30009,"lon":5.37643,"is_reserved":false,"is_disabled":false,"rental_uris":{"android":"levelo://app?vid=f39be6f5-2f69-4c37-b021-559d20b299a4","ios":"levelo://app?vid=f39be6f5-2f69-4c37-b021-559d20b299a4"},"vehicle_type_id":"4","last_reported":1744060160,"current_range_meters":10800,"station_id":"","pricing_plan_id":"cebpf4jnsgd1na2vs0mg"},{"bike_id":"1e01d50e-cead-45bb-a3a4-7e0d04b7b063","system_id":"levelo_inurba_marseille","lat":43.29026,"lon":5.38642,"is_reserved":false,"is_disabled":true,"rental_uris":{"android":"levelo://app?vid=1e01d50e-cead-45bb-a3a4-7e0d04b7b063","ios":"levelo://app?vid=1e01d50e-cead-45bb-a3a4-7e0d04b7b063"},"vehicle_type_id":"4","last_reported":1744060160,"current_range_meters":10800,"station_id":"ce4bh4p2rcd13ifvqe0g","pricing_plan_id":"cebpf4jnsgd1na2vs0mg"},{"bike_id":"b97be67a-237b-4810-9f2a-b7321431efc6","system_id":"levelo_inurba_marseille","lat":43.31325,"lon":5.39692,"is_reserved":false,"is_disabled":false,"rental_uris":{"android":"levelo://app?vid=b97be67a-237b-4810-9f2a-b7321431efc6","ios":"levelo://app?vid=b97be67a-237b-4810-9f2a-b7321431efc6"},"vehicle_type_id":"4","last_reported":1744060160,"current_range_meters":10800,"station_id":"ce4bgvp2rcd13ifvqcu0","pricing_plan_id":"cebpf4jnsgd1na2vs0mg"},{"bike_id":"847cff54-9149-4fb3-8217-2338a6e302d9","system_id":"levelo_inurba_marseille","lat":43.28866,"lon":5.35846,"is_reserved":false,"is_disabled":false,"rental_uris":{"android":"levelo://app?vid=847cff54-9149-4fb3-8217-2338a6e302d9","ios":"levelo://app?vid=847cff54-9149-4fb3-8217-2338a6e302d9"},"vehicle_type_id":"4","last_reported":1744060160,"current_range_meters":10800,"station_id":"ce4bhb12rcd13ifvqem0","pricing_plan_id":"cebpf4jnsgd1na2vs0mg"},{"bike_id":"2e9000dc-6400-4918-a994-dd60039ca96d","system_id":"levelo_inurba_marseille","lat":43.32011,"lon":5.38158,"is_reserved":false,"is_disabled":true,"rental_uris":{"android":"levelo://app?vid=2e9000dc-6400-4918-a994-dd60039ca96d","ios":"levelo://app?vid=2e9000dc-6400-4918-a994-dd60039ca96d"},"vehicle_type_id":"4","last_reported":1744060160,"current_range_meters":10800,"station_id":"ce4bhr12rcd13ifvqhpg","pricing_plan_id":"cebpf4jnsgd1na2vs0mg"},{"bike_id":"e0bf1f21-3a28-4429-8519-f30155a3610f","system_id":"levelo_inurba_marseille","lat":43.29942,"lon":5.38149,"is_reserved":false,"is_disabled":false,"rental_uris":{"android":"levelo://app?vid=e0bf1f21-3a28-4429-8519-f30155a3610f","ios":"levelo://app?vid=e0bf1f21-3a28-4429-8519-f30155a3610f"},"vehicle_type_id":"4","last_reported":1744060160,"current_range_meters":11200,"station_id":"ce4bgj12rcd13ifvqbc0","pricing_plan_id":"cebpf4jnsgd1na2vs0mg"},{"bike_id":"2a74d2ee-0dd6-47f8-8f26-88ec8276060f","system_id":"levelo_inurba_marseille","lat":43.30915,"lon":5.36722,"is_reserved":false,"is_disabled":false,"rental_uris":{"android":"levelo://app?vid=2a74d2ee-0dd6-47f8-8f26-88ec8276060f","ios":"levelo://app?vid=2a74d2ee-0dd6-47f8-8f26-88ec8276060f"},"vehicle_type_id":"4","last_reported":1744060160,"current_range_meters":11200,"station_id":"","pricing_plan_id":"cebpf4jnsgd1na2vs0mg"},{"bike_id":"721d44ba-cb0f-4fd5-81a0-63935d191c6a","system_id":"levelo_inurba_marseille","lat":43.30259,"lon":5.40052,"is_reserved":false,"is_disabled":false,"rental_uris":{"android":"levelo://app?vid=721d44ba-cb0f-4fd5-81a0-63935d191c6a","ios":"levelo://app?vid=721d44ba-cb0f-4fd5-81a0-63935d191c6a"},"vehicle_type_id":"4","last_reported":1744060160,"current_range_meters":11200,"station_id":"ce4bgvh2rcd13ifvqcs0","pricing_plan_id":"cebpf4jnsgd1na2vs0mg"},{"bike_id":"27bd7e36-53ff-41f4-9f5e-a118420b7d57","system_id":"levelo_inurba_marseille","lat":43.275713,"lon":5.384285,"is_reserved":false,"is_disabled":false,"rental_uris":{"android":"levelo://app?vid=27bd7e36-53ff-41f4-9f5e-a118420b7d57","ios":"levelo://app?vid=27bd7e36-53ff-41f4-9f5e-a118420b7d57"},"vehicle_type_id":"4","last_reported":1744060160,"current_range_meters":11200,"station_id":"ce4bgkh2rcd13ifvqbl0","pricing_plan_id":"cebpf4jnsgd1na2vs0mg"},{"bike_id":"257d1c02-5396-419e-a612-6a8a1704493e","system_id":"levelo_inurba_marseille","lat":43.29054,"lon":5.37543,"is_reserved":false,"is_disabled":true,"rental_uris":{"android":"levelo://app?vid=257d1c02-5396-419e-a612-6a8a1704493e","ios":"levelo://app?vid=257d1c02-5396-419e-a612-6a8a1704493e"},"vehicle_type_id":"4","last_reported":1744060160,"current_range_meters":11200,"station_id":"ce4bh692rcd13ifvqe90","pricing_plan_id":"cebpf4jnsgd1na2vs0mg"},{"bike_id":"1caaf187-7c56-4777-81af-6cb943962ba6","system_id":"levelo_inurba_marseille","lat":43.30315,"lon":5.39212,"is_reserved":false,"is_disabled":true,"rental_uris":{"android":"levelo://app?vid=1caaf187-7c56-4777-81af-6cb943962ba6","ios":"levelo://app?vid=1caaf187-7c56-4777-81af-6cb943962ba6"},"vehicle_type_id":"4","last_reported":1744060160,"current_range_meters":11200,"station_id":"ce4bgkh2rcd13ifvqbk0","pricing_plan_id":"cebpf4jnsgd1na2vs0mg"},{"bike_id":"b035aaa6-27bf-4037-8ed4-aeaee2973514","system_id":"levelo_inurba_marseille","lat":43.2951,"lon":5.39078,"is_reserved":false,"is_disabled":false,"rental_uris":{"android":"levelo://app?vid=b035aaa6-27bf-4037-8ed4-aeaee2973514","ios":"levelo://app?vid=b035aaa6-27bf-4037-8ed4-aeaee2973514"},"vehicle_type_id":"4","last_reported":1744060160,"current_range_meters":11200,"station_id":"ce4bh3p2rcd13ifvqdp0","pricing_plan_id":"cebpf4jnsgd1na2vs0mg"},{"bike_id":"fb7a1608-45dc-49fb-b059-ed5163e78863","system_id":"levelo_inurba_marseille","lat":43.30956,"lon":5.4079,"is_reserved":false,"is_disabled":false,"rental_uris":{"android":"levelo://app?vid=fb7a1608-45dc-49fb-b059-ed5163e78863","ios":"levelo://app?vid=fb7a1608-45dc-49fb-b059-ed5163e78863"},"vehicle_type_id":"4","last_reported":1744060160,"current_range_meters":11600,"station_id":"ce4bhp92rcd13ifvqhcg","pricing_plan_id":"cebpf4jnsgd1na2vs0mg"},{"bike_id":"b546446b-23fe-46b1-b612-0287af0f24a6","system_id":"levelo_inurba_marseille","lat":43.29362,"lon":5.3785,"is_reserved":false,"is_disabled":false,"rental_uris":{"android":"levelo://app?vid=b546446b-23fe-46b1-b612-0287af0f24a6","ios":"levelo://app?vid=b546446b-23fe-46b1-b612-0287af0f24a6"},"vehicle_type_id":"4","last_reported":1744060160,"current_range_meters":11600,"station_id":"ce4bgjh2rcd13ifvqbf0","pricing_plan_id":"cebpf4jnsgd1na2vs0mg"},{"bike_id":"d1789c99-5c7c-4e88-9d29-ce771e783c08","system_id":"levelo_inurba_marseille","lat":43.31003,"lon":5.37728,"is_reserved":false,"is_disabled":false,"rental_uris":{"android":"levelo://app?vid=d1789c99-5c7c-4e88-9d29-ce771e783c08","ios":"levelo://app?vid=d1789c99-5c7c-4e88-9d29-ce771e783c08"},"vehicle_type_id":"4","last_reported":1744060160,"current_range_meters":11600,"station_id":"","pricing_plan_id":"cebpf4jnsgd1na2vs0mg"},{"bike_id":"fce6272f-7361-4020-888a-de4c0f2c2017","system_id":"levelo_inurba_marseille","lat":43.33598,"lon":5.41037,"is_reserved":false,"is_disabled":false,"rental_uris":{"android":"levelo://app?vid=fce6272f-7361-4020-888a-de4c0f2c2017","ios":"levelo://app?vid=fce6272f-7361-4020-888a-de4c0f2c2017"},"vehicle_type_id":"4","last_reported":1744060160,"current_range_meters":11600,"station_id":"ce4bhqh2rcd13ifvqhmg","pricing_plan_id":"cebpf4jnsgd1na2vs0mg"},{"bike_id":"3576b946-70b3-456f-a60a-d98e227f015c","system_id":"levelo_inurba_marseille","lat":43.30114,"lon":5.38212,"is_reserved":false,"is_disabled":false,"rental_uris":{"android":"levelo://app?vid=3576b946-70b3-456f-a60a-d98e227f015c","ios":"levelo://app?vid=3576b946-70b3-456f-a60a-d98e227f015c"},"vehicle_type_id":"4","last_reported":1744060160,"current_range_meters":11600,"station_id":"ce4bgup2rcd13ifvqcn0","pricing_plan_id":"cebpf4jnsgd1na2vs0mg"},{"bike_id":"23388550-8a34-4798-beaf-4f290a70da1f","system_id":"levelo_inurba_marseille","lat":43.29977,"lon":5.37179,"is_reserved":false,"is_disabled":false,"rental_uris":{"android":"levelo://app?vid=23388550-8a34-4798-beaf-4f290a70da1f","ios":"levelo://app?vid=23388550-8a34-4798-beaf-4f290a70da1f"},"vehicle_type_id":"4","last_reported":1744060160,"current_range_meters":11600,"station_id":"ce4bgr92rcd13ifvqc7g","pricing_plan_id":"cebpf4jnsgd1na2vs0mg"},{"bike_id":"1d32406c-e42c-49d2-9924-5bc589732aa0","system_id":"levelo_inurba_marseille","lat":43.24376,"lon":5.37059,"is_reserved":false,"is_disabled":false,"rental_uris":{"android":"levelo://app?vid=1d32406c-e42c-49d2-9924-5bc589732aa0","ios":"levelo://app?vid=1d32406c-e42c-49d2-9924-5bc589732aa0"},"vehicle_type_id":"4","last_reported":1744060160,"current_range_meters":11600,"station_id":"ce4bhhh2rcd13ifvqfk0","pricing_plan_id":"cebpf4jnsgd1na2vs0mg"},{"bike_id":"9dfb4532-bf8c-4fd1-a03a-d57492154d55","system_id":"levelo_inurba_marseille","lat":43.30205,"lon":5.39469,"is_reserved":false,"is_disabled":false,"rental_uris":{"android":"levelo://app?vid=9dfb4532-bf8c-4fd1-a03a-d57492154d55","ios":"levelo://app?vid=9dfb4532-bf8c-4fd1-a03a-d57492154d55"},"vehicle_type_id":"4","last_reported":1744060160,"current_range_meters":11600,"station_id":"ce4bh0p2rcd13ifvqd70","pricing_plan_id":"cebpf4jnsgd1na2vs0mg"},{"bike_id":"aefa840a-9935-411d-b25b-11934c012973","system_id":"levelo_inurba_marseille","lat":43.27494,"lon":5.42449,"is_reserved":false,"is_disabled":false,"rental_uris":{"android":"levelo://app?vid=aefa840a-9935-411d-b25b-11934c012973","ios":"levelo://app?vid=aefa840a-9935-411d-b25b-11934c012973"},"vehicle_type_id":"4","last_reported":1744060160,"current_range_meters":12000,"station_id":"ce4bhn92rcd13ifvqgrg","pricing_plan_id":"cebpf4jnsgd1na2vs0mg"},{"bike_id":"82f28cf6-556c-431d-a12b-bd3ce5fc2f28","system_id":"levelo_inurba_marseille","lat":43.27527,"lon":5.3775,"is_reserved":false,"is_disabled":false,"rental_uris":{"android":"levelo://app?vid=82f28cf6-556c-431d-a12b-bd3ce5fc2f28","ios":"levelo://app?vid=82f28cf6-556c-431d-a12b-bd3ce5fc2f28"},"vehicle_type_id":"4","last_reported":1744060160,"current_range_meters":12000,"station_id":"","pricing_plan_id":"cebpf4jnsgd1na2vs0mg"},{"bike_id":"8e72e76f-a911-4a3e-beaf-a4a2d9b41efc","system_id":"levelo_inurba_marseille","lat":43.25588,"lon":5.38235,"is_reserved":false,"is_disabled":false,"rental_uris":{"android":"levelo://app?vid=8e72e76f-a911-4a3e-beaf-a4a2d9b41efc","ios":"levelo://app?vid=8e72e76f-a911-4a3e-beaf-a4a2d9b41efc"},"vehicle_type_id":"4","last_reported":1744060160,"current_range_meters":12000,"station_id":"ce4bhih2rcd13ifvqfs0","pricing_plan_id":"cebpf4jnsgd1na2vs0mg"},{"bike_id":"50d094a6-3a12-4b79-aa4f-2b993798b5f8","system_id":"levelo_inurba_marseille","lat":43.29085,"lon":5.38121,"is_reserved":false,"is_disabled":false,"rental_uris":{"android":"levelo://app?vid=50d094a6-3a12-4b79-aa4f-2b993798b5f8","ios":"levelo://app?vid=50d094a6-3a12-4b79-aa4f-2b993798b5f8"},"vehicle_type_id":"4","last_reported":1744060160,"current_range_meters":12000,"station_id":"ce4bh512rcd13ifvqe2g","pricing_plan_id":"cebpf4jnsgd1na2vs0mg"},{"bike_id":"fbb22a03-2116-47e1-b422-65b5c219e539","system_id":"levelo_inurba_marseille","lat":43.30244,"lon":5.40059,"is_reserved":false,"is_disabled":false,"rental_uris":{"android":"levelo://app?vid=fbb22a03-2116-47e1-b422-65b5c219e539","ios":"levelo://app?vid=fbb22a03-2116-47e1-b422-65b5c219e539"},"vehicle_type_id":"4","last_reported":1744060160,"current_range_meters":12000,"station_id":"ce4bgvh2rcd13ifvqcs0","pricing_plan_id":"cebpf4jnsgd1na2vs0mg"},{"bike_id":"149d12c1-918e-45ca-96d3-9e3d71a1137b","system_id":"levelo_inurba_marseille","lat":43.29036,"lon":5.40013,"is_reserved":false,"is_disabled":false,"rental_uris":{"android":"levelo://app?vid=149d12c1-918e-45ca-96d3-9e3d71a1137b","ios":"levelo://app?vid=149d12c1-918e-45ca-96d3-9e3d71a1137b"},"vehicle_type_id":"4","last_reported":1744060160,"current_range_meters":12000,"station_id":"","pricing_plan_id":"cebpf4jnsgd1na2vs0mg"},{"bike_id":"f17ce36f-e80a-4732-89e2-7a7dfab19d87","system_id":"levelo_inurba_marseille","lat":43.29896,"lon":5.4367,"is_reserved":false,"is_disabled":false,"rental_uris":{"android":"levelo://app?vid=f17ce36f-e80a-4732-89e2-7a7dfab19d87","ios":"levelo://app?vid=f17ce36f-e80a-4732-89e2-7a7dfab19d87"},"vehicle_type_id":"4","last_reported":1744060160,"current_range_meters":12400,"station_id":"ce4bhpp2rcd13ifvqhfg","pricing_plan_id":"cebpf4jnsgd1na2vs0mg"},{"bike_id":"4ee272f5-b2c0-449c-8b01-facdb8da4962","system_id":"levelo_inurba_marseille","lat":43.28427,"lon":5.34993,"is_reserved":false,"is_disabled":false,"rental_uris":{"android":"levelo://app?vid=4ee272f5-b2c0-449c-8b01-facdb8da4962","ios":"levelo://app?vid=4ee272f5-b2c0-449c-8b01-facdb8da4962"},"vehicle_type_id":"4","last_reported":1744060160,"current_range_meters":12400,"station_id":"ce4bhbh2rcd13ifvqepg","pricing_plan_id":"cebpf4jnsgd1na2vs0mg"},{"bike_id":"59ef2b10-02d5-4860-84de-95b8fcb71b4a","system_id":"levelo_inurba_marseille","lat":43.29522,"lon":5.3855,"is_reserved":false,"is_disabled":false,"rental_uris":{"android":"levelo://app?vid=59ef2b10-02d5-4860-84de-95b8fcb71b4a","ios":"levelo://app?vid=59ef2b10-02d5-4860-84de-95b8fcb71b4a"},"vehicle_type_id":"4","last_reported":1744060160,"current_range_meters":12400,"station_id":"ce4bgih2rcd13ifvqba0","pricing_plan_id":"cebpf4jnsgd1na2vs0mg"},{"bike_id":"b7d15525-0102-4d63-b7d3-eaa2bc4c21c3","system_id":"levelo_inurba_marseille","lat":43.21728,"lon":5.3461,"is_reserved":false,"is_disabled":true,"rental_uris":{"android":"levelo://app?vid=b7d15525-0102-4d63-b7d3-eaa2bc4c21c3","ios":"levelo://app?vid=b7d15525-0102-4d63-b7d3-eaa2bc4c21c3"},"vehicle_type_id":"4","last_reported":1744060160,"current_range_meters":12400,"station_id":"","pricing_plan_id":"cebpf4jnsgd1na2vs0mg"},{"bike_id":"4b9dfe05-0e60-423c-af4b-3ef6e8cad4ce","system_id":"levelo_inurba_marseille","lat":43.25129,"lon":5.40337,"is_reserved":false,"is_disabled":true,"rental_uris":{"android":"levelo://app?vid=4b9dfe05-0e60-423c-af4b-3ef6e8cad4ce","ios":"levelo://app?vid=4b9dfe05-0e60-423c-af4b-3ef6e8cad4ce"},"vehicle_type_id":"4","last_reported":1744060160,"current_range_meters":12400,"station_id":"ce4bhlh2rcd13ifvqgig","pricing_plan_id":"cebpf4jnsgd1na2vs0mg"},{"bike_id":"06fc20d7-cf91-4469-81aa-2d43f8fdac53","system_id":"levelo_inurba_marseille","lat":43.3117,"lon":5.38728,"is_reserved":false,"is_disabled":false,"rental_uris":{"android":"levelo://app?vid=06fc20d7-cf91-4469-81aa-2d43f8fdac53","ios":"levelo://app?vid=06fc20d7-cf91-4469-81aa-2d43f8fdac53"},"vehicle_type_id":"4","last_reported":1744060160,"current_range_meters":12400,"station_id":"ce4bgv12rcd13ifvqcp0","pricing_plan_id":"cebpf4jnsgd1na2vs0mg"},{"bike_id":"b91e6d98-8f8c-47e9-b9cb-3e7a40463731","system_id":"levelo_inurba_marseille","lat":43.30425,"lon":5.38899,"is_reserved":false,"is_disabled":false,"rental_uris":{"android":"levelo://app?vid=b91e6d98-8f8c-47e9-b9cb-3e7a40463731","ios":"levelo://app?vid=b91e6d98-8f8c-47e9-b9cb-3e7a40463731"},"vehicle_type_id":"4","last_reported":1744060160,"current_range_meters":12800,"station_id":"ce4bgk12rcd13ifvqbi0","pricing_plan_id":"cebpf4jnsgd1na2vs0mg"},{"bike_id":"eb196ca8-2856-4a88-bf1e-807e56297980","system_id":"levelo_inurba_marseille","lat":43.29778,"lon":5.39363,"is_reserved":false,"is_disabled":false,"rental_uris":{"android":"levelo://app?vid=eb196ca8-2856-4a88-bf1e-807e56297980","ios":"levelo://app?vid=eb196ca8-2856-4a88-bf1e-807e56297980"},"vehicle_type_id":"4","last_reported":1744060160,"current_range_meters":12800,"station_id":"chh1huq6cuj3fo74tm60","pricing_plan_id":"cebpf4jnsgd1na2vs0mg"},{"bike_id":"fb9f6b16-b64d-4eb9-b329-0548a57bc9c5","system_id":"levelo_inurba_marseille","lat":43.30093,"lon":5.39062,"is_reserved":false,"is_disabled":false,"rental_uris":{"android":"levelo://app?vid=fb9f6b16-b64d-4eb9-b329-0548a57bc9c5","ios":"levelo://app?vid=fb9f6b16-b64d-4eb9-b329-0548a57bc9c5"},"vehicle_type_id":"4","last_reported":1744060160,"current_range_meters":12800,"station_id":"ce4bh192rcd13ifvqdb0","pricing_plan_id":"cebpf4jnsgd1na2vs0mg"},{"bike_id":"151c5665-5fbd-495d-92fa-fa5baa84ee72","system_id":"levelo_inurba_marseille","lat":43.29877,"lon":5.39751,"is_reserved":false,"is_disabled":false,"rental_uris":{"android":"levelo://app?vid=151c5665-5fbd-495d-92fa-fa5baa84ee72","ios":"levelo://app?vid=151c5665-5fbd-495d-92fa-fa5baa84ee72"},"vehicle_type_id":"4","last_reported":1744060160,"current_range_meters":12800,"station_id":"ce4bh0h2rcd13ifvqd50","pricing_plan_id":"cebpf4jnsgd1na2vs0mg"},{"bike_id":"bb27bf37-4989-481b-9324-76c7fb81df3c","system_id":"levelo_inurba_marseille","lat":43.31165,"lon":5.3872,"is_reserved":false,"is_disabled":false,"rental_uris":{"android":"levelo://app?vid=bb27bf37-4989-481b-9324-76c7fb81df3c","ios":"levelo://app?vid=bb27bf37-4989-481b-9324-76c7fb81df3c"},"vehicle_type_id":"4","last_reported":1744060160,"current_range_meters":12800,"station_id":"ce4bgv12rcd13ifvqcp0","pricing_plan_id":"cebpf4jnsgd1na2vs0mg"},{"bike_id":"90c56d57-56f3-4b37-a753-872d1a962a8d","system_id":"levelo_inurba_marseille","lat":43.2927,"lon":5.40131,"is_reserved":false,"is_disabled":false,"rental_uris":{"android":"levelo://app?vid=90c56d57-56f3-4b37-a753-872d1a962a8d","ios":"levelo://app?vid=90c56d57-56f3-4b37-a753-872d1a962a8d"},"vehicle_type_id":"4","last_reported":1744060160,"current_range_meters":12800,"station_id":"ce4bh312rcd13ifvqdk0","pricing_plan_id":"cebpf4jnsgd1na2vs0mg"},{"bike_id":"ec7d3251-d53b-4874-b96d-6dae899b6aa1","system_id":"levelo_inurba_marseille","lat":43.27187,"lon":5.39221,"is_reserved":false,"is_disabled":true,"rental_uris":{"android":"levelo://app?vid=ec7d3251-d53b-4874-b96d-6dae899b6aa1","ios":"levelo://app?vid=ec7d3251-d53b-4874-b96d-6dae899b6aa1"},"vehicle_type_id":"4","last_reported":1744060160,"current_range_meters":12800,"station_id":"ce4bhhp2rcd13ifvqfm0","pricing_plan_id":"cebpf4jnsgd1na2vs0mg"},{"bike_id":"a061eb6d-7b4b-43be-b402-6ce183ce47f3","system_id":"levelo_inurba_marseille","lat":43.2805,"lon":5.41642,"is_reserved":false,"is_disabled":false,"rental_uris":{"android":"levelo://app?vid=a061eb6d-7b4b-43be-b402-6ce183ce47f3","ios":"levelo://app?vid=a061eb6d-7b4b-43be-b402-6ce183ce47f3"},"vehicle_type_id":"4","last_reported":1744060160,"current_range_meters":12800,"station_id":"ce4bho12rcd13ifvqh1g","pricing_plan_id":"cebpf4jnsgd1na2vs0mg"},{"bike_id":"c879db94-7700-49a3-8554-1a634dac59d4","system_id":"levelo_inurba_marseille","lat":43.28709,"lon":5.39983,"is_reserved":false,"is_disabled":false,"rental_uris":{"android":"levelo://app?vid=c879db94-7700-49a3-8554-1a634dac59d4","ios":"levelo://app?vid=c879db94-7700-49a3-8554-1a634dac59d4"},"vehicle_type_id":"4","last_reported":1744060160,"current_range_meters":12800,"station_id":"ce4bho92rcd13ifvqh3g","pricing_plan_id":"cebpf4jnsgd1na2vs0mg"},{"bike_id":"04dca1c6-a0b0-48ed-acbc-1e72fe5c222f","system_id":"levelo_inurba_marseille","lat":43.30327,"lon":5.40431,"is_reserved":false,"is_disabled":false,"rental_uris":{"android":"levelo://app?vid=04dca1c6-a0b0-48ed-acbc-1e72fe5c222f","ios":"levelo://app?vid=04dca1c6-a0b0-48ed-acbc-1e72fe5c222f"},"vehicle_type_id":"4","last_reported":1744060160,"current_range_meters":12800,"station_id":"ce4bh012rcd13ifvqd10","pricing_plan_id":"cebpf4jnsgd1na2vs0mg"},{"bike_id":"0f5b7060-7ff1-4071-b5b7-4037f2d304dd","system_id":"levelo_inurba_marseille","lat":43.29974,"lon":5.37175,"is_reserved":false,"is_disabled":false,"rental_uris":{"android":"levelo://app?vid=0f5b7060-7ff1-4071-b5b7-4037f2d304dd","ios":"levelo://app?vid=0f5b7060-7ff1-4071-b5b7-4037f2d304dd"},"vehicle_type_id":"4","last_reported":1744060160,"current_range_meters":12800,"station_id":"ce4bgr92rcd13ifvqc7g","pricing_plan_id":"cebpf4jnsgd1na2vs0mg"},{"bike_id":"c86be446-33b4-453c-bc7e-58f1c0a41d7e","system_id":"levelo_inurba_marseille","lat":43.29548,"lon":5.39043,"is_reserved":false,"is_disabled":false,"rental_uris":{"android":"levelo://app?vid=c86be446-33b4-453c-bc7e-58f1c0a41d7e","ios":"levelo://app?vid=c86be446-33b4-453c-bc7e-58f1c0a41d7e"},"vehicle_type_id":"4","last_reported":1744060160,"current_range_meters":13600,"station_id":"ce4bh3p2rcd13ifvqdp0","pricing_plan_id":"cebpf4jnsgd1na2vs0mg"},{"bike_id":"241077a8-27f0-4007-87ac-46b30dfa86f1","system_id":"levelo_inurba_marseille","lat":43.2512,"lon":5.40316,"is_reserved":false,"is_disabled":false,"rental_uris":{"android":"levelo://app?vid=241077a8-27f0-4007-87ac-46b30dfa86f1","ios":"levelo://app?vid=241077a8-27f0-4007-87ac-46b30dfa86f1"},"vehicle_type_id":"4","last_reported":1744060160,"current_range_meters":13600,"station_id":"ce4bhlh2rcd13ifvqgig","pricing_plan_id":"cebpf4jnsgd1na2vs0mg"},{"bike_id":"034b881e-44c7-46eb-affa-8c5577be2c99","system_id":"levelo_inurba_marseille","lat":43.2781,"lon":5.40728,"is_reserved":false,"is_disabled":false,"rental_uris":{"android":"levelo://app?vid=034b881e-44c7-46eb-affa-8c5577be2c99","ios":"levelo://app?vid=034b881e-44c7-46eb-affa-8c5577be2c99"},"vehicle_type_id":"4","last_reported":1744060160,"current_range_meters":14000,"station_id":"ce4bhnh2rcd13ifvqgtg","pricing_plan_id":"cebpf4jnsgd1na2vs0mg"},{"bike_id":"57a77021-a938-485a-8313-e328c10ca14e","system_id":"levelo_inurba_marseille","lat":43.29189,"lon":5.35808,"is_reserved":false,"is_disabled":false,"rental_uris":{"android":"levelo://app?vid=57a77021-a938-485a-8313-e328c10ca14e","ios":"levelo://app?vid=57a77021-a938-485a-8313-e328c10ca14e"},"vehicle_type_id":"4","last_reported":1744060160,"current_range_meters":13600,"station_id":"","pricing_plan_id":"cebpf4jnsgd1na2vs0mg"},{"bike_id":"2a72dba5-fa87-492b-a0d0-b5ab0fbf77d5","system_id":"levelo_inurba_marseille","lat":43.24546,"lon":5.39522,"is_reserved":false,"is_disabled":false,"rental_uris":{"android":"levelo://app?vid=2a72dba5-fa87-492b-a0d0-b5ab0fbf77d5","ios":"levelo://app?vid=2a72dba5-fa87-492b-a0d0-b5ab0fbf77d5"},"vehicle_type_id":"4","last_reported":1744060160,"current_range_meters":13600,"station_id":"ce4bhlp2rcd13ifvqgjg","pricing_plan_id":"cebpf4jnsgd1na2vs0mg"},{"bike_id":"72986cca-c91b-4726-b469-ea1522c42c05","system_id":"levelo_inurba_marseille","lat":43.31173,"lon":5.38729,"is_reserved":false,"is_disabled":false,"rental_uris":{"android":"levelo://app?vid=72986cca-c91b-4726-b469-ea1522c42c05","ios":"levelo://app?vid=72986cca-c91b-4726-b469-ea1522c42c05"},"vehicle_type_id":"4","last_reported":1744060160,"current_range_meters":14000,"station_id":"ce4bgv12rcd13ifvqcp0","pricing_plan_id":"cebpf4jnsgd1na2vs0mg"},{"bike_id":"d4d891d1-1d73-4c13-9958-998b9f9e43b8","system_id":"levelo_inurba_marseille","lat":43.30307,"lon":5.39224,"is_reserved":false,"is_disabled":false,"rental_uris":{"android":"levelo://app?vid=d4d891d1-1d73-4c13-9958-998b9f9e43b8","ios":"levelo://app?vid=d4d891d1-1d73-4c13-9958-998b9f9e43b8"},"vehicle_type_id":"4","last_reported":1744060160,"current_range_meters":14000,"station_id":"ce4bgkh2rcd13ifvqbk0","pricing_plan_id":"cebpf4jnsgd1na2vs0mg"},{"bike_id":"e642f7f4-7313-415d-9a80-d0d6b0477e6a","system_id":"levelo_inurba_marseille","lat":43.29796,"lon":5.38097,"is_reserved":false,"is_disabled":true,"rental_uris":{"android":"levelo://app?vid=e642f7f4-7313-415d-9a80-d0d6b0477e6a","ios":"levelo://app?vid=e642f7f4-7313-415d-9a80-d0d6b0477e6a"},"vehicle_type_id":"4","last_reported":1744060160,"current_range_meters":14000,"station_id":"ce4bgip2rcd13ifvqbb0","pricing_plan_id":"cebpf4jnsgd1na2vs0mg"},{"bike_id":"727420a5-2a4a-4878-9ca5-955e3d4d8d4d","system_id":"levelo_inurba_marseille","lat":43.30642,"lon":5.40085,"is_reserved":false,"is_disabled":false,"rental_uris":{"android":"levelo://app?vid=727420a5-2a4a-4878-9ca5-955e3d4d8d4d","ios":"levelo://app?vid=727420a5-2a4a-4878-9ca5-955e3d4d8d4d"},"vehicle_type_id":"4","last_reported":1744060160,"current_range_meters":14000,"station_id":"ce4bh112rcd13ifvqda0","pricing_plan_id":"cebpf4jnsgd1na2vs0mg"},{"bike_id":"4c2d3fd7-a1d3-4a8f-b668-55a172b48630","system_id":"levelo_inurba_marseille","lat":43.30431,"lon":5.389,"is_reserved":false,"is_disabled":false,"rental_uris":{"android":"levelo://app?vid=4c2d3fd7-a1d3-4a8f-b668-55a172b48630","ios":"levelo://app?vid=4c2d3fd7-a1d3-4a8f-b668-55a172b48630"},"vehicle_type_id":"4","last_reported":1744060160,"current_range_meters":14800,"station_id":"ce4bgk12rcd13ifvqbi0","pricing_plan_id":"cebpf4jnsgd1na2vs0mg"},{"bike_id":"4e0de06a-5fb6-425c-864f-446dbfc90cbc","system_id":"levelo_inurba_marseille","lat":43.2845,"lon":5.35907,"is_reserved":false,"is_disabled":false,"rental_uris":{"android":"levelo://app?vid=4e0de06a-5fb6-425c-864f-446dbfc90cbc","ios":"levelo://app?vid=4e0de06a-5fb6-425c-864f-446dbfc90cbc"},"vehicle_type_id":"4","last_reported":1744060160,"current_range_meters":14000,"station_id":"ce4bhah2rcd13ifvqei0","pricing_plan_id":"cebpf4jnsgd1na2vs0mg"},{"bike_id":"5437105a-68af-459e-862d-2ec08ae31ab9","system_id":"levelo_inurba_marseille","lat":43.294209,"lon":5.386189,"is_reserved":false,"is_disabled":false,"rental_uris":{"android":"levelo://app?vid=5437105a-68af-459e-862d-2ec08ae31ab9","ios":"levelo://app?vid=5437105a-68af-459e-862d-2ec08ae31ab9"},"vehicle_type_id":"4","last_reported":1744060160,"current_range_meters":13600,"station_id":"ce4bgop2rcd13ifvqc1g","pricing_plan_id":"cebpf4jnsgd1na2vs0mg"},{"bike_id":"c8351757-3fec-4594-855b-7d7cf1a199dd","system_id":"levelo_inurba_marseille","lat":43.28435,"lon":5.37527,"is_reserved":false,"is_disabled":false,"rental_uris":{"android":"levelo://app?vid=c8351757-3fec-4594-855b-7d7cf1a199dd","ios":"levelo://app?vid=c8351757-3fec-4594-855b-7d7cf1a199dd"},"vehicle_type_id":"4","last_reported":1744060160,"current_range_meters":14000,"station_id":"ce4bh412rcd13ifvqds0","pricing_plan_id":"cebpf4jnsgd1na2vs0mg"},{"bike_id":"0aa02c49-cbb3-4907-a588-f754056f3ba8","system_id":"levelo_inurba_marseille","lat":43.30801,"lon":5.38155,"is_reserved":false,"is_disabled":true,"rental_uris":{"android":"levelo://app?vid=0aa02c49-cbb3-4907-a588-f754056f3ba8","ios":"levelo://app?vid=0aa02c49-cbb3-4907-a588-f754056f3ba8"},"vehicle_type_id":"4","last_reported":1744060160,"current_range_meters":14400,"station_id":"ce4bgt12rcd13ifvqce0","pricing_plan_id":"cebpf4jnsgd1na2vs0mg"},{"bike_id":"bf61ee85-a98a-4de7-9464-757c7368502a","system_id":"levelo_inurba_marseille","lat":43.29792,"lon":5.3935,"is_reserved":false,"is_disabled":false,"rental_uris":{"android":"levelo://app?vid=bf61ee85-a98a-4de7-9464-757c7368502a","ios":"levelo://app?vid=bf61ee85-a98a-4de7-9464-757c7368502a"},"vehicle_type_id":"4","last_reported":1744060160,"current_range_meters":14400,"station_id":"chh1huq6cuj3fo74tm60","pricing_plan_id":"cebpf4jnsgd1na2vs0mg"},{"bike_id":"68d1cc33-0218-451e-8e10-d32225c21263","system_id":"levelo_inurba_marseille","lat":43.2315,"lon":5.43696,"is_reserved":false,"is_disabled":true,"rental_uris":{"android":"levelo://app?vid=68d1cc33-0218-451e-8e10-d32225c21263","ios":"levelo://app?vid=68d1cc33-0218-451e-8e10-d32225c21263"},"vehicle_type_id":"4","last_reported":1744060160,"current_range_meters":14400,"station_id":"ce4bhmp2rcd13ifvqgog","pricing_plan_id":"cebpf4jnsgd1na2vs0mg"},{"bike_id":"1c24abbf-d842-4df3-9e43-2ef3129819ef","system_id":"levelo_inurba_marseille","lat":43.29518,"lon":5.38545,"is_reserved":false,"is_disabled":false,"rental_uris":{"android":"levelo://app?vid=1c24abbf-d842-4df3-9e43-2ef3129819ef","ios":"levelo://app?vid=1c24abbf-d842-4df3-9e43-2ef3129819ef"},"vehicle_type_id":"4","last_reported":1744060160,"current_range_meters":14400,"station_id":"ce4bgih2rcd13ifvqba0","pricing_plan_id":"cebpf4jnsgd1na2vs0mg"},{"bike_id":"93e3fd92-d65f-4f36-ba40-a3e5476ebc87","system_id":"levelo_inurba_marseille","lat":43.30686,"lon":5.36682,"is_reserved":false,"is_disabled":false,"rental_uris":{"android":"levelo://app?vid=93e3fd92-d65f-4f36-ba40-a3e5476ebc87","ios":"levelo://app?vid=93e3fd92-d65f-4f36-ba40-a3e5476ebc87"},"vehicle_type_id":"4","last_reported":1744060160,"current_range_meters":14800,"station_id":"","pricing_plan_id":"cebpf4jnsgd1na2vs0mg"},{"bike_id":"41947e67-a831-4ba3-8cae-2c5603bc9a84","system_id":"levelo_inurba_marseille","lat":43.28571,"lon":5.39495,"is_reserved":false,"is_disabled":false,"rental_uris":{"android":"levelo://app?vid=41947e67-a831-4ba3-8cae-2c5603bc9a84","ios":"levelo://app?vid=41947e67-a831-4ba3-8cae-2c5603bc9a84"},"vehicle_type_id":"4","last_reported":1744060160,"current_range_meters":14800,"station_id":"ce4bh292rcd13ifvqdg0","pricing_plan_id":"cebpf4jnsgd1na2vs0mg"},{"bike_id":"f9dfa114-9392-45ea-82d5-7f9c22d73bc6","system_id":"levelo_inurba_marseille","lat":43.30869,"lon":5.36814,"is_reserved":false,"is_disabled":false,"rental_uris":{"android":"levelo://app?vid=f9dfa114-9392-45ea-82d5-7f9c22d73bc6","ios":"levelo://app?vid=f9dfa114-9392-45ea-82d5-7f9c22d73bc6"},"vehicle_type_id":"4","last_reported":1744060160,"current_range_meters":14800,"station_id":"","pricing_plan_id":"cebpf4jnsgd1na2vs0mg"},{"bike_id":"ee73be30-4fd4-4c33-873f-2d014df0c563","system_id":"levelo_inurba_marseille","lat":43.28683,"lon":5.37944,"is_reserved":false,"is_disabled":false,"rental_uris":{"android":"levelo://app?vid=ee73be30-4fd4-4c33-873f-2d014df0c563","ios":"levelo://app?vid=ee73be30-4fd4-4c33-873f-2d014df0c563"},"vehicle_type_id":"4","last_reported":1744060160,"current_range_meters":14800,"station_id":"ce4bh9p2rcd13ifvqec0","pricing_plan_id":"cebpf4jnsgd1na2vs0mg"},{"bike_id":"4c5ed3bf-cdf5-43ce-9e91-f475551dd826","system_id":"levelo_inurba_marseille","lat":43.31312,"lon":5.39694,"is_reserved":false,"is_disabled":false,"rental_uris":{"android":"levelo://app?vid=4c5ed3bf-cdf5-43ce-9e91-f475551dd826","ios":"levelo://app?vid=4c5ed3bf-cdf5-43ce-9e91-f475551dd826"},"vehicle_type_id":"4","last_reported":1744060160,"current_range_meters":14800,"station_id":"ce4bgvp2rcd13ifvqcu0","pricing_plan_id":"cebpf4jnsgd1na2vs0mg"},{"bike_id":"2ff2c383-3984-456b-a5a0-db3e2ba26221","system_id":"levelo_inurba_marseille","lat":43.30943,"lon":5.39029,"is_reserved":false,"is_disabled":false,"rental_uris":{"android":"levelo://app?vid=2ff2c383-3984-456b-a5a0-db3e2ba26221","ios":"levelo://app?vid=2ff2c383-3984-456b-a5a0-db3e2ba26221"},"vehicle_type_id":"4","last_reported":1744060160,"current_range_meters":14800,"station_id":"ce4bgup2rcd13ifvqco0","pricing_plan_id":"cebpf4jnsgd1na2vs0mg"},{"bike_id":"61cd41de-07c4-4597-a74e-0c712a9e4d87","system_id":"levelo_inurba_marseille","lat":43.22925,"lon":5.35382,"is_reserved":false,"is_disabled":true,"rental_uris":{"android":"levelo://app?vid=61cd41de-07c4-4597-a74e-0c712a9e4d87","ios":"levelo://app?vid=61cd41de-07c4-4597-a74e-0c712a9e4d87"},"vehicle_type_id":"4","last_reported":1744060160,"current_range_meters":14800,"station_id":"cpo3532slgdg3j2ikp40","pricing_plan_id":"cebpf4jnsgd1na2vs0mg"},{"bike_id":"7d03e8c4-09b6-43fd-b688-8fa9a993b909","system_id":"levelo_inurba_marseille","lat":43.30929,"lon":5.36734,"is_reserved":false,"is_disabled":false,"rental_uris":{"android":"levelo://app?vid=7d03e8c4-09b6-43fd-b688-8fa9a993b909","ios":"levelo://app?vid=7d03e8c4-09b6-43fd-b688-8fa9a993b909"},"vehicle_type_id":"4","last_reported":1744060160,"current_range_meters":14800,"station_id":"","pricing_plan_id":"cebpf4jnsgd1na2vs0mg"},{"bike_id":"a63c5d30-92b2-46b1-b33d-986f7d595d9d","system_id":"levelo_inurba_marseille","lat":43.25078,"lon":5.39502,"is_reserved":false,"is_disabled":false,"rental_uris":{"android":"levelo://app?vid=a63c5d30-92b2-46b1-b33d-986f7d595d9d","ios":"levelo://app?vid=a63c5d30-92b2-46b1-b33d-986f7d595d9d"},"vehicle_type_id":"4","last_reported":1744060160,"current_range_meters":14800,"station_id":"ce4bhm12rcd13ifvqgkg","pricing_plan_id":"cebpf4jnsgd1na2vs0mg"},{"bike_id":"bb53d251-c2a9-4c03-a6c7-9d1272d728dc","system_id":"levelo_inurba_marseille","lat":43.31353,"lon":5.38517,"is_reserved":false,"is_disabled":false,"rental_uris":{"android":"levelo://app?vid=bb53d251-c2a9-4c03-a6c7-9d1272d728dc","ios":"levelo://app?vid=bb53d251-c2a9-4c03-a6c7-9d1272d728dc"},"vehicle_type_id":"4","last_reported":1744060160,"current_range_meters":15200,"station_id":"ce4bgt92rcd13ifvqcf0","pricing_plan_id":"cebpf4jnsgd1na2vs0mg"},{"bike_id":"6ff17da5-9336-4cfd-974e-48be31ce9cbf","system_id":"levelo_inurba_marseille","lat":43.26557,"lon":5.37281,"is_reserved":false,"is_disabled":false,"rental_uris":{"android":"levelo://app?vid=6ff17da5-9336-4cfd-974e-48be31ce9cbf","ios":"levelo://app?vid=6ff17da5-9336-4cfd-974e-48be31ce9cbf"},"vehicle_type_id":"4","last_reported":1744060160,"current_range_meters":15200,"station_id":"ce4bhg12rcd13ifvqf70","pricing_plan_id":"cebpf4jnsgd1na2vs0mg"},{"bike_id":"28106982-b4c2-4a17-a517-f2f6ec8e207f","system_id":"levelo_inurba_marseille","lat":43.31359,"lon":5.385,"is_reserved":false,"is_disabled":false,"rental_uris":{"android":"levelo://app?vid=28106982-b4c2-4a17-a517-f2f6ec8e207f","ios":"levelo://app?vid=28106982-b4c2-4a17-a517-f2f6ec8e207f"},"vehicle_type_id":"4","last_reported":1744060160,"current_range_meters":15200,"station_id":"ce4bgt92rcd13ifvqcf0","pricing_plan_id":"cebpf4jnsgd1na2vs0mg"},{"bike_id":"a2b55975-55e4-4a3f-8af7-2c27ff45ed68","system_id":"levelo_inurba_marseille","lat":43.28161,"lon":5.42636,"is_reserved":false,"is_disabled":true,"rental_uris":{"android":"levelo://app?vid=a2b55975-55e4-4a3f-8af7-2c27ff45ed68","ios":"levelo://app?vid=a2b55975-55e4-4a3f-8af7-2c27ff45ed68"},"vehicle_type_id":"4","last_reported":1744060160,"current_range_meters":16000,"station_id":"ce4bhnh2rcd13ifvqgug","pricing_plan_id":"cebpf4jnsgd1na2vs0mg"},{"bike_id":"35f5b6d3-2e13-4db1-ab64-53db70d94c6f","system_id":"levelo_inurba_marseille","lat":43.26557,"lon":5.3729,"is_reserved":false,"is_disabled":false,"rental_uris":{"android":"levelo://app?vid=35f5b6d3-2e13-4db1-ab64-53db70d94c6f","ios":"levelo://app?vid=35f5b6d3-2e13-4db1-ab64-53db70d94c6f"},"vehicle_type_id":"4","last_reported":1744060160,"current_range_meters":16000,"station_id":"ce4bhg12rcd13ifvqf70","pricing_plan_id":"cebpf4jnsgd1na2vs0mg"},{"bike_id":"2b3a605f-171a-445c-9295-247f96f5dcad","system_id":"levelo_inurba_marseille","lat":43.28708,"lon":5.39984,"is_reserved":false,"is_disabled":false,"rental_uris":{"android":"levelo://app?vid=2b3a605f-171a-445c-9295-247f96f5dcad","ios":"levelo://app?vid=2b3a605f-171a-445c-9295-247f96f5dcad"},"vehicle_type_id":"4","last_reported":1744060160,"current_range_meters":16000,"station_id":"ce4bho92rcd13ifvqh3g","pricing_plan_id":"cebpf4jnsgd1na2vs0mg"},{"bike_id":"1ca7d0c4-b7aa-4350-ad9f-4e24c2ba029a","system_id":"levelo_inurba_marseille","lat":43.30387,"lon":5.42465,"is_reserved":false,"is_disabled":true,"rental_uris":{"android":"levelo://app?vid=1ca7d0c4-b7aa-4350-ad9f-4e24c2ba029a","ios":"levelo://app?vid=1ca7d0c4-b7aa-4350-ad9f-4e24c2ba029a"},"vehicle_type_id":"4","last_reported":1744060160,"current_range_meters":16000,"station_id":"ce4bhoh2rcd13ifvqh6g","pricing_plan_id":"cebpf4jnsgd1na2vs0mg"},{"bike_id":"158df057-ca83-4895-ad1d-881f1e1b56e6","system_id":"levelo_inurba_marseille","lat":43.27202,"lon":5.39189,"is_reserved":false,"is_disabled":true,"rental_uris":{"android":"levelo://app?vid=158df057-ca83-4895-ad1d-881f1e1b56e6","ios":"levelo://app?vid=158df057-ca83-4895-ad1d-881f1e1b56e6"},"vehicle_type_id":"4","last_reported":1744060160,"current_range_meters":16000,"station_id":"ce4bhhp2rcd13ifvqfm0","pricing_plan_id":"cebpf4jnsgd1na2vs0mg"},{"bike_id":"f143ff2e-721e-493c-bcdc-a7d2cc09ad81","system_id":"levelo_inurba_marseille","lat":43.31,"lon":5.37729,"is_reserved":false,"is_disabled":false,"rental_uris":{"android":"levelo://app?vid=f143ff2e-721e-493c-bcdc-a7d2cc09ad81","ios":"levelo://app?vid=f143ff2e-721e-493c-bcdc-a7d2cc09ad81"},"vehicle_type_id":"4","last_reported":1744060160,"current_range_meters":16000,"station_id":"","pricing_plan_id":"cebpf4jnsgd1na2vs0mg"},{"bike_id":"e0c712a4-8c41-4e69-a875-50251525a0f6","system_id":"levelo_inurba_marseille","lat":43.27952,"lon":5.40929,"is_reserved":false,"is_disabled":false,"rental_uris":{"android":"levelo://app?vid=e0c712a4-8c41-4e69-a875-50251525a0f6","ios":"levelo://app?vid=e0c712a4-8c41-4e69-a875-50251525a0f6"},"vehicle_type_id":"4","last_reported":1744060160,"current_range_meters":16000,"station_id":"","pricing_plan_id":"cebpf4jnsgd1na2vs0mg"},{"bike_id":"8ca06112-f353-412b-b15e-ec3377c94cc1","system_id":"levelo_inurba_marseille","lat":43.30092,"lon":5.39083,"is_reserved":false,"is_disabled":false,"rental_uris":{"android":"levelo://app?vid=8ca06112-f353-412b-b15e-ec3377c94cc1","ios":"levelo://app?vid=8ca06112-f353-412b-b15e-ec3377c94cc1"},"vehicle_type_id":"4","last_reported":1744060160,"current_range_meters":16000,"station_id":"ce4bh192rcd13ifvqdb0","pricing_plan_id":"cebpf4jnsgd1na2vs0mg"},{"bike_id":"45d83681-f2eb-4a39-a20c-4022ba893ea0","system_id":"levelo_inurba_marseille","lat":43.33942,"lon":5.39177,"is_reserved":false,"is_disabled":false,"rental_uris":{"android":"levelo://app?vid=45d83681-f2eb-4a39-a20c-4022ba893ea0","ios":"levelo://app?vid=45d83681-f2eb-4a39-a20c-4022ba893ea0"},"vehicle_type_id":"4","last_reported":1744060160,"current_range_meters":16000,"station_id":"","pricing_plan_id":"cebpf4jnsgd1na2vs0mg"},{"bike_id":"92b7ed43-544e-48a7-9211-49c5372e8440","system_id":"levelo_inurba_marseille","lat":43.28943,"lon":5.36629,"is_reserved":false,"is_disabled":false,"rental_uris":{"android":"levelo://app?vid=92b7ed43-544e-48a7-9211-49c5372e8440","ios":"levelo://app?vid=92b7ed43-544e-48a7-9211-49c5372e8440"},"vehicle_type_id":"4","last_reported":1744060160,"current_range_meters":16400,"station_id":"ce4bhap2rcd13ifvqek0","pricing_plan_id":"cebpf4jnsgd1na2vs0mg"},{"bike_id":"b23db0e0-8bdb-49ed-b6cd-ef632c3fc822","system_id":"levelo_inurba_marseille","lat":43.281,"lon":5.37845,"is_reserved":false,"is_disabled":false,"rental_uris":{"android":"levelo://app?vid=b23db0e0-8bdb-49ed-b6cd-ef632c3fc822","ios":"levelo://app?vid=b23db0e0-8bdb-49ed-b6cd-ef632c3fc822"},"vehicle_type_id":"4","last_reported":1744060160,"current_range_meters":16400,"station_id":"ce4bha12rcd13ifvqee0","pricing_plan_id":"cebpf4jnsgd1na2vs0mg"},{"bike_id":"856faea7-14cc-423a-9141-d6ae79141cb5","system_id":"levelo_inurba_marseille","lat":43.28668,"lon":5.36357,"is_reserved":false,"is_disabled":false,"rental_uris":{"android":"levelo://app?vid=856faea7-14cc-423a-9141-d6ae79141cb5","ios":"levelo://app?vid=856faea7-14cc-423a-9141-d6ae79141cb5"},"vehicle_type_id":"4","last_reported":1744060160,"current_range_meters":16400,"station_id":"ce4bhah2rcd13ifvqej0","pricing_plan_id":"cebpf4jnsgd1na2vs0mg"},{"bike_id":"f1e2fa16-262f-4907-ad0a-1dffa0dc2ed8","system_id":"levelo_inurba_marseille","lat":43.28732,"lon":5.36082,"is_reserved":false,"is_disabled":false,"rental_uris":{"android":"levelo://app?vid=f1e2fa16-262f-4907-ad0a-1dffa0dc2ed8","ios":"levelo://app?vid=f1e2fa16-262f-4907-ad0a-1dffa0dc2ed8"},"vehicle_type_id":"4","last_reported":1744060160,"current_range_meters":16400,"station_id":"cki0cbj6b192h4jlfktg","pricing_plan_id":"cebpf4jnsgd1na2vs0mg"},{"bike_id":"f0e5f8fc-186f-4f8d-ac1a-a52c8c71269c","system_id":"levelo_inurba_marseille","lat":43.31352,"lon":5.38507,"is_reserved":false,"is_disabled":false,"rental_uris":{"android":"levelo://app?vid=f0e5f8fc-186f-4f8d-ac1a-a52c8c71269c","ios":"levelo://app?vid=f0e5f8fc-186f-4f8d-ac1a-a52c8c71269c"},"vehicle_type_id":"4","last_reported":1744060160,"current_range_meters":16400,"station_id":"ce4bgt92rcd13ifvqcf0","pricing_plan_id":"cebpf4jnsgd1na2vs0mg"},{"bike_id":"d2818a82-492e-4cf8-8605-026ac930fd78","system_id":"levelo_inurba_marseille","lat":43.28444,"lon":5.35884,"is_reserved":false,"is_disabled":false,"rental_uris":{"android":"levelo://app?vid=d2818a82-492e-4cf8-8605-026ac930fd78","ios":"levelo://app?vid=d2818a82-492e-4cf8-8605-026ac930fd78"},"vehicle_type_id":"4","last_reported":1744060160,"current_range_meters":16400,"station_id":"ce4bhah2rcd13ifvqei0","pricing_plan_id":"cebpf4jnsgd1na2vs0mg"},{"bike_id":"1348ebda-69b3-4fab-9110-656bacb9c452","system_id":"levelo_inurba_marseille","lat":43.286581,"lon":5.363429,"is_reserved":false,"is_disabled":false,"rental_uris":{"android":"levelo://app?vid=1348ebda-69b3-4fab-9110-656bacb9c452","ios":"levelo://app?vid=1348ebda-69b3-4fab-9110-656bacb9c452"},"vehicle_type_id":"4","last_reported":1744060160,"current_range_meters":16400,"station_id":"ce4bhah2rcd13ifvqej0","pricing_plan_id":"cebpf4jnsgd1na2vs0mg"},{"bike_id":"01b7378b-2eb9-4de2-9d50-fb3034d8e0d7","system_id":"levelo_inurba_marseille","lat":43.30317,"lon":5.40444,"is_reserved":false,"is_disabled":false,"rental_uris":{"android":"levelo://app?vid=01b7378b-2eb9-4de2-9d50-fb3034d8e0d7","ios":"levelo://app?vid=01b7378b-2eb9-4de2-9d50-fb3034d8e0d7"},"vehicle_type_id":"4","last_reported":1744060160,"current_range_meters":16800,"station_id":"ce4bh012rcd13ifvqd10","pricing_plan_id":"cebpf4jnsgd1na2vs0mg"},{"bike_id":"f1b20645-df69-473f-aa9d-6dcd8e10dd4e","system_id":"levelo_inurba_marseille","lat":43.33601,"lon":5.41036,"is_reserved":false,"is_disabled":false,"rental_uris":{"android":"levelo://app?vid=f1b20645-df69-473f-aa9d-6dcd8e10dd4e","ios":"levelo://app?vid=f1b20645-df69-473f-aa9d-6dcd8e10dd4e"},"vehicle_type_id":"4","last_reported":1744060160,"current_range_meters":16800,"station_id":"ce4bhqh2rcd13ifvqhmg","pricing_plan_id":"cebpf4jnsgd1na2vs0mg"},{"bike_id":"fe78b1de-ee9f-4555-b054-a2a57774907e","system_id":"levelo_inurba_marseille","lat":43.262122,"lon":5.374412,"is_reserved":false,"is_disabled":false,"rental_uris":{"android":"levelo://app?vid=fe78b1de-ee9f-4555-b054-a2a57774907e","ios":"levelo://app?vid=fe78b1de-ee9f-4555-b054-a2a57774907e"},"vehicle_type_id":"4","last_reported":1744060160,"current_range_meters":16800,"station_id":"ce4bhgp2rcd13ifvqfc0","pricing_plan_id":"cebpf4jnsgd1na2vs0mg"},{"bike_id":"d80533cc-8dc7-4356-8433-af344ad5199e","system_id":"levelo_inurba_marseille","lat":43.28697,"lon":5.39975,"is_reserved":false,"is_disabled":false,"rental_uris":{"android":"levelo://app?vid=d80533cc-8dc7-4356-8433-af344ad5199e","ios":"levelo://app?vid=d80533cc-8dc7-4356-8433-af344ad5199e"},"vehicle_type_id":"4","last_reported":1744060160,"current_range_meters":16800,"station_id":"ce4bho92rcd13ifvqh3g","pricing_plan_id":"cebpf4jnsgd1na2vs0mg"},{"bike_id":"7a27bbe8-2753-4075-8ccd-7f573c8d455f","system_id":"levelo_inurba_marseille","lat":43.24174,"lon":5.39724,"is_reserved":false,"is_disabled":false,"rental_uris":{"android":"levelo://app?vid=7a27bbe8-2753-4075-8ccd-7f573c8d455f","ios":"levelo://app?vid=7a27bbe8-2753-4075-8ccd-7f573c8d455f"},"vehicle_type_id":"4","last_reported":1744060160,"current_range_meters":16800,"station_id":"ce4bhn12rcd13ifvqgpg","pricing_plan_id":"cebpf4jnsgd1na2vs0mg"},{"bike_id":"19bb28ca-216b-4255-a4eb-cf63bcca46db","system_id":"levelo_inurba_marseille","lat":43.284665,"lon":5.358885,"is_reserved":false,"is_disabled":false,"rental_uris":{"android":"levelo://app?vid=19bb28ca-216b-4255-a4eb-cf63bcca46db","ios":"levelo://app?vid=19bb28ca-216b-4255-a4eb-cf63bcca46db"},"vehicle_type_id":"4","last_reported":1744060160,"current_range_meters":16800,"station_id":"ce4bhah2rcd13ifvqei0","pricing_plan_id":"cebpf4jnsgd1na2vs0mg"},{"bike_id":"fbe27213-9351-4c47-8819-a8eeb6a2201b","system_id":"levelo_inurba_marseille","lat":43.28387,"lon":5.3754,"is_reserved":false,"is_disabled":false,"rental_uris":{"android":"levelo://app?vid=fbe27213-9351-4c47-8819-a8eeb6a2201b","ios":"levelo://app?vid=fbe27213-9351-4c47-8819-a8eeb6a2201b"},"vehicle_type_id":"4","last_reported":1744060160,"current_range_meters":16800,"station_id":"ce4bh412rcd13ifvqds0","pricing_plan_id":"cebpf4jnsgd1na2vs0mg"},{"bike_id":"ad0d4453-2c58-4258-8e17-aa49c50e1a2a","system_id":"levelo_inurba_marseille","lat":43.32003,"lon":5.38154,"is_reserved":false,"is_disabled":false,"rental_uris":{"android":"levelo://app?vid=ad0d4453-2c58-4258-8e17-aa49c50e1a2a","ios":"levelo://app?vid=ad0d4453-2c58-4258-8e17-aa49c50e1a2a"},"vehicle_type_id":"4","last_reported":1744060160,"current_range_meters":16800,"station_id":"ce4bhr12rcd13ifvqhpg","pricing_plan_id":"cebpf4jnsgd1na2vs0mg"},{"bike_id":"93e6b926-84ae-4be7-b35c-f97b9a0b42d5","system_id":"levelo_inurba_marseille","lat":43.28702,"lon":5.37432,"is_reserved":false,"is_disabled":false,"rental_uris":{"android":"levelo://app?vid=93e6b926-84ae-4be7-b35c-f97b9a0b42d5","ios":"levelo://app?vid=93e6b926-84ae-4be7-b35c-f97b9a0b42d5"},"vehicle_type_id":"4","last_reported":1744060160,"current_range_meters":16800,"station_id":"ce4bh3p2rcd13ifvqdq0","pricing_plan_id":"cebpf4jnsgd1na2vs0mg"},{"bike_id":"b397701f-0d3d-44bf-ab3e-3ccc7e74fb2e","system_id":"levelo_inurba_marseille","lat":43.26427,"lon":5.42258,"is_reserved":false,"is_disabled":false,"rental_uris":{"android":"levelo://app?vid=b397701f-0d3d-44bf-ab3e-3ccc7e74fb2e","ios":"levelo://app?vid=b397701f-0d3d-44bf-ab3e-3ccc7e74fb2e"},"vehicle_type_id":"4","last_reported":1744060160,"current_range_meters":16800,"station_id":"","pricing_plan_id":"cebpf4jnsgd1na2vs0mg"},{"bike_id":"d6292f3f-8691-453f-a87d-9da4ee46974e","system_id":"levelo_inurba_marseille","lat":43.31711,"lon":5.43704,"is_reserved":false,"is_disabled":false,"rental_uris":{"android":"levelo://app?vid=d6292f3f-8691-453f-a87d-9da4ee46974e","ios":"levelo://app?vid=d6292f3f-8691-453f-a87d-9da4ee46974e"},"vehicle_type_id":"4","last_reported":1744060160,"current_range_meters":9600,"station_id":"ce4bhp92rcd13ifvqhcg","pricing_plan_id":"cebpf4jnsgd1na2vs0mg"},{"bike_id":"6083c5ea-b939-4297-84a0-a1d53b68cd5a","system_id":"levelo_inurba_marseille","lat":43.28408,"lon":5.3753,"is_reserved":false,"is_disabled":false,"rental_uris":{"android":"levelo://app?vid=6083c5ea-b939-4297-84a0-a1d53b68cd5a","ios":"levelo://app?vid=6083c5ea-b939-4297-84a0-a1d53b68cd5a"},"vehicle_type_id":"4","last_reported":1744060160,"current_range_meters":17200,"station_id":"ce4bh412rcd13ifvqds0","pricing_plan_id":"cebpf4jnsgd1na2vs0mg"},{"bike_id":"e054f688-e975-45ab-8945-bcc4f74953b0","system_id":"levelo_inurba_marseille","lat":43.29514,"lon":5.39063,"is_reserved":false,"is_disabled":false,"rental_uris":{"android":"levelo://app?vid=e054f688-e975-45ab-8945-bcc4f74953b0","ios":"levelo://app?vid=e054f688-e975-45ab-8945-bcc4f74953b0"},"vehicle_type_id":"4","last_reported":1744060160,"current_range_meters":17200,"station_id":"ce4bh3p2rcd13ifvqdp0","pricing_plan_id":"cebpf4jnsgd1na2vs0mg"},{"bike_id":"6e197547-19f8-4d8d-91ef-74eee60feac5","system_id":"levelo_inurba_marseille","lat":43.26503,"lon":5.39555,"is_reserved":false,"is_disabled":false,"rental_uris":{"android":"levelo://app?vid=6e197547-19f8-4d8d-91ef-74eee60feac5","ios":"levelo://app?vid=6e197547-19f8-4d8d-91ef-74eee60feac5"},"vehicle_type_id":"4","last_reported":1744060160,"current_range_meters":17200,"station_id":"ce4bhi12rcd13ifvqfq0","pricing_plan_id":"cebpf4jnsgd1na2vs0mg"},{"bike_id":"95cd3b4c-70dd-46b8-86a3-af37109c10c1","system_id":"levelo_inurba_marseille","lat":43.29536,"lon":5.38552,"is_reserved":false,"is_disabled":false,"rental_uris":{"android":"levelo://app?vid=95cd3b4c-70dd-46b8-86a3-af37109c10c1","ios":"levelo://app?vid=95cd3b4c-70dd-46b8-86a3-af37109c10c1"},"vehicle_type_id":"4","last_reported":1744060160,"current_range_meters":17200,"station_id":"ce4bgih2rcd13ifvqba0","pricing_plan_id":"cebpf4jnsgd1na2vs0mg"},{"bike_id":"67f5402e-84ba-4cca-bae1-1308d8bfce95","system_id":"levelo_inurba_marseille","lat":43.32354,"lon":5.36758,"is_reserved":false,"is_disabled":false,"rental_uris":{"android":"levelo://app?vid=67f5402e-84ba-4cca-bae1-1308d8bfce95","ios":"levelo://app?vid=67f5402e-84ba-4cca-bae1-1308d8bfce95"},"vehicle_type_id":"4","last_reported":1744060160,"current_range_meters":17200,"station_id":"ce4bhsh2rcd13ifvqi2g","pricing_plan_id":"cebpf4jnsgd1na2vs0mg"},{"bike_id":"d41a164c-6af8-4344-bffb-3b3c38a6d184","system_id":"levelo_inurba_marseille","lat":43.30539,"lon":5.3653,"is_reserved":false,"is_disabled":true,"rental_uris":{"android":"levelo://app?vid=d41a164c-6af8-4344-bffb-3b3c38a6d184","ios":"levelo://app?vid=d41a164c-6af8-4344-bffb-3b3c38a6d184"},"vehicle_type_id":"4","last_reported":1744060160,"current_range_meters":17200,"station_id":"ce4bgs12rcd13ifvqcag","pricing_plan_id":"cebpf4jnsgd1na2vs0mg"},{"bike_id":"af24e20d-cd14-47b0-8e42-24aa1cee57db","system_id":"levelo_inurba_marseille","lat":43.27487,"lon":5.42445,"is_reserved":false,"is_disabled":false,"rental_uris":{"android":"levelo://app?vid=af24e20d-cd14-47b0-8e42-24aa1cee57db","ios":"levelo://app?vid=af24e20d-cd14-47b0-8e42-24aa1cee57db"},"vehicle_type_id":"4","last_reported":1744060160,"current_range_meters":17200,"station_id":"ce4bhn92rcd13ifvqgrg","pricing_plan_id":"cebpf4jnsgd1na2vs0mg"},{"bike_id":"3a623142-9aab-435a-98a5-0d62aaa52c1d","system_id":"levelo_inurba_marseille","lat":43.25155,"lon":5.40384,"is_reserved":false,"is_disabled":false,"rental_uris":{"android":"levelo://app?vid=3a623142-9aab-435a-98a5-0d62aaa52c1d","ios":"levelo://app?vid=3a623142-9aab-435a-98a5-0d62aaa52c1d"},"vehicle_type_id":"4","last_reported":1744060160,"current_range_meters":17600,"station_id":"","pricing_plan_id":"cebpf4jnsgd1na2vs0mg"},{"bike_id":"2aff3da0-1529-4960-a86c-d64b02e2b8cd","system_id":"levelo_inurba_marseille","lat":43.23043,"lon":5.35494,"is_reserved":false,"is_disabled":false,"rental_uris":{"android":"levelo://app?vid=2aff3da0-1529-4960-a86c-d64b02e2b8cd","ios":"levelo://app?vid=2aff3da0-1529-4960-a86c-d64b02e2b8cd"},"vehicle_type_id":"4","last_reported":1744060160,"current_range_meters":17600,"station_id":"cpo3342slgdg3j2ifvpg","pricing_plan_id":"cebpf4jnsgd1na2vs0mg"},{"bike_id":"718176bc-61de-47bf-94b2-be6d3995c1b2","system_id":"levelo_inurba_marseille","lat":43.30375,"lon":5.42492,"is_reserved":false,"is_disabled":false,"rental_uris":{"android":"levelo://app?vid=718176bc-61de-47bf-94b2-be6d3995c1b2","ios":"levelo://app?vid=718176bc-61de-47bf-94b2-be6d3995c1b2"},"vehicle_type_id":"4","last_reported":1744060160,"current_range_meters":17600,"station_id":"ce4bhoh2rcd13ifvqh6g","pricing_plan_id":"cebpf4jnsgd1na2vs0mg"},{"bike_id":"66ce144d-6ff8-4608-aad0-1fa8c819f9a9","system_id":"levelo_inurba_marseille","lat":43.27974,"lon":5.386923,"is_reserved":false,"is_disabled":false,"rental_uris":{"android":"levelo://app?vid=66ce144d-6ff8-4608-aad0-1fa8c819f9a9","ios":"levelo://app?vid=66ce144d-6ff8-4608-aad0-1fa8c819f9a9"},"vehicle_type_id":"4","last_reported":1744060160,"current_range_meters":17600,"station_id":"ce4bhi12rcd13ifvqfo0","pricing_plan_id":"cebpf4jnsgd1na2vs0mg"},{"bike_id":"0d137e5e-4aa9-4d4c-b4ca-556b2a058b9d","system_id":"levelo_inurba_marseille","lat":43.24749,"lon":5.39442,"is_reserved":false,"is_disabled":false,"rental_uris":{"android":"levelo://app?vid=0d137e5e-4aa9-4d4c-b4ca-556b2a058b9d","ios":"levelo://app?vid=0d137e5e-4aa9-4d4c-b4ca-556b2a058b9d"},"vehicle_type_id":"4","last_reported":1744060160,"current_range_meters":17600,"station_id":"","pricing_plan_id":"cebpf4jnsgd1na2vs0mg"},{"bike_id":"a4cd70d8-1d72-48fa-91f5-25356097ab83","system_id":"levelo_inurba_marseille","lat":43.28035,"lon":5.36952,"is_reserved":false,"is_disabled":false,"rental_uris":{"android":"levelo://app?vid=a4cd70d8-1d72-48fa-91f5-25356097ab83","ios":"levelo://app?vid=a4cd70d8-1d72-48fa-91f5-25356097ab83"},"vehicle_type_id":"4","last_reported":1744060160,"current_range_meters":17600,"station_id":"ce4bha12rcd13ifvqef0","pricing_plan_id":"cebpf4jnsgd1na2vs0mg"},{"bike_id":"aabb93c4-65dc-483d-9fd8-04828834eee9","system_id":"levelo_inurba_marseille","lat":43.28953,"lon":5.36635,"is_reserved":false,"is_disabled":false,"rental_uris":{"android":"levelo://app?vid=aabb93c4-65dc-483d-9fd8-04828834eee9","ios":"levelo://app?vid=aabb93c4-65dc-483d-9fd8-04828834eee9"},"vehicle_type_id":"4","last_reported":1744060160,"current_range_meters":18000,"station_id":"ce4bhap2rcd13ifvqek0","pricing_plan_id":"cebpf4jnsgd1na2vs0mg"},{"bike_id":"783f9a62-ebbf-4af8-8ed8-5c9ec8f23aeb","system_id":"levelo_inurba_marseille","lat":43.28633,"lon":5.35091,"is_reserved":false,"is_disabled":false,"rental_uris":{"android":"levelo://app?vid=783f9a62-ebbf-4af8-8ed8-5c9ec8f23aeb","ios":"levelo://app?vid=783f9a62-ebbf-4af8-8ed8-5c9ec8f23aeb"},"vehicle_type_id":"4","last_reported":1744060160,"current_range_meters":18000,"station_id":"ce4bhch2rcd13ifvqeug","pricing_plan_id":"cebpf4jnsgd1na2vs0mg"},{"bike_id":"978aed51-786f-4224-bab6-97020f1b8edb","system_id":"levelo_inurba_marseille","lat":43.30594,"lon":5.37256,"is_reserved":false,"is_disabled":false,"rental_uris":{"android":"levelo://app?vid=978aed51-786f-4224-bab6-97020f1b8edb","ios":"levelo://app?vid=978aed51-786f-4224-bab6-97020f1b8edb"},"vehicle_type_id":"4","last_reported":1744060160,"current_range_meters":17600,"station_id":"ce4bgqh2rcd13ifvqc4g","pricing_plan_id":"cebpf4jnsgd1na2vs0mg"},{"bike_id":"1a5b8aa6-04f8-433b-b0d7-351161d53681","system_id":"levelo_inurba_marseille","lat":43.27923,"lon":5.41039,"is_reserved":false,"is_disabled":false,"rental_uris":{"android":"levelo://app?vid=1a5b8aa6-04f8-433b-b0d7-351161d53681","ios":"levelo://app?vid=1a5b8aa6-04f8-433b-b0d7-351161d53681"},"vehicle_type_id":"4","last_reported":1744060160,"current_range_meters":18000,"station_id":"ce4bhnp2rcd13ifvqh0g","pricing_plan_id":"cebpf4jnsgd1na2vs0mg"},{"bike_id":"25addcb4-8c65-4b9f-a107-9a505bc7e1e5","system_id":"levelo_inurba_marseille","lat":43.3146,"lon":5.36871,"is_reserved":false,"is_disabled":false,"rental_uris":{"android":"levelo://app?vid=25addcb4-8c65-4b9f-a107-9a505bc7e1e5","ios":"levelo://app?vid=25addcb4-8c65-4b9f-a107-9a505bc7e1e5"},"vehicle_type_id":"4","last_reported":1744060160,"current_range_meters":18000,"station_id":"","pricing_plan_id":"cebpf4jnsgd1na2vs0mg"},{"bike_id":"3992552f-8665-4257-82ce-346cf4533fc2","system_id":"levelo_inurba_marseille","lat":43.27801,"lon":5.40716,"is_reserved":false,"is_disabled":false,"rental_uris":{"android":"levelo://app?vid=3992552f-8665-4257-82ce-346cf4533fc2","ios":"levelo://app?vid=3992552f-8665-4257-82ce-346cf4533fc2"},"vehicle_type_id":"4","last_reported":1744060160,"current_range_meters":18000,"station_id":"ce4bhnh2rcd13ifvqgtg","pricing_plan_id":"cebpf4jnsgd1na2vs0mg"},{"bike_id":"b8be0567-038b-48eb-9380-5989f6d415b9","system_id":"levelo_inurba_marseille","lat":43.26797,"lon":5.40267,"is_reserved":false,"is_disabled":false,"rental_uris":{"android":"levelo://app?vid=b8be0567-038b-48eb-9380-5989f6d415b9","ios":"levelo://app?vid=b8be0567-038b-48eb-9380-5989f6d415b9"},"vehicle_type_id":"4","last_reported":1744060160,"current_range_meters":18800,"station_id":"ce501612rcd8frsf0b60","pricing_plan_id":"cebpf4jnsgd1na2vs0mg"},{"bike_id":"852819f8-8577-46de-b1fa-432b264e47e4","system_id":"levelo_inurba_marseille","lat":43.246585,"lon":5.381629,"is_reserved":false,"is_disabled":false,"rental_uris":{"android":"levelo://app?vid=852819f8-8577-46de-b1fa-432b264e47e4","ios":"levelo://app?vid=852819f8-8577-46de-b1fa-432b264e47e4"},"vehicle_type_id":"4","last_reported":1744060160,"current_range_meters":18800,"station_id":"ce4bhn12rcd13ifvqgpg","pricing_plan_id":"cebpf4jnsgd1na2vs0mg"},{"bike_id":"5883349d-156c-4cae-8a79-6c1a430d4d9b","system_id":"levelo_inurba_marseille","lat":43.31154,"lon":5.38769,"is_reserved":false,"is_disabled":false,"rental_uris":{"android":"levelo://app?vid=5883349d-156c-4cae-8a79-6c1a430d4d9b","ios":"levelo://app?vid=5883349d-156c-4cae-8a79-6c1a430d4d9b"},"vehicle_type_id":"4","last_reported":1744060160,"current_range_meters":18800,"station_id":"ce4bgv12rcd13ifvqcp0","pricing_plan_id":"cebpf4jnsgd1na2vs0mg"},{"bike_id":"ffd23061-d90c-47a4-89fb-f1646bcdff1c","system_id":"levelo_inurba_marseille","lat":43.27051,"lon":5.42277,"is_reserved":false,"is_disabled":true,"rental_uris":{"android":"levelo://app?vid=ffd23061-d90c-47a4-89fb-f1646bcdff1c","ios":"levelo://app?vid=ffd23061-d90c-47a4-89fb-f1646bcdff1c"},"vehicle_type_id":"4","last_reported":1744060160,"current_range_meters":18800,"station_id":"ce4bhk92rcd13ifvqgb0","pricing_plan_id":"cebpf4jnsgd1na2vs0mg"},{"bike_id":"230b73a5-e986-4f1f-933c-dca4f2cf61af","system_id":"levelo_inurba_marseille","lat":43.34738,"lon":5.34666,"is_reserved":false,"is_disabled":false,"rental_uris":{"android":"levelo://app?vid=230b73a5-e986-4f1f-933c-dca4f2cf61af","ios":"levelo://app?vid=230b73a5-e986-4f1f-933c-dca4f2cf61af"},"vehicle_type_id":"4","last_reported":1744060160,"current_range_meters":18800,"station_id":"","pricing_plan_id":"cebpf4jnsgd1na2vs0mg"},{"bike_id":"302b0c63-344c-4e0d-b6e7-6cb2af7663da","system_id":"levelo_inurba_marseille","lat":43.26951,"lon":5.38622,"is_reserved":false,"is_disabled":true,"rental_uris":{"android":"levelo://app?vid=302b0c63-344c-4e0d-b6e7-6cb2af7663da","ios":"levelo://app?vid=302b0c63-344c-4e0d-b6e7-6cb2af7663da"},"vehicle_type_id":"4","last_reported":1744060160,"current_range_meters":18800,"station_id":"ce4bhh92rcd13ifvqfh0","pricing_plan_id":"cebpf4jnsgd1na2vs0mg"},{"bike_id":"b7ea98cd-7ee2-4883-bc42-aca939a5c4d9","system_id":"levelo_inurba_marseille","lat":43.28565,"lon":5.39483,"is_reserved":false,"is_disabled":false,"rental_uris":{"android":"levelo://app?vid=b7ea98cd-7ee2-4883-bc42-aca939a5c4d9","ios":"levelo://app?vid=b7ea98cd-7ee2-4883-bc42-aca939a5c4d9"},"vehicle_type_id":"4","last_reported":1744060160,"current_range_meters":18800,"station_id":"ce4bh292rcd13ifvqdg0","pricing_plan_id":"cebpf4jnsgd1na2vs0mg"},