{"last_updated":1704190057,"ttl":30,"version":"2.2","data":{"bikes":[{"bike_id":"3544ae93-e3f3-4447-9813-9dd1706656b8","system_id":"levelo_inurba_marseille","lat":43.31341,"lon":5.367098,"is_reserved":false,"is_disabled":false,"rental_uris":{"android":"levelo://app?vid=3544ae93-e3f3-4447-9813-9dd1706656b8","ios":"levelo://app?vid=3544ae93-e3f3-4447-9813-9dd1706656b8"},"vehicle_type_id":"4","last_reported":1704190057,"current_range_meters":29200,"station_id":"ce4bgr92rcd13ifvqc6g","pricing_plan_id":"free"},{"bike_id":"50ffb39d-c405-4192-ba10-8fe04060eef3","system_id":"levelo_inurba_marseille","lat":43.31341,"lon":5.367098,"is_reserved":false,"is_disabled":false,"rental_uris":{"android":"levelo://app?vid=50ffb39d-c405-4192-ba10-8fe04060eef3","ios":"levelo://app?vid=50ffb39d-c405-4192-ba10-8fe04060eef3"},"vehicle_type_id":"4","last_reported":1704190057,"current_range_meters":31200,"station_id":"ce4bgr92rcd13ifvqc6g","pricing_plan_id":"free"},{"bike_id":"0f9aea24-df7b-452e-9ec9-508a486be078","system_id":"levelo_inurba_marseille","lat":43.313391,"lon":5.36706,"is_reserved":false,"is_disabled":false,"rental_uris":{"android":"levelo://app?vid=0f9aea24-df7b-452e-9ec9-508a486be078","ios":"levelo://app?vid=0f9aea24-df7b-452e-9ec9-508a486be078"},"vehicle_type_id":"4","last_reported":1704190057,"current_range_meters":31200,"station_id":"ce4bgr92rcd13ifvqc6g","pricing_plan_id":"free"},{"bike_id":"4ca3c03b-77c4-4cab-a5ac-9bdadef7281d","system_id":"levelo_inurba_marseille","lat":43.31341,"lon":5.367098,"is_reserved":false,"is_disabled":false,"rental_uris":{"android":"levelo://app?vid=4ca3c03b-77c4-4cab-a5ac-9bdadef7281d","ios":"levelo://app?vid=4ca3c03b-77c4-4cab-a5ac-9bdadef7281d"},"vehicle_type_id":"4","last_reported":1704190057,"current_range_meters":14000,"station_id":"ce4bgr92rcd13ifvqc6g","pricing_plan_id":"free"},{"bike_id":"70da60cf-d83d-4298-9e4b-ebb5942f7183","system_id":"levelo_inurba_marseille","lat":43.313391,"lon":5.36706,"is_reserved":false,"is_disabled":false,"rental_uris":{"android":"levelo://app?vid=70da60cf-d83d-4298-9e4b-ebb5942f7183","ios":"levelo://app?vid=70da60cf-d83d-4298-9e4b-ebb5942f7183"},"vehicle_type_id":"4","last_reported":1704190057,"current_range_meters":28400,"station_id":"ce4bgr92rcd13ifvqc6g","pricing_plan_id":"free"},{"bike_id":"a4b18785-2497-4cb8-80f8-53c5fd8b5a3a","system_id":"levelo_inurba_marseille","lat":43.313391,"lon":5.36706,"is_reserved":false,"is_disabled":false,"rental_uris":{"android":"levelo://app?vid=a4b18785-2497-4cb8-80f8-53c5fd8b5a3a","ios":"levelo://app?vid=a4b18785-2497-4cb8-80f8-53c5fd8b5a3a"},"vehicle_type_id":"4","last_reported":1704190057,"current_range_meters":26000,"station_id":"ce4bgr92rcd13ifvqc6g","pricing_plan_id":"free"},{"bike_id":"94815bb6-a315-4397-9caa-22f1e5bd1b4d","system_id":"levelo_inurba_marseille","lat":43.31341,"lon":5.367098,"is_reserved":false,"is_disabled":false,"rental_uris":{"android":"levelo://app?vid=94815bb6-a315-4397-9caa-22f1e5bd1b4d","ios":"levelo://app?vid=94815bb6-a315-4397-9caa-22f1e5bd1b4d"},"vehicle_type_id":"4","last_reported":1704190057,"current_range_meters":26400,"station_id":"ce4bgr92rcd13ifvqc6g","pricing_plan_id":"free"},{"bike_id":"3f6fcf22-34f3-498b-bfaa-b340667e201d","system_id":"levelo_inurba_marseille","lat":43.31341,"lon":5.367098,"is_reserved":false,"is_disabled":false,"rental_uris":{"android":"levelo://app?vid=3f6fcf22-34f3-498b-bfaa-b340667e201d","ios":"levelo://app?vid=3f6fcf22-34f3-498b-bfaa-b340667e201d"},"vehicle_type_id":"4","last_reported":1704190057,"current_range_meters":25200,"station_id":"ce4bgr92rcd13ifvqc6g","pricing_plan_id":"free"},{"bike_id":"21d9df69-8fd6-4789-b43a-e843b2feff9a","system_id":"levelo_inurba_marseille","lat":43.313391,"lon":5.36706,"is_reserved":false,"is_disabled":false,"rental_uris":{"android":"levelo://app?vid=21d9df69-8fd6-4789-b43a-e843b2feff9a","ios":"levelo://app?vid=21d9df69-8fd6-4789-b43a-e843b2feff9a"},"vehicle_type_id":"4","last_reported":1704190057,"current_range_meters":26400,"station_id":"ce4bgr92rcd13ifvqc6g","pricing_plan_id":"free"},{"bike_id":"c1bb20c0-6380-4f3c-aed9-cff20efe3a85","system_id":"levelo_inurba_marseille","lat":43.313391,"lon":5.36706,"is_reserved":false,"is_disabled":false,"rental_uris":{"android":"levelo://app?vid=c1bb20c0-6380-4f3c-aed9-cff20efe3a85","ios":"levelo://app?vid=c1bb20c0-6380-4f3c-aed9-cff20efe3a85"},"vehicle_type_id":"4","last_reported":1704190057,"current_range_meters":26800,"station_id":"ce4bgr92rcd13ifvqc6g","pricing_plan_id":"free"},{"bike_id":"8e72b23e-828b-4675-953a-7a07bf4f8706","system_id":"levelo_inurba_marseille","lat":43.31341,"lon":5.367098,"is_reserved":false,"is_disabled":false,"rental_uris":{"android":"levelo://app?vid=8e72b23e-828b-4675-953a-7a07bf4f8706","ios":"levelo://app?vid=8e72b23e-828b-4675-953a-7a07bf4f8706"},"vehicle_type_id":"4","last_reported":1704190057,"current_range_meters":24400,"station_id":"ce4bgr92rcd13ifvqc6g","pricing_plan_id":"free"},{"bike_id":"be50926c-df12-444e-bd83-5f0901f6d78e","system_id":"levelo_inurba_marseille","lat":43.312239,"lon":5.368562,"is_reserved":false,"is_disabled":false,"rental_uris":{"android":"levelo://app?vid=be50926c-df12-444e-bd83-5f0901f6d78e","ios":"levelo://app?vid=be50926c-df12-444e-bd83-5f0901f6d78e"},"vehicle_type_id":"4","last_reported":1704190057,"current_range_meters":17600,"station_id":"ce4bgl92rcd13ifvqbq0","pricing_plan_id":"free"},{"bike_id":"ab65979a-b67f-4fcc-9ce8-e9b5f3c8c97e","system_id":"levelo_inurba_marseille","lat":43.312239,"lon":5.368562,"is_reserved":false,"is_disabled":false,"rental_uris":{"android":"levelo://app?vid=ab65979a-b67f-4fcc-9ce8-e9b5f3c8c97e","ios":"levelo://app?vid=ab65979a-b67f-4fcc-9ce8-e9b5f3c8c97e"},"vehicle_type_id":"4","last_reported":1704190057,"current_range_meters":31200,"station_id":"ce4bgl92rcd13ifvqbq0","pricing_plan_id":"free"},{"bike_id":"f8515c16-45ec-43ac-86e4-c20f8afafe4d","system_id":"levelo_inurba_marseille","lat":43.312239,"lon":5.368562,"is_reserved":false,"is_disabled":false,"rental_uris":{"android":"levelo://app?vid=f8515c16-45ec-43ac-86e4-c20f8afafe4d","ios":"levelo://app?vid=f8515c16-45ec-43ac-86e4-c20f8afafe4d"},"vehicle_type_id":"4","last_reported":1704190057,"current_range_meters":31200,"station_id":"ce4bgl92rcd13ifvqbq0","pricing_plan_id":"free"},{"bike_id":"16e2b7ca-bbc9-4f1f-8d8e-64f8e49944d9","system_id":"levelo_inurba_marseille","lat":43.312239,"lon":5.368562,"is_reserved":false,"is_disabled":false,"rental_uris":{"android":"levelo://app?vid=16e2b7ca-bbc9-4f1f-8d8e-64f8e49944d9","ios":"levelo://app?vid=16e2b7ca-bbc9-4f1f-8d8e-64f8e49944d9"},"vehicle_type_id":"4","last_reported":1704190057,"current_range_meters":31200,"station_id":"ce4bgl92rcd13ifvqbq0","pricing_plan_id":"free"},{"bike_id":"add2c172-a38d-4833-9b68-a4b3e1814900","system_id":"levelo_inurba_marseille","lat":43.312239,"lon":5.368562,"is_reserved":false,"is_disabled":false,"rental_uris":{"android":"levelo://app?vid=add2c172-a38d-4833-9b68-a4b3e1814900","ios":"levelo://app?vid=add2c172-a38d-4833-9b68-a4b3e1814900"},"vehicle_type_id":"4","last_reported":1704190057,"current_range_meters":24000,"station_id":"ce4bgl92rcd13ifvqbq0","pricing_plan_id":"free"},{"bike_id":"35565607-172d-4dea-a0a2-86b98321545b","system_id":"levelo_inurba_marseille","lat":43.312239,"lon":5.368562,"is_reserved":false,"is_disabled":false,"rental_uris":{"android":"levelo://app?vid=35565607-172d-4dea-a0a2-86b98321545b","ios":"levelo://app?vid=35565607-172d-4dea-a0a2-86b98321545b"},"vehicle_type_id":"4","last_reported":1704190057,"current_range_meters":19200,"station_id":"ce4bgl92rcd13ifvqbq0","pricing_plan_id":"free"},{"bike_id":"d84b4337-d35d-4290-a812-d91d2101cf7e","system_id":"levelo_inurba_marseille","lat":43.312239,"lon":5.368562,"is_reserved":false,"is_disabled":false,"rental_uris":{"android":"levelo://app?vid=d84b4337-d35d-4290-a812-d91d2101cf7e","ios":"levelo://app?vid=d84b4337-d35d-4290-a812-d91d2101cf7e"},"vehicle_type_id":"4","last_reported":1704190057,"current_range_meters":24000,"station_id":"ce4bgl92rcd13ifvqbq0","pricing_plan_id":"free"},{"bike_id":"44a80ee9-c504-495b-aee9-1bf6ab0b3611","system_id":"levelo_inurba_marseille","lat":43.309076,"lon":5.368465,"is_reserved":false,"is_disabled":false,"rental_uris":{"android":"levelo://app?vid=44a80ee9-c504-495b-aee9-1bf6ab0b3611","ios":"levelo://app?vid=44a80ee9-c504-495b-aee9-1bf6ab0b3611"},"vehicle_type_id":"4","last_reported":1704190057,"current_range_meters":25600,"station_id":"ce4bgn92rcd13ifvqbvg","pricing_plan_id":"free"},{"bike_id":"54c69c60-f4c6-4a48-8e97-a5548c5890d2","system_id":"levelo_inurba_marseille","lat":43.309076,"lon":5.368465,"is_reserved":false,"is_disabled":false,"rental_uris":{"android":"levelo://app?vid=54c69c60-f4c6-4a48-8e97-a5548c5890d2","ios":"levelo://app?vid=54c69c60-f4c6-4a48-8e97-a5548c5890d2"},"vehicle_type_id":"4","last_reported":1704190057,"current_range_meters":29600,"station_id":"ce4bgn92rcd13ifvqbvg","pricing_plan_id":"free"},{"bike_id":"86081d52-e7a8-40db-b855-fc1f383a5960","system_id":"levelo_inurba_marseille","lat":43.309076,"lon":5.368465,"is_reserved":false,"is_disabled":false,"rental_uris":{"android":"levelo://app?vid=86081d52-e7a8-40db-b855-fc1f383a5960","ios":"levelo://app?vid=86081d52-e7a8-40db-b855-fc1f383a5960"},"vehicle_type_id":"4","last_reported":1704190057,"current_range_meters":13600,"station_id":"ce4bgn92rcd13ifvqbvg","pricing_plan_id":"free"},{"bike_id":"1e91ba6c-8283-47ea-b797-a2e7408bd0aa","system_id":"levelo_inurba_marseille","lat":43.309076,"lon":5.368465,"is_reserved":false,"is_disabled":false,"rental_uris":{"android":"levelo://app?vid=1e91ba6c-8283-47ea-b797-a2e7408bd0aa","ios":"levelo://app?vid=1e91ba6c-8283-47ea-b797-a2e7408bd0aa"},"vehicle_type_id":"4","last_reported":1704190057,"current_range_meters":30800,"station_id":"ce4bgn92rcd13ifvqbvg","pricing_plan_id":"free"},{"bike_id":"961768d2-940f-4632-a8ac-3ad05e70bd80","system_id":"levelo_inurba_marseille","lat":43.309076,"lon":5.368465,"is_reserved":false,"is_disabled":false,"rental_uris":{"android":"levelo://app?vid=961768d2-940f-4632-a8ac-3ad05e70bd80","ios":"levelo://app?vid=961768d2-940f-4632-a8ac-3ad05e70bd80"},"vehicle_type_id":"4","last_reported":1704190057,"current_range_meters":12800,"station_id":"ce4bgn92rcd13ifvqbvg","pricing_plan_id":"free"},{"bike_id":"8267dbea-2a54-4384-b91d-21cbc74b0c21","system_id":"levelo_inurba_marseille","lat":43.309076,"lon":5.368465,"is_reserved":false,"is_disabled":false,"rental_uris":{"android":"levelo://app?vid=8267dbea-2a54-4384-b91d-21cbc74b0c21","ios":"levelo://app?vid=8267dbea-2a54-4384-b91d-21cbc74b0c21"},"vehicle_type_id":"4","last_reported":1704190057,"current_range_meters":24800,"station_id":"ce4bgn92rcd13ifvqbvg","pricing_plan_id":"free"},{"bike_id":"e4ded75e-0c76-422e-a6d9-7bf57e0b6643","system_id":"levelo_inurba_marseille","lat":43.309076,"lon":5.368465,"is_reserved":false,"is_disabled":false,"rental_uris":{"android":"levelo://app?vid=e4ded75e-0c76-422e-a6d9-7bf57e0b6643","ios":"levelo://app?vid=e4ded75e-0c76-422e-a6d9-7bf57e0b6643"},"vehicle_type_id":"4","last_reported":1704190057,"current_range_meters":31200,"station_id":"ce4bgn92rcd13ifvqbvg","pricing_plan_id":"free"},{"bike_id":"03753275-7fdb-46fb-8df4-86eff7b6fe9f","system_id":"levelo_inurba_marseille","lat":43.309076,"lon":5.368465,"is_reserved":false,"is_disabled":false,"rental_uris":{"android":"levelo://app?vid=03753275-7fdb-46fb-8df4-86eff7b6fe9f","ios":"levelo://app?vid=03753275-7fdb-46fb-8df4-86eff7b6fe9f"},"vehicle_type_id":"4","last_reported":1704190057,"current_range_meters":29200,"station_id":"ce4bgn92rcd13ifvqbvg","pricing_plan_id":"free"},{"bike_id":"49c8b778-4258-482f-a61f-335726bdd290","system_id":"levelo_inurba_marseille","lat":43.30903,"lon":5.36853,"is_reserved":false,"is_disabled":false,"rental_uris":{"android":"levelo://app?vid=49c8b778-4258-482f-a61f-335726bdd290","ios":"levelo://app?vid=49c8b778-4258-482f-a61f-335726bdd290"},"vehicle_type_id":"4","last_reported":1704190057,"current_range_meters":23200,"station_id":"ce4bgn92rcd13ifvqbvg","pricing_plan_id":"free"},{"bike_id":"6b6025a8-f47d-4b09-9d3b-24cf57033958","system_id":"levelo_inurba_marseille","lat":43.309076,"lon":5.368465,"is_reserved":false,"is_disabled":false,"rental_uris":{"android":"levelo://app?vid=6b6025a8-f47d-4b09-9d3b-24cf57033958","ios":"levelo://app?vid=6b6025a8-f47d-4b09-9d3b-24cf57033958"},"vehicle_type_id":"4","last_reported":1704190057,"current_range_meters":27600,"station_id":"ce4bgn92rcd13ifvqbvg","pricing_plan_id":"free"},{"bike_id":"6661c5ae-7a6e-4662-9d66-6d7b7f915e6e","system_id":"levelo_inurba_marseille","lat":43.309039,"lon":5.371797,"is_reserved":false,"is_disabled":false,"rental_uris":{"android":"levelo://app?vid=6661c5ae-7a6e-4662-9d66-6d7b7f915e6e","ios":"levelo://app?vid=6661c5ae-7a6e-4662-9d66-6d7b7f915e6e"},"vehicle_type_id":"4","last_reported":1704190057,"current_range_meters":26400,"station_id":"ce4bguh2rcd13ifvqckg","pricing_plan_id":"free"},{"bike_id":"d3749e7f-2b10-4c2c-9515-38b5abb19c84","system_id":"levelo_inurba_marseille","lat":43.305368,"lon":5.367343,"is_reserved":false,"is_disabled":false,"rental_uris":{"android":"levelo://app?vid=d3749e7f-2b10-4c2c-9515-38b5abb19c84","ios":"levelo://app?vid=d3749e7f-2b10-4c2c-9515-38b5abb19c84"},"vehicle_type_id":"4","last_reported":1704190057,"current_range_meters":12400,"station_id":"ce4bgrp2rcd13ifvqc9g","pricing_plan_id":"free"},{"bike_id":"f2c98b5a-ecea-4c01-9fae-6006e82e05e3","system_id":"levelo_inurba_marseille","lat":43.305712,"lon":5.365641,"is_reserved":false,"is_disabled":false,"rental_uris":{"android":"levelo://app?vid=f2c98b5a-ecea-4c01-9fae-6006e82e05e3","ios":"levelo://app?vid=f2c98b5a-ecea-4c01-9fae-6006e82e05e3"},"vehicle_type_id":"4","last_reported":1704190057,"current_range_meters":31200,"station_id":"ce4bgs12rcd13ifvqcag","pricing_plan_id":"free"},{"bike_id":"54801755-379f-4365-afed-e78916fbc8d7","system_id":"levelo_inurba_marseille","lat":43.305706,"lon":5.365654,"is_reserved":false,"is_disabled":false,"rental_uris":{"android":"levelo://app?vid=54801755-379f-4365-afed-e78916fbc8d7","ios":"levelo://app?vid=54801755-379f-4365-afed-e78916fbc8d7"},"vehicle_type_id":"4","last_reported":1704190057,"current_range_meters":11200,"station_id":"ce4bgs12rcd13ifvqcag","pricing_plan_id":"free"},{"bike_id":"7fc322a2-aa0e-4551-addd-f49d495c32ca","system_id":"levelo_inurba_marseille","lat":43.305368,"lon":5.367343,"is_reserved":false,"is_disabled":false,"rental_uris":{"android":"levelo://app?vid=7fc322a2-aa0e-4551-addd-f49d495c32ca","ios":"levelo://app?vid=7fc322a2-aa0e-4551-addd-f49d495c32ca"},"vehicle_type_id":"4","last_reported":1704190057,"current_range_meters":18400,"station_id":"ce4bgrp2rcd13ifvqc9g","pricing_plan_id":"free"},{"bike_id":"39f7da97-72a6-4a68-9a9a-87d5660fa423","system_id":"levelo_inurba_marseille","lat":43.305714,"lon":5.365633,"is_reserved":false,"is_disabled":false,"rental_uris":{"android":"levelo://app?vid=39f7da97-72a6-4a68-9a9a-87d5660fa423","ios":"levelo://app?vid=39f7da97-72a6-4a68-9a9a-87d5660fa423"},"vehicle_type_id":"4","last_reported":1704190057,"current_range_meters":31200,"station_id":"ce4bgs12rcd13ifvqcag","pricing_plan_id":"free"},{"bike_id":"a98722fa-2f15-4f62-a4be-f9a44ae18447","system_id":"levelo_inurba_marseille","lat":43.305706,"lon":5.365654,"is_reserved":false,"is_disabled":false,"rental_uris":{"android":"levelo://app?vid=a98722fa-2f15-4f62-a4be-f9a44ae18447","ios":"levelo://app?vid=a98722fa-2f15-4f62-a4be-f9a44ae18447"},"vehicle_type_id":"4","last_reported":1704190057,"current_range_meters":21600,"station_id":"ce4bgs12rcd13ifvqcag","pricing_plan_id":"free"},{"bike_id":"66606ac8-e12d-4a05-b5a5-b1f3b85138d5","system_id":"levelo_inurba_marseille","lat":43.305706,"lon":5.365654,"is_reserved":false,"is_disabled":false,"rental_uris":{"android":"levelo://app?vid=66606ac8-e12d-4a05-b5a5-b1f3b85138d5","ios":"levelo://app?vid=66606ac8-e12d-4a05-b5a5-b1f3b85138d5"},"vehicle_type_id":"4","last_reported":1704190057,"current_range_meters":29600,"station_id":"ce4bgs12rcd13ifvqcag","pricing_plan_id":"free"},{"bike_id":"edd189bd-e63f-4880-b785-c1463635efa6","system_id":"levelo_inurba_marseille","lat":43.305706,"lon":5.365654,"is_reserved":false,"is_disabled":false,"rental_uris":{"android":"levelo://app?vid=edd189bd-e63f-4880-b785-c1463635efa6","ios":"levelo://app?vid=edd189bd-e63f-4880-b785-c1463635efa6"},"vehicle_type_id":"4","last_reported":1704190057,"current_range_meters":26000,"station_id":"ce4bgs12rcd13ifvqcag","pricing_plan_id":"free"},{"bike_id":"b30c0912-cae2-483b-a693-19578ecaab16","system_id":"levelo_inurba_marseille","lat":43.305706,"lon":5.365654,"is_reserved":false,"is_disabled":false,"rental_uris":{"android":"levelo://app?vid=b30c0912-cae2-483b-a693-19578ecaab16","ios":"levelo://app?vid=b30c0912-cae2-483b-a693-19578ecaab16"},"vehicle_type_id":"4","last_reported":1704190057,"current_range_meters":2000,"station_id":"ce4bgs12rcd13ifvqcag","pricing_plan_id":"free"},{"bike_id":"ac25c690-f8be-438c-a426-5ca9bd06b85e","system_id":"levelo_inurba_marseille","lat":43.305706,"lon":5.365654,"is_reserved":false,"is_disabled":false,"rental_uris":{"android":"levelo://app?vid=ac25c690-f8be-438c-a426-5ca9bd06b85e","ios":"levelo://app?vid=ac25c690-f8be-438c-a426-5ca9bd06b85e"},"vehicle_type_id":"4","last_reported":1704190057,"current_range_meters":29200,"station_id":"ce4bgs12rcd13ifvqcag","pricing_plan_id":"free"},{"bike_id":"25af9e1c-886c-4f64-92f2-5ca68e46ae4a","system_id":"levelo_inurba_marseille","lat":43.31722,"lon":5.37668,"is_reserved":false,"is_disabled":false,"rental_uris":{"android":"levelo://app?vid=25af9e1c-886c-4f64-92f2-5ca68e46ae4a","ios":"levelo://app?vid=25af9e1c-886c-4f64-92f2-5ca68e46ae4a"},"vehicle_type_id":"4","last_reported":1704190057,"current_range_meters":14800,"station_id":"","pricing_plan_id":"free"},{"bike_id":"5c6e0ba1-5c73-4ffb-8006-4da4cd858e87","system_id":"levelo_inurba_marseille","lat":43.307945,"lon":5.376487,"is_reserved":false,"is_disabled":false,"rental_uris":{"android":"levelo://app?vid=5c6e0ba1-5c73-4ffb-8006-4da4cd858e87","ios":"levelo://app?vid=5c6e0ba1-5c73-4ffb-8006-4da4cd858e87"},"vehicle_type_id":"4","last_reported":1704190057,"current_range_meters":28400,"station_id":"ce4bgv92rcd13ifvqcq0","pricing_plan_id":"free"},{"bike_id":"707a0d32-2a49-42eb-9b4b-5836545c8442","system_id":"levelo_inurba_marseille","lat":43.317075,"lon":5.377367,"is_reserved":false,"is_disabled":false,"rental_uris":{"android":"levelo://app?vid=707a0d32-2a49-42eb-9b4b-5836545c8442","ios":"levelo://app?vid=707a0d32-2a49-42eb-9b4b-5836545c8442"},"vehicle_type_id":"4","last_reported":1704190057,"current_range_meters":28000,"station_id":"ce4bgth2rcd13ifvqch0","pricing_plan_id":"free"},{"bike_id":"7743a74e-657b-4576-b39d-3e882c70cd83","system_id":"levelo_inurba_marseille","lat":43.303046,"lon":5.368981,"is_reserved":false,"is_disabled":false,"rental_uris":{"android":"levelo://app?vid=7743a74e-657b-4576-b39d-3e882c70cd83","ios":"levelo://app?vid=7743a74e-657b-4576-b39d-3e882c70cd83"},"vehicle_type_id":"4","last_reported":1704190057,"current_range_meters":28800,"station_id":"ce4bgqh2rcd13ifvqc5g","pricing_plan_id":"free"},{"bike_id":"cc0a4f16-a2bd-411f-9e8b-788dec9dc205","system_id":"levelo_inurba_marseille","lat":43.303046,"lon":5.368981,"is_reserved":false,"is_disabled":false,"rental_uris":{"android":"levelo://app?vid=cc0a4f16-a2bd-411f-9e8b-788dec9dc205","ios":"levelo://app?vid=cc0a4f16-a2bd-411f-9e8b-788dec9dc205"},"vehicle_type_id":"4","last_reported":1704190057,"current_range_meters":4800,"station_id":"ce4bgqh2rcd13ifvqc5g","pricing_plan_id":"free"},{"bike_id":"22f18b11-4258-400b-8bf4-84c1aff5d32b","system_id":"levelo_inurba_marseille","lat":43.30304,"lon":5.368987,"is_reserved":false,"is_disabled":false,"rental_uris":{"android":"levelo://app?vid=22f18b11-4258-400b-8bf4-84c1aff5d32b","ios":"levelo://app?vid=22f18b11-4258-400b-8bf4-84c1aff5d32b"},"vehicle_type_id":"4","last_reported":1704190057,"current_range_meters":30800,"station_id":"ce4bgqh2rcd13ifvqc5g","pricing_plan_id":"free"},{"bike_id":"9e7bb50a-b159-4d99-acda-27f18235944a","system_id":"levelo_inurba_marseille","lat":43.304606,"lon":5.379026,"is_reserved":false,"is_disabled":false,"rental_uris":{"android":"levelo://app?vid=9e7bb50a-b159-4d99-acda-27f18235944a","ios":"levelo://app?vid=9e7bb50a-b159-4d99-acda-27f18235944a"},"vehicle_type_id":"4","last_reported":1704190057,"current_range_meters":22400,"station_id":"ce4bgup2rcd13ifvqcn0","pricing_plan_id":"free"},{"bike_id":"14be6322-8325-40a9-b959-c3efb3137888","system_id":"levelo_inurba_marseille","lat":43.304764,"lon":5.37907,"is_reserved":false,"is_disabled":false,"rental_uris":{"android":"levelo://app?vid=14be6322-8325-40a9-b959-c3efb3137888","ios":"levelo://app?vid=14be6322-8325-40a9-b959-c3efb3137888"},"vehicle_type_id":"4","last_reported":1704190057,"current_range_meters":19200,"station_id":"ce4bgup2rcd13ifvqcn0","pricing_plan_id":"free"},{"bike_id":"38dd8af6-0575-4d5c-a818-21459df8f05c","system_id":"levelo_inurba_marseille","lat":43.304606,"lon":5.379026,"is_reserved":false,"is_disabled":false,"rental_uris":{"android":"levelo://app?vid=38dd8af6-0575-4d5c-a818-21459df8f05c","ios":"levelo://app?vid=38dd8af6-0575-4d5c-a818-21459df8f05c"},"vehicle_type_id":"4","last_reported":1704190057,"current_range_meters":21200,"station_id":"ce4bgup2rcd13ifvqcn0","pricing_plan_id":"free"},{"bike_id":"5377074b-30e2-4d67-825b-9deb3b1dbed3","system_id":"levelo_inurba_marseille","lat":43.304708,"lon":5.379039,"is_reserved":false,"is_disabled":false,"rental_uris":{"android":"levelo://app?vid=5377074b-30e2-4d67-825b-9deb3b1dbed3","ios":"levelo://app?vid=5377074b-30e2-4d67-825b-9deb3b1dbed3"},"vehicle_type_id":"4","last_reported":1704190057,"current_range_meters":11600,"station_id":"","pricing_plan_id":"free"},{"bike_id":"e8ed4a3b-4438-4018-b3d3-c3d64a945ab6","system_id":"levelo_inurba_marseille","lat":43.304606,"lon":5.379026,"is_reserved":false,"is_disabled":false,"rental_uris":{"android":"levelo://app?vid=e8ed4a3b-4438-4018-b3d3-c3d64a945ab6","ios":"levelo://app?vid=e8ed4a3b-4438-4018-b3d3-c3d64a945ab6"},"vehicle_type_id":"4","last_reported":1704190057,"current_range_meters":28400,"station_id":"ce4bgup2rcd13ifvqcn0","pricing_plan_id":"free"},{"bike_id":"dbc610c2-2d79-4579-9214-a147d6397e61","system_id":"levelo_inurba_marseille","lat":43.304606,"lon":5.379026,"is_reserved":false,"is_disabled":false,"rental_uris":{"android":"levelo://app?vid=dbc610c2-2d79-4579-9214-a147d6397e61","ios":"levelo://app?vid=dbc610c2-2d79-4579-9214-a147d6397e61"},"vehicle_type_id":"4","last_reported":1704190057,"current_range_meters":26800,"station_id":"ce4bgup2rcd13ifvqcn0","pricing_plan_id":"free"},{"bike_id":"90e27361-131a-4ee3-bb3a-4e5c6dc66928","system_id":"levelo_inurba_marseille","lat":43.304606,"lon":5.379026,"is_reserved":false,"is_disabled":false,"rental_uris":{"android":"levelo://app?vid=90e27361-131a-4ee3-bb3a-4e5c6dc66928","ios":"levelo://app?vid=90e27361-131a-4ee3-bb3a-4e5c6dc66928"},"vehicle_type_id":"4","last_reported":1704190057,"current_range_meters":18400,"station_id":"ce4bgup2rcd13ifvqcn0","pricing_plan_id":"free"},{"bike_id":"4c4910a8-b87e-4c13-b856-37ef8615c163","system_id":"levelo_inurba_marseille","lat":43.324771,"lon":5.36557,"is_reserved":false,"is_disabled":false,"rental_uris":{"android":"levelo://app?vid=4c4910a8-b87e-4c13-b856-37ef8615c163","ios":"levelo://app?vid=4c4910a8-b87e-4c13-b856-37ef8615c163"},"vehicle_type_id":"4","last_reported":1704190057,"current_range_meters":19600,"station_id":"ce4bhs12rcd13ifvqhvg","pricing_plan_id":"free"},{"bike_id":"b2918caa-f741-428e-85a5-6ad0af29e8cc","system_id":"levelo_inurba_marseille","lat":43.302753,"lon":5.377167,"is_reserved":false,"is_disabled":false,"rental_uris":{"android":"levelo://app?vid=b2918caa-f741-428e-85a5-6ad0af29e8cc","ios":"levelo://app?vid=b2918caa-f741-428e-85a5-6ad0af29e8cc"},"vehicle_type_id":"4","last_reported":1704190057,"current_range_meters":6400,"station_id":"","pricing_plan_id":"free"},{"bike_id":"17504bde-947a-4cd6-98b3-9a4c66aca99b","system_id":"levelo_inurba_marseille","lat":43.313827,"lon":5.385007,"is_reserved":false,"is_disabled":false,"rental_uris":{"android":"levelo://app?vid=17504bde-947a-4cd6-98b3-9a4c66aca99b","ios":"levelo://app?vid=17504bde-947a-4cd6-98b3-9a4c66aca99b"},"vehicle_type_id":"4","last_reported":1704190057,"current_range_meters":21600,"station_id":"ce4bgt92rcd13ifvqcf0","pricing_plan_id":"free"},{"bike_id":"6e92dc53-3c7e-4826-8e9b-7d9a77447a1c","system_id":"levelo_inurba_marseille","lat":43.299222,"lon":5.365554,"is_reserved":false,"is_disabled":false,"rental_uris":{"android":"levelo://app?vid=6e92dc53-3c7e-4826-8e9b-7d9a77447a1c","ios":"levelo://app?vid=6e92dc53-3c7e-4826-8e9b-7d9a77447a1c"},"vehicle_type_id":"4","last_reported":1704190057,"current_range_meters":19600,"station_id":"ce4bgm92rcd13ifvqbr0","pricing_plan_id":"free"},{"bike_id":"4112b363-889a-4186-a780-bf30499e52c8","system_id":"levelo_inurba_marseille","lat":43.299209,"lon":5.365547,"is_reserved":false,"is_disabled":false,"rental_uris":{"android":"levelo://app?vid=4112b363-889a-4186-a780-bf30499e52c8","ios":"levelo://app?vid=4112b363-889a-4186-a780-bf30499e52c8"},"vehicle_type_id":"4","last_reported":1704190057,"current_range_meters":20000,"station_id":"ce4bgm92rcd13ifvqbr0","pricing_plan_id":"free"},{"bike_id":"218bb372-c46d-4ba4-aa93-a5df393ce036","system_id":"levelo_inurba_marseille","lat":43.299222,"lon":5.365554,"is_reserved":false,"is_disabled":false,"rental_uris":{"android":"levelo://app?vid=218bb372-c46d-4ba4-aa93-a5df393ce036","ios":"levelo://app?vid=218bb372-c46d-4ba4-aa93-a5df393ce036"},"vehicle_type_id":"4","last_reported":1704190057,"current_range_meters":12400,"station_id":"ce4bgm92rcd13ifvqbr0","pricing_plan_id":"free"},{"bike_id":"99ab6dea-2b11-478b-9951-a6211fb49936","system_id":"levelo_inurba_marseille","lat":43.299222,"lon":5.365554,"is_reserved":false,"is_disabled":false,"rental_uris":{"android":"levelo://app?vid=99ab6dea-2b11-478b-9951-a6211fb49936","ios":"levelo://app?vid=99ab6dea-2b11-478b-9951-a6211fb49936"},"vehicle_type_id":"4","last_reported":1704190057,"current_range_meters":12800,"station_id":"ce4bgm92rcd13ifvqbr0","pricing_plan_id":"free"},{"bike_id":"caa23a23-765c-4fc7-a65d-fe6c2b33bd99","system_id":"levelo_inurba_marseille","lat":43.299222,"lon":5.365554,"is_reserved":false,"is_disabled":false,"rental_uris":{"android":"levelo://app?vid=caa23a23-765c-4fc7-a65d-fe6c2b33bd99","ios":"levelo://app?vid=caa23a23-765c-4fc7-a65d-fe6c2b33bd99"},"vehicle_type_id":"4","last_reported":1704190057,"current_range_meters":21600,"station_id":"ce4bgm92rcd13ifvqbr0","pricing_plan_id":"free"},{"bike_id":"749e7d89-4c10-49b1-8f83-b438caa2109a","system_id":"levelo_inurba_marseille","lat":43.299222,"lon":5.365554,"is_reserved":false,"is_disabled":false,"rental_uris":{"android":"levelo://app?vid=749e7d89-4c10-49b1-8f83-b438caa2109a","ios":"levelo://app?vid=749e7d89-4c10-49b1-8f83-b438caa2109a"},"vehicle_type_id":"4","last_reported":1704190057,"current_range_meters":26800,"station_id":"ce4bgm92rcd13ifvqbr0","pricing_plan_id":"free"},{"bike_id":"6b3129bb-75b2-41d8-b25e-2a6a7bbc9081","system_id":"levelo_inurba_marseille","lat":43.299705,"lon":5.371839,"is_reserved":false,"is_disabled":false,"rental_uris":{"android":"levelo://app?vid=6b3129bb-75b2-41d8-b25e-2a6a7bbc9081","ios":"levelo://app?vid=6b3129bb-75b2-41d8-b25e-2a6a7bbc9081"},"vehicle_type_id":"4","last_reported":1704190057,"current_range_meters":27200,"station_id":"ce4bgr92rcd13ifvqc7g","pricing_plan_id":"free"},{"bike_id":"e4086e66-9e86-418f-8abb-1e78512d134b","system_id":"levelo_inurba_marseille","lat":43.299209,"lon":5.365547,"is_reserved":false,"is_disabled":false,"rental_uris":{"android":"levelo://app?vid=e4086e66-9e86-418f-8abb-1e78512d134b","ios":"levelo://app?vid=e4086e66-9e86-418f-8abb-1e78512d134b"},"vehicle_type_id":"4","last_reported":1704190057,"current_range_meters":20800,"station_id":"ce4bgm92rcd13ifvqbr0","pricing_plan_id":"free"},{"bike_id":"9d2ec756-4dfa-412f-85bd-535cd69e831e","system_id":"levelo_inurba_marseille","lat":43.298433,"lon":5.362774,"is_reserved":false,"is_disabled":false,"rental_uris":{"android":"levelo://app?vid=9d2ec756-4dfa-412f-85bd-535cd69e831e","ios":"levelo://app?vid=9d2ec756-4dfa-412f-85bd-535cd69e831e"},"vehicle_type_id":"4","last_reported":1704190057,"current_range_meters":21200,"station_id":"ce4bgpp2rcd13ifvqc3g","pricing_plan_id":"free"},{"bike_id":"86b7d4bc-91b1-4d2b-b8d2-16019266f457","system_id":"levelo_inurba_marseille","lat":43.298433,"lon":5.362774,"is_reserved":false,"is_disabled":false,"rental_uris":{"android":"levelo://app?vid=86b7d4bc-91b1-4d2b-b8d2-16019266f457","ios":"levelo://app?vid=86b7d4bc-91b1-4d2b-b8d2-16019266f457"},"vehicle_type_id":"4","last_reported":1704190057,"current_range_meters":30000,"station_id":"ce4bgpp2rcd13ifvqc3g","pricing_plan_id":"free"},{"bike_id":"cc6264d7-a583-4b19-80de-52814ea9a65b","system_id":"levelo_inurba_marseille","lat":43.298433,"lon":5.362774,"is_reserved":false,"is_disabled":false,"rental_uris":{"android":"levelo://app?vid=cc6264d7-a583-4b19-80de-52814ea9a65b","ios":"levelo://app?vid=cc6264d7-a583-4b19-80de-52814ea9a65b"},"vehicle_type_id":"4","last_reported":1704190057,"current_range_meters":28800,"station_id":"ce4bgpp2rcd13ifvqc3g","pricing_plan_id":"free"},{"bike_id":"201232fc-ead8-4101-baee-a959e4ab629b","system_id":"levelo_inurba_marseille","lat":43.298433,"lon":5.362774,"is_reserved":false,"is_disabled":false,"rental_uris":{"android":"levelo://app?vid=201232fc-ead8-4101-baee-a959e4ab629b","ios":"levelo://app?vid=201232fc-ead8-4101-baee-a959e4ab629b"},"vehicle_type_id":"4","last_reported":1704190057,"current_range_meters":13200,"station_id":"ce4bgpp2rcd13ifvqc3g","pricing_plan_id":"free"},{"bike_id":"9ba290a9-0206-467d-ba38-02ea98d50735","system_id":"levelo_inurba_marseille","lat":43.299243,"lon":5.374807,"is_reserved":false,"is_disabled":false,"rental_uris":{"android":"levelo://app?vid=9ba290a9-0206-467d-ba38-02ea98d50735","ios":"levelo://app?vid=9ba290a9-0206-467d-ba38-02ea98d50735"},"vehicle_type_id":"4","last_reported":1704190057,"current_range_meters":24800,"station_id":"ce4bgjh2rcd13ifvqbg0","pricing_plan_id":"free"},{"bike_id":"9af6b982-2986-4bf3-98c8-f52179f86426","system_id":"levelo_inurba_marseille","lat":43.299243,"lon":5.374807,"is_reserved":false,"is_disabled":false,"rental_uris":{"android":"levelo://app?vid=9af6b982-2986-4bf3-98c8-f52179f86426","ios":"levelo://app?vid=9af6b982-2986-4bf3-98c8-f52179f86426"},"vehicle_type_id":"4","last_reported":1704190057,"current_range_meters":25600,"station_id":"ce4bgjh2rcd13ifvqbg0","pricing_plan_id":"free"},{"bike_id":"665b4d37-ba1b-471f-a9e3-bb28104299db","system_id":"levelo_inurba_marseille","lat":43.299243,"lon":5.374807,"is_reserved":false,"is_disabled":false,"rental_uris":{"android":"levelo://app?vid=665b4d37-ba1b-471f-a9e3-bb28104299db","ios":"levelo://app?vid=665b4d37-ba1b-471f-a9e3-bb28104299db"},"vehicle_type_id":"4","last_reported":1704190057,"current_range_meters":31200,"station_id":"ce4bgjh2rcd13ifvqbg0","pricing_plan_id":"free"},{"bike_id":"7eb7c3e0-c554-42ad-9b05-4e13dc10f5a1","system_id":"levelo_inurba_marseille","lat":43.311722,"lon":5.387247,"is_reserved":false,"is_disabled":false,"rental_uris":{"android":"levelo://app?vid=7eb7c3e0-c554-42ad-9b05-4e13dc10f5a1","ios":"levelo://app?vid=7eb7c3e0-c554-42ad-9b05-4e13dc10f5a1"},"vehicle_type_id":"4","last_reported":1704190057,"current_range_meters":21200,"station_id":"ce4bgv12rcd13ifvqcp0","pricing_plan_id":"free"},{"bike_id":"651095fb-a66b-405e-a4b0-4653a05e0966","system_id":"levelo_inurba_marseille","lat":43.297794,"lon":5.370888,"is_reserved":false,"is_disabled":false,"rental_uris":{"android":"levelo://app?vid=651095fb-a66b-405e-a4b0-4653a05e0966","ios":"levelo://app?vid=651095fb-a66b-405e-a4b0-4653a05e0966"},"vehicle_type_id":"4","last_reported":1704190057,"current_range_meters":30400,"station_id":"ce4bgop2rcd13ifvqc1g","pricing_plan_id":"free"},{"bike_id":"6ba55cee-e7d2-4067-8ab5-70bbea2b5fa1","system_id":"levelo_inurba_marseille","lat":43.297774,"lon":5.370875,"is_reserved":false,"is_disabled":false,"rental_uris":{"android":"levelo://app?vid=6ba55cee-e7d2-4067-8ab5-70bbea2b5fa1","ios":"levelo://app?vid=6ba55cee-e7d2-4067-8ab5-70bbea2b5fa1"},"vehicle_type_id":"4","last_reported":1704190057,"current_range_meters":28800,"station_id":"ce4bgop2rcd13ifvqc1g","pricing_plan_id":"free"},{"bike_id":"881fe0ac-4a87-4653-9c80-a83989c2ce03","system_id":"levelo_inurba_marseille","lat":43.298433,"lon":5.362774,"is_reserved":false,"is_disabled":false,"rental_uris":{"android":"levelo://app?vid=881fe0ac-4a87-4653-9c80-a83989c2ce03","ios":"levelo://app?vid=881fe0ac-4a87-4653-9c80-a83989c2ce03"},"vehicle_type_id":"4","last_reported":1704190057,"current_range_meters":28800,"station_id":"ce4bgpp2rcd13ifvqc3g","pricing_plan_id":"free"},{"bike_id":"0a99af18-dfe6-49d4-bc90-0038ead01ebf","system_id":"levelo_inurba_marseille","lat":43.328371,"lon":5.366909,"is_reserved":false,"is_disabled":false,"rental_uris":{"android":"levelo://app?vid=0a99af18-dfe6-49d4-bc90-0038ead01ebf","ios":"levelo://app?vid=0a99af18-dfe6-49d4-bc90-0038ead01ebf"},"vehicle_type_id":"4","last_reported":1704190057,"current_range_meters":24000,"station_id":"ce4bhs92rcd13ifvqi0g","pricing_plan_id":"free"},{"bike_id":"370cccf7-c9ba-46c2-819b-c8e8cacc4c21","system_id":"levelo_inurba_marseille","lat":43.3277,"lon":5.37458,"is_reserved":false,"is_disabled":false,"rental_uris":{"android":"levelo://app?vid=370cccf7-c9ba-46c2-819b-c8e8cacc4c21","ios":"levelo://app?vid=370cccf7-c9ba-46c2-819b-c8e8cacc4c21"},"vehicle_type_id":"4","last_reported":1704190057,"current_range_meters":9200,"station_id":"","pricing_plan_id":"free"},{"bike_id":"8562c70f-5fb8-4caa-bb62-c506e55d61cf","system_id":"levelo_inurba_marseille","lat":43.29573,"lon":5.367355,"is_reserved":false,"is_disabled":false,"rental_uris":{"android":"levelo://app?vid=8562c70f-5fb8-4caa-bb62-c506e55d61cf","ios":"levelo://app?vid=8562c70f-5fb8-4caa-bb62-c506e55d61cf"},"vehicle_type_id":"4","last_reported":1704190057,"current_range_meters":25600,"station_id":"ce4bgph2rcd13ifvqc2g","pricing_plan_id":"free"},{"bike_id":"db905245-b24e-4598-8141-df6ad5833a28","system_id":"levelo_inurba_marseille","lat":43.29573,"lon":5.367355,"is_reserved":false,"is_disabled":false,"rental_uris":{"android":"levelo://app?vid=db905245-b24e-4598-8141-df6ad5833a28","ios":"levelo://app?vid=db905245-b24e-4598-8141-df6ad5833a28"},"vehicle_type_id":"4","last_reported":1704190057,"current_range_meters":30000,"station_id":"ce4bgph2rcd13ifvqc2g","pricing_plan_id":"free"},{"bike_id":"9157f969-ac6a-4a10-8081-21d2fb4fe957","system_id":"levelo_inurba_marseille","lat":43.29573,"lon":5.367355,"is_reserved":false,"is_disabled":false,"rental_uris":{"android":"levelo://app?vid=9157f969-ac6a-4a10-8081-21d2fb4fe957","ios":"levelo://app?vid=9157f969-ac6a-4a10-8081-21d2fb4fe957"},"vehicle_type_id":"4","last_reported":1704190057,"current_range_meters":28800,"station_id":"ce4bgph2rcd13ifvqc2g","pricing_plan_id":"free"},{"bike_id":"6fae1fa6-f2a7-492f-9dea-e7c7c22ac1ca","system_id":"levelo_inurba_marseille","lat":43.29726,"lon":5.37693,"is_reserved":false,"is_disabled":false,"rental_uris":{"android":"levelo://app?vid=6fae1fa6-f2a7-492f-9dea-e7c7c22ac1ca","ios":"levelo://app?vid=6fae1fa6-f2a7-492f-9dea-e7c7c22ac1ca"},"vehicle_type_id":"4","last_reported":1704190057,"current_range_meters":28000,"station_id":"ce4bgkh2rcd13ifvqbl0","pricing_plan_id":"free"},{"bike_id":"9a705069-6c98-4a01-844f-710a4b3afb2f","system_id":"levelo_inurba_marseille","lat":43.297258,"lon":5.376973,"is_reserved":false,"is_disabled":false,"rental_uris":{"android":"levelo://app?vid=9a705069-6c98-4a01-844f-710a4b3afb2f","ios":"levelo://app?vid=9a705069-6c98-4a01-844f-710a4b3afb2f"},"vehicle_type_id":"4","last_reported":1704190057,"current_range_meters":22800,"station_id":"ce4bgkh2rcd13ifvqbl0","pricing_plan_id":"free"},{"bike_id":"8aa9507d-935f-41d4-bbc9-57305660be04","system_id":"levelo_inurba_marseille","lat":43.29726,"lon":5.37705,"is_reserved":false,"is_disabled":false,"rental_uris":{"android":"levelo://app?vid=8aa9507d-935f-41d4-bbc9-57305660be04","ios":"levelo://app?vid=8aa9507d-935f-41d4-bbc9-57305660be04"},"vehicle_type_id":"4","last_reported":1704190057,"current_range_meters":17200,"station_id":"ce4bgkh2rcd13ifvqbl0","pricing_plan_id":"free"},{"bike_id":"7b4f5263-c4df-4e40-afe3-fc2bfde43620","system_id":"levelo_inurba_marseille","lat":43.296935,"lon":5.376544,"is_reserved":false,"is_disabled":false,"rental_uris":{"android":"levelo://app?vid=7b4f5263-c4df-4e40-afe3-fc2bfde43620","ios":"levelo://app?vid=7b4f5263-c4df-4e40-afe3-fc2bfde43620"},"vehicle_type_id":"4","last_reported":1704190057,"current_range_meters":31200,"station_id":"ce4bgkh2rcd13ifvqbl0","pricing_plan_id":"free"},{"bike_id":"0577d349-31f0-4ed7-bc44-03e0d7cd7cae","system_id":"levelo_inurba_marseille","lat":43.29719,"lon":5.37689,"is_reserved":false,"is_disabled":false,"rental_uris":{"android":"levelo://app?vid=0577d349-31f0-4ed7-bc44-03e0d7cd7cae","ios":"levelo://app?vid=0577d349-31f0-4ed7-bc44-03e0d7cd7cae"},"vehicle_type_id":"4","last_reported":1704190057,"current_range_meters":13600,"station_id":"ce4bgkh2rcd13ifvqbl0","pricing_plan_id":"free"},{"bike_id":"05601dd4-e4ca-4954-8c5f-8db273dfe266","system_id":"levelo_inurba_marseille","lat":43.29721,"lon":5.37697,"is_reserved":false,"is_disabled":false,"rental_uris":{"android":"levelo://app?vid=05601dd4-e4ca-4954-8c5f-8db273dfe266","ios":"levelo://app?vid=05601dd4-e4ca-4954-8c5f-8db273dfe266"},"vehicle_type_id":"4","last_reported":1704190057,"current_range_meters":25600,"station_id":"ce4bgkh2rcd13ifvqbl0","pricing_plan_id":"free"},{"bike_id":"df2d5a3f-7e4e-4fdf-8c3f-c84edc70d828","system_id":"levelo_inurba_marseille","lat":43.299028,"lon":5.381509,"is_reserved":false,"is_disabled":false,"rental_uris":{"android":"levelo://app?vid=df2d5a3f-7e4e-4fdf-8c3f-c84edc70d828","ios":"levelo://app?vid=df2d5a3f-7e4e-4fdf-8c3f-c84edc70d828"},"vehicle_type_id":"4","last_reported":1704190057,"current_range_meters":29200,"station_id":"ce4bgj12rcd13ifvqbc0","pricing_plan_id":"free"},{"bike_id":"1aa5daa1-6289-4d37-ab9a-9b964a05974a","system_id":"levelo_inurba_marseille","lat":43.299028,"lon":5.381509,"is_reserved":false,"is_disabled":false,"rental_uris":{"android":"levelo://app?vid=1aa5daa1-6289-4d37-ab9a-9b964a05974a","ios":"levelo://app?vid=1aa5daa1-6289-4d37-ab9a-9b964a05974a"},"vehicle_type_id":"4","last_reported":1704190057,"current_range_meters":30000,"station_id":"ce4bgj12rcd13ifvqbc0","pricing_plan_id":"free"},{"bike_id":"5e92f0d1-7a15-4b91-8f2c-439bfb347502","system_id":"levelo_inurba_marseille","lat":43.309589,"lon":5.390258,"is_reserved":false,"is_disabled":false,"rental_uris":{"android":"levelo://app?vid=5e92f0d1-7a15-4b91-8f2c-439bfb347502","ios":"levelo://app?vid=5e92f0d1-7a15-4b91-8f2c-439bfb347502"},"vehicle_type_id":"4","last_reported":1704190057,"current_range_meters":29600,"station_id":"ce4bgup2rcd13ifvqco0","pricing_plan_id":"free"},{"bike_id":"8678fd13-05b5-4a59-a095-eea5133e8538","system_id":"levelo_inurba_marseille","lat":43.299028,"lon":5.381509,"is_reserved":false,"is_disabled":false,"rental_uris":{"android":"levelo://app?vid=8678fd13-05b5-4a59-a095-eea5133e8538","ios":"levelo://app?vid=8678fd13-05b5-4a59-a095-eea5133e8538"},"vehicle_type_id":"4","last_reported":1704190057,"current_range_meters":26400,"station_id":"ce4bgj12rcd13ifvqbc0","pricing_plan_id":"free"},{"bike_id":"1be264ef-863e-43f0-99b7-682c740c8fde","system_id":"levelo_inurba_marseille","lat":43.309589,"lon":5.390258,"is_reserved":false,"is_disabled":false,"rental_uris":{"android":"levelo://app?vid=1be264ef-863e-43f0-99b7-682c740c8fde","ios":"levelo://app?vid=1be264ef-863e-43f0-99b7-682c740c8fde"},"vehicle_type_id":"4","last_reported":1704190057,"current_range_meters":28000,"station_id":"ce4bgup2rcd13ifvqco0","pricing_plan_id":"free"},{"bike_id":"79e78801-3221-4c4b-ba45-bc95229777cb","system_id":"levelo_inurba_marseille","lat":43.296921,"lon":5.376579,"is_reserved":false,"is_disabled":false,"rental_uris":{"android":"levelo://app?vid=79e78801-3221-4c4b-ba45-bc95229777cb","ios":"levelo://app?vid=79e78801-3221-4c4b-ba45-bc95229777cb"},"vehicle_type_id":"4","last_reported":1704190057,"current_range_meters":27200,"station_id":"ce4bgkh2rcd13ifvqbl0","pricing_plan_id":"free"},{"bike_id":"956e83d8-43ff-4db4-8d69-7d2ad306f27f","system_id":"levelo_inurba_marseille","lat":43.309589,"lon":5.390258,"is_reserved":false,"is_disabled":false,"rental_uris":{"android":"levelo://app?vid=956e83d8-43ff-4db4-8d69-7d2ad306f27f","ios":"levelo://app?vid=956e83d8-43ff-4db4-8d69-7d2ad306f27f"},"vehicle_type_id":"4","last_reported":1704190057,"current_range_meters":22000,"station_id":"ce4bgup2rcd13ifvqco0","pricing_plan_id":"free"},{"bike_id":"934df303-6780-4e74-997f-0f9cc28c8803","system_id":"levelo_inurba_marseille","lat":43.299028,"lon":5.381509,"is_reserved":false,"is_disabled":false,"rental_uris":{"android":"levelo://app?vid=934df303-6780-4e74-997f-0f9cc28c8803","ios":"levelo://app?vid=934df303-6780-4e74-997f-0f9cc28c8803"},"vehicle_type_id":"4","last_reported":1704190057,"current_range_meters":22800,"station_id":"ce4bgj12rcd13ifvqbc0","pricing_plan_id":"free"},{"bike_id":"3b2dd60e-9e72-4c75-885a-eede1525b37c","system_id":"levelo_inurba_marseille","lat":43.295748,"lon":5.37522,"is_reserved":false,"is_disabled":false,"rental_uris":{"android":"levelo://app?vid=3b2dd60e-9e72-4c75-885a-eede1525b37c","ios":"levelo://app?vid=3b2dd60e-9e72-4c75-885a-eede1525b37c"},"vehicle_type_id":"4","last_reported":1704190057,"current_range_meters":31600,"station_id":"ce4bgh92rcd13ifvqb50","pricing_plan_id":"free"},{"bike_id":"3fd21f62-df52-40ea-9792-8aef1d0791e7","system_id":"levelo_inurba_marseille","lat":43.295748,"lon":5.37522,"is_reserved":false,"is_disabled":false,"rental_uris":{"android":"levelo://app?vid=3fd21f62-df52-40ea-9792-8aef1d0791e7","ios":"levelo://app?vid=3fd21f62-df52-40ea-9792-8aef1d0791e7"},"vehicle_type_id":"4","last_reported":1704190057,"current_range_meters":26000,"station_id":"ce4bgh92rcd13ifvqb50","pricing_plan_id":"free"},{"bike_id":"0fda2224-418b-4113-96c2-d5ef440858d3","system_id":"levelo_inurba_marseille","lat":43.295748,"lon":5.37522,"is_reserved":false,"is_disabled":false,"rental_uris":{"android":"levelo://app?vid=0fda2224-418b-4113-96c2-d5ef440858d3","ios":"levelo://app?vid=0fda2224-418b-4113-96c2-d5ef440858d3"},"vehicle_type_id":"4","last_reported":1704190057,"current_range_meters":22800,"station_id":"ce4bgh92rcd13ifvqb50","pricing_plan_id":"free"},{"bike_id":"55b56073-6a29-4e74-9207-b0e99f8edff0","system_id":"levelo_inurba_marseille","lat":43.304278,"lon":5.388868,"is_reserved":false,"is_disabled":false,"rental_uris":{"android":"levelo://app?vid=55b56073-6a29-4e74-9207-b0e99f8edff0","ios":"levelo://app?vid=55b56073-6a29-4e74-9207-b0e99f8edff0"},"vehicle_type_id":"4","last_reported":1704190057,"current_range_meters":26000,"station_id":"ce4bgk12rcd13ifvqbi0","pricing_plan_id":"free"},{"bike_id":"22add8b5-d9e6-41f0-a10b-aa72bca8152e","system_id":"levelo_inurba_marseille","lat":43.295748,"lon":5.37522,"is_reserved":false,"is_disabled":false,"rental_uris":{"android":"levelo://app?vid=22add8b5-d9e6-41f0-a10b-aa72bca8152e","ios":"levelo://app?vid=22add8b5-d9e6-41f0-a10b-aa72bca8152e"},"vehicle_type_id":"4","last_reported":1704190057,"current_range_meters":24400,"station_id":"ce4bgh92rcd13ifvqb50","pricing_plan_id":"free"},{"bike_id":"2caa5b73-49fc-4d62-a67b-6ac2876cb6a2","system_id":"levelo_inurba_marseille","lat":43.304278,"lon":5.388868,"is_reserved":false,"is_disabled":false,"rental_uris":{"android":"levelo://app?vid=2caa5b73-49fc-4d62-a67b-6ac2876cb6a2","ios":"levelo://app?vid=2caa5b73-49fc-4d62-a67b-6ac2876cb6a2"},"vehicle_type_id":"4","last_reported":1704190057,"current_range_meters":8400,"station_id":"ce4bgk12rcd13ifvqbi0","pricing_plan_id":"free"},{"bike_id":"f96b2ac2-5174-4688-a555-8cc956f97da8","system_id":"levelo_inurba_marseille","lat":43.295748,"lon":5.37522,"is_reserved":false,"is_disabled":false,"rental_uris":{"android":"levelo://app?vid=f96b2ac2-5174-4688-a555-8cc956f97da8","ios":"levelo://app?vid=f96b2ac2-5174-4688-a555-8cc956f97da8"},"vehicle_type_id":"4","last_reported":1704190057,"current_range_meters":31200,"station_id":"ce4bgh92rcd13ifvqb50","pricing_plan_id":"free"},{"bike_id":"ba7ab5f2-0600-4f2c-8961-a0c349565aae","system_id":"levelo_inurba_marseille","lat":43.295748,"lon":5.37522,"is_reserved":false,"is_disabled":false,"rental_uris":{"android":"levelo://app?vid=ba7ab5f2-0600-4f2c-8961-a0c349565aae","ios":"levelo://app?vid=ba7ab5f2-0600-4f2c-8961-a0c349565aae"},"vehicle_type_id":"4","last_reported":1704190057,"current_range_meters":31200,"station_id":"ce4bgh92rcd13ifvqb50","pricing_plan_id":"free"},{"bike_id":"dbc436fa-6a08-4430-ac8f-ad33673b7a74","system_id":"levelo_inurba_marseille","lat":43.295748,"lon":5.37522,"is_reserved":false,"is_disabled":false,"rental_uris":{"android":"levelo://app?vid=dbc436fa-6a08-4430-ac8f-ad33673b7a74","ios":"levelo://app?vid=dbc436fa-6a08-4430-ac8f-ad33673b7a74"},"vehicle_type_id":"4","last_reported":1704190057,"current_range_meters":21600,"station_id":"ce4bgh92rcd13ifvqb50","pricing_plan_id":"free"},{"bike_id":"312f04c1-e7c4-43a8-81fa-dc6587f53f5b","system_id":"levelo_inurba_marseille","lat":43.295748,"lon":5.37522,"is_reserved":false,"is_disabled":false,"rental_uris":{"android":"levelo://app?vid=312f04c1-e7c4-43a8-81fa-dc6587f53f5b","ios":"levelo://app?vid=312f04c1-e7c4-43a8-81fa-dc6587f53f5b"},"vehicle_type_id":"4","last_reported":1704190057,"current_range_meters":26800,"station_id":"ce4bgh92rcd13ifvqb50","pricing_plan_id":"free"},{"bike_id":"d60802d6-4f47-444a-b234-883690eec05b","system_id":"levelo_inurba_marseille","lat":43.33062,"lon":5.3627,"is_reserved":false,"is_disabled":false,"rental_uris":{"android":"levelo://app?vid=d60802d6-4f47-444a-b234-883690eec05b","ios":"levelo://app?vid=d60802d6-4f47-444a-b234-883690eec05b"},"vehicle_type_id":"4","last_reported":1704190057,"current_range_meters":16000,"station_id":"","pricing_plan_id":"free"},{"bike_id":"f67b4ce4-0c9c-4cd2-b119-b472dfee5204","system_id":"levelo_inurba_marseille","lat":43.29538,"lon":5.375,"is_reserved":false,"is_disabled":false,"rental_uris":{"android":"levelo://app?vid=f67b4ce4-0c9c-4cd2-b119-b472dfee5204","ios":"levelo://app?vid=f67b4ce4-0c9c-4cd2-b119-b472dfee5204"},"vehicle_type_id":"4","last_reported":1704190057,"current_range_meters":22400,"station_id":"ce4bgi92rcd13ifvqb90","pricing_plan_id":"free"},{"bike_id":"7119845d-00aa-4d9f-be8c-fc97d41f1380","system_id":"levelo_inurba_marseille","lat":43.297594,"lon":5.381134,"is_reserved":false,"is_disabled":false,"rental_uris":{"android":"levelo://app?vid=7119845d-00aa-4d9f-be8c-fc97d41f1380","ios":"levelo://app?vid=7119845d-00aa-4d9f-be8c-fc97d41f1380"},"vehicle_type_id":"4","last_reported":1704190057,"current_range_meters":4800,"station_id":"ce4bgip2rcd13ifvqbb0","pricing_plan_id":"free"},{"bike_id":"3ef1c28f-17ca-4d5b-88b7-990fb4acdcb3","system_id":"levelo_inurba_marseille","lat":43.295279,"lon":5.375048,"is_reserved":false,"is_disabled":false,"rental_uris":{"android":"levelo://app?vid=3ef1c28f-17ca-4d5b-88b7-990fb4acdcb3","ios":"levelo://app?vid=3ef1c28f-17ca-4d5b-88b7-990fb4acdcb3"},"vehicle_type_id":"4","last_reported":1704190057,"current_range_meters":3200,"station_id":"ce4bgkp2rcd13ifvqbmg","pricing_plan_id":"free"},{"bike_id":"388d72b0-eb8b-4f45-a5d0-830bff2acde4","system_id":"levelo_inurba_marseille","lat":43.295279,"lon":5.375048,"is_reserved":false,"is_disabled":false,"rental_uris":{"android":"levelo://app?vid=388d72b0-eb8b-4f45-a5d0-830bff2acde4","ios":"levelo://app?vid=388d72b0-eb8b-4f45-a5d0-830bff2acde4"},"vehicle_type_id":"4","last_reported":1704190057,"current_range_meters":5600,"station_id":"ce4bgkp2rcd13ifvqbmg","pricing_plan_id":"free"},{"bike_id":"2caa0f14-cf57-438d-9a63-c62a41818cde","system_id":"levelo_inurba_marseille","lat":43.29966,"lon":5.38496,"is_reserved":false,"is_disabled":false,"rental_uris":{"android":"levelo://app?vid=2caa0f14-cf57-438d-9a63-c62a41818cde","ios":"levelo://app?vid=2caa0f14-cf57-438d-9a63-c62a41818cde"},"vehicle_type_id":"4","last_reported":1704190057,"current_range_meters":29200,"station_id":"ce4bgj92rcd13ifvqbd0","pricing_plan_id":"free"},{"bike_id":"06880a87-1d2f-452a-aea3-1c4b96cf9b3f","system_id":"levelo_inurba_marseille","lat":43.32367,"lon":5.388836,"is_reserved":false,"is_disabled":false,"rental_uris":{"android":"levelo://app?vid=06880a87-1d2f-452a-aea3-1c4b96cf9b3f","ios":"levelo://app?vid=06880a87-1d2f-452a-aea3-1c4b96cf9b3f"},"vehicle_type_id":"4","last_reported":1704190057,"current_range_meters":22000,"station_id":"ce4bhqp2rcd13ifvqhog","pricing_plan_id":"free"},{"bike_id":"adc6cb98-8dcc-4ab3-855d-569c025a5ced","system_id":"levelo_inurba_marseille","lat":43.32367,"lon":5.388836,"is_reserved":false,"is_disabled":false,"rental_uris":{"android":"levelo://app?vid=adc6cb98-8dcc-4ab3-855d-569c025a5ced","ios":"levelo://app?vid=adc6cb98-8dcc-4ab3-855d-569c025a5ced"},"vehicle_type_id":"4","last_reported":1704190057,"current_range_meters":27200,"station_id":"ce4bhqp2rcd13ifvqhog","pricing_plan_id":"free"},{"bike_id":"d1ae36cc-3d77-4823-bbea-3ec1cd29b40d","system_id":"levelo_inurba_marseille","lat":43.32367,"lon":5.388836,"is_reserved":false,"is_disabled":false,"rental_uris":{"android":"levelo://app?vid=d1ae36cc-3d77-4823-bbea-3ec1cd29b40d","ios":"levelo://app?vid=d1ae36cc-3d77-4823-bbea-3ec1cd29b40d"},"vehicle_type_id":"4","last_reported":1704190057,"current_range_meters":20800,"station_id":"ce4bhqp2rcd13ifvqhog","pricing_plan_id":"free"},{"bike_id":"a6a6e88c-b9a7-48a0-b083-e1e4ac30245d","system_id":"levelo_inurba_marseille","lat":43.293259,"lon":5.371586,"is_reserved":false,"is_disabled":false,"rental_uris":{"android":"levelo://app?vid=a6a6e88c-b9a7-48a0-b083-e1e4ac30245d","ios":"levelo://app?vid=a6a6e88c-b9a7-48a0-b083-e1e4ac30245d"},"vehicle_type_id":"4","last_reported":1704190057,"current_range_meters":22400,"station_id":"ce4bgh92rcd13ifvqb40","pricing_plan_id":"free"},{"bike_id":"0331781e-207f-4c79-a021-323e74cccffe","system_id":"levelo_inurba_marseille","lat":43.293259,"lon":5.371586,"is_reserved":false,"is_disabled":false,"rental_uris":{"android":"levelo://app?vid=0331781e-207f-4c79-a021-323e74cccffe","ios":"levelo://app?vid=0331781e-207f-4c79-a021-323e74cccffe"},"vehicle_type_id":"4","last_reported":1704190057,"current_range_meters":28800,"station_id":"ce4bgh92rcd13ifvqb40","pricing_plan_id":"free"},{"bike_id":"ee2e8624-eb0d-4755-928b-f0eb15caecf8","system_id":"levelo_inurba_marseille","lat":43.293259,"lon":5.371586,"is_reserved":false,"is_disabled":false,"rental_uris":{"android":"levelo://app?vid=ee2e8624-eb0d-4755-928b-f0eb15caecf8","ios":"levelo://app?vid=ee2e8624-eb0d-4755-928b-f0eb15caecf8"},"vehicle_type_id":"4","last_reported":1704190057,"current_range_meters":29200,"station_id":"ce4bgh92rcd13ifvqb40","pricing_plan_id":"free"},{"bike_id":"050cca44-6b83-461b-ba70-4fa978d140cc","system_id":"levelo_inurba_marseille","lat":43.292749,"lon":5.368402,"is_reserved":false,"is_disabled":false,"rental_uris":{"android":"levelo://app?vid=050cca44-6b83-461b-ba70-4fa978d140cc","ios":"levelo://app?vid=050cca44-6b83-461b-ba70-4fa978d140cc"},"vehicle_type_id":"4","last_reported":1704190057,"current_range_meters":20000,"station_id":"ce4bhbp2rcd13ifvqesg","pricing_plan_id":"free"},{"bike_id":"7d1ab40a-0b6d-444e-8f07-98e1eb9fb0cc","system_id":"levelo_inurba_marseille","lat":43.2936,"lon":5.37835,"is_reserved":false,"is_disabled":false,"rental_uris":{"android":"levelo://app?vid=7d1ab40a-0b6d-444e-8f07-98e1eb9fb0cc","ios":"levelo://app?vid=7d1ab40a-0b6d-444e-8f07-98e1eb9fb0cc"},"vehicle_type_id":"4","last_reported":1704190057,"current_range_meters":24800,"station_id":"ce4bgjh2rcd13ifvqbf0","pricing_plan_id":"free"},{"bike_id":"1a1481de-040b-486d-8984-45afdbe85ebb","system_id":"levelo_inurba_marseille","lat":43.29253,"lon":5.3739,"is_reserved":false,"is_disabled":false,"rental_uris":{"android":"levelo://app?vid=1a1481de-040b-486d-8984-45afdbe85ebb","ios":"levelo://app?vid=1a1481de-040b-486d-8984-45afdbe85ebb"},"vehicle_type_id":"4","last_reported":1704190057,"current_range_meters":16800,"station_id":"","pricing_plan_id":"free"},{"bike_id":"0d664077-56be-4c67-a629-94588f757463","system_id":"levelo_inurba_marseille","lat":43.292311,"lon":5.360731,"is_reserved":false,"is_disabled":false,"rental_uris":{"android":"levelo://app?vid=0d664077-56be-4c67-a629-94588f757463","ios":"levelo://app?vid=0d664077-56be-4c67-a629-94588f757463"},"vehicle_type_id":"4","last_reported":1704190057,"current_range_meters":23600,"station_id":"ce4bhbh2rcd13ifvqeqg","pricing_plan_id":"free"},{"bike_id":"2e1f43d2-102d-4c39-b2d3-9e3a326bf778","system_id":"levelo_inurba_marseille","lat":43.30092,"lon":5.39087,"is_reserved":false,"is_disabled":false,"rental_uris":{"android":"levelo://app?vid=2e1f43d2-102d-4c39-b2d3-9e3a326bf778","ios":"levelo://app?vid=2e1f43d2-102d-4c39-b2d3-9e3a326bf778"},"vehicle_type_id":"4","last_reported":1704190057,"current_range_meters":23600,"station_id":"ce4bh192rcd13ifvqdb0","pricing_plan_id":"free"},{"bike_id":"f4cec07f-16dd-4612-82b0-9b0b850dded3","system_id":"levelo_inurba_marseille","lat":43.292654,"lon":5.376228,"is_reserved":false,"is_disabled":false,"rental_uris":{"android":"levelo://app?vid=f4cec07f-16dd-4612-82b0-9b0b850dded3","ios":"levelo://app?vid=f4cec07f-16dd-4612-82b0-9b0b850dded3"},"vehicle_type_id":"4","last_reported":1704190057,"current_range_meters":22400,"station_id":"ce4bgi12rcd13ifvqb70","pricing_plan_id":"free"},{"bike_id":"1441c9d2-49c5-43f6-accd-b1b702c6507c","system_id":"levelo_inurba_marseille","lat":43.291675,"lon":5.371583,"is_reserved":false,"is_disabled":false,"rental_uris":{"android":"levelo://app?vid=1441c9d2-49c5-43f6-accd-b1b702c6507c","ios":"levelo://app?vid=1441c9d2-49c5-43f6-accd-b1b702c6507c"},"vehicle_type_id":"4","last_reported":1704190057,"current_range_meters":28000,"station_id":"ce4bha92rcd13ifvqeh0","pricing_plan_id":"free"},{"bike_id":"4646fec9-6321-4ee8-b4b3-7c836164f7e5","system_id":"levelo_inurba_marseille","lat":43.29885,"lon":5.38907,"is_reserved":false,"is_disabled":false,"rental_uris":{"android":"levelo://app?vid=4646fec9-6321-4ee8-b4b3-7c836164f7e5","ios":"levelo://app?vid=4646fec9-6321-4ee8-b4b3-7c836164f7e5"},"vehicle_type_id":"4","last_reported":1704190057,"current_range_meters":30000,"station_id":"","pricing_plan_id":"free"},{"bike_id":"a64eaeb3-c02a-449e-8aa9-3dc88fb63cf6","system_id":"levelo_inurba_marseille","lat":43.291675,"lon":5.371583,"is_reserved":false,"is_disabled":false,"rental_uris":{"android":"levelo://app?vid=a64eaeb3-c02a-449e-8aa9-3dc88fb63cf6","ios":"levelo://app?vid=a64eaeb3-c02a-449e-8aa9-3dc88fb63cf6"},"vehicle_type_id":"4","last_reported":1704190057,"current_range_meters":26800,"station_id":"ce4bha92rcd13ifvqeh0","pricing_plan_id":"free"},{"bike_id":"e7cf078d-555f-4ae6-95a8-4a1913b01364","system_id":"levelo_inurba_marseille","lat":43.291675,"lon":5.371583,"is_reserved":false,"is_disabled":false,"rental_uris":{"android":"levelo://app?vid=e7cf078d-555f-4ae6-95a8-4a1913b01364","ios":"levelo://app?vid=e7cf078d-555f-4ae6-95a8-4a1913b01364"},"vehicle_type_id":"4","last_reported":1704190057,"current_range_meters":17200,"station_id":"ce4bha92rcd13ifvqeh0","pricing_plan_id":"free"},{"bike_id":"e6e6bfbc-89f3-4e1a-8970-5703d13f1229","system_id":"levelo_inurba_marseille","lat":43.291671,"lon":5.371575,"is_reserved":false,"is_disabled":false,"rental_uris":{"android":"levelo://app?vid=e6e6bfbc-89f3-4e1a-8970-5703d13f1229","ios":"levelo://app?vid=e6e6bfbc-89f3-4e1a-8970-5703d13f1229"},"vehicle_type_id":"4","last_reported":1704190057,"current_range_meters":26800,"station_id":"ce4bha92rcd13ifvqeh0","pricing_plan_id":"free"},{"bike_id":"1142f7a3-aa84-4a1a-9be4-f9657f2b15ad","system_id":"levelo_inurba_marseille","lat":43.305364,"lon":5.384119,"is_reserved":false,"is_disabled":false,"rental_uris":{"android":"levelo://app?vid=1142f7a3-aa84-4a1a-9be4-f9657f2b15ad","ios":"levelo://app?vid=1142f7a3-aa84-4a1a-9be4-f9657f2b15ad"},"vehicle_type_id":"4","last_reported":1704190057,"current_range_meters":27600,"station_id":"ce4bgg92rcd13ifvqb30","pricing_plan_id":"free"},{"bike_id":"8cedada4-9068-44cf-a7d0-473a44246fab","system_id":"levelo_inurba_marseille","lat":43.29529,"lon":5.385581,"is_reserved":false,"is_disabled":false,"rental_uris":{"android":"levelo://app?vid=8cedada4-9068-44cf-a7d0-473a44246fab","ios":"levelo://app?vid=8cedada4-9068-44cf-a7d0-473a44246fab"},"vehicle_type_id":"4","last_reported":1704190057,"current_range_meters":28400,"station_id":"ce4bgih2rcd13ifvqba0","pricing_plan_id":"free"},{"bike_id":"426ca8ba-c3ef-427f-b806-ed33bccfe88c","system_id":"levelo_inurba_marseille","lat":43.302008,"lon":5.394694,"is_reserved":false,"is_disabled":false,"rental_uris":{"android":"levelo://app?vid=426ca8ba-c3ef-427f-b806-ed33bccfe88c","ios":"levelo://app?vid=426ca8ba-c3ef-427f-b806-ed33bccfe88c"},"vehicle_type_id":"4","last_reported":1704190057,"current_range_meters":18000,"station_id":"ce4bh0p2rcd13ifvqd70","pricing_plan_id":"free"},{"bike_id":"4f88680a-0eb3-4f36-a017-24340a80f26c","system_id":"levelo_inurba_marseille","lat":43.294165,"lon":5.386238,"is_reserved":false,"is_disabled":false,"rental_uris":{"android":"levelo://app?vid=4f88680a-0eb3-4f36-a017-24340a80f26c","ios":"levelo://app?vid=4f88680a-0eb3-4f36-a017-24340a80f26c"},"vehicle_type_id":"4","last_reported":1704190057,"current_range_meters":30800,"station_id":"ce4bgs12rcd13ifvqcag","pricing_plan_id":"free"},{"bike_id":"e1eb0166-6bbd-4781-ae6e-26902b1010ff","system_id":"levelo_inurba_marseille","lat":43.289184,"lon":5.366408,"is_reserved":false,"is_disabled":false,"rental_uris":{"android":"levelo://app?vid=e1eb0166-6bbd-4781-ae6e-26902b1010ff","ios":"levelo://app?vid=e1eb0166-6bbd-4781-ae6e-26902b1010ff"},"vehicle_type_id":"4","last_reported":1704190057,"current_range_meters":16800,"station_id":"ce4bhap2rcd13ifvqek0","pricing_plan_id":"free"},{"bike_id":"ae03d5a0-8f86-48bd-800a-28bdd3584d35","system_id":"levelo_inurba_marseille","lat":43.289184,"lon":5.366408,"is_reserved":false,"is_disabled":false,"rental_uris":{"android":"levelo://app?vid=ae03d5a0-8f86-48bd-800a-28bdd3584d35","ios":"levelo://app?vid=ae03d5a0-8f86-48bd-800a-28bdd3584d35"},"vehicle_type_id":"4","last_reported":1704190057,"current_range_meters":28000,"station_id":"ce4bhap2rcd13ifvqek0","pricing_plan_id":"free"},{"bike_id":"b1095c02-8ea7-4bba-92a4-27866db3a93a","system_id":"levelo_inurba_marseille","lat":43.289468,"lon":5.363719,"is_reserved":false,"is_disabled":false,"rental_uris":{"android":"levelo://app?vid=b1095c02-8ea7-4bba-92a4-27866db3a93a","ios":"levelo://app?vid=b1095c02-8ea7-4bba-92a4-27866db3a93a"},"vehicle_type_id":"4","last_reported":1704190057,"current_range_meters":22800,"station_id":"ce4bhc92rcd13ifvqetg","pricing_plan_id":"free"},{"bike_id":"164b9b3e-dabf-401b-976e-7af1fbb47d6f","system_id":"levelo_inurba_marseille","lat":43.302759,"lon":5.400793,"is_reserved":false,"is_disabled":false,"rental_uris":{"android":"levelo://app?vid=164b9b3e-dabf-401b-976e-7af1fbb47d6f","ios":"levelo://app?vid=164b9b3e-dabf-401b-976e-7af1fbb47d6f"},"vehicle_type_id":"4","last_reported":1704190057,"current_range_meters":24400,"station_id":"ce4bgvh2rcd13ifvqcs0","pricing_plan_id":"free"},{"bike_id":"6db44076-4907-495b-9092-06fb6df32d3c","system_id":"levelo_inurba_marseille","lat":43.29263,"lon":5.38453,"is_reserved":false,"is_disabled":false,"rental_uris":{"android":"levelo://app?vid=6db44076-4907-495b-9092-06fb6df32d3c","ios":"levelo://app?vid=6db44076-4907-495b-9092-06fb6df32d3c"},"vehicle_type_id":"4","last_reported":1704190057,"current_range_meters":16800,"station_id":"ce4bh692rcd13ifvqea0","pricing_plan_id":"free"},{"bike_id":"d3a0d4e2-27b7-4f7a-88b7-7d74a79957d8","system_id":"levelo_inurba_marseille","lat":43.290103,"lon":5.356114,"is_reserved":false,"is_disabled":false,"rental_uris":{"android":"levelo://app?vid=d3a0d4e2-27b7-4f7a-88b7-7d74a79957d8","ios":"levelo://app?vid=d3a0d4e2-27b7-4f7a-88b7-7d74a79957d8"},"vehicle_type_id":"4","last_reported":1704190057,"current_range_meters":30000,"station_id":"ce4bhb92rcd13ifvqen0","pricing_plan_id":"free"},{"bike_id":"a5459889-54b0-4b2f-a5ef-333a9584fa53","system_id":"levelo_inurba_marseille","lat":43.290103,"lon":5.356114,"is_reserved":false,"is_disabled":false,"rental_uris":{"android":"levelo://app?vid=a5459889-54b0-4b2f-a5ef-333a9584fa53","ios":"levelo://app?vid=a5459889-54b0-4b2f-a5ef-333a9584fa53"},"vehicle_type_id":"4","last_reported":1704190057,"current_range_meters":28000,"station_id":"ce4bhb92rcd13ifvqen0","pricing_plan_id":"free"},{"bike_id":"3e5c5691-1581-4aba-8d18-a6eabce3add2","system_id":"levelo_inurba_marseille","lat":43.290995,"lon":5.381361,"is_reserved":false,"is_disabled":false,"rental_uris":{"android":"levelo://app?vid=3e5c5691-1581-4aba-8d18-a6eabce3add2","ios":"levelo://app?vid=3e5c5691-1581-4aba-8d18-a6eabce3add2"},"vehicle_type_id":"4","last_reported":1704190057,"current_range_meters":0,"station_id":"ce4bh512rcd13ifvqe2g","pricing_plan_id":"free"},{"bike_id":"b86eed93-7b50-4cdf-bb52-100a3e3b265e","system_id":"levelo_inurba_marseille","lat":43.297815,"lon":5.393548,"is_reserved":false,"is_disabled":false,"rental_uris":{"android":"levelo://app?vid=b86eed93-7b50-4cdf-bb52-100a3e3b265e","ios":"levelo://app?vid=b86eed93-7b50-4cdf-bb52-100a3e3b265e"},"vehicle_type_id":"4","last_reported":1704190057,"current_range_meters":21200,"station_id":"chh1huq6cuj3fo74tm60","pricing_plan_id":"free"},{"bike_id":"36b0967c-4f8e-4409-ac6f-1b79f63144af","system_id":"levelo_inurba_marseille","lat":43.295169,"lon":5.390426,"is_reserved":false,"is_disabled":false,"rental_uris":{"android":"levelo://app?vid=36b0967c-4f8e-4409-ac6f-1b79f63144af","ios":"levelo://app?vid=36b0967c-4f8e-4409-ac6f-1b79f63144af"},"vehicle_type_id":"4","last_reported":1704190057,"current_range_meters":26400,"station_id":"ce4bh3p2rcd13ifvqdp0","pricing_plan_id":"free"},{"bike_id":"415bb52a-0e78-4075-826e-0e7b7313e6f5","system_id":"levelo_inurba_marseille","lat":43.330442,"lon":5.389148,"is_reserved":false,"is_disabled":false,"rental_uris":{"android":"levelo://app?vid=415bb52a-0e78-4075-826e-0e7b7313e6f5","ios":"levelo://app?vid=415bb52a-0e78-4075-826e-0e7b7313e6f5"},"vehicle_type_id":"4","last_reported":1704190057,"current_range_meters":20400,"station_id":"ce4bhr92rcd13ifvqhrg","pricing_plan_id":"free"},{"bike_id":"13d41c86-d361-4b17-ae49-6b5491dd4e85","system_id":"levelo_inurba_marseille","lat":43.330442,"lon":5.389148,"is_reserved":false,"is_disabled":false,"rental_uris":{"android":"levelo://app?vid=13d41c86-d361-4b17-ae49-6b5491dd4e85","ios":"levelo://app?vid=13d41c86-d361-4b17-ae49-6b5491dd4e85"},"vehicle_type_id":"4","last_reported":1704190057,"current_range_meters":24800,"station_id":"ce4bhr92rcd13ifvqhrg","pricing_plan_id":"free"},{"bike_id":"0ee0822f-5637-406f-91f4-21f57c692c5c","system_id":"levelo_inurba_marseille","lat":43.2901,"lon":5.381269,"is_reserved":false,"is_disabled":false,"rental_uris":{"android":"levelo://app?vid=0ee0822f-5637-406f-91f4-21f57c692c5c","ios":"levelo://app?vid=0ee0822f-5637-406f-91f4-21f57c692c5c"},"vehicle_type_id":"4","last_reported":1704190057,"current_range_meters":27200,"station_id":"ce4bh4p2rcd13ifvqe1g","pricing_plan_id":"free"},{"bike_id":"d3ce8f94-6db9-45cb-83d5-40f383d72081","system_id":"levelo_inurba_marseille","lat":43.29024,"lon":5.38133,"is_reserved":false,"is_disabled":false,"rental_uris":{"android":"levelo://app?vid=d3ce8f94-6db9-45cb-83d5-40f383d72081","ios":"levelo://app?vid=d3ce8f94-6db9-45cb-83d5-40f383d72081"},"vehicle_type_id":"4","last_reported":1704190057,"current_range_meters":26000,"station_id":"ce4bh4p2rcd13ifvqe1g","pricing_plan_id":"free"},{"bike_id":"bdfe30b8-6201-4072-8713-29a6c0c408e9","system_id":"levelo_inurba_marseille","lat":43.290094,"lon":5.381264,"is_reserved":false,"is_disabled":false,"rental_uris":{"android":"levelo://app?vid=bdfe30b8-6201-4072-8713-29a6c0c408e9","ios":"levelo://app?vid=bdfe30b8-6201-4072-8713-29a6c0c408e9"},"vehicle_type_id":"4","last_reported":1704190057,"current_range_meters":28000,"station_id":"ce4bh4p2rcd13ifvqe1g","pricing_plan_id":"free"},{"bike_id":"97fabc49-cfcc-4d60-a129-892f07ecd07e","system_id":"levelo_inurba_marseille","lat":43.290094,"lon":5.381264,"is_reserved":false,"is_disabled":false,"rental_uris":{"android":"levelo://app?vid=97fabc49-cfcc-4d60-a129-892f07ecd07e","ios":"levelo://app?vid=97fabc49-cfcc-4d60-a129-892f07ecd07e"},"vehicle_type_id":"4","last_reported":1704190057,"current_range_meters":14000,"station_id":"ce4bh4p2rcd13ifvqe1g","pricing_plan_id":"free"},{"bike_id":"db301e3a-bb66-4837-891f-5ecc86a42e4c","system_id":"levelo_inurba_marseille","lat":43.290094,"lon":5.381264,"is_reserved":false,"is_disabled":false,"rental_uris":{"android":"levelo://app?vid=db301e3a-bb66-4837-891f-5ecc86a42e4c","ios":"levelo://app?vid=db301e3a-bb66-4837-891f-5ecc86a42e4c"},"vehicle_type_id":"4","last_reported":1704190057,"current_range_meters":25200,"station_id":"ce4bh4p2rcd13ifvqe1g","pricing_plan_id":"free"},{"bike_id":"f7da984c-d7bb-4189-95ed-b6ddd853bdd5","system_id":"levelo_inurba_marseille","lat":43.28856,"lon":5.358371,"is_reserved":false,"is_disabled":false,"rental_uris":{"android":"levelo://app?vid=f7da984c-d7bb-4189-95ed-b6ddd853bdd5","ios":"levelo://app?vid=f7da984c-d7bb-4189-95ed-b6ddd853bdd5"},"vehicle_type_id":"4","last_reported":1704190057,"current_range_meters":30800,"station_id":"ce4bhb12rcd13ifvqem0","pricing_plan_id":"free"},{"bike_id":"9a042682-2b83-4773-ad48-23fbaf2d69da","system_id":"levelo_inurba_marseille","lat":43.312609,"lon":5.401662,"is_reserved":false,"is_disabled":false,"rental_uris":{"android":"levelo://app?vid=9a042682-2b83-4773-ad48-23fbaf2d69da","ios":"levelo://app?vid=9a042682-2b83-4773-ad48-23fbaf2d69da"},"vehicle_type_id":"4","last_reported":1704190057,"current_range_meters":10800,"station_id":"ce4bh092rcd13ifvqd30","pricing_plan_id":"free"},{"bike_id":"6f2abe80-07e6-46fe-8358-07351b09262b","system_id":"levelo_inurba_marseille","lat":43.30642,"lon":5.401031,"is_reserved":false,"is_disabled":false,"rental_uris":{"android":"levelo://app?vid=6f2abe80-07e6-46fe-8358-07351b09262b","ios":"levelo://app?vid=6f2abe80-07e6-46fe-8358-07351b09262b"},"vehicle_type_id":"4","last_reported":1704190057,"current_range_meters":20000,"station_id":"ce4bh112rcd13ifvqda0","pricing_plan_id":"free"},{"bike_id":"d03e0163-b89e-409f-8f52-1d69c669e25a","system_id":"levelo_inurba_marseille","lat":43.301117,"lon":5.398795,"is_reserved":false,"is_disabled":false,"rental_uris":{"android":"levelo://app?vid=d03e0163-b89e-409f-8f52-1d69c669e25a","ios":"levelo://app?vid=d03e0163-b89e-409f-8f52-1d69c669e25a"},"vehicle_type_id":"4","last_reported":1704190057,"current_range_meters":15200,"station_id":"ce4bh0h2rcd13ifvqd40","pricing_plan_id":"free"},{"bike_id":"f182ad30-578d-439a-b895-037c49f93cbb","system_id":"levelo_inurba_marseille","lat":43.28039,"lon":5.369297,"is_reserved":false,"is_disabled":false,"rental_uris":{"android":"levelo://app?vid=f182ad30-578d-439a-b895-037c49f93cbb","ios":"levelo://app?vid=f182ad30-578d-439a-b895-037c49f93cbb"},"vehicle_type_id":"4","last_reported":1704190057,"current_range_meters":30800,"station_id":"ce4bha12rcd13ifvqef0","pricing_plan_id":"free"},{"bike_id":"2a416573-7caf-4ef1-ba29-c89c522a9999","system_id":"levelo_inurba_marseille","lat":43.295194,"lon":5.39397,"is_reserved":false,"is_disabled":false,"rental_uris":{"android":"levelo://app?vid=2a416573-7caf-4ef1-ba29-c89c522a9999","ios":"levelo://app?vid=2a416573-7caf-4ef1-ba29-c89c522a9999"},"vehicle_type_id":"4","last_reported":1704190057,"current_range_meters":26800,"station_id":"ce4bh292rcd13ifvqdf0","pricing_plan_id":"free"},{"bike_id":"f04c0197-8bb7-4d15-ac5b-e74e1042e935","system_id":"levelo_inurba_marseille","lat":43.286039,"lon":5.370679,"is_reserved":false,"is_disabled":false,"rental_uris":{"android":"levelo://app?vid=f04c0197-8bb7-4d15-ac5b-e74e1042e935","ios":"levelo://app?vid=f04c0197-8bb7-4d15-ac5b-e74e1042e935"},"vehicle_type_id":"4","last_reported":1704190057,"current_range_meters":28000,"station_id":"ce4bht12rcd13ifvqi60","pricing_plan_id":"free"},{"bike_id":"40579999-f28a-4f53-8fc1-32606a609e63","system_id":"levelo_inurba_marseille","lat":43.286039,"lon":5.370679,"is_reserved":false,"is_disabled":false,"rental_uris":{"android":"levelo://app?vid=40579999-f28a-4f53-8fc1-32606a609e63","ios":"levelo://app?vid=40579999-f28a-4f53-8fc1-32606a609e63"},"vehicle_type_id":"4","last_reported":1704190057,"current_range_meters":31200,"station_id":"ce4bht12rcd13ifvqi60","pricing_plan_id":"free"},{"bike_id":"102b8121-ee53-408e-8829-c9b9fc6aef90","system_id":"levelo_inurba_marseille","lat":43.286039,"lon":5.370679,"is_reserved":false,"is_disabled":false,"rental_uris":{"android":"levelo://app?vid=102b8121-ee53-408e-8829-c9b9fc6aef90","ios":"levelo://app?vid=102b8121-ee53-408e-8829-c9b9fc6aef90"},"vehicle_type_id":"4","last_reported":1704190057,"current_range_meters":14800,"station_id":"ce4bht12rcd13ifvqi60","pricing_plan_id":"free"},{"bike_id":"f62adb6c-45c4-471c-ad26-ab3a2c11485e","system_id":"levelo_inurba_marseille","lat":43.287184,"lon":5.37937,"is_reserved":false,"is_disabled":false,"rental_uris":{"android":"levelo://app?vid=f62adb6c-45c4-471c-ad26-ab3a2c11485e","ios":"levelo://app?vid=f62adb6c-45c4-471c-ad26-ab3a2c11485e"},"vehicle_type_id":"4","last_reported":1704190057,"current_range_meters":26400,"station_id":"ce4bh9p2rcd13ifvqec0","pricing_plan_id":"free"},{"bike_id":"f9abcb71-42b4-47bf-9ea0-70ffdbbc56e9","system_id":"levelo_inurba_marseille","lat":43.287185,"lon":5.379373,"is_reserved":false,"is_disabled":false,"rental_uris":{"android":"levelo://app?vid=f9abcb71-42b4-47bf-9ea0-70ffdbbc56e9","ios":"levelo://app?vid=f9abcb71-42b4-47bf-9ea0-70ffdbbc56e9"},"vehicle_type_id":"4","last_reported":1704190057,"current_range_meters":27200,"station_id":"ce4bh9p2rcd13ifvqec0","pricing_plan_id":"free"},{"bike_id":"fe9d9231-9266-42cd-b245-ed8ea3c0bdbb","system_id":"levelo_inurba_marseille","lat":43.316884,"lon":5.404629,"is_reserved":false,"is_disabled":false,"rental_uris":{"android":"levelo://app?vid=fe9d9231-9266-42cd-b245-ed8ea3c0bdbb","ios":"levelo://app?vid=fe9d9231-9266-42cd-b245-ed8ea3c0bdbb"},"vehicle_type_id":"4","last_reported":1704190057,"current_range_meters":20400,"station_id":"ce4bh012rcd13ifvqd00","pricing_plan_id":"free"},{"bike_id":"9b0c9e9e-977c-43ca-8676-217c423ef706","system_id":"levelo_inurba_marseille","lat":43.316861,"lon":5.404659,"is_reserved":false,"is_disabled":false,"rental_uris":{"android":"levelo://app?vid=9b0c9e9e-977c-43ca-8676-217c423ef706","ios":"levelo://app?vid=9b0c9e9e-977c-43ca-8676-217c423ef706"},"vehicle_type_id":"4","last_reported":1704190057,"current_range_meters":28800,"station_id":"ce4bh012rcd13ifvqd00","pricing_plan_id":"free"},{"bike_id":"8a4760d7-57b1-4b20-8b85-4aac98c7608f","system_id":"levelo_inurba_marseille","lat":43.31691,"lon":5.40466,"is_reserved":false,"is_disabled":false,"rental_uris":{"android":"levelo://app?vid=8a4760d7-57b1-4b20-8b85-4aac98c7608f","ios":"levelo://app?vid=8a4760d7-57b1-4b20-8b85-4aac98c7608f"},"vehicle_type_id":"4","last_reported":1704190057,"current_range_meters":22400,"station_id":"ce4bh012rcd13ifvqd00","pricing_plan_id":"free"},{"bike_id":"1bbff4a6-6273-40cf-8b09-c2b1368fe6b7","system_id":"levelo_inurba_marseille","lat":43.284538,"lon":5.358657,"is_reserved":false,"is_disabled":false,"rental_uris":{"android":"levelo://app?vid=1bbff4a6-6273-40cf-8b09-c2b1368fe6b7","ios":"levelo://app?vid=1bbff4a6-6273-40cf-8b09-c2b1368fe6b7"},"vehicle_type_id":"4","last_reported":1704190057,"current_range_meters":26800,"station_id":"ce4bhah2rcd13ifvqei0","pricing_plan_id":"free"},{"bike_id":"99beda4b-18fa-45cc-be6f-dd31a552ffe5","system_id":"levelo_inurba_marseille","lat":43.294314,"lon":5.397498,"is_reserved":false,"is_disabled":false,"rental_uris":{"android":"levelo://app?vid=99beda4b-18fa-45cc-be6f-dd31a552ffe5","ios":"levelo://app?vid=99beda4b-18fa-45cc-be6f-dd31a552ffe5"},"vehicle_type_id":"4","last_reported":1704190057,"current_range_meters":25200,"station_id":"ce4bh3h2rcd13ifvqdo0","pricing_plan_id":"free"},{"bike_id":"08a41e38-2652-45c2-b866-b3c46c04abd6","system_id":"levelo_inurba_marseille","lat":43.285856,"lon":5.350771,"is_reserved":false,"is_disabled":false,"rental_uris":{"android":"levelo://app?vid=08a41e38-2652-45c2-b866-b3c46c04abd6","ios":"levelo://app?vid=08a41e38-2652-45c2-b866-b3c46c04abd6"},"vehicle_type_id":"4","last_reported":1704190057,"current_range_meters":31200,"station_id":"ce4bhch2rcd13ifvqeug","pricing_plan_id":"free"},{"bike_id":"b08aec6f-115b-485f-9076-6b6a15e351e9","system_id":"levelo_inurba_marseille","lat":43.285856,"lon":5.350771,"is_reserved":false,"is_disabled":false,"rental_uris":{"android":"levelo://app?vid=b08aec6f-115b-485f-9076-6b6a15e351e9","ios":"levelo://app?vid=b08aec6f-115b-485f-9076-6b6a15e351e9"},"vehicle_type_id":"4","last_reported":1704190057,"current_range_meters":24800,"station_id":"ce4bhch2rcd13ifvqeug","pricing_plan_id":"free"},{"bike_id":"27c56aac-08bf-428e-833d-39da8c612870","system_id":"levelo_inurba_marseille","lat":43.285856,"lon":5.350771,"is_reserved":false,"is_disabled":false,"rental_uris":{"android":"levelo://app?vid=27c56aac-08bf-428e-833d-39da8c612870","ios":"levelo://app?vid=27c56aac-08bf-428e-833d-39da8c612870"},"vehicle_type_id":"4","last_reported":1704190057,"current_range_meters":30000,"station_id":"ce4bhch2rcd13ifvqeug","pricing_plan_id":"free"},{"bike_id":"08ec7859-00c1-4ca0-8ceb-f2f50be8e031","system_id":"levelo_inurba_marseille","lat":43.28617,"lon":5.35102,"is_reserved":false,"is_disabled":false,"rental_uris":{"android":"levelo://app?vid=08ec7859-00c1-4ca0-8ceb-f2f50be8e031","ios":"levelo://app?vid=08ec7859-00c1-4ca0-8ceb-f2f50be8e031"},"vehicle_type_id":"4","last_reported":1704190057,"current_range_meters":31200,"station_id":"ce4bhch2rcd13ifvqeug","pricing_plan_id":"free"},{"bike_id":"d9fd8dfe-c806-4fa6-a1aa-01731bb94f15","system_id":"levelo_inurba_marseille","lat":43.28617,"lon":5.35102,"is_reserved":false,"is_disabled":false,"rental_uris":{"android":"levelo://app?vid=d9fd8dfe-c806-4fa6-a1aa-01731bb94f15","ios":"levelo://app?vid=d9fd8dfe-c806-4fa6-a1aa-01731bb94f15"},"vehicle_type_id":"4","last_reported":1704190057,"current_range_meters":26800,"station_id":"ce4bhch2rcd13ifvqeug","pricing_plan_id":"free"},{"bike_id":"63f5306b-d050-487d-ad5f-94c2116840d4","system_id":"levelo_inurba_marseille","lat":43.286142,"lon":5.351039,"is_reserved":false,"is_disabled":false,"rental_uris":{"android":"levelo://app?vid=63f5306b-d050-487d-ad5f-94c2116840d4","ios":"levelo://app?vid=63f5306b-d050-487d-ad5f-94c2116840d4"},"vehicle_type_id":"4","last_reported":1704190057,"current_range_meters":31200,"station_id":"ce4bhch2rcd13ifvqeug","pricing_plan_id":"free"},{"bike_id":"dc7a5cbf-5979-46ef-822f-2cfc84db524d","system_id":"levelo_inurba_marseille","lat":43.286136,"lon":5.351045,"is_reserved":false,"is_disabled":false,"rental_uris":{"android":"levelo://app?vid=dc7a5cbf-5979-46ef-822f-2cfc84db524d","ios":"levelo://app?vid=dc7a5cbf-5979-46ef-822f-2cfc84db524d"},"vehicle_type_id":"4","last_reported":1704190057,"current_range_meters":26800,"station_id":"","pricing_plan_id":"free"},{"bike_id":"2bdadb88-56d9-4436-b951-8398615ed172","system_id":"levelo_inurba_marseille","lat":43.28613,"lon":5.35106,"is_reserved":false,"is_disabled":false,"rental_uris":{"android":"levelo://app?vid=2bdadb88-56d9-4436-b951-8398615ed172","ios":"levelo://app?vid=2bdadb88-56d9-4436-b951-8398615ed172"},"vehicle_type_id":"4","last_reported":1704190057,"current_range_meters":27200,"station_id":"ce4bhch2rcd13ifvqeug","pricing_plan_id":"free"},{"bike_id":"ed53f7ef-8bbf-4731-84ce-b412b717f147","system_id":"levelo_inurba_marseille","lat":43.28612,"lon":5.351073,"is_reserved":false,"is_disabled":false,"rental_uris":{"android":"levelo://app?vid=ed53f7ef-8bbf-4731-84ce-b412b717f147","ios":"levelo://app?vid=ed53f7ef-8bbf-4731-84ce-b412b717f147"},"vehicle_type_id":"4","last_reported":1704190057,"current_range_meters":30000,"station_id":"ce4bhch2rcd13ifvqeug","pricing_plan_id":"free"},{"bike_id":"b6e71bc2-7b3e-45bd-861f-83730fb0cd8c","system_id":"levelo_inurba_marseille","lat":43.28614,"lon":5.35101,"is_reserved":false,"is_disabled":false,"rental_uris":{"android":"levelo://app?vid=b6e71bc2-7b3e-45bd-861f-83730fb0cd8c","ios":"levelo://app?vid=b6e71bc2-7b3e-45bd-861f-83730fb0cd8c"},"vehicle_type_id":"4","last_reported":1704190057,"current_range_meters":23200,"station_id":"ce4bhch2rcd13ifvqeug","pricing_plan_id":"free"},{"bike_id":"36502258-c6dc-4c97-8c74-c71817cc0833","system_id":"levelo_inurba_marseille","lat":43.285848,"lon":5.350787,"is_reserved":false,"is_disabled":false,"rental_uris":{"android":"levelo://app?vid=36502258-c6dc-4c97-8c74-c71817cc0833","ios":"levelo://app?vid=36502258-c6dc-4c97-8c74-c71817cc0833"},"vehicle_type_id":"4","last_reported":1704190057,"current_range_meters":28000,"station_id":"ce4bhch2rcd13ifvqeug","pricing_plan_id":"free"},{"bike_id":"ac9ffd8a-fdd1-4e19-a68b-2f09517347c9","system_id":"levelo_inurba_marseille","lat":43.286103,"lon":5.351079,"is_reserved":false,"is_disabled":false,"rental_uris":{"android":"levelo://app?vid=ac9ffd8a-fdd1-4e19-a68b-2f09517347c9","ios":"levelo://app?vid=ac9ffd8a-fdd1-4e19-a68b-2f09517347c9"},"vehicle_type_id":"4","last_reported":1704190057,"current_range_meters":20800,"station_id":"ce4bhch2rcd13ifvqeug","pricing_plan_id":"free"},{"bike_id":"57aa4e80-760d-4e3c-a199-3d58309f5f3c","system_id":"levelo_inurba_marseille","lat":43.261782,"lon":5.374515,"is_reserved":false,"is_disabled":false,"rental_uris":{"android":"levelo://app?vid=57aa4e80-760d-4e3c-a199-3d58309f5f3c","ios":"levelo://app?vid=57aa4e80-760d-4e3c-a199-3d58309f5f3c"},"vehicle_type_id":"4","last_reported":1704190057,"current_range_meters":24800,"station_id":"ce4bhgp2rcd13ifvqfc0","pricing_plan_id":"free"},{"bike_id":"754390c3-6024-46a0-867c-05628b4ba38d","system_id":"levelo_inurba_marseille","lat":43.319179,"lon":5.407725,"is_reserved":false,"is_disabled":false,"rental_uris":{"android":"levelo://app?vid=754390c3-6024-46a0-867c-05628b4ba38d","ios":"levelo://app?vid=754390c3-6024-46a0-867c-05628b4ba38d"},"vehicle_type_id":"4","last_reported":1704190057,"current_range_meters":28800,"station_id":"ce4bhq12rcd13ifvqhig","pricing_plan_id":"free"},{"bike_id":"90a3742a-b6b1-431b-bfa6-9984c3222dd1","system_id":"levelo_inurba_marseille","lat":43.33717,"lon":5.391857,"is_reserved":false,"is_disabled":false,"rental_uris":{"android":"levelo://app?vid=90a3742a-b6b1-431b-bfa6-9984c3222dd1","ios":"levelo://app?vid=90a3742a-b6b1-431b-bfa6-9984c3222dd1"},"vehicle_type_id":"4","last_reported":1704190057,"current_range_meters":25600,"station_id":"ce4bhr92rcd13ifvqhsg","pricing_plan_id":"free"},{"bike_id":"3a34192a-8b34-47a6-8d79-245a33690514","system_id":"levelo_inurba_marseille","lat":43.33717,"lon":5.391857,"is_reserved":false,"is_disabled":false,"rental_uris":{"android":"levelo://app?vid=3a34192a-8b34-47a6-8d79-245a33690514","ios":"levelo://app?vid=3a34192a-8b34-47a6-8d79-245a33690514"},"vehicle_type_id":"4","last_reported":1704190057,"current_range_meters":28400,"station_id":"ce4bhr92rcd13ifvqhsg","pricing_plan_id":"free"},{"bike_id":"78bb1215-3373-4d3f-b7bd-f79703d6e8c0","system_id":"levelo_inurba_marseille","lat":43.323464,"lon":5.406297,"is_reserved":false,"is_disabled":false,"rental_uris":{"android":"levelo://app?vid=78bb1215-3373-4d3f-b7bd-f79703d6e8c0","ios":"levelo://app?vid=78bb1215-3373-4d3f-b7bd-f79703d6e8c0"},"vehicle_type_id":"4","last_reported":1704190057,"current_range_meters":27200,"station_id":"ce4bhq92rcd13ifvqhjg","pricing_plan_id":"free"},{"bike_id":"8af6642b-e526-4770-8a06-6b115e68c32b","system_id":"levelo_inurba_marseille","lat":43.337246,"lon":5.391832,"is_reserved":false,"is_disabled":false,"rental_uris":{"android":"levelo://app?vid=8af6642b-e526-4770-8a06-6b115e68c32b","ios":"levelo://app?vid=8af6642b-e526-4770-8a06-6b115e68c32b"},"vehicle_type_id":"4","last_reported":1704190057,"current_range_meters":21200,"station_id":"ce4bhr92rcd13ifvqhsg","pricing_plan_id":"free"},{"bike_id":"d3837f57-b992-4c84-a0a7-b545d2582111","system_id":"levelo_inurba_marseille","lat":43.323464,"lon":5.406297,"is_reserved":false,"is_disabled":false,"rental_uris":{"android":"levelo://app?vid=d3837f57-b992-4c84-a0a7-b545d2582111","ios":"levelo://app?vid=d3837f57-b992-4c84-a0a7-b545d2582111"},"vehicle_type_id":"4","last_reported":1704190057,"current_range_meters":29600,"station_id":"ce4bhq92rcd13ifvqhjg","pricing_plan_id":"free"},{"bike_id":"279c24e1-5891-4e70-a317-d0f5cce47927","system_id":"levelo_inurba_marseille","lat":43.323464,"lon":5.406297,"is_reserved":false,"is_disabled":false,"rental_uris":{"android":"levelo://app?vid=279c24e1-5891-4e70-a317-d0f5cce47927","ios":"levelo://app?vid=279c24e1-5891-4e70-a317-d0f5cce47927"},"vehicle_type_id":"4","last_reported":1704190057,"current_range_meters":28400,"station_id":"ce4bhq92rcd13ifvqhjg","pricing_plan_id":"free"},{"bike_id":"3e355c9a-35b8-4a26-82cf-a0832bae540d","system_id":"levelo_inurba_marseille","lat":43.288501,"lon":5.393087,"is_reserved":false,"is_disabled":false,"rental_uris":{"android":"levelo://app?vid=3e355c9a-35b8-4a26-82cf-a0832bae540d","ios":"levelo://app?vid=3e355c9a-35b8-4a26-82cf-a0832bae540d"},"vehicle_type_id":"4","last_reported":1704190057,"current_range_meters":18800,"station_id":"ce4bh2p2rcd13ifvqdi0","pricing_plan_id":"free"},{"bike_id":"f80a207e-a4c4-4745-b7d9-7a1daa57771b","system_id":"levelo_inurba_marseille","lat":43.283494,"lon":5.380945,"is_reserved":false,"is_disabled":false,"rental_uris":{"android":"levelo://app?vid=f80a207e-a4c4-4745-b7d9-7a1daa57771b","ios":"levelo://app?vid=f80a207e-a4c4-4745-b7d9-7a1daa57771b"},"vehicle_type_id":"4","last_reported":1704190057,"current_range_meters":21200,"station_id":"ce4bh412rcd13ifvqdr0","pricing_plan_id":"free"},{"bike_id":"1860c054-e673-4084-804e-8832a59aeb53","system_id":"levelo_inurba_marseille","lat":43.33732,"lon":5.39289,"is_reserved":false,"is_disabled":false,"rental_uris":{"android":"levelo://app?vid=1860c054-e673-4084-804e-8832a59aeb53","ios":"levelo://app?vid=1860c054-e673-4084-804e-8832a59aeb53"},"vehicle_type_id":"4","last_reported":1704190057,"current_range_meters":24000,"station_id":"","pricing_plan_id":"free"},{"bike_id":"2db209fd-34c6-4cc6-9b43-b68d54d41413","system_id":"levelo_inurba_marseille","lat":43.283502,"lon":5.386471,"is_reserved":false,"is_disabled":false,"rental_uris":{"android":"levelo://app?vid=2db209fd-34c6-4cc6-9b43-b68d54d41413","ios":"levelo://app?vid=2db209fd-34c6-4cc6-9b43-b68d54d41413"},"vehicle_type_id":"4","last_reported":1704190057,"current_range_meters":18800,"station_id":"ce4bh492rcd13ifvqdvg","pricing_plan_id":"free"},{"bike_id":"b7cb68cc-956b-4d94-95e3-9edde036a4db","system_id":"levelo_inurba_marseille","lat":43.28039,"lon":5.369297,"is_reserved":false,"is_disabled":false,"rental_uris":{"android":"levelo://app?vid=b7cb68cc-956b-4d94-95e3-9edde036a4db","ios":"levelo://app?vid=b7cb68cc-956b-4d94-95e3-9edde036a4db"},"vehicle_type_id":"4","last_reported":1704190057,"current_range_meters":18000,"station_id":"ce4bha12rcd13ifvqef0","pricing_plan_id":"free"},{"bike_id":"2a89d790-a3ca-4e84-905c-4451431abf35","system_id":"levelo_inurba_marseille","lat":43.292724,"lon":5.401131,"is_reserved":false,"is_disabled":false,"rental_uris":{"android":"levelo://app?vid=2a89d790-a3ca-4e84-905c-4451431abf35","ios":"levelo://app?vid=2a89d790-a3ca-4e84-905c-4451431abf35"},"vehicle_type_id":"4","last_reported":1704190057,"current_range_meters":29200,"station_id":"ce4bh312rcd13ifvqdk0","pricing_plan_id":"free"},{"bike_id":"b9b4f3b0-39ab-40ff-9610-9234533208ef","system_id":"levelo_inurba_marseille","lat":43.284462,"lon":5.392121,"is_reserved":false,"is_disabled":false,"rental_uris":{"android":"levelo://app?vid=b9b4f3b0-39ab-40ff-9610-9234533208ef","ios":"levelo://app?vid=b9b4f3b0-39ab-40ff-9610-9234533208ef"},"vehicle_type_id":"4","last_reported":1704190057,"current_range_meters":25600,"station_id":"ce4bhoh2rcd13ifvqh5g","pricing_plan_id":"free"},{"bike_id":"a818a791-20ad-499c-98cd-ad813ab3e3f7","system_id":"levelo_inurba_marseille","lat":43.284462,"lon":5.392121,"is_reserved":false,"is_disabled":false,"rental_uris":{"android":"levelo://app?vid=a818a791-20ad-499c-98cd-ad813ab3e3f7","ios":"levelo://app?vid=a818a791-20ad-499c-98cd-ad813ab3e3f7"},"vehicle_type_id":"4","last_reported":1704190057,"current_range_meters":18800,"station_id":"ce4bhoh2rcd13ifvqh5g","pricing_plan_id":"free"},{"bike_id":"63ef493a-db4b-4496-ad1b-ba396f3c1336","system_id":"levelo_inurba_marseille","lat":43.336134,"lon":5.410341,"is_reserved":false,"is_disabled":false,"rental_uris":{"android":"levelo://app?vid=63ef493a-db4b-4496-ad1b-ba396f3c1336","ios":"levelo://app?vid=63ef493a-db4b-4496-ad1b-ba396f3c1336"},"vehicle_type_id":"4","last_reported":1704190057,"current_range_meters":27200,"station_id":"ce4bhqh2rcd13ifvqhmg","pricing_plan_id":"free"},{"bike_id":"52096488-c01e-4f37-91ed-6d79b7d0f178","system_id":"levelo_inurba_marseille","lat":43.304188,"lon":5.412904,"is_reserved":false,"is_disabled":false,"rental_uris":{"android":"levelo://app?vid=52096488-c01e-4f37-91ed-6d79b7d0f178","ios":"levelo://app?vid=52096488-c01e-4f37-91ed-6d79b7d0f178"},"vehicle_type_id":"4","last_reported":1704190057,"current_range_meters":28800,"station_id":"ce4bhop2rcd13ifvqh8g","pricing_plan_id":"free"},{"bike_id":"8571ddf1-8157-46ba-b747-ea46713afd05","system_id":"levelo_inurba_marseille","lat":43.292816,"lon":5.406553,"is_reserved":false,"is_disabled":false,"rental_uris":{"android":"levelo://app?vid=8571ddf1-8157-46ba-b747-ea46713afd05","ios":"levelo://app?vid=8571ddf1-8157-46ba-b747-ea46713afd05"},"vehicle_type_id":"4","last_reported":1704190057,"current_range_meters":0,"station_id":"","pricing_plan_id":"free"},{"bike_id":"45120a21-f343-45ce-8fb6-e06904f75898","system_id":"levelo_inurba_marseille","lat":43.320045,"lon":5.415046,"is_reserved":false,"is_disabled":false,"rental_uris":{"android":"levelo://app?vid=45120a21-f343-45ce-8fb6-e06904f75898","ios":"levelo://app?vid=45120a21-f343-45ce-8fb6-e06904f75898"},"vehicle_type_id":"4","last_reported":1704190057,"current_range_meters":30800,"station_id":"ce4bhq92rcd13ifvqhkg","pricing_plan_id":"free"},{"bike_id":"615ddd57-fea9-4bbf-bf62-13fe65a025c6","system_id":"levelo_inurba_marseille","lat":43.320045,"lon":5.415048,"is_reserved":false,"is_disabled":false,"rental_uris":{"android":"levelo://app?vid=615ddd57-fea9-4bbf-bf62-13fe65a025c6","ios":"levelo://app?vid=615ddd57-fea9-4bbf-bf62-13fe65a025c6"},"vehicle_type_id":"4","last_reported":1704190057,"current_range_meters":29200,"station_id":"ce4bhq92rcd13ifvqhkg","pricing_plan_id":"free"},{"bike_id":"e9e342a5-71f4-448a-a0e1-6ff4791eca67","system_id":"levelo_inurba_marseille","lat":43.320045,"lon":5.415046,"is_reserved":false,"is_disabled":false,"rental_uris":{"android":"levelo://app?vid=e9e342a5-71f4-448a-a0e1-6ff4791eca67","ios":"levelo://app?vid=e9e342a5-71f4-448a-a0e1-6ff4791eca67"},"vehicle_type_id":"4","last_reported":1704190057,"current_range_meters":31200,"station_id":"ce4bhq92rcd13ifvqhkg","pricing_plan_id":"free"},{"bike_id":"53de7d79-b18d-4809-b0e7-98b76e4d394f","system_id":"levelo_inurba_marseille","lat":43.292569,"lon":5.409107,"is_reserved":false,"is_disabled":false,"rental_uris":{"android":"levelo://app?vid=53de7d79-b18d-4809-b0e7-98b76e4d394f","ios":"levelo://app?vid=53de7d79-b18d-4809-b0e7-98b76e4d394f"},"vehicle_type_id":"4","last_reported":1704190057,"current_range_meters":20800,"station_id":"ce4bh192rcd13ifvqdc0","pricing_plan_id":"free"},{"bike_id":"493c529d-4816-4d54-82ca-cf1d3517820d","system_id":"levelo_inurba_marseille","lat":43.325233,"lon":5.414318,"is_reserved":false,"is_disabled":false,"rental_uris":{"android":"levelo://app?vid=493c529d-4816-4d54-82ca-cf1d3517820d","ios":"levelo://app?vid=493c529d-4816-4d54-82ca-cf1d3517820d"},"vehicle_type_id":"4","last_reported":1704190057,"current_range_meters":20800,"station_id":"ce4bhq12rcd13ifvqhhg","pricing_plan_id":"free"},{"bike_id":"260996b3-629f-4165-8d4f-a2b7e8c47d75","system_id":"levelo_inurba_marseille","lat":43.325243,"lon":5.414326,"is_reserved":false,"is_disabled":false,"rental_uris":{"android":"levelo://app?vid=260996b3-629f-4165-8d4f-a2b7e8c47d75","ios":"levelo://app?vid=260996b3-629f-4165-8d4f-a2b7e8c47d75"},"vehicle_type_id":"4","last_reported":1704190057,"current_range_meters":30400,"station_id":"ce4bhq12rcd13ifvqhhg","pricing_plan_id":"free"},{"bike_id":"72fcfe75-3449-4594-8465-a5d86ec07d19","system_id":"levelo_inurba_marseille","lat":43.27822,"lon":5.39203,"is_reserved":false,"is_disabled":false,"rental_uris":{"android":"levelo://app?vid=72fcfe75-3449-4594-8465-a5d86ec07d19","ios":"levelo://app?vid=72fcfe75-3449-4594-8465-a5d86ec07d19"},"vehicle_type_id":"4","last_reported":1704190057,"current_range_meters":28800,"station_id":"ce4bhjp2rcd13ifvqga0","pricing_plan_id":"free"},{"bike_id":"abead95e-245f-4d7a-ab0e-8c4d4145d43e","system_id":"levelo_inurba_marseille","lat":43.2738,"lon":5.36253,"is_reserved":false,"is_disabled":false,"rental_uris":{"android":"levelo://app?vid=abead95e-245f-4d7a-ab0e-8c4d4145d43e","ios":"levelo://app?vid=abead95e-245f-4d7a-ab0e-8c4d4145d43e"},"vehicle_type_id":"4","last_reported":1704190057,"current_range_meters":24800,"station_id":"ce4bhbh2rcd13ifvqeo0","pricing_plan_id":"free"},{"bike_id":"dd1fde5c-cda1-4952-aabe-3f4b315e1162","system_id":"levelo_inurba_marseille","lat":43.279952,"lon":5.400085,"is_reserved":false,"is_disabled":false,"rental_uris":{"android":"levelo://app?vid=dd1fde5c-cda1-4952-aabe-3f4b315e1162","ios":"levelo://app?vid=dd1fde5c-cda1-4952-aabe-3f4b315e1162"},"vehicle_type_id":"4","last_reported":1704190057,"current_range_meters":19600,"station_id":"ce4bho92rcd13ifvqh4g","pricing_plan_id":"free"},{"bike_id":"40a6490a-7a82-4760-aa4e-e343f1aa848b","system_id":"levelo_inurba_marseille","lat":43.279952,"lon":5.400085,"is_reserved":false,"is_disabled":false,"rental_uris":{"android":"levelo://app?vid=40a6490a-7a82-4760-aa4e-e343f1aa848b","ios":"levelo://app?vid=40a6490a-7a82-4760-aa4e-e343f1aa848b"},"vehicle_type_id":"4","last_reported":1704190057,"current_range_meters":8400,"station_id":"ce4bho92rcd13ifvqh4g","pricing_plan_id":"free"},{"bike_id":"2d68f679-42a3-4a63-8bd6-9ebdf4c92577","system_id":"levelo_inurba_marseille","lat":43.279952,"lon":5.400085,"is_reserved":false,"is_disabled":false,"rental_uris":{"android":"levelo://app?vid=2d68f679-42a3-4a63-8bd6-9ebdf4c92577","ios":"levelo://app?vid=2d68f679-42a3-4a63-8bd6-9ebdf4c92577"},"vehicle_type_id":"4","last_reported":1704190057,"current_range_meters":18800,"station_id":"ce4bho92rcd13ifvqh4g","pricing_plan_id":"free"},{"bike_id":"b2e64161-bed0-442d-9e12-361d365ea82c","system_id":"levelo_inurba_marseille","lat":43.279952,"lon":5.400085,"is_reserved":false,"is_disabled":false,"rental_uris":{"android":"levelo://app?vid=b2e64161-bed0-442d-9e12-361d365ea82c","ios":"levelo://app?vid=b2e64161-bed0-442d-9e12-361d365ea82c"},"vehicle_type_id":"4","last_reported":1704190057,"current_range_meters":30400,"station_id":"ce4bho92rcd13ifvqh4g","pricing_plan_id":"free"},{"bike_id":"4760841b-4fd7-4b7d-aef3-782de75b0909","system_id":"levelo_inurba_marseille","lat":43.317121,"lon":5.423936,"is_reserved":false,"is_disabled":false,"rental_uris":{"android":"levelo://app?vid=4760841b-4fd7-4b7d-aef3-782de75b0909","ios":"levelo://app?vid=4760841b-4fd7-4b7d-aef3-782de75b0909"},"vehicle_type_id":"4","last_reported":1704190057,"current_range_meters":22400,"station_id":"ce4bhp92rcd13ifvqhbg","pricing_plan_id":"free"},{"bike_id":"5e3452d0-bbc8-463b-8852-ec98e809d5a0","system_id":"levelo_inurba_marseille","lat":43.317121,"lon":5.423936,"is_reserved":false,"is_disabled":false,"rental_uris":{"android":"levelo://app?vid=5e3452d0-bbc8-463b-8852-ec98e809d5a0","ios":"levelo://app?vid=5e3452d0-bbc8-463b-8852-ec98e809d5a0"},"vehicle_type_id":"4","last_reported":1704190057,"current_range_meters":31200,"station_id":"ce4bhp92rcd13ifvqhbg","pricing_plan_id":"free"},{"bike_id":"e2340435-a767-4a07-9db0-637fd4bce462","system_id":"levelo_inurba_marseille","lat":43.317121,"lon":5.423936,"is_reserved":false,"is_disabled":false,"rental_uris":{"android":"levelo://app?vid=e2340435-a767-4a07-9db0-637fd4bce462","ios":"levelo://app?vid=e2340435-a767-4a07-9db0-637fd4bce462"},"vehicle_type_id":"4","last_reported":1704190057,"current_range_meters":10400,"station_id":"ce4bhp92rcd13ifvqhbg","pricing_plan_id":"free"},{"bike_id":"f3e351f0-7ca3-497e-a450-69da3118abd7","system_id":"levelo_inurba_marseille","lat":43.31723,"lon":5.42406,"is_reserved":false,"is_disabled":false,"rental_uris":{"android":"levelo://app?vid=f3e351f0-7ca3-497e-a450-69da3118abd7","ios":"levelo://app?vid=f3e351f0-7ca3-497e-a450-69da3118abd7"},"vehicle_type_id":"4","last_reported":1704190057,"current_range_meters":25200,"station_id":"ce4bhp92rcd13ifvqhbg","pricing_plan_id":"free"},{"bike_id":"eb56ca18-ac85-401b-985c-b6a30c1e61f1","system_id":"levelo_inurba_marseille","lat":43.310785,"lon":5.424305,"is_reserved":false,"is_disabled":false,"rental_uris":{"android":"levelo://app?vid=eb56ca18-ac85-401b-985c-b6a30c1e61f1","ios":"levelo://app?vid=eb56ca18-ac85-401b-985c-b6a30c1e61f1"},"vehicle_type_id":"4","last_reported":1704190057,"current_range_meters":26800,"station_id":"ce4bhp92rcd13ifvqhag","pricing_plan_id":"free"},{"bike_id":"47f8cb60-186e-4e83-96aa-050d47af2974","system_id":"levelo_inurba_marseille","lat":43.341377,"lon":5.409071,"is_reserved":false,"is_disabled":false,"rental_uris":{"android":"levelo://app?vid=47f8cb60-186e-4e83-96aa-050d47af2974","ios":"levelo://app?vid=47f8cb60-186e-4e83-96aa-050d47af2974"},"vehicle_type_id":"4","last_reported":1704190057,"current_range_meters":12800,"station_id":"ce4bhqh2rcd13ifvqhlg","pricing_plan_id":"free"},{"bike_id":"d7a0f436-4a10-430d-9dfa-fb613b9a9e9c","system_id":"levelo_inurba_marseille","lat":43.340804,"lon":5.410219,"is_reserved":false,"is_disabled":false,"rental_uris":{"android":"levelo://app?vid=d7a0f436-4a10-430d-9dfa-fb613b9a9e9c","ios":"levelo://app?vid=d7a0f436-4a10-430d-9dfa-fb613b9a9e9c"},"vehicle_type_id":"4","last_reported":1704190057,"current_range_meters":20000,"station_id":"ce4bhqh2rcd13ifvqhlg","pricing_plan_id":"free"},{"bike_id":"d6f95a70-c9ed-433f-92b8-5e4ba4dca2e4","system_id":"levelo_inurba_marseille","lat":43.274099,"lon":5.394019,"is_reserved":false,"is_disabled":false,"rental_uris":{"android":"levelo://app?vid=d6f95a70-c9ed-433f-92b8-5e4ba4dca2e4","ios":"levelo://app?vid=d6f95a70-c9ed-433f-92b8-5e4ba4dca2e4"},"vehicle_type_id":"4","last_reported":1704190057,"current_range_meters":28400,"station_id":"ce4bhdp2rcd13ifvqf20","pricing_plan_id":"free"},{"bike_id":"8cae43c7-d875-4af7-9a41-e6207a217709","system_id":"levelo_inurba_marseille","lat":43.274099,"lon":5.394019,"is_reserved":false,"is_disabled":false,"rental_uris":{"android":"levelo://app?vid=8cae43c7-d875-4af7-9a41-e6207a217709","ios":"levelo://app?vid=8cae43c7-d875-4af7-9a41-e6207a217709"},"vehicle_type_id":"4","last_reported":1704190057,"current_range_meters":25200,"station_id":"ce4bhdp2rcd13ifvqf20","pricing_plan_id":"free"},{"bike_id":"943bcc48-e632-4273-b6e8-5dbbdadd3d07","system_id":"levelo_inurba_marseille","lat":43.304096,"lon":5.425385,"is_reserved":false,"is_disabled":false,"rental_uris":{"android":"levelo://app?vid=943bcc48-e632-4273-b6e8-5dbbdadd3d07","ios":"levelo://app?vid=943bcc48-e632-4273-b6e8-5dbbdadd3d07"},"vehicle_type_id":"4","last_reported":1704190057,"current_range_meters":16000,"station_id":"ce4bhoh2rcd13ifvqh6g","pricing_plan_id":"free"},{"bike_id":"b73ff15f-2b3e-4d14-9317-3a6b4b4407cd","system_id":"levelo_inurba_marseille","lat":43.272116,"lon":5.391763,"is_reserved":false,"is_disabled":false,"rental_uris":{"android":"levelo://app?vid=b73ff15f-2b3e-4d14-9317-3a6b4b4407cd","ios":"levelo://app?vid=b73ff15f-2b3e-4d14-9317-3a6b4b4407cd"},"vehicle_type_id":"4","last_reported":1704190057,"current_range_meters":26400,"station_id":"ce4bhhp2rcd13ifvqfm0","pricing_plan_id":"free"},{"bike_id":"ea0b8dc0-2194-49fc-9755-1e31ad61a983","system_id":"levelo_inurba_marseille","lat":43.272116,"lon":5.391747,"is_reserved":false,"is_disabled":false,"rental_uris":{"android":"levelo://app?vid=ea0b8dc0-2194-49fc-9755-1e31ad61a983","ios":"levelo://app?vid=ea0b8dc0-2194-49fc-9755-1e31ad61a983"},"vehicle_type_id":"4","last_reported":1704190057,"current_range_meters":4400,"station_id":"ce4bhhp2rcd13ifvqfm0","pricing_plan_id":"free"},{"bike_id":"4baba9eb-d7ae-4a69-b63c-b6c3fdbd0877","system_id":"levelo_inurba_marseille","lat":43.272116,"lon":5.391763,"is_reserved":false,"is_disabled":false,"rental_uris":{"android":"levelo://app?vid=4baba9eb-d7ae-4a69-b63c-b6c3fdbd0877","ios":"levelo://app?vid=4baba9eb-d7ae-4a69-b63c-b6c3fdbd0877"},"vehicle_type_id":"4","last_reported":1704190057,"current_range_meters":4000,"station_id":"ce4bhhp2rcd13ifvqfm0","pricing_plan_id":"free"},{"bike_id":"3620433c-a18d-467f-ad19-fca94b504041","system_id":"levelo_inurba_marseille","lat":43.272116,"lon":5.391747,"is_reserved":false,"is_disabled":false,"rental_uris":{"android":"levelo://app?vid=3620433c-a18d-467f-ad19-fca94b504041","ios":"levelo://app?vid=3620433c-a18d-467f-ad19-fca94b504041"},"vehicle_type_id":"4","last_reported":1704190057,"current_range_meters":27600,"station_id":"ce4bhhp2rcd13ifvqfm0","pricing_plan_id":"free"},{"bike_id":"f1bcd722-9160-418d-8d59-a8076984b730","system_id":"levelo_inurba_marseille","lat":43.269467,"lon":5.386439,"is_reserved":false,"is_disabled":false,"rental_uris":{"android":"levelo://app?vid=f1bcd722-9160-418d-8d59-a8076984b730","ios":"levelo://app?vid=f1bcd722-9160-418d-8d59-a8076984b730"},"vehicle_type_id":"4","last_reported":1704190057,"current_range_meters":31200,"station_id":"ce4bhh92rcd13ifvqfh0","pricing_plan_id":"free"},{"bike_id":"1ca639e6-29c4-4447-a5c5-afbc366d498e","system_id":"levelo_inurba_marseille","lat":43.269467,"lon":5.386439,"is_reserved":false,"is_disabled":false,"rental_uris":{"android":"levelo://app?vid=1ca639e6-29c4-4447-a5c5-afbc366d498e","ios":"levelo://app?vid=1ca639e6-29c4-4447-a5c5-afbc366d498e"},"vehicle_type_id":"4","last_reported":1704190057,"current_range_meters":15200,"station_id":"ce4bhh92rcd13ifvqfh0","pricing_plan_id":"free"},{"bike_id":"9b214e75-7485-4fd9-8a43-f5867879ae27","system_id":"levelo_inurba_marseille","lat":43.269467,"lon":5.386439,"is_reserved":false,"is_disabled":false,"rental_uris":{"android":"levelo://app?vid=9b214e75-7485-4fd9-8a43-f5867879ae27","ios":"levelo://app?vid=9b214e75-7485-4fd9-8a43-f5867879ae27"},"vehicle_type_id":"4","last_reported":1704190057,"current_range_meters":24000,"station_id":"ce4bhh92rcd13ifvqfh0","pricing_plan_id":"free"},{"bike_id":"92ab16bd-2a65-4391-ba5b-095edf931f42","system_id":"levelo_inurba_marseille","lat":43.269467,"lon":5.386439,"is_reserved":false,"is_disabled":false,"rental_uris":{"android":"levelo://app?vid=92ab16bd-2a65-4391-ba5b-095edf931f42","ios":"levelo://app?vid=92ab16bd-2a65-4391-ba5b-095edf931f42"},"vehicle_type_id":"4","last_reported":1704190057,"current_range_meters":0,"station_id":"ce4bhh92rcd13ifvqfh0","pricing_plan_id":"free"},{"bike_id":"5054ef2f-fc95-4722-8c13-ddc7362ab8aa","system_id":"levelo_inurba_marseille","lat":43.269467,"lon":5.386439,"is_reserved":false,"is_disabled":false,"rental_uris":{"android":"levelo://app?vid=5054ef2f-fc95-4722-8c13-ddc7362ab8aa","ios":"levelo://app?vid=5054ef2f-fc95-4722-8c13-ddc7362ab8aa"},"vehicle_type_id":"4","last_reported":1704190057,"current_range_meters":31200,"station_id":"ce4bhh92rcd13ifvqfh0","pricing_plan_id":"free"},{"bike_id":"425f9578-de78-4e61-bdf4-7cfac3cad89a","system_id":"levelo_inurba_marseille","lat":43.279465,"lon":5.410561,"is_reserved":false,"is_disabled":false,"rental_uris":{"android":"levelo://app?vid=425f9578-de78-4e61-bdf4-7cfac3cad89a","ios":"levelo://app?vid=425f9578-de78-4e61-bdf4-7cfac3cad89a"},"vehicle_type_id":"4","last_reported":1704190057,"current_range_meters":22000,"station_id":"ce4bhnp2rcd13ifvqh0g","pricing_plan_id":"free"},