{"last_updated":1733401148,"ttl":60,"version":"2.2","data":{"bikes":[{"bike_id":"ded4ccce-ef33-4150-be34-864d499fb5c3","system_id":"levelo_inurba_marseille","lat":43.30532,"lon":5.36552,"is_reserved":false,"is_disabled":false,"rental_uris":{"android":"levelo://app?vid=ded4ccce-ef33-4150-be34-864d499fb5c3","ios":"levelo://app?vid=ded4ccce-ef33-4150-be34-864d499fb5c3"},"vehicle_type_id":"4","last_reported":1733401148,"current_range_meters":24800,"station_id":"ce4bgs12rcd13ifvqcag","pricing_plan_id":"cebpf4jnsgd1na2vs0mg"},{"bike_id":"a91fa1e8-32b4-471d-9ab1-72d0db7092c4","system_id":"levelo_inurba_marseille","lat":43.25931,"lon":5.40907,"is_reserved":false,"is_disabled":false,"rental_uris":{"android":"levelo://app?vid=a91fa1e8-32b4-471d-9ab1-72d0db7092c4","ios":"levelo://app?vid=a91fa1e8-32b4-471d-9ab1-72d0db7092c4"},"vehicle_type_id":"4","last_reported":1733401148,"current_range_meters":33600,"station_id":"ce4bhm92rcd13ifvqglg","pricing_plan_id":"cebpf4jnsgd1na2vs0mg"},{"bike_id":"4e26d77b-7e47-4753-9e53-a047f96b78f4","system_id":"levelo_inurba_marseille","lat":43.30594,"lon":5.39368,"is_reserved":false,"is_disabled":false,"rental_uris":{"android":"levelo://app?vid=4e26d77b-7e47-4753-9e53-a047f96b78f4","ios":"levelo://app?vid=4e26d77b-7e47-4753-9e53-a047f96b78f4"},"vehicle_type_id":"4","last_reported":1733401148,"current_range_meters":14000,"station_id":"ce4bh0p2rcd13ifvqd80","pricing_plan_id":"cebpf4jnsgd1na2vs0mg"},{"bike_id":"df479c2c-35ac-44ad-b9d6-81c89ed769ce","system_id":"levelo_inurba_marseille","lat":43.29699,"lon":5.37054,"is_reserved":false,"is_disabled":true,"rental_uris":{"android":"levelo://app?vid=df479c2c-35ac-44ad-b9d6-81c89ed769ce","ios":"levelo://app?vid=df479c2c-35ac-44ad-b9d6-81c89ed769ce"},"vehicle_type_id":"4","last_reported":1733401148,"current_range_meters":0,"station_id":"","pricing_plan_id":"cebpf4jnsgd1na2vs0mg"},{"bike_id":"8e029eaf-e104-4c5d-858d-6cd39de73d09","system_id":"levelo_inurba_marseille","lat":43.241663,"lon":5.363949,"is_reserved":false,"is_disabled":false,"rental_uris":{"android":"levelo://app?vid=8e029eaf-e104-4c5d-858d-6cd39de73d09","ios":"levelo://app?vid=8e029eaf-e104-4c5d-858d-6cd39de73d09"},"vehicle_type_id":"4","last_reported":1733401148,"current_range_meters":6800,"station_id":"cpo36qri1sfpv3e86is0","pricing_plan_id":"cebpf4jnsgd1na2vs0mg"},{"bike_id":"3f3bf76e-c603-4632-904c-ba7bc569da1e","system_id":"levelo_inurba_marseille","lat":43.30925,"lon":5.40148,"is_reserved":false,"is_disabled":false,"rental_uris":{"android":"levelo://app?vid=3f3bf76e-c603-4632-904c-ba7bc569da1e","ios":"levelo://app?vid=3f3bf76e-c603-4632-904c-ba7bc569da1e"},"vehicle_type_id":"4","last_reported":1733401148,"current_range_meters":17200,"station_id":"ce4bgvp2rcd13ifvqct0","pricing_plan_id":"cebpf4jnsgd1na2vs0mg"},{"bike_id":"f7f1177a-9fa2-4c01-9bd7-56528650247f","system_id":"levelo_inurba_marseille","lat":43.26552,"lon":5.37286,"is_reserved":false,"is_disabled":false,"rental_uris":{"android":"levelo://app?vid=f7f1177a-9fa2-4c01-9bd7-56528650247f","ios":"levelo://app?vid=f7f1177a-9fa2-4c01-9bd7-56528650247f"},"vehicle_type_id":"4","last_reported":1733401148,"current_range_meters":11200,"station_id":"ce4bhg12rcd13ifvqf70","pricing_plan_id":"cebpf4jnsgd1na2vs0mg"},{"bike_id":"8310d16a-4736-4ce9-aa41-91da19e588f0","system_id":"levelo_inurba_marseille","lat":43.28572,"lon":5.39499,"is_reserved":false,"is_disabled":true,"rental_uris":{"android":"levelo://app?vid=8310d16a-4736-4ce9-aa41-91da19e588f0","ios":"levelo://app?vid=8310d16a-4736-4ce9-aa41-91da19e588f0"},"vehicle_type_id":"4","last_reported":1733401148,"current_range_meters":1200,"station_id":"ce4bh292rcd13ifvqdg0","pricing_plan_id":"cebpf4jnsgd1na2vs0mg"},{"bike_id":"b03a6a4e-535b-4e1a-a28b-ae3d5f12709c","system_id":"levelo_inurba_marseille","lat":43.30503,"lon":5.39078,"is_reserved":false,"is_disabled":false,"rental_uris":{"android":"levelo://app?vid=b03a6a4e-535b-4e1a-a28b-ae3d5f12709c","ios":"levelo://app?vid=b03a6a4e-535b-4e1a-a28b-ae3d5f12709c"},"vehicle_type_id":"4","last_reported":1733401148,"current_range_meters":16400,"station_id":"","pricing_plan_id":"cebpf4jnsgd1na2vs0mg"},{"bike_id":"be407bbe-d1ce-48de-8db2-09114af9efd7","system_id":"levelo_inurba_marseille","lat":43.32364,"lon":5.36769,"is_reserved":false,"is_disabled":false,"rental_uris":{"android":"levelo://app?vid=be407bbe-d1ce-48de-8db2-09114af9efd7","ios":"levelo://app?vid=be407bbe-d1ce-48de-8db2-09114af9efd7"},"vehicle_type_id":"4","last_reported":1733401148,"current_range_meters":29600,"station_id":"ce4bhsh2rcd13ifvqi2g","pricing_plan_id":"cebpf4jnsgd1na2vs0mg"},{"bike_id":"8d5ca64f-bde8-4ea0-8ab3-a16bc93a8613","system_id":"levelo_inurba_marseille","lat":43.29006,"lon":5.35626,"is_reserved":false,"is_disabled":false,"rental_uris":{"android":"levelo://app?vid=8d5ca64f-bde8-4ea0-8ab3-a16bc93a8613","ios":"levelo://app?vid=8d5ca64f-bde8-4ea0-8ab3-a16bc93a8613"},"vehicle_type_id":"4","last_reported":1733401148,"current_range_meters":28400,"station_id":"ce4bhb92rcd13ifvqen0","pricing_plan_id":"cebpf4jnsgd1na2vs0mg"},{"bike_id":"f3bad640-db68-47b8-8f51-4546567c6911","system_id":"levelo_inurba_marseille","lat":43.25919,"lon":5.40902,"is_reserved":false,"is_disabled":false,"rental_uris":{"android":"levelo://app?vid=f3bad640-db68-47b8-8f51-4546567c6911","ios":"levelo://app?vid=f3bad640-db68-47b8-8f51-4546567c6911"},"vehicle_type_id":"4","last_reported":1733401148,"current_range_meters":16400,"station_id":"ce4bhm92rcd13ifvqglg","pricing_plan_id":"cebpf4jnsgd1na2vs0mg"},{"bike_id":"388bfbf6-4d01-4dd3-8d4f-0d431c6b0a3a","system_id":"levelo_inurba_marseille","lat":43.30593,"lon":5.39365,"is_reserved":false,"is_disabled":false,"rental_uris":{"android":"levelo://app?vid=388bfbf6-4d01-4dd3-8d4f-0d431c6b0a3a","ios":"levelo://app?vid=388bfbf6-4d01-4dd3-8d4f-0d431c6b0a3a"},"vehicle_type_id":"4","last_reported":1733401148,"current_range_meters":26800,"station_id":"ce4bh0p2rcd13ifvqd80","pricing_plan_id":"cebpf4jnsgd1na2vs0mg"},{"bike_id":"8bd642b2-0279-44c7-9ee2-fc3b57332c83","system_id":"levelo_inurba_marseille","lat":43.27455,"lon":5.40073,"is_reserved":false,"is_disabled":true,"rental_uris":{"android":"levelo://app?vid=8bd642b2-0279-44c7-9ee2-fc3b57332c83","ios":"levelo://app?vid=8bd642b2-0279-44c7-9ee2-fc3b57332c83"},"vehicle_type_id":"4","last_reported":1733401148,"current_range_meters":0,"station_id":"","pricing_plan_id":"cebpf4jnsgd1na2vs0mg"},{"bike_id":"e6293058-a680-45ba-ab47-4daf2e29bdd0","system_id":"levelo_inurba_marseille","lat":43.2657,"lon":5.39006,"is_reserved":false,"is_disabled":false,"rental_uris":{"android":"levelo://app?vid=e6293058-a680-45ba-ab47-4daf2e29bdd0","ios":"levelo://app?vid=e6293058-a680-45ba-ab47-4daf2e29bdd0"},"vehicle_type_id":"4","last_reported":1733401148,"current_range_meters":36400,"station_id":"ce4bhe12rcd13ifvqf30","pricing_plan_id":"cebpf4jnsgd1na2vs0mg"},{"bike_id":"8339fc7c-3fc1-45e8-a5db-ece60f8d7610","system_id":"levelo_inurba_marseille","lat":43.30538,"lon":5.36551,"is_reserved":false,"is_disabled":false,"rental_uris":{"android":"levelo://app?vid=8339fc7c-3fc1-45e8-a5db-ece60f8d7610","ios":"levelo://app?vid=8339fc7c-3fc1-45e8-a5db-ece60f8d7610"},"vehicle_type_id":"4","last_reported":1733401148,"current_range_meters":30000,"station_id":"ce4bgs12rcd13ifvqcag","pricing_plan_id":"cebpf4jnsgd1na2vs0mg"},{"bike_id":"76a5b285-7c2c-4865-b1c7-0c4a29c236fd","system_id":"levelo_inurba_marseille","lat":43.27497,"lon":5.42451,"is_reserved":false,"is_disabled":false,"rental_uris":{"android":"levelo://app?vid=76a5b285-7c2c-4865-b1c7-0c4a29c236fd","ios":"levelo://app?vid=76a5b285-7c2c-4865-b1c7-0c4a29c236fd"},"vehicle_type_id":"4","last_reported":1733401148,"current_range_meters":32400,"station_id":"ce4bhn92rcd13ifvqgrg","pricing_plan_id":"cebpf4jnsgd1na2vs0mg"},{"bike_id":"53220da6-87cf-42af-ad72-d41216f5f0d3","system_id":"levelo_inurba_marseille","lat":43.25579,"lon":5.38232,"is_reserved":false,"is_disabled":false,"rental_uris":{"android":"levelo://app?vid=53220da6-87cf-42af-ad72-d41216f5f0d3","ios":"levelo://app?vid=53220da6-87cf-42af-ad72-d41216f5f0d3"},"vehicle_type_id":"4","last_reported":1733401148,"current_range_meters":3200,"station_id":"ce4bhih2rcd13ifvqfs0","pricing_plan_id":"cebpf4jnsgd1na2vs0mg"},{"bike_id":"75983244-3e55-45d7-9107-77cab765a065","system_id":"levelo_inurba_marseille","lat":43.3042,"lon":5.39762,"is_reserved":false,"is_disabled":false,"rental_uris":{"android":"levelo://app?vid=75983244-3e55-45d7-9107-77cab765a065","ios":"levelo://app?vid=75983244-3e55-45d7-9107-77cab765a065"},"vehicle_type_id":"4","last_reported":1733401148,"current_range_meters":18000,"station_id":"ce4bh092rcd13ifvqd20","pricing_plan_id":"cebpf4jnsgd1na2vs0mg"},{"bike_id":"1bf211ca-7147-44b8-ac36-689743368a32","system_id":"levelo_inurba_marseille","lat":43.23182,"lon":5.39995,"is_reserved":false,"is_disabled":false,"rental_uris":{"android":"levelo://app?vid=1bf211ca-7147-44b8-ac36-689743368a32","ios":"levelo://app?vid=1bf211ca-7147-44b8-ac36-689743368a32"},"vehicle_type_id":"4","last_reported":1733401148,"current_range_meters":38800,"station_id":"ce4bhn12rcd13ifvqgqg","pricing_plan_id":"cebpf4jnsgd1na2vs0mg"},{"bike_id":"f67dfab3-abcc-4688-bfd7-4284bf8c7187","system_id":"levelo_inurba_marseille","lat":43.3302,"lon":5.39045,"is_reserved":false,"is_disabled":false,"rental_uris":{"android":"levelo://app?vid=f67dfab3-abcc-4688-bfd7-4284bf8c7187","ios":"levelo://app?vid=f67dfab3-abcc-4688-bfd7-4284bf8c7187"},"vehicle_type_id":"4","last_reported":1733401148,"current_range_meters":10800,"station_id":"ce4bhr92rcd13ifvqhrg","pricing_plan_id":"cebpf4jnsgd1na2vs0mg"},{"bike_id":"3174d4cd-190c-48b4-afb8-369bbe1346e3","system_id":"levelo_inurba_marseille","lat":43.28266,"lon":5.35068,"is_reserved":false,"is_disabled":false,"rental_uris":{"android":"levelo://app?vid=3174d4cd-190c-48b4-afb8-369bbe1346e3","ios":"levelo://app?vid=3174d4cd-190c-48b4-afb8-369bbe1346e3"},"vehicle_type_id":"4","last_reported":1733401148,"current_range_meters":9600,"station_id":"ce4bhbp2rcd13ifvqerg","pricing_plan_id":"cebpf4jnsgd1na2vs0mg"},{"bike_id":"7a5314fa-1ace-4c0c-abc2-7a2312483754","system_id":"levelo_inurba_marseille","lat":43.32291,"lon":5.38266,"is_reserved":false,"is_disabled":false,"rental_uris":{"android":"levelo://app?vid=7a5314fa-1ace-4c0c-abc2-7a2312483754","ios":"levelo://app?vid=7a5314fa-1ace-4c0c-abc2-7a2312483754"},"vehicle_type_id":"4","last_reported":1733401148,"current_range_meters":20400,"station_id":"ce4bhr12rcd13ifvqhqg","pricing_plan_id":"cebpf4jnsgd1na2vs0mg"},{"bike_id":"28b52837-d828-49e4-b4be-cfbac010c328","system_id":"levelo_inurba_marseille","lat":43.3372,"lon":5.39204,"is_reserved":false,"is_disabled":false,"rental_uris":{"android":"levelo://app?vid=28b52837-d828-49e4-b4be-cfbac010c328","ios":"levelo://app?vid=28b52837-d828-49e4-b4be-cfbac010c328"},"vehicle_type_id":"4","last_reported":1733401148,"current_range_meters":30000,"station_id":"ce4bhr92rcd13ifvqhsg","pricing_plan_id":"cebpf4jnsgd1na2vs0mg"},{"bike_id":"b3f478ac-3b05-4edf-bdbf-76399090f8e9","system_id":"levelo_inurba_marseille","lat":43.29994,"lon":5.37639,"is_reserved":false,"is_disabled":true,"rental_uris":{"android":"levelo://app?vid=b3f478ac-3b05-4edf-bdbf-76399090f8e9","ios":"levelo://app?vid=b3f478ac-3b05-4edf-bdbf-76399090f8e9"},"vehicle_type_id":"4","last_reported":1733401148,"current_range_meters":0,"station_id":"","pricing_plan_id":"cebpf4jnsgd1na2vs0mg"},{"bike_id":"75c4f34a-89f4-4145-a2e2-7dafbc1cdf90","system_id":"levelo_inurba_marseille","lat":43.29015,"lon":5.37265,"is_reserved":false,"is_disabled":true,"rental_uris":{"android":"levelo://app?vid=75c4f34a-89f4-4145-a2e2-7dafbc1cdf90","ios":"levelo://app?vid=75c4f34a-89f4-4145-a2e2-7dafbc1cdf90"},"vehicle_type_id":"4","last_reported":1733401148,"current_range_meters":0,"station_id":"","pricing_plan_id":"cebpf4jnsgd1na2vs0mg"},{"bike_id":"098c07bc-6bd7-49d3-9434-b51be8337e88","system_id":"levelo_inurba_marseille","lat":43.30534,"lon":5.36564,"is_reserved":false,"is_disabled":false,"rental_uris":{"android":"levelo://app?vid=098c07bc-6bd7-49d3-9434-b51be8337e88","ios":"levelo://app?vid=098c07bc-6bd7-49d3-9434-b51be8337e88"},"vehicle_type_id":"4","last_reported":1733401148,"current_range_meters":34000,"station_id":"ce4bgs12rcd13ifvqcag","pricing_plan_id":"cebpf4jnsgd1na2vs0mg"},{"bike_id":"e8d9fcd3-6c4c-4c2e-a87e-41c5e4dfa6d0","system_id":"levelo_inurba_marseille","lat":43.25438,"lon":5.38158,"is_reserved":false,"is_disabled":true,"rental_uris":{"android":"levelo://app?vid=e8d9fcd3-6c4c-4c2e-a87e-41c5e4dfa6d0","ios":"levelo://app?vid=e8d9fcd3-6c4c-4c2e-a87e-41c5e4dfa6d0"},"vehicle_type_id":"4","last_reported":1733401148,"current_range_meters":0,"station_id":"","pricing_plan_id":"cebpf4jnsgd1na2vs0mg"},{"bike_id":"bc64e626-66ef-4451-bf1f-f67c852467cf","system_id":"levelo_inurba_marseille","lat":43.29896,"lon":5.43663,"is_reserved":false,"is_disabled":false,"rental_uris":{"android":"levelo://app?vid=bc64e626-66ef-4451-bf1f-f67c852467cf","ios":"levelo://app?vid=bc64e626-66ef-4451-bf1f-f67c852467cf"},"vehicle_type_id":"4","last_reported":1733401148,"current_range_meters":38800,"station_id":"ce4bhpp2rcd13ifvqhfg","pricing_plan_id":"cebpf4jnsgd1na2vs0mg"},{"bike_id":"d89658e8-fa8e-4057-b9d8-7d249c4c6a75","system_id":"levelo_inurba_marseille","lat":43.29807,"lon":5.38082,"is_reserved":false,"is_disabled":false,"rental_uris":{"android":"levelo://app?vid=d89658e8-fa8e-4057-b9d8-7d249c4c6a75","ios":"levelo://app?vid=d89658e8-fa8e-4057-b9d8-7d249c4c6a75"},"vehicle_type_id":"4","last_reported":1733401148,"current_range_meters":26800,"station_id":"ce4bgip2rcd13ifvqbb0","pricing_plan_id":"cebpf4jnsgd1na2vs0mg"},{"bike_id":"2209183a-15a0-42e5-8dcd-865e686728ea","system_id":"levelo_inurba_marseille","lat":43.30147,"lon":5.3807,"is_reserved":false,"is_disabled":false,"rental_uris":{"android":"levelo://app?vid=2209183a-15a0-42e5-8dcd-865e686728ea","ios":"levelo://app?vid=2209183a-15a0-42e5-8dcd-865e686728ea"},"vehicle_type_id":"4","last_reported":1733401148,"current_range_meters":20000,"station_id":"ce4bgjp2rcd13ifvqbh0","pricing_plan_id":"cebpf4jnsgd1na2vs0mg"},{"bike_id":"4a116253-96aa-4bc7-9dd6-fad740af4a82","system_id":"levelo_inurba_marseille","lat":43.30461,"lon":5.37901,"is_reserved":false,"is_disabled":true,"rental_uris":{"android":"levelo://app?vid=4a116253-96aa-4bc7-9dd6-fad740af4a82","ios":"levelo://app?vid=4a116253-96aa-4bc7-9dd6-fad740af4a82"},"vehicle_type_id":"4","last_reported":1733401148,"current_range_meters":38800,"station_id":"ce4bgup2rcd13ifvqcn0","pricing_plan_id":"cebpf4jnsgd1na2vs0mg"},{"bike_id":"c1e37620-d157-49f1-b2d3-27075d54640b","system_id":"levelo_inurba_marseille","lat":43.31713,"lon":5.37758,"is_reserved":false,"is_disabled":false,"rental_uris":{"android":"levelo://app?vid=c1e37620-d157-49f1-b2d3-27075d54640b","ios":"levelo://app?vid=c1e37620-d157-49f1-b2d3-27075d54640b"},"vehicle_type_id":"4","last_reported":1733401148,"current_range_meters":38000,"station_id":"ce4bgth2rcd13ifvqch0","pricing_plan_id":"cebpf4jnsgd1na2vs0mg"},{"bike_id":"47446314-3377-4eeb-ac99-7c7c1d340bea","system_id":"levelo_inurba_marseille","lat":43.27803,"lon":5.40725,"is_reserved":false,"is_disabled":false,"rental_uris":{"android":"levelo://app?vid=47446314-3377-4eeb-ac99-7c7c1d340bea","ios":"levelo://app?vid=47446314-3377-4eeb-ac99-7c7c1d340bea"},"vehicle_type_id":"4","last_reported":1733401148,"current_range_meters":28400,"station_id":"ce4bhnh2rcd13ifvqgtg","pricing_plan_id":"cebpf4jnsgd1na2vs0mg"},{"bike_id":"882dc844-83be-4a2e-a815-299a923b325a","system_id":"levelo_inurba_marseille","lat":43.32285,"lon":5.38273,"is_reserved":false,"is_disabled":false,"rental_uris":{"android":"levelo://app?vid=882dc844-83be-4a2e-a815-299a923b325a","ios":"levelo://app?vid=882dc844-83be-4a2e-a815-299a923b325a"},"vehicle_type_id":"4","last_reported":1733401148,"current_range_meters":24800,"station_id":"ce4bhr12rcd13ifvqhqg","pricing_plan_id":"cebpf4jnsgd1na2vs0mg"},{"bike_id":"a3709248-f4ab-4897-8a45-725c2b150d33","system_id":"levelo_inurba_marseille","lat":43.30136,"lon":5.39875,"is_reserved":false,"is_disabled":false,"rental_uris":{"android":"levelo://app?vid=a3709248-f4ab-4897-8a45-725c2b150d33","ios":"levelo://app?vid=a3709248-f4ab-4897-8a45-725c2b150d33"},"vehicle_type_id":"4","last_reported":1733401148,"current_range_meters":35600,"station_id":"ce4bh0h2rcd13ifvqd40","pricing_plan_id":"cebpf4jnsgd1na2vs0mg"},{"bike_id":"c6a6048a-5561-407c-8b09-50f397e870a8","system_id":"levelo_inurba_marseille","lat":43.27917,"lon":5.39584,"is_reserved":false,"is_disabled":false,"rental_uris":{"android":"levelo://app?vid=c6a6048a-5561-407c-8b09-50f397e870a8","ios":"levelo://app?vid=c6a6048a-5561-407c-8b09-50f397e870a8"},"vehicle_type_id":"4","last_reported":1733401148,"current_range_meters":6000,"station_id":"ce4bhf92rcd13ifvqf40","pricing_plan_id":"cebpf4jnsgd1na2vs0mg"},{"bike_id":"2754d3e7-139b-43a1-922a-1ef30c7cc498","system_id":"levelo_inurba_marseille","lat":43.29005,"lon":5.35618,"is_reserved":false,"is_disabled":false,"rental_uris":{"android":"levelo://app?vid=2754d3e7-139b-43a1-922a-1ef30c7cc498","ios":"levelo://app?vid=2754d3e7-139b-43a1-922a-1ef30c7cc498"},"vehicle_type_id":"4","last_reported":1733401148,"current_range_meters":2800,"station_id":"ce4bhb92rcd13ifvqen0","pricing_plan_id":"cebpf4jnsgd1na2vs0mg"},{"bike_id":"2f3968e7-9336-4ee4-ba78-8e92c0a818cc","system_id":"levelo_inurba_marseille","lat":43.31322,"lon":5.36647,"is_reserved":false,"is_disabled":true,"rental_uris":{"android":"levelo://app?vid=2f3968e7-9336-4ee4-ba78-8e92c0a818cc","ios":"levelo://app?vid=2f3968e7-9336-4ee4-ba78-8e92c0a818cc"},"vehicle_type_id":"4","last_reported":1733401148,"current_range_meters":0,"station_id":"","pricing_plan_id":"cebpf4jnsgd1na2vs0mg"},{"bike_id":"64c8fb1d-770f-48d3-a730-8f654a683d35","system_id":"levelo_inurba_marseille","lat":43.27993,"lon":5.40062,"is_reserved":false,"is_disabled":false,"rental_uris":{"android":"levelo://app?vid=64c8fb1d-770f-48d3-a730-8f654a683d35","ios":"levelo://app?vid=64c8fb1d-770f-48d3-a730-8f654a683d35"},"vehicle_type_id":"4","last_reported":1733401148,"current_range_meters":30800,"station_id":"ce4bho92rcd13ifvqh4g","pricing_plan_id":"cebpf4jnsgd1na2vs0mg"},{"bike_id":"9aded1fd-28b2-485b-aa1d-02cd137f431b","system_id":"levelo_inurba_marseille","lat":43.26494,"lon":5.39549,"is_reserved":false,"is_disabled":true,"rental_uris":{"android":"levelo://app?vid=9aded1fd-28b2-485b-aa1d-02cd137f431b","ios":"levelo://app?vid=9aded1fd-28b2-485b-aa1d-02cd137f431b"},"vehicle_type_id":"4","last_reported":1733401148,"current_range_meters":0,"station_id":"ce4bhi12rcd13ifvqfq0","pricing_plan_id":"cebpf4jnsgd1na2vs0mg"},{"bike_id":"fefed06f-f77c-4003-83aa-4b7097b9e66e","system_id":"levelo_inurba_marseille","lat":43.25561,"lon":5.40982,"is_reserved":false,"is_disabled":false,"rental_uris":{"android":"levelo://app?vid=fefed06f-f77c-4003-83aa-4b7097b9e66e","ios":"levelo://app?vid=fefed06f-f77c-4003-83aa-4b7097b9e66e"},"vehicle_type_id":"4","last_reported":1733401148,"current_range_meters":24800,"station_id":"","pricing_plan_id":"cebpf4jnsgd1na2vs0mg"},{"bike_id":"caa9012b-34eb-4c72-a93d-f9a1f2703577","system_id":"levelo_inurba_marseille","lat":43.24068,"lon":5.37762,"is_reserved":false,"is_disabled":false,"rental_uris":{"android":"levelo://app?vid=caa9012b-34eb-4c72-a93d-f9a1f2703577","ios":"levelo://app?vid=caa9012b-34eb-4c72-a93d-f9a1f2703577"},"vehicle_type_id":"4","last_reported":1733401148,"current_range_meters":16000,"station_id":"ce4bhnp2rcd13ifvqgvg","pricing_plan_id":"cebpf4jnsgd1na2vs0mg"},{"bike_id":"8b9b896f-9b83-4678-94f1-dcfa69832afa","system_id":"levelo_inurba_marseille","lat":43.28273,"lon":5.35071,"is_reserved":false,"is_disabled":true,"rental_uris":{"android":"levelo://app?vid=8b9b896f-9b83-4678-94f1-dcfa69832afa","ios":"levelo://app?vid=8b9b896f-9b83-4678-94f1-dcfa69832afa"},"vehicle_type_id":"4","last_reported":1733401148,"current_range_meters":1600,"station_id":"ce4bhbp2rcd13ifvqerg","pricing_plan_id":"cebpf4jnsgd1na2vs0mg"},{"bike_id":"1050bcf3-61d6-4d74-906f-f7bd618cb91d","system_id":"levelo_inurba_marseille","lat":43.32659,"lon":5.40989,"is_reserved":false,"is_disabled":false,"rental_uris":{"android":"levelo://app?vid=1050bcf3-61d6-4d74-906f-f7bd618cb91d","ios":"levelo://app?vid=1050bcf3-61d6-4d74-906f-f7bd618cb91d"},"vehicle_type_id":"4","last_reported":1733401148,"current_range_meters":15200,"station_id":"ce4bhpp2rcd13ifvqhgg","pricing_plan_id":"cebpf4jnsgd1na2vs0mg"},{"bike_id":"da9cfd76-5796-4c48-8486-043fb1d4045d","system_id":"levelo_inurba_marseille","lat":43.27062,"lon":5.40271,"is_reserved":false,"is_disabled":false,"rental_uris":{"android":"levelo://app?vid=da9cfd76-5796-4c48-8486-043fb1d4045d","ios":"levelo://app?vid=da9cfd76-5796-4c48-8486-043fb1d4045d"},"vehicle_type_id":"4","last_reported":1733401148,"current_range_meters":38800,"station_id":"ce4bhk92rcd13ifvqgc0","pricing_plan_id":"cebpf4jnsgd1na2vs0mg"},{"bike_id":"b0025f03-f4b7-4e1f-b2ae-d738bfb01f75","system_id":"levelo_inurba_marseille","lat":43.3176,"lon":5.39029,"is_reserved":false,"is_disabled":true,"rental_uris":{"android":"levelo://app?vid=b0025f03-f4b7-4e1f-b2ae-d738bfb01f75","ios":"levelo://app?vid=b0025f03-f4b7-4e1f-b2ae-d738bfb01f75"},"vehicle_type_id":"4","last_reported":1733401148,"current_range_meters":37600,"station_id":"ce4bhqp2rcd13ifvqhng","pricing_plan_id":"cebpf4jnsgd1na2vs0mg"},{"bike_id":"a2bb8c07-c09e-46dc-bf97-d063cf6f8903","system_id":"levelo_inurba_marseille","lat":43.30417,"lon":5.38884,"is_reserved":false,"is_disabled":false,"rental_uris":{"android":"levelo://app?vid=a2bb8c07-c09e-46dc-bf97-d063cf6f8903","ios":"levelo://app?vid=a2bb8c07-c09e-46dc-bf97-d063cf6f8903"},"vehicle_type_id":"4","last_reported":1733401148,"current_range_meters":27200,"station_id":"ce4bgk12rcd13ifvqbi0","pricing_plan_id":"cebpf4jnsgd1na2vs0mg"},{"bike_id":"7a22defb-42e4-477d-920c-d5a9913882fa","system_id":"levelo_inurba_marseille","lat":43.2679,"lon":5.39422,"is_reserved":false,"is_disabled":false,"rental_uris":{"android":"levelo://app?vid=7a22defb-42e4-477d-920c-d5a9913882fa","ios":"levelo://app?vid=7a22defb-42e4-477d-920c-d5a9913882fa"},"vehicle_type_id":"4","last_reported":1733401148,"current_range_meters":30800,"station_id":"ce4bhh12rcd13ifvqfg0","pricing_plan_id":"cebpf4jnsgd1na2vs0mg"},{"bike_id":"e4f9a961-4e6d-439f-aa6b-1f5d8161a06f","system_id":"levelo_inurba_marseille","lat":43.26209,"lon":5.37929,"is_reserved":false,"is_disabled":false,"rental_uris":{"android":"levelo://app?vid=e4f9a961-4e6d-439f-aa6b-1f5d8161a06f","ios":"levelo://app?vid=e4f9a961-4e6d-439f-aa6b-1f5d8161a06f"},"vehicle_type_id":"4","last_reported":1733401148,"current_range_meters":28400,"station_id":"ce4bhjp2rcd13ifvqg90","pricing_plan_id":"cebpf4jnsgd1na2vs0mg"},{"bike_id":"5a50557a-331c-47f8-82cc-e12807c908db","system_id":"levelo_inurba_marseille","lat":43.33022,"lon":5.39039,"is_reserved":false,"is_disabled":false,"rental_uris":{"android":"levelo://app?vid=5a50557a-331c-47f8-82cc-e12807c908db","ios":"levelo://app?vid=5a50557a-331c-47f8-82cc-e12807c908db"},"vehicle_type_id":"4","last_reported":1733401148,"current_range_meters":37600,"station_id":"ce4bhr92rcd13ifvqhrg","pricing_plan_id":"cebpf4jnsgd1na2vs0mg"},{"bike_id":"f10c5e90-601b-4bd4-87e7-4cbb6a13a4fb","system_id":"levelo_inurba_marseille","lat":43.25389,"lon":5.39435,"is_reserved":false,"is_disabled":false,"rental_uris":{"android":"levelo://app?vid=f10c5e90-601b-4bd4-87e7-4cbb6a13a4fb","ios":"levelo://app?vid=f10c5e90-601b-4bd4-87e7-4cbb6a13a4fb"},"vehicle_type_id":"4","last_reported":1733401148,"current_range_meters":8000,"station_id":"","pricing_plan_id":"cebpf4jnsgd1na2vs0mg"},{"bike_id":"e488a801-2223-4057-b514-25157a68059d","system_id":"levelo_inurba_marseille","lat":43.28945,"lon":5.3641,"is_reserved":false,"is_disabled":true,"rental_uris":{"android":"levelo://app?vid=e488a801-2223-4057-b514-25157a68059d","ios":"levelo://app?vid=e488a801-2223-4057-b514-25157a68059d"},"vehicle_type_id":"4","last_reported":1733401148,"current_range_meters":0,"station_id":"ce4bhc92rcd13ifvqetg","pricing_plan_id":"cebpf4jnsgd1na2vs0mg"},{"bike_id":"925bdba5-d6af-4d54-8e70-a687a422cb18","system_id":"levelo_inurba_marseille","lat":43.28277,"lon":5.35064,"is_reserved":false,"is_disabled":false,"rental_uris":{"android":"levelo://app?vid=925bdba5-d6af-4d54-8e70-a687a422cb18","ios":"levelo://app?vid=925bdba5-d6af-4d54-8e70-a687a422cb18"},"vehicle_type_id":"4","last_reported":1733401148,"current_range_meters":25600,"station_id":"ce4bhbp2rcd13ifvqerg","pricing_plan_id":"cebpf4jnsgd1na2vs0mg"},{"bike_id":"9a794043-b020-44b7-86eb-f0fa205c0409","system_id":"levelo_inurba_marseille","lat":43.30578,"lon":5.39351,"is_reserved":false,"is_disabled":false,"rental_uris":{"android":"levelo://app?vid=9a794043-b020-44b7-86eb-f0fa205c0409","ios":"levelo://app?vid=9a794043-b020-44b7-86eb-f0fa205c0409"},"vehicle_type_id":"4","last_reported":1733401148,"current_range_meters":32800,"station_id":"ce4bh0p2rcd13ifvqd80","pricing_plan_id":"cebpf4jnsgd1na2vs0mg"},{"bike_id":"ef8dccf7-5c02-4648-910c-2c64ce488a65","system_id":"levelo_inurba_marseille","lat":43.28147,"lon":5.42795,"is_reserved":false,"is_disabled":false,"rental_uris":{"android":"levelo://app?vid=ef8dccf7-5c02-4648-910c-2c64ce488a65","ios":"levelo://app?vid=ef8dccf7-5c02-4648-910c-2c64ce488a65"},"vehicle_type_id":"4","last_reported":1733401148,"current_range_meters":7200,"station_id":"","pricing_plan_id":"cebpf4jnsgd1na2vs0mg"},{"bike_id":"90981b1b-1bc5-4bb8-9e4a-56a96f77a812","system_id":"levelo_inurba_marseille","lat":43.27211,"lon":5.39181,"is_reserved":false,"is_disabled":false,"rental_uris":{"android":"levelo://app?vid=90981b1b-1bc5-4bb8-9e4a-56a96f77a812","ios":"levelo://app?vid=90981b1b-1bc5-4bb8-9e4a-56a96f77a812"},"vehicle_type_id":"4","last_reported":1733401148,"current_range_meters":30400,"station_id":"ce4bhhp2rcd13ifvqfm0","pricing_plan_id":"cebpf4jnsgd1na2vs0mg"},{"bike_id":"b73386f2-fa04-4fae-98be-ff0e17efea9c","system_id":"levelo_inurba_marseille","lat":43.32362,"lon":5.3887,"is_reserved":false,"is_disabled":false,"rental_uris":{"android":"levelo://app?vid=b73386f2-fa04-4fae-98be-ff0e17efea9c","ios":"levelo://app?vid=b73386f2-fa04-4fae-98be-ff0e17efea9c"},"vehicle_type_id":"4","last_reported":1733401148,"current_range_meters":38000,"station_id":"ce4bhqp2rcd13ifvqhog","pricing_plan_id":"cebpf4jnsgd1na2vs0mg"},{"bike_id":"c8c4f4db-4030-429a-a7d4-38ae87201c11","system_id":"levelo_inurba_marseille","lat":43.2408,"lon":5.37757,"is_reserved":false,"is_disabled":false,"rental_uris":{"android":"levelo://app?vid=c8c4f4db-4030-429a-a7d4-38ae87201c11","ios":"levelo://app?vid=c8c4f4db-4030-429a-a7d4-38ae87201c11"},"vehicle_type_id":"4","last_reported":1733401148,"current_range_meters":35600,"station_id":"ce4bhnp2rcd13ifvqgvg","pricing_plan_id":"cebpf4jnsgd1na2vs0mg"},{"bike_id":"c0ecc308-ccc4-492f-bcda-d659d2cd5777","system_id":"levelo_inurba_marseille","lat":43.25112,"lon":5.4032,"is_reserved":false,"is_disabled":true,"rental_uris":{"android":"levelo://app?vid=c0ecc308-ccc4-492f-bcda-d659d2cd5777","ios":"levelo://app?vid=c0ecc308-ccc4-492f-bcda-d659d2cd5777"},"vehicle_type_id":"4","last_reported":1733401148,"current_range_meters":0,"station_id":"ce4bhlh2rcd13ifvqgig","pricing_plan_id":"cebpf4jnsgd1na2vs0mg"},{"bike_id":"f5bd5773-3df4-400a-9c89-e449e0b42a96","system_id":"levelo_inurba_marseille","lat":43.2481,"lon":5.3746,"is_reserved":false,"is_disabled":true,"rental_uris":{"android":"levelo://app?vid=f5bd5773-3df4-400a-9c89-e449e0b42a96","ios":"levelo://app?vid=f5bd5773-3df4-400a-9c89-e449e0b42a96"},"vehicle_type_id":"4","last_reported":1733401148,"current_range_meters":6400,"station_id":"ce4bhgh2rcd13ifvqfb0","pricing_plan_id":"cebpf4jnsgd1na2vs0mg"},{"bike_id":"8f0b7036-4a04-49fc-b626-345cd2d22f70","system_id":"levelo_inurba_marseille","lat":43.25864,"lon":5.399,"is_reserved":false,"is_disabled":false,"rental_uris":{"android":"levelo://app?vid=8f0b7036-4a04-49fc-b626-345cd2d22f70","ios":"levelo://app?vid=8f0b7036-4a04-49fc-b626-345cd2d22f70"},"vehicle_type_id":"4","last_reported":1733401148,"current_range_meters":25200,"station_id":"ce4bhl92rcd13ifvqghg","pricing_plan_id":"cebpf4jnsgd1na2vs0mg"},{"bike_id":"817a0a01-4630-45ea-9a39-4438f82f154b","system_id":"levelo_inurba_marseille","lat":43.30214,"lon":5.39469,"is_reserved":false,"is_disabled":false,"rental_uris":{"android":"levelo://app?vid=817a0a01-4630-45ea-9a39-4438f82f154b","ios":"levelo://app?vid=817a0a01-4630-45ea-9a39-4438f82f154b"},"vehicle_type_id":"4","last_reported":1733401148,"current_range_meters":7200,"station_id":"ce4bh0p2rcd13ifvqd70","pricing_plan_id":"cebpf4jnsgd1na2vs0mg"},{"bike_id":"bd3221fc-8941-4ce9-b19b-14fc28e79327","system_id":"levelo_inurba_marseille","lat":43.27203,"lon":5.39192,"is_reserved":false,"is_disabled":false,"rental_uris":{"android":"levelo://app?vid=bd3221fc-8941-4ce9-b19b-14fc28e79327","ios":"levelo://app?vid=bd3221fc-8941-4ce9-b19b-14fc28e79327"},"vehicle_type_id":"4","last_reported":1733401148,"current_range_meters":32000,"station_id":"ce4bhhp2rcd13ifvqfm0","pricing_plan_id":"cebpf4jnsgd1na2vs0mg"},{"bike_id":"6f535613-23eb-45cf-bab8-06df9b7116b0","system_id":"levelo_inurba_marseille","lat":43.30536,"lon":5.36709,"is_reserved":false,"is_disabled":false,"rental_uris":{"android":"levelo://app?vid=6f535613-23eb-45cf-bab8-06df9b7116b0","ios":"levelo://app?vid=6f535613-23eb-45cf-bab8-06df9b7116b0"},"vehicle_type_id":"4","last_reported":1733401148,"current_range_meters":18800,"station_id":"ce4bgrp2rcd13ifvqc9g","pricing_plan_id":"cebpf4jnsgd1na2vs0mg"},{"bike_id":"cdfe6590-4984-4014-86c8-6dd70747c27a","system_id":"levelo_inurba_marseille","lat":43.29737,"lon":5.37434,"is_reserved":false,"is_disabled":true,"rental_uris":{"android":"levelo://app?vid=cdfe6590-4984-4014-86c8-6dd70747c27a","ios":"levelo://app?vid=cdfe6590-4984-4014-86c8-6dd70747c27a"},"vehicle_type_id":"4","last_reported":1733401148,"current_range_meters":0,"station_id":"","pricing_plan_id":"cebpf4jnsgd1na2vs0mg"},{"bike_id":"7aa06ba1-b529-4d8b-8962-24a1c25042ae","system_id":"levelo_inurba_marseille","lat":43.30546,"lon":5.36542,"is_reserved":false,"is_disabled":false,"rental_uris":{"android":"levelo://app?vid=7aa06ba1-b529-4d8b-8962-24a1c25042ae","ios":"levelo://app?vid=7aa06ba1-b529-4d8b-8962-24a1c25042ae"},"vehicle_type_id":"4","last_reported":1733401148,"current_range_meters":23200,"station_id":"ce4bgs12rcd13ifvqcag","pricing_plan_id":"cebpf4jnsgd1na2vs0mg"},{"bike_id":"9309313e-316d-4707-816e-67df9a39a867","system_id":"levelo_inurba_marseille","lat":43.28944,"lon":5.36391,"is_reserved":false,"is_disabled":true,"rental_uris":{"android":"levelo://app?vid=9309313e-316d-4707-816e-67df9a39a867","ios":"levelo://app?vid=9309313e-316d-4707-816e-67df9a39a867"},"vehicle_type_id":"4","last_reported":1733401148,"current_range_meters":4400,"station_id":"ce4bhc92rcd13ifvqetg","pricing_plan_id":"cebpf4jnsgd1na2vs0mg"},{"bike_id":"c8b81c10-68ef-4f12-b188-70bd6f7d0025","system_id":"levelo_inurba_marseille","lat":43.2781,"lon":5.4071,"is_reserved":false,"is_disabled":false,"rental_uris":{"android":"levelo://app?vid=c8b81c10-68ef-4f12-b188-70bd6f7d0025","ios":"levelo://app?vid=c8b81c10-68ef-4f12-b188-70bd6f7d0025"},"vehicle_type_id":"4","last_reported":1733401148,"current_range_meters":38800,"station_id":"ce4bhnh2rcd13ifvqgtg","pricing_plan_id":"cebpf4jnsgd1na2vs0mg"},{"bike_id":"987a5ab4-d60c-480c-94b6-7cab38975402","system_id":"levelo_inurba_marseille","lat":43.29748,"lon":5.37971,"is_reserved":false,"is_disabled":true,"rental_uris":{"android":"levelo://app?vid=987a5ab4-d60c-480c-94b6-7cab38975402","ios":"levelo://app?vid=987a5ab4-d60c-480c-94b6-7cab38975402"},"vehicle_type_id":"4","last_reported":1733401148,"current_range_meters":0,"station_id":"","pricing_plan_id":"cebpf4jnsgd1na2vs0mg"},{"bike_id":"2c4596ad-0ad9-4016-b92b-0093349de2b4","system_id":"levelo_inurba_marseille","lat":43.30755,"lon":5.38187,"is_reserved":false,"is_disabled":true,"rental_uris":{"android":"levelo://app?vid=2c4596ad-0ad9-4016-b92b-0093349de2b4","ios":"levelo://app?vid=2c4596ad-0ad9-4016-b92b-0093349de2b4"},"vehicle_type_id":"4","last_reported":1733401148,"current_range_meters":0,"station_id":"","pricing_plan_id":"cebpf4jnsgd1na2vs0mg"},{"bike_id":"00221bb3-43f4-4b93-97f7-7c625e48c6c0","system_id":"levelo_inurba_marseille","lat":43.25931,"lon":5.40912,"is_reserved":false,"is_disabled":false,"rental_uris":{"android":"levelo://app?vid=00221bb3-43f4-4b93-97f7-7c625e48c6c0","ios":"levelo://app?vid=00221bb3-43f4-4b93-97f7-7c625e48c6c0"},"vehicle_type_id":"4","last_reported":1733401148,"current_range_meters":35200,"station_id":"ce4bhm92rcd13ifvqglg","pricing_plan_id":"cebpf4jnsgd1na2vs0mg"},{"bike_id":"5544309e-e924-4299-beb3-abe2f7f10a51","system_id":"levelo_inurba_marseille","lat":43.30817,"lon":5.38154,"is_reserved":false,"is_disabled":true,"rental_uris":{"android":"levelo://app?vid=5544309e-e924-4299-beb3-abe2f7f10a51","ios":"levelo://app?vid=5544309e-e924-4299-beb3-abe2f7f10a51"},"vehicle_type_id":"4","last_reported":1733401148,"current_range_meters":38800,"station_id":"ce4bgt12rcd13ifvqce0","pricing_plan_id":"cebpf4jnsgd1na2vs0mg"},{"bike_id":"b7ab8c01-033f-4395-8276-23c850ad3d02","system_id":"levelo_inurba_marseille","lat":43.30348,"lon":5.36626,"is_reserved":false,"is_disabled":true,"rental_uris":{"android":"levelo://app?vid=b7ab8c01-033f-4395-8276-23c850ad3d02","ios":"levelo://app?vid=b7ab8c01-033f-4395-8276-23c850ad3d02"},"vehicle_type_id":"4","last_reported":1733401148,"current_range_meters":0,"station_id":"","pricing_plan_id":"cebpf4jnsgd1na2vs0mg"},{"bike_id":"e89ff079-19c4-418a-a6aa-afc8a795badc","system_id":"levelo_inurba_marseille","lat":43.29968,"lon":5.38501,"is_reserved":false,"is_disabled":true,"rental_uris":{"android":"levelo://app?vid=e89ff079-19c4-418a-a6aa-afc8a795badc","ios":"levelo://app?vid=e89ff079-19c4-418a-a6aa-afc8a795badc"},"vehicle_type_id":"4","last_reported":1733401148,"current_range_meters":1200,"station_id":"ce4bgj92rcd13ifvqbd0","pricing_plan_id":"cebpf4jnsgd1na2vs0mg"},{"bike_id":"9af467f5-837b-4396-a718-83ffe6577be8","system_id":"levelo_inurba_marseille","lat":43.24994,"lon":5.38932,"is_reserved":false,"is_disabled":false,"rental_uris":{"android":"levelo://app?vid=9af467f5-837b-4396-a718-83ffe6577be8","ios":"levelo://app?vid=9af467f5-837b-4396-a718-83ffe6577be8"},"vehicle_type_id":"4","last_reported":1733401148,"current_range_meters":39200,"station_id":"ce4bhgp2rcd13ifvqfd0","pricing_plan_id":"cebpf4jnsgd1na2vs0mg"},{"bike_id":"a1b9ff6f-52e1-4906-b682-dea8de154dc4","system_id":"levelo_inurba_marseille","lat":43.26026,"lon":5.37545,"is_reserved":false,"is_disabled":false,"rental_uris":{"android":"levelo://app?vid=a1b9ff6f-52e1-4906-b682-dea8de154dc4","ios":"levelo://app?vid=a1b9ff6f-52e1-4906-b682-dea8de154dc4"},"vehicle_type_id":"4","last_reported":1733401148,"current_range_meters":28800,"station_id":"ce4bhgh2rcd13ifvqfa0","pricing_plan_id":"cebpf4jnsgd1na2vs0mg"},{"bike_id":"19d2ce59-2b75-48a1-9810-172e15ca151e","system_id":"levelo_inurba_marseille","lat":43.23189,"lon":5.355442,"is_reserved":false,"is_disabled":false,"rental_uris":{"android":"levelo://app?vid=19d2ce59-2b75-48a1-9810-172e15ca151e","ios":"levelo://app?vid=19d2ce59-2b75-48a1-9810-172e15ca151e"},"vehicle_type_id":"4","last_reported":1733401148,"current_range_meters":38400,"station_id":"ce4bhu92rcd13ifvqi70","pricing_plan_id":"cebpf4jnsgd1na2vs0mg"},{"bike_id":"4af2bd27-2590-46a2-b504-051df0007128","system_id":"levelo_inurba_marseille","lat":43.2762,"lon":5.36113,"is_reserved":false,"is_disabled":false,"rental_uris":{"android":"levelo://app?vid=4af2bd27-2590-46a2-b504-051df0007128","ios":"levelo://app?vid=4af2bd27-2590-46a2-b504-051df0007128"},"vehicle_type_id":"4","last_reported":1733401148,"current_range_meters":38000,"station_id":"ce4bgj92rcd13ifvqbe0","pricing_plan_id":"cebpf4jnsgd1na2vs0mg"},{"bike_id":"d0fd18c1-3898-46e2-812b-d16b1dad312a","system_id":"levelo_inurba_marseille","lat":43.27886,"lon":5.38821,"is_reserved":false,"is_disabled":false,"rental_uris":{"android":"levelo://app?vid=d0fd18c1-3898-46e2-812b-d16b1dad312a","ios":"levelo://app?vid=d0fd18c1-3898-46e2-812b-d16b1dad312a"},"vehicle_type_id":"4","last_reported":1733401148,"current_range_meters":9600,"station_id":"","pricing_plan_id":"cebpf4jnsgd1na2vs0mg"},{"bike_id":"6cc6805f-c0ca-4585-bdf1-b5a0339762b0","system_id":"levelo_inurba_marseille","lat":43.29013,"lon":5.42792,"is_reserved":false,"is_disabled":true,"rental_uris":{"android":"levelo://app?vid=6cc6805f-c0ca-4585-bdf1-b5a0339762b0","ios":"levelo://app?vid=6cc6805f-c0ca-4585-bdf1-b5a0339762b0"},"vehicle_type_id":"4","last_reported":1733401148,"current_range_meters":0,"station_id":"","pricing_plan_id":"cebpf4jnsgd1na2vs0mg"},{"bike_id":"1bd78372-6660-4859-b713-51013f9245b5","system_id":"levelo_inurba_marseille","lat":43.28852,"lon":5.39325,"is_reserved":false,"is_disabled":true,"rental_uris":{"android":"levelo://app?vid=1bd78372-6660-4859-b713-51013f9245b5","ios":"levelo://app?vid=1bd78372-6660-4859-b713-51013f9245b5"},"vehicle_type_id":"4","last_reported":1733401148,"current_range_meters":28000,"station_id":"ce4bh2p2rcd13ifvqdi0","pricing_plan_id":"cebpf4jnsgd1na2vs0mg"},{"bike_id":"0bfb3d4e-359d-4927-881b-5e84aa873cc8","system_id":"levelo_inurba_marseille","lat":43.32361,"lon":5.36767,"is_reserved":false,"is_disabled":false,"rental_uris":{"android":"levelo://app?vid=0bfb3d4e-359d-4927-881b-5e84aa873cc8","ios":"levelo://app?vid=0bfb3d4e-359d-4927-881b-5e84aa873cc8"},"vehicle_type_id":"4","last_reported":1733401148,"current_range_meters":14400,"station_id":"ce4bhsh2rcd13ifvqi2g","pricing_plan_id":"cebpf4jnsgd1na2vs0mg"},{"bike_id":"8d1c8b92-79bb-4181-b0d2-5e94db1a14d0","system_id":"levelo_inurba_marseille","lat":43.300115,"lon":5.382636,"is_reserved":false,"is_disabled":true,"rental_uris":{"android":"levelo://app?vid=8d1c8b92-79bb-4181-b0d2-5e94db1a14d0","ios":"levelo://app?vid=8d1c8b92-79bb-4181-b0d2-5e94db1a14d0"},"vehicle_type_id":"4","last_reported":1733401148,"current_range_meters":0,"station_id":"","pricing_plan_id":"cebpf4jnsgd1na2vs0mg"},{"bike_id":"ffec28c4-df9c-4a4c-835e-ffe0065d1e44","system_id":"levelo_inurba_marseille","lat":43.24653,"lon":5.38894,"is_reserved":false,"is_disabled":false,"rental_uris":{"android":"levelo://app?vid=ffec28c4-df9c-4a4c-835e-ffe0065d1e44","ios":"levelo://app?vid=ffec28c4-df9c-4a4c-835e-ffe0065d1e44"},"vehicle_type_id":"4","last_reported":1733401148,"current_range_meters":11200,"station_id":"ce4bhg12rcd13ifvqf60","pricing_plan_id":"cebpf4jnsgd1na2vs0mg"},{"bike_id":"6f0b16fc-b89e-492b-b913-0d7f6f04b518","system_id":"levelo_inurba_marseille","lat":43.30533,"lon":5.36542,"is_reserved":false,"is_disabled":false,"rental_uris":{"android":"levelo://app?vid=6f0b16fc-b89e-492b-b913-0d7f6f04b518","ios":"levelo://app?vid=6f0b16fc-b89e-492b-b913-0d7f6f04b518"},"vehicle_type_id":"4","last_reported":1733401148,"current_range_meters":22400,"station_id":"ce4bgs12rcd13ifvqcag","pricing_plan_id":"cebpf4jnsgd1na2vs0mg"},{"bike_id":"06a02350-65c3-4ccf-b637-a1aebb56c4fd","system_id":"levelo_inurba_marseille","lat":43.24179,"lon":5.39727,"is_reserved":false,"is_disabled":false,"rental_uris":{"android":"levelo://app?vid=06a02350-65c3-4ccf-b637-a1aebb56c4fd","ios":"levelo://app?vid=06a02350-65c3-4ccf-b637-a1aebb56c4fd"},"vehicle_type_id":"4","last_reported":1733401148,"current_range_meters":20000,"station_id":"ce4bhn12rcd13ifvqgpg","pricing_plan_id":"cebpf4jnsgd1na2vs0mg"},{"bike_id":"7401184e-dcdc-4f69-89e9-1615045c1f8c","system_id":"levelo_inurba_marseille","lat":43.30033,"lon":5.38922,"is_reserved":false,"is_disabled":true,"rental_uris":{"android":"levelo://app?vid=7401184e-dcdc-4f69-89e9-1615045c1f8c","ios":"levelo://app?vid=7401184e-dcdc-4f69-89e9-1615045c1f8c"},"vehicle_type_id":"4","last_reported":1733401148,"current_range_meters":400,"station_id":"","pricing_plan_id":"cebpf4jnsgd1na2vs0mg"},{"bike_id":"c7463e61-ecc0-48f4-afe9-da99e7c007cf","system_id":"levelo_inurba_marseille","lat":43.26214,"lon":5.37448,"is_reserved":false,"is_disabled":false,"rental_uris":{"android":"levelo://app?vid=c7463e61-ecc0-48f4-afe9-da99e7c007cf","ios":"levelo://app?vid=c7463e61-ecc0-48f4-afe9-da99e7c007cf"},"vehicle_type_id":"4","last_reported":1733401148,"current_range_meters":23200,"station_id":"ce4bhgp2rcd13ifvqfc0","pricing_plan_id":"cebpf4jnsgd1na2vs0mg"},{"bike_id":"a9e4e6c1-371c-48c2-a3c3-04f2bcfd31a1","system_id":"levelo_inurba_marseille","lat":43.29533,"lon":5.38546,"is_reserved":false,"is_disabled":true,"rental_uris":{"android":"levelo://app?vid=a9e4e6c1-371c-48c2-a3c3-04f2bcfd31a1","ios":"levelo://app?vid=a9e4e6c1-371c-48c2-a3c3-04f2bcfd31a1"},"vehicle_type_id":"4","last_reported":1733401148,"current_range_meters":3200,"station_id":"ce4bgih2rcd13ifvqba0","pricing_plan_id":"cebpf4jnsgd1na2vs0mg"},{"bike_id":"de1e0229-7a3e-478d-937d-53b32f665e2b","system_id":"levelo_inurba_marseille","lat":43.3089,"lon":5.39655,"is_reserved":false,"is_disabled":false,"rental_uris":{"android":"levelo://app?vid=de1e0229-7a3e-478d-937d-53b32f665e2b","ios":"levelo://app?vid=de1e0229-7a3e-478d-937d-53b32f665e2b"},"vehicle_type_id":"4","last_reported":1733401148,"current_range_meters":8800,"station_id":"ce4bh012rcd13ifvqcv0","pricing_plan_id":"cebpf4jnsgd1na2vs0mg"},{"bike_id":"076836e8-b6e7-421f-ab97-9faf73412f84","system_id":"levelo_inurba_marseille","lat":43.28563,"lon":5.39504,"is_reserved":false,"is_disabled":true,"rental_uris":{"android":"levelo://app?vid=076836e8-b6e7-421f-ab97-9faf73412f84","ios":"levelo://app?vid=076836e8-b6e7-421f-ab97-9faf73412f84"},"vehicle_type_id":"4","last_reported":1733401148,"current_range_meters":22800,"station_id":"ce4bh292rcd13ifvqdg0","pricing_plan_id":"cebpf4jnsgd1na2vs0mg"},{"bike_id":"4ca1d186-bde3-46e9-b743-d943883eb111","system_id":"levelo_inurba_marseille","lat":43.30942,"lon":5.39035,"is_reserved":false,"is_disabled":false,"rental_uris":{"android":"levelo://app?vid=4ca1d186-bde3-46e9-b743-d943883eb111","ios":"levelo://app?vid=4ca1d186-bde3-46e9-b743-d943883eb111"},"vehicle_type_id":"4","last_reported":1733401148,"current_range_meters":8400,"station_id":"ce4bgup2rcd13ifvqco0","pricing_plan_id":"cebpf4jnsgd1na2vs0mg"},{"bike_id":"870c36ea-4962-487a-ac9e-bf4bc7d7730c","system_id":"levelo_inurba_marseille","lat":43.30906,"lon":5.3685,"is_reserved":false,"is_disabled":false,"rental_uris":{"android":"levelo://app?vid=870c36ea-4962-487a-ac9e-bf4bc7d7730c","ios":"levelo://app?vid=870c36ea-4962-487a-ac9e-bf4bc7d7730c"},"vehicle_type_id":"4","last_reported":1733401148,"current_range_meters":23200,"station_id":"ce4bgn92rcd13ifvqbvg","pricing_plan_id":"cebpf4jnsgd1na2vs0mg"},{"bike_id":"1e682d17-8f4b-428d-953a-4aca2c0e0225","system_id":"levelo_inurba_marseille","lat":43.26207,"lon":5.37443,"is_reserved":false,"is_disabled":false,"rental_uris":{"android":"levelo://app?vid=1e682d17-8f4b-428d-953a-4aca2c0e0225","ios":"levelo://app?vid=1e682d17-8f4b-428d-953a-4aca2c0e0225"},"vehicle_type_id":"4","last_reported":1733401148,"current_range_meters":32000,"station_id":"ce4bhgp2rcd13ifvqfc0","pricing_plan_id":"cebpf4jnsgd1na2vs0mg"},{"bike_id":"31e6fc3b-f821-47c0-8265-070531f4b97c","system_id":"levelo_inurba_marseille","lat":43.24172,"lon":5.39734,"is_reserved":false,"is_disabled":false,"rental_uris":{"android":"levelo://app?vid=31e6fc3b-f821-47c0-8265-070531f4b97c","ios":"levelo://app?vid=31e6fc3b-f821-47c0-8265-070531f4b97c"},"vehicle_type_id":"4","last_reported":1733401148,"current_range_meters":34800,"station_id":"ce4bhn12rcd13ifvqgpg","pricing_plan_id":"cebpf4jnsgd1na2vs0mg"},{"bike_id":"d5bdeadb-c20d-4ad7-8902-4ed21cdb4f05","system_id":"levelo_inurba_marseille","lat":43.303323,"lon":5.404406,"is_reserved":false,"is_disabled":false,"rental_uris":{"android":"levelo://app?vid=d5bdeadb-c20d-4ad7-8902-4ed21cdb4f05","ios":"levelo://app?vid=d5bdeadb-c20d-4ad7-8902-4ed21cdb4f05"},"vehicle_type_id":"4","last_reported":1733401148,"current_range_meters":34800,"station_id":"ce4bh012rcd13ifvqd10","pricing_plan_id":"cebpf4jnsgd1na2vs0mg"},{"bike_id":"b8e1207a-097b-4f4c-b3fa-0672858b73dc","system_id":"levelo_inurba_marseille","lat":43.29968,"lon":5.38497,"is_reserved":false,"is_disabled":false,"rental_uris":{"android":"levelo://app?vid=b8e1207a-097b-4f4c-b3fa-0672858b73dc","ios":"levelo://app?vid=b8e1207a-097b-4f4c-b3fa-0672858b73dc"},"vehicle_type_id":"4","last_reported":1733401148,"current_range_meters":30400,"station_id":"ce4bgj92rcd13ifvqbd0","pricing_plan_id":"cebpf4jnsgd1na2vs0mg"},{"bike_id":"9363b5d9-f59e-4672-86c1-c9ae023ff222","system_id":"levelo_inurba_marseille","lat":43.24076,"lon":5.3776,"is_reserved":false,"is_disabled":false,"rental_uris":{"android":"levelo://app?vid=9363b5d9-f59e-4672-86c1-c9ae023ff222","ios":"levelo://app?vid=9363b5d9-f59e-4672-86c1-c9ae023ff222"},"vehicle_type_id":"4","last_reported":1733401148,"current_range_meters":7200,"station_id":"ce4bhnp2rcd13ifvqgvg","pricing_plan_id":"cebpf4jnsgd1na2vs0mg"},{"bike_id":"83a51dcf-bdb4-4ba4-9f61-74f143146f25","system_id":"levelo_inurba_marseille","lat":43.29203,"lon":5.35809,"is_reserved":false,"is_disabled":false,"rental_uris":{"android":"levelo://app?vid=83a51dcf-bdb4-4ba4-9f61-74f143146f25","ios":"levelo://app?vid=83a51dcf-bdb4-4ba4-9f61-74f143146f25"},"vehicle_type_id":"4","last_reported":1733401148,"current_range_meters":6800,"station_id":"ce4bhb12rcd13ifvqel0","pricing_plan_id":"cebpf4jnsgd1na2vs0mg"},{"bike_id":"bb6b53dd-4494-4182-a216-6003a45ab165","system_id":"levelo_inurba_marseille","lat":43.25002,"lon":5.38931,"is_reserved":false,"is_disabled":false,"rental_uris":{"android":"levelo://app?vid=bb6b53dd-4494-4182-a216-6003a45ab165","ios":"levelo://app?vid=bb6b53dd-4494-4182-a216-6003a45ab165"},"vehicle_type_id":"4","last_reported":1733401148,"current_range_meters":39200,"station_id":"ce4bhgp2rcd13ifvqfd0","pricing_plan_id":"cebpf4jnsgd1na2vs0mg"},{"bike_id":"9c77a68d-2e99-44e9-b903-950fb6644d35","system_id":"levelo_inurba_marseille","lat":43.25265,"lon":5.39465,"is_reserved":false,"is_disabled":true,"rental_uris":{"android":"levelo://app?vid=9c77a68d-2e99-44e9-b903-950fb6644d35","ios":"levelo://app?vid=9c77a68d-2e99-44e9-b903-950fb6644d35"},"vehicle_type_id":"4","last_reported":1733401148,"current_range_meters":0,"station_id":"","pricing_plan_id":"cebpf4jnsgd1na2vs0mg"},{"bike_id":"00b245b2-5653-47f5-9070-6e24e621ebc1","system_id":"levelo_inurba_marseille","lat":43.29895,"lon":5.43664,"is_reserved":false,"is_disabled":false,"rental_uris":{"android":"levelo://app?vid=00b245b2-5653-47f5-9070-6e24e621ebc1","ios":"levelo://app?vid=00b245b2-5653-47f5-9070-6e24e621ebc1"},"vehicle_type_id":"4","last_reported":1733401148,"current_range_meters":2800,"station_id":"ce4bhpp2rcd13ifvqhfg","pricing_plan_id":"cebpf4jnsgd1na2vs0mg"},{"bike_id":"a3642aa6-41e2-46ec-979f-9e14e73ad9d4","system_id":"levelo_inurba_marseille","lat":43.28944,"lon":5.36631,"is_reserved":false,"is_disabled":true,"rental_uris":{"android":"levelo://app?vid=a3642aa6-41e2-46ec-979f-9e14e73ad9d4","ios":"levelo://app?vid=a3642aa6-41e2-46ec-979f-9e14e73ad9d4"},"vehicle_type_id":"4","last_reported":1733401148,"current_range_meters":0,"station_id":"ce4bhap2rcd13ifvqek0","pricing_plan_id":"cebpf4jnsgd1na2vs0mg"},{"bike_id":"3ae02ba3-f036-4195-8905-4c63a65aca89","system_id":"levelo_inurba_marseille","lat":43.30128,"lon":5.38776,"is_reserved":false,"is_disabled":false,"rental_uris":{"android":"levelo://app?vid=3ae02ba3-f036-4195-8905-4c63a65aca89","ios":"levelo://app?vid=3ae02ba3-f036-4195-8905-4c63a65aca89"},"vehicle_type_id":"4","last_reported":1733401148,"current_range_meters":24400,"station_id":"ce4bghh2rcd13ifvqb60","pricing_plan_id":"cebpf4jnsgd1na2vs0mg"},{"bike_id":"83985555-c848-4b28-808f-8a7e7cf8519e","system_id":"levelo_inurba_marseille","lat":43.28115,"lon":5.43955,"is_reserved":false,"is_disabled":true,"rental_uris":{"android":"levelo://app?vid=83985555-c848-4b28-808f-8a7e7cf8519e","ios":"levelo://app?vid=83985555-c848-4b28-808f-8a7e7cf8519e"},"vehicle_type_id":"4","last_reported":1733401148,"current_range_meters":0,"station_id":"","pricing_plan_id":"cebpf4jnsgd1na2vs0mg"},{"bike_id":"76f22b2b-4267-4978-afb4-a70105660a0f","system_id":"levelo_inurba_marseille","lat":43.31245,"lon":5.36874,"is_reserved":false,"is_disabled":true,"rental_uris":{"android":"levelo://app?vid=76f22b2b-4267-4978-afb4-a70105660a0f","ios":"levelo://app?vid=76f22b2b-4267-4978-afb4-a70105660a0f"},"vehicle_type_id":"4","last_reported":1733401148,"current_range_meters":400,"station_id":"ce4bgl92rcd13ifvqbq0","pricing_plan_id":"cebpf4jnsgd1na2vs0mg"},{"bike_id":"60a8c359-afd4-402b-ba95-0d43fea4cde8","system_id":"levelo_inurba_marseille","lat":43.30927,"lon":5.40136,"is_reserved":false,"is_disabled":true,"rental_uris":{"android":"levelo://app?vid=60a8c359-afd4-402b-ba95-0d43fea4cde8","ios":"levelo://app?vid=60a8c359-afd4-402b-ba95-0d43fea4cde8"},"vehicle_type_id":"4","last_reported":1733401148,"current_range_meters":1200,"station_id":"ce4bgvp2rcd13ifvqct0","pricing_plan_id":"cebpf4jnsgd1na2vs0mg"},{"bike_id":"903ec8f1-f4c3-441f-a117-ff7454fcb959","system_id":"levelo_inurba_marseille","lat":43.2946,"lon":5.39445,"is_reserved":false,"is_disabled":true,"rental_uris":{"android":"levelo://app?vid=903ec8f1-f4c3-441f-a117-ff7454fcb959","ios":"levelo://app?vid=903ec8f1-f4c3-441f-a117-ff7454fcb959"},"vehicle_type_id":"4","last_reported":1733401148,"current_range_meters":0,"station_id":"","pricing_plan_id":"cebpf4jnsgd1na2vs0mg"},{"bike_id":"4fd69241-3d77-4f42-bdff-f40f0db6353a","system_id":"levelo_inurba_marseille","lat":43.2749,"lon":5.42466,"is_reserved":false,"is_disabled":false,"rental_uris":{"android":"levelo://app?vid=4fd69241-3d77-4f42-bdff-f40f0db6353a","ios":"levelo://app?vid=4fd69241-3d77-4f42-bdff-f40f0db6353a"},"vehicle_type_id":"4","last_reported":1733401148,"current_range_meters":24400,"station_id":"ce4bhn92rcd13ifvqgrg","pricing_plan_id":"cebpf4jnsgd1na2vs0mg"},{"bike_id":"f01c079e-081d-4d3a-b1fb-1464ed8b3d03","system_id":"levelo_inurba_marseille","lat":43.25582,"lon":5.38242,"is_reserved":false,"is_disabled":false,"rental_uris":{"android":"levelo://app?vid=f01c079e-081d-4d3a-b1fb-1464ed8b3d03","ios":"levelo://app?vid=f01c079e-081d-4d3a-b1fb-1464ed8b3d03"},"vehicle_type_id":"4","last_reported":1733401148,"current_range_meters":4800,"station_id":"ce4bhih2rcd13ifvqfs0","pricing_plan_id":"cebpf4jnsgd1na2vs0mg"},{"bike_id":"a7086f85-0060-4ed2-a2e6-775bb6787738","system_id":"levelo_inurba_marseille","lat":43.30146,"lon":5.38081,"is_reserved":false,"is_disabled":false,"rental_uris":{"android":"levelo://app?vid=a7086f85-0060-4ed2-a2e6-775bb6787738","ios":"levelo://app?vid=a7086f85-0060-4ed2-a2e6-775bb6787738"},"vehicle_type_id":"4","last_reported":1733401148,"current_range_meters":32800,"station_id":"ce4bgjp2rcd13ifvqbh0","pricing_plan_id":"cebpf4jnsgd1na2vs0mg"},{"bike_id":"020719d4-c29b-4e35-be4b-81ca932ddaa9","system_id":"levelo_inurba_marseille","lat":43.30238,"lon":5.40058,"is_reserved":false,"is_disabled":true,"rental_uris":{"android":"levelo://app?vid=020719d4-c29b-4e35-be4b-81ca932ddaa9","ios":"levelo://app?vid=020719d4-c29b-4e35-be4b-81ca932ddaa9"},"vehicle_type_id":"4","last_reported":1733401148,"current_range_meters":31200,"station_id":"ce4bgvh2rcd13ifvqcs0","pricing_plan_id":"cebpf4jnsgd1na2vs0mg"},{"bike_id":"74f2c6ad-da2b-41d7-a969-54c1c27f59b8","system_id":"levelo_inurba_marseille","lat":43.26205,"lon":5.37923,"is_reserved":false,"is_disabled":false,"rental_uris":{"android":"levelo://app?vid=74f2c6ad-da2b-41d7-a969-54c1c27f59b8","ios":"levelo://app?vid=74f2c6ad-da2b-41d7-a969-54c1c27f59b8"},"vehicle_type_id":"4","last_reported":1733401148,"current_range_meters":38800,"station_id":"ce4bhjp2rcd13ifvqg90","pricing_plan_id":"cebpf4jnsgd1na2vs0mg"},{"bike_id":"2cd8bcc2-6973-4bbb-a4df-236cf5858163","system_id":"levelo_inurba_marseille","lat":43.23198,"lon":5.35547,"is_reserved":false,"is_disabled":false,"rental_uris":{"android":"levelo://app?vid=2cd8bcc2-6973-4bbb-a4df-236cf5858163","ios":"levelo://app?vid=2cd8bcc2-6973-4bbb-a4df-236cf5858163"},"vehicle_type_id":"4","last_reported":1733401148,"current_range_meters":38800,"station_id":"ce4bhu92rcd13ifvqi70","pricing_plan_id":"cebpf4jnsgd1na2vs0mg"},{"bike_id":"2e33b8ba-a6bd-4490-a1ee-179640a04ec5","system_id":"levelo_inurba_marseille","lat":43.29098,"lon":5.3815,"is_reserved":false,"is_disabled":true,"rental_uris":{"android":"levelo://app?vid=2e33b8ba-a6bd-4490-a1ee-179640a04ec5","ios":"levelo://app?vid=2e33b8ba-a6bd-4490-a1ee-179640a04ec5"},"vehicle_type_id":"4","last_reported":1733401148,"current_range_meters":36800,"station_id":"ce4bh512rcd13ifvqe2g","pricing_plan_id":"cebpf4jnsgd1na2vs0mg"},{"bike_id":"8a3bbde8-2074-4f5e-9186-f4563ba95a97","system_id":"levelo_inurba_marseille","lat":43.28952,"lon":5.36419,"is_reserved":false,"is_disabled":false,"rental_uris":{"android":"levelo://app?vid=8a3bbde8-2074-4f5e-9186-f4563ba95a97","ios":"levelo://app?vid=8a3bbde8-2074-4f5e-9186-f4563ba95a97"},"vehicle_type_id":"4","last_reported":1733401148,"current_range_meters":30800,"station_id":"ce4bhc92rcd13ifvqetg","pricing_plan_id":"cebpf4jnsgd1na2vs0mg"},{"bike_id":"0a9dabf6-f587-467c-997a-8a27f0253a17","system_id":"levelo_inurba_marseille","lat":43.25817,"lon":5.394369,"is_reserved":false,"is_disabled":true,"rental_uris":{"android":"levelo://app?vid=0a9dabf6-f587-467c-997a-8a27f0253a17","ios":"levelo://app?vid=0a9dabf6-f587-467c-997a-8a27f0253a17"},"vehicle_type_id":"4","last_reported":1733401148,"current_range_meters":1200,"station_id":"ce4bhip2rcd13ifvqft0","pricing_plan_id":"cebpf4jnsgd1na2vs0mg"},{"bike_id":"031b4b2e-8463-499a-aef3-193173733e15","system_id":"levelo_inurba_marseille","lat":43.27558,"lon":5.38425,"is_reserved":false,"is_disabled":false,"rental_uris":{"android":"levelo://app?vid=031b4b2e-8463-499a-aef3-193173733e15","ios":"levelo://app?vid=031b4b2e-8463-499a-aef3-193173733e15"},"vehicle_type_id":"4","last_reported":1733401148,"current_range_meters":36000,"station_id":"ce4bhh92rcd13ifvqfi0","pricing_plan_id":"cebpf4jnsgd1na2vs0mg"},{"bike_id":"506c09f4-6c9b-4fb3-996c-4c7f86dd75a8","system_id":"levelo_inurba_marseille","lat":43.25492,"lon":5.37652,"is_reserved":false,"is_disabled":true,"rental_uris":{"android":"levelo://app?vid=506c09f4-6c9b-4fb3-996c-4c7f86dd75a8","ios":"levelo://app?vid=506c09f4-6c9b-4fb3-996c-4c7f86dd75a8"},"vehicle_type_id":"4","last_reported":1733401148,"current_range_meters":0,"station_id":"","pricing_plan_id":"cebpf4jnsgd1na2vs0mg"},{"bike_id":"91ce04db-2714-450f-b5b6-ab07058eade5","system_id":"levelo_inurba_marseille","lat":43.29631,"lon":5.40597,"is_reserved":false,"is_disabled":true,"rental_uris":{"android":"levelo://app?vid=91ce04db-2714-450f-b5b6-ab07058eade5","ios":"levelo://app?vid=91ce04db-2714-450f-b5b6-ab07058eade5"},"vehicle_type_id":"4","last_reported":1733401148,"current_range_meters":0,"station_id":"ce4bh0h2rcd13ifvqd60","pricing_plan_id":"cebpf4jnsgd1na2vs0mg"},{"bike_id":"815df432-2da8-4442-a9a7-c8b9544c4da6","system_id":"levelo_inurba_marseille","lat":43.26565,"lon":5.38999,"is_reserved":false,"is_disabled":false,"rental_uris":{"android":"levelo://app?vid=815df432-2da8-4442-a9a7-c8b9544c4da6","ios":"levelo://app?vid=815df432-2da8-4442-a9a7-c8b9544c4da6"},"vehicle_type_id":"4","last_reported":1733401148,"current_range_meters":30800,"station_id":"ce4bhe12rcd13ifvqf30","pricing_plan_id":"cebpf4jnsgd1na2vs0mg"},{"bike_id":"9202c63e-372c-4469-a5c1-8e35757d1940","system_id":"levelo_inurba_marseille","lat":43.30053,"lon":5.38832,"is_reserved":false,"is_disabled":true,"rental_uris":{"android":"levelo://app?vid=9202c63e-372c-4469-a5c1-8e35757d1940","ios":"levelo://app?vid=9202c63e-372c-4469-a5c1-8e35757d1940"},"vehicle_type_id":"4","last_reported":1733401148,"current_range_meters":0,"station_id":"","pricing_plan_id":"cebpf4jnsgd1na2vs0mg"},{"bike_id":"8be2d31d-ba8e-4b63-a98e-daa3a92a78ed","system_id":"levelo_inurba_marseille","lat":43.30467,"lon":5.37916,"is_reserved":false,"is_disabled":false,"rental_uris":{"android":"levelo://app?vid=8be2d31d-ba8e-4b63-a98e-daa3a92a78ed","ios":"levelo://app?vid=8be2d31d-ba8e-4b63-a98e-daa3a92a78ed"},"vehicle_type_id":"4","last_reported":1733401148,"current_range_meters":25600,"station_id":"ce4bgup2rcd13ifvqcn0","pricing_plan_id":"cebpf4jnsgd1na2vs0mg"},{"bike_id":"ec6bb480-b15d-4a12-a317-9cc73f3bd58f","system_id":"levelo_inurba_marseille","lat":43.30143,"lon":5.3743,"is_reserved":false,"is_disabled":false,"rental_uris":{"android":"levelo://app?vid=ec6bb480-b15d-4a12-a317-9cc73f3bd58f","ios":"levelo://app?vid=ec6bb480-b15d-4a12-a317-9cc73f3bd58f"},"vehicle_type_id":"4","last_reported":1733401148,"current_range_meters":32800,"station_id":"ce4bgs92rcd13ifvqcc0","pricing_plan_id":"cebpf4jnsgd1na2vs0mg"},{"bike_id":"1d1e223d-f3f8-4945-8923-f4bdebc5ab9c","system_id":"levelo_inurba_marseille","lat":43.32079,"lon":5.41548,"is_reserved":false,"is_disabled":true,"rental_uris":{"android":"levelo://app?vid=1d1e223d-f3f8-4945-8923-f4bdebc5ab9c","ios":"levelo://app?vid=1d1e223d-f3f8-4945-8923-f4bdebc5ab9c"},"vehicle_type_id":"4","last_reported":1733401148,"current_range_meters":38800,"station_id":"ce4bhq92rcd13ifvqhkg","pricing_plan_id":"cebpf4jnsgd1na2vs0mg"},{"bike_id":"7e2565d3-a8ea-4673-86ff-672779fec39c","system_id":"levelo_inurba_marseille","lat":43.33596,"lon":5.41035,"is_reserved":false,"is_disabled":false,"rental_uris":{"android":"levelo://app?vid=7e2565d3-a8ea-4673-86ff-672779fec39c","ios":"levelo://app?vid=7e2565d3-a8ea-4673-86ff-672779fec39c"},"vehicle_type_id":"4","last_reported":1733401148,"current_range_meters":2800,"station_id":"ce4bhqh2rcd13ifvqhmg","pricing_plan_id":"cebpf4jnsgd1na2vs0mg"},{"bike_id":"872b11fb-66fb-4c1b-acc9-987c831cfde6","system_id":"levelo_inurba_marseille","lat":43.26552,"lon":5.373,"is_reserved":false,"is_disabled":false,"rental_uris":{"android":"levelo://app?vid=872b11fb-66fb-4c1b-acc9-987c831cfde6","ios":"levelo://app?vid=872b11fb-66fb-4c1b-acc9-987c831cfde6"},"vehicle_type_id":"4","last_reported":1733401148,"current_range_meters":6000,"station_id":"ce4bhg12rcd13ifvqf70","pricing_plan_id":"cebpf4jnsgd1na2vs0mg"},{"bike_id":"f4baaaf3-5729-45c6-81a9-b069f42d75d5","system_id":"levelo_inurba_marseille","lat":43.28937,"lon":5.39641,"is_reserved":false,"is_disabled":true,"rental_uris":{"android":"levelo://app?vid=f4baaaf3-5729-45c6-81a9-b069f42d75d5","ios":"levelo://app?vid=f4baaaf3-5729-45c6-81a9-b069f42d75d5"},"vehicle_type_id":"4","last_reported":1733401148,"current_range_meters":0,"station_id":"ce4bh3h2rcd13ifvqdn0","pricing_plan_id":"cebpf4jnsgd1na2vs0mg"},{"bike_id":"cf3e6ea0-09ff-406c-b357-28a6a6117f94","system_id":"levelo_inurba_marseille","lat":43.22935,"lon":5.35381,"is_reserved":false,"is_disabled":false,"rental_uris":{"android":"levelo://app?vid=cf3e6ea0-09ff-406c-b357-28a6a6117f94","ios":"levelo://app?vid=cf3e6ea0-09ff-406c-b357-28a6a6117f94"},"vehicle_type_id":"4","last_reported":1733401148,"current_range_meters":38800,"station_id":"cpo3532slgdg3j2ikp40","pricing_plan_id":"cebpf4jnsgd1na2vs0mg"},{"bike_id":"fd7dea6a-aa83-4656-baae-4085b6e7d8d6","system_id":"levelo_inurba_marseille","lat":43.33724,"lon":5.39185,"is_reserved":false,"is_disabled":false,"rental_uris":{"android":"levelo://app?vid=fd7dea6a-aa83-4656-baae-4085b6e7d8d6","ios":"levelo://app?vid=fd7dea6a-aa83-4656-baae-4085b6e7d8d6"},"vehicle_type_id":"4","last_reported":1733401148,"current_range_meters":17200,"station_id":"ce4bhr92rcd13ifvqhsg","pricing_plan_id":"cebpf4jnsgd1na2vs0mg"},{"bike_id":"85da36ac-3352-4640-bc86-61ba5f905926","system_id":"levelo_inurba_marseille","lat":43.28408,"lon":5.37511,"is_reserved":false,"is_disabled":false,"rental_uris":{"android":"levelo://app?vid=85da36ac-3352-4640-bc86-61ba5f905926","ios":"levelo://app?vid=85da36ac-3352-4640-bc86-61ba5f905926"},"vehicle_type_id":"4","last_reported":1733401148,"current_range_meters":19600,"station_id":"ce4bh412rcd13ifvqds0","pricing_plan_id":"cebpf4jnsgd1na2vs0mg"},{"bike_id":"a179e9a9-85c1-4aa9-afa5-019ceea13bc8","system_id":"levelo_inurba_marseille","lat":43.26055,"lon":5.394,"is_reserved":false,"is_disabled":false,"rental_uris":{"android":"levelo://app?vid=a179e9a9-85c1-4aa9-afa5-019ceea13bc8","ios":"levelo://app?vid=a179e9a9-85c1-4aa9-afa5-019ceea13bc8"},"vehicle_type_id":"4","last_reported":1733401148,"current_range_meters":37600,"station_id":"ce4bhh92rcd13ifvqfj0","pricing_plan_id":"cebpf4jnsgd1na2vs0mg"},{"bike_id":"719e509a-25e4-4b1b-9830-f708d85d7593","system_id":"levelo_inurba_marseille","lat":43.29283,"lon":5.37397,"is_reserved":false,"is_disabled":true,"rental_uris":{"android":"levelo://app?vid=719e509a-25e4-4b1b-9830-f708d85d7593","ios":"levelo://app?vid=719e509a-25e4-4b1b-9830-f708d85d7593"},"vehicle_type_id":"4","last_reported":1733401148,"current_range_meters":0,"station_id":"","pricing_plan_id":"cebpf4jnsgd1na2vs0mg"},{"bike_id":"305dde0f-2c1c-4e4a-8da4-b0904b35ca09","system_id":"levelo_inurba_marseille","lat":43.26687,"lon":5.38275,"is_reserved":false,"is_disabled":false,"rental_uris":{"android":"levelo://app?vid=305dde0f-2c1c-4e4a-8da4-b0904b35ca09","ios":"levelo://app?vid=305dde0f-2c1c-4e4a-8da4-b0904b35ca09"},"vehicle_type_id":"4","last_reported":1733401148,"current_range_meters":27600,"station_id":"ce4bhg92rcd13ifvqf90","pricing_plan_id":"cebpf4jnsgd1na2vs0mg"},{"bike_id":"d0379a3d-dd77-47dc-b59b-b8ff4c99c159","system_id":"levelo_inurba_marseille","lat":43.30585,"lon":5.39361,"is_reserved":false,"is_disabled":false,"rental_uris":{"android":"levelo://app?vid=d0379a3d-dd77-47dc-b59b-b8ff4c99c159","ios":"levelo://app?vid=d0379a3d-dd77-47dc-b59b-b8ff4c99c159"},"vehicle_type_id":"4","last_reported":1733401148,"current_range_meters":6400,"station_id":"ce4bh0p2rcd13ifvqd80","pricing_plan_id":"cebpf4jnsgd1na2vs0mg"},{"bike_id":"ba6be1af-0907-4176-84ad-2f84b6a3e6f6","system_id":"levelo_inurba_marseille","lat":43.31358,"lon":5.385,"is_reserved":false,"is_disabled":false,"rental_uris":{"android":"levelo://app?vid=ba6be1af-0907-4176-84ad-2f84b6a3e6f6","ios":"levelo://app?vid=ba6be1af-0907-4176-84ad-2f84b6a3e6f6"},"vehicle_type_id":"4","last_reported":1733401148,"current_range_meters":38000,"station_id":"ce4bgt92rcd13ifvqcf0","pricing_plan_id":"cebpf4jnsgd1na2vs0mg"},{"bike_id":"75cf474f-3c0a-4127-bae6-9ec2863bdec9","system_id":"levelo_inurba_marseille","lat":43.28955,"lon":5.36395,"is_reserved":false,"is_disabled":false,"rental_uris":{"android":"levelo://app?vid=75cf474f-3c0a-4127-bae6-9ec2863bdec9","ios":"levelo://app?vid=75cf474f-3c0a-4127-bae6-9ec2863bdec9"},"vehicle_type_id":"4","last_reported":1733401148,"current_range_meters":24800,"station_id":"ce4bhc92rcd13ifvqetg","pricing_plan_id":"cebpf4jnsgd1na2vs0mg"},{"bike_id":"526531f0-adcb-493a-8b04-0dcb78d8f424","system_id":"levelo_inurba_marseille","lat":43.307488,"lon":5.396465,"is_reserved":false,"is_disabled":false,"rental_uris":{"android":"levelo://app?vid=526531f0-adcb-493a-8b04-0dcb78d8f424","ios":"levelo://app?vid=526531f0-adcb-493a-8b04-0dcb78d8f424"},"vehicle_type_id":"4","last_reported":1733401148,"current_range_meters":6800,"station_id":"ce4bh012rcd13ifvqcv0","pricing_plan_id":"cebpf4jnsgd1na2vs0mg"},{"bike_id":"2e532cc4-fb92-4dca-889d-ca4c6203053d","system_id":"levelo_inurba_marseille","lat":43.28569,"lon":5.39504,"is_reserved":false,"is_disabled":false,"rental_uris":{"android":"levelo://app?vid=2e532cc4-fb92-4dca-889d-ca4c6203053d","ios":"levelo://app?vid=2e532cc4-fb92-4dca-889d-ca4c6203053d"},"vehicle_type_id":"4","last_reported":1733401148,"current_range_meters":7200,"station_id":"ce4bh292rcd13ifvqdg0","pricing_plan_id":"cebpf4jnsgd1na2vs0mg"},{"bike_id":"359b44aa-de04-4b84-a1a1-3506f91a9e8f","system_id":"levelo_inurba_marseille","lat":43.30589,"lon":5.39363,"is_reserved":false,"is_disabled":false,"rental_uris":{"android":"levelo://app?vid=359b44aa-de04-4b84-a1a1-3506f91a9e8f","ios":"levelo://app?vid=359b44aa-de04-4b84-a1a1-3506f91a9e8f"},"vehicle_type_id":"4","last_reported":1733401148,"current_range_meters":32800,"station_id":"ce4bh0p2rcd13ifvqd80","pricing_plan_id":"cebpf4jnsgd1na2vs0mg"},{"bike_id":"445982fe-8fa1-4375-b2b6-45b0031a6e11","system_id":"levelo_inurba_marseille","lat":43.3046,"lon":5.37912,"is_reserved":false,"is_disabled":false,"rental_uris":{"android":"levelo://app?vid=445982fe-8fa1-4375-b2b6-45b0031a6e11","ios":"levelo://app?vid=445982fe-8fa1-4375-b2b6-45b0031a6e11"},"vehicle_type_id":"4","last_reported":1733401148,"current_range_meters":31200,"station_id":"ce4bgup2rcd13ifvqcn0","pricing_plan_id":"cebpf4jnsgd1na2vs0mg"},{"bike_id":"d861aa18-4664-45fa-87c0-f9b51e0f155d","system_id":"levelo_inurba_marseille","lat":43.28342,"lon":5.38104,"is_reserved":false,"is_disabled":false,"rental_uris":{"android":"levelo://app?vid=d861aa18-4664-45fa-87c0-f9b51e0f155d","ios":"levelo://app?vid=d861aa18-4664-45fa-87c0-f9b51e0f155d"},"vehicle_type_id":"4","last_reported":1733401148,"current_range_meters":22400,"station_id":"ce4bh412rcd13ifvqdr0","pricing_plan_id":"cebpf4jnsgd1na2vs0mg"},{"bike_id":"b01ba929-1580-401b-973d-e4a15d746d4a","system_id":"levelo_inurba_marseille","lat":43.22929,"lon":5.35379,"is_reserved":false,"is_disabled":false,"rental_uris":{"android":"levelo://app?vid=b01ba929-1580-401b-973d-e4a15d746d4a","ios":"levelo://app?vid=b01ba929-1580-401b-973d-e4a15d746d4a"},"vehicle_type_id":"4","last_reported":1733401148,"current_range_meters":16400,"station_id":"cpo3532slgdg3j2ikp40","pricing_plan_id":"cebpf4jnsgd1na2vs0mg"},{"bike_id":"6c4260a5-20a7-475b-8aef-1d78b261fc15","system_id":"levelo_inurba_marseille","lat":43.30128,"lon":5.38778,"is_reserved":false,"is_disabled":false,"rental_uris":{"android":"levelo://app?vid=6c4260a5-20a7-475b-8aef-1d78b261fc15","ios":"levelo://app?vid=6c4260a5-20a7-475b-8aef-1d78b261fc15"},"vehicle_type_id":"4","last_reported":1733401148,"current_range_meters":36000,"station_id":"ce4bghh2rcd13ifvqb60","pricing_plan_id":"cebpf4jnsgd1na2vs0mg"},{"bike_id":"bd74a526-a9aa-4e2e-8d7f-94d1c14c7c06","system_id":"levelo_inurba_marseille","lat":43.30589,"lon":5.39362,"is_reserved":false,"is_disabled":false,"rental_uris":{"android":"levelo://app?vid=bd74a526-a9aa-4e2e-8d7f-94d1c14c7c06","ios":"levelo://app?vid=bd74a526-a9aa-4e2e-8d7f-94d1c14c7c06"},"vehicle_type_id":"4","last_reported":1733401148,"current_range_meters":16400,"station_id":"ce4bh0p2rcd13ifvqd80","pricing_plan_id":"cebpf4jnsgd1na2vs0mg"},{"bike_id":"543b0472-eea6-4bf3-8f26-7426d9031df8","system_id":"levelo_inurba_marseille","lat":43.27812,"lon":5.40712,"is_reserved":false,"is_disabled":false,"rental_uris":{"android":"levelo://app?vid=543b0472-eea6-4bf3-8f26-7426d9031df8","ios":"levelo://app?vid=543b0472-eea6-4bf3-8f26-7426d9031df8"},"vehicle_type_id":"4","last_reported":1733401148,"current_range_meters":18800,"station_id":"ce4bhnh2rcd13ifvqgtg","pricing_plan_id":"cebpf4jnsgd1na2vs0mg"},{"bike_id":"0e5dcc57-d2b9-4311-9c67-8be0ed05dfed","system_id":"levelo_inurba_marseille","lat":43.262,"lon":5.37438,"is_reserved":false,"is_disabled":false,"rental_uris":{"android":"levelo://app?vid=0e5dcc57-d2b9-4311-9c67-8be0ed05dfed","ios":"levelo://app?vid=0e5dcc57-d2b9-4311-9c67-8be0ed05dfed"},"vehicle_type_id":"4","last_reported":1733401148,"current_range_meters":31200,"station_id":"ce4bhgp2rcd13ifvqfc0","pricing_plan_id":"cebpf4jnsgd1na2vs0mg"},{"bike_id":"1d9a4b4c-056a-4257-82be-cdf0089ad0fc","system_id":"levelo_inurba_marseille","lat":43.26936,"lon":5.40262,"is_reserved":false,"is_disabled":false,"rental_uris":{"android":"levelo://app?vid=1d9a4b4c-056a-4257-82be-cdf0089ad0fc","ios":"levelo://app?vid=1d9a4b4c-056a-4257-82be-cdf0089ad0fc"},"vehicle_type_id":"4","last_reported":1733401148,"current_range_meters":39200,"station_id":"cjm6bp8fraef2m0cb0m0","pricing_plan_id":"cebpf4jnsgd1na2vs0mg"},{"bike_id":"010f1ddc-a5dd-4595-9905-ebf82317a65f","system_id":"levelo_inurba_marseille","lat":43.33021,"lon":5.39048,"is_reserved":false,"is_disabled":false,"rental_uris":{"android":"levelo://app?vid=010f1ddc-a5dd-4595-9905-ebf82317a65f","ios":"levelo://app?vid=010f1ddc-a5dd-4595-9905-ebf82317a65f"},"vehicle_type_id":"4","last_reported":1733401148,"current_range_meters":38800,"station_id":"ce4bhr92rcd13ifvqhrg","pricing_plan_id":"cebpf4jnsgd1na2vs0mg"},{"bike_id":"3ae68890-d6ca-463e-92bb-3d61b2857de5","system_id":"levelo_inurba_marseille","lat":43.30305,"lon":5.3689,"is_reserved":false,"is_disabled":false,"rental_uris":{"android":"levelo://app?vid=3ae68890-d6ca-463e-92bb-3d61b2857de5","ios":"levelo://app?vid=3ae68890-d6ca-463e-92bb-3d61b2857de5"},"vehicle_type_id":"4","last_reported":1733401148,"current_range_meters":30000,"station_id":"ce4bgqh2rcd13ifvqc5g","pricing_plan_id":"cebpf4jnsgd1na2vs0mg"},{"bike_id":"81c3720d-8a44-4bbe-bb49-a554f5900720","system_id":"levelo_inurba_marseille","lat":43.27575,"lon":5.38451,"is_reserved":false,"is_disabled":false,"rental_uris":{"android":"levelo://app?vid=81c3720d-8a44-4bbe-bb49-a554f5900720","ios":"levelo://app?vid=81c3720d-8a44-4bbe-bb49-a554f5900720"},"vehicle_type_id":"4","last_reported":1733401148,"current_range_meters":36000,"station_id":"ce4bhh92rcd13ifvqfi0","pricing_plan_id":"cebpf4jnsgd1na2vs0mg"},{"bike_id":"5a8a3b57-46f1-4d31-a9e1-c7e16f003d4d","system_id":"levelo_inurba_marseille","lat":43.24072,"lon":5.37771,"is_reserved":false,"is_disabled":false,"rental_uris":{"android":"levelo://app?vid=5a8a3b57-46f1-4d31-a9e1-c7e16f003d4d","ios":"levelo://app?vid=5a8a3b57-46f1-4d31-a9e1-c7e16f003d4d"},"vehicle_type_id":"4","last_reported":1733401148,"current_range_meters":17600,"station_id":"ce4bhnp2rcd13ifvqgvg","pricing_plan_id":"cebpf4jnsgd1na2vs0mg"},{"bike_id":"440d88fc-f8a0-4a37-80c9-b2dc0afacc27","system_id":"levelo_inurba_marseille","lat":43.30217,"lon":5.39469,"is_reserved":false,"is_disabled":false,"rental_uris":{"android":"levelo://app?vid=440d88fc-f8a0-4a37-80c9-b2dc0afacc27","ios":"levelo://app?vid=440d88fc-f8a0-4a37-80c9-b2dc0afacc27"},"vehicle_type_id":"4","last_reported":1733401148,"current_range_meters":25200,"station_id":"ce4bh0p2rcd13ifvqd70","pricing_plan_id":"cebpf4jnsgd1na2vs0mg"},{"bike_id":"79c8ea6d-5102-4a1e-b941-afdabc095945","system_id":"levelo_inurba_marseille","lat":43.2907,"lon":5.38345,"is_reserved":false,"is_disabled":true,"rental_uris":{"android":"levelo://app?vid=79c8ea6d-5102-4a1e-b941-afdabc095945","ios":"levelo://app?vid=79c8ea6d-5102-4a1e-b941-afdabc095945"},"vehicle_type_id":"4","last_reported":1733401148,"current_range_meters":14000,"station_id":"","pricing_plan_id":"cebpf4jnsgd1na2vs0mg"},{"bike_id":"14757c55-869a-4b0b-afac-0faeea29372b","system_id":"levelo_inurba_marseille","lat":43.337444,"lon":5.374475,"is_reserved":false,"is_disabled":true,"rental_uris":{"android":"levelo://app?vid=14757c55-869a-4b0b-afac-0faeea29372b","ios":"levelo://app?vid=14757c55-869a-4b0b-afac-0faeea29372b"},"vehicle_type_id":"4","last_reported":1733401148,"current_range_meters":0,"station_id":"","pricing_plan_id":"cebpf4jnsgd1na2vs0mg"},{"bike_id":"3e592e74-64b6-427b-a9f3-9c85b0d07de7","system_id":"levelo_inurba_marseille","lat":43.23173,"lon":5.39999,"is_reserved":false,"is_disabled":false,"rental_uris":{"android":"levelo://app?vid=3e592e74-64b6-427b-a9f3-9c85b0d07de7","ios":"levelo://app?vid=3e592e74-64b6-427b-a9f3-9c85b0d07de7"},"vehicle_type_id":"4","last_reported":1733401148,"current_range_meters":29600,"station_id":"ce4bhn12rcd13ifvqgqg","pricing_plan_id":"cebpf4jnsgd1na2vs0mg"},{"bike_id":"1363debf-a31d-4c3e-88b4-18a113e13a43","system_id":"levelo_inurba_marseille","lat":43.3043,"lon":5.38894,"is_reserved":false,"is_disabled":false,"rental_uris":{"android":"levelo://app?vid=1363debf-a31d-4c3e-88b4-18a113e13a43","ios":"levelo://app?vid=1363debf-a31d-4c3e-88b4-18a113e13a43"},"vehicle_type_id":"4","last_reported":1733401148,"current_range_meters":20000,"station_id":"ce4bgk12rcd13ifvqbi0","pricing_plan_id":"cebpf4jnsgd1na2vs0mg"},{"bike_id":"bd1f85b5-1ade-4264-9243-4e0007387b34","system_id":"levelo_inurba_marseille","lat":43.30544,"lon":5.36527,"is_reserved":false,"is_disabled":false,"rental_uris":{"android":"levelo://app?vid=bd1f85b5-1ade-4264-9243-4e0007387b34","ios":"levelo://app?vid=bd1f85b5-1ade-4264-9243-4e0007387b34"},"vehicle_type_id":"4","last_reported":1733401148,"current_range_meters":33200,"station_id":"ce4bgs12rcd13ifvqcag","pricing_plan_id":"cebpf4jnsgd1na2vs0mg"},{"bike_id":"93e16e02-d588-4e99-9279-413a5cb0a089","system_id":"levelo_inurba_marseille","lat":43.31343,"lon":5.36733,"is_reserved":false,"is_disabled":false,"rental_uris":{"android":"levelo://app?vid=93e16e02-d588-4e99-9279-413a5cb0a089","ios":"levelo://app?vid=93e16e02-d588-4e99-9279-413a5cb0a089"},"vehicle_type_id":"4","last_reported":1733401148,"current_range_meters":30400,"station_id":"ce4bgr92rcd13ifvqc6g","pricing_plan_id":"cebpf4jnsgd1na2vs0mg"},{"bike_id":"704edf0a-9774-4ca2-8fd4-44a2b86045e9","system_id":"levelo_inurba_marseille","lat":43.27375,"lon":5.36259,"is_reserved":false,"is_disabled":false,"rental_uris":{"android":"levelo://app?vid=704edf0a-9774-4ca2-8fd4-44a2b86045e9","ios":"levelo://app?vid=704edf0a-9774-4ca2-8fd4-44a2b86045e9"},"vehicle_type_id":"4","last_reported":1733401148,"current_range_meters":19600,"station_id":"ce4bhbh2rcd13ifvqeo0","pricing_plan_id":"cebpf4jnsgd1na2vs0mg"},{"bike_id":"6cbba370-4cb2-4753-957d-8c3113d16189","system_id":"levelo_inurba_marseille","lat":43.32475,"lon":5.36566,"is_reserved":false,"is_disabled":false,"rental_uris":{"android":"levelo://app?vid=6cbba370-4cb2-4753-957d-8c3113d16189","ios":"levelo://app?vid=6cbba370-4cb2-4753-957d-8c3113d16189"},"vehicle_type_id":"4","last_reported":1733401148,"current_range_meters":38800,"station_id":"ce4bhs12rcd13ifvqhvg","pricing_plan_id":"cebpf4jnsgd1na2vs0mg"},{"bike_id":"3e68f58f-97bb-402f-84dd-3e3ff4cc525c","system_id":"levelo_inurba_marseille","lat":43.29914,"lon":5.37468,"is_reserved":false,"is_disabled":false,"rental_uris":{"android":"levelo://app?vid=3e68f58f-97bb-402f-84dd-3e3ff4cc525c","ios":"levelo://app?vid=3e68f58f-97bb-402f-84dd-3e3ff4cc525c"},"vehicle_type_id":"4","last_reported":1733401148,"current_range_meters":38800,"station_id":"ce4bgjh2rcd13ifvqbg0","pricing_plan_id":"cebpf4jnsgd1na2vs0mg"},{"bike_id":"a4b9e425-64b8-4ce2-a5ab-5fcc5d1230a4","system_id":"levelo_inurba_marseille","lat":43.32104,"lon":5.3678,"is_reserved":false,"is_disabled":false,"rental_uris":{"android":"levelo://app?vid=a4b9e425-64b8-4ce2-a5ab-5fcc5d1230a4","ios":"levelo://app?vid=a4b9e425-64b8-4ce2-a5ab-5fcc5d1230a4"},"vehicle_type_id":"4","last_reported":1733401148,"current_range_meters":36400,"station_id":"ce4bhrh2rcd13ifvqhug","pricing_plan_id":"cebpf4jnsgd1na2vs0mg"},{"bike_id":"8c4ce45f-9817-4b51-b7d4-b395291fb672","system_id":"levelo_inurba_marseille","lat":43.30542,"lon":5.36513,"is_reserved":false,"is_disabled":false,"rental_uris":{"android":"levelo://app?vid=8c4ce45f-9817-4b51-b7d4-b395291fb672","ios":"levelo://app?vid=8c4ce45f-9817-4b51-b7d4-b395291fb672"},"vehicle_type_id":"4","last_reported":1733401148,"current_range_meters":38800,"station_id":"ce4bgs12rcd13ifvqcag","pricing_plan_id":"cebpf4jnsgd1na2vs0mg"},{"bike_id":"fd98eaa9-4d55-4e7b-aa90-0d14707466d9","system_id":"levelo_inurba_marseille","lat":43.337444,"lon":5.374475,"is_reserved":false,"is_disabled":true,"rental_uris":{"android":"levelo://app?vid=fd98eaa9-4d55-4e7b-aa90-0d14707466d9","ios":"levelo://app?vid=fd98eaa9-4d55-4e7b-aa90-0d14707466d9"},"vehicle_type_id":"4","last_reported":1733401148,"current_range_meters":0,"station_id":"","pricing_plan_id":"cebpf4jnsgd1na2vs0mg"},{"bike_id":"1bd024e5-bed9-493e-bf05-6e4c652bf083","system_id":"levelo_inurba_marseille","lat":43.30309,"lon":5.39207,"is_reserved":false,"is_disabled":false,"rental_uris":{"android":"levelo://app?vid=1bd024e5-bed9-493e-bf05-6e4c652bf083","ios":"levelo://app?vid=1bd024e5-bed9-493e-bf05-6e4c652bf083"},"vehicle_type_id":"4","last_reported":1733401148,"current_range_meters":38800,"station_id":"ce4bgkh2rcd13ifvqbk0","pricing_plan_id":"cebpf4jnsgd1na2vs0mg"},{"bike_id":"e9825e22-a219-4419-9c42-05f082b516ed","system_id":"levelo_inurba_marseille","lat":43.29794,"lon":5.39351,"is_reserved":false,"is_disabled":true,"rental_uris":{"android":"levelo://app?vid=e9825e22-a219-4419-9c42-05f082b516ed","ios":"levelo://app?vid=e9825e22-a219-4419-9c42-05f082b516ed"},"vehicle_type_id":"4","last_reported":1733401148,"current_range_meters":0,"station_id":"chh1huq6cuj3fo74tm60","pricing_plan_id":"cebpf4jnsgd1na2vs0mg"},{"bike_id":"9f166179-3cc0-42ca-860b-06242525cca2","system_id":"levelo_inurba_marseille","lat":43.32012,"lon":5.41557,"is_reserved":false,"is_disabled":false,"rental_uris":{"android":"levelo://app?vid=9f166179-3cc0-42ca-860b-06242525cca2","ios":"levelo://app?vid=9f166179-3cc0-42ca-860b-06242525cca2"},"vehicle_type_id":"4","last_reported":1733401148,"current_range_meters":33600,"station_id":"ce4bhq92rcd13ifvqhkg","pricing_plan_id":"cebpf4jnsgd1na2vs0mg"},{"bike_id":"fc02bf7c-fa30-4850-9eb4-c1c04eeef081","system_id":"levelo_inurba_marseille","lat":43.33028,"lon":5.39052,"is_reserved":false,"is_disabled":false,"rental_uris":{"android":"levelo://app?vid=fc02bf7c-fa30-4850-9eb4-c1c04eeef081","ios":"levelo://app?vid=fc02bf7c-fa30-4850-9eb4-c1c04eeef081"},"vehicle_type_id":"4","last_reported":1733401148,"current_range_meters":24800,"station_id":"ce4bhr92rcd13ifvqhrg","pricing_plan_id":"cebpf4jnsgd1na2vs0mg"},{"bike_id":"c2d8a1c2-d166-4a36-b32f-beec95c93bd5","system_id":"levelo_inurba_marseille","lat":43.33756,"lon":5.37459,"is_reserved":false,"is_disabled":false,"rental_uris":{"android":"levelo://app?vid=c2d8a1c2-d166-4a36-b32f-beec95c93bd5","ios":"levelo://app?vid=c2d8a1c2-d166-4a36-b32f-beec95c93bd5"},"vehicle_type_id":"4","last_reported":1733401148,"current_range_meters":9200,"station_id":"","pricing_plan_id":"cebpf4jnsgd1na2vs0mg"},{"bike_id":"d0412dba-4285-448c-9d14-88b7f4838024","system_id":"levelo_inurba_marseille","lat":43.28562,"lon":5.39485,"is_reserved":false,"is_disabled":true,"rental_uris":{"android":"levelo://app?vid=d0412dba-4285-448c-9d14-88b7f4838024","ios":"levelo://app?vid=d0412dba-4285-448c-9d14-88b7f4838024"},"vehicle_type_id":"4","last_reported":1733401148,"current_range_meters":0,"station_id":"ce4bh292rcd13ifvqdg0","pricing_plan_id":"cebpf4jnsgd1na2vs0mg"},{"bike_id":"76cdad46-6ec0-49b8-ac63-10f8f4d99000","system_id":"levelo_inurba_marseille","lat":43.3135,"lon":5.38512,"is_reserved":false,"is_disabled":false,"rental_uris":{"android":"levelo://app?vid=76cdad46-6ec0-49b8-ac63-10f8f4d99000","ios":"levelo://app?vid=76cdad46-6ec0-49b8-ac63-10f8f4d99000"},"vehicle_type_id":"4","last_reported":1733401148,"current_range_meters":32000,"station_id":"ce4bgt92rcd13ifvqcf0","pricing_plan_id":"cebpf4jnsgd1na2vs0mg"},{"bike_id":"5f4b7b33-9066-484c-9c20-b70c39338231","system_id":"levelo_inurba_marseille","lat":43.26799,"lon":5.40272,"is_reserved":false,"is_disabled":false,"rental_uris":{"android":"levelo://app?vid=5f4b7b33-9066-484c-9c20-b70c39338231","ios":"levelo://app?vid=5f4b7b33-9066-484c-9c20-b70c39338231"},"vehicle_type_id":"4","last_reported":1733401148,"current_range_meters":38800,"station_id":"ce501612rcd8frsf0b60","pricing_plan_id":"cebpf4jnsgd1na2vs0mg"},{"bike_id":"6e22422b-c613-41ee-aedb-69877a8c5ca8","system_id":"levelo_inurba_marseille","lat":43.29187,"lon":5.35805,"is_reserved":false,"is_disabled":false,"rental_uris":{"android":"levelo://app?vid=6e22422b-c613-41ee-aedb-69877a8c5ca8","ios":"levelo://app?vid=6e22422b-c613-41ee-aedb-69877a8c5ca8"},"vehicle_type_id":"4","last_reported":1733401148,"current_range_meters":38000,"station_id":"ce4bhb12rcd13ifvqel0","pricing_plan_id":"cebpf4jnsgd1na2vs0mg"},{"bike_id":"5605d362-7a6b-439d-b82f-b1eebcb406f8","system_id":"levelo_inurba_marseille","lat":43.26686,"lon":5.38271,"is_reserved":false,"is_disabled":false,"rental_uris":{"android":"levelo://app?vid=5605d362-7a6b-439d-b82f-b1eebcb406f8","ios":"levelo://app?vid=5605d362-7a6b-439d-b82f-b1eebcb406f8"},"vehicle_type_id":"4","last_reported":1733401148,"current_range_meters":39200,"station_id":"ce4bhg92rcd13ifvqf90","pricing_plan_id":"cebpf4jnsgd1na2vs0mg"},{"bike_id":"89f2c213-f91c-4014-95f9-43fa31a22420","system_id":"levelo_inurba_marseille","lat":43.27048,"lon":5.40264,"is_reserved":false,"is_disabled":false,"rental_uris":{"android":"levelo://app?vid=89f2c213-f91c-4014-95f9-43fa31a22420","ios":"levelo://app?vid=89f2c213-f91c-4014-95f9-43fa31a22420"},"vehicle_type_id":"4","last_reported":1733401148,"current_range_meters":36800,"station_id":"ce4bhk92rcd13ifvqgc0","pricing_plan_id":"cebpf4jnsgd1na2vs0mg"},{"bike_id":"dce35d6a-08b0-4b4c-b89b-7b5e69e85874","system_id":"levelo_inurba_marseille","lat":43.32478,"lon":5.36574,"is_reserved":false,"is_disabled":false,"rental_uris":{"android":"levelo://app?vid=dce35d6a-08b0-4b4c-b89b-7b5e69e85874","ios":"levelo://app?vid=dce35d6a-08b0-4b4c-b89b-7b5e69e85874"},"vehicle_type_id":"4","last_reported":1733401148,"current_range_meters":10800,"station_id":"ce4bhs12rcd13ifvqhvg","pricing_plan_id":"cebpf4jnsgd1na2vs0mg"},{"bike_id":"37727576-2d28-4525-b065-40affdaee0f8","system_id":"levelo_inurba_marseille","lat":43.32365,"lon":5.38887,"is_reserved":false,"is_disabled":false,"rental_uris":{"android":"levelo://app?vid=37727576-2d28-4525-b065-40affdaee0f8","ios":"levelo://app?vid=37727576-2d28-4525-b065-40affdaee0f8"},"vehicle_type_id":"4","last_reported":1733401148,"current_range_meters":38800,"station_id":"ce4bhqp2rcd13ifvqhog","pricing_plan_id":"cebpf4jnsgd1na2vs0mg"},{"bike_id":"ef21d8d9-6869-4d7a-8070-772c8b473a8b","system_id":"levelo_inurba_marseille","lat":43.29437,"lon":5.3975,"is_reserved":false,"is_disabled":false,"rental_uris":{"android":"levelo://app?vid=ef21d8d9-6869-4d7a-8070-772c8b473a8b","ios":"levelo://app?vid=ef21d8d9-6869-4d7a-8070-772c8b473a8b"},"vehicle_type_id":"4","last_reported":1733401148,"current_range_meters":36800,"station_id":"ce4bh3h2rcd13ifvqdo0","pricing_plan_id":"cebpf4jnsgd1na2vs0mg"},{"bike_id":"f7414906-7968-4904-a1c3-0d15516c4daa","system_id":"levelo_inurba_marseille","lat":43.2407,"lon":5.37765,"is_reserved":false,"is_disabled":false,"rental_uris":{"android":"levelo://app?vid=f7414906-7968-4904-a1c3-0d15516c4daa","ios":"levelo://app?vid=f7414906-7968-4904-a1c3-0d15516c4daa"},"vehicle_type_id":"4","last_reported":1733401148,"current_range_meters":14400,"station_id":"ce4bhnp2rcd13ifvqgvg","pricing_plan_id":"cebpf4jnsgd1na2vs0mg"},{"bike_id":"99d6b479-b1ff-4a1c-97e5-e93ae5b0b9bf","system_id":"levelo_inurba_marseille","lat":43.29571,"lon":5.37513,"is_reserved":false,"is_disabled":false,"rental_uris":{"android":"levelo://app?vid=99d6b479-b1ff-4a1c-97e5-e93ae5b0b9bf","ios":"levelo://app?vid=99d6b479-b1ff-4a1c-97e5-e93ae5b0b9bf"},"vehicle_type_id":"4","last_reported":1733401148,"current_range_meters":34800,"station_id":"ce4bgh92rcd13ifvqb50","pricing_plan_id":"cebpf4jnsgd1na2vs0mg"},{"bike_id":"ce0784e5-3824-43c5-ba81-0506401ceca2","system_id":"levelo_inurba_marseille","lat":43.33024,"lon":5.39039,"is_reserved":false,"is_disabled":false,"rental_uris":{"android":"levelo://app?vid=ce0784e5-3824-43c5-ba81-0506401ceca2","ios":"levelo://app?vid=ce0784e5-3824-43c5-ba81-0506401ceca2"},"vehicle_type_id":"4","last_reported":1733401148,"current_range_meters":37600,"station_id":"ce4bhr92rcd13ifvqhrg","pricing_plan_id":"cebpf4jnsgd1na2vs0mg"},{"bike_id":"e93e82ee-f4f4-485f-a49f-6ea9b2abcc3e","system_id":"levelo_inurba_marseille","lat":43.30529,"lon":5.36533,"is_reserved":false,"is_disabled":false,"rental_uris":{"android":"levelo://app?vid=e93e82ee-f4f4-485f-a49f-6ea9b2abcc3e","ios":"levelo://app?vid=e93e82ee-f4f4-485f-a49f-6ea9b2abcc3e"},"vehicle_type_id":"4","last_reported":1733401148,"current_range_meters":38800,"station_id":"ce4bgs12rcd13ifvqcag","pricing_plan_id":"cebpf4jnsgd1na2vs0mg"},{"bike_id":"8a9e04b6-8c89-4d35-a486-f1af01f6b29b","system_id":"levelo_inurba_marseille","lat":43.29777,"lon":5.3929,"is_reserved":false,"is_disabled":false,"rental_uris":{"android":"levelo://app?vid=8a9e04b6-8c89-4d35-a486-f1af01f6b29b","ios":"levelo://app?vid=8a9e04b6-8c89-4d35-a486-f1af01f6b29b"},"vehicle_type_id":"4","last_reported":1733401148,"current_range_meters":38400,"station_id":"chh1huq6cuj3fo74tm60","pricing_plan_id":"cebpf4jnsgd1na2vs0mg"},{"bike_id":"566d3863-5d3d-46e1-8560-48de365cc9d0","system_id":"levelo_inurba_marseille","lat":43.26553,"lon":5.37291,"is_reserved":false,"is_disabled":false,"rental_uris":{"android":"levelo://app?vid=566d3863-5d3d-46e1-8560-48de365cc9d0","ios":"levelo://app?vid=566d3863-5d3d-46e1-8560-48de365cc9d0"},"vehicle_type_id":"4","last_reported":1733401148,"current_range_meters":38800,"station_id":"ce4bhg12rcd13ifvqf70","pricing_plan_id":"cebpf4jnsgd1na2vs0mg"},{"bike_id":"80242e9c-14c7-4b58-93b4-d63aa66daa53","system_id":"levelo_inurba_marseille","lat":43.24805,"lon":5.37458,"is_reserved":false,"is_disabled":false,"rental_uris":{"android":"levelo://app?vid=80242e9c-14c7-4b58-93b4-d63aa66daa53","ios":"levelo://app?vid=80242e9c-14c7-4b58-93b4-d63aa66daa53"},"vehicle_type_id":"4","last_reported":1733401148,"current_range_meters":29600,"station_id":"ce4bhgh2rcd13ifvqfb0","pricing_plan_id":"cebpf4jnsgd1na2vs0mg"},{"bike_id":"4fb9f2f4-1230-4e21-8290-82630478ef26","system_id":"levelo_inurba_marseille","lat":43.3042,"lon":5.38888,"is_reserved":false,"is_disabled":false,"rental_uris":{"android":"levelo://app?vid=4fb9f2f4-1230-4e21-8290-82630478ef26","ios":"levelo://app?vid=4fb9f2f4-1230-4e21-8290-82630478ef26"},"vehicle_type_id":"4","last_reported":1733401148,"current_range_meters":16000,"station_id":"ce4bgk12rcd13ifvqbi0","pricing_plan_id":"cebpf4jnsgd1na2vs0mg"},{"bike_id":"21c61b3f-2ae1-41ed-96e8-21fc1b01a387","system_id":"levelo_inurba_marseille","lat":43.30089,"lon":5.37244,"is_reserved":false,"is_disabled":false,"rental_uris":{"android":"levelo://app?vid=21c61b3f-2ae1-41ed-96e8-21fc1b01a387","ios":"levelo://app?vid=21c61b3f-2ae1-41ed-96e8-21fc1b01a387"},"vehicle_type_id":"4","last_reported":1733401148,"current_range_meters":16000,"station_id":"","pricing_plan_id":"cebpf4jnsgd1na2vs0mg"},{"bike_id":"b48c3bbb-c47e-4553-9a31-654beef93043","system_id":"levelo_inurba_marseille","lat":43.24391,"lon":5.37064,"is_reserved":false,"is_disabled":false,"rental_uris":{"android":"levelo://app?vid=b48c3bbb-c47e-4553-9a31-654beef93043","ios":"levelo://app?vid=b48c3bbb-c47e-4553-9a31-654beef93043"},"vehicle_type_id":"4","last_reported":1733401148,"current_range_meters":22800,"station_id":"ce4bhhh2rcd13ifvqfk0","pricing_plan_id":"cebpf4jnsgd1na2vs0mg"},{"bike_id":"3a9149f3-357c-4d0a-859b-18382ef024a5","system_id":"levelo_inurba_marseille","lat":43.32109,"lon":5.36758,"is_reserved":false,"is_disabled":false,"rental_uris":{"android":"levelo://app?vid=3a9149f3-357c-4d0a-859b-18382ef024a5","ios":"levelo://app?vid=3a9149f3-357c-4d0a-859b-18382ef024a5"},"vehicle_type_id":"4","last_reported":1733401148,"current_range_meters":24400,"station_id":"ce4bhrh2rcd13ifvqhug","pricing_plan_id":"cebpf4jnsgd1na2vs0mg"},{"bike_id":"234cc116-f714-416f-b6b0-b37930ad9538","system_id":"levelo_inurba_marseille","lat":43.30299,"lon":5.39206,"is_reserved":false,"is_disabled":false,"rental_uris":{"android":"levelo://app?vid=234cc116-f714-416f-b6b0-b37930ad9538","ios":"levelo://app?vid=234cc116-f714-416f-b6b0-b37930ad9538"},"vehicle_type_id":"4","last_reported":1733401148,"current_range_meters":35200,"station_id":"ce4bgkh2rcd13ifvqbk0","pricing_plan_id":"cebpf4jnsgd1na2vs0mg"},{"bike_id":"eaf00b17-c352-4bfc-9d84-fd526ba88f44","system_id":"levelo_inurba_marseille","lat":43.27807,"lon":5.40712,"is_reserved":false,"is_disabled":false,"rental_uris":{"android":"levelo://app?vid=eaf00b17-c352-4bfc-9d84-fd526ba88f44","ios":"levelo://app?vid=eaf00b17-c352-4bfc-9d84-fd526ba88f44"},"vehicle_type_id":"4","last_reported":1733401148,"current_range_meters":34800,"station_id":"ce4bhnh2rcd13ifvqgtg","pricing_plan_id":"cebpf4jnsgd1na2vs0mg"},{"bike_id":"a1382615-0d25-4a1f-8261-ac72f2100a49","system_id":"levelo_inurba_marseille","lat":43.30589,"lon":5.39355,"is_reserved":false,"is_disabled":false,"rental_uris":{"android":"levelo://app?vid=a1382615-0d25-4a1f-8261-ac72f2100a49","ios":"levelo://app?vid=a1382615-0d25-4a1f-8261-ac72f2100a49"},"vehicle_type_id":"4","last_reported":1733401148,"current_range_meters":29600,"station_id":"ce4bh0p2rcd13ifvqd80","pricing_plan_id":"cebpf4jnsgd1na2vs0mg"},{"bike_id":"b82a9db3-888c-4106-9659-564008a0d27c","system_id":"levelo_inurba_marseille","lat":43.28705,"lon":5.40003,"is_reserved":false,"is_disabled":false,"rental_uris":{"android":"levelo://app?vid=b82a9db3-888c-4106-9659-564008a0d27c","ios":"levelo://app?vid=b82a9db3-888c-4106-9659-564008a0d27c"},"vehicle_type_id":"4","last_reported":1733401148,"current_range_meters":33600,"station_id":"ce4bho92rcd13ifvqh3g","pricing_plan_id":"cebpf4jnsgd1na2vs0mg"},{"bike_id":"721f5feb-b378-4dac-af39-7801c98d73b6","system_id":"levelo_inurba_marseille","lat":43.3015,"lon":5.38086,"is_reserved":false,"is_disabled":true,"rental_uris":{"android":"levelo://app?vid=721f5feb-b378-4dac-af39-7801c98d73b6","ios":"levelo://app?vid=721f5feb-b378-4dac-af39-7801c98d73b6"},"vehicle_type_id":"4","last_reported":1733401148,"current_range_meters":0,"station_id":"ce4bgjp2rcd13ifvqbh0","pricing_plan_id":"cebpf4jnsgd1na2vs0mg"},{"bike_id":"da6a7a1d-e653-4950-af8c-8137b06f7d40","system_id":"levelo_inurba_marseille","lat":43.3004,"lon":5.37551,"is_reserved":false,"is_disabled":true,"rental_uris":{"android":"levelo://app?vid=da6a7a1d-e653-4950-af8c-8137b06f7d40","ios":"levelo://app?vid=da6a7a1d-e653-4950-af8c-8137b06f7d40"},"vehicle_type_id":"4","last_reported":1733401148,"current_range_meters":0,"station_id":"","pricing_plan_id":"cebpf4jnsgd1na2vs0mg"},{"bike_id":"83e01318-977b-4110-bff7-2466f25e4777","system_id":"levelo_inurba_marseille","lat":43.2594,"lon":5.40905,"is_reserved":false,"is_disabled":false,"rental_uris":{"android":"levelo://app?vid=83e01318-977b-4110-bff7-2466f25e4777","ios":"levelo://app?vid=83e01318-977b-4110-bff7-2466f25e4777"},"vehicle_type_id":"4","last_reported":1733401148,"current_range_meters":15200,"station_id":"ce4bhm92rcd13ifvqglg","pricing_plan_id":"cebpf4jnsgd1na2vs0mg"},{"bike_id":"1dc42c5a-7c00-4af8-99b1-455107adae3f","system_id":"levelo_inurba_marseille","lat":43.2871,"lon":5.37933,"is_reserved":false,"is_disabled":false,"rental_uris":{"android":"levelo://app?vid=1dc42c5a-7c00-4af8-99b1-455107adae3f","ios":"levelo://app?vid=1dc42c5a-7c00-4af8-99b1-455107adae3f"},"vehicle_type_id":"4","last_reported":1733401148,"current_range_meters":14000,"station_id":"ce4bh9p2rcd13ifvqec0","pricing_plan_id":"cebpf4jnsgd1na2vs0mg"},{"bike_id":"055f094c-d378-4f0a-bb86-072811811d59","system_id":"levelo_inurba_marseille","lat":43.2595,"lon":5.40878,"is_reserved":false,"is_disabled":false,"rental_uris":{"android":"levelo://app?vid=055f094c-d378-4f0a-bb86-072811811d59","ios":"levelo://app?vid=055f094c-d378-4f0a-bb86-072811811d59"},"vehicle_type_id":"4","last_reported":1733401148,"current_range_meters":37600,"station_id":"ce4bhm92rcd13ifvqglg","pricing_plan_id":"cebpf4jnsgd1na2vs0mg"},{"bike_id":"ea32da4e-bdd3-4cc0-95cd-754ac251d9d2","system_id":"levelo_inurba_marseille","lat":43.32476,"lon":5.36595,"is_reserved":false,"is_disabled":false,"rental_uris":{"android":"levelo://app?vid=ea32da4e-bdd3-4cc0-95cd-754ac251d9d2","ios":"levelo://app?vid=ea32da4e-bdd3-4cc0-95cd-754ac251d9d2"},"vehicle_type_id":"4","last_reported":1733401148,"current_range_meters":26800,"station_id":"ce4bhs12rcd13ifvqhvg","pricing_plan_id":"cebpf4jnsgd1na2vs0mg"},{"bike_id":"7a24ed6c-3aca-4436-b1ed-fca6d7e20573","system_id":"levelo_inurba_marseille","lat":43.2408,"lon":5.37758,"is_reserved":false,"is_disabled":false,"rental_uris":{"android":"levelo://app?vid=7a24ed6c-3aca-4436-b1ed-fca6d7e20573","ios":"levelo://app?vid=7a24ed6c-3aca-4436-b1ed-fca6d7e20573"},"vehicle_type_id":"4","last_reported":1733401148,"current_range_meters":24800,"station_id":"ce4bhnp2rcd13ifvqgvg","pricing_plan_id":"cebpf4jnsgd1na2vs0mg"},{"bike_id":"3dc3bbfc-7a8e-4230-9bd4-cf0c0009f96d","system_id":"levelo_inurba_marseille","lat":43.30535,"lon":5.36555,"is_reserved":false,"is_disabled":false,"rental_uris":{"android":"levelo://app?vid=3dc3bbfc-7a8e-4230-9bd4-cf0c0009f96d","ios":"levelo://app?vid=3dc3bbfc-7a8e-4230-9bd4-cf0c0009f96d"},"vehicle_type_id":"4","last_reported":1733401148,"current_range_meters":38800,"station_id":"ce4bgs12rcd13ifvqcag","pricing_plan_id":"cebpf4jnsgd1na2vs0mg"},{"bike_id":"b9bd56fd-ec87-4663-ac42-cd96603ef2b6","system_id":"levelo_inurba_marseille","lat":43.29843,"lon":5.36276,"is_reserved":false,"is_disabled":false,"rental_uris":{"android":"levelo://app?vid=b9bd56fd-ec87-4663-ac42-cd96603ef2b6","ios":"levelo://app?vid=b9bd56fd-ec87-4663-ac42-cd96603ef2b6"},"vehicle_type_id":"4","last_reported":1733401148,"current_range_meters":30400,"station_id":"ce4bgpp2rcd13ifvqc3g","pricing_plan_id":"cebpf4jnsgd1na2vs0mg"},{"bike_id":"2db7f5fd-afd5-494c-99fe-e965dfdef234","system_id":"levelo_inurba_marseille","lat":43.32476,"lon":5.3658,"is_reserved":false,"is_disabled":false,"rental_uris":{"android":"levelo://app?vid=2db7f5fd-afd5-494c-99fe-e965dfdef234","ios":"levelo://app?vid=2db7f5fd-afd5-494c-99fe-e965dfdef234"},"vehicle_type_id":"4","last_reported":1733401148,"current_range_meters":37600,"station_id":"ce4bhs12rcd13ifvqhvg","pricing_plan_id":"cebpf4jnsgd1na2vs0mg"},{"bike_id":"b983f700-39e1-418f-84a3-1c3c95a84b96","system_id":"levelo_inurba_marseille","lat":43.33766,"lon":5.37503,"is_reserved":false,"is_disabled":false,"rental_uris":{"android":"levelo://app?vid=b983f700-39e1-418f-84a3-1c3c95a84b96","ios":"levelo://app?vid=b983f700-39e1-418f-84a3-1c3c95a84b96"},"vehicle_type_id":"4","last_reported":1733401148,"current_range_meters":38400,"station_id":"","pricing_plan_id":"cebpf4jnsgd1na2vs0mg"},{"bike_id":"30de221a-4ae9-44c8-af60-f5843b67f535","system_id":"levelo_inurba_marseille","lat":43.337444,"lon":5.374475,"is_reserved":false,"is_disabled":false,"rental_uris":{"android":"levelo://app?vid=30de221a-4ae9-44c8-af60-f5843b67f535","ios":"levelo://app?vid=30de221a-4ae9-44c8-af60-f5843b67f535"},"vehicle_type_id":"4","last_reported":1733401148,"current_range_meters":38400,"station_id":"","pricing_plan_id":"cebpf4jnsgd1na2vs0mg"},{"bike_id":"a1649a31-13c9-4866-97c4-402eb4304c84","system_id":"levelo_inurba_marseille","lat":43.28967,"lon":5.37838,"is_reserved":false,"is_disabled":true,"rental_uris":{"android":"levelo://app?vid=a1649a31-13c9-4866-97c4-402eb4304c84","ios":"levelo://app?vid=a1649a31-13c9-4866-97c4-402eb4304c84"},"vehicle_type_id":"4","last_reported":1733401148,"current_range_meters":38800,"station_id":"ce4bh9p2rcd13ifvqed0","pricing_plan_id":"cebpf4jnsgd1na2vs0mg"},{"bike_id":"795d32a5-a428-423c-a523-bd980e7834c3","system_id":"levelo_inurba_marseille","lat":43.31343,"lon":5.36726,"is_reserved":false,"is_disabled":false,"rental_uris":{"android":"levelo://app?vid=795d32a5-a428-423c-a523-bd980e7834c3","ios":"levelo://app?vid=795d32a5-a428-423c-a523-bd980e7834c3"},"vehicle_type_id":"4","last_reported":1733401148,"current_range_meters":17600,"station_id":"ce4bgr92rcd13ifvqc6g","pricing_plan_id":"cebpf4jnsgd1na2vs0mg"},{"bike_id":"9a71cc33-633c-4dd4-8da0-6a120a752d69","system_id":"levelo_inurba_marseille","lat":43.29887,"lon":5.38902,"is_reserved":false,"is_disabled":false,"rental_uris":{"android":"levelo://app?vid=9a71cc33-633c-4dd4-8da0-6a120a752d69","ios":"levelo://app?vid=9a71cc33-633c-4dd4-8da0-6a120a752d69"},"vehicle_type_id":"4","last_reported":1733401148,"current_range_meters":37600,"station_id":"ce4bh392rcd13ifvqdl0","pricing_plan_id":"cebpf4jnsgd1na2vs0mg"},{"bike_id":"5ee984fd-ad4a-4905-a134-6c56ecba5028","system_id":"levelo_inurba_marseille","lat":43.32483,"lon":5.36587,"is_reserved":false,"is_disabled":false,"rental_uris":{"android":"levelo://app?vid=5ee984fd-ad4a-4905-a134-6c56ecba5028","ios":"levelo://app?vid=5ee984fd-ad4a-4905-a134-6c56ecba5028"},"vehicle_type_id":"4","last_reported":1733401148,"current_range_meters":22400,"station_id":"ce4bhs12rcd13ifvqhvg","pricing_plan_id":"cebpf4jnsgd1na2vs0mg"},{"bike_id":"7714ce30-465c-426d-9621-0f0245a19ff8","system_id":"levelo_inurba_marseille","lat":43.2718,"lon":5.41,"is_reserved":false,"is_disabled":false,"rental_uris":{"android":"levelo://app?vid=7714ce30-465c-426d-9621-0f0245a19ff8","ios":"levelo://app?vid=7714ce30-465c-426d-9621-0f0245a19ff8"},"vehicle_type_id":"4","last_reported":1733401148,"current_range_meters":27200,"station_id":"ce4bhl12rcd13ifvqgf0","pricing_plan_id":"cebpf4jnsgd1na2vs0mg"},{"bike_id":"f05a96c6-7f9a-4dd8-811e-faddc66c716d","system_id":"levelo_inurba_marseille","lat":43.30537,"lon":5.36521,"is_reserved":false,"is_disabled":false,"rental_uris":{"android":"levelo://app?vid=f05a96c6-7f9a-4dd8-811e-faddc66c716d","ios":"levelo://app?vid=f05a96c6-7f9a-4dd8-811e-faddc66c716d"},"vehicle_type_id":"4","last_reported":1733401148,"current_range_meters":25200,"station_id":"ce4bgs12rcd13ifvqcag","pricing_plan_id":"cebpf4jnsgd1na2vs0mg"},{"bike_id":"88a8cd86-bf0b-4ae8-bcc1-a22e74807cd8","system_id":"levelo_inurba_marseille","lat":43.29005,"lon":5.35621,"is_reserved":false,"is_disabled":false,"rental_uris":{"android":"levelo://app?vid=88a8cd86-bf0b-4ae8-bcc1-a22e74807cd8","ios":"levelo://app?vid=88a8cd86-bf0b-4ae8-bcc1-a22e74807cd8"},"vehicle_type_id":"4","last_reported":1733401148,"current_range_meters":38000,"station_id":"ce4bhb92rcd13ifvqen0","pricing_plan_id":"cebpf4jnsgd1na2vs0mg"},{"bike_id":"e23bf580-e13e-4799-9f3e-2860872af368","system_id":"levelo_inurba_marseille","lat":43.28842,"lon":5.35842,"is_reserved":false,"is_disabled":false,"rental_uris":{"android":"levelo://app?vid=e23bf580-e13e-4799-9f3e-2860872af368","ios":"levelo://app?vid=e23bf580-e13e-4799-9f3e-2860872af368"},"vehicle_type_id":"4","last_reported":1733401148,"current_range_meters":18800,"station_id":"ce4bhb12rcd13ifvqem0","pricing_plan_id":"cebpf4jnsgd1na2vs0mg"},{"bike_id":"914e2da6-b203-455d-bab7-6e3debbf268a","system_id":"levelo_inurba_marseille","lat":43.26557,"lon":5.37283,"is_reserved":false,"is_disabled":false,"rental_uris":{"android":"levelo://app?vid=914e2da6-b203-455d-bab7-6e3debbf268a","ios":"levelo://app?vid=914e2da6-b203-455d-bab7-6e3debbf268a"},"vehicle_type_id":"4","last_reported":1733401148,"current_range_meters":16400,"station_id":"ce4bhg12rcd13ifvqf70","pricing_plan_id":"cebpf4jnsgd1na2vs0mg"},{"bike_id":"db3932e9-178a-4444-90e1-3636f24c8038","system_id":"levelo_inurba_marseille","lat":43.29185,"lon":5.35812,"is_reserved":false,"is_disabled":false,"rental_uris":{"android":"levelo://app?vid=db3932e9-178a-4444-90e1-3636f24c8038","ios":"levelo://app?vid=db3932e9-178a-4444-90e1-3636f24c8038"},"vehicle_type_id":"4","last_reported":1733401148,"current_range_meters":37600,"station_id":"ce4bhb12rcd13ifvqel0","pricing_plan_id":"cebpf4jnsgd1na2vs0mg"},{"bike_id":"eaba7670-b58d-4da3-98e2-9aa758641e7c","system_id":"levelo_inurba_marseille","lat":43.29566,"lon":5.39961,"is_reserved":false,"is_disabled":true,"rental_uris":{"android":"levelo://app?vid=eaba7670-b58d-4da3-98e2-9aa758641e7c","ios":"levelo://app?vid=eaba7670-b58d-4da3-98e2-9aa758641e7c"},"vehicle_type_id":"4","last_reported":1733401148,"current_range_meters":0,"station_id":"ce4bh312rcd13ifvqdj0","pricing_plan_id":"cebpf4jnsgd1na2vs0mg"},{"bike_id":"d9895ff7-d296-4713-ac5a-9706a3a02c35","system_id":"levelo_inurba_marseille","lat":43.27493,"lon":5.42455,"is_reserved":false,"is_disabled":false,"rental_uris":{"android":"levelo://app?vid=d9895ff7-d296-4713-ac5a-9706a3a02c35","ios":"levelo://app?vid=d9895ff7-d296-4713-ac5a-9706a3a02c35"},"vehicle_type_id":"4","last_reported":1733401148,"current_range_meters":8400,"station_id":"ce4bhn92rcd13ifvqgrg","pricing_plan_id":"cebpf4jnsgd1na2vs0mg"},{"bike_id":"916f41cb-968a-4802-9e2e-36969fd59b25","system_id":"levelo_inurba_marseille","lat":43.28101,"lon":5.37843,"is_reserved":false,"is_disabled":false,"rental_uris":{"android":"levelo://app?vid=916f41cb-968a-4802-9e2e-36969fd59b25","ios":"levelo://app?vid=916f41cb-968a-4802-9e2e-36969fd59b25"},"vehicle_type_id":"4","last_reported":1733401148,"current_range_meters":38400,"station_id":"ce4bha12rcd13ifvqee0","pricing_plan_id":"cebpf4jnsgd1na2vs0mg"},