{"last_updated":1707152811,"ttl":30,"version":"2.2","data":{"bikes":[{"bike_id":"0041329d-2dde-4023-8588-62eab3ef52b6","system_id":"levelo_inurba_marseille","lat":43.311125,"lon":5.377624,"is_reserved":false,"is_disabled":false,"rental_uris":{"android":"levelo://app?vid=0041329d-2dde-4023-8588-62eab3ef52b6","ios":"levelo://app?vid=0041329d-2dde-4023-8588-62eab3ef52b6"},"vehicle_type_id":"4","last_reported":1707152811,"current_range_meters":27200,"station_id":"ce4bgt92rcd13ifvqcg0","pricing_plan_id":"free"},{"bike_id":"01004ef5-1c62-43cc-942f-79983314c292","system_id":"levelo_inurba_marseille","lat":43.311125,"lon":5.377624,"is_reserved":false,"is_disabled":false,"rental_uris":{"android":"levelo://app?vid=01004ef5-1c62-43cc-942f-79983314c292","ios":"levelo://app?vid=01004ef5-1c62-43cc-942f-79983314c292"},"vehicle_type_id":"4","last_reported":1707152811,"current_range_meters":3200,"station_id":"ce4bgt92rcd13ifvqcg0","pricing_plan_id":"free"},{"bike_id":"4f23887c-572a-4efe-8029-5e1b6cdbc4af","system_id":"levelo_inurba_marseille","lat":43.31116,"lon":5.37765,"is_reserved":false,"is_disabled":false,"rental_uris":{"android":"levelo://app?vid=4f23887c-572a-4efe-8029-5e1b6cdbc4af","ios":"levelo://app?vid=4f23887c-572a-4efe-8029-5e1b6cdbc4af"},"vehicle_type_id":"4","last_reported":1707152811,"current_range_meters":800,"station_id":"ce4bgt92rcd13ifvqcg0","pricing_plan_id":"free"},{"bike_id":"9f627477-7ccf-4709-b6be-75724d7504d3","system_id":"levelo_inurba_marseille","lat":43.31123,"lon":5.3777,"is_reserved":false,"is_disabled":false,"rental_uris":{"android":"levelo://app?vid=9f627477-7ccf-4709-b6be-75724d7504d3","ios":"levelo://app?vid=9f627477-7ccf-4709-b6be-75724d7504d3"},"vehicle_type_id":"4","last_reported":1707152811,"current_range_meters":30800,"station_id":"ce4bgt92rcd13ifvqcg0","pricing_plan_id":"free"},{"bike_id":"502eb146-ad73-4c2c-8c7c-5cacb12094eb","system_id":"levelo_inurba_marseille","lat":43.311131,"lon":5.377651,"is_reserved":false,"is_disabled":false,"rental_uris":{"android":"levelo://app?vid=502eb146-ad73-4c2c-8c7c-5cacb12094eb","ios":"levelo://app?vid=502eb146-ad73-4c2c-8c7c-5cacb12094eb"},"vehicle_type_id":"4","last_reported":1707152811,"current_range_meters":5200,"station_id":"ce4bgt92rcd13ifvqcg0","pricing_plan_id":"free"},{"bike_id":"acfa8085-d09f-4488-8f13-f023023c8b73","system_id":"levelo_inurba_marseille","lat":43.311131,"lon":5.377651,"is_reserved":false,"is_disabled":false,"rental_uris":{"android":"levelo://app?vid=acfa8085-d09f-4488-8f13-f023023c8b73","ios":"levelo://app?vid=acfa8085-d09f-4488-8f13-f023023c8b73"},"vehicle_type_id":"4","last_reported":1707152811,"current_range_meters":24000,"station_id":"ce4bgt92rcd13ifvqcg0","pricing_plan_id":"free"},{"bike_id":"5d15c898-e361-4437-86f7-777ef21c6dcc","system_id":"levelo_inurba_marseille","lat":43.311131,"lon":5.377651,"is_reserved":false,"is_disabled":false,"rental_uris":{"android":"levelo://app?vid=5d15c898-e361-4437-86f7-777ef21c6dcc","ios":"levelo://app?vid=5d15c898-e361-4437-86f7-777ef21c6dcc"},"vehicle_type_id":"4","last_reported":1707152811,"current_range_meters":19600,"station_id":"ce4bgt92rcd13ifvqcg0","pricing_plan_id":"free"},{"bike_id":"65e7e5e4-e984-4573-a311-4b70b2ce6ac5","system_id":"levelo_inurba_marseille","lat":43.31097,"lon":5.37826,"is_reserved":false,"is_disabled":false,"rental_uris":{"android":"levelo://app?vid=65e7e5e4-e984-4573-a311-4b70b2ce6ac5","ios":"levelo://app?vid=65e7e5e4-e984-4573-a311-4b70b2ce6ac5"},"vehicle_type_id":"4","last_reported":1707152811,"current_range_meters":25600,"station_id":"","pricing_plan_id":"free"},{"bike_id":"ba0d1443-55ba-44c1-a7ee-9cdcb81b199c","system_id":"levelo_inurba_marseille","lat":43.307945,"lon":5.376487,"is_reserved":false,"is_disabled":false,"rental_uris":{"android":"levelo://app?vid=ba0d1443-55ba-44c1-a7ee-9cdcb81b199c","ios":"levelo://app?vid=ba0d1443-55ba-44c1-a7ee-9cdcb81b199c"},"vehicle_type_id":"4","last_reported":1707152811,"current_range_meters":2400,"station_id":"ce4bgv92rcd13ifvqcq0","pricing_plan_id":"free"},{"bike_id":"b8ab1b77-626d-4109-94c5-63c4c7eaad67","system_id":"levelo_inurba_marseille","lat":43.307945,"lon":5.376487,"is_reserved":false,"is_disabled":false,"rental_uris":{"android":"levelo://app?vid=b8ab1b77-626d-4109-94c5-63c4c7eaad67","ios":"levelo://app?vid=b8ab1b77-626d-4109-94c5-63c4c7eaad67"},"vehicle_type_id":"4","last_reported":1707152811,"current_range_meters":28400,"station_id":"ce4bgv92rcd13ifvqcq0","pricing_plan_id":"free"},{"bike_id":"061fa744-fcc9-4541-9209-21fbcda1f72d","system_id":"levelo_inurba_marseille","lat":43.317075,"lon":5.377367,"is_reserved":false,"is_disabled":false,"rental_uris":{"android":"levelo://app?vid=061fa744-fcc9-4541-9209-21fbcda1f72d","ios":"levelo://app?vid=061fa744-fcc9-4541-9209-21fbcda1f72d"},"vehicle_type_id":"4","last_reported":1707152811,"current_range_meters":29200,"station_id":"ce4bgth2rcd13ifvqch0","pricing_plan_id":"free"},{"bike_id":"388b5f1f-2f4d-466b-a617-3aa592eb5ce5","system_id":"levelo_inurba_marseille","lat":43.315293,"lon":5.380349,"is_reserved":false,"is_disabled":false,"rental_uris":{"android":"levelo://app?vid=388b5f1f-2f4d-466b-a617-3aa592eb5ce5","ios":"levelo://app?vid=388b5f1f-2f4d-466b-a617-3aa592eb5ce5"},"vehicle_type_id":"4","last_reported":1707152811,"current_range_meters":30400,"station_id":"ce4bhsp2rcd13ifvqi50","pricing_plan_id":"free"},{"bike_id":"8d49219c-f4eb-467d-9693-96a2a761d47d","system_id":"levelo_inurba_marseille","lat":43.301939,"lon":5.366286,"is_reserved":false,"is_disabled":false,"rental_uris":{"android":"levelo://app?vid=8d49219c-f4eb-467d-9693-96a2a761d47d","ios":"levelo://app?vid=8d49219c-f4eb-467d-9693-96a2a761d47d"},"vehicle_type_id":"4","last_reported":1707152811,"current_range_meters":17600,"station_id":"ce4bgrh2rcd13ifvqc8g","pricing_plan_id":"free"},{"bike_id":"310fe5d9-9669-477b-8682-0885352c7289","system_id":"levelo_inurba_marseille","lat":43.304606,"lon":5.379026,"is_reserved":false,"is_disabled":false,"rental_uris":{"android":"levelo://app?vid=310fe5d9-9669-477b-8682-0885352c7289","ios":"levelo://app?vid=310fe5d9-9669-477b-8682-0885352c7289"},"vehicle_type_id":"4","last_reported":1707152811,"current_range_meters":10400,"station_id":"ce4bgup2rcd13ifvqcn0","pricing_plan_id":"free"},{"bike_id":"763d6671-684c-4771-ad4b-9ca6d3ba2c3f","system_id":"levelo_inurba_marseille","lat":43.30279,"lon":5.37701,"is_reserved":false,"is_disabled":false,"rental_uris":{"android":"levelo://app?vid=763d6671-684c-4771-ad4b-9ca6d3ba2c3f","ios":"levelo://app?vid=763d6671-684c-4771-ad4b-9ca6d3ba2c3f"},"vehicle_type_id":"4","last_reported":1707152811,"current_range_meters":1200,"station_id":"ce4bguh2rcd13ifvqcj0","pricing_plan_id":"free"},{"bike_id":"2dfa78a2-02fa-4069-969c-aa9333645c63","system_id":"levelo_inurba_marseille","lat":43.30275,"lon":5.37706,"is_reserved":false,"is_disabled":false,"rental_uris":{"android":"levelo://app?vid=2dfa78a2-02fa-4069-969c-aa9333645c63","ios":"levelo://app?vid=2dfa78a2-02fa-4069-969c-aa9333645c63"},"vehicle_type_id":"4","last_reported":1707152811,"current_range_meters":4800,"station_id":"ce4bguh2rcd13ifvqcj0","pricing_plan_id":"free"},{"bike_id":"1cdc8df9-000e-4e0e-a6f3-f37b19fd07b2","system_id":"levelo_inurba_marseille","lat":43.31988,"lon":5.38144,"is_reserved":false,"is_disabled":false,"rental_uris":{"android":"levelo://app?vid=1cdc8df9-000e-4e0e-a6f3-f37b19fd07b2","ios":"levelo://app?vid=1cdc8df9-000e-4e0e-a6f3-f37b19fd07b2"},"vehicle_type_id":"4","last_reported":1707152811,"current_range_meters":1600,"station_id":"ce4bhr12rcd13ifvqhpg","pricing_plan_id":"free"},{"bike_id":"9e5f42d3-629d-4fb0-bb60-c5175281e715","system_id":"levelo_inurba_marseille","lat":43.31991,"lon":5.38145,"is_reserved":false,"is_disabled":false,"rental_uris":{"android":"levelo://app?vid=9e5f42d3-629d-4fb0-bb60-c5175281e715","ios":"levelo://app?vid=9e5f42d3-629d-4fb0-bb60-c5175281e715"},"vehicle_type_id":"4","last_reported":1707152811,"current_range_meters":6400,"station_id":"ce4bhr12rcd13ifvqhpg","pricing_plan_id":"free"},{"bike_id":"12ce1b51-e513-48d4-8826-d38689553faa","system_id":"levelo_inurba_marseille","lat":43.31998,"lon":5.38152,"is_reserved":false,"is_disabled":false,"rental_uris":{"android":"levelo://app?vid=12ce1b51-e513-48d4-8826-d38689553faa","ios":"levelo://app?vid=12ce1b51-e513-48d4-8826-d38689553faa"},"vehicle_type_id":"4","last_reported":1707152811,"current_range_meters":2400,"station_id":"ce4bhr12rcd13ifvqhpg","pricing_plan_id":"free"},{"bike_id":"3a073ec4-9b86-425b-83fd-9731bccea806","system_id":"levelo_inurba_marseille","lat":43.31365,"lon":5.38491,"is_reserved":false,"is_disabled":false,"rental_uris":{"android":"levelo://app?vid=3a073ec4-9b86-425b-83fd-9731bccea806","ios":"levelo://app?vid=3a073ec4-9b86-425b-83fd-9731bccea806"},"vehicle_type_id":"4","last_reported":1707152811,"current_range_meters":2000,"station_id":"ce4bgt92rcd13ifvqcf0","pricing_plan_id":"free"},{"bike_id":"b4201452-e1ae-4010-a5b1-a4078b4c86d2","system_id":"levelo_inurba_marseille","lat":43.313571,"lon":5.384829,"is_reserved":false,"is_disabled":false,"rental_uris":{"android":"levelo://app?vid=b4201452-e1ae-4010-a5b1-a4078b4c86d2","ios":"levelo://app?vid=b4201452-e1ae-4010-a5b1-a4078b4c86d2"},"vehicle_type_id":"4","last_reported":1707152811,"current_range_meters":5600,"station_id":"ce4bgt92rcd13ifvqcf0","pricing_plan_id":"free"},{"bike_id":"32eda076-1786-42f4-afe0-bfb813c4e2a1","system_id":"levelo_inurba_marseille","lat":43.313571,"lon":5.384829,"is_reserved":false,"is_disabled":false,"rental_uris":{"android":"levelo://app?vid=32eda076-1786-42f4-afe0-bfb813c4e2a1","ios":"levelo://app?vid=32eda076-1786-42f4-afe0-bfb813c4e2a1"},"vehicle_type_id":"4","last_reported":1707152811,"current_range_meters":24800,"station_id":"ce4bgt92rcd13ifvqcf0","pricing_plan_id":"free"},{"bike_id":"972ed874-e0c6-4c5b-a2d3-b2b9f3dddb87","system_id":"levelo_inurba_marseille","lat":43.299724,"lon":5.371829,"is_reserved":false,"is_disabled":false,"rental_uris":{"android":"levelo://app?vid=972ed874-e0c6-4c5b-a2d3-b2b9f3dddb87","ios":"levelo://app?vid=972ed874-e0c6-4c5b-a2d3-b2b9f3dddb87"},"vehicle_type_id":"4","last_reported":1707152811,"current_range_meters":18400,"station_id":"ce4bgr92rcd13ifvqc7g","pricing_plan_id":"free"},{"bike_id":"d73908e2-2bfd-489b-804e-d4e95fac72d2","system_id":"levelo_inurba_marseille","lat":43.326525,"lon":5.36078,"is_reserved":false,"is_disabled":false,"rental_uris":{"android":"levelo://app?vid=d73908e2-2bfd-489b-804e-d4e95fac72d2","ios":"levelo://app?vid=d73908e2-2bfd-489b-804e-d4e95fac72d2"},"vehicle_type_id":"4","last_reported":1707152811,"current_range_meters":17600,"station_id":"","pricing_plan_id":"free"},{"bike_id":"f8c27ab4-efda-458f-963c-8fdd8561849e","system_id":"levelo_inurba_marseille","lat":43.298433,"lon":5.362774,"is_reserved":false,"is_disabled":false,"rental_uris":{"android":"levelo://app?vid=f8c27ab4-efda-458f-963c-8fdd8561849e","ios":"levelo://app?vid=f8c27ab4-efda-458f-963c-8fdd8561849e"},"vehicle_type_id":"4","last_reported":1707152811,"current_range_meters":31600,"station_id":"ce4bgpp2rcd13ifvqc3g","pricing_plan_id":"free"},{"bike_id":"9f27ae4b-e816-4af3-995c-d587809c7376","system_id":"levelo_inurba_marseille","lat":43.298433,"lon":5.362774,"is_reserved":false,"is_disabled":false,"rental_uris":{"android":"levelo://app?vid=9f27ae4b-e816-4af3-995c-d587809c7376","ios":"levelo://app?vid=9f27ae4b-e816-4af3-995c-d587809c7376"},"vehicle_type_id":"4","last_reported":1707152811,"current_range_meters":10000,"station_id":"ce4bgpp2rcd13ifvqc3g","pricing_plan_id":"free"},{"bike_id":"54f11867-c1e8-43ce-83c5-a112f034cede","system_id":"levelo_inurba_marseille","lat":43.298433,"lon":5.362774,"is_reserved":false,"is_disabled":false,"rental_uris":{"android":"levelo://app?vid=54f11867-c1e8-43ce-83c5-a112f034cede","ios":"levelo://app?vid=54f11867-c1e8-43ce-83c5-a112f034cede"},"vehicle_type_id":"4","last_reported":1707152811,"current_range_meters":31200,"station_id":"ce4bgpp2rcd13ifvqc3g","pricing_plan_id":"free"},{"bike_id":"93b89294-4162-4c6c-ad08-e16c01d17176","system_id":"levelo_inurba_marseille","lat":43.298433,"lon":5.362774,"is_reserved":false,"is_disabled":false,"rental_uris":{"android":"levelo://app?vid=93b89294-4162-4c6c-ad08-e16c01d17176","ios":"levelo://app?vid=93b89294-4162-4c6c-ad08-e16c01d17176"},"vehicle_type_id":"4","last_reported":1707152811,"current_range_meters":18800,"station_id":"ce4bgpp2rcd13ifvqc3g","pricing_plan_id":"free"},{"bike_id":"4b256703-079d-49dc-8d08-40f2fce92eba","system_id":"levelo_inurba_marseille","lat":43.299243,"lon":5.374807,"is_reserved":false,"is_disabled":false,"rental_uris":{"android":"levelo://app?vid=4b256703-079d-49dc-8d08-40f2fce92eba","ios":"levelo://app?vid=4b256703-079d-49dc-8d08-40f2fce92eba"},"vehicle_type_id":"4","last_reported":1707152811,"current_range_meters":18400,"station_id":"ce4bgjh2rcd13ifvqbg0","pricing_plan_id":"free"},{"bike_id":"552a1e99-bb25-49d3-9569-0f23b5d6bb35","system_id":"levelo_inurba_marseille","lat":43.311722,"lon":5.387247,"is_reserved":false,"is_disabled":false,"rental_uris":{"android":"levelo://app?vid=552a1e99-bb25-49d3-9569-0f23b5d6bb35","ios":"levelo://app?vid=552a1e99-bb25-49d3-9569-0f23b5d6bb35"},"vehicle_type_id":"4","last_reported":1707152811,"current_range_meters":18400,"station_id":"ce4bgv12rcd13ifvqcp0","pricing_plan_id":"free"},{"bike_id":"642b6707-55dc-499a-96df-e1892771c3ea","system_id":"levelo_inurba_marseille","lat":43.322872,"lon":5.382756,"is_reserved":false,"is_disabled":false,"rental_uris":{"android":"levelo://app?vid=642b6707-55dc-499a-96df-e1892771c3ea","ios":"levelo://app?vid=642b6707-55dc-499a-96df-e1892771c3ea"},"vehicle_type_id":"4","last_reported":1707152811,"current_range_meters":12000,"station_id":"ce4bhr12rcd13ifvqhqg","pricing_plan_id":"free"},{"bike_id":"067f66e1-9b81-4458-bb45-5c10a4329356","system_id":"levelo_inurba_marseille","lat":43.322872,"lon":5.382756,"is_reserved":false,"is_disabled":false,"rental_uris":{"android":"levelo://app?vid=067f66e1-9b81-4458-bb45-5c10a4329356","ios":"levelo://app?vid=067f66e1-9b81-4458-bb45-5c10a4329356"},"vehicle_type_id":"4","last_reported":1707152811,"current_range_meters":32000,"station_id":"ce4bhr12rcd13ifvqhqg","pricing_plan_id":"free"},{"bike_id":"acb0b184-9bf5-46e1-94e9-e996216dd8a0","system_id":"levelo_inurba_marseille","lat":43.322872,"lon":5.382756,"is_reserved":false,"is_disabled":false,"rental_uris":{"android":"levelo://app?vid=acb0b184-9bf5-46e1-94e9-e996216dd8a0","ios":"levelo://app?vid=acb0b184-9bf5-46e1-94e9-e996216dd8a0"},"vehicle_type_id":"4","last_reported":1707152811,"current_range_meters":30000,"station_id":"ce4bhr12rcd13ifvqhqg","pricing_plan_id":"free"},{"bike_id":"1900e2ea-9239-49b1-933e-57903fa99707","system_id":"levelo_inurba_marseille","lat":43.32826,"lon":5.36695,"is_reserved":false,"is_disabled":false,"rental_uris":{"android":"levelo://app?vid=1900e2ea-9239-49b1-933e-57903fa99707","ios":"levelo://app?vid=1900e2ea-9239-49b1-933e-57903fa99707"},"vehicle_type_id":"4","last_reported":1707152811,"current_range_meters":6400,"station_id":"ce4bhs92rcd13ifvqi0g","pricing_plan_id":"free"},{"bike_id":"3e6efb16-6e49-4b89-b012-9d6b2f37de72","system_id":"levelo_inurba_marseille","lat":43.32826,"lon":5.36679,"is_reserved":false,"is_disabled":false,"rental_uris":{"android":"levelo://app?vid=3e6efb16-6e49-4b89-b012-9d6b2f37de72","ios":"levelo://app?vid=3e6efb16-6e49-4b89-b012-9d6b2f37de72"},"vehicle_type_id":"4","last_reported":1707152811,"current_range_meters":15200,"station_id":"ce4bhs92rcd13ifvqi0g","pricing_plan_id":"free"},{"bike_id":"36243836-0b62-45d5-b00e-078a5c9e3add","system_id":"levelo_inurba_marseille","lat":43.32829,"lon":5.36677,"is_reserved":false,"is_disabled":false,"rental_uris":{"android":"levelo://app?vid=36243836-0b62-45d5-b00e-078a5c9e3add","ios":"levelo://app?vid=36243836-0b62-45d5-b00e-078a5c9e3add"},"vehicle_type_id":"4","last_reported":1707152811,"current_range_meters":10000,"station_id":"ce4bhs92rcd13ifvqi0g","pricing_plan_id":"free"},{"bike_id":"38a8c636-7425-4097-bc40-b291d23dba1f","system_id":"levelo_inurba_marseille","lat":43.328371,"lon":5.366912,"is_reserved":false,"is_disabled":false,"rental_uris":{"android":"levelo://app?vid=38a8c636-7425-4097-bc40-b291d23dba1f","ios":"levelo://app?vid=38a8c636-7425-4097-bc40-b291d23dba1f"},"vehicle_type_id":"4","last_reported":1707152811,"current_range_meters":17600,"station_id":"ce4bhs92rcd13ifvqi0g","pricing_plan_id":"free"},{"bike_id":"62aabb2b-c9f9-48ea-a3a4-e4eb79305b81","system_id":"levelo_inurba_marseille","lat":43.328371,"lon":5.366909,"is_reserved":false,"is_disabled":false,"rental_uris":{"android":"levelo://app?vid=62aabb2b-c9f9-48ea-a3a4-e4eb79305b81","ios":"levelo://app?vid=62aabb2b-c9f9-48ea-a3a4-e4eb79305b81"},"vehicle_type_id":"4","last_reported":1707152811,"current_range_meters":8400,"station_id":"ce4bhs92rcd13ifvqi0g","pricing_plan_id":"free"},{"bike_id":"94d3709f-8b10-4319-bb02-351e4303d0ae","system_id":"levelo_inurba_marseille","lat":43.29707,"lon":5.36612,"is_reserved":false,"is_disabled":false,"rental_uris":{"android":"levelo://app?vid=94d3709f-8b10-4319-bb02-351e4303d0ae","ios":"levelo://app?vid=94d3709f-8b10-4319-bb02-351e4303d0ae"},"vehicle_type_id":"4","last_reported":1707152811,"current_range_meters":12000,"station_id":"ce4bgn12rcd13ifvqbt0","pricing_plan_id":"free"},{"bike_id":"c749b35c-5508-4f13-b318-fcf90d74caf6","system_id":"levelo_inurba_marseille","lat":43.29697,"lon":5.36606,"is_reserved":false,"is_disabled":false,"rental_uris":{"android":"levelo://app?vid=c749b35c-5508-4f13-b318-fcf90d74caf6","ios":"levelo://app?vid=c749b35c-5508-4f13-b318-fcf90d74caf6"},"vehicle_type_id":"4","last_reported":1707152811,"current_range_meters":3200,"station_id":"ce4bgn12rcd13ifvqbt0","pricing_plan_id":"free"},{"bike_id":"98fb478c-2c90-4367-b2fe-e3ba20dfacae","system_id":"levelo_inurba_marseille","lat":43.314901,"lon":5.388921,"is_reserved":false,"is_disabled":false,"rental_uris":{"android":"levelo://app?vid=98fb478c-2c90-4367-b2fe-e3ba20dfacae","ios":"levelo://app?vid=98fb478c-2c90-4367-b2fe-e3ba20dfacae"},"vehicle_type_id":"4","last_reported":1707152811,"current_range_meters":26000,"station_id":"","pricing_plan_id":"free"},{"bike_id":"2ca7ba9d-7b9f-4c53-b816-f7a3b23de4b4","system_id":"levelo_inurba_marseille","lat":43.297781,"lon":5.375384,"is_reserved":false,"is_disabled":false,"rental_uris":{"android":"levelo://app?vid=2ca7ba9d-7b9f-4c53-b816-f7a3b23de4b4","ios":"levelo://app?vid=2ca7ba9d-7b9f-4c53-b816-f7a3b23de4b4"},"vehicle_type_id":"4","last_reported":1707152811,"current_range_meters":16000,"station_id":"","pricing_plan_id":"free"},{"bike_id":"2865ebc4-913c-41b4-bcb7-13a7268f8e1e","system_id":"levelo_inurba_marseille","lat":43.2968,"lon":5.37291,"is_reserved":false,"is_disabled":false,"rental_uris":{"android":"levelo://app?vid=2865ebc4-913c-41b4-bcb7-13a7268f8e1e","ios":"levelo://app?vid=2865ebc4-913c-41b4-bcb7-13a7268f8e1e"},"vehicle_type_id":"4","last_reported":1707152811,"current_range_meters":1200,"station_id":"ce4bgk12rcd13ifvqbj0","pricing_plan_id":"free"},{"bike_id":"0b398aeb-75ba-49a0-aa3a-b205a05a8c21","system_id":"levelo_inurba_marseille","lat":43.296921,"lon":5.376579,"is_reserved":false,"is_disabled":false,"rental_uris":{"android":"levelo://app?vid=0b398aeb-75ba-49a0-aa3a-b205a05a8c21","ios":"levelo://app?vid=0b398aeb-75ba-49a0-aa3a-b205a05a8c21"},"vehicle_type_id":"4","last_reported":1707152811,"current_range_meters":10000,"station_id":"ce4bgkh2rcd13ifvqbl0","pricing_plan_id":"free"},{"bike_id":"19fecb2b-4c91-482a-9080-c83a420e9ddf","system_id":"levelo_inurba_marseille","lat":43.309589,"lon":5.390258,"is_reserved":false,"is_disabled":false,"rental_uris":{"android":"levelo://app?vid=19fecb2b-4c91-482a-9080-c83a420e9ddf","ios":"levelo://app?vid=19fecb2b-4c91-482a-9080-c83a420e9ddf"},"vehicle_type_id":"4","last_reported":1707152811,"current_range_meters":16000,"station_id":"ce4bgup2rcd13ifvqco0","pricing_plan_id":"free"},{"bike_id":"4bb9d2ef-929a-47e9-a9e8-dd4c5d73646f","system_id":"levelo_inurba_marseille","lat":43.29713,"lon":5.3769,"is_reserved":false,"is_disabled":false,"rental_uris":{"android":"levelo://app?vid=4bb9d2ef-929a-47e9-a9e8-dd4c5d73646f","ios":"levelo://app?vid=4bb9d2ef-929a-47e9-a9e8-dd4c5d73646f"},"vehicle_type_id":"4","last_reported":1707152811,"current_range_meters":17600,"station_id":"ce4bgkh2rcd13ifvqbl0","pricing_plan_id":"free"},{"bike_id":"37e86985-817f-4e3c-93c4-c15229bd8cae","system_id":"levelo_inurba_marseille","lat":43.31757,"lon":5.39015,"is_reserved":false,"is_disabled":false,"rental_uris":{"android":"levelo://app?vid=37e86985-817f-4e3c-93c4-c15229bd8cae","ios":"levelo://app?vid=37e86985-817f-4e3c-93c4-c15229bd8cae"},"vehicle_type_id":"4","last_reported":1707152811,"current_range_meters":9600,"station_id":"ce4bhqp2rcd13ifvqhng","pricing_plan_id":"free"},{"bike_id":"bf5596bb-afb2-46d3-93c4-a5572d7667f8","system_id":"levelo_inurba_marseille","lat":43.317586,"lon":5.390199,"is_reserved":false,"is_disabled":false,"rental_uris":{"android":"levelo://app?vid=bf5596bb-afb2-46d3-93c4-a5572d7667f8","ios":"levelo://app?vid=bf5596bb-afb2-46d3-93c4-a5572d7667f8"},"vehicle_type_id":"4","last_reported":1707152811,"current_range_meters":31200,"station_id":"ce4bhqp2rcd13ifvqhng","pricing_plan_id":"free"},{"bike_id":"ef135cbb-e1f8-4db9-b6ad-6590e964c357","system_id":"levelo_inurba_marseille","lat":43.31759,"lon":5.3902,"is_reserved":false,"is_disabled":false,"rental_uris":{"android":"levelo://app?vid=ef135cbb-e1f8-4db9-b6ad-6590e964c357","ios":"levelo://app?vid=ef135cbb-e1f8-4db9-b6ad-6590e964c357"},"vehicle_type_id":"4","last_reported":1707152811,"current_range_meters":12400,"station_id":"ce4bhqp2rcd13ifvqhng","pricing_plan_id":"free"},{"bike_id":"40a85205-af79-43c2-bdc9-257280312aae","system_id":"levelo_inurba_marseille","lat":43.317576,"lon":5.390238,"is_reserved":false,"is_disabled":false,"rental_uris":{"android":"levelo://app?vid=40a85205-af79-43c2-bdc9-257280312aae","ios":"levelo://app?vid=40a85205-af79-43c2-bdc9-257280312aae"},"vehicle_type_id":"4","last_reported":1707152811,"current_range_meters":24000,"station_id":"ce4bhqp2rcd13ifvqhng","pricing_plan_id":"free"},{"bike_id":"1033b78d-f901-4cfa-8cae-54cb1e173be4","system_id":"levelo_inurba_marseille","lat":43.317579,"lon":5.390269,"is_reserved":false,"is_disabled":false,"rental_uris":{"android":"levelo://app?vid=1033b78d-f901-4cfa-8cae-54cb1e173be4","ios":"levelo://app?vid=1033b78d-f901-4cfa-8cae-54cb1e173be4"},"vehicle_type_id":"4","last_reported":1707152811,"current_range_meters":26000,"station_id":"ce4bhqp2rcd13ifvqhng","pricing_plan_id":"free"},{"bike_id":"c6654a6e-7b8d-4eae-bd7b-e2b0722bbbab","system_id":"levelo_inurba_marseille","lat":43.304278,"lon":5.388868,"is_reserved":false,"is_disabled":false,"rental_uris":{"android":"levelo://app?vid=c6654a6e-7b8d-4eae-bd7b-e2b0722bbbab","ios":"levelo://app?vid=c6654a6e-7b8d-4eae-bd7b-e2b0722bbbab"},"vehicle_type_id":"4","last_reported":1707152811,"current_range_meters":19600,"station_id":"ce4bgk12rcd13ifvqbi0","pricing_plan_id":"free"},{"bike_id":"f7de41fd-284d-43a9-9b86-17b07d4de877","system_id":"levelo_inurba_marseille","lat":43.298037,"lon":5.381066,"is_reserved":false,"is_disabled":false,"rental_uris":{"android":"levelo://app?vid=f7de41fd-284d-43a9-9b86-17b07d4de877","ios":"levelo://app?vid=f7de41fd-284d-43a9-9b86-17b07d4de877"},"vehicle_type_id":"4","last_reported":1707152811,"current_range_meters":0,"station_id":"ce4bgip2rcd13ifvqbb0","pricing_plan_id":"free"},{"bike_id":"e0ad2a86-5883-41e5-8e72-ef14b0eb03c7","system_id":"levelo_inurba_marseille","lat":43.30427,"lon":5.38886,"is_reserved":false,"is_disabled":false,"rental_uris":{"android":"levelo://app?vid=e0ad2a86-5883-41e5-8e72-ef14b0eb03c7","ios":"levelo://app?vid=e0ad2a86-5883-41e5-8e72-ef14b0eb03c7"},"vehicle_type_id":"4","last_reported":1707152811,"current_range_meters":4400,"station_id":"ce4bgk12rcd13ifvqbi0","pricing_plan_id":"free"},{"bike_id":"78debfaa-9ad7-4b03-9456-54401401b027","system_id":"levelo_inurba_marseille","lat":43.304274,"lon":5.388873,"is_reserved":false,"is_disabled":false,"rental_uris":{"android":"levelo://app?vid=78debfaa-9ad7-4b03-9456-54401401b027","ios":"levelo://app?vid=78debfaa-9ad7-4b03-9456-54401401b027"},"vehicle_type_id":"4","last_reported":1707152811,"current_range_meters":4800,"station_id":"ce4bgk12rcd13ifvqbi0","pricing_plan_id":"free"},{"bike_id":"e5084e21-80a0-470a-810a-be305af042f9","system_id":"levelo_inurba_marseille","lat":43.30437,"lon":5.38897,"is_reserved":false,"is_disabled":false,"rental_uris":{"android":"levelo://app?vid=e5084e21-80a0-470a-810a-be305af042f9","ios":"levelo://app?vid=e5084e21-80a0-470a-810a-be305af042f9"},"vehicle_type_id":"4","last_reported":1707152811,"current_range_meters":20400,"station_id":"ce4bgk12rcd13ifvqbi0","pricing_plan_id":"free"},{"bike_id":"32e40e39-75d8-46c7-9b6e-854ad700f145","system_id":"levelo_inurba_marseille","lat":43.296277,"lon":5.377108,"is_reserved":false,"is_disabled":false,"rental_uris":{"android":"levelo://app?vid=32e40e39-75d8-46c7-9b6e-854ad700f145","ios":"levelo://app?vid=32e40e39-75d8-46c7-9b6e-854ad700f145"},"vehicle_type_id":"4","last_reported":1707152811,"current_range_meters":20400,"station_id":"ce4bgi92rcd13ifvqb90","pricing_plan_id":"free"},{"bike_id":"0a87bc06-a3cd-4a5f-b23d-9832959c58b2","system_id":"levelo_inurba_marseille","lat":43.296267,"lon":5.377317,"is_reserved":false,"is_disabled":false,"rental_uris":{"android":"levelo://app?vid=0a87bc06-a3cd-4a5f-b23d-9832959c58b2","ios":"levelo://app?vid=0a87bc06-a3cd-4a5f-b23d-9832959c58b2"},"vehicle_type_id":"4","last_reported":1707152811,"current_range_meters":22800,"station_id":"ce4bgi92rcd13ifvqb90","pricing_plan_id":"free"},{"bike_id":"8067fe25-a85a-47a8-b181-477153cafaf7","system_id":"levelo_inurba_marseille","lat":43.29602,"lon":5.381084,"is_reserved":false,"is_disabled":false,"rental_uris":{"android":"levelo://app?vid=8067fe25-a85a-47a8-b181-477153cafaf7","ios":"levelo://app?vid=8067fe25-a85a-47a8-b181-477153cafaf7"},"vehicle_type_id":"4","last_reported":1707152811,"current_range_meters":30000,"station_id":"ce4bgl12rcd13ifvqbo0","pricing_plan_id":"free"},{"bike_id":"76d00fd2-0d73-4130-8a9f-a25acc293de2","system_id":"levelo_inurba_marseille","lat":43.299707,"lon":5.384859,"is_reserved":false,"is_disabled":false,"rental_uris":{"android":"levelo://app?vid=76d00fd2-0d73-4130-8a9f-a25acc293de2","ios":"levelo://app?vid=76d00fd2-0d73-4130-8a9f-a25acc293de2"},"vehicle_type_id":"4","last_reported":1707152811,"current_range_meters":3600,"station_id":"ce4bgj92rcd13ifvqbd0","pricing_plan_id":"free"},{"bike_id":"f0106d23-18dd-4d7f-9d18-8e51ce299ece","system_id":"levelo_inurba_marseille","lat":43.295305,"lon":5.374952,"is_reserved":false,"is_disabled":false,"rental_uris":{"android":"levelo://app?vid=f0106d23-18dd-4d7f-9d18-8e51ce299ece","ios":"levelo://app?vid=f0106d23-18dd-4d7f-9d18-8e51ce299ece"},"vehicle_type_id":"4","last_reported":1707152811,"current_range_meters":17200,"station_id":"ce4bgkp2rcd13ifvqbmg","pricing_plan_id":"free"},{"bike_id":"dc2ea094-da3f-4d23-b9da-d8d82718b924","system_id":"levelo_inurba_marseille","lat":43.299717,"lon":5.384845,"is_reserved":false,"is_disabled":false,"rental_uris":{"android":"levelo://app?vid=dc2ea094-da3f-4d23-b9da-d8d82718b924","ios":"levelo://app?vid=dc2ea094-da3f-4d23-b9da-d8d82718b924"},"vehicle_type_id":"4","last_reported":1707152811,"current_range_meters":2000,"station_id":"ce4bgj92rcd13ifvqbd0","pricing_plan_id":"free"},{"bike_id":"24a84e46-9dc4-4d4b-a3e6-927ccdadfd66","system_id":"levelo_inurba_marseille","lat":43.299724,"lon":5.384848,"is_reserved":false,"is_disabled":false,"rental_uris":{"android":"levelo://app?vid=24a84e46-9dc4-4d4b-a3e6-927ccdadfd66","ios":"levelo://app?vid=24a84e46-9dc4-4d4b-a3e6-927ccdadfd66"},"vehicle_type_id":"4","last_reported":1707152811,"current_range_meters":400,"station_id":"ce4bgj92rcd13ifvqbd0","pricing_plan_id":"free"},{"bike_id":"df8d39fa-5c65-4e59-a730-c27397ebbd08","system_id":"levelo_inurba_marseille","lat":43.29706,"lon":5.38116,"is_reserved":false,"is_disabled":false,"rental_uris":{"android":"levelo://app?vid=df8d39fa-5c65-4e59-a730-c27397ebbd08","ios":"levelo://app?vid=df8d39fa-5c65-4e59-a730-c27397ebbd08"},"vehicle_type_id":"4","last_reported":1707152811,"current_range_meters":14400,"station_id":"","pricing_plan_id":"free"},{"bike_id":"a7142dde-bab3-4a7f-ad9b-02c226d55d4b","system_id":"levelo_inurba_marseille","lat":43.29602,"lon":5.381084,"is_reserved":false,"is_disabled":false,"rental_uris":{"android":"levelo://app?vid=a7142dde-bab3-4a7f-ad9b-02c226d55d4b","ios":"levelo://app?vid=a7142dde-bab3-4a7f-ad9b-02c226d55d4b"},"vehicle_type_id":"4","last_reported":1707152811,"current_range_meters":11600,"station_id":"ce4bgl12rcd13ifvqbo0","pricing_plan_id":"free"},{"bike_id":"16844f7d-7526-4e21-b115-33d944dd22b2","system_id":"levelo_inurba_marseille","lat":43.292749,"lon":5.368402,"is_reserved":false,"is_disabled":false,"rental_uris":{"android":"levelo://app?vid=16844f7d-7526-4e21-b115-33d944dd22b2","ios":"levelo://app?vid=16844f7d-7526-4e21-b115-33d944dd22b2"},"vehicle_type_id":"4","last_reported":1707152811,"current_range_meters":18400,"station_id":"ce4bhbp2rcd13ifvqesg","pricing_plan_id":"free"},{"bike_id":"1bea7287-997c-4c4f-9ca6-18a774e87bf4","system_id":"levelo_inurba_marseille","lat":43.293009,"lon":5.374584,"is_reserved":false,"is_disabled":false,"rental_uris":{"android":"levelo://app?vid=1bea7287-997c-4c4f-9ca6-18a774e87bf4","ios":"levelo://app?vid=1bea7287-997c-4c4f-9ca6-18a774e87bf4"},"vehicle_type_id":"4","last_reported":1707152811,"current_range_meters":6800,"station_id":"ce4bgi12rcd13ifvqb70","pricing_plan_id":"free"},{"bike_id":"0ba92ef9-8023-4a9d-a949-6fe28c7241ce","system_id":"levelo_inurba_marseille","lat":43.305994,"lon":5.393687,"is_reserved":false,"is_disabled":false,"rental_uris":{"android":"levelo://app?vid=0ba92ef9-8023-4a9d-a949-6fe28c7241ce","ios":"levelo://app?vid=0ba92ef9-8023-4a9d-a949-6fe28c7241ce"},"vehicle_type_id":"4","last_reported":1707152811,"current_range_meters":17600,"station_id":"ce4bh0p2rcd13ifvqd80","pricing_plan_id":"free"},{"bike_id":"4ba6350f-26a6-4413-9607-07a05fec41c5","system_id":"levelo_inurba_marseille","lat":43.305994,"lon":5.393687,"is_reserved":false,"is_disabled":false,"rental_uris":{"android":"levelo://app?vid=4ba6350f-26a6-4413-9607-07a05fec41c5","ios":"levelo://app?vid=4ba6350f-26a6-4413-9607-07a05fec41c5"},"vehicle_type_id":"4","last_reported":1707152811,"current_range_meters":17600,"station_id":"ce4bh0p2rcd13ifvqd80","pricing_plan_id":"free"},{"bike_id":"ffdff2f7-ec6f-425d-92f0-7b33c4400356","system_id":"levelo_inurba_marseille","lat":43.293009,"lon":5.374584,"is_reserved":false,"is_disabled":false,"rental_uris":{"android":"levelo://app?vid=ffdff2f7-ec6f-425d-92f0-7b33c4400356","ios":"levelo://app?vid=ffdff2f7-ec6f-425d-92f0-7b33c4400356"},"vehicle_type_id":"4","last_reported":1707152811,"current_range_meters":26400,"station_id":"ce4bgi12rcd13ifvqb70","pricing_plan_id":"free"},{"bike_id":"509f8e05-a440-47ba-bb8c-7aa38d491c15","system_id":"levelo_inurba_marseille","lat":43.30085,"lon":5.390856,"is_reserved":false,"is_disabled":false,"rental_uris":{"android":"levelo://app?vid=509f8e05-a440-47ba-bb8c-7aa38d491c15","ios":"levelo://app?vid=509f8e05-a440-47ba-bb8c-7aa38d491c15"},"vehicle_type_id":"4","last_reported":1707152811,"current_range_meters":20800,"station_id":"ce4bh192rcd13ifvqdb0","pricing_plan_id":"free"},{"bike_id":"d579be9d-d932-46d7-9995-ebb9bb199311","system_id":"levelo_inurba_marseille","lat":43.292311,"lon":5.360731,"is_reserved":false,"is_disabled":false,"rental_uris":{"android":"levelo://app?vid=d579be9d-d932-46d7-9995-ebb9bb199311","ios":"levelo://app?vid=d579be9d-d932-46d7-9995-ebb9bb199311"},"vehicle_type_id":"4","last_reported":1707152811,"current_range_meters":0,"station_id":"ce4bhbh2rcd13ifvqeqg","pricing_plan_id":"free"},{"bike_id":"a8d15ab6-3956-458f-9065-20e8859adcc6","system_id":"levelo_inurba_marseille","lat":43.298764,"lon":5.388973,"is_reserved":false,"is_disabled":false,"rental_uris":{"android":"levelo://app?vid=a8d15ab6-3956-458f-9065-20e8859adcc6","ios":"levelo://app?vid=a8d15ab6-3956-458f-9065-20e8859adcc6"},"vehicle_type_id":"4","last_reported":1707152811,"current_range_meters":22800,"station_id":"ce4bh392rcd13ifvqdl0","pricing_plan_id":"free"},{"bike_id":"7189e1db-2648-4106-8cc0-ca80993b8e39","system_id":"levelo_inurba_marseille","lat":43.313291,"lon":5.396838,"is_reserved":false,"is_disabled":false,"rental_uris":{"android":"levelo://app?vid=7189e1db-2648-4106-8cc0-ca80993b8e39","ios":"levelo://app?vid=7189e1db-2648-4106-8cc0-ca80993b8e39"},"vehicle_type_id":"4","last_reported":1707152811,"current_range_meters":13200,"station_id":"ce4bgvp2rcd13ifvqcu0","pricing_plan_id":"free"},{"bike_id":"6a09dc80-7eb1-4ddd-8d94-06f0801c356c","system_id":"levelo_inurba_marseille","lat":43.313291,"lon":5.396838,"is_reserved":false,"is_disabled":false,"rental_uris":{"android":"levelo://app?vid=6a09dc80-7eb1-4ddd-8d94-06f0801c356c","ios":"levelo://app?vid=6a09dc80-7eb1-4ddd-8d94-06f0801c356c"},"vehicle_type_id":"4","last_reported":1707152811,"current_range_meters":0,"station_id":"ce4bgvp2rcd13ifvqcu0","pricing_plan_id":"free"},{"bike_id":"a308fa7e-cfac-4908-a9b8-68902fdf16fb","system_id":"levelo_inurba_marseille","lat":43.313291,"lon":5.396838,"is_reserved":false,"is_disabled":false,"rental_uris":{"android":"levelo://app?vid=a308fa7e-cfac-4908-a9b8-68902fdf16fb","ios":"levelo://app?vid=a308fa7e-cfac-4908-a9b8-68902fdf16fb"},"vehicle_type_id":"4","last_reported":1707152811,"current_range_meters":4000,"station_id":"ce4bgvp2rcd13ifvqcu0","pricing_plan_id":"free"},{"bike_id":"f4d15483-84ae-4056-87a1-e709636e15eb","system_id":"levelo_inurba_marseille","lat":43.2919,"lon":5.35804,"is_reserved":false,"is_disabled":false,"rental_uris":{"android":"levelo://app?vid=f4d15483-84ae-4056-87a1-e709636e15eb","ios":"levelo://app?vid=f4d15483-84ae-4056-87a1-e709636e15eb"},"vehicle_type_id":"4","last_reported":1707152811,"current_range_meters":0,"station_id":"ce4bhb12rcd13ifvqel0","pricing_plan_id":"free"},{"bike_id":"028b69b2-5e8e-4463-8efe-bc9cb2f47340","system_id":"levelo_inurba_marseille","lat":43.313291,"lon":5.396838,"is_reserved":false,"is_disabled":false,"rental_uris":{"android":"levelo://app?vid=028b69b2-5e8e-4463-8efe-bc9cb2f47340","ios":"levelo://app?vid=028b69b2-5e8e-4463-8efe-bc9cb2f47340"},"vehicle_type_id":"4","last_reported":1707152811,"current_range_meters":22400,"station_id":"ce4bgvp2rcd13ifvqcu0","pricing_plan_id":"free"},{"bike_id":"0631623c-4a9e-4247-bdad-cc5d5cc2457f","system_id":"levelo_inurba_marseille","lat":43.313291,"lon":5.396838,"is_reserved":false,"is_disabled":false,"rental_uris":{"android":"levelo://app?vid=0631623c-4a9e-4247-bdad-cc5d5cc2457f","ios":"levelo://app?vid=0631623c-4a9e-4247-bdad-cc5d5cc2457f"},"vehicle_type_id":"4","last_reported":1707152811,"current_range_meters":4400,"station_id":"ce4bgvp2rcd13ifvqcu0","pricing_plan_id":"free"},{"bike_id":"6fabbd6a-1f02-4dba-a989-cba1ce6cb592","system_id":"levelo_inurba_marseille","lat":43.313291,"lon":5.396838,"is_reserved":false,"is_disabled":false,"rental_uris":{"android":"levelo://app?vid=6fabbd6a-1f02-4dba-a989-cba1ce6cb592","ios":"levelo://app?vid=6fabbd6a-1f02-4dba-a989-cba1ce6cb592"},"vehicle_type_id":"4","last_reported":1707152811,"current_range_meters":23600,"station_id":"ce4bgvp2rcd13ifvqcu0","pricing_plan_id":"free"},{"bike_id":"bd0334eb-789b-4ae2-b843-6a42e0c0f9a4","system_id":"levelo_inurba_marseille","lat":43.313291,"lon":5.396838,"is_reserved":false,"is_disabled":false,"rental_uris":{"android":"levelo://app?vid=bd0334eb-789b-4ae2-b843-6a42e0c0f9a4","ios":"levelo://app?vid=bd0334eb-789b-4ae2-b843-6a42e0c0f9a4"},"vehicle_type_id":"4","last_reported":1707152811,"current_range_meters":26400,"station_id":"ce4bgvp2rcd13ifvqcu0","pricing_plan_id":"free"},{"bike_id":"8e00aaf5-deca-428d-b0ea-0f1f62b912c9","system_id":"levelo_inurba_marseille","lat":43.313291,"lon":5.396838,"is_reserved":false,"is_disabled":false,"rental_uris":{"android":"levelo://app?vid=8e00aaf5-deca-428d-b0ea-0f1f62b912c9","ios":"levelo://app?vid=8e00aaf5-deca-428d-b0ea-0f1f62b912c9"},"vehicle_type_id":"4","last_reported":1707152811,"current_range_meters":18000,"station_id":"ce4bgvp2rcd13ifvqcu0","pricing_plan_id":"free"},{"bike_id":"aff7b945-31be-4f2c-bc30-c744e348bb62","system_id":"levelo_inurba_marseille","lat":43.313291,"lon":5.396838,"is_reserved":false,"is_disabled":false,"rental_uris":{"android":"levelo://app?vid=aff7b945-31be-4f2c-bc30-c744e348bb62","ios":"levelo://app?vid=aff7b945-31be-4f2c-bc30-c744e348bb62"},"vehicle_type_id":"4","last_reported":1707152811,"current_range_meters":9200,"station_id":"ce4bgvp2rcd13ifvqcu0","pricing_plan_id":"free"},{"bike_id":"74ddbf23-8040-4957-a461-023dce774fa3","system_id":"levelo_inurba_marseille","lat":43.291994,"lon":5.357886,"is_reserved":false,"is_disabled":false,"rental_uris":{"android":"levelo://app?vid=74ddbf23-8040-4957-a461-023dce774fa3","ios":"levelo://app?vid=74ddbf23-8040-4957-a461-023dce774fa3"},"vehicle_type_id":"4","last_reported":1707152811,"current_range_meters":10000,"station_id":"ce4bhb12rcd13ifvqel0","pricing_plan_id":"free"},{"bike_id":"7447e538-93ea-496b-9139-de1f49c84e8d","system_id":"levelo_inurba_marseille","lat":43.313291,"lon":5.396838,"is_reserved":false,"is_disabled":false,"rental_uris":{"android":"levelo://app?vid=7447e538-93ea-496b-9139-de1f49c84e8d","ios":"levelo://app?vid=7447e538-93ea-496b-9139-de1f49c84e8d"},"vehicle_type_id":"4","last_reported":1707152811,"current_range_meters":31200,"station_id":"ce4bgvp2rcd13ifvqcu0","pricing_plan_id":"free"},{"bike_id":"8386e5f9-a272-4526-b1b3-e84f6241022d","system_id":"levelo_inurba_marseille","lat":43.309038,"lon":5.396546,"is_reserved":false,"is_disabled":false,"rental_uris":{"android":"levelo://app?vid=8386e5f9-a272-4526-b1b3-e84f6241022d","ios":"levelo://app?vid=8386e5f9-a272-4526-b1b3-e84f6241022d"},"vehicle_type_id":"4","last_reported":1707152811,"current_range_meters":15200,"station_id":"ce4bh012rcd13ifvqcv0","pricing_plan_id":"free"},{"bike_id":"3d78babf-b6b5-494b-8319-25c9c350bed9","system_id":"levelo_inurba_marseille","lat":43.313291,"lon":5.396838,"is_reserved":false,"is_disabled":false,"rental_uris":{"android":"levelo://app?vid=3d78babf-b6b5-494b-8319-25c9c350bed9","ios":"levelo://app?vid=3d78babf-b6b5-494b-8319-25c9c350bed9"},"vehicle_type_id":"4","last_reported":1707152811,"current_range_meters":24800,"station_id":"ce4bgvp2rcd13ifvqcu0","pricing_plan_id":"free"},{"bike_id":"50c148e1-a930-4906-9a56-57cd88ec8d97","system_id":"levelo_inurba_marseille","lat":43.29556,"lon":5.38578,"is_reserved":false,"is_disabled":false,"rental_uris":{"android":"levelo://app?vid=50c148e1-a930-4906-9a56-57cd88ec8d97","ios":"levelo://app?vid=50c148e1-a930-4906-9a56-57cd88ec8d97"},"vehicle_type_id":"4","last_reported":1707152811,"current_range_meters":20800,"station_id":"ce4bgih2rcd13ifvqba0","pricing_plan_id":"free"},{"bike_id":"4419a724-5255-4916-9ab6-08c2c5ae2fc3","system_id":"levelo_inurba_marseille","lat":43.316308,"lon":5.396765,"is_reserved":false,"is_disabled":false,"rental_uris":{"android":"levelo://app?vid=4419a724-5255-4916-9ab6-08c2c5ae2fc3","ios":"levelo://app?vid=4419a724-5255-4916-9ab6-08c2c5ae2fc3"},"vehicle_type_id":"4","last_reported":1707152811,"current_range_meters":23600,"station_id":"","pricing_plan_id":"free"},{"bike_id":"d48b08bb-4d10-4a27-aebb-6326cd0dcf5d","system_id":"levelo_inurba_marseille","lat":43.29529,"lon":5.385581,"is_reserved":false,"is_disabled":false,"rental_uris":{"android":"levelo://app?vid=d48b08bb-4d10-4a27-aebb-6326cd0dcf5d","ios":"levelo://app?vid=d48b08bb-4d10-4a27-aebb-6326cd0dcf5d"},"vehicle_type_id":"4","last_reported":1707152811,"current_range_meters":1200,"station_id":"ce4bgih2rcd13ifvqba0","pricing_plan_id":"free"},{"bike_id":"0e8a1928-d6ee-47ec-b47e-6ab5b65b2acc","system_id":"levelo_inurba_marseille","lat":43.29529,"lon":5.385581,"is_reserved":false,"is_disabled":false,"rental_uris":{"android":"levelo://app?vid=0e8a1928-d6ee-47ec-b47e-6ab5b65b2acc","ios":"levelo://app?vid=0e8a1928-d6ee-47ec-b47e-6ab5b65b2acc"},"vehicle_type_id":"4","last_reported":1707152811,"current_range_meters":8800,"station_id":"ce4bgih2rcd13ifvqba0","pricing_plan_id":"free"},{"bike_id":"42086501-99f0-4a09-986c-ecee30870d12","system_id":"levelo_inurba_marseille","lat":43.290631,"lon":5.359244,"is_reserved":false,"is_disabled":false,"rental_uris":{"android":"levelo://app?vid=42086501-99f0-4a09-986c-ecee30870d12","ios":"levelo://app?vid=42086501-99f0-4a09-986c-ecee30870d12"},"vehicle_type_id":"4","last_reported":1707152811,"current_range_meters":9600,"station_id":"ce4bha92rcd13ifvqeg0","pricing_plan_id":"free"},{"bike_id":"89a07c4e-726e-4eec-988b-ab618cc38cb1","system_id":"levelo_inurba_marseille","lat":43.290631,"lon":5.359244,"is_reserved":false,"is_disabled":false,"rental_uris":{"android":"levelo://app?vid=89a07c4e-726e-4eec-988b-ab618cc38cb1","ios":"levelo://app?vid=89a07c4e-726e-4eec-988b-ab618cc38cb1"},"vehicle_type_id":"4","last_reported":1707152811,"current_range_meters":23600,"station_id":"ce4bha92rcd13ifvqeg0","pricing_plan_id":"free"},{"bike_id":"293930f5-c2a3-4dd4-92f8-4c1f3092795d","system_id":"levelo_inurba_marseille","lat":43.29422,"lon":5.38622,"is_reserved":false,"is_disabled":false,"rental_uris":{"android":"levelo://app?vid=293930f5-c2a3-4dd4-92f8-4c1f3092795d","ios":"levelo://app?vid=293930f5-c2a3-4dd4-92f8-4c1f3092795d"},"vehicle_type_id":"4","last_reported":1707152811,"current_range_meters":0,"station_id":"ce4bh2h2rcd13ifvqdh0","pricing_plan_id":"free"},{"bike_id":"41c846c8-6f0d-406d-a515-e27b1851d180","system_id":"levelo_inurba_marseille","lat":43.278399,"lon":5.392139,"is_reserved":false,"is_disabled":false,"rental_uris":{"android":"levelo://app?vid=41c846c8-6f0d-406d-a515-e27b1851d180","ios":"levelo://app?vid=41c846c8-6f0d-406d-a515-e27b1851d180"},"vehicle_type_id":"4","last_reported":1707152811,"current_range_meters":19600,"station_id":"ce4bhjp2rcd13ifvqga0","pricing_plan_id":"free"},{"bike_id":"45aa7d68-8910-421a-82f5-a044537b9eb2","system_id":"levelo_inurba_marseille","lat":43.289184,"lon":5.366408,"is_reserved":false,"is_disabled":false,"rental_uris":{"android":"levelo://app?vid=45aa7d68-8910-421a-82f5-a044537b9eb2","ios":"levelo://app?vid=45aa7d68-8910-421a-82f5-a044537b9eb2"},"vehicle_type_id":"4","last_reported":1707152811,"current_range_meters":17200,"station_id":"ce4bhap2rcd13ifvqek0","pricing_plan_id":"free"},{"bike_id":"c343f3fe-ab42-49e3-8f91-565e26a752f5","system_id":"levelo_inurba_marseille","lat":43.289468,"lon":5.363719,"is_reserved":false,"is_disabled":false,"rental_uris":{"android":"levelo://app?vid=c343f3fe-ab42-49e3-8f91-565e26a752f5","ios":"levelo://app?vid=c343f3fe-ab42-49e3-8f91-565e26a752f5"},"vehicle_type_id":"4","last_reported":1707152811,"current_range_meters":2000,"station_id":"ce4bhc92rcd13ifvqetg","pricing_plan_id":"free"},{"bike_id":"320b6200-a883-4c9e-909d-8487f0246983","system_id":"levelo_inurba_marseille","lat":43.289468,"lon":5.363719,"is_reserved":false,"is_disabled":false,"rental_uris":{"android":"levelo://app?vid=320b6200-a883-4c9e-909d-8487f0246983","ios":"levelo://app?vid=320b6200-a883-4c9e-909d-8487f0246983"},"vehicle_type_id":"4","last_reported":1707152811,"current_range_meters":8400,"station_id":"ce4bhc92rcd13ifvqetg","pricing_plan_id":"free"},{"bike_id":"32b5ed0c-b50b-414b-8a53-fc99d0dfc716","system_id":"levelo_inurba_marseille","lat":43.28727,"lon":5.36078,"is_reserved":false,"is_disabled":false,"rental_uris":{"android":"levelo://app?vid=32b5ed0c-b50b-414b-8a53-fc99d0dfc716","ios":"levelo://app?vid=32b5ed0c-b50b-414b-8a53-fc99d0dfc716"},"vehicle_type_id":"4","last_reported":1707152811,"current_range_meters":14400,"station_id":"cki0cbj6b192h4jlfktg","pricing_plan_id":"free"},{"bike_id":"1ab4c7dd-fe68-4704-a4be-a304fd0fb638","system_id":"levelo_inurba_marseille","lat":43.305994,"lon":5.393687,"is_reserved":false,"is_disabled":false,"rental_uris":{"android":"levelo://app?vid=1ab4c7dd-fe68-4704-a4be-a304fd0fb638","ios":"levelo://app?vid=1ab4c7dd-fe68-4704-a4be-a304fd0fb638"},"vehicle_type_id":"4","last_reported":1707152811,"current_range_meters":7600,"station_id":"ce4bh0p2rcd13ifvqd80","pricing_plan_id":"free"},{"bike_id":"c10ed5dd-e3d8-4e2e-a2b5-6ff404cbd93a","system_id":"levelo_inurba_marseille","lat":43.304274,"lon":5.397513,"is_reserved":false,"is_disabled":false,"rental_uris":{"android":"levelo://app?vid=c10ed5dd-e3d8-4e2e-a2b5-6ff404cbd93a","ios":"levelo://app?vid=c10ed5dd-e3d8-4e2e-a2b5-6ff404cbd93a"},"vehicle_type_id":"4","last_reported":1707152811,"current_range_meters":25200,"station_id":"ce4bh092rcd13ifvqd20","pricing_plan_id":"free"},{"bike_id":"67e6b00e-0d2a-4723-b184-8c4a9fc127c6","system_id":"levelo_inurba_marseille","lat":43.29011,"lon":5.35619,"is_reserved":false,"is_disabled":false,"rental_uris":{"android":"levelo://app?vid=67e6b00e-0d2a-4723-b184-8c4a9fc127c6","ios":"levelo://app?vid=67e6b00e-0d2a-4723-b184-8c4a9fc127c6"},"vehicle_type_id":"4","last_reported":1707152811,"current_range_meters":20800,"station_id":"ce4bhb92rcd13ifvqen0","pricing_plan_id":"free"},{"bike_id":"568dfe71-a7b4-4ce2-a3cb-7aeac8d74a61","system_id":"levelo_inurba_marseille","lat":43.29008,"lon":5.35616,"is_reserved":false,"is_disabled":false,"rental_uris":{"android":"levelo://app?vid=568dfe71-a7b4-4ce2-a3cb-7aeac8d74a61","ios":"levelo://app?vid=568dfe71-a7b4-4ce2-a3cb-7aeac8d74a61"},"vehicle_type_id":"4","last_reported":1707152811,"current_range_meters":7600,"station_id":"ce4bhb92rcd13ifvqen0","pricing_plan_id":"free"},{"bike_id":"a4bda950-0df2-4ab9-89ed-f5ea9ffab2a1","system_id":"levelo_inurba_marseille","lat":43.29004,"lon":5.35619,"is_reserved":false,"is_disabled":false,"rental_uris":{"android":"levelo://app?vid=a4bda950-0df2-4ab9-89ed-f5ea9ffab2a1","ios":"levelo://app?vid=a4bda950-0df2-4ab9-89ed-f5ea9ffab2a1"},"vehicle_type_id":"4","last_reported":1707152811,"current_range_meters":7200,"station_id":"ce4bhb92rcd13ifvqen0","pricing_plan_id":"free"},{"bike_id":"50a01dfd-fda0-43f1-8689-6268bb2b17b7","system_id":"levelo_inurba_marseille","lat":43.29006,"lon":5.3561,"is_reserved":false,"is_disabled":false,"rental_uris":{"android":"levelo://app?vid=50a01dfd-fda0-43f1-8689-6268bb2b17b7","ios":"levelo://app?vid=50a01dfd-fda0-43f1-8689-6268bb2b17b7"},"vehicle_type_id":"4","last_reported":1707152811,"current_range_meters":26000,"station_id":"ce4bhb92rcd13ifvqen0","pricing_plan_id":"free"},{"bike_id":"85d5a08b-9361-499e-8f99-22699a70e469","system_id":"levelo_inurba_marseille","lat":43.290035,"lon":5.356157,"is_reserved":false,"is_disabled":false,"rental_uris":{"android":"levelo://app?vid=85d5a08b-9361-499e-8f99-22699a70e469","ios":"levelo://app?vid=85d5a08b-9361-499e-8f99-22699a70e469"},"vehicle_type_id":"4","last_reported":1707152811,"current_range_meters":2000,"station_id":"ce4bhb92rcd13ifvqen0","pricing_plan_id":"free"},{"bike_id":"3b5d4e23-4a18-43be-bb39-d26037c48c33","system_id":"levelo_inurba_marseille","lat":43.290103,"lon":5.356114,"is_reserved":false,"is_disabled":false,"rental_uris":{"android":"levelo://app?vid=3b5d4e23-4a18-43be-bb39-d26037c48c33","ios":"levelo://app?vid=3b5d4e23-4a18-43be-bb39-d26037c48c33"},"vehicle_type_id":"4","last_reported":1707152811,"current_range_meters":0,"station_id":"ce4bhb92rcd13ifvqen0","pricing_plan_id":"free"},{"bike_id":"4184b14e-8b3e-406d-a783-b476af9c7d3b","system_id":"levelo_inurba_marseille","lat":43.29005,"lon":5.35606,"is_reserved":false,"is_disabled":false,"rental_uris":{"android":"levelo://app?vid=4184b14e-8b3e-406d-a783-b476af9c7d3b","ios":"levelo://app?vid=4184b14e-8b3e-406d-a783-b476af9c7d3b"},"vehicle_type_id":"4","last_reported":1707152811,"current_range_meters":0,"station_id":"ce4bhb92rcd13ifvqen0","pricing_plan_id":"free"},{"bike_id":"9a2a6104-92a3-4609-8d4a-97a50a9d9d5a","system_id":"levelo_inurba_marseille","lat":43.29004,"lon":5.35609,"is_reserved":false,"is_disabled":false,"rental_uris":{"android":"levelo://app?vid=9a2a6104-92a3-4609-8d4a-97a50a9d9d5a","ios":"levelo://app?vid=9a2a6104-92a3-4609-8d4a-97a50a9d9d5a"},"vehicle_type_id":"4","last_reported":1707152811,"current_range_meters":12800,"station_id":"ce4bhb92rcd13ifvqen0","pricing_plan_id":"free"},{"bike_id":"56588ff1-9a4e-490d-b29f-698846e626ef","system_id":"levelo_inurba_marseille","lat":43.290006,"lon":5.356151,"is_reserved":false,"is_disabled":false,"rental_uris":{"android":"levelo://app?vid=56588ff1-9a4e-490d-b29f-698846e626ef","ios":"levelo://app?vid=56588ff1-9a4e-490d-b29f-698846e626ef"},"vehicle_type_id":"4","last_reported":1707152811,"current_range_meters":5200,"station_id":"ce4bhb92rcd13ifvqen0","pricing_plan_id":"free"},{"bike_id":"7ddfa805-695a-4a36-bfc3-18fece375819","system_id":"levelo_inurba_marseille","lat":43.29002,"lon":5.35609,"is_reserved":false,"is_disabled":false,"rental_uris":{"android":"levelo://app?vid=7ddfa805-695a-4a36-bfc3-18fece375819","ios":"levelo://app?vid=7ddfa805-695a-4a36-bfc3-18fece375819"},"vehicle_type_id":"4","last_reported":1707152811,"current_range_meters":0,"station_id":"ce4bhb92rcd13ifvqen0","pricing_plan_id":"free"},{"bike_id":"4c54a4c0-0407-48d6-acca-67b4bbfb2bea","system_id":"levelo_inurba_marseille","lat":43.29001,"lon":5.35603,"is_reserved":false,"is_disabled":false,"rental_uris":{"android":"levelo://app?vid=4c54a4c0-0407-48d6-acca-67b4bbfb2bea","ios":"levelo://app?vid=4c54a4c0-0407-48d6-acca-67b4bbfb2bea"},"vehicle_type_id":"4","last_reported":1707152811,"current_range_meters":26000,"station_id":"ce4bhb92rcd13ifvqen0","pricing_plan_id":"free"},{"bike_id":"11d84c7a-256c-40cf-854e-d311c451df51","system_id":"levelo_inurba_marseille","lat":43.290995,"lon":5.381361,"is_reserved":false,"is_disabled":false,"rental_uris":{"android":"levelo://app?vid=11d84c7a-256c-40cf-854e-d311c451df51","ios":"levelo://app?vid=11d84c7a-256c-40cf-854e-d311c451df51"},"vehicle_type_id":"4","last_reported":1707152811,"current_range_meters":4800,"station_id":"ce4bh512rcd13ifvqe2g","pricing_plan_id":"free"},{"bike_id":"d87a43d2-eb7a-423c-9add-572b788dd305","system_id":"levelo_inurba_marseille","lat":43.29791,"lon":5.39345,"is_reserved":false,"is_disabled":false,"rental_uris":{"android":"levelo://app?vid=d87a43d2-eb7a-423c-9add-572b788dd305","ios":"levelo://app?vid=d87a43d2-eb7a-423c-9add-572b788dd305"},"vehicle_type_id":"4","last_reported":1707152811,"current_range_meters":3200,"station_id":"chh1huq6cuj3fo74tm60","pricing_plan_id":"free"},{"bike_id":"d17bffba-c37f-40fa-ab16-34696ce5dced","system_id":"levelo_inurba_marseille","lat":43.295169,"lon":5.390426,"is_reserved":false,"is_disabled":false,"rental_uris":{"android":"levelo://app?vid=d17bffba-c37f-40fa-ab16-34696ce5dced","ios":"levelo://app?vid=d17bffba-c37f-40fa-ab16-34696ce5dced"},"vehicle_type_id":"4","last_reported":1707152811,"current_range_meters":2000,"station_id":"ce4bh3p2rcd13ifvqdp0","pricing_plan_id":"free"},{"bike_id":"b5772277-1e5a-490d-974c-370957e07eed","system_id":"levelo_inurba_marseille","lat":43.33021,"lon":5.39037,"is_reserved":false,"is_disabled":false,"rental_uris":{"android":"levelo://app?vid=b5772277-1e5a-490d-974c-370957e07eed","ios":"levelo://app?vid=b5772277-1e5a-490d-974c-370957e07eed"},"vehicle_type_id":"4","last_reported":1707152811,"current_range_meters":6800,"station_id":"ce4bhr92rcd13ifvqhrg","pricing_plan_id":"free"},{"bike_id":"aa483e41-a776-4406-8603-fa1acfe79af3","system_id":"levelo_inurba_marseille","lat":43.295169,"lon":5.390426,"is_reserved":false,"is_disabled":false,"rental_uris":{"android":"levelo://app?vid=aa483e41-a776-4406-8603-fa1acfe79af3","ios":"levelo://app?vid=aa483e41-a776-4406-8603-fa1acfe79af3"},"vehicle_type_id":"4","last_reported":1707152811,"current_range_meters":13600,"station_id":"ce4bh3p2rcd13ifvqdp0","pricing_plan_id":"free"},{"bike_id":"49971638-8d60-4cfd-b5c1-33f88c51cffc","system_id":"levelo_inurba_marseille","lat":43.330442,"lon":5.389148,"is_reserved":false,"is_disabled":false,"rental_uris":{"android":"levelo://app?vid=49971638-8d60-4cfd-b5c1-33f88c51cffc","ios":"levelo://app?vid=49971638-8d60-4cfd-b5c1-33f88c51cffc"},"vehicle_type_id":"4","last_reported":1707152811,"current_range_meters":22400,"station_id":"ce4bhr92rcd13ifvqhrg","pricing_plan_id":"free"},{"bike_id":"baa26e4d-1d69-4d44-9c43-7fa7bc9a94af","system_id":"levelo_inurba_marseille","lat":43.330442,"lon":5.389148,"is_reserved":false,"is_disabled":false,"rental_uris":{"android":"levelo://app?vid=baa26e4d-1d69-4d44-9c43-7fa7bc9a94af","ios":"levelo://app?vid=baa26e4d-1d69-4d44-9c43-7fa7bc9a94af"},"vehicle_type_id":"4","last_reported":1707152811,"current_range_meters":26000,"station_id":"ce4bhr92rcd13ifvqhrg","pricing_plan_id":"free"},{"bike_id":"2f126c3e-a0a0-4f01-b848-9fd7c377133b","system_id":"levelo_inurba_marseille","lat":43.295169,"lon":5.390426,"is_reserved":false,"is_disabled":false,"rental_uris":{"android":"levelo://app?vid=2f126c3e-a0a0-4f01-b848-9fd7c377133b","ios":"levelo://app?vid=2f126c3e-a0a0-4f01-b848-9fd7c377133b"},"vehicle_type_id":"4","last_reported":1707152811,"current_range_meters":10000,"station_id":"ce4bh3p2rcd13ifvqdp0","pricing_plan_id":"free"},{"bike_id":"bb5ee75a-34ca-43fa-b205-f08e7354f49a","system_id":"levelo_inurba_marseille","lat":43.28974,"lon":5.37847,"is_reserved":false,"is_disabled":false,"rental_uris":{"android":"levelo://app?vid=bb5ee75a-34ca-43fa-b205-f08e7354f49a","ios":"levelo://app?vid=bb5ee75a-34ca-43fa-b205-f08e7354f49a"},"vehicle_type_id":"4","last_reported":1707152811,"current_range_meters":24800,"station_id":"ce4bh9p2rcd13ifvqed0","pricing_plan_id":"free"},{"bike_id":"ef1c92eb-56fe-4235-90a8-433de86b3d8e","system_id":"levelo_inurba_marseille","lat":43.295169,"lon":5.390426,"is_reserved":false,"is_disabled":false,"rental_uris":{"android":"levelo://app?vid=ef1c92eb-56fe-4235-90a8-433de86b3d8e","ios":"levelo://app?vid=ef1c92eb-56fe-4235-90a8-433de86b3d8e"},"vehicle_type_id":"4","last_reported":1707152811,"current_range_meters":5200,"station_id":"ce4bh3p2rcd13ifvqdp0","pricing_plan_id":"free"},{"bike_id":"a0030783-d023-46f3-a2d5-8050a5b4ca9d","system_id":"levelo_inurba_marseille","lat":43.288473,"lon":5.358386,"is_reserved":false,"is_disabled":false,"rental_uris":{"android":"levelo://app?vid=a0030783-d023-46f3-a2d5-8050a5b4ca9d","ios":"levelo://app?vid=a0030783-d023-46f3-a2d5-8050a5b4ca9d"},"vehicle_type_id":"4","last_reported":1707152811,"current_range_meters":0,"station_id":"ce4bhb12rcd13ifvqem0","pricing_plan_id":"free"},{"bike_id":"8ae7335a-745c-47ce-bae3-f7137c433657","system_id":"levelo_inurba_marseille","lat":43.309371,"lon":5.401449,"is_reserved":false,"is_disabled":false,"rental_uris":{"android":"levelo://app?vid=8ae7335a-745c-47ce-bae3-f7137c433657","ios":"levelo://app?vid=8ae7335a-745c-47ce-bae3-f7137c433657"},"vehicle_type_id":"4","last_reported":1707152811,"current_range_meters":4400,"station_id":"ce4bgvp2rcd13ifvqct0","pricing_plan_id":"free"},{"bike_id":"c623ed3b-c03c-4636-8716-7e9b14d1c7e9","system_id":"levelo_inurba_marseille","lat":43.337405,"lon":5.374496,"is_reserved":false,"is_disabled":false,"rental_uris":{"android":"levelo://app?vid=c623ed3b-c03c-4636-8716-7e9b14d1c7e9","ios":"levelo://app?vid=c623ed3b-c03c-4636-8716-7e9b14d1c7e9"},"vehicle_type_id":"4","last_reported":1707152811,"current_range_meters":27200,"station_id":"","pricing_plan_id":"free"},{"bike_id":"996489db-19be-43cc-81cc-fda0467c59f2","system_id":"levelo_inurba_marseille","lat":43.312609,"lon":5.401662,"is_reserved":false,"is_disabled":false,"rental_uris":{"android":"levelo://app?vid=996489db-19be-43cc-81cc-fda0467c59f2","ios":"levelo://app?vid=996489db-19be-43cc-81cc-fda0467c59f2"},"vehicle_type_id":"4","last_reported":1707152811,"current_range_meters":21200,"station_id":"ce4bh092rcd13ifvqd30","pricing_plan_id":"free"},{"bike_id":"10074680-019e-4025-a9b6-96cd525dd3bb","system_id":"levelo_inurba_marseille","lat":43.337444,"lon":5.374475,"is_reserved":false,"is_disabled":false,"rental_uris":{"android":"levelo://app?vid=10074680-019e-4025-a9b6-96cd525dd3bb","ios":"levelo://app?vid=10074680-019e-4025-a9b6-96cd525dd3bb"},"vehicle_type_id":"4","last_reported":1707152811,"current_range_meters":6000,"station_id":"","pricing_plan_id":"free"},{"bike_id":"d4af6be1-72e6-4b17-a4fa-c207bf3bac22","system_id":"levelo_inurba_marseille","lat":43.309371,"lon":5.401449,"is_reserved":false,"is_disabled":false,"rental_uris":{"android":"levelo://app?vid=d4af6be1-72e6-4b17-a4fa-c207bf3bac22","ios":"levelo://app?vid=d4af6be1-72e6-4b17-a4fa-c207bf3bac22"},"vehicle_type_id":"4","last_reported":1707152811,"current_range_meters":23600,"station_id":"ce4bgvp2rcd13ifvqct0","pricing_plan_id":"free"},{"bike_id":"0cbb4923-9753-46b2-802c-fc001737c530","system_id":"levelo_inurba_marseille","lat":43.337456,"lon":5.374561,"is_reserved":false,"is_disabled":false,"rental_uris":{"android":"levelo://app?vid=0cbb4923-9753-46b2-802c-fc001737c530","ios":"levelo://app?vid=0cbb4923-9753-46b2-802c-fc001737c530"},"vehicle_type_id":"4","last_reported":1707152811,"current_range_meters":30000,"station_id":"","pricing_plan_id":"free"},{"bike_id":"c88b544a-7d5f-44cd-9e90-26ffcf31651a","system_id":"levelo_inurba_marseille","lat":43.32686,"lon":5.39586,"is_reserved":false,"is_disabled":false,"rental_uris":{"android":"levelo://app?vid=c88b544a-7d5f-44cd-9e90-26ffcf31651a","ios":"levelo://app?vid=c88b544a-7d5f-44cd-9e90-26ffcf31651a"},"vehicle_type_id":"4","last_reported":1707152811,"current_range_meters":9200,"station_id":"","pricing_plan_id":"free"},{"bike_id":"8a0ed4b5-246d-4fc2-a798-25aa370f899d","system_id":"levelo_inurba_marseille","lat":43.309371,"lon":5.401449,"is_reserved":false,"is_disabled":false,"rental_uris":{"android":"levelo://app?vid=8a0ed4b5-246d-4fc2-a798-25aa370f899d","ios":"levelo://app?vid=8a0ed4b5-246d-4fc2-a798-25aa370f899d"},"vehicle_type_id":"4","last_reported":1707152811,"current_range_meters":7200,"station_id":"ce4bgvp2rcd13ifvqct0","pricing_plan_id":"free"},{"bike_id":"1cde9f78-62c4-4b31-b25e-7fc01b31b237","system_id":"levelo_inurba_marseille","lat":43.309371,"lon":5.401449,"is_reserved":false,"is_disabled":false,"rental_uris":{"android":"levelo://app?vid=1cde9f78-62c4-4b31-b25e-7fc01b31b237","ios":"levelo://app?vid=1cde9f78-62c4-4b31-b25e-7fc01b31b237"},"vehicle_type_id":"4","last_reported":1707152811,"current_range_meters":30400,"station_id":"ce4bgvp2rcd13ifvqct0","pricing_plan_id":"free"},{"bike_id":"51d2b538-b175-4d78-a9aa-5457907f7427","system_id":"levelo_inurba_marseille","lat":43.33757,"lon":5.37422,"is_reserved":false,"is_disabled":false,"rental_uris":{"android":"levelo://app?vid=51d2b538-b175-4d78-a9aa-5457907f7427","ios":"levelo://app?vid=51d2b538-b175-4d78-a9aa-5457907f7427"},"vehicle_type_id":"4","last_reported":1707152811,"current_range_meters":14000,"station_id":"","pricing_plan_id":"free"},{"bike_id":"e5cd9ba0-809c-457b-b079-012319951636","system_id":"levelo_inurba_marseille","lat":43.337473,"lon":5.374938,"is_reserved":false,"is_disabled":false,"rental_uris":{"android":"levelo://app?vid=e5cd9ba0-809c-457b-b079-012319951636","ios":"levelo://app?vid=e5cd9ba0-809c-457b-b079-012319951636"},"vehicle_type_id":"4","last_reported":1707152811,"current_range_meters":25600,"station_id":"","pricing_plan_id":"free"},{"bike_id":"55f5fc89-8e65-4032-94a1-585413c88d1a","system_id":"levelo_inurba_marseille","lat":43.306412,"lon":5.401035,"is_reserved":false,"is_disabled":false,"rental_uris":{"android":"levelo://app?vid=55f5fc89-8e65-4032-94a1-585413c88d1a","ios":"levelo://app?vid=55f5fc89-8e65-4032-94a1-585413c88d1a"},"vehicle_type_id":"4","last_reported":1707152811,"current_range_meters":25200,"station_id":"ce4bh112rcd13ifvqda0","pricing_plan_id":"free"},{"bike_id":"eaae03a2-ed37-4ff3-b6c1-696f5dfb9726","system_id":"levelo_inurba_marseille","lat":43.3376,"lon":5.37459,"is_reserved":false,"is_disabled":false,"rental_uris":{"android":"levelo://app?vid=eaae03a2-ed37-4ff3-b6c1-696f5dfb9726","ios":"levelo://app?vid=eaae03a2-ed37-4ff3-b6c1-696f5dfb9726"},"vehicle_type_id":"4","last_reported":1707152811,"current_range_meters":27200,"station_id":"","pricing_plan_id":"free"},{"bike_id":"4404492a-7447-4ee8-86b0-f954f4217e9c","system_id":"levelo_inurba_marseille","lat":43.30642,"lon":5.401031,"is_reserved":false,"is_disabled":false,"rental_uris":{"android":"levelo://app?vid=4404492a-7447-4ee8-86b0-f954f4217e9c","ios":"levelo://app?vid=4404492a-7447-4ee8-86b0-f954f4217e9c"},"vehicle_type_id":"4","last_reported":1707152811,"current_range_meters":22800,"station_id":"ce4bh112rcd13ifvqda0","pricing_plan_id":"free"},{"bike_id":"719033d7-0bf1-40bc-8311-853dfb749f20","system_id":"levelo_inurba_marseille","lat":43.30642,"lon":5.401031,"is_reserved":false,"is_disabled":false,"rental_uris":{"android":"levelo://app?vid=719033d7-0bf1-40bc-8311-853dfb749f20","ios":"levelo://app?vid=719033d7-0bf1-40bc-8311-853dfb749f20"},"vehicle_type_id":"4","last_reported":1707152811,"current_range_meters":8000,"station_id":"ce4bh112rcd13ifvqda0","pricing_plan_id":"free"},{"bike_id":"ce62179e-a397-4147-a80f-2b6a425dac48","system_id":"levelo_inurba_marseille","lat":43.30642,"lon":5.401031,"is_reserved":false,"is_disabled":false,"rental_uris":{"android":"levelo://app?vid=ce62179e-a397-4147-a80f-2b6a425dac48","ios":"levelo://app?vid=ce62179e-a397-4147-a80f-2b6a425dac48"},"vehicle_type_id":"4","last_reported":1707152811,"current_range_meters":3600,"station_id":"ce4bh112rcd13ifvqda0","pricing_plan_id":"free"},{"bike_id":"32e0e2ed-9549-4e0b-ab9c-c6c2175c9b93","system_id":"levelo_inurba_marseille","lat":43.306412,"lon":5.401035,"is_reserved":false,"is_disabled":false,"rental_uris":{"android":"levelo://app?vid=32e0e2ed-9549-4e0b-ab9c-c6c2175c9b93","ios":"levelo://app?vid=32e0e2ed-9549-4e0b-ab9c-c6c2175c9b93"},"vehicle_type_id":"4","last_reported":1707152811,"current_range_meters":29600,"station_id":"ce4bh112rcd13ifvqda0","pricing_plan_id":"free"},{"bike_id":"b5c8cd35-34dd-45ee-b3e7-3050ef3cbe6a","system_id":"levelo_inurba_marseille","lat":43.337673,"lon":5.374918,"is_reserved":false,"is_disabled":false,"rental_uris":{"android":"levelo://app?vid=b5c8cd35-34dd-45ee-b3e7-3050ef3cbe6a","ios":"levelo://app?vid=b5c8cd35-34dd-45ee-b3e7-3050ef3cbe6a"},"vehicle_type_id":"4","last_reported":1707152811,"current_range_meters":8000,"station_id":"","pricing_plan_id":"free"},{"bike_id":"8c0a9ce4-2462-43e2-85c5-8aab56207395","system_id":"levelo_inurba_marseille","lat":43.301117,"lon":5.398795,"is_reserved":false,"is_disabled":false,"rental_uris":{"android":"levelo://app?vid=8c0a9ce4-2462-43e2-85c5-8aab56207395","ios":"levelo://app?vid=8c0a9ce4-2462-43e2-85c5-8aab56207395"},"vehicle_type_id":"4","last_reported":1707152811,"current_range_meters":12000,"station_id":"ce4bh0h2rcd13ifvqd40","pricing_plan_id":"free"},{"bike_id":"3fa34d74-298c-41ac-802f-bf0a1b01e386","system_id":"levelo_inurba_marseille","lat":43.286961,"lon":5.373785,"is_reserved":false,"is_disabled":false,"rental_uris":{"android":"levelo://app?vid=3fa34d74-298c-41ac-802f-bf0a1b01e386","ios":"levelo://app?vid=3fa34d74-298c-41ac-802f-bf0a1b01e386"},"vehicle_type_id":"4","last_reported":1707152811,"current_range_meters":0,"station_id":"ce4bh3p2rcd13ifvqdq0","pricing_plan_id":"free"},{"bike_id":"060d4412-29af-4a54-9f88-59585d662677","system_id":"levelo_inurba_marseille","lat":43.298681,"lon":5.397225,"is_reserved":false,"is_disabled":false,"rental_uris":{"android":"levelo://app?vid=060d4412-29af-4a54-9f88-59585d662677","ios":"levelo://app?vid=060d4412-29af-4a54-9f88-59585d662677"},"vehicle_type_id":"4","last_reported":1707152811,"current_range_meters":14800,"station_id":"ce4bh0h2rcd13ifvqd50","pricing_plan_id":"free"},{"bike_id":"9d5b3113-75a8-4e4d-abca-0bebc8137251","system_id":"levelo_inurba_marseille","lat":43.298681,"lon":5.397225,"is_reserved":false,"is_disabled":false,"rental_uris":{"android":"levelo://app?vid=9d5b3113-75a8-4e4d-abca-0bebc8137251","ios":"levelo://app?vid=9d5b3113-75a8-4e4d-abca-0bebc8137251"},"vehicle_type_id":"4","last_reported":1707152811,"current_range_meters":22000,"station_id":"ce4bh0h2rcd13ifvqd50","pricing_plan_id":"free"},{"bike_id":"7a6fd316-63f5-40a4-8597-bdc05382c0c5","system_id":"levelo_inurba_marseille","lat":43.298681,"lon":5.397225,"is_reserved":false,"is_disabled":false,"rental_uris":{"android":"levelo://app?vid=7a6fd316-63f5-40a4-8597-bdc05382c0c5","ios":"levelo://app?vid=7a6fd316-63f5-40a4-8597-bdc05382c0c5"},"vehicle_type_id":"4","last_reported":1707152811,"current_range_meters":26800,"station_id":"ce4bh0h2rcd13ifvqd50","pricing_plan_id":"free"},{"bike_id":"49723350-af14-4e47-83cc-b7234747d1c7","system_id":"levelo_inurba_marseille","lat":43.298681,"lon":5.397225,"is_reserved":false,"is_disabled":false,"rental_uris":{"android":"levelo://app?vid=49723350-af14-4e47-83cc-b7234747d1c7","ios":"levelo://app?vid=49723350-af14-4e47-83cc-b7234747d1c7"},"vehicle_type_id":"4","last_reported":1707152811,"current_range_meters":6400,"station_id":"ce4bh0h2rcd13ifvqd50","pricing_plan_id":"free"},{"bike_id":"553b2083-2c26-480f-a8de-9b5ebea81d6f","system_id":"levelo_inurba_marseille","lat":43.286961,"lon":5.373785,"is_reserved":false,"is_disabled":false,"rental_uris":{"android":"levelo://app?vid=553b2083-2c26-480f-a8de-9b5ebea81d6f","ios":"levelo://app?vid=553b2083-2c26-480f-a8de-9b5ebea81d6f"},"vehicle_type_id":"4","last_reported":1707152811,"current_range_meters":11600,"station_id":"ce4bh3p2rcd13ifvqdq0","pricing_plan_id":"free"},{"bike_id":"c03d570f-e789-456b-a4ad-5013a904a760","system_id":"levelo_inurba_marseille","lat":43.29875,"lon":5.39738,"is_reserved":false,"is_disabled":false,"rental_uris":{"android":"levelo://app?vid=c03d570f-e789-456b-a4ad-5013a904a760","ios":"levelo://app?vid=c03d570f-e789-456b-a4ad-5013a904a760"},"vehicle_type_id":"4","last_reported":1707152811,"current_range_meters":7600,"station_id":"ce4bh0h2rcd13ifvqd50","pricing_plan_id":"free"},{"bike_id":"56ff56e1-a5d3-4e7e-8f3e-faced1ef7644","system_id":"levelo_inurba_marseille","lat":43.286593,"lon":5.363346,"is_reserved":false,"is_disabled":false,"rental_uris":{"android":"levelo://app?vid=56ff56e1-a5d3-4e7e-8f3e-faced1ef7644","ios":"levelo://app?vid=56ff56e1-a5d3-4e7e-8f3e-faced1ef7644"},"vehicle_type_id":"4","last_reported":1707152811,"current_range_meters":3600,"station_id":"ce4bhah2rcd13ifvqej0","pricing_plan_id":"free"},{"bike_id":"1578b6bd-5c33-458d-ac7e-e12324daa65d","system_id":"levelo_inurba_marseille","lat":43.286961,"lon":5.373785,"is_reserved":false,"is_disabled":false,"rental_uris":{"android":"levelo://app?vid=1578b6bd-5c33-458d-ac7e-e12324daa65d","ios":"levelo://app?vid=1578b6bd-5c33-458d-ac7e-e12324daa65d"},"vehicle_type_id":"4","last_reported":1707152811,"current_range_meters":5200,"station_id":"ce4bh3p2rcd13ifvqdq0","pricing_plan_id":"free"},{"bike_id":"3de355f6-8486-418c-8a25-fe510197c6b3","system_id":"levelo_inurba_marseille","lat":43.295196,"lon":5.39397,"is_reserved":false,"is_disabled":false,"rental_uris":{"android":"levelo://app?vid=3de355f6-8486-418c-8a25-fe510197c6b3","ios":"levelo://app?vid=3de355f6-8486-418c-8a25-fe510197c6b3"},"vehicle_type_id":"4","last_reported":1707152811,"current_range_meters":1600,"station_id":"ce4bh292rcd13ifvqdf0","pricing_plan_id":"free"},{"bike_id":"b771357d-7e71-496a-b816-73a784225064","system_id":"levelo_inurba_marseille","lat":43.295194,"lon":5.39397,"is_reserved":false,"is_disabled":false,"rental_uris":{"android":"levelo://app?vid=b771357d-7e71-496a-b816-73a784225064","ios":"levelo://app?vid=b771357d-7e71-496a-b816-73a784225064"},"vehicle_type_id":"4","last_reported":1707152811,"current_range_meters":9200,"station_id":"ce4bh292rcd13ifvqdf0","pricing_plan_id":"free"},{"bike_id":"0433629c-a2d7-47a8-9b7b-04b78e6974a7","system_id":"levelo_inurba_marseille","lat":43.286961,"lon":5.373785,"is_reserved":false,"is_disabled":false,"rental_uris":{"android":"levelo://app?vid=0433629c-a2d7-47a8-9b7b-04b78e6974a7","ios":"levelo://app?vid=0433629c-a2d7-47a8-9b7b-04b78e6974a7"},"vehicle_type_id":"4","last_reported":1707152811,"current_range_meters":12000,"station_id":"ce4bh3p2rcd13ifvqdq0","pricing_plan_id":"free"},{"bike_id":"7f78e5e0-e48d-4aee-ad87-5c1adcc357e1","system_id":"levelo_inurba_marseille","lat":43.295194,"lon":5.39397,"is_reserved":false,"is_disabled":false,"rental_uris":{"android":"levelo://app?vid=7f78e5e0-e48d-4aee-ad87-5c1adcc357e1","ios":"levelo://app?vid=7f78e5e0-e48d-4aee-ad87-5c1adcc357e1"},"vehicle_type_id":"4","last_reported":1707152811,"current_range_meters":27600,"station_id":"ce4bh292rcd13ifvqdf0","pricing_plan_id":"free"},{"bike_id":"7137f8a3-3130-449f-b1d5-b7de078a7b2c","system_id":"levelo_inurba_marseille","lat":43.289307,"lon":5.38406,"is_reserved":false,"is_disabled":false,"rental_uris":{"android":"levelo://app?vid=7137f8a3-3130-449f-b1d5-b7de078a7b2c","ios":"levelo://app?vid=7137f8a3-3130-449f-b1d5-b7de078a7b2c"},"vehicle_type_id":"4","last_reported":1707152811,"current_range_meters":0,"station_id":"ce4bh612rcd13ifvqe6g","pricing_plan_id":"free"},{"bike_id":"77ed91bf-86be-415b-b11e-49963bea5359","system_id":"levelo_inurba_marseille","lat":43.289307,"lon":5.38406,"is_reserved":false,"is_disabled":false,"rental_uris":{"android":"levelo://app?vid=77ed91bf-86be-415b-b11e-49963bea5359","ios":"levelo://app?vid=77ed91bf-86be-415b-b11e-49963bea5359"},"vehicle_type_id":"4","last_reported":1707152811,"current_range_meters":17200,"station_id":"ce4bh612rcd13ifvqe6g","pricing_plan_id":"free"},{"bike_id":"d0fe7e8e-9832-4088-b2c7-201b4c96b259","system_id":"levelo_inurba_marseille","lat":43.29545,"lon":5.3948,"is_reserved":false,"is_disabled":false,"rental_uris":{"android":"levelo://app?vid=d0fe7e8e-9832-4088-b2c7-201b4c96b259","ios":"levelo://app?vid=d0fe7e8e-9832-4088-b2c7-201b4c96b259"},"vehicle_type_id":"4","last_reported":1707152811,"current_range_meters":22000,"station_id":"","pricing_plan_id":"free"},{"bike_id":"c64ee228-41d4-4276-8ab9-f95809fbbfeb","system_id":"levelo_inurba_marseille","lat":43.287185,"lon":5.379373,"is_reserved":false,"is_disabled":false,"rental_uris":{"android":"levelo://app?vid=c64ee228-41d4-4276-8ab9-f95809fbbfeb","ios":"levelo://app?vid=c64ee228-41d4-4276-8ab9-f95809fbbfeb"},"vehicle_type_id":"4","last_reported":1707152811,"current_range_meters":15200,"station_id":"ce4bh9p2rcd13ifvqec0","pricing_plan_id":"free"},{"bike_id":"da4dc762-ab6d-4e8f-b872-59f163e10d7d","system_id":"levelo_inurba_marseille","lat":43.316828,"lon":5.404723,"is_reserved":false,"is_disabled":false,"rental_uris":{"android":"levelo://app?vid=da4dc762-ab6d-4e8f-b872-59f163e10d7d","ios":"levelo://app?vid=da4dc762-ab6d-4e8f-b872-59f163e10d7d"},"vehicle_type_id":"4","last_reported":1707152811,"current_range_meters":12000,"station_id":"ce4bh012rcd13ifvqd00","pricing_plan_id":"free"},{"bike_id":"b31930f4-ae31-4e1e-bd0e-f91e816878fb","system_id":"levelo_inurba_marseille","lat":43.316828,"lon":5.404723,"is_reserved":false,"is_disabled":false,"rental_uris":{"android":"levelo://app?vid=b31930f4-ae31-4e1e-bd0e-f91e816878fb","ios":"levelo://app?vid=b31930f4-ae31-4e1e-bd0e-f91e816878fb"},"vehicle_type_id":"4","last_reported":1707152811,"current_range_meters":24400,"station_id":"ce4bh012rcd13ifvqd00","pricing_plan_id":"free"},{"bike_id":"bc787c1a-f6a8-4795-ac6a-4ff538c405c4","system_id":"levelo_inurba_marseille","lat":43.316821,"lon":5.404737,"is_reserved":false,"is_disabled":false,"rental_uris":{"android":"levelo://app?vid=bc787c1a-f6a8-4795-ac6a-4ff538c405c4","ios":"levelo://app?vid=bc787c1a-f6a8-4795-ac6a-4ff538c405c4"},"vehicle_type_id":"4","last_reported":1707152811,"current_range_meters":0,"station_id":"ce4bh012rcd13ifvqd00","pricing_plan_id":"free"},{"bike_id":"56608236-10eb-440a-ad77-3380d49675ea","system_id":"levelo_inurba_marseille","lat":43.291994,"lon":5.392907,"is_reserved":false,"is_disabled":false,"rental_uris":{"android":"levelo://app?vid=56608236-10eb-440a-ad77-3380d49675ea","ios":"levelo://app?vid=56608236-10eb-440a-ad77-3380d49675ea"},"vehicle_type_id":"4","last_reported":1707152811,"current_range_meters":9200,"station_id":"ce4bh192rcd13ifvqdd0","pricing_plan_id":"free"},{"bike_id":"7c369575-148f-4080-8105-9e6362b35c55","system_id":"levelo_inurba_marseille","lat":43.291994,"lon":5.392907,"is_reserved":false,"is_disabled":false,"rental_uris":{"android":"levelo://app?vid=7c369575-148f-4080-8105-9e6362b35c55","ios":"levelo://app?vid=7c369575-148f-4080-8105-9e6362b35c55"},"vehicle_type_id":"4","last_reported":1707152811,"current_range_meters":16000,"station_id":"ce4bh192rcd13ifvqdd0","pricing_plan_id":"free"},{"bike_id":"23a8f48f-833e-4905-86df-49a3e4b24519","system_id":"levelo_inurba_marseille","lat":43.284538,"lon":5.358657,"is_reserved":false,"is_disabled":false,"rental_uris":{"android":"levelo://app?vid=23a8f48f-833e-4905-86df-49a3e4b24519","ios":"levelo://app?vid=23a8f48f-833e-4905-86df-49a3e4b24519"},"vehicle_type_id":"4","last_reported":1707152811,"current_range_meters":31200,"station_id":"ce4bhah2rcd13ifvqei0","pricing_plan_id":"free"},{"bike_id":"948dfabd-9a4c-4374-a421-b0a2b02a7057","system_id":"levelo_inurba_marseille","lat":43.284534,"lon":5.358662,"is_reserved":false,"is_disabled":false,"rental_uris":{"android":"levelo://app?vid=948dfabd-9a4c-4374-a421-b0a2b02a7057","ios":"levelo://app?vid=948dfabd-9a4c-4374-a421-b0a2b02a7057"},"vehicle_type_id":"4","last_reported":1707152811,"current_range_meters":11200,"station_id":"ce4bhah2rcd13ifvqei0","pricing_plan_id":"free"},{"bike_id":"f2b45220-9a44-408f-9856-21825403f219","system_id":"levelo_inurba_marseille","lat":43.284538,"lon":5.358657,"is_reserved":false,"is_disabled":false,"rental_uris":{"android":"levelo://app?vid=f2b45220-9a44-408f-9856-21825403f219","ios":"levelo://app?vid=f2b45220-9a44-408f-9856-21825403f219"},"vehicle_type_id":"4","last_reported":1707152811,"current_range_meters":18400,"station_id":"ce4bhah2rcd13ifvqei0","pricing_plan_id":"free"},{"bike_id":"b64d8727-c326-4108-b29a-931283f2e96b","system_id":"levelo_inurba_marseille","lat":43.284534,"lon":5.358662,"is_reserved":false,"is_disabled":false,"rental_uris":{"android":"levelo://app?vid=b64d8727-c326-4108-b29a-931283f2e96b","ios":"levelo://app?vid=b64d8727-c326-4108-b29a-931283f2e96b"},"vehicle_type_id":"4","last_reported":1707152811,"current_range_meters":12000,"station_id":"ce4bhah2rcd13ifvqei0","pricing_plan_id":"free"},{"bike_id":"e08e2a7c-5c93-4f79-a901-7ebee7e2fa65","system_id":"levelo_inurba_marseille","lat":43.284534,"lon":5.358662,"is_reserved":false,"is_disabled":false,"rental_uris":{"android":"levelo://app?vid=e08e2a7c-5c93-4f79-a901-7ebee7e2fa65","ios":"levelo://app?vid=e08e2a7c-5c93-4f79-a901-7ebee7e2fa65"},"vehicle_type_id":"4","last_reported":1707152811,"current_range_meters":8800,"station_id":"ce4bhah2rcd13ifvqei0","pricing_plan_id":"free"},{"bike_id":"8cbc5456-6b6b-4bff-9ea7-116ad458f7b6","system_id":"levelo_inurba_marseille","lat":43.2846,"lon":5.3589,"is_reserved":false,"is_disabled":false,"rental_uris":{"android":"levelo://app?vid=8cbc5456-6b6b-4bff-9ea7-116ad458f7b6","ios":"levelo://app?vid=8cbc5456-6b6b-4bff-9ea7-116ad458f7b6"},"vehicle_type_id":"4","last_reported":1707152811,"current_range_meters":2000,"station_id":"ce4bhah2rcd13ifvqei0","pricing_plan_id":"free"},{"bike_id":"81a1a49b-1b5e-4df7-bff5-b1f5f31355ac","system_id":"levelo_inurba_marseille","lat":43.284534,"lon":5.358662,"is_reserved":false,"is_disabled":false,"rental_uris":{"android":"levelo://app?vid=81a1a49b-1b5e-4df7-bff5-b1f5f31355ac","ios":"levelo://app?vid=81a1a49b-1b5e-4df7-bff5-b1f5f31355ac"},"vehicle_type_id":"4","last_reported":1707152811,"current_range_meters":5200,"station_id":"ce4bhah2rcd13ifvqei0","pricing_plan_id":"free"},{"bike_id":"7bec747c-0b40-4c06-8f95-2ba2945ba51f","system_id":"levelo_inurba_marseille","lat":43.294314,"lon":5.397498,"is_reserved":false,"is_disabled":false,"rental_uris":{"android":"levelo://app?vid=7bec747c-0b40-4c06-8f95-2ba2945ba51f","ios":"levelo://app?vid=7bec747c-0b40-4c06-8f95-2ba2945ba51f"},"vehicle_type_id":"4","last_reported":1707152811,"current_range_meters":6800,"station_id":"ce4bh3h2rcd13ifvqdo0","pricing_plan_id":"free"},{"bike_id":"7eb72f39-928e-4478-a492-be5af4b46c7d","system_id":"levelo_inurba_marseille","lat":43.284534,"lon":5.358662,"is_reserved":false,"is_disabled":false,"rental_uris":{"android":"levelo://app?vid=7eb72f39-928e-4478-a492-be5af4b46c7d","ios":"levelo://app?vid=7eb72f39-928e-4478-a492-be5af4b46c7d"},"vehicle_type_id":"4","last_reported":1707152811,"current_range_meters":2400,"station_id":"ce4bhah2rcd13ifvqei0","pricing_plan_id":"free"},{"bike_id":"3fd40cc4-20f3-4c1e-9a0d-dde175dc934c","system_id":"levelo_inurba_marseille","lat":43.294314,"lon":5.397498,"is_reserved":false,"is_disabled":false,"rental_uris":{"android":"levelo://app?vid=3fd40cc4-20f3-4c1e-9a0d-dde175dc934c","ios":"levelo://app?vid=3fd40cc4-20f3-4c1e-9a0d-dde175dc934c"},"vehicle_type_id":"4","last_reported":1707152811,"current_range_meters":14000,"station_id":"ce4bh3h2rcd13ifvqdo0","pricing_plan_id":"free"},{"bike_id":"b051c185-2a08-4e42-b21b-bd93a9bb828f","system_id":"levelo_inurba_marseille","lat":43.294314,"lon":5.397498,"is_reserved":false,"is_disabled":false,"rental_uris":{"android":"levelo://app?vid=b051c185-2a08-4e42-b21b-bd93a9bb828f","ios":"levelo://app?vid=b051c185-2a08-4e42-b21b-bd93a9bb828f"},"vehicle_type_id":"4","last_reported":1707152811,"current_range_meters":13200,"station_id":"ce4bh3h2rcd13ifvqdo0","pricing_plan_id":"free"},{"bike_id":"656fcbc4-379e-4b94-b332-090e7bcbabec","system_id":"levelo_inurba_marseille","lat":43.294314,"lon":5.397498,"is_reserved":false,"is_disabled":false,"rental_uris":{"android":"levelo://app?vid=656fcbc4-379e-4b94-b332-090e7bcbabec","ios":"levelo://app?vid=656fcbc4-379e-4b94-b332-090e7bcbabec"},"vehicle_type_id":"4","last_reported":1707152811,"current_range_meters":21600,"station_id":"ce4bh3h2rcd13ifvqdo0","pricing_plan_id":"free"},{"bike_id":"db5860ce-da93-49de-8724-3aef7dc9cb59","system_id":"levelo_inurba_marseille","lat":43.294314,"lon":5.397498,"is_reserved":false,"is_disabled":false,"rental_uris":{"android":"levelo://app?vid=db5860ce-da93-49de-8724-3aef7dc9cb59","ios":"levelo://app?vid=db5860ce-da93-49de-8724-3aef7dc9cb59"},"vehicle_type_id":"4","last_reported":1707152811,"current_range_meters":21200,"station_id":"ce4bh3h2rcd13ifvqdo0","pricing_plan_id":"free"},{"bike_id":"4098cf0c-2668-4ff6-9969-ec65744b749b","system_id":"levelo_inurba_marseille","lat":43.286207,"lon":5.351047,"is_reserved":false,"is_disabled":false,"rental_uris":{"android":"levelo://app?vid=4098cf0c-2668-4ff6-9969-ec65744b749b","ios":"levelo://app?vid=4098cf0c-2668-4ff6-9969-ec65744b749b"},"vehicle_type_id":"4","last_reported":1707152811,"current_range_meters":2400,"station_id":"ce4bhch2rcd13ifvqeug","pricing_plan_id":"free"},{"bike_id":"d4d8784b-bb73-4381-9fb5-0bf95e83bb51","system_id":"levelo_inurba_marseille","lat":43.28614,"lon":5.35102,"is_reserved":false,"is_disabled":false,"rental_uris":{"android":"levelo://app?vid=d4d8784b-bb73-4381-9fb5-0bf95e83bb51","ios":"levelo://app?vid=d4d8784b-bb73-4381-9fb5-0bf95e83bb51"},"vehicle_type_id":"4","last_reported":1707152811,"current_range_meters":20800,"station_id":"ce4bhch2rcd13ifvqeug","pricing_plan_id":"free"},{"bike_id":"56dc3551-27ac-4522-be64-c8703be861fa","system_id":"levelo_inurba_marseille","lat":43.284787,"lon":5.384116,"is_reserved":false,"is_disabled":false,"rental_uris":{"android":"levelo://app?vid=56dc3551-27ac-4522-be64-c8703be861fa","ios":"levelo://app?vid=56dc3551-27ac-4522-be64-c8703be861fa"},"vehicle_type_id":"4","last_reported":1707152811,"current_range_meters":800,"station_id":"ce4bh512rcd13ifvqe3g","pricing_plan_id":"free"},{"bike_id":"5ea78d0f-5544-4bf4-935f-0ea6aa4f8aad","system_id":"levelo_inurba_marseille","lat":43.286595,"lon":5.386795,"is_reserved":false,"is_disabled":false,"rental_uris":{"android":"levelo://app?vid=5ea78d0f-5544-4bf4-935f-0ea6aa4f8aad","ios":"levelo://app?vid=5ea78d0f-5544-4bf4-935f-0ea6aa4f8aad"},"vehicle_type_id":"4","last_reported":1707152811,"current_range_meters":10000,"station_id":"ce4bh492rcd13ifvqdug","pricing_plan_id":"free"},{"bike_id":"6dd89d7f-c6cb-4ec3-ba8b-b4f9241f4e73","system_id":"levelo_inurba_marseille","lat":43.280784,"lon":5.396622,"is_reserved":false,"is_disabled":false,"rental_uris":{"android":"levelo://app?vid=6dd89d7f-c6cb-4ec3-ba8b-b4f9241f4e73","ios":"levelo://app?vid=6dd89d7f-c6cb-4ec3-ba8b-b4f9241f4e73"},"vehicle_type_id":"4","last_reported":1707152811,"current_range_meters":21200,"station_id":"ce4bho12rcd13ifvqh2g","pricing_plan_id":"free"},{"bike_id":"2329ec8b-9506-4f8c-8b2a-5b868a51fb4a","system_id":"levelo_inurba_marseille","lat":43.319179,"lon":5.407725,"is_reserved":false,"is_disabled":false,"rental_uris":{"android":"levelo://app?vid=2329ec8b-9506-4f8c-8b2a-5b868a51fb4a","ios":"levelo://app?vid=2329ec8b-9506-4f8c-8b2a-5b868a51fb4a"},"vehicle_type_id":"4","last_reported":1707152811,"current_range_meters":31200,"station_id":"ce4bhq12rcd13ifvqhig","pricing_plan_id":"free"},{"bike_id":"6aa49924-07a1-42a0-adc0-75778ae8ea7f","system_id":"levelo_inurba_marseille","lat":43.297946,"lon":5.404063,"is_reserved":false,"is_disabled":false,"rental_uris":{"android":"levelo://app?vid=6aa49924-07a1-42a0-adc0-75778ae8ea7f","ios":"levelo://app?vid=6aa49924-07a1-42a0-adc0-75778ae8ea7f"},"vehicle_type_id":"4","last_reported":1707152811,"current_range_meters":3200,"station_id":"ce4bh112rcd13ifvqd90","pricing_plan_id":"free"},{"bike_id":"f4c861ee-e24c-423d-bffc-874fdd263b8f","system_id":"levelo_inurba_marseille","lat":43.33717,"lon":5.391857,"is_reserved":false,"is_disabled":false,"rental_uris":{"android":"levelo://app?vid=f4c861ee-e24c-423d-bffc-874fdd263b8f","ios":"levelo://app?vid=f4c861ee-e24c-423d-bffc-874fdd263b8f"},"vehicle_type_id":"4","last_reported":1707152811,"current_range_meters":6800,"station_id":"ce4bhr92rcd13ifvqhsg","pricing_plan_id":"free"},{"bike_id":"af54167f-4590-488a-ace2-f529fa234427","system_id":"levelo_inurba_marseille","lat":43.33717,"lon":5.391857,"is_reserved":false,"is_disabled":false,"rental_uris":{"android":"levelo://app?vid=af54167f-4590-488a-ace2-f529fa234427","ios":"levelo://app?vid=af54167f-4590-488a-ace2-f529fa234427"},"vehicle_type_id":"4","last_reported":1707152811,"current_range_meters":31200,"station_id":"ce4bhr92rcd13ifvqhsg","pricing_plan_id":"free"},{"bike_id":"a56ab7b7-4613-4433-8f06-11d3a4b55768","system_id":"levelo_inurba_marseille","lat":43.337168,"lon":5.391825,"is_reserved":false,"is_disabled":false,"rental_uris":{"android":"levelo://app?vid=a56ab7b7-4613-4433-8f06-11d3a4b55768","ios":"levelo://app?vid=a56ab7b7-4613-4433-8f06-11d3a4b55768"},"vehicle_type_id":"4","last_reported":1707152811,"current_range_meters":20400,"station_id":"ce4bhr92rcd13ifvqhsg","pricing_plan_id":"free"},{"bike_id":"31511f98-13fc-4231-bc2f-392b27b61d9d","system_id":"levelo_inurba_marseille","lat":43.33717,"lon":5.391857,"is_reserved":false,"is_disabled":false,"rental_uris":{"android":"levelo://app?vid=31511f98-13fc-4231-bc2f-392b27b61d9d","ios":"levelo://app?vid=31511f98-13fc-4231-bc2f-392b27b61d9d"},"vehicle_type_id":"4","last_reported":1707152811,"current_range_meters":31600,"station_id":"ce4bhr92rcd13ifvqhsg","pricing_plan_id":"free"},{"bike_id":"3d069a72-1de6-42a6-add9-0c8fd366e383","system_id":"levelo_inurba_marseille","lat":43.337168,"lon":5.391825,"is_reserved":false,"is_disabled":false,"rental_uris":{"android":"levelo://app?vid=3d069a72-1de6-42a6-add9-0c8fd366e383","ios":"levelo://app?vid=3d069a72-1de6-42a6-add9-0c8fd366e383"},"vehicle_type_id":"4","last_reported":1707152811,"current_range_meters":30800,"station_id":"ce4bhr92rcd13ifvqhsg","pricing_plan_id":"free"},{"bike_id":"a60a081d-cedd-4ec5-996a-738291b3922e","system_id":"levelo_inurba_marseille","lat":43.337168,"lon":5.391825,"is_reserved":false,"is_disabled":false,"rental_uris":{"android":"levelo://app?vid=a60a081d-cedd-4ec5-996a-738291b3922e","ios":"levelo://app?vid=a60a081d-cedd-4ec5-996a-738291b3922e"},"vehicle_type_id":"4","last_reported":1707152811,"current_range_meters":4400,"station_id":"ce4bhr92rcd13ifvqhsg","pricing_plan_id":"free"},{"bike_id":"e3dc0950-156f-4bb6-9ebc-9e6e2ad30039","system_id":"levelo_inurba_marseille","lat":43.284793,"lon":5.384113,"is_reserved":false,"is_disabled":false,"rental_uris":{"android":"levelo://app?vid=e3dc0950-156f-4bb6-9ebc-9e6e2ad30039","ios":"levelo://app?vid=e3dc0950-156f-4bb6-9ebc-9e6e2ad30039"},"vehicle_type_id":"4","last_reported":1707152811,"current_range_meters":6400,"station_id":"ce4bh512rcd13ifvqe3g","pricing_plan_id":"free"},{"bike_id":"34369755-4291-4bf7-9f70-dfd5f99dcbf9","system_id":"levelo_inurba_marseille","lat":43.284787,"lon":5.384116,"is_reserved":false,"is_disabled":false,"rental_uris":{"android":"levelo://app?vid=34369755-4291-4bf7-9f70-dfd5f99dcbf9","ios":"levelo://app?vid=34369755-4291-4bf7-9f70-dfd5f99dcbf9"},"vehicle_type_id":"4","last_reported":1707152811,"current_range_meters":12400,"station_id":"ce4bh512rcd13ifvqe3g","pricing_plan_id":"free"},{"bike_id":"6d8f487f-9468-41fe-b6e0-d95e2824e04f","system_id":"levelo_inurba_marseille","lat":43.284793,"lon":5.384113,"is_reserved":false,"is_disabled":false,"rental_uris":{"android":"levelo://app?vid=6d8f487f-9468-41fe-b6e0-d95e2824e04f","ios":"levelo://app?vid=6d8f487f-9468-41fe-b6e0-d95e2824e04f"},"vehicle_type_id":"4","last_reported":1707152811,"current_range_meters":4000,"station_id":"ce4bh512rcd13ifvqe3g","pricing_plan_id":"free"},{"bike_id":"32169431-30dc-4d2f-8a76-ad9ad4079c39","system_id":"levelo_inurba_marseille","lat":43.284787,"lon":5.384116,"is_reserved":false,"is_disabled":false,"rental_uris":{"android":"levelo://app?vid=32169431-30dc-4d2f-8a76-ad9ad4079c39","ios":"levelo://app?vid=32169431-30dc-4d2f-8a76-ad9ad4079c39"},"vehicle_type_id":"4","last_reported":1707152811,"current_range_meters":1200,"station_id":"ce4bh512rcd13ifvqe3g","pricing_plan_id":"free"},{"bike_id":"3958c97f-1fc9-4da5-8bf2-f9288e94ee03","system_id":"levelo_inurba_marseille","lat":43.29795,"lon":5.404086,"is_reserved":false,"is_disabled":false,"rental_uris":{"android":"levelo://app?vid=3958c97f-1fc9-4da5-8bf2-f9288e94ee03","ios":"levelo://app?vid=3958c97f-1fc9-4da5-8bf2-f9288e94ee03"},"vehicle_type_id":"4","last_reported":1707152811,"current_range_meters":3200,"station_id":"ce4bh112rcd13ifvqd90","pricing_plan_id":"free"},{"bike_id":"44e057c7-5b2e-47ae-b68f-b1b309ad3828","system_id":"levelo_inurba_marseille","lat":43.288497,"lon":5.393089,"is_reserved":false,"is_disabled":false,"rental_uris":{"android":"levelo://app?vid=44e057c7-5b2e-47ae-b68f-b1b309ad3828","ios":"levelo://app?vid=44e057c7-5b2e-47ae-b68f-b1b309ad3828"},"vehicle_type_id":"4","last_reported":1707152811,"current_range_meters":29600,"station_id":"ce4bh2p2rcd13ifvqdi0","pricing_plan_id":"free"},{"bike_id":"f7c6bd23-7fe5-4843-aa84-699430404d07","system_id":"levelo_inurba_marseille","lat":43.288497,"lon":5.393089,"is_reserved":false,"is_disabled":false,"rental_uris":{"android":"levelo://app?vid=f7c6bd23-7fe5-4843-aa84-699430404d07","ios":"levelo://app?vid=f7c6bd23-7fe5-4843-aa84-699430404d07"},"vehicle_type_id":"4","last_reported":1707152811,"current_range_meters":19200,"station_id":"ce4bh2p2rcd13ifvqdi0","pricing_plan_id":"free"},{"bike_id":"c322febe-2283-4129-a1b0-40861e3274e0","system_id":"levelo_inurba_marseille","lat":43.284219,"lon":5.3497,"is_reserved":false,"is_disabled":false,"rental_uris":{"android":"levelo://app?vid=c322febe-2283-4129-a1b0-40861e3274e0","ios":"levelo://app?vid=c322febe-2283-4129-a1b0-40861e3274e0"},"vehicle_type_id":"4","last_reported":1707152811,"current_range_meters":6800,"station_id":"ce4bhbh2rcd13ifvqepg","pricing_plan_id":"free"},{"bike_id":"12cf56cf-8171-4843-8676-14d36a8c6302","system_id":"levelo_inurba_marseille","lat":43.284219,"lon":5.3497,"is_reserved":false,"is_disabled":false,"rental_uris":{"android":"levelo://app?vid=12cf56cf-8171-4843-8676-14d36a8c6302","ios":"levelo://app?vid=12cf56cf-8171-4843-8676-14d36a8c6302"},"vehicle_type_id":"4","last_reported":1707152811,"current_range_meters":19200,"station_id":"ce4bhbh2rcd13ifvqepg","pricing_plan_id":"free"},{"bike_id":"d79647ee-7a6b-436a-a18b-7656afeca61e","system_id":"levelo_inurba_marseille","lat":43.284219,"lon":5.3497,"is_reserved":false,"is_disabled":false,"rental_uris":{"android":"levelo://app?vid=d79647ee-7a6b-436a-a18b-7656afeca61e","ios":"levelo://app?vid=d79647ee-7a6b-436a-a18b-7656afeca61e"},"vehicle_type_id":"4","last_reported":1707152811,"current_range_meters":12800,"station_id":"ce4bhbh2rcd13ifvqepg","pricing_plan_id":"free"},{"bike_id":"42e1c91c-6ece-40d2-bebc-00f9a556b54f","system_id":"levelo_inurba_marseille","lat":43.284219,"lon":5.3497,"is_reserved":false,"is_disabled":false,"rental_uris":{"android":"levelo://app?vid=42e1c91c-6ece-40d2-bebc-00f9a556b54f","ios":"levelo://app?vid=42e1c91c-6ece-40d2-bebc-00f9a556b54f"},"vehicle_type_id":"4","last_reported":1707152811,"current_range_meters":31200,"station_id":"ce4bhbh2rcd13ifvqepg","pricing_plan_id":"free"},{"bike_id":"9a5e990d-0407-410b-ad53-fdceb43a0481","system_id":"levelo_inurba_marseille","lat":43.284217,"lon":5.349697,"is_reserved":false,"is_disabled":false,"rental_uris":{"android":"levelo://app?vid=9a5e990d-0407-410b-ad53-fdceb43a0481","ios":"levelo://app?vid=9a5e990d-0407-410b-ad53-fdceb43a0481"},"vehicle_type_id":"4","last_reported":1707152811,"current_range_meters":31200,"station_id":"ce4bhbh2rcd13ifvqepg","pricing_plan_id":"free"},{"bike_id":"4567fe9c-6afc-4c1a-8627-75c914c53403","system_id":"levelo_inurba_marseille","lat":43.284219,"lon":5.3497,"is_reserved":false,"is_disabled":false,"rental_uris":{"android":"levelo://app?vid=4567fe9c-6afc-4c1a-8627-75c914c53403","ios":"levelo://app?vid=4567fe9c-6afc-4c1a-8627-75c914c53403"},"vehicle_type_id":"4","last_reported":1707152811,"current_range_meters":24400,"station_id":"ce4bhbh2rcd13ifvqepg","pricing_plan_id":"free"},{"bike_id":"6424981b-0849-4f02-8bd0-268ba0f722e1","system_id":"levelo_inurba_marseille","lat":43.28418,"lon":5.34995,"is_reserved":false,"is_disabled":false,"rental_uris":{"android":"levelo://app?vid=6424981b-0849-4f02-8bd0-268ba0f722e1","ios":"levelo://app?vid=6424981b-0849-4f02-8bd0-268ba0f722e1"},"vehicle_type_id":"4","last_reported":1707152811,"current_range_meters":20400,"station_id":"ce4bhbh2rcd13ifvqepg","pricing_plan_id":"free"},{"bike_id":"85dbb046-d52b-4684-af67-a0dc890d8d72","system_id":"levelo_inurba_marseille","lat":43.284217,"lon":5.349697,"is_reserved":false,"is_disabled":false,"rental_uris":{"android":"levelo://app?vid=85dbb046-d52b-4684-af67-a0dc890d8d72","ios":"levelo://app?vid=85dbb046-d52b-4684-af67-a0dc890d8d72"},"vehicle_type_id":"4","last_reported":1707152811,"current_range_meters":29200,"station_id":"ce4bhbh2rcd13ifvqepg","pricing_plan_id":"free"},{"bike_id":"90f31133-1865-4bce-9afb-b38d147751e3","system_id":"levelo_inurba_marseille","lat":43.28419,"lon":5.3499,"is_reserved":false,"is_disabled":false,"rental_uris":{"android":"levelo://app?vid=90f31133-1865-4bce-9afb-b38d147751e3","ios":"levelo://app?vid=90f31133-1865-4bce-9afb-b38d147751e3"},"vehicle_type_id":"4","last_reported":1707152811,"current_range_meters":31200,"station_id":"ce4bhbh2rcd13ifvqepg","pricing_plan_id":"free"},{"bike_id":"766d5723-bb03-4df0-9cca-12a0f5bf5927","system_id":"levelo_inurba_marseille","lat":43.284197,"lon":5.349864,"is_reserved":false,"is_disabled":false,"rental_uris":{"android":"levelo://app?vid=766d5723-bb03-4df0-9cca-12a0f5bf5927","ios":"levelo://app?vid=766d5723-bb03-4df0-9cca-12a0f5bf5927"},"vehicle_type_id":"4","last_reported":1707152811,"current_range_meters":15200,"station_id":"ce4bhbh2rcd13ifvqepg","pricing_plan_id":"free"},{"bike_id":"9a3dc4bf-33f2-409f-8162-0b53e299cea5","system_id":"levelo_inurba_marseille","lat":43.284219,"lon":5.3497,"is_reserved":false,"is_disabled":false,"rental_uris":{"android":"levelo://app?vid=9a3dc4bf-33f2-409f-8162-0b53e299cea5","ios":"levelo://app?vid=9a3dc4bf-33f2-409f-8162-0b53e299cea5"},"vehicle_type_id":"4","last_reported":1707152811,"current_range_meters":9200,"station_id":"ce4bhbh2rcd13ifvqepg","pricing_plan_id":"free"},{"bike_id":"0bf6ca6f-8bde-4eec-9624-b4c44eff9312","system_id":"levelo_inurba_marseille","lat":43.284219,"lon":5.3497,"is_reserved":false,"is_disabled":false,"rental_uris":{"android":"levelo://app?vid=0bf6ca6f-8bde-4eec-9624-b4c44eff9312","ios":"levelo://app?vid=0bf6ca6f-8bde-4eec-9624-b4c44eff9312"},"vehicle_type_id":"4","last_reported":1707152811,"current_range_meters":1600,"station_id":"ce4bhbh2rcd13ifvqepg","pricing_plan_id":"free"},{"bike_id":"1e4c43f2-a9e2-4c20-b575-4973b2af0aa4","system_id":"levelo_inurba_marseille","lat":43.284219,"lon":5.3497,"is_reserved":false,"is_disabled":false,"rental_uris":{"android":"levelo://app?vid=1e4c43f2-a9e2-4c20-b575-4973b2af0aa4","ios":"levelo://app?vid=1e4c43f2-a9e2-4c20-b575-4973b2af0aa4"},"vehicle_type_id":"4","last_reported":1707152811,"current_range_meters":0,"station_id":"ce4bhbh2rcd13ifvqepg","pricing_plan_id":"free"},{"bike_id":"801a3894-ae79-453a-8a1e-43c8dfdf5d70","system_id":"levelo_inurba_marseille","lat":43.284219,"lon":5.3497,"is_reserved":false,"is_disabled":false,"rental_uris":{"android":"levelo://app?vid=801a3894-ae79-453a-8a1e-43c8dfdf5d70","ios":"levelo://app?vid=801a3894-ae79-453a-8a1e-43c8dfdf5d70"},"vehicle_type_id":"4","last_reported":1707152811,"current_range_meters":5200,"station_id":"ce4bhbh2rcd13ifvqepg","pricing_plan_id":"free"},{"bike_id":"fce9a6c4-b21a-4b90-9771-bc4b33ef8d55","system_id":"levelo_inurba_marseille","lat":43.284128,"lon":5.349978,"is_reserved":false,"is_disabled":false,"rental_uris":{"android":"levelo://app?vid=fce9a6c4-b21a-4b90-9771-bc4b33ef8d55","ios":"levelo://app?vid=fce9a6c4-b21a-4b90-9771-bc4b33ef8d55"},"vehicle_type_id":"4","last_reported":1707152811,"current_range_meters":22000,"station_id":"ce4bhbh2rcd13ifvqepg","pricing_plan_id":"free"},{"bike_id":"1582e69c-303e-4bc0-ae24-00160e815ff7","system_id":"levelo_inurba_marseille","lat":43.284219,"lon":5.3497,"is_reserved":false,"is_disabled":false,"rental_uris":{"android":"levelo://app?vid=1582e69c-303e-4bc0-ae24-00160e815ff7","ios":"levelo://app?vid=1582e69c-303e-4bc0-ae24-00160e815ff7"},"vehicle_type_id":"4","last_reported":1707152811,"current_range_meters":22400,"station_id":"ce4bhbh2rcd13ifvqepg","pricing_plan_id":"free"},{"bike_id":"015fa05f-9511-4519-bcf1-c62d0d904161","system_id":"levelo_inurba_marseille","lat":43.284217,"lon":5.349697,"is_reserved":false,"is_disabled":false,"rental_uris":{"android":"levelo://app?vid=015fa05f-9511-4519-bcf1-c62d0d904161","ios":"levelo://app?vid=015fa05f-9511-4519-bcf1-c62d0d904161"},"vehicle_type_id":"4","last_reported":1707152811,"current_range_meters":7200,"station_id":"ce4bhbh2rcd13ifvqepg","pricing_plan_id":"free"},{"bike_id":"948623a1-0af0-4b59-9e55-aa56d38082f4","system_id":"levelo_inurba_marseille","lat":43.282807,"lon":5.350749,"is_reserved":false,"is_disabled":false,"rental_uris":{"android":"levelo://app?vid=948623a1-0af0-4b59-9e55-aa56d38082f4","ios":"levelo://app?vid=948623a1-0af0-4b59-9e55-aa56d38082f4"},"vehicle_type_id":"4","last_reported":1707152811,"current_range_meters":0,"station_id":"ce4bhbp2rcd13ifvqerg","pricing_plan_id":"free"},{"bike_id":"1e2a751f-2749-4193-b597-83b0ee0d5945","system_id":"levelo_inurba_marseille","lat":43.282754,"lon":5.350519,"is_reserved":false,"is_disabled":false,"rental_uris":{"android":"levelo://app?vid=1e2a751f-2749-4193-b597-83b0ee0d5945","ios":"levelo://app?vid=1e2a751f-2749-4193-b597-83b0ee0d5945"},"vehicle_type_id":"4","last_reported":1707152811,"current_range_meters":0,"station_id":"ce4bhbp2rcd13ifvqerg","pricing_plan_id":"free"},{"bike_id":"0a8400ac-d1b1-48c2-8472-8dbea944e213","system_id":"levelo_inurba_marseille","lat":43.282744,"lon":5.350533,"is_reserved":false,"is_disabled":false,"rental_uris":{"android":"levelo://app?vid=0a8400ac-d1b1-48c2-8472-8dbea944e213","ios":"levelo://app?vid=0a8400ac-d1b1-48c2-8472-8dbea944e213"},"vehicle_type_id":"4","last_reported":1707152811,"current_range_meters":11600,"station_id":"ce4bhbp2rcd13ifvqerg","pricing_plan_id":"free"},{"bike_id":"c23514de-388d-4806-b2bd-ddca2d57787d","system_id":"levelo_inurba_marseille","lat":43.282754,"lon":5.350519,"is_reserved":false,"is_disabled":false,"rental_uris":{"android":"levelo://app?vid=c23514de-388d-4806-b2bd-ddca2d57787d","ios":"levelo://app?vid=c23514de-388d-4806-b2bd-ddca2d57787d"},"vehicle_type_id":"4","last_reported":1707152811,"current_range_meters":5200,"station_id":"ce4bhbp2rcd13ifvqerg","pricing_plan_id":"free"},{"bike_id":"39be4a6c-805d-4665-b553-fb91ff19215e","system_id":"levelo_inurba_marseille","lat":43.28271,"lon":5.35062,"is_reserved":false,"is_disabled":false,"rental_uris":{"android":"levelo://app?vid=39be4a6c-805d-4665-b553-fb91ff19215e","ios":"levelo://app?vid=39be4a6c-805d-4665-b553-fb91ff19215e"},"vehicle_type_id":"4","last_reported":1707152811,"current_range_meters":0,"station_id":"ce4bhbp2rcd13ifvqerg","pricing_plan_id":"free"},{"bike_id":"cb4e5f9a-b5dc-4a79-b66a-9de1a465e413","system_id":"levelo_inurba_marseille","lat":43.28268,"lon":5.35066,"is_reserved":false,"is_disabled":false,"rental_uris":{"android":"levelo://app?vid=cb4e5f9a-b5dc-4a79-b66a-9de1a465e413","ios":"levelo://app?vid=cb4e5f9a-b5dc-4a79-b66a-9de1a465e413"},"vehicle_type_id":"4","last_reported":1707152811,"current_range_meters":2800,"station_id":"ce4bhbp2rcd13ifvqerg","pricing_plan_id":"free"},{"bike_id":"843d5c81-c76a-49d8-b590-d1e70856d7c6","system_id":"levelo_inurba_marseille","lat":43.283502,"lon":5.386471,"is_reserved":false,"is_disabled":false,"rental_uris":{"android":"levelo://app?vid=843d5c81-c76a-49d8-b590-d1e70856d7c6","ios":"levelo://app?vid=843d5c81-c76a-49d8-b590-d1e70856d7c6"},"vehicle_type_id":"4","last_reported":1707152811,"current_range_meters":26400,"station_id":"ce4bh492rcd13ifvqdvg","pricing_plan_id":"free"},{"bike_id":"969e1dde-310e-4f49-9bf2-d3bbb29b1b5d","system_id":"levelo_inurba_marseille","lat":43.283502,"lon":5.386471,"is_reserved":false,"is_disabled":false,"rental_uris":{"android":"levelo://app?vid=969e1dde-310e-4f49-9bf2-d3bbb29b1b5d","ios":"levelo://app?vid=969e1dde-310e-4f49-9bf2-d3bbb29b1b5d"},"vehicle_type_id":"4","last_reported":1707152811,"current_range_meters":3200,"station_id":"ce4bh492rcd13ifvqdvg","pricing_plan_id":"free"},{"bike_id":"1588d6a8-7448-4aa6-ae0b-caf9e3149f80","system_id":"levelo_inurba_marseille","lat":43.282754,"lon":5.350519,"is_reserved":false,"is_disabled":false,"rental_uris":{"android":"levelo://app?vid=1588d6a8-7448-4aa6-ae0b-caf9e3149f80","ios":"levelo://app?vid=1588d6a8-7448-4aa6-ae0b-caf9e3149f80"},"vehicle_type_id":"4","last_reported":1707152811,"current_range_meters":7200,"station_id":"ce4bhbp2rcd13ifvqerg","pricing_plan_id":"free"},{"bike_id":"0a35e523-7b69-417e-a11c-abf8eec29834","system_id":"levelo_inurba_marseille","lat":43.283502,"lon":5.386471,"is_reserved":false,"is_disabled":false,"rental_uris":{"android":"levelo://app?vid=0a35e523-7b69-417e-a11c-abf8eec29834","ios":"levelo://app?vid=0a35e523-7b69-417e-a11c-abf8eec29834"},"vehicle_type_id":"4","last_reported":1707152811,"current_range_meters":28400,"station_id":"ce4bh492rcd13ifvqdvg","pricing_plan_id":"free"},{"bike_id":"23f70ef6-aa7f-4dc3-9a10-2f2cd296ea18","system_id":"levelo_inurba_marseille","lat":43.28039,"lon":5.369297,"is_reserved":false,"is_disabled":false,"rental_uris":{"android":"levelo://app?vid=23f70ef6-aa7f-4dc3-9a10-2f2cd296ea18","ios":"levelo://app?vid=23f70ef6-aa7f-4dc3-9a10-2f2cd296ea18"},"vehicle_type_id":"4","last_reported":1707152811,"current_range_meters":16800,"station_id":"ce4bha12rcd13ifvqef0","pricing_plan_id":"free"},{"bike_id":"1501ac0d-1036-40cb-b60b-ce9fcf68defa","system_id":"levelo_inurba_marseille","lat":43.28039,"lon":5.369297,"is_reserved":false,"is_disabled":false,"rental_uris":{"android":"levelo://app?vid=1501ac0d-1036-40cb-b60b-ce9fcf68defa","ios":"levelo://app?vid=1501ac0d-1036-40cb-b60b-ce9fcf68defa"},"vehicle_type_id":"4","last_reported":1707152811,"current_range_meters":26800,"station_id":"ce4bha12rcd13ifvqef0","pricing_plan_id":"free"},{"bike_id":"f1b876f1-a59a-4fb2-8ef1-d520f4ef40fb","system_id":"levelo_inurba_marseille","lat":43.28036,"lon":5.36938,"is_reserved":false,"is_disabled":false,"rental_uris":{"android":"levelo://app?vid=f1b876f1-a59a-4fb2-8ef1-d520f4ef40fb","ios":"levelo://app?vid=f1b876f1-a59a-4fb2-8ef1-d520f4ef40fb"},