{"last_updated":1762931475,"ttl":60,"version":"2.2","data":{"bikes":[{"bike_id":"d7db12ce-11cc-4c98-8751-ac59baa5d7aa","system_id":"levelo_inurba_marseille","lat":43.337444,"lon":5.374475,"is_reserved":false,"is_disabled":false,"rental_uris":{"android":"levelo://app?vid=d7db12ce-11cc-4c98-8751-ac59baa5d7aa","ios":"levelo://app?vid=d7db12ce-11cc-4c98-8751-ac59baa5d7aa"},"vehicle_type_id":"4","last_reported":1762931475,"current_range_meters":0,"station_id":"","pricing_plan_id":"cebpf4jnsgd1na2vs0mg"},{"bike_id":"acdd48f6-1b67-47c4-9eaa-f68d444e1fe6","system_id":"levelo_inurba_marseille","lat":43.258716,"lon":5.376452,"is_reserved":false,"is_disabled":false,"rental_uris":{"android":"levelo://app?vid=acdd48f6-1b67-47c4-9eaa-f68d444e1fe6","ios":"levelo://app?vid=acdd48f6-1b67-47c4-9eaa-f68d444e1fe6"},"vehicle_type_id":"4","last_reported":1762931475,"current_range_meters":2800,"station_id":"ce4bhnp2rcd13ifvqgvg","pricing_plan_id":"cebpf4jnsgd1na2vs0mg"},{"bike_id":"33d699b7-8917-4c97-9e84-ce2fc26e7ef4","system_id":"levelo_inurba_marseille","lat":43.269371,"lon":5.386353,"is_reserved":false,"is_disabled":false,"rental_uris":{"android":"levelo://app?vid=33d699b7-8917-4c97-9e84-ce2fc26e7ef4","ios":"levelo://app?vid=33d699b7-8917-4c97-9e84-ce2fc26e7ef4"},"vehicle_type_id":"4","last_reported":1762931475,"current_range_meters":2800,"station_id":"ce4bhh92rcd13ifvqfh0","pricing_plan_id":"cebpf4jnsgd1na2vs0mg"},{"bike_id":"c1f972ed-b4a1-4093-a2cd-56bdfbb22fa6","system_id":"levelo_inurba_marseille","lat":43.24072,"lon":5.37767,"is_reserved":false,"is_disabled":false,"rental_uris":{"android":"levelo://app?vid=c1f972ed-b4a1-4093-a2cd-56bdfbb22fa6","ios":"levelo://app?vid=c1f972ed-b4a1-4093-a2cd-56bdfbb22fa6"},"vehicle_type_id":"4","last_reported":1762931475,"current_range_meters":2800,"station_id":"ce4bhnp2rcd13ifvqgvg","pricing_plan_id":"cebpf4jnsgd1na2vs0mg"},{"bike_id":"8dd7b23a-b965-4ec7-b3c5-6ba564eb3f98","system_id":"levelo_inurba_marseille","lat":43.31713,"lon":5.3778,"is_reserved":false,"is_disabled":false,"rental_uris":{"android":"levelo://app?vid=8dd7b23a-b965-4ec7-b3c5-6ba564eb3f98","ios":"levelo://app?vid=8dd7b23a-b965-4ec7-b3c5-6ba564eb3f98"},"vehicle_type_id":"4","last_reported":1762931475,"current_range_meters":2800,"station_id":"ce4bgth2rcd13ifvqch0","pricing_plan_id":"cebpf4jnsgd1na2vs0mg"},{"bike_id":"92842b53-5046-480e-aad7-bbcf36691d95","system_id":"levelo_inurba_marseille","lat":43.281766,"lon":5.365104,"is_reserved":false,"is_disabled":false,"rental_uris":{"android":"levelo://app?vid=92842b53-5046-480e-aad7-bbcf36691d95","ios":"levelo://app?vid=92842b53-5046-480e-aad7-bbcf36691d95"},"vehicle_type_id":"4","last_reported":1762931475,"current_range_meters":2800,"station_id":"","pricing_plan_id":"cebpf4jnsgd1na2vs0mg"},{"bike_id":"1bef32cb-7d1e-4303-a020-1532c28fd3d9","system_id":"levelo_inurba_marseille","lat":43.29551,"lon":5.42292,"is_reserved":false,"is_disabled":false,"rental_uris":{"android":"levelo://app?vid=1bef32cb-7d1e-4303-a020-1532c28fd3d9","ios":"levelo://app?vid=1bef32cb-7d1e-4303-a020-1532c28fd3d9"},"vehicle_type_id":"4","last_reported":1762931475,"current_range_meters":2800,"station_id":"ce4bhph2rcd13ifvqhdg","pricing_plan_id":"cebpf4jnsgd1na2vs0mg"},{"bike_id":"355d0a72-63a4-43ac-addc-15604eb0aa69","system_id":"levelo_inurba_marseille","lat":43.29918,"lon":5.36411,"is_reserved":false,"is_disabled":false,"rental_uris":{"android":"levelo://app?vid=355d0a72-63a4-43ac-addc-15604eb0aa69","ios":"levelo://app?vid=355d0a72-63a4-43ac-addc-15604eb0aa69"},"vehicle_type_id":"4","last_reported":1762931475,"current_range_meters":2800,"station_id":"","pricing_plan_id":"cebpf4jnsgd1na2vs0mg"},{"bike_id":"ae8df7c2-dced-4c87-8be6-83ffc212bba9","system_id":"levelo_inurba_marseille","lat":43.28272,"lon":5.35076,"is_reserved":false,"is_disabled":true,"rental_uris":{"android":"levelo://app?vid=ae8df7c2-dced-4c87-8be6-83ffc212bba9","ios":"levelo://app?vid=ae8df7c2-dced-4c87-8be6-83ffc212bba9"},"vehicle_type_id":"4","last_reported":1762931475,"current_range_meters":3200,"station_id":"ce4bhbp2rcd13ifvqerg","pricing_plan_id":"cebpf4jnsgd1na2vs0mg"},{"bike_id":"6179d122-98b0-4fc9-8c4d-d1930715900c","system_id":"levelo_inurba_marseille","lat":43.2594,"lon":5.40903,"is_reserved":false,"is_disabled":false,"rental_uris":{"android":"levelo://app?vid=6179d122-98b0-4fc9-8c4d-d1930715900c","ios":"levelo://app?vid=6179d122-98b0-4fc9-8c4d-d1930715900c"},"vehicle_type_id":"4","last_reported":1762931475,"current_range_meters":3600,"station_id":"ce4bhm92rcd13ifvqglg","pricing_plan_id":"cebpf4jnsgd1na2vs0mg"},{"bike_id":"73177cfa-5136-451e-b441-b50ac15f6f39","system_id":"levelo_inurba_marseille","lat":43.28376,"lon":5.3878,"is_reserved":false,"is_disabled":false,"rental_uris":{"android":"levelo://app?vid=73177cfa-5136-451e-b441-b50ac15f6f39","ios":"levelo://app?vid=73177cfa-5136-451e-b441-b50ac15f6f39"},"vehicle_type_id":"4","last_reported":1762931475,"current_range_meters":4000,"station_id":"","pricing_plan_id":"cebpf4jnsgd1na2vs0mg"},{"bike_id":"9ade1fe7-d83f-4045-9bd3-74892e77626e","system_id":"levelo_inurba_marseille","lat":43.24095,"lon":5.37742,"is_reserved":false,"is_disabled":true,"rental_uris":{"android":"levelo://app?vid=9ade1fe7-d83f-4045-9bd3-74892e77626e","ios":"levelo://app?vid=9ade1fe7-d83f-4045-9bd3-74892e77626e"},"vehicle_type_id":"4","last_reported":1762931475,"current_range_meters":4000,"station_id":"ce4bhnp2rcd13ifvqgvg","pricing_plan_id":"cebpf4jnsgd1na2vs0mg"},{"bike_id":"7b4cb730-dad5-46f4-b94e-9b76df5d00b0","system_id":"levelo_inurba_marseille","lat":43.28728,"lon":5.3794,"is_reserved":false,"is_disabled":false,"rental_uris":{"android":"levelo://app?vid=7b4cb730-dad5-46f4-b94e-9b76df5d00b0","ios":"levelo://app?vid=7b4cb730-dad5-46f4-b94e-9b76df5d00b0"},"vehicle_type_id":"4","last_reported":1762931475,"current_range_meters":4800,"station_id":"ce4bh9p2rcd13ifvqec0","pricing_plan_id":"cebpf4jnsgd1na2vs0mg"},{"bike_id":"955d9a5d-a221-4f04-a24b-63cc6dec5c74","system_id":"levelo_inurba_marseille","lat":43.33608,"lon":5.4103,"is_reserved":false,"is_disabled":false,"rental_uris":{"android":"levelo://app?vid=955d9a5d-a221-4f04-a24b-63cc6dec5c74","ios":"levelo://app?vid=955d9a5d-a221-4f04-a24b-63cc6dec5c74"},"vehicle_type_id":"4","last_reported":1762931475,"current_range_meters":4800,"station_id":"ce4bhqh2rcd13ifvqhmg","pricing_plan_id":"cebpf4jnsgd1na2vs0mg"},{"bike_id":"b2be4fa2-44ee-40dc-acc7-1755c74f1c5d","system_id":"levelo_inurba_marseille","lat":43.29751,"lon":5.41108,"is_reserved":false,"is_disabled":false,"rental_uris":{"android":"levelo://app?vid=b2be4fa2-44ee-40dc-acc7-1755c74f1c5d","ios":"levelo://app?vid=b2be4fa2-44ee-40dc-acc7-1755c74f1c5d"},"vehicle_type_id":"4","last_reported":1762931475,"current_range_meters":4800,"station_id":"","pricing_plan_id":"cebpf4jnsgd1na2vs0mg"},{"bike_id":"349b2ad9-adea-4dd9-9ac9-fffb121b5424","system_id":"levelo_inurba_marseille","lat":43.29892,"lon":5.37537,"is_reserved":false,"is_disabled":false,"rental_uris":{"android":"levelo://app?vid=349b2ad9-adea-4dd9-9ac9-fffb121b5424","ios":"levelo://app?vid=349b2ad9-adea-4dd9-9ac9-fffb121b5424"},"vehicle_type_id":"4","last_reported":1762931475,"current_range_meters":5600,"station_id":"","pricing_plan_id":"cebpf4jnsgd1na2vs0mg"},{"bike_id":"4a3ae31d-d8ff-4ad5-ab85-06030df76a31","system_id":"levelo_inurba_marseille","lat":43.29031,"lon":5.39985,"is_reserved":false,"is_disabled":false,"rental_uris":{"android":"levelo://app?vid=4a3ae31d-d8ff-4ad5-ab85-06030df76a31","ios":"levelo://app?vid=4a3ae31d-d8ff-4ad5-ab85-06030df76a31"},"vehicle_type_id":"4","last_reported":1762931475,"current_range_meters":6000,"station_id":"ce4bh392rcd13ifvqdm0","pricing_plan_id":"cebpf4jnsgd1na2vs0mg"},{"bike_id":"a3231d5e-6ab6-4833-9ef3-41bddcf19fed","system_id":"levelo_inurba_marseille","lat":43.24958,"lon":5.40524,"is_reserved":false,"is_disabled":false,"rental_uris":{"android":"levelo://app?vid=a3231d5e-6ab6-4833-9ef3-41bddcf19fed","ios":"levelo://app?vid=a3231d5e-6ab6-4833-9ef3-41bddcf19fed"},"vehicle_type_id":"4","last_reported":1762931475,"current_range_meters":6000,"station_id":"st_d2ngiaodas8pm72gd1h0","pricing_plan_id":"cebpf4jnsgd1na2vs0mg"},{"bike_id":"a714915f-aff3-456a-ac83-82a945eab060","system_id":"levelo_inurba_marseille","lat":43.29749,"lon":5.42791,"is_reserved":false,"is_disabled":false,"rental_uris":{"android":"levelo://app?vid=a714915f-aff3-456a-ac83-82a945eab060","ios":"levelo://app?vid=a714915f-aff3-456a-ac83-82a945eab060"},"vehicle_type_id":"4","last_reported":1762931475,"current_range_meters":6000,"station_id":"st_d3md5207bmas73dh9klg","pricing_plan_id":"cebpf4jnsgd1na2vs0mg"},{"bike_id":"f1b0ed91-08ec-41f1-988b-7c9277bf00df","system_id":"levelo_inurba_marseille","lat":43.25936,"lon":5.40905,"is_reserved":false,"is_disabled":false,"rental_uris":{"android":"levelo://app?vid=f1b0ed91-08ec-41f1-988b-7c9277bf00df","ios":"levelo://app?vid=f1b0ed91-08ec-41f1-988b-7c9277bf00df"},"vehicle_type_id":"4","last_reported":1762931475,"current_range_meters":6000,"station_id":"ce4bhm92rcd13ifvqglg","pricing_plan_id":"cebpf4jnsgd1na2vs0mg"},{"bike_id":"88c78a65-62a0-462e-bac9-87e899921be1","system_id":"levelo_inurba_marseille","lat":43.303759,"lon":5.381252,"is_reserved":false,"is_disabled":false,"rental_uris":{"android":"levelo://app?vid=88c78a65-62a0-462e-bac9-87e899921be1","ios":"levelo://app?vid=88c78a65-62a0-462e-bac9-87e899921be1"},"vehicle_type_id":"4","last_reported":1762931475,"current_range_meters":6000,"station_id":"ce4bgjp2rcd13ifvqbh0","pricing_plan_id":"cebpf4jnsgd1na2vs0mg"},{"bike_id":"ff895188-573e-4925-a1bc-142536caf77b","system_id":"levelo_inurba_marseille","lat":43.26208,"lon":5.3746,"is_reserved":false,"is_disabled":false,"rental_uris":{"android":"levelo://app?vid=ff895188-573e-4925-a1bc-142536caf77b","ios":"levelo://app?vid=ff895188-573e-4925-a1bc-142536caf77b"},"vehicle_type_id":"4","last_reported":1762931475,"current_range_meters":6400,"station_id":"ce4bhgp2rcd13ifvqfc0","pricing_plan_id":"cebpf4jnsgd1na2vs0mg"},{"bike_id":"c620c9fc-398f-4dca-8fdd-2b652311235d","system_id":"levelo_inurba_marseille","lat":43.21189,"lon":5.35073,"is_reserved":false,"is_disabled":true,"rental_uris":{"android":"levelo://app?vid=c620c9fc-398f-4dca-8fdd-2b652311235d","ios":"levelo://app?vid=c620c9fc-398f-4dca-8fdd-2b652311235d"},"vehicle_type_id":"4","last_reported":1762931475,"current_range_meters":6400,"station_id":"st_cvj6sg6p6f1abm77japg","pricing_plan_id":"cebpf4jnsgd1na2vs0mg"},{"bike_id":"95e32340-1dfd-4000-941b-e5f36491f95b","system_id":"levelo_inurba_marseille","lat":43.3148,"lon":5.37311,"is_reserved":false,"is_disabled":false,"rental_uris":{"android":"levelo://app?vid=95e32340-1dfd-4000-941b-e5f36491f95b","ios":"levelo://app?vid=95e32340-1dfd-4000-941b-e5f36491f95b"},"vehicle_type_id":"4","last_reported":1762931475,"current_range_meters":6400,"station_id":"ce4bgt12rcd13ifvqcd0","pricing_plan_id":"cebpf4jnsgd1na2vs0mg"},{"bike_id":"945f0a73-e095-4d7c-8571-5990dcd1e278","system_id":"levelo_inurba_marseille","lat":43.28946,"lon":5.36412,"is_reserved":false,"is_disabled":false,"rental_uris":{"android":"levelo://app?vid=945f0a73-e095-4d7c-8571-5990dcd1e278","ios":"levelo://app?vid=945f0a73-e095-4d7c-8571-5990dcd1e278"},"vehicle_type_id":"4","last_reported":1762931475,"current_range_meters":6400,"station_id":"ce4bhc92rcd13ifvqetg","pricing_plan_id":"cebpf4jnsgd1na2vs0mg"},{"bike_id":"90014676-de4b-4206-81e2-7d45f368da6b","system_id":"levelo_inurba_marseille","lat":43.27064,"lon":5.40259,"is_reserved":false,"is_disabled":false,"rental_uris":{"android":"levelo://app?vid=90014676-de4b-4206-81e2-7d45f368da6b","ios":"levelo://app?vid=90014676-de4b-4206-81e2-7d45f368da6b"},"vehicle_type_id":"4","last_reported":1762931475,"current_range_meters":6800,"station_id":"ce4bhk92rcd13ifvqgc0","pricing_plan_id":"cebpf4jnsgd1na2vs0mg"},{"bike_id":"88accedf-67d1-4eb0-a021-a99bf15882bd","system_id":"levelo_inurba_marseille","lat":43.31701,"lon":5.40471,"is_reserved":false,"is_disabled":false,"rental_uris":{"android":"levelo://app?vid=88accedf-67d1-4eb0-a021-a99bf15882bd","ios":"levelo://app?vid=88accedf-67d1-4eb0-a021-a99bf15882bd"},"vehicle_type_id":"4","last_reported":1762931475,"current_range_meters":6800,"station_id":"ce4bh012rcd13ifvqd00","pricing_plan_id":"cebpf4jnsgd1na2vs0mg"},{"bike_id":"d14a3070-960e-421d-b5dc-419b8cc88005","system_id":"levelo_inurba_marseille","lat":43.316,"lon":5.37675,"is_reserved":false,"is_disabled":false,"rental_uris":{"android":"levelo://app?vid=d14a3070-960e-421d-b5dc-419b8cc88005","ios":"levelo://app?vid=d14a3070-960e-421d-b5dc-419b8cc88005"},"vehicle_type_id":"4","last_reported":1762931475,"current_range_meters":6800,"station_id":"","pricing_plan_id":"cebpf4jnsgd1na2vs0mg"},{"bike_id":"a5d1b72a-4410-4379-8f75-4dd7ad417e3f","system_id":"levelo_inurba_marseille","lat":43.28729,"lon":5.37935,"is_reserved":false,"is_disabled":false,"rental_uris":{"android":"levelo://app?vid=a5d1b72a-4410-4379-8f75-4dd7ad417e3f","ios":"levelo://app?vid=a5d1b72a-4410-4379-8f75-4dd7ad417e3f"},"vehicle_type_id":"4","last_reported":1762931475,"current_range_meters":7200,"station_id":"ce4bh9p2rcd13ifvqec0","pricing_plan_id":"cebpf4jnsgd1na2vs0mg"},{"bike_id":"08967b72-f855-4247-9f13-45406a98208a","system_id":"levelo_inurba_marseille","lat":43.26224,"lon":5.40452,"is_reserved":false,"is_disabled":false,"rental_uris":{"android":"levelo://app?vid=08967b72-f855-4247-9f13-45406a98208a","ios":"levelo://app?vid=08967b72-f855-4247-9f13-45406a98208a"},"vehicle_type_id":"4","last_reported":1762931475,"current_range_meters":7200,"station_id":"ce4bhmh2rcd13ifvqgmg","pricing_plan_id":"cebpf4jnsgd1na2vs0mg"},{"bike_id":"0e7efb5a-77d9-4e4f-b6db-a144ca4cb22f","system_id":"levelo_inurba_marseille","lat":43.24942,"lon":5.40498,"is_reserved":false,"is_disabled":false,"rental_uris":{"android":"levelo://app?vid=0e7efb5a-77d9-4e4f-b6db-a144ca4cb22f","ios":"levelo://app?vid=0e7efb5a-77d9-4e4f-b6db-a144ca4cb22f"},"vehicle_type_id":"4","last_reported":1762931475,"current_range_meters":7200,"station_id":"st_d2ngiaodas8pm72gd1h0","pricing_plan_id":"cebpf4jnsgd1na2vs0mg"},{"bike_id":"0ea66b8e-ee71-4dee-9a44-0fe9f1baf397","system_id":"levelo_inurba_marseille","lat":43.30511,"lon":5.40088,"is_reserved":false,"is_disabled":false,"rental_uris":{"android":"levelo://app?vid=0ea66b8e-ee71-4dee-9a44-0fe9f1baf397","ios":"levelo://app?vid=0ea66b8e-ee71-4dee-9a44-0fe9f1baf397"},"vehicle_type_id":"4","last_reported":1762931475,"current_range_meters":7200,"station_id":"","pricing_plan_id":"cebpf4jnsgd1na2vs0mg"},{"bike_id":"20f4c56f-5d4e-4383-bdf8-5447d3397c83","system_id":"levelo_inurba_marseille","lat":43.30208,"lon":5.39483,"is_reserved":false,"is_disabled":false,"rental_uris":{"android":"levelo://app?vid=20f4c56f-5d4e-4383-bdf8-5447d3397c83","ios":"levelo://app?vid=20f4c56f-5d4e-4383-bdf8-5447d3397c83"},"vehicle_type_id":"4","last_reported":1762931475,"current_range_meters":7200,"station_id":"ce4bh0p2rcd13ifvqd70","pricing_plan_id":"cebpf4jnsgd1na2vs0mg"},{"bike_id":"e45501cc-3d1e-46df-a086-3efed18eb993","system_id":"levelo_inurba_marseille","lat":43.28234,"lon":5.36513,"is_reserved":false,"is_disabled":false,"rental_uris":{"android":"levelo://app?vid=e45501cc-3d1e-46df-a086-3efed18eb993","ios":"levelo://app?vid=e45501cc-3d1e-46df-a086-3efed18eb993"},"vehicle_type_id":"4","last_reported":1762931475,"current_range_meters":7200,"station_id":"","pricing_plan_id":"cebpf4jnsgd1na2vs0mg"},{"bike_id":"e0467342-2ee8-4c36-aeb9-27d25d94ead5","system_id":"levelo_inurba_marseille","lat":43.281518,"lon":5.426391,"is_reserved":false,"is_disabled":true,"rental_uris":{"android":"levelo://app?vid=e0467342-2ee8-4c36-aeb9-27d25d94ead5","ios":"levelo://app?vid=e0467342-2ee8-4c36-aeb9-27d25d94ead5"},"vehicle_type_id":"4","last_reported":1762931475,"current_range_meters":7200,"station_id":"ce4bhnh2rcd13ifvqgug","pricing_plan_id":"cebpf4jnsgd1na2vs0mg"},{"bike_id":"766b19a9-6b87-44f3-a4c5-634274757c1a","system_id":"levelo_inurba_marseille","lat":43.29242,"lon":5.38264,"is_reserved":false,"is_disabled":false,"rental_uris":{"android":"levelo://app?vid=766b19a9-6b87-44f3-a4c5-634274757c1a","ios":"levelo://app?vid=766b19a9-6b87-44f3-a4c5-634274757c1a"},"vehicle_type_id":"4","last_reported":1762931475,"current_range_meters":8000,"station_id":"","pricing_plan_id":"cebpf4jnsgd1na2vs0mg"},{"bike_id":"b1aac026-9d31-437c-8a3e-4bc75b432aa5","system_id":"levelo_inurba_marseille","lat":43.26958,"lon":5.38631,"is_reserved":false,"is_disabled":true,"rental_uris":{"android":"levelo://app?vid=b1aac026-9d31-437c-8a3e-4bc75b432aa5","ios":"levelo://app?vid=b1aac026-9d31-437c-8a3e-4bc75b432aa5"},"vehicle_type_id":"4","last_reported":1762931475,"current_range_meters":8000,"station_id":"ce4bhh92rcd13ifvqfh0","pricing_plan_id":"cebpf4jnsgd1na2vs0mg"},{"bike_id":"8673fcf8-df1e-43f0-b24f-4785c3fa24ee","system_id":"levelo_inurba_marseille","lat":43.32104,"lon":5.367723,"is_reserved":false,"is_disabled":false,"rental_uris":{"android":"levelo://app?vid=8673fcf8-df1e-43f0-b24f-4785c3fa24ee","ios":"levelo://app?vid=8673fcf8-df1e-43f0-b24f-4785c3fa24ee"},"vehicle_type_id":"4","last_reported":1762931475,"current_range_meters":8000,"station_id":"ce4bhrh2rcd13ifvqhug","pricing_plan_id":"cebpf4jnsgd1na2vs0mg"},{"bike_id":"65b1edbb-69d9-4a3f-98b4-42adca6515c2","system_id":"levelo_inurba_marseille","lat":43.302775,"lon":5.377867,"is_reserved":false,"is_disabled":false,"rental_uris":{"android":"levelo://app?vid=65b1edbb-69d9-4a3f-98b4-42adca6515c2","ios":"levelo://app?vid=65b1edbb-69d9-4a3f-98b4-42adca6515c2"},"vehicle_type_id":"4","last_reported":1762931475,"current_range_meters":8400,"station_id":"ce4bguh2rcd13ifvqcj0","pricing_plan_id":"cebpf4jnsgd1na2vs0mg"},{"bike_id":"f210c5d9-e6c9-4a47-a92c-7d32d99c058f","system_id":"levelo_inurba_marseille","lat":43.303512,"lon":5.39697,"is_reserved":false,"is_disabled":false,"rental_uris":{"android":"levelo://app?vid=f210c5d9-e6c9-4a47-a92c-7d32d99c058f","ios":"levelo://app?vid=f210c5d9-e6c9-4a47-a92c-7d32d99c058f"},"vehicle_type_id":"4","last_reported":1762931475,"current_range_meters":8400,"station_id":"","pricing_plan_id":"cebpf4jnsgd1na2vs0mg"},{"bike_id":"1794a666-99f8-47cf-9c93-55aecc99060f","system_id":"levelo_inurba_marseille","lat":43.28942,"lon":5.36379,"is_reserved":false,"is_disabled":false,"rental_uris":{"android":"levelo://app?vid=1794a666-99f8-47cf-9c93-55aecc99060f","ios":"levelo://app?vid=1794a666-99f8-47cf-9c93-55aecc99060f"},"vehicle_type_id":"4","last_reported":1762931475,"current_range_meters":8400,"station_id":"ce4bhc92rcd13ifvqetg","pricing_plan_id":"cebpf4jnsgd1na2vs0mg"},{"bike_id":"a03c9612-a2d8-42e9-8c3b-5749d6b92747","system_id":"levelo_inurba_marseille","lat":43.29997,"lon":5.37616,"is_reserved":false,"is_disabled":false,"rental_uris":{"android":"levelo://app?vid=a03c9612-a2d8-42e9-8c3b-5749d6b92747","ios":"levelo://app?vid=a03c9612-a2d8-42e9-8c3b-5749d6b92747"},"vehicle_type_id":"4","last_reported":1762931475,"current_range_meters":8400,"station_id":"","pricing_plan_id":"cebpf4jnsgd1na2vs0mg"},{"bike_id":"7fe252e3-2614-4e10-a6b7-09689883c143","system_id":"levelo_inurba_marseille","lat":43.31489,"lon":5.37301,"is_reserved":false,"is_disabled":false,"rental_uris":{"android":"levelo://app?vid=7fe252e3-2614-4e10-a6b7-09689883c143","ios":"levelo://app?vid=7fe252e3-2614-4e10-a6b7-09689883c143"},"vehicle_type_id":"4","last_reported":1762931475,"current_range_meters":8400,"station_id":"ce4bgt12rcd13ifvqcd0","pricing_plan_id":"cebpf4jnsgd1na2vs0mg"},{"bike_id":"62a14efb-5f7a-4e0d-bbfa-d4a60d07f475","system_id":"levelo_inurba_marseille","lat":43.29744,"lon":5.37322,"is_reserved":false,"is_disabled":false,"rental_uris":{"android":"levelo://app?vid=62a14efb-5f7a-4e0d-bbfa-d4a60d07f475","ios":"levelo://app?vid=62a14efb-5f7a-4e0d-bbfa-d4a60d07f475"},"vehicle_type_id":"4","last_reported":1762931475,"current_range_meters":8400,"station_id":"","pricing_plan_id":"cebpf4jnsgd1na2vs0mg"},{"bike_id":"520598b3-96c3-46e0-842d-f88d56b5e32a","system_id":"levelo_inurba_marseille","lat":43.27206,"lon":5.39218,"is_reserved":false,"is_disabled":true,"rental_uris":{"android":"levelo://app?vid=520598b3-96c3-46e0-842d-f88d56b5e32a","ios":"levelo://app?vid=520598b3-96c3-46e0-842d-f88d56b5e32a"},"vehicle_type_id":"4","last_reported":1762931475,"current_range_meters":8400,"station_id":"ce4bhhp2rcd13ifvqfm0","pricing_plan_id":"cebpf4jnsgd1na2vs0mg"},{"bike_id":"facc1294-7941-45d7-8fbd-d8812c709696","system_id":"levelo_inurba_marseille","lat":43.27497,"lon":5.42454,"is_reserved":false,"is_disabled":false,"rental_uris":{"android":"levelo://app?vid=facc1294-7941-45d7-8fbd-d8812c709696","ios":"levelo://app?vid=facc1294-7941-45d7-8fbd-d8812c709696"},"vehicle_type_id":"4","last_reported":1762931475,"current_range_meters":8400,"station_id":"ce4bhn92rcd13ifvqgrg","pricing_plan_id":"cebpf4jnsgd1na2vs0mg"},{"bike_id":"1b5be03e-768e-46f0-b152-16af9f81cff1","system_id":"levelo_inurba_marseille","lat":43.309322,"lon":5.401366,"is_reserved":false,"is_disabled":true,"rental_uris":{"android":"levelo://app?vid=1b5be03e-768e-46f0-b152-16af9f81cff1","ios":"levelo://app?vid=1b5be03e-768e-46f0-b152-16af9f81cff1"},"vehicle_type_id":"4","last_reported":1762931475,"current_range_meters":8800,"station_id":"","pricing_plan_id":"cebpf4jnsgd1na2vs0mg"},{"bike_id":"988845de-e4bc-4a5e-8fe7-ba654b0dbde5","system_id":"levelo_inurba_marseille","lat":43.29028,"lon":5.39969,"is_reserved":false,"is_disabled":false,"rental_uris":{"android":"levelo://app?vid=988845de-e4bc-4a5e-8fe7-ba654b0dbde5","ios":"levelo://app?vid=988845de-e4bc-4a5e-8fe7-ba654b0dbde5"},"vehicle_type_id":"4","last_reported":1762931475,"current_range_meters":8800,"station_id":"ce4bh392rcd13ifvqdm0","pricing_plan_id":"cebpf4jnsgd1na2vs0mg"},{"bike_id":"bd4505ca-3885-45e3-92a4-a5d486fcef0a","system_id":"levelo_inurba_marseille","lat":43.29031,"lon":5.39965,"is_reserved":false,"is_disabled":false,"rental_uris":{"android":"levelo://app?vid=bd4505ca-3885-45e3-92a4-a5d486fcef0a","ios":"levelo://app?vid=bd4505ca-3885-45e3-92a4-a5d486fcef0a"},"vehicle_type_id":"4","last_reported":1762931475,"current_range_meters":8800,"station_id":"ce4bh392rcd13ifvqdm0","pricing_plan_id":"cebpf4jnsgd1na2vs0mg"},{"bike_id":"38c922e6-37cd-47dc-af88-f07475112c2a","system_id":"levelo_inurba_marseille","lat":43.32124,"lon":5.38853,"is_reserved":false,"is_disabled":false,"rental_uris":{"android":"levelo://app?vid=38c922e6-37cd-47dc-af88-f07475112c2a","ios":"levelo://app?vid=38c922e6-37cd-47dc-af88-f07475112c2a"},"vehicle_type_id":"4","last_reported":1762931475,"current_range_meters":9200,"station_id":"","pricing_plan_id":"cebpf4jnsgd1na2vs0mg"},{"bike_id":"172a1479-a5a8-4a14-96d6-945fbc77b377","system_id":"levelo_inurba_marseille","lat":43.31996,"lon":5.38155,"is_reserved":false,"is_disabled":false,"rental_uris":{"android":"levelo://app?vid=172a1479-a5a8-4a14-96d6-945fbc77b377","ios":"levelo://app?vid=172a1479-a5a8-4a14-96d6-945fbc77b377"},"vehicle_type_id":"4","last_reported":1762931475,"current_range_meters":9200,"station_id":"ce4bhr12rcd13ifvqhpg","pricing_plan_id":"cebpf4jnsgd1na2vs0mg"},{"bike_id":"722f7e0f-46d9-4be9-997c-6a53c83a7527","system_id":"levelo_inurba_marseille","lat":43.280338,"lon":5.369427,"is_reserved":false,"is_disabled":true,"rental_uris":{"android":"levelo://app?vid=722f7e0f-46d9-4be9-997c-6a53c83a7527","ios":"levelo://app?vid=722f7e0f-46d9-4be9-997c-6a53c83a7527"},"vehicle_type_id":"4","last_reported":1762931475,"current_range_meters":9200,"station_id":"ce4bha12rcd13ifvqef0","pricing_plan_id":"cebpf4jnsgd1na2vs0mg"},{"bike_id":"96a27a39-50b0-476e-9466-555b75b88cc8","system_id":"levelo_inurba_marseille","lat":43.23151,"lon":5.437185,"is_reserved":false,"is_disabled":false,"rental_uris":{"android":"levelo://app?vid=96a27a39-50b0-476e-9466-555b75b88cc8","ios":"levelo://app?vid=96a27a39-50b0-476e-9466-555b75b88cc8"},"vehicle_type_id":"4","last_reported":1762931475,"current_range_meters":9200,"station_id":"ce4bhmp2rcd13ifvqgog","pricing_plan_id":"cebpf4jnsgd1na2vs0mg"},{"bike_id":"592d8d62-59d8-4529-8308-bdfd867f7037","system_id":"levelo_inurba_marseille","lat":43.26056,"lon":5.39391,"is_reserved":false,"is_disabled":false,"rental_uris":{"android":"levelo://app?vid=592d8d62-59d8-4529-8308-bdfd867f7037","ios":"levelo://app?vid=592d8d62-59d8-4529-8308-bdfd867f7037"},"vehicle_type_id":"4","last_reported":1762931475,"current_range_meters":9200,"station_id":"ce4bhh92rcd13ifvqfj0","pricing_plan_id":"cebpf4jnsgd1na2vs0mg"},{"bike_id":"e7b0a20e-052d-4d2b-8035-f7eee6b75de4","system_id":"levelo_inurba_marseille","lat":43.24082,"lon":5.37754,"is_reserved":false,"is_disabled":false,"rental_uris":{"android":"levelo://app?vid=e7b0a20e-052d-4d2b-8035-f7eee6b75de4","ios":"levelo://app?vid=e7b0a20e-052d-4d2b-8035-f7eee6b75de4"},"vehicle_type_id":"4","last_reported":1762931475,"current_range_meters":9200,"station_id":"ce4bhnp2rcd13ifvqgvg","pricing_plan_id":"cebpf4jnsgd1na2vs0mg"},{"bike_id":"98168226-9b71-469b-b20c-1296cac1587e","system_id":"levelo_inurba_marseille","lat":43.2705,"lon":5.40257,"is_reserved":false,"is_disabled":false,"rental_uris":{"android":"levelo://app?vid=98168226-9b71-469b-b20c-1296cac1587e","ios":"levelo://app?vid=98168226-9b71-469b-b20c-1296cac1587e"},"vehicle_type_id":"4","last_reported":1762931475,"current_range_meters":9200,"station_id":"ce4bhk92rcd13ifvqgc0","pricing_plan_id":"cebpf4jnsgd1na2vs0mg"},{"bike_id":"85f375f0-c657-4b43-99e5-29f3974a3a20","system_id":"levelo_inurba_marseille","lat":43.30426,"lon":5.39741,"is_reserved":false,"is_disabled":false,"rental_uris":{"android":"levelo://app?vid=85f375f0-c657-4b43-99e5-29f3974a3a20","ios":"levelo://app?vid=85f375f0-c657-4b43-99e5-29f3974a3a20"},"vehicle_type_id":"4","last_reported":1762931475,"current_range_meters":9600,"station_id":"ce4bh092rcd13ifvqd20","pricing_plan_id":"cebpf4jnsgd1na2vs0mg"},{"bike_id":"69bcc9c9-16ef-4b05-a281-a3669c844e4b","system_id":"levelo_inurba_marseille","lat":43.22531,"lon":5.34843,"is_reserved":false,"is_disabled":false,"rental_uris":{"android":"levelo://app?vid=69bcc9c9-16ef-4b05-a281-a3669c844e4b","ios":"levelo://app?vid=69bcc9c9-16ef-4b05-a281-a3669c844e4b"},"vehicle_type_id":"4","last_reported":1762931475,"current_range_meters":9600,"station_id":"","pricing_plan_id":"cebpf4jnsgd1na2vs0mg"},{"bike_id":"a1fde1f4-1860-4e49-88db-aacdf02b72c8","system_id":"levelo_inurba_marseille","lat":43.25109,"lon":5.40326,"is_reserved":false,"is_disabled":true,"rental_uris":{"android":"levelo://app?vid=a1fde1f4-1860-4e49-88db-aacdf02b72c8","ios":"levelo://app?vid=a1fde1f4-1860-4e49-88db-aacdf02b72c8"},"vehicle_type_id":"4","last_reported":1762931475,"current_range_meters":9600,"station_id":"ce4bhlh2rcd13ifvqgig","pricing_plan_id":"cebpf4jnsgd1na2vs0mg"},{"bike_id":"5a04390a-ad60-4fd6-bcf6-e75b8899a404","system_id":"levelo_inurba_marseille","lat":43.290366,"lon":5.399787,"is_reserved":false,"is_disabled":true,"rental_uris":{"android":"levelo://app?vid=5a04390a-ad60-4fd6-bcf6-e75b8899a404","ios":"levelo://app?vid=5a04390a-ad60-4fd6-bcf6-e75b8899a404"},"vehicle_type_id":"4","last_reported":1762931475,"current_range_meters":9600,"station_id":"","pricing_plan_id":"cebpf4jnsgd1na2vs0mg"},{"bike_id":"ac571466-1dc3-4aea-b277-4afec8514b82","system_id":"levelo_inurba_marseille","lat":43.27946,"lon":5.41055,"is_reserved":false,"is_disabled":false,"rental_uris":{"android":"levelo://app?vid=ac571466-1dc3-4aea-b277-4afec8514b82","ios":"levelo://app?vid=ac571466-1dc3-4aea-b277-4afec8514b82"},"vehicle_type_id":"4","last_reported":1762931475,"current_range_meters":9600,"station_id":"ce4bhnp2rcd13ifvqh0g","pricing_plan_id":"cebpf4jnsgd1na2vs0mg"},{"bike_id":"b41e24d8-65c5-426b-bb45-4cabc1a8ec44","system_id":"levelo_inurba_marseille","lat":43.29619,"lon":5.37736,"is_reserved":false,"is_disabled":true,"rental_uris":{"android":"levelo://app?vid=b41e24d8-65c5-426b-bb45-4cabc1a8ec44","ios":"levelo://app?vid=b41e24d8-65c5-426b-bb45-4cabc1a8ec44"},"vehicle_type_id":"4","last_reported":1762931475,"current_range_meters":9600,"station_id":"ce4bgi92rcd13ifvqb90","pricing_plan_id":"cebpf4jnsgd1na2vs0mg"},{"bike_id":"dc9399a6-68ac-4bce-a28c-89dbbb7d0681","system_id":"levelo_inurba_marseille","lat":43.28776,"lon":5.40834,"is_reserved":false,"is_disabled":true,"rental_uris":{"android":"levelo://app?vid=dc9399a6-68ac-4bce-a28c-89dbbb7d0681","ios":"levelo://app?vid=dc9399a6-68ac-4bce-a28c-89dbbb7d0681"},"vehicle_type_id":"4","last_reported":1762931475,"current_range_meters":9600,"station_id":"","pricing_plan_id":"cebpf4jnsgd1na2vs0mg"},{"bike_id":"702263c4-0d5d-4c49-8fa5-9f2770a6e131","system_id":"levelo_inurba_marseille","lat":43.28922,"lon":5.38399,"is_reserved":false,"is_disabled":false,"rental_uris":{"android":"levelo://app?vid=702263c4-0d5d-4c49-8fa5-9f2770a6e131","ios":"levelo://app?vid=702263c4-0d5d-4c49-8fa5-9f2770a6e131"},"vehicle_type_id":"4","last_reported":1762931475,"current_range_meters":9600,"station_id":"ce4bh612rcd13ifvqe6g","pricing_plan_id":"cebpf4jnsgd1na2vs0mg"},{"bike_id":"162339c3-4924-4dd6-b495-328b67400814","system_id":"levelo_inurba_marseille","lat":43.29927,"lon":5.38094,"is_reserved":false,"is_disabled":false,"rental_uris":{"android":"levelo://app?vid=162339c3-4924-4dd6-b495-328b67400814","ios":"levelo://app?vid=162339c3-4924-4dd6-b495-328b67400814"},"vehicle_type_id":"4","last_reported":1762931475,"current_range_meters":9600,"station_id":"ce4bgj12rcd13ifvqbc0","pricing_plan_id":"cebpf4jnsgd1na2vs0mg"},{"bike_id":"84aade2c-4b39-4bce-814f-cfa3d6ed46f7","system_id":"levelo_inurba_marseille","lat":43.284817,"lon":5.483846,"is_reserved":false,"is_disabled":false,"rental_uris":{"android":"levelo://app?vid=84aade2c-4b39-4bce-814f-cfa3d6ed46f7","ios":"levelo://app?vid=84aade2c-4b39-4bce-814f-cfa3d6ed46f7"},"vehicle_type_id":"4","last_reported":1762931475,"current_range_meters":10000,"station_id":"st_d3svhcjqgbts73a3dn0g","pricing_plan_id":"cebpf4jnsgd1na2vs0mg"},{"bike_id":"28e36cd3-4665-4002-a55e-04a45eaa3992","system_id":"levelo_inurba_marseille","lat":43.33157,"lon":5.37699,"is_reserved":false,"is_disabled":false,"rental_uris":{"android":"levelo://app?vid=28e36cd3-4665-4002-a55e-04a45eaa3992","ios":"levelo://app?vid=28e36cd3-4665-4002-a55e-04a45eaa3992"},"vehicle_type_id":"4","last_reported":1762931475,"current_range_meters":10000,"station_id":"st_d46cu089ee8s73dldbu0","pricing_plan_id":"cebpf4jnsgd1na2vs0mg"},{"bike_id":"a81a2cf5-a609-451e-806f-e58304bfd4f8","system_id":"levelo_inurba_marseille","lat":43.27501,"lon":5.42464,"is_reserved":false,"is_disabled":false,"rental_uris":{"android":"levelo://app?vid=a81a2cf5-a609-451e-806f-e58304bfd4f8","ios":"levelo://app?vid=a81a2cf5-a609-451e-806f-e58304bfd4f8"},"vehicle_type_id":"4","last_reported":1762931475,"current_range_meters":10000,"station_id":"ce4bhn92rcd13ifvqgrg","pricing_plan_id":"cebpf4jnsgd1na2vs0mg"},{"bike_id":"b259621f-2fe6-4b30-92e0-2292fee32f1f","system_id":"levelo_inurba_marseille","lat":43.280341,"lon":5.369457,"is_reserved":false,"is_disabled":true,"rental_uris":{"android":"levelo://app?vid=b259621f-2fe6-4b30-92e0-2292fee32f1f","ios":"levelo://app?vid=b259621f-2fe6-4b30-92e0-2292fee32f1f"},"vehicle_type_id":"4","last_reported":1762931475,"current_range_meters":10000,"station_id":"ce4bha12rcd13ifvqef0","pricing_plan_id":"cebpf4jnsgd1na2vs0mg"},{"bike_id":"2ebd293b-8590-4d6d-84ab-912c0f652440","system_id":"levelo_inurba_marseille","lat":43.27315,"lon":5.39076,"is_reserved":false,"is_disabled":false,"rental_uris":{"android":"levelo://app?vid=2ebd293b-8590-4d6d-84ab-912c0f652440","ios":"levelo://app?vid=2ebd293b-8590-4d6d-84ab-912c0f652440"},"vehicle_type_id":"4","last_reported":1762931475,"current_range_meters":10800,"station_id":"ce4bhgp2rcd13ifvqfe0","pricing_plan_id":"cebpf4jnsgd1na2vs0mg"},{"bike_id":"c47023ab-2905-4a00-af93-ffd0b768cdc9","system_id":"levelo_inurba_marseille","lat":43.28868,"lon":5.4252,"is_reserved":false,"is_disabled":false,"rental_uris":{"android":"levelo://app?vid=c47023ab-2905-4a00-af93-ffd0b768cdc9","ios":"levelo://app?vid=c47023ab-2905-4a00-af93-ffd0b768cdc9"},"vehicle_type_id":"4","last_reported":1762931475,"current_range_meters":10800,"station_id":"st_d3b462108ojc7389ooeg","pricing_plan_id":"cebpf4jnsgd1na2vs0mg"},{"bike_id":"393ebba5-f26f-4f5b-ba37-0d7b5bd9041d","system_id":"levelo_inurba_marseille","lat":43.21793,"lon":5.34686,"is_reserved":false,"is_disabled":false,"rental_uris":{"android":"levelo://app?vid=393ebba5-f26f-4f5b-ba37-0d7b5bd9041d","ios":"levelo://app?vid=393ebba5-f26f-4f5b-ba37-0d7b5bd9041d"},"vehicle_type_id":"4","last_reported":1762931475,"current_range_meters":10800,"station_id":"","pricing_plan_id":"cebpf4jnsgd1na2vs0mg"},{"bike_id":"32162483-923a-4e23-8738-bf029245f9f0","system_id":"levelo_inurba_marseille","lat":43.28475,"lon":5.38439,"is_reserved":false,"is_disabled":true,"rental_uris":{"android":"levelo://app?vid=32162483-923a-4e23-8738-bf029245f9f0","ios":"levelo://app?vid=32162483-923a-4e23-8738-bf029245f9f0"},"vehicle_type_id":"4","last_reported":1762931475,"current_range_meters":11200,"station_id":"ce4bh512rcd13ifvqe3g","pricing_plan_id":"cebpf4jnsgd1na2vs0mg"},{"bike_id":"e9096c85-7648-4fa6-80d3-640340cb2c13","system_id":"levelo_inurba_marseille","lat":43.282122,"lon":5.390659,"is_reserved":false,"is_disabled":false,"rental_uris":{"android":"levelo://app?vid=e9096c85-7648-4fa6-80d3-640340cb2c13","ios":"levelo://app?vid=e9096c85-7648-4fa6-80d3-640340cb2c13"},"vehicle_type_id":"4","last_reported":1762931475,"current_range_meters":11200,"station_id":"ce4bhn92rcd13ifvqgsg","pricing_plan_id":"cebpf4jnsgd1na2vs0mg"},{"bike_id":"4b80c88d-0dcd-49b0-b01e-0a896a40260f","system_id":"levelo_inurba_marseille","lat":43.30147,"lon":5.3808,"is_reserved":false,"is_disabled":false,"rental_uris":{"android":"levelo://app?vid=4b80c88d-0dcd-49b0-b01e-0a896a40260f","ios":"levelo://app?vid=4b80c88d-0dcd-49b0-b01e-0a896a40260f"},"vehicle_type_id":"4","last_reported":1762931475,"current_range_meters":11200,"station_id":"","pricing_plan_id":"cebpf4jnsgd1na2vs0mg"},{"bike_id":"42ef4f95-133d-416a-b8ba-a9bc99c03480","system_id":"levelo_inurba_marseille","lat":43.25945,"lon":5.40899,"is_reserved":false,"is_disabled":false,"rental_uris":{"android":"levelo://app?vid=42ef4f95-133d-416a-b8ba-a9bc99c03480","ios":"levelo://app?vid=42ef4f95-133d-416a-b8ba-a9bc99c03480"},"vehicle_type_id":"4","last_reported":1762931475,"current_range_meters":11600,"station_id":"ce4bhm92rcd13ifvqglg","pricing_plan_id":"cebpf4jnsgd1na2vs0mg"},{"bike_id":"43599706-aeab-41b2-859f-99807479547f","system_id":"levelo_inurba_marseille","lat":43.25325,"lon":5.421623,"is_reserved":false,"is_disabled":false,"rental_uris":{"android":"levelo://app?vid=43599706-aeab-41b2-859f-99807479547f","ios":"levelo://app?vid=43599706-aeab-41b2-859f-99807479547f"},"vehicle_type_id":"4","last_reported":1762931475,"current_range_meters":11600,"station_id":"st_d2m65c5bi1j21697t3ng","pricing_plan_id":"cebpf4jnsgd1na2vs0mg"},{"bike_id":"fbb4adc7-67e1-422c-813d-41c673b2d86f","system_id":"levelo_inurba_marseille","lat":43.245391,"lon":5.39534,"is_reserved":false,"is_disabled":false,"rental_uris":{"android":"levelo://app?vid=fbb4adc7-67e1-422c-813d-41c673b2d86f","ios":"levelo://app?vid=fbb4adc7-67e1-422c-813d-41c673b2d86f"},"vehicle_type_id":"4","last_reported":1762931475,"current_range_meters":11600,"station_id":"ce4bhlp2rcd13ifvqgjg","pricing_plan_id":"cebpf4jnsgd1na2vs0mg"},{"bike_id":"50b661f0-112f-4780-95bd-167a8c61a238","system_id":"levelo_inurba_marseille","lat":43.211899,"lon":5.350778,"is_reserved":false,"is_disabled":true,"rental_uris":{"android":"levelo://app?vid=50b661f0-112f-4780-95bd-167a8c61a238","ios":"levelo://app?vid=50b661f0-112f-4780-95bd-167a8c61a238"},"vehicle_type_id":"4","last_reported":1762931475,"current_range_meters":11600,"station_id":"st_cvj6sg6p6f1abm77japg","pricing_plan_id":"cebpf4jnsgd1na2vs0mg"},{"bike_id":"5e2aed3e-58b5-4ea5-979f-403b786e6da3","system_id":"levelo_inurba_marseille","lat":43.282567,"lon":5.350823,"is_reserved":false,"is_disabled":false,"rental_uris":{"android":"levelo://app?vid=5e2aed3e-58b5-4ea5-979f-403b786e6da3","ios":"levelo://app?vid=5e2aed3e-58b5-4ea5-979f-403b786e6da3"},"vehicle_type_id":"4","last_reported":1762931475,"current_range_meters":12000,"station_id":"ce4bhbp2rcd13ifvqerg","pricing_plan_id":"cebpf4jnsgd1na2vs0mg"},{"bike_id":"3b15451b-9ca4-4b75-9fab-bb81fed744ea","system_id":"levelo_inurba_marseille","lat":43.30302,"lon":5.39205,"is_reserved":false,"is_disabled":true,"rental_uris":{"android":"levelo://app?vid=3b15451b-9ca4-4b75-9fab-bb81fed744ea","ios":"levelo://app?vid=3b15451b-9ca4-4b75-9fab-bb81fed744ea"},"vehicle_type_id":"4","last_reported":1762931475,"current_range_meters":12000,"station_id":"ce4bgkh2rcd13ifvqbk0","pricing_plan_id":"cebpf4jnsgd1na2vs0mg"},{"bike_id":"40f47b37-00be-4ad3-8842-91637d4fc47a","system_id":"levelo_inurba_marseille","lat":43.29254,"lon":5.40903,"is_reserved":false,"is_disabled":false,"rental_uris":{"android":"levelo://app?vid=40f47b37-00be-4ad3-8842-91637d4fc47a","ios":"levelo://app?vid=40f47b37-00be-4ad3-8842-91637d4fc47a"},"vehicle_type_id":"4","last_reported":1762931475,"current_range_meters":12000,"station_id":"ce4bh192rcd13ifvqdc0","pricing_plan_id":"cebpf4jnsgd1na2vs0mg"},{"bike_id":"cb7a5799-c024-4519-bb5c-6f2896731a81","system_id":"levelo_inurba_marseille","lat":43.33163,"lon":5.37684,"is_reserved":false,"is_disabled":false,"rental_uris":{"android":"levelo://app?vid=cb7a5799-c024-4519-bb5c-6f2896731a81","ios":"levelo://app?vid=cb7a5799-c024-4519-bb5c-6f2896731a81"},"vehicle_type_id":"4","last_reported":1762931475,"current_range_meters":12000,"station_id":"st_d46cu089ee8s73dldbu0","pricing_plan_id":"cebpf4jnsgd1na2vs0mg"},{"bike_id":"90b7b1ac-129d-4f5e-9e36-1417be0b1559","system_id":"levelo_inurba_marseille","lat":43.30381,"lon":5.42498,"is_reserved":false,"is_disabled":true,"rental_uris":{"android":"levelo://app?vid=90b7b1ac-129d-4f5e-9e36-1417be0b1559","ios":"levelo://app?vid=90b7b1ac-129d-4f5e-9e36-1417be0b1559"},"vehicle_type_id":"4","last_reported":1762931475,"current_range_meters":12000,"station_id":"ce4bhoh2rcd13ifvqh6g","pricing_plan_id":"cebpf4jnsgd1na2vs0mg"},{"bike_id":"5ea664b6-e15f-4fb9-b504-eb94705a193d","system_id":"levelo_inurba_marseille","lat":43.29278,"lon":5.40127,"is_reserved":false,"is_disabled":false,"rental_uris":{"android":"levelo://app?vid=5ea664b6-e15f-4fb9-b504-eb94705a193d","ios":"levelo://app?vid=5ea664b6-e15f-4fb9-b504-eb94705a193d"},"vehicle_type_id":"4","last_reported":1762931475,"current_range_meters":12000,"station_id":"ce4bh312rcd13ifvqdk0","pricing_plan_id":"cebpf4jnsgd1na2vs0mg"},{"bike_id":"e9e7a25d-84b7-456b-b066-42d334268c7e","system_id":"levelo_inurba_marseille","lat":43.284668,"lon":5.384137,"is_reserved":false,"is_disabled":false,"rental_uris":{"android":"levelo://app?vid=e9e7a25d-84b7-456b-b066-42d334268c7e","ios":"levelo://app?vid=e9e7a25d-84b7-456b-b066-42d334268c7e"},"vehicle_type_id":"4","last_reported":1762931475,"current_range_meters":12400,"station_id":"ce4bh512rcd13ifvqe3g","pricing_plan_id":"cebpf4jnsgd1na2vs0mg"},{"bike_id":"4ef8271f-24ad-440b-b39d-c0ddb84f7063","system_id":"levelo_inurba_marseille","lat":43.279,"lon":5.3959,"is_reserved":false,"is_disabled":false,"rental_uris":{"android":"levelo://app?vid=4ef8271f-24ad-440b-b39d-c0ddb84f7063","ios":"levelo://app?vid=4ef8271f-24ad-440b-b39d-c0ddb84f7063"},"vehicle_type_id":"4","last_reported":1762931475,"current_range_meters":12400,"station_id":"ce4bhf92rcd13ifvqf40","pricing_plan_id":"cebpf4jnsgd1na2vs0mg"},{"bike_id":"b1700a59-a675-4c5f-8513-2e05d57bbba1","system_id":"levelo_inurba_marseille","lat":43.29789,"lon":5.38101,"is_reserved":false,"is_disabled":false,"rental_uris":{"android":"levelo://app?vid=b1700a59-a675-4c5f-8513-2e05d57bbba1","ios":"levelo://app?vid=b1700a59-a675-4c5f-8513-2e05d57bbba1"},"vehicle_type_id":"4","last_reported":1762931475,"current_range_meters":12400,"station_id":"ce4bgip2rcd13ifvqbb0","pricing_plan_id":"cebpf4jnsgd1na2vs0mg"},{"bike_id":"e5072903-b867-4d8e-a478-9934ce296bde","system_id":"levelo_inurba_marseille","lat":43.29128,"lon":5.39063,"is_reserved":false,"is_disabled":false,"rental_uris":{"android":"levelo://app?vid=e5072903-b867-4d8e-a478-9934ce296bde","ios":"levelo://app?vid=e5072903-b867-4d8e-a478-9934ce296bde"},"vehicle_type_id":"4","last_reported":1762931475,"current_range_meters":12400,"station_id":"","pricing_plan_id":"cebpf4jnsgd1na2vs0mg"},{"bike_id":"def9730b-dc04-435b-8225-4a9556956dd9","system_id":"levelo_inurba_marseille","lat":43.321022,"lon":5.36782,"is_reserved":false,"is_disabled":false,"rental_uris":{"android":"levelo://app?vid=def9730b-dc04-435b-8225-4a9556956dd9","ios":"levelo://app?vid=def9730b-dc04-435b-8225-4a9556956dd9"},"vehicle_type_id":"4","last_reported":1762931475,"current_range_meters":12400,"station_id":"ce4bhrh2rcd13ifvqhug","pricing_plan_id":"cebpf4jnsgd1na2vs0mg"},{"bike_id":"7853a813-0949-48bc-9da8-6f66b0f8768a","system_id":"levelo_inurba_marseille","lat":43.243896,"lon":5.370816,"is_reserved":false,"is_disabled":true,"rental_uris":{"android":"levelo://app?vid=7853a813-0949-48bc-9da8-6f66b0f8768a","ios":"levelo://app?vid=7853a813-0949-48bc-9da8-6f66b0f8768a"},"vehicle_type_id":"4","last_reported":1762931475,"current_range_meters":12400,"station_id":"ce4bhhh2rcd13ifvqfk0","pricing_plan_id":"cebpf4jnsgd1na2vs0mg"},{"bike_id":"f09b69fd-4220-4b51-8365-9a85828617f1","system_id":"levelo_inurba_marseille","lat":43.330268,"lon":5.390397,"is_reserved":false,"is_disabled":false,"rental_uris":{"android":"levelo://app?vid=f09b69fd-4220-4b51-8365-9a85828617f1","ios":"levelo://app?vid=f09b69fd-4220-4b51-8365-9a85828617f1"},"vehicle_type_id":"4","last_reported":1762931475,"current_range_meters":12800,"station_id":"ce4bhr92rcd13ifvqhrg","pricing_plan_id":"cebpf4jnsgd1na2vs0mg"},{"bike_id":"3b40777e-5ffa-429d-8b43-ed470ed6c2b0","system_id":"levelo_inurba_marseille","lat":43.29056,"lon":5.37573,"is_reserved":false,"is_disabled":false,"rental_uris":{"android":"levelo://app?vid=3b40777e-5ffa-429d-8b43-ed470ed6c2b0","ios":"levelo://app?vid=3b40777e-5ffa-429d-8b43-ed470ed6c2b0"},"vehicle_type_id":"4","last_reported":1762931475,"current_range_meters":12800,"station_id":"ce4bh692rcd13ifvqe90","pricing_plan_id":"cebpf4jnsgd1na2vs0mg"},{"bike_id":"138acbc8-a44a-45ec-9d4e-f41258a8778e","system_id":"levelo_inurba_marseille","lat":43.29819,"lon":5.44055,"is_reserved":false,"is_disabled":false,"rental_uris":{"android":"levelo://app?vid=138acbc8-a44a-45ec-9d4e-f41258a8778e","ios":"levelo://app?vid=138acbc8-a44a-45ec-9d4e-f41258a8778e"},"vehicle_type_id":"4","last_reported":1762931475,"current_range_meters":12800,"station_id":"st_d3jp68qikq2c7381ktn0","pricing_plan_id":"cebpf4jnsgd1na2vs0mg"},{"bike_id":"6494fb53-4b49-4fd6-a26d-ae632bd9104c","system_id":"levelo_inurba_marseille","lat":43.3135,"lon":5.37454,"is_reserved":false,"is_disabled":false,"rental_uris":{"android":"levelo://app?vid=6494fb53-4b49-4fd6-a26d-ae632bd9104c","ios":"levelo://app?vid=6494fb53-4b49-4fd6-a26d-ae632bd9104c"},"vehicle_type_id":"4","last_reported":1762931475,"current_range_meters":13600,"station_id":"","pricing_plan_id":"cebpf4jnsgd1na2vs0mg"},{"bike_id":"01e8cce2-ff84-43ff-914a-c0c695f60ca4","system_id":"levelo_inurba_marseille","lat":43.29438,"lon":5.38027,"is_reserved":false,"is_disabled":false,"rental_uris":{"android":"levelo://app?vid=01e8cce2-ff84-43ff-914a-c0c695f60ca4","ios":"levelo://app?vid=01e8cce2-ff84-43ff-914a-c0c695f60ca4"},"vehicle_type_id":"4","last_reported":1762931475,"current_range_meters":13600,"station_id":"","pricing_plan_id":"cebpf4jnsgd1na2vs0mg"},{"bike_id":"e95c7a5e-2ca6-4704-beef-c914118730ac","system_id":"levelo_inurba_marseille","lat":43.233806,"lon":5.412365,"is_reserved":false,"is_disabled":false,"rental_uris":{"android":"levelo://app?vid=e95c7a5e-2ca6-4704-beef-c914118730ac","ios":"levelo://app?vid=e95c7a5e-2ca6-4704-beef-c914118730ac"},"vehicle_type_id":"4","last_reported":1762931475,"current_range_meters":13600,"station_id":"","pricing_plan_id":"cebpf4jnsgd1na2vs0mg"},{"bike_id":"799674f2-7117-4a1b-a97e-191472bac3a4","system_id":"levelo_inurba_marseille","lat":43.23151,"lon":5.43719,"is_reserved":false,"is_disabled":false,"rental_uris":{"android":"levelo://app?vid=799674f2-7117-4a1b-a97e-191472bac3a4","ios":"levelo://app?vid=799674f2-7117-4a1b-a97e-191472bac3a4"},"vehicle_type_id":"4","last_reported":1762931475,"current_range_meters":14000,"station_id":"ce4bhmp2rcd13ifvqgog","pricing_plan_id":"cebpf4jnsgd1na2vs0mg"},{"bike_id":"3a3183b1-7df7-490d-bdfb-472fb34a36fc","system_id":"levelo_inurba_marseille","lat":43.28723,"lon":5.37937,"is_reserved":false,"is_disabled":false,"rental_uris":{"android":"levelo://app?vid=3a3183b1-7df7-490d-bdfb-472fb34a36fc","ios":"levelo://app?vid=3a3183b1-7df7-490d-bdfb-472fb34a36fc"},"vehicle_type_id":"4","last_reported":1762931475,"current_range_meters":14000,"station_id":"ce4bh9p2rcd13ifvqec0","pricing_plan_id":"cebpf4jnsgd1na2vs0mg"},{"bike_id":"b1460ca1-7289-4f1f-b10e-10e520aecc27","system_id":"levelo_inurba_marseille","lat":43.27356,"lon":5.423966,"is_reserved":false,"is_disabled":false,"rental_uris":{"android":"levelo://app?vid=b1460ca1-7289-4f1f-b10e-10e520aecc27","ios":"levelo://app?vid=b1460ca1-7289-4f1f-b10e-10e520aecc27"},"vehicle_type_id":"4","last_reported":1762931475,"current_range_meters":14000,"station_id":"","pricing_plan_id":"cebpf4jnsgd1na2vs0mg"},{"bike_id":"5804ac99-3bd4-4091-bff1-7487e9285e0c","system_id":"levelo_inurba_marseille","lat":43.29178,"lon":5.37593,"is_reserved":false,"is_disabled":false,"rental_uris":{"android":"levelo://app?vid=5804ac99-3bd4-4091-bff1-7487e9285e0c","ios":"levelo://app?vid=5804ac99-3bd4-4091-bff1-7487e9285e0c"},"vehicle_type_id":"4","last_reported":1762931475,"current_range_meters":14000,"station_id":"","pricing_plan_id":"cebpf4jnsgd1na2vs0mg"},{"bike_id":"8b027115-1a9e-4312-923f-dbf5aec10ee4","system_id":"levelo_inurba_marseille","lat":43.3025,"lon":5.36501,"is_reserved":false,"is_disabled":false,"rental_uris":{"android":"levelo://app?vid=8b027115-1a9e-4312-923f-dbf5aec10ee4","ios":"levelo://app?vid=8b027115-1a9e-4312-923f-dbf5aec10ee4"},"vehicle_type_id":"4","last_reported":1762931475,"current_range_meters":14000,"station_id":"","pricing_plan_id":"cebpf4jnsgd1na2vs0mg"},{"bike_id":"acbbb325-e4fa-4876-8f71-3cd51e1e1fb9","system_id":"levelo_inurba_marseille","lat":43.29807,"lon":5.3809,"is_reserved":false,"is_disabled":false,"rental_uris":{"android":"levelo://app?vid=acbbb325-e4fa-4876-8f71-3cd51e1e1fb9","ios":"levelo://app?vid=acbbb325-e4fa-4876-8f71-3cd51e1e1fb9"},"vehicle_type_id":"4","last_reported":1762931475,"current_range_meters":14000,"station_id":"ce4bgip2rcd13ifvqbb0","pricing_plan_id":"cebpf4jnsgd1na2vs0mg"},{"bike_id":"a181b69a-fd1c-4d3f-af0e-bfa9a7521c4e","system_id":"levelo_inurba_marseille","lat":43.253368,"lon":5.421633,"is_reserved":false,"is_disabled":false,"rental_uris":{"android":"levelo://app?vid=a181b69a-fd1c-4d3f-af0e-bfa9a7521c4e","ios":"levelo://app?vid=a181b69a-fd1c-4d3f-af0e-bfa9a7521c4e"},"vehicle_type_id":"4","last_reported":1762931475,"current_range_meters":14000,"station_id":"st_d2m65c5bi1j21697t3ng","pricing_plan_id":"cebpf4jnsgd1na2vs0mg"},{"bike_id":"9137fe1a-da02-496e-a96c-ac8afc277b93","system_id":"levelo_inurba_marseille","lat":43.32366,"lon":5.38888,"is_reserved":false,"is_disabled":false,"rental_uris":{"android":"levelo://app?vid=9137fe1a-da02-496e-a96c-ac8afc277b93","ios":"levelo://app?vid=9137fe1a-da02-496e-a96c-ac8afc277b93"},"vehicle_type_id":"4","last_reported":1762931475,"current_range_meters":14400,"station_id":"ce4bhqp2rcd13ifvqhog","pricing_plan_id":"cebpf4jnsgd1na2vs0mg"},{"bike_id":"4bb5c324-f262-4945-93f4-6463dbea5800","system_id":"levelo_inurba_marseille","lat":43.2847,"lon":5.38421,"is_reserved":false,"is_disabled":false,"rental_uris":{"android":"levelo://app?vid=4bb5c324-f262-4945-93f4-6463dbea5800","ios":"levelo://app?vid=4bb5c324-f262-4945-93f4-6463dbea5800"},"vehicle_type_id":"4","last_reported":1762931475,"current_range_meters":14400,"station_id":"ce4bh512rcd13ifvqe3g","pricing_plan_id":"cebpf4jnsgd1na2vs0mg"},{"bike_id":"e651183d-7563-4ea7-931d-653854024e32","system_id":"levelo_inurba_marseille","lat":43.27573,"lon":5.38428,"is_reserved":false,"is_disabled":false,"rental_uris":{"android":"levelo://app?vid=e651183d-7563-4ea7-931d-653854024e32","ios":"levelo://app?vid=e651183d-7563-4ea7-931d-653854024e32"},"vehicle_type_id":"4","last_reported":1762931475,"current_range_meters":14400,"station_id":"ce4bhh92rcd13ifvqfi0","pricing_plan_id":"cebpf4jnsgd1na2vs0mg"},{"bike_id":"b32b8330-a56d-4033-bfcb-e7475152872e","system_id":"levelo_inurba_marseille","lat":43.23151,"lon":5.43725,"is_reserved":false,"is_disabled":false,"rental_uris":{"android":"levelo://app?vid=b32b8330-a56d-4033-bfcb-e7475152872e","ios":"levelo://app?vid=b32b8330-a56d-4033-bfcb-e7475152872e"},"vehicle_type_id":"4","last_reported":1762931475,"current_range_meters":14400,"station_id":"ce4bhmp2rcd13ifvqgog","pricing_plan_id":"cebpf4jnsgd1na2vs0mg"},{"bike_id":"14034d19-4a27-4f49-9e79-fffc37ba8675","system_id":"levelo_inurba_marseille","lat":43.29618,"lon":5.37155,"is_reserved":false,"is_disabled":false,"rental_uris":{"android":"levelo://app?vid=14034d19-4a27-4f49-9e79-fffc37ba8675","ios":"levelo://app?vid=14034d19-4a27-4f49-9e79-fffc37ba8675"},"vehicle_type_id":"4","last_reported":1762931475,"current_range_meters":14400,"station_id":"ce4bgnh2rcd13ifvqc0g","pricing_plan_id":"cebpf4jnsgd1na2vs0mg"},{"bike_id":"60223fc3-fc4d-45eb-9d3e-8b659aadc6d9","system_id":"levelo_inurba_marseille","lat":43.290387,"lon":5.399679,"is_reserved":false,"is_disabled":false,"rental_uris":{"android":"levelo://app?vid=60223fc3-fc4d-45eb-9d3e-8b659aadc6d9","ios":"levelo://app?vid=60223fc3-fc4d-45eb-9d3e-8b659aadc6d9"},"vehicle_type_id":"4","last_reported":1762931475,"current_range_meters":14400,"station_id":"ce4bh392rcd13ifvqdm0","pricing_plan_id":"cebpf4jnsgd1na2vs0mg"},{"bike_id":"f0413c71-e0c3-427b-98cb-cdf950c219e3","system_id":"levelo_inurba_marseille","lat":43.31015,"lon":5.40069,"is_reserved":false,"is_disabled":false,"rental_uris":{"android":"levelo://app?vid=f0413c71-e0c3-427b-98cb-cdf950c219e3","ios":"levelo://app?vid=f0413c71-e0c3-427b-98cb-cdf950c219e3"},"vehicle_type_id":"4","last_reported":1762931475,"current_range_meters":14800,"station_id":"","pricing_plan_id":"cebpf4jnsgd1na2vs0mg"},{"bike_id":"35d9f4be-8def-405c-ad2e-31c8b228c517","system_id":"levelo_inurba_marseille","lat":43.28493,"lon":5.38556,"is_reserved":false,"is_disabled":false,"rental_uris":{"android":"levelo://app?vid=35d9f4be-8def-405c-ad2e-31c8b228c517","ios":"levelo://app?vid=35d9f4be-8def-405c-ad2e-31c8b228c517"},"vehicle_type_id":"4","last_reported":1762931475,"current_range_meters":14800,"station_id":"ce4bh8p2rcd13ifvqeb0","pricing_plan_id":"cebpf4jnsgd1na2vs0mg"},{"bike_id":"e13b78db-2231-48a0-b9e0-a153f32a43f4","system_id":"levelo_inurba_marseille","lat":43.2305,"lon":5.35493,"is_reserved":false,"is_disabled":false,"rental_uris":{"android":"levelo://app?vid=e13b78db-2231-48a0-b9e0-a153f32a43f4","ios":"levelo://app?vid=e13b78db-2231-48a0-b9e0-a153f32a43f4"},"vehicle_type_id":"4","last_reported":1762931475,"current_range_meters":14800,"station_id":"cpo3342slgdg3j2ifvpg","pricing_plan_id":"cebpf4jnsgd1na2vs0mg"},{"bike_id":"d97d1671-36ff-4f0e-b146-69c560265632","system_id":"levelo_inurba_marseille","lat":43.27993,"lon":5.40743,"is_reserved":false,"is_disabled":false,"rental_uris":{"android":"levelo://app?vid=d97d1671-36ff-4f0e-b146-69c560265632","ios":"levelo://app?vid=d97d1671-36ff-4f0e-b146-69c560265632"},"vehicle_type_id":"4","last_reported":1762931475,"current_range_meters":14800,"station_id":"","pricing_plan_id":"cebpf4jnsgd1na2vs0mg"},{"bike_id":"23cf5617-2a8e-4b86-b9b4-9b049dde7593","system_id":"levelo_inurba_marseille","lat":43.32381,"lon":5.36761,"is_reserved":false,"is_disabled":false,"rental_uris":{"android":"levelo://app?vid=23cf5617-2a8e-4b86-b9b4-9b049dde7593","ios":"levelo://app?vid=23cf5617-2a8e-4b86-b9b4-9b049dde7593"},"vehicle_type_id":"4","last_reported":1762931475,"current_range_meters":15200,"station_id":"ce4bhsh2rcd13ifvqi2g","pricing_plan_id":"cebpf4jnsgd1na2vs0mg"},{"bike_id":"d6d9a3e0-e0aa-4aa2-bf84-1c4e64c5c8a2","system_id":"levelo_inurba_marseille","lat":43.25517,"lon":5.39107,"is_reserved":false,"is_disabled":false,"rental_uris":{"android":"levelo://app?vid=d6d9a3e0-e0aa-4aa2-bf84-1c4e64c5c8a2","ios":"levelo://app?vid=d6d9a3e0-e0aa-4aa2-bf84-1c4e64c5c8a2"},"vehicle_type_id":"4","last_reported":1762931475,"current_range_meters":15200,"station_id":"","pricing_plan_id":"cebpf4jnsgd1na2vs0mg"},{"bike_id":"1b0b7981-696f-4ec5-932c-764cd2899c70","system_id":"levelo_inurba_marseille","lat":43.28474,"lon":5.4839,"is_reserved":false,"is_disabled":false,"rental_uris":{"android":"levelo://app?vid=1b0b7981-696f-4ec5-932c-764cd2899c70","ios":"levelo://app?vid=1b0b7981-696f-4ec5-932c-764cd2899c70"},"vehicle_type_id":"4","last_reported":1762931475,"current_range_meters":15200,"station_id":"","pricing_plan_id":"cebpf4jnsgd1na2vs0mg"},{"bike_id":"7debdec4-db33-4dad-83bf-2f83639d0f53","system_id":"levelo_inurba_marseille","lat":43.249913,"lon":5.389369,"is_reserved":false,"is_disabled":false,"rental_uris":{"android":"levelo://app?vid=7debdec4-db33-4dad-83bf-2f83639d0f53","ios":"levelo://app?vid=7debdec4-db33-4dad-83bf-2f83639d0f53"},"vehicle_type_id":"4","last_reported":1762931475,"current_range_meters":15200,"station_id":"ce4bhgp2rcd13ifvqfd0","pricing_plan_id":"cebpf4jnsgd1na2vs0mg"},{"bike_id":"5e6e0c2c-5aff-425c-b9f5-69ee0b364303","system_id":"levelo_inurba_marseille","lat":43.23208,"lon":5.3556,"is_reserved":false,"is_disabled":false,"rental_uris":{"android":"levelo://app?vid=5e6e0c2c-5aff-425c-b9f5-69ee0b364303","ios":"levelo://app?vid=5e6e0c2c-5aff-425c-b9f5-69ee0b364303"},"vehicle_type_id":"4","last_reported":1762931475,"current_range_meters":16000,"station_id":"ce4bhu92rcd13ifvqi70","pricing_plan_id":"cebpf4jnsgd1na2vs0mg"},{"bike_id":"e3df63a1-f3d2-4d82-8bf6-df212c4e8b69","system_id":"levelo_inurba_marseille","lat":43.284755,"lon":5.48396,"is_reserved":false,"is_disabled":false,"rental_uris":{"android":"levelo://app?vid=e3df63a1-f3d2-4d82-8bf6-df212c4e8b69","ios":"levelo://app?vid=e3df63a1-f3d2-4d82-8bf6-df212c4e8b69"},"vehicle_type_id":"4","last_reported":1762931475,"current_range_meters":16000,"station_id":"st_d3svhcjqgbts73a3dn0g","pricing_plan_id":"cebpf4jnsgd1na2vs0mg"},{"bike_id":"7405fff1-54cb-4441-8d3b-98a0b2f0eb43","system_id":"levelo_inurba_marseille","lat":43.273281,"lon":5.390523,"is_reserved":false,"is_disabled":false,"rental_uris":{"android":"levelo://app?vid=7405fff1-54cb-4441-8d3b-98a0b2f0eb43","ios":"levelo://app?vid=7405fff1-54cb-4441-8d3b-98a0b2f0eb43"},"vehicle_type_id":"4","last_reported":1762931475,"current_range_meters":16000,"station_id":"","pricing_plan_id":"cebpf4jnsgd1na2vs0mg"},{"bike_id":"663ae76e-e35d-482c-b2da-073c31f75060","system_id":"levelo_inurba_marseille","lat":43.30196,"lon":5.36626,"is_reserved":false,"is_disabled":false,"rental_uris":{"android":"levelo://app?vid=663ae76e-e35d-482c-b2da-073c31f75060","ios":"levelo://app?vid=663ae76e-e35d-482c-b2da-073c31f75060"},"vehicle_type_id":"4","last_reported":1762931475,"current_range_meters":16000,"station_id":"ce4bgrh2rcd13ifvqc8g","pricing_plan_id":"cebpf4jnsgd1na2vs0mg"},{"bike_id":"7e798260-e862-43ca-a153-ef26f9953226","system_id":"levelo_inurba_marseille","lat":43.240689,"lon":5.37757,"is_reserved":false,"is_disabled":false,"rental_uris":{"android":"levelo://app?vid=7e798260-e862-43ca-a153-ef26f9953226","ios":"levelo://app?vid=7e798260-e862-43ca-a153-ef26f9953226"},"vehicle_type_id":"4","last_reported":1762931475,"current_range_meters":16000,"station_id":"ce4bhnp2rcd13ifvqgvg","pricing_plan_id":"cebpf4jnsgd1na2vs0mg"},{"bike_id":"7cd3fc91-8b4e-4cc9-a97a-8aec9cd4160c","system_id":"levelo_inurba_marseille","lat":43.29879,"lon":5.37223,"is_reserved":false,"is_disabled":true,"rental_uris":{"android":"levelo://app?vid=7cd3fc91-8b4e-4cc9-a97a-8aec9cd4160c","ios":"levelo://app?vid=7cd3fc91-8b4e-4cc9-a97a-8aec9cd4160c"},"vehicle_type_id":"4","last_reported":1762931475,"current_range_meters":16400,"station_id":"","pricing_plan_id":"cebpf4jnsgd1na2vs0mg"},{"bike_id":"84026268-d7e2-40d8-8c7f-b2e30263873c","system_id":"levelo_inurba_marseille","lat":43.2294,"lon":5.35389,"is_reserved":false,"is_disabled":false,"rental_uris":{"android":"levelo://app?vid=84026268-d7e2-40d8-8c7f-b2e30263873c","ios":"levelo://app?vid=84026268-d7e2-40d8-8c7f-b2e30263873c"},"vehicle_type_id":"4","last_reported":1762931475,"current_range_meters":16400,"station_id":"cpo3532slgdg3j2ikp40","pricing_plan_id":"cebpf4jnsgd1na2vs0mg"},{"bike_id":"c3a1e69d-5b20-4528-bddf-79c2950cd7d6","system_id":"levelo_inurba_marseille","lat":43.30326,"lon":5.36895,"is_reserved":false,"is_disabled":false,"rental_uris":{"android":"levelo://app?vid=c3a1e69d-5b20-4528-bddf-79c2950cd7d6","ios":"levelo://app?vid=c3a1e69d-5b20-4528-bddf-79c2950cd7d6"},"vehicle_type_id":"4","last_reported":1762931475,"current_range_meters":16400,"station_id":"ce4bgqh2rcd13ifvqc5g","pricing_plan_id":"cebpf4jnsgd1na2vs0mg"},{"bike_id":"c87d49cf-734d-463f-aad1-fad6864686cb","system_id":"levelo_inurba_marseille","lat":43.30705,"lon":5.4225,"is_reserved":false,"is_disabled":false,"rental_uris":{"android":"levelo://app?vid=c87d49cf-734d-463f-aad1-fad6864686cb","ios":"levelo://app?vid=c87d49cf-734d-463f-aad1-fad6864686cb"},"vehicle_type_id":"4","last_reported":1762931475,"current_range_meters":16400,"station_id":"","pricing_plan_id":"cebpf4jnsgd1na2vs0mg"},{"bike_id":"817e1ddc-4799-4955-9571-85f7e8edbdf0","system_id":"levelo_inurba_marseille","lat":43.28483,"lon":5.38451,"is_reserved":false,"is_disabled":true,"rental_uris":{"android":"levelo://app?vid=817e1ddc-4799-4955-9571-85f7e8edbdf0","ios":"levelo://app?vid=817e1ddc-4799-4955-9571-85f7e8edbdf0"},"vehicle_type_id":"4","last_reported":1762931475,"current_range_meters":16400,"station_id":"ce4bh512rcd13ifvqe3g","pricing_plan_id":"cebpf4jnsgd1na2vs0mg"},{"bike_id":"0528378f-1b50-41df-b328-6686306ee922","system_id":"levelo_inurba_marseille","lat":43.216273,"lon":5.34442,"is_reserved":false,"is_disabled":false,"rental_uris":{"android":"levelo://app?vid=0528378f-1b50-41df-b328-6686306ee922","ios":"levelo://app?vid=0528378f-1b50-41df-b328-6686306ee922"},"vehicle_type_id":"4","last_reported":1762931475,"current_range_meters":16400,"station_id":"","pricing_plan_id":"cebpf4jnsgd1na2vs0mg"},{"bike_id":"0e1ba582-c06a-482f-b7d0-001c3f3645ce","system_id":"levelo_inurba_marseille","lat":43.31355,"lon":5.38497,"is_reserved":false,"is_disabled":false,"rental_uris":{"android":"levelo://app?vid=0e1ba582-c06a-482f-b7d0-001c3f3645ce","ios":"levelo://app?vid=0e1ba582-c06a-482f-b7d0-001c3f3645ce"},"vehicle_type_id":"4","last_reported":1762931475,"current_range_meters":16400,"station_id":"ce4bgt92rcd13ifvqcf0","pricing_plan_id":"cebpf4jnsgd1na2vs0mg"},{"bike_id":"6c4d02e5-bce9-45af-8446-e07b99ad5b76","system_id":"levelo_inurba_marseille","lat":43.290202,"lon":5.357443,"is_reserved":false,"is_disabled":false,"rental_uris":{"android":"levelo://app?vid=6c4d02e5-bce9-45af-8446-e07b99ad5b76","ios":"levelo://app?vid=6c4d02e5-bce9-45af-8446-e07b99ad5b76"},"vehicle_type_id":"4","last_reported":1762931475,"current_range_meters":16400,"station_id":"","pricing_plan_id":"cebpf4jnsgd1na2vs0mg"},{"bike_id":"a38b499d-f66f-4f43-bcf5-7ca9af21ec79","system_id":"levelo_inurba_marseille","lat":43.281498,"lon":5.426539,"is_reserved":false,"is_disabled":false,"rental_uris":{"android":"levelo://app?vid=a38b499d-f66f-4f43-bcf5-7ca9af21ec79","ios":"levelo://app?vid=a38b499d-f66f-4f43-bcf5-7ca9af21ec79"},"vehicle_type_id":"4","last_reported":1762931475,"current_range_meters":16400,"station_id":"ce4bhnh2rcd13ifvqgug","pricing_plan_id":"cebpf4jnsgd1na2vs0mg"},{"bike_id":"b61617af-5e6e-4eae-bb4b-c657289cb01b","system_id":"levelo_inurba_marseille","lat":43.33161,"lon":5.37682,"is_reserved":false,"is_disabled":false,"rental_uris":{"android":"levelo://app?vid=b61617af-5e6e-4eae-bb4b-c657289cb01b","ios":"levelo://app?vid=b61617af-5e6e-4eae-bb4b-c657289cb01b"},"vehicle_type_id":"4","last_reported":1762931475,"current_range_meters":16800,"station_id":"st_d46cu089ee8s73dldbu0","pricing_plan_id":"cebpf4jnsgd1na2vs0mg"},{"bike_id":"148f6e9f-6211-428f-8ddc-f0b34bf3979d","system_id":"levelo_inurba_marseille","lat":43.27487,"lon":5.42433,"is_reserved":false,"is_disabled":false,"rental_uris":{"android":"levelo://app?vid=148f6e9f-6211-428f-8ddc-f0b34bf3979d","ios":"levelo://app?vid=148f6e9f-6211-428f-8ddc-f0b34bf3979d"},"vehicle_type_id":"4","last_reported":1762931475,"current_range_meters":16800,"station_id":"ce4bhn92rcd13ifvqgrg","pricing_plan_id":"cebpf4jnsgd1na2vs0mg"},{"bike_id":"9f77fce6-b576-455d-a43d-b1e175676c28","system_id":"levelo_inurba_marseille","lat":43.33773,"lon":5.37473,"is_reserved":false,"is_disabled":false,"rental_uris":{"android":"levelo://app?vid=9f77fce6-b576-455d-a43d-b1e175676c28","ios":"levelo://app?vid=9f77fce6-b576-455d-a43d-b1e175676c28"},"vehicle_type_id":"4","last_reported":1762931475,"current_range_meters":16800,"station_id":"","pricing_plan_id":"cebpf4jnsgd1na2vs0mg"},{"bike_id":"f556db8c-e69e-45e2-9862-4ecbf87443ea","system_id":"levelo_inurba_marseille","lat":43.2315,"lon":5.43728,"is_reserved":false,"is_disabled":false,"rental_uris":{"android":"levelo://app?vid=f556db8c-e69e-45e2-9862-4ecbf87443ea","ios":"levelo://app?vid=f556db8c-e69e-45e2-9862-4ecbf87443ea"},"vehicle_type_id":"4","last_reported":1762931475,"current_range_meters":16800,"station_id":"ce4bhmp2rcd13ifvqgog","pricing_plan_id":"cebpf4jnsgd1na2vs0mg"},{"bike_id":"25ff1596-8d93-46ac-bdb5-e25a518d41ee","system_id":"levelo_inurba_marseille","lat":43.28923,"lon":5.383958,"is_reserved":false,"is_disabled":false,"rental_uris":{"android":"levelo://app?vid=25ff1596-8d93-46ac-bdb5-e25a518d41ee","ios":"levelo://app?vid=25ff1596-8d93-46ac-bdb5-e25a518d41ee"},"vehicle_type_id":"4","last_reported":1762931475,"current_range_meters":16800,"station_id":"ce4bh612rcd13ifvqe6g","pricing_plan_id":"cebpf4jnsgd1na2vs0mg"},{"bike_id":"138c31e4-9981-4e8d-b69d-baea3bbf5ad9","system_id":"levelo_inurba_marseille","lat":43.28701,"lon":5.39987,"is_reserved":false,"is_disabled":false,"rental_uris":{"android":"levelo://app?vid=138c31e4-9981-4e8d-b69d-baea3bbf5ad9","ios":"levelo://app?vid=138c31e4-9981-4e8d-b69d-baea3bbf5ad9"},"vehicle_type_id":"4","last_reported":1762931475,"current_range_meters":17200,"station_id":"ce4bho92rcd13ifvqh3g","pricing_plan_id":"cebpf4jnsgd1na2vs0mg"},{"bike_id":"c83b5c1b-edab-4bfb-a2f2-d3468c55c2ba","system_id":"levelo_inurba_marseille","lat":43.294826,"lon":5.444489,"is_reserved":false,"is_disabled":false,"rental_uris":{"android":"levelo://app?vid=c83b5c1b-edab-4bfb-a2f2-d3468c55c2ba","ios":"levelo://app?vid=c83b5c1b-edab-4bfb-a2f2-d3468c55c2ba"},"vehicle_type_id":"4","last_reported":1762931475,"current_range_meters":17200,"station_id":"","pricing_plan_id":"cebpf4jnsgd1na2vs0mg"},{"bike_id":"a26712ac-c4dc-4d7c-9767-877ec57b4780","system_id":"levelo_inurba_marseille","lat":43.284663,"lon":5.48404,"is_reserved":false,"is_disabled":false,"rental_uris":{"android":"levelo://app?vid=a26712ac-c4dc-4d7c-9767-877ec57b4780","ios":"levelo://app?vid=a26712ac-c4dc-4d7c-9767-877ec57b4780"},"vehicle_type_id":"4","last_reported":1762931475,"current_range_meters":17200,"station_id":"st_d3svhcjqgbts73a3dn0g","pricing_plan_id":"cebpf4jnsgd1na2vs0mg"},{"bike_id":"01571923-980e-446a-ba2d-4d18a11dfcdd","system_id":"levelo_inurba_marseille","lat":43.24816,"lon":5.37439,"is_reserved":false,"is_disabled":false,"rental_uris":{"android":"levelo://app?vid=01571923-980e-446a-ba2d-4d18a11dfcdd","ios":"levelo://app?vid=01571923-980e-446a-ba2d-4d18a11dfcdd"},"vehicle_type_id":"4","last_reported":1762931475,"current_range_meters":17200,"station_id":"ce4bhgh2rcd13ifvqfb0","pricing_plan_id":"cebpf4jnsgd1na2vs0mg"},{"bike_id":"e24396a3-4d86-4df7-8971-a89fd81de482","system_id":"levelo_inurba_marseille","lat":43.2407,"lon":5.37763,"is_reserved":false,"is_disabled":false,"rental_uris":{"android":"levelo://app?vid=e24396a3-4d86-4df7-8971-a89fd81de482","ios":"levelo://app?vid=e24396a3-4d86-4df7-8971-a89fd81de482"},"vehicle_type_id":"4","last_reported":1762931475,"current_range_meters":17200,"station_id":"ce4bhnp2rcd13ifvqgvg","pricing_plan_id":"cebpf4jnsgd1na2vs0mg"},{"bike_id":"c4d99a60-56bc-4f6e-96c8-b59c44660d79","system_id":"levelo_inurba_marseille","lat":43.24648,"lon":5.38895,"is_reserved":false,"is_disabled":false,"rental_uris":{"android":"levelo://app?vid=c4d99a60-56bc-4f6e-96c8-b59c44660d79","ios":"levelo://app?vid=c4d99a60-56bc-4f6e-96c8-b59c44660d79"},"vehicle_type_id":"4","last_reported":1762931475,"current_range_meters":17200,"station_id":"ce4bhg12rcd13ifvqf60","pricing_plan_id":"cebpf4jnsgd1na2vs0mg"},{"bike_id":"70f39a84-3cde-41e2-aeaf-b7307827a9fb","system_id":"levelo_inurba_marseille","lat":43.30777,"lon":5.37652,"is_reserved":false,"is_disabled":false,"rental_uris":{"android":"levelo://app?vid=70f39a84-3cde-41e2-aeaf-b7307827a9fb","ios":"levelo://app?vid=70f39a84-3cde-41e2-aeaf-b7307827a9fb"},"vehicle_type_id":"4","last_reported":1762931475,"current_range_meters":17200,"station_id":"ce4bgv92rcd13ifvqcq0","pricing_plan_id":"cebpf4jnsgd1na2vs0mg"},{"bike_id":"52d4b8ef-bd3b-4594-9933-6de587b7e338","system_id":"levelo_inurba_marseille","lat":43.229214,"lon":5.353827,"is_reserved":false,"is_disabled":false,"rental_uris":{"android":"levelo://app?vid=52d4b8ef-bd3b-4594-9933-6de587b7e338","ios":"levelo://app?vid=52d4b8ef-bd3b-4594-9933-6de587b7e338"},"vehicle_type_id":"4","last_reported":1762931475,"current_range_meters":17200,"station_id":"cpo3532slgdg3j2ikp40","pricing_plan_id":"cebpf4jnsgd1na2vs0mg"},{"bike_id":"00f8c749-744d-4fdf-bfb9-ac9d8dc4ad15","system_id":"levelo_inurba_marseille","lat":43.34141,"lon":5.4091,"is_reserved":false,"is_disabled":false,"rental_uris":{"android":"levelo://app?vid=00f8c749-744d-4fdf-bfb9-ac9d8dc4ad15","ios":"levelo://app?vid=00f8c749-744d-4fdf-bfb9-ac9d8dc4ad15"},"vehicle_type_id":"4","last_reported":1762931475,"current_range_meters":17200,"station_id":"ce4bhqh2rcd13ifvqhlg","pricing_plan_id":"cebpf4jnsgd1na2vs0mg"},{"bike_id":"4feb9392-ad22-4564-b724-da60ddcc16fb","system_id":"levelo_inurba_marseille","lat":43.28465,"lon":5.38431,"is_reserved":false,"is_disabled":false,"rental_uris":{"android":"levelo://app?vid=4feb9392-ad22-4564-b724-da60ddcc16fb","ios":"levelo://app?vid=4feb9392-ad22-4564-b724-da60ddcc16fb"},"vehicle_type_id":"4","last_reported":1762931475,"current_range_meters":17200,"station_id":"ce4bh512rcd13ifvqe3g","pricing_plan_id":"cebpf4jnsgd1na2vs0mg"},{"bike_id":"0d1a1fe5-cf19-43f0-b2e2-12612db29a2a","system_id":"levelo_inurba_marseille","lat":43.288998,"lon":5.361092,"is_reserved":false,"is_disabled":false,"rental_uris":{"android":"levelo://app?vid=0d1a1fe5-cf19-43f0-b2e2-12612db29a2a","ios":"levelo://app?vid=0d1a1fe5-cf19-43f0-b2e2-12612db29a2a"},"vehicle_type_id":"4","last_reported":1762931475,"current_range_meters":17600,"station_id":"","pricing_plan_id":"cebpf4jnsgd1na2vs0mg"},{"bike_id":"837a4499-0ecf-4b22-b9be-aca5adaa63e5","system_id":"levelo_inurba_marseille","lat":43.27194,"lon":5.41001,"is_reserved":false,"is_disabled":true,"rental_uris":{"android":"levelo://app?vid=837a4499-0ecf-4b22-b9be-aca5adaa63e5","ios":"levelo://app?vid=837a4499-0ecf-4b22-b9be-aca5adaa63e5"},"vehicle_type_id":"4","last_reported":1762931475,"current_range_meters":17600,"station_id":"ce4bhl12rcd13ifvqgf0","pricing_plan_id":"cebpf4jnsgd1na2vs0mg"},{"bike_id":"65a4abe7-288e-4d53-9a3a-9c7ef2e7d4a6","system_id":"levelo_inurba_marseille","lat":43.28158,"lon":5.42644,"is_reserved":false,"is_disabled":false,"rental_uris":{"android":"levelo://app?vid=65a4abe7-288e-4d53-9a3a-9c7ef2e7d4a6","ios":"levelo://app?vid=65a4abe7-288e-4d53-9a3a-9c7ef2e7d4a6"},"vehicle_type_id":"4","last_reported":1762931475,"current_range_meters":17600,"station_id":"ce4bhnh2rcd13ifvqgug","pricing_plan_id":"cebpf4jnsgd1na2vs0mg"},{"bike_id":"91a4e788-6f46-4c46-8784-a0ccc8ad4bb6","system_id":"levelo_inurba_marseille","lat":43.30466,"lon":5.37919,"is_reserved":false,"is_disabled":false,"rental_uris":{"android":"levelo://app?vid=91a4e788-6f46-4c46-8784-a0ccc8ad4bb6","ios":"levelo://app?vid=91a4e788-6f46-4c46-8784-a0ccc8ad4bb6"},"vehicle_type_id":"4","last_reported":1762931475,"current_range_meters":17600,"station_id":"ce4bgup2rcd13ifvqcn0","pricing_plan_id":"cebpf4jnsgd1na2vs0mg"},{"bike_id":"a76ed384-8adb-4855-8ea9-608b64e9d92b","system_id":"levelo_inurba_marseille","lat":43.322717,"lon":5.36956,"is_reserved":false,"is_disabled":false,"rental_uris":{"android":"levelo://app?vid=a76ed384-8adb-4855-8ea9-608b64e9d92b","ios":"levelo://app?vid=a76ed384-8adb-4855-8ea9-608b64e9d92b"},"vehicle_type_id":"4","last_reported":1762931475,"current_range_meters":17600,"station_id":"","pricing_plan_id":"cebpf4jnsgd1na2vs0mg"},{"bike_id":"6faca5e0-f5f3-4419-a7e2-34fda1621326","system_id":"levelo_inurba_marseille","lat":43.21191,"lon":5.35081,"is_reserved":false,"is_disabled":true,"rental_uris":{"android":"levelo://app?vid=6faca5e0-f5f3-4419-a7e2-34fda1621326","ios":"levelo://app?vid=6faca5e0-f5f3-4419-a7e2-34fda1621326"},"vehicle_type_id":"4","last_reported":1762931475,"current_range_meters":17600,"station_id":"st_cvj6sg6p6f1abm77japg","pricing_plan_id":"cebpf4jnsgd1na2vs0mg"},{"bike_id":"1e8b9447-6102-430d-9de0-baa25221656c","system_id":"levelo_inurba_marseille","lat":43.276184,"lon":5.361144,"is_reserved":false,"is_disabled":true,"rental_uris":{"android":"levelo://app?vid=1e8b9447-6102-430d-9de0-baa25221656c","ios":"levelo://app?vid=1e8b9447-6102-430d-9de0-baa25221656c"},"vehicle_type_id":"4","last_reported":1762931475,"current_range_meters":18000,"station_id":"ce4bgj92rcd13ifvqbe0","pricing_plan_id":"cebpf4jnsgd1na2vs0mg"},{"bike_id":"e276588c-98b3-48d6-a6c6-f4140a9c9005","system_id":"levelo_inurba_marseille","lat":43.28452,"lon":5.37542,"is_reserved":false,"is_disabled":false,"rental_uris":{"android":"levelo://app?vid=e276588c-98b3-48d6-a6c6-f4140a9c9005","ios":"levelo://app?vid=e276588c-98b3-48d6-a6c6-f4140a9c9005"},"vehicle_type_id":"4","last_reported":1762931475,"current_range_meters":18000,"station_id":"","pricing_plan_id":"cebpf4jnsgd1na2vs0mg"},{"bike_id":"fb3c1a9d-52c2-4a8b-bcbf-5a6cad477f98","system_id":"levelo_inurba_marseille","lat":43.29281,"lon":5.40122,"is_reserved":false,"is_disabled":false,"rental_uris":{"android":"levelo://app?vid=fb3c1a9d-52c2-4a8b-bcbf-5a6cad477f98","ios":"levelo://app?vid=fb3c1a9d-52c2-4a8b-bcbf-5a6cad477f98"},"vehicle_type_id":"4","last_reported":1762931475,"current_range_meters":18000,"station_id":"ce4bh312rcd13ifvqdk0","pricing_plan_id":"cebpf4jnsgd1na2vs0mg"},{"bike_id":"98d9ed27-1c51-4232-bb05-142a9e7f98db","system_id":"levelo_inurba_marseille","lat":43.310609,"lon":5.383512,"is_reserved":false,"is_disabled":true,"rental_uris":{"android":"levelo://app?vid=98d9ed27-1c51-4232-bb05-142a9e7f98db","ios":"levelo://app?vid=98d9ed27-1c51-4232-bb05-142a9e7f98db"},"vehicle_type_id":"4","last_reported":1762931475,"current_range_meters":18000,"station_id":"ce4bgv92rcd13ifvqcr0","pricing_plan_id":"cebpf4jnsgd1na2vs0mg"},{"bike_id":"8a42869d-579e-49a0-818c-843e57583abc","system_id":"levelo_inurba_marseille","lat":43.2749,"lon":5.42453,"is_reserved":false,"is_disabled":false,"rental_uris":{"android":"levelo://app?vid=8a42869d-579e-49a0-818c-843e57583abc","ios":"levelo://app?vid=8a42869d-579e-49a0-818c-843e57583abc"},"vehicle_type_id":"4","last_reported":1762931475,"current_range_meters":18000,"station_id":"ce4bhn92rcd13ifvqgrg","pricing_plan_id":"cebpf4jnsgd1na2vs0mg"},{"bike_id":"8757aa1a-ca77-4be3-bb0e-30da65838b29","system_id":"levelo_inurba_marseille","lat":43.231594,"lon":5.437116,"is_reserved":false,"is_disabled":false,"rental_uris":{"android":"levelo://app?vid=8757aa1a-ca77-4be3-bb0e-30da65838b29","ios":"levelo://app?vid=8757aa1a-ca77-4be3-bb0e-30da65838b29"},"vehicle_type_id":"4","last_reported":1762931475,"current_range_meters":18000,"station_id":"ce4bhmp2rcd13ifvqgog","pricing_plan_id":"cebpf4jnsgd1na2vs0mg"},{"bike_id":"8dbf007e-9888-43ce-a6f8-91a2b198ae49","system_id":"levelo_inurba_marseille","lat":43.24072,"lon":5.37762,"is_reserved":false,"is_disabled":false,"rental_uris":{"android":"levelo://app?vid=8dbf007e-9888-43ce-a6f8-91a2b198ae49","ios":"levelo://app?vid=8dbf007e-9888-43ce-a6f8-91a2b198ae49"},"vehicle_type_id":"4","last_reported":1762931475,"current_range_meters":18000,"station_id":"ce4bhnp2rcd13ifvqgvg","pricing_plan_id":"cebpf4jnsgd1na2vs0mg"},{"bike_id":"1f10aa07-17b5-420e-b6f2-b695d3cbb769","system_id":"levelo_inurba_marseille","lat":43.30599,"lon":5.39362,"is_reserved":false,"is_disabled":true,"rental_uris":{"android":"levelo://app?vid=1f10aa07-17b5-420e-b6f2-b695d3cbb769","ios":"levelo://app?vid=1f10aa07-17b5-420e-b6f2-b695d3cbb769"},"vehicle_type_id":"4","last_reported":1762931475,"current_range_meters":18800,"station_id":"ce4bh0p2rcd13ifvqd80","pricing_plan_id":"cebpf4jnsgd1na2vs0mg"},{"bike_id":"fc9f58fe-0850-4f81-890e-74ebeda00793","system_id":"levelo_inurba_marseille","lat":43.29037,"lon":5.39979,"is_reserved":false,"is_disabled":false,"rental_uris":{"android":"levelo://app?vid=fc9f58fe-0850-4f81-890e-74ebeda00793","ios":"levelo://app?vid=fc9f58fe-0850-4f81-890e-74ebeda00793"},"vehicle_type_id":"4","last_reported":1762931475,"current_range_meters":18800,"station_id":"ce4bh392rcd13ifvqdm0","pricing_plan_id":"cebpf4jnsgd1na2vs0mg"},{"bike_id":"5f13691d-a763-4d3d-b4d3-73a7571708f4","system_id":"levelo_inurba_marseille","lat":43.31994,"lon":5.38161,"is_reserved":false,"is_disabled":false,"rental_uris":{"android":"levelo://app?vid=5f13691d-a763-4d3d-b4d3-73a7571708f4","ios":"levelo://app?vid=5f13691d-a763-4d3d-b4d3-73a7571708f4"},"vehicle_type_id":"4","last_reported":1762931475,"current_range_meters":18800,"station_id":"ce4bhr12rcd13ifvqhpg","pricing_plan_id":"cebpf4jnsgd1na2vs0mg"},{"bike_id":"a5f92871-e901-40e2-af90-705a6de748e5","system_id":"levelo_inurba_marseille","lat":43.24081,"lon":5.37777,"is_reserved":false,"is_disabled":false,"rental_uris":{"android":"levelo://app?vid=a5f92871-e901-40e2-af90-705a6de748e5","ios":"levelo://app?vid=a5f92871-e901-40e2-af90-705a6de748e5"},"vehicle_type_id":"4","last_reported":1762931475,"current_range_meters":18800,"station_id":"ce4bhnp2rcd13ifvqgvg","pricing_plan_id":"cebpf4jnsgd1na2vs0mg"},{"bike_id":"6e2caa74-d1f5-4152-855d-e673413d500d","system_id":"levelo_inurba_marseille","lat":43.244,"lon":5.37067,"is_reserved":false,"is_disabled":false,"rental_uris":{"android":"levelo://app?vid=6e2caa74-d1f5-4152-855d-e673413d500d","ios":"levelo://app?vid=6e2caa74-d1f5-4152-855d-e673413d500d"},"vehicle_type_id":"4","last_reported":1762931475,"current_range_meters":18800,"station_id":"ce4bhhh2rcd13ifvqfk0","pricing_plan_id":"cebpf4jnsgd1na2vs0mg"},{"bike_id":"23f9c78c-ca0a-48be-8a9d-156c748920c2","system_id":"levelo_inurba_marseille","lat":43.27915,"lon":5.41026,"is_reserved":false,"is_disabled":false,"rental_uris":{"android":"levelo://app?vid=23f9c78c-ca0a-48be-8a9d-156c748920c2","ios":"levelo://app?vid=23f9c78c-ca0a-48be-8a9d-156c748920c2"},"vehicle_type_id":"4","last_reported":1762931475,"current_range_meters":18800,"station_id":"ce4bhnp2rcd13ifvqh0g","pricing_plan_id":"cebpf4jnsgd1na2vs0mg"},{"bike_id":"b3d16a6d-0471-48a5-8737-66b518d20806","system_id":"levelo_inurba_marseille","lat":43.27441,"lon":5.39411,"is_reserved":false,"is_disabled":false,"rental_uris":{"android":"levelo://app?vid=b3d16a6d-0471-48a5-8737-66b518d20806","ios":"levelo://app?vid=b3d16a6d-0471-48a5-8737-66b518d20806"},"vehicle_type_id":"4","last_reported":1762931475,"current_range_meters":18800,"station_id":"ce4bhdp2rcd13ifvqf20","pricing_plan_id":"cebpf4jnsgd1na2vs0mg"},{"bike_id":"17c2c552-132f-4eb8-bdaa-75b8888374a4","system_id":"levelo_inurba_marseille","lat":43.24171,"lon":5.364,"is_reserved":false,"is_disabled":false,"rental_uris":{"android":"levelo://app?vid=17c2c552-132f-4eb8-bdaa-75b8888374a4","ios":"levelo://app?vid=17c2c552-132f-4eb8-bdaa-75b8888374a4"},"vehicle_type_id":"4","last_reported":1762931475,"current_range_meters":18800,"station_id":"cpo36qri1sfpv3e86is0","pricing_plan_id":"cebpf4jnsgd1na2vs0mg"},{"bike_id":"bde68cd8-1b25-4aa4-afd9-6cc910e106d2","system_id":"levelo_inurba_marseille","lat":43.33795,"lon":5.37464,"is_reserved":false,"is_disabled":false,"rental_uris":{"android":"levelo://app?vid=bde68cd8-1b25-4aa4-afd9-6cc910e106d2","ios":"levelo://app?vid=bde68cd8-1b25-4aa4-afd9-6cc910e106d2"},"vehicle_type_id":"4","last_reported":1762931475,"current_range_meters":19200,"station_id":"","pricing_plan_id":"cebpf4jnsgd1na2vs0mg"},{"bike_id":"baab0da5-392a-4f40-83dd-a8d997b612fe","system_id":"levelo_inurba_marseille","lat":43.290282,"lon":5.399797,"is_reserved":false,"is_disabled":false,"rental_uris":{"android":"levelo://app?vid=baab0da5-392a-4f40-83dd-a8d997b612fe","ios":"levelo://app?vid=baab0da5-392a-4f40-83dd-a8d997b612fe"},"vehicle_type_id":"4","last_reported":1762931475,"current_range_meters":19200,"station_id":"ce4bh392rcd13ifvqdm0","pricing_plan_id":"cebpf4jnsgd1na2vs0mg"},{"bike_id":"feba1818-bd8b-4490-b819-a63599738f3b","system_id":"levelo_inurba_marseille","lat":43.30318,"lon":5.36904,"is_reserved":false,"is_disabled":false,"rental_uris":{"android":"levelo://app?vid=feba1818-bd8b-4490-b819-a63599738f3b","ios":"levelo://app?vid=feba1818-bd8b-4490-b819-a63599738f3b"},"vehicle_type_id":"4","last_reported":1762931475,"current_range_meters":19200,"station_id":"ce4bgqh2rcd13ifvqc5g","pricing_plan_id":"cebpf4jnsgd1na2vs0mg"},{"bike_id":"58be8180-967b-40b9-b299-90937a7eea47","system_id":"levelo_inurba_marseille","lat":43.285381,"lon":5.441236,"is_reserved":false,"is_disabled":false,"rental_uris":{"android":"levelo://app?vid=58be8180-967b-40b9-b299-90937a7eea47","ios":"levelo://app?vid=58be8180-967b-40b9-b299-90937a7eea47"},"vehicle_type_id":"4","last_reported":1762931475,"current_range_meters":19200,"station_id":"st_d3j3df2ikq2c7380ej80","pricing_plan_id":"cebpf4jnsgd1na2vs0mg"},{"bike_id":"ac7f558e-4423-4d13-ae02-00afc55d464e","system_id":"levelo_inurba_marseille","lat":43.304664,"lon":5.379016,"is_reserved":false,"is_disabled":true,"rental_uris":{"android":"levelo://app?vid=ac7f558e-4423-4d13-ae02-00afc55d464e","ios":"levelo://app?vid=ac7f558e-4423-4d13-ae02-00afc55d464e"},"vehicle_type_id":"4","last_reported":1762931475,"current_range_meters":19200,"station_id":"ce4bgup2rcd13ifvqcn0","pricing_plan_id":"cebpf4jnsgd1na2vs0mg"},{"bike_id":"5faed28a-3f08-4f6d-a110-44bb484ac71b","system_id":"levelo_inurba_marseille","lat":43.25867,"lon":5.39916,"is_reserved":false,"is_disabled":true,"rental_uris":{"android":"levelo://app?vid=5faed28a-3f08-4f6d-a110-44bb484ac71b","ios":"levelo://app?vid=5faed28a-3f08-4f6d-a110-44bb484ac71b"},"vehicle_type_id":"4","last_reported":1762931475,"current_range_meters":19200,"station_id":"ce4bhl92rcd13ifvqghg","pricing_plan_id":"cebpf4jnsgd1na2vs0mg"},{"bike_id":"9f257429-210e-4187-b310-fa3b4c5c3978","system_id":"levelo_inurba_marseille","lat":43.273354,"lon":5.401359,"is_reserved":false,"is_disabled":false,"rental_uris":{"android":"levelo://app?vid=9f257429-210e-4187-b310-fa3b4c5c3978","ios":"levelo://app?vid=9f257429-210e-4187-b310-fa3b4c5c3978"},"vehicle_type_id":"4","last_reported":1762931475,"current_range_meters":19200,"station_id":"","pricing_plan_id":"cebpf4jnsgd1na2vs0mg"},{"bike_id":"4f27c235-11df-4df2-bfdf-8938c3d9c6ba","system_id":"levelo_inurba_marseille","lat":43.337808,"lon":5.374263,"is_reserved":false,"is_disabled":false,"rental_uris":{"android":"levelo://app?vid=4f27c235-11df-4df2-bfdf-8938c3d9c6ba","ios":"levelo://app?vid=4f27c235-11df-4df2-bfdf-8938c3d9c6ba"},"vehicle_type_id":"4","last_reported":1762931475,"current_range_meters":19200,"station_id":"","pricing_plan_id":"cebpf4jnsgd1na2vs0mg"},{"bike_id":"51b73d94-55eb-41e9-a11e-7712739b5690","system_id":"levelo_inurba_marseille","lat":43.289576,"lon":5.364649,"is_reserved":false,"is_disabled":false,"rental_uris":{"android":"levelo://app?vid=51b73d94-55eb-41e9-a11e-7712739b5690","ios":"levelo://app?vid=51b73d94-55eb-41e9-a11e-7712739b5690"},"vehicle_type_id":"4","last_reported":1762931475,"current_range_meters":19200,"station_id":"ce4bhc92rcd13ifvqetg","pricing_plan_id":"cebpf4jnsgd1na2vs0mg"},{"bike_id":"21388149-3190-4ece-8988-09eff4e78e6e","system_id":"levelo_inurba_marseille","lat":43.29546,"lon":5.37524,"is_reserved":false,"is_disabled":true,"rental_uris":{"android":"levelo://app?vid=21388149-3190-4ece-8988-09eff4e78e6e","ios":"levelo://app?vid=21388149-3190-4ece-8988-09eff4e78e6e"},"vehicle_type_id":"4","last_reported":1762931475,"current_range_meters":19200,"station_id":"ce4bgkp2rcd13ifvqbmg","pricing_plan_id":"cebpf4jnsgd1na2vs0mg"},{"bike_id":"cbbcae47-3a6f-4ef8-8b96-a4bcdb2beee4","system_id":"levelo_inurba_marseille","lat":43.2746,"lon":5.42469,"is_reserved":false,"is_disabled":false,"rental_uris":{"android":"levelo://app?vid=cbbcae47-3a6f-4ef8-8b96-a4bcdb2beee4","ios":"levelo://app?vid=cbbcae47-3a6f-4ef8-8b96-a4bcdb2beee4"},"vehicle_type_id":"4","last_reported":1762931475,"current_range_meters":19200,"station_id":"ce4bhn92rcd13ifvqgrg","pricing_plan_id":"cebpf4jnsgd1na2vs0mg"},{"bike_id":"1cb7c144-5f68-408d-ac57-9c968a313e05","system_id":"levelo_inurba_marseille","lat":43.2842,"lon":5.37519,"is_reserved":false,"is_disabled":false,"rental_uris":{"android":"levelo://app?vid=1cb7c144-5f68-408d-ac57-9c968a313e05","ios":"levelo://app?vid=1cb7c144-5f68-408d-ac57-9c968a313e05"},"vehicle_type_id":"4","last_reported":1762931475,"current_range_meters":19200,"station_id":"ce4bh412rcd13ifvqds0","pricing_plan_id":"cebpf4jnsgd1na2vs0mg"},{"bike_id":"05bd2aed-ce41-4f4b-b9bf-22730000326e","system_id":"levelo_inurba_marseille","lat":43.29737,"lon":5.37673,"is_reserved":false,"is_disabled":false,"rental_uris":{"android":"levelo://app?vid=05bd2aed-ce41-4f4b-b9bf-22730000326e","ios":"levelo://app?vid=05bd2aed-ce41-4f4b-b9bf-22730000326e"},"vehicle_type_id":"4","last_reported":1762931475,"current_range_meters":19600,"station_id":"ce4bgkh2rcd13ifvqbl0","pricing_plan_id":"cebpf4jnsgd1na2vs0mg"},{"bike_id":"69ca0916-03df-4b96-9ade-22943673cf25","system_id":"levelo_inurba_marseille","lat":43.27937,"lon":5.41038,"is_reserved":false,"is_disabled":false,"rental_uris":{"android":"levelo://app?vid=69ca0916-03df-4b96-9ade-22943673cf25","ios":"levelo://app?vid=69ca0916-03df-4b96-9ade-22943673cf25"},"vehicle_type_id":"4","last_reported":1762931475,"current_range_meters":19600,"station_id":"ce4bhnp2rcd13ifvqh0g","pricing_plan_id":"cebpf4jnsgd1na2vs0mg"},{"bike_id":"497b08dd-0d08-4452-95a2-bd975d3ce501","system_id":"levelo_inurba_marseille","lat":43.248071,"lon":5.374553,"is_reserved":false,"is_disabled":true,"rental_uris":{"android":"levelo://app?vid=497b08dd-0d08-4452-95a2-bd975d3ce501","ios":"levelo://app?vid=497b08dd-0d08-4452-95a2-bd975d3ce501"},"vehicle_type_id":"4","last_reported":1762931475,"current_range_meters":19600,"station_id":"ce4bhgh2rcd13ifvqfb0","pricing_plan_id":"cebpf4jnsgd1na2vs0mg"},{"bike_id":"54e79b48-7523-415b-9bd7-293c690c29f1","system_id":"levelo_inurba_marseille","lat":43.297744,"lon":5.391662,"is_reserved":false,"is_disabled":true,"rental_uris":{"android":"levelo://app?vid=54e79b48-7523-415b-9bd7-293c690c29f1","ios":"levelo://app?vid=54e79b48-7523-415b-9bd7-293c690c29f1"},"vehicle_type_id":"4","last_reported":1762931475,"current_range_meters":19600,"station_id":"","pricing_plan_id":"cebpf4jnsgd1na2vs0mg"},{"bike_id":"3f3db3e0-8786-462c-9790-1156703a5fd2","system_id":"levelo_inurba_marseille","lat":43.22925,"lon":5.35401,"is_reserved":false,"is_disabled":false,"rental_uris":{"android":"levelo://app?vid=3f3db3e0-8786-462c-9790-1156703a5fd2","ios":"levelo://app?vid=3f3db3e0-8786-462c-9790-1156703a5fd2"},"vehicle_type_id":"4","last_reported":1762931475,"current_range_meters":19600,"station_id":"cpo3532slgdg3j2ikp40","pricing_plan_id":"cebpf4jnsgd1na2vs0mg"},{"bike_id":"c6890a59-08aa-477e-9473-bd6659d81655","system_id":"levelo_inurba_marseille","lat":43.28474,"lon":5.38406,"is_reserved":false,"is_disabled":false,"rental_uris":{"android":"levelo://app?vid=c6890a59-08aa-477e-9473-bd6659d81655","ios":"levelo://app?vid=c6890a59-08aa-477e-9473-bd6659d81655"},"vehicle_type_id":"4","last_reported":1762931475,"current_range_meters":19600,"station_id":"ce4bh512rcd13ifvqe3g","pricing_plan_id":"cebpf4jnsgd1na2vs0mg"},{"bike_id":"c43f1cbc-3be1-496b-b9aa-ae97cdf680c1","system_id":"levelo_inurba_marseille","lat":43.27844,"lon":5.3922,"is_reserved":false,"is_disabled":false,"rental_uris":{"android":"levelo://app?vid=c43f1cbc-3be1-496b-b9aa-ae97cdf680c1","ios":"levelo://app?vid=c43f1cbc-3be1-496b-b9aa-ae97cdf680c1"},"vehicle_type_id":"4","last_reported":1762931475,"current_range_meters":19600,"station_id":"ce4bhjp2rcd13ifvqga0","pricing_plan_id":"cebpf4jnsgd1na2vs0mg"},{"bike_id":"a238facf-e848-48c3-a776-0ecb05259fc1","system_id":"levelo_inurba_marseille","lat":43.27965,"lon":5.38736,"is_reserved":false,"is_disabled":false,"rental_uris":{"android":"levelo://app?vid=a238facf-e848-48c3-a776-0ecb05259fc1","ios":"levelo://app?vid=a238facf-e848-48c3-a776-0ecb05259fc1"},"vehicle_type_id":"4","last_reported":1762931475,"current_range_meters":19600,"station_id":"ce4bhg12rcd13ifvqf80","pricing_plan_id":"cebpf4jnsgd1na2vs0mg"},{"bike_id":"6ae33d51-49e8-4628-912b-cc0de89cfa63","system_id":"levelo_inurba_marseille","lat":43.2583,"lon":5.39426,"is_reserved":false,"is_disabled":false,"rental_uris":{"android":"levelo://app?vid=6ae33d51-49e8-4628-912b-cc0de89cfa63","ios":"levelo://app?vid=6ae33d51-49e8-4628-912b-cc0de89cfa63"},"vehicle_type_id":"4","last_reported":1762931475,"current_range_meters":20000,"station_id":"ce4bhip2rcd13ifvqft0","pricing_plan_id":"cebpf4jnsgd1na2vs0mg"},{"bike_id":"a1e2b707-f2fd-4f8b-8a66-5aad67b77869","system_id":"levelo_inurba_marseille","lat":43.30158,"lon":5.38079,"is_reserved":false,"is_disabled":false,"rental_uris":{"android":"levelo://app?vid=a1e2b707-f2fd-4f8b-8a66-5aad67b77869","ios":"levelo://app?vid=a1e2b707-f2fd-4f8b-8a66-5aad67b77869"},"vehicle_type_id":"4","last_reported":1762931475,"current_range_meters":20000,"station_id":"ce4bgjp2rcd13ifvqbh0","pricing_plan_id":"cebpf4jnsgd1na2vs0mg"},{"bike_id":"17b45ae9-b21d-4123-b2bb-a8045e355843","system_id":"levelo_inurba_marseille","lat":43.24085,"lon":5.37757,"is_reserved":false,"is_disabled":false,"rental_uris":{"android":"levelo://app?vid=17b45ae9-b21d-4123-b2bb-a8045e355843","ios":"levelo://app?vid=17b45ae9-b21d-4123-b2bb-a8045e355843"},"vehicle_type_id":"4","last_reported":1762931475,"current_range_meters":20000,"station_id":"ce4bhnp2rcd13ifvqgvg","pricing_plan_id":"cebpf4jnsgd1na2vs0mg"},{"bike_id":"c6721cec-80d3-4039-949c-d6c1c72097cc","system_id":"levelo_inurba_marseille","lat":43.29278,"lon":5.40121,"is_reserved":false,"is_disabled":false,"rental_uris":{"android":"levelo://app?vid=c6721cec-80d3-4039-949c-d6c1c72097cc","ios":"levelo://app?vid=c6721cec-80d3-4039-949c-d6c1c72097cc"},"vehicle_type_id":"4","last_reported":1762931475,"current_range_meters":20000,"station_id":"ce4bh312rcd13ifvqdk0","pricing_plan_id":"cebpf4jnsgd1na2vs0mg"},{"bike_id":"4c48d3d7-5800-4c4d-b7cf-9ce8ef77094a","system_id":"levelo_inurba_marseille","lat":43.23153,"lon":5.43722,"is_reserved":false,"is_disabled":false,"rental_uris":{"android":"levelo://app?vid=4c48d3d7-5800-4c4d-b7cf-9ce8ef77094a","ios":"levelo://app?vid=4c48d3d7-5800-4c4d-b7cf-9ce8ef77094a"},"vehicle_type_id":"4","last_reported":1762931475,"current_range_meters":20000,"station_id":"ce4bhmp2rcd13ifvqgog","pricing_plan_id":"cebpf4jnsgd1na2vs0mg"},{"bike_id":"de77d408-f90f-4e0b-a4c3-32e3c008d958","system_id":"levelo_inurba_marseille","lat":43.24077,"lon":5.37761,"is_reserved":false,"is_disabled":false,"rental_uris":{"android":"levelo://app?vid=de77d408-f90f-4e0b-a4c3-32e3c008d958","ios":"levelo://app?vid=de77d408-f90f-4e0b-a4c3-32e3c008d958"},"vehicle_type_id":"4","last_reported":1762931475,"current_range_meters":20000,"station_id":"ce4bhnp2rcd13ifvqgvg","pricing_plan_id":"cebpf4jnsgd1na2vs0mg"},{"bike_id":"829b2674-ab79-49ef-82d7-47d9f1c1d0ae","system_id":"levelo_inurba_marseille","lat":43.3059,"lon":5.39354,"is_reserved":false,"is_disabled":false,"rental_uris":{"android":"levelo://app?vid=829b2674-ab79-49ef-82d7-47d9f1c1d0ae","ios":"levelo://app?vid=829b2674-ab79-49ef-82d7-47d9f1c1d0ae"},"vehicle_type_id":"4","last_reported":1762931475,"current_range_meters":20400,"station_id":"ce4bh0p2rcd13ifvqd80","pricing_plan_id":"cebpf4jnsgd1na2vs0mg"},{"bike_id":"7a1ef263-c216-402e-bafc-92d8214c104a","system_id":"levelo_inurba_marseille","lat":43.337444,"lon":5.374475,"is_reserved":false,"is_disabled":false,"rental_uris":{"android":"levelo://app?vid=7a1ef263-c216-402e-bafc-92d8214c104a","ios":"levelo://app?vid=7a1ef263-c216-402e-bafc-92d8214c104a"},"vehicle_type_id":"4","last_reported":1762931475,"current_range_meters":20400,"station_id":"","pricing_plan_id":"cebpf4jnsgd1na2vs0mg"},{"bike_id":"43ce8be6-8457-4fad-8532-6755f2c633c6","system_id":"levelo_inurba_marseille","lat":43.30136,"lon":5.39878,"is_reserved":false,"is_disabled":true,"rental_uris":{"android":"levelo://app?vid=43ce8be6-8457-4fad-8532-6755f2c633c6","ios":"levelo://app?vid=43ce8be6-8457-4fad-8532-6755f2c633c6"},"vehicle_type_id":"4","last_reported":1762931475,"current_range_meters":20400,"station_id":"ce4bh0h2rcd13ifvqd40","pricing_plan_id":"cebpf4jnsgd1na2vs0mg"},{"bike_id":"8bf3e8d6-4fde-4b4a-bda9-42152114a4f1","system_id":"levelo_inurba_marseille","lat":43.306997,"lon":5.399915,"is_reserved":false,"is_disabled":false,"rental_uris":{"android":"levelo://app?vid=8bf3e8d6-4fde-4b4a-bda9-42152114a4f1","ios":"levelo://app?vid=8bf3e8d6-4fde-4b4a-bda9-42152114a4f1"},"vehicle_type_id":"4","last_reported":1762931475,"current_range_meters":20400,"station_id":"","pricing_plan_id":"cebpf4jnsgd1na2vs0mg"},{"bike_id":"44d3bcd7-0a54-4359-b6a0-a46bc1954ce8","system_id":"levelo_inurba_marseille","lat":43.27495,"lon":5.42451,"is_reserved":false,"is_disabled":false,"rental_uris":{"android":"levelo://app?vid=44d3bcd7-0a54-4359-b6a0-a46bc1954ce8","ios":"levelo://app?vid=44d3bcd7-0a54-4359-b6a0-a46bc1954ce8"},"vehicle_type_id":"4","last_reported":1762931475,"current_range_meters":20400,"station_id":"ce4bhn92rcd13ifvqgrg","pricing_plan_id":"cebpf4jnsgd1na2vs0mg"},{"bike_id":"eb227189-77d8-408c-8bf8-937c880532dd","system_id":"levelo_inurba_marseille","lat":43.284768,"lon":5.38418,"is_reserved":false,"is_disabled":false,"rental_uris":{"android":"levelo://app?vid=eb227189-77d8-408c-8bf8-937c880532dd","ios":"levelo://app?vid=eb227189-77d8-408c-8bf8-937c880532dd"},"vehicle_type_id":"4","last_reported":1762931475,"current_range_meters":20400,"station_id":"","pricing_plan_id":"cebpf4jnsgd1na2vs0mg"},{"bike_id":"cc0f8ca4-ae33-432c-aefe-5c00c9e85faf","system_id":"levelo_inurba_marseille","lat":43.28875,"lon":5.42508,"is_reserved":false,"is_disabled":false,"rental_uris":{"android":"levelo://app?vid=cc0f8ca4-ae33-432c-aefe-5c00c9e85faf","ios":"levelo://app?vid=cc0f8ca4-ae33-432c-aefe-5c00c9e85faf"},"vehicle_type_id":"4","last_reported":1762931475,"current_range_meters":20400,"station_id":"st_d3b462108ojc7389ooeg","pricing_plan_id":"cebpf4jnsgd1na2vs0mg"},{"bike_id":"2ad35751-884e-420f-942d-8a59fc48e92b","system_id":"levelo_inurba_marseille","lat":43.28938,"lon":5.39627,"is_reserved":false,"is_disabled":false,"rental_uris":{"android":"levelo://app?vid=2ad35751-884e-420f-942d-8a59fc48e92b","ios":"levelo://app?vid=2ad35751-884e-420f-942d-8a59fc48e92b"},"vehicle_type_id":"4","last_reported":1762931475,"current_range_meters":20400,"station_id":"ce4bh3h2rcd13ifvqdn0","pricing_plan_id":"cebpf4jnsgd1na2vs0mg"},{"bike_id":"716c1808-93d5-4beb-956e-c0917c9c533c","system_id":"levelo_inurba_marseille","lat":43.30146,"lon":5.380878,"is_reserved":false,"is_disabled":false,"rental_uris":{"android":"levelo://app?vid=716c1808-93d5-4beb-956e-c0917c9c533c","ios":"levelo://app?vid=716c1808-93d5-4beb-956e-c0917c9c533c"},"vehicle_type_id":"4","last_reported":1762931475,"current_range_meters":20800,"station_id":"ce4bgjp2rcd13ifvqbh0","pricing_plan_id":"cebpf4jnsgd1na2vs0mg"},{"bike_id":"4733c8eb-e5e9-4225-9040-5e650f204f81","system_id":"levelo_inurba_marseille","lat":43.2558,"lon":5.38263,"is_reserved":false,"is_disabled":false,"rental_uris":{"android":"levelo://app?vid=4733c8eb-e5e9-4225-9040-5e650f204f81","ios":"levelo://app?vid=4733c8eb-e5e9-4225-9040-5e650f204f81"},"vehicle_type_id":"4","last_reported":1762931475,"current_range_meters":20800,"station_id":"ce4bhih2rcd13ifvqfs0","pricing_plan_id":"cebpf4jnsgd1na2vs0mg"},{"bike_id":"d1fb9769-0236-4d8c-a3ad-caa11fe0af17","system_id":"levelo_inurba_marseille","lat":43.28852,"lon":5.35842,"is_reserved":false,"is_disabled":false,"rental_uris":{"android":"levelo://app?vid=d1fb9769-0236-4d8c-a3ad-caa11fe0af17","ios":"levelo://app?vid=d1fb9769-0236-4d8c-a3ad-caa11fe0af17"},"vehicle_type_id":"4","last_reported":1762931475,"current_range_meters":20800,"station_id":"ce4bhb12rcd13ifvqem0","pricing_plan_id":"cebpf4jnsgd1na2vs0mg"},{"bike_id":"cab335c1-1861-494f-87d8-6ad1bdf5bd4d","system_id":"levelo_inurba_marseille","lat":43.28709,"lon":5.39982,"is_reserved":false,"is_disabled":false,"rental_uris":{"android":"levelo://app?vid=cab335c1-1861-494f-87d8-6ad1bdf5bd4d","ios":"levelo://app?vid=cab335c1-1861-494f-87d8-6ad1bdf5bd4d"},"vehicle_type_id":"4","last_reported":1762931475,"current_range_meters":20800,"station_id":"ce4bho92rcd13ifvqh3g","pricing_plan_id":"cebpf4jnsgd1na2vs0mg"},{"bike_id":"862d0c70-ad68-4dc5-86f5-dfdc29017098","system_id":"levelo_inurba_marseille","lat":43.24068,"lon":5.3775,"is_reserved":false,"is_disabled":false,"rental_uris":{"android":"levelo://app?vid=862d0c70-ad68-4dc5-86f5-dfdc29017098","ios":"levelo://app?vid=862d0c70-ad68-4dc5-86f5-dfdc29017098"},"vehicle_type_id":"4","last_reported":1762931475,"current_range_meters":20800,"station_id":"ce4bhnp2rcd13ifvqgvg","pricing_plan_id":"cebpf4jnsgd1na2vs0mg"},{"bike_id":"48fd0c14-5f17-40fd-b247-83f58c012590","system_id":"levelo_inurba_marseille","lat":43.31106,"lon":5.37787,"is_reserved":false,"is_disabled":false,"rental_uris":{"android":"levelo://app?vid=48fd0c14-5f17-40fd-b247-83f58c012590","ios":"levelo://app?vid=48fd0c14-5f17-40fd-b247-83f58c012590"},"vehicle_type_id":"4","last_reported":1762931475,"current_range_meters":20800,"station_id":"ce4bgt92rcd13ifvqcg0","pricing_plan_id":"cebpf4jnsgd1na2vs0mg"},{"bike_id":"7b8dfc4e-1c49-4773-9c63-5027e4523af4","system_id":"levelo_inurba_marseille","lat":43.268849,"lon":5.425607,"is_reserved":false,"is_disabled":false,"rental_uris":{"android":"levelo://app?vid=7b8dfc4e-1c49-4773-9c63-5027e4523af4","ios":"levelo://app?vid=7b8dfc4e-1c49-4773-9c63-5027e4523af4"},"vehicle_type_id":"4","last_reported":1762931475,"current_range_meters":20800,"station_id":"","pricing_plan_id":"cebpf4jnsgd1na2vs0mg"},{"bike_id":"8b4c3932-5120-4670-9fc5-83c011532d64","system_id":"levelo_inurba_marseille","lat":43.30531,"lon":5.38442,"is_reserved":false,"is_disabled":false,"rental_uris":{"android":"levelo://app?vid=8b4c3932-5120-4670-9fc5-83c011532d64","ios":"levelo://app?vid=8b4c3932-5120-4670-9fc5-83c011532d64"},"vehicle_type_id":"4","last_reported":1762931475,"current_range_meters":20800,"station_id":"ce4bgg92rcd13ifvqb30","pricing_plan_id":"cebpf4jnsgd1na2vs0mg"},{"bike_id":"a9069398-42bf-4beb-88bb-f4e4ae90e629","system_id":"levelo_inurba_marseille","lat":43.325427,"lon":5.414384,"is_reserved":false,"is_disabled":false,"rental_uris":{"android":"levelo://app?vid=a9069398-42bf-4beb-88bb-f4e4ae90e629","ios":"levelo://app?vid=a9069398-42bf-4beb-88bb-f4e4ae90e629"},"vehicle_type_id":"4","last_reported":1762931475,"current_range_meters":21600,"station_id":"ce4bhq12rcd13ifvqhhg","pricing_plan_id":"cebpf4jnsgd1na2vs0mg"},{"bike_id":"1cd94639-ec8b-4901-a526-c1b3a8882626","system_id":"levelo_inurba_marseille","lat":43.21753,"lon":5.34602,"is_reserved":false,"is_disabled":false,"rental_uris":{"android":"levelo://app?vid=1cd94639-ec8b-4901-a526-c1b3a8882626","ios":"levelo://app?vid=1cd94639-ec8b-4901-a526-c1b3a8882626"},"vehicle_type_id":"4","last_reported":1762931475,"current_range_meters":21600,"station_id":"st_cvj6r9ubvosntc0bgbag","pricing_plan_id":"cebpf4jnsgd1na2vs0mg"},{"bike_id":"0f190ba4-55c1-4eee-a120-d596f4ec68d4","system_id":"levelo_inurba_marseille","lat":43.3046,"lon":5.37904,"is_reserved":false,"is_disabled":false,"rental_uris":{"android":"levelo://app?vid=0f190ba4-55c1-4eee-a120-d596f4ec68d4","ios":"levelo://app?vid=0f190ba4-55c1-4eee-a120-d596f4ec68d4"},"vehicle_type_id":"4","last_reported":1762931475,"current_range_meters":21600,"station_id":"ce4bgup2rcd13ifvqcn0","pricing_plan_id":"cebpf4jnsgd1na2vs0mg"},{"bike_id":"00808c44-eb22-478d-b389-f9d85827207d","system_id":"levelo_inurba_marseille","lat":43.30158,"lon":5.38087,"is_reserved":false,"is_disabled":false,"rental_uris":{"android":"levelo://app?vid=00808c44-eb22-478d-b389-f9d85827207d","ios":"levelo://app?vid=00808c44-eb22-478d-b389-f9d85827207d"},"vehicle_type_id":"4","last_reported":1762931475,"current_range_meters":21600,"station_id":"ce4bgjp2rcd13ifvqbh0","pricing_plan_id":"cebpf4jnsgd1na2vs0mg"},{"bike_id":"5cddbf07-6733-4e42-a838-271dac68b134","system_id":"levelo_inurba_marseille","lat":43.31698,"lon":5.40439,"is_reserved":false,"is_disabled":false,"rental_uris":{"android":"levelo://app?vid=5cddbf07-6733-4e42-a838-271dac68b134","ios":"levelo://app?vid=5cddbf07-6733-4e42-a838-271dac68b134"},"vehicle_type_id":"4","last_reported":1762931475,"current_range_meters":21600,"station_id":"ce4bh012rcd13ifvqd00","pricing_plan_id":"cebpf4jnsgd1na2vs0mg"},{"bike_id":"a05e0305-86e9-4000-a71e-98ae6e78e9ec","system_id":"levelo_inurba_marseille","lat":43.298479,"lon":5.36289,"is_reserved":false,"is_disabled":false,"rental_uris":{"android":"levelo://app?vid=a05e0305-86e9-4000-a71e-98ae6e78e9ec","ios":"levelo://app?vid=a05e0305-86e9-4000-a71e-98ae6e78e9ec"},"vehicle_type_id":"4","last_reported":1762931475,"current_range_meters":21600,"station_id":"","pricing_plan_id":"cebpf4jnsgd1na2vs0mg"},{"bike_id":"52f036b6-6d6d-4db5-beb0-322704f34f11","system_id":"levelo_inurba_marseille","lat":43.29319,"lon":5.39431,"is_reserved":false,"is_disabled":false,"rental_uris":{"android":"levelo://app?vid=52f036b6-6d6d-4db5-beb0-322704f34f11","ios":"levelo://app?vid=52f036b6-6d6d-4db5-beb0-322704f34f11"},"vehicle_type_id":"4","last_reported":1762931475,"current_range_meters":21600,"station_id":"","pricing_plan_id":"cebpf4jnsgd1na2vs0mg"},{"bike_id":"792b25bd-fb2e-4668-92ae-d07f3979bd09","system_id":"levelo_inurba_marseille","lat":43.29705,"lon":5.36613,"is_reserved":false,"is_disabled":false,"rental_uris":{"android":"levelo://app?vid=792b25bd-fb2e-4668-92ae-d07f3979bd09","ios":"levelo://app?vid=792b25bd-fb2e-4668-92ae-d07f3979bd09"},"vehicle_type_id":"4","last_reported":1762931475,"current_range_meters":21600,"station_id":"ce4bgn12rcd13ifvqbt0","pricing_plan_id":"cebpf4jnsgd1na2vs0mg"},{"bike_id":"9748e67d-cb52-40a8-978e-995cca7e578c","system_id":"levelo_inurba_marseille","lat":43.291228,"lon":5.385317,"is_reserved":false,"is_disabled":false,"rental_uris":{"android":"levelo://app?vid=9748e67d-cb52-40a8-978e-995cca7e578c","ios":"levelo://app?vid=9748e67d-cb52-40a8-978e-995cca7e578c"},"vehicle_type_id":"4","last_reported":1762931475,"current_range_meters":22000,"station_id":"","pricing_plan_id":"cebpf4jnsgd1na2vs0mg"},{"bike_id":"6dcf1725-dd9c-4b53-a6ce-a0f3cfb8edb3","system_id":"levelo_inurba_marseille","lat":43.290436,"lon":5.399671,"is_reserved":false,"is_disabled":false,"rental_uris":{"android":"levelo://app?vid=6dcf1725-dd9c-4b53-a6ce-a0f3cfb8edb3","ios":"levelo://app?vid=6dcf1725-dd9c-4b53-a6ce-a0f3cfb8edb3"},"vehicle_type_id":"4","last_reported":1762931475,"current_range_meters":22000,"station_id":"","pricing_plan_id":"cebpf4jnsgd1na2vs0mg"},{"bike_id":"87a0cf51-80ed-4fdf-814f-d01a05685fa2","system_id":"levelo_inurba_marseille","lat":43.29789,"lon":5.37104,"is_reserved":false,"is_disabled":false,"rental_uris":{"android":"levelo://app?vid=87a0cf51-80ed-4fdf-814f-d01a05685fa2","ios":"levelo://app?vid=87a0cf51-80ed-4fdf-814f-d01a05685fa2"},