{"last_updated":1779198509,"ttl":60,"version":"2.2","data":{"bikes":[{"bike_id":"7d641315-6110-49cb-a9dd-d637ff032de1","system_id":"levelo_inurba_marseille","lat":43.337444,"lon":5.374475,"is_reserved":false,"is_disabled":false,"rental_uris":{"android":"levelo://app?vid=7d641315-6110-49cb-a9dd-d637ff032de1","ios":"levelo://app?vid=7d641315-6110-49cb-a9dd-d637ff032de1"},"vehicle_type_id":"4","last_reported":1779198510,"current_range_meters":0,"station_id":"","pricing_plan_id":"cebpf4jnsgd1na2vs0mg"},{"bike_id":"281b9450-8bb7-4409-87fc-c7e0d5122af2","system_id":"levelo_inurba_marseille","lat":43.29035,"lon":5.38633,"is_reserved":false,"is_disabled":false,"rental_uris":{"android":"levelo://app?vid=281b9450-8bb7-4409-87fc-c7e0d5122af2","ios":"levelo://app?vid=281b9450-8bb7-4409-87fc-c7e0d5122af2"},"vehicle_type_id":"4","last_reported":1779198510,"current_range_meters":2800,"station_id":"ce4bh4p2rcd13ifvqe0g","pricing_plan_id":"cebpf4jnsgd1na2vs0mg"},{"bike_id":"31b0294b-9b38-46c9-a8db-8db769a25943","system_id":"levelo_inurba_marseille","lat":43.27965,"lon":5.38694,"is_reserved":false,"is_disabled":false,"rental_uris":{"android":"levelo://app?vid=31b0294b-9b38-46c9-a8db-8db769a25943","ios":"levelo://app?vid=31b0294b-9b38-46c9-a8db-8db769a25943"},"vehicle_type_id":"4","last_reported":1779198510,"current_range_meters":2800,"station_id":"ce4bhg12rcd13ifvqf80","pricing_plan_id":"cebpf4jnsgd1na2vs0mg"},{"bike_id":"b9af2bcd-fee8-4bf9-8e75-43528fece696","system_id":"levelo_inurba_marseille","lat":43.30551,"lon":5.3654,"is_reserved":false,"is_disabled":false,"rental_uris":{"android":"levelo://app?vid=b9af2bcd-fee8-4bf9-8e75-43528fece696","ios":"levelo://app?vid=b9af2bcd-fee8-4bf9-8e75-43528fece696"},"vehicle_type_id":"4","last_reported":1779198510,"current_range_meters":2800,"station_id":"ce4bgs12rcd13ifvqcag","pricing_plan_id":"cebpf4jnsgd1na2vs0mg"},{"bike_id":"113b3407-a5ea-45e4-a4bf-cec2d016066b","system_id":"levelo_inurba_marseille","lat":43.30952,"lon":5.39059,"is_reserved":false,"is_disabled":false,"rental_uris":{"android":"levelo://app?vid=113b3407-a5ea-45e4-a4bf-cec2d016066b","ios":"levelo://app?vid=113b3407-a5ea-45e4-a4bf-cec2d016066b"},"vehicle_type_id":"4","last_reported":1779198510,"current_range_meters":2800,"station_id":"ce4bgup2rcd13ifvqco0","pricing_plan_id":"cebpf4jnsgd1na2vs0mg"},{"bike_id":"09f0051d-5828-4234-8655-39ec0af9f818","system_id":"levelo_inurba_marseille","lat":43.27383,"lon":5.36262,"is_reserved":false,"is_disabled":false,"rental_uris":{"android":"levelo://app?vid=09f0051d-5828-4234-8655-39ec0af9f818","ios":"levelo://app?vid=09f0051d-5828-4234-8655-39ec0af9f818"},"vehicle_type_id":"4","last_reported":1779198510,"current_range_meters":2800,"station_id":"ce4bhbh2rcd13ifvqeo0","pricing_plan_id":"cebpf4jnsgd1na2vs0mg"},{"bike_id":"fc3a2357-3ccc-4ffe-98e8-9571992465bb","system_id":"levelo_inurba_marseille","lat":43.29271,"lon":5.38451,"is_reserved":false,"is_disabled":false,"rental_uris":{"android":"levelo://app?vid=fc3a2357-3ccc-4ffe-98e8-9571992465bb","ios":"levelo://app?vid=fc3a2357-3ccc-4ffe-98e8-9571992465bb"},"vehicle_type_id":"4","last_reported":1779198510,"current_range_meters":3200,"station_id":"ce4bh692rcd13ifvqea0","pricing_plan_id":"cebpf4jnsgd1na2vs0mg"},{"bike_id":"5321f702-e2b0-42bf-9d68-0a4a7c9f661f","system_id":"levelo_inurba_marseille","lat":43.25576,"lon":5.38235,"is_reserved":false,"is_disabled":false,"rental_uris":{"android":"levelo://app?vid=5321f702-e2b0-42bf-9d68-0a4a7c9f661f","ios":"levelo://app?vid=5321f702-e2b0-42bf-9d68-0a4a7c9f661f"},"vehicle_type_id":"4","last_reported":1779198510,"current_range_meters":3200,"station_id":"ce4bhih2rcd13ifvqfs0","pricing_plan_id":"cebpf4jnsgd1na2vs0mg"},{"bike_id":"37f6822f-fb18-465b-9266-4e4f55e34f04","system_id":"levelo_inurba_marseille","lat":43.31433,"lon":5.37412,"is_reserved":false,"is_disabled":true,"rental_uris":{"android":"levelo://app?vid=37f6822f-fb18-465b-9266-4e4f55e34f04","ios":"levelo://app?vid=37f6822f-fb18-465b-9266-4e4f55e34f04"},"vehicle_type_id":"4","last_reported":1779198510,"current_range_meters":3200,"station_id":"ce4bgt12rcd13ifvqcd0","pricing_plan_id":"cebpf4jnsgd1na2vs0mg"},{"bike_id":"f66753e3-4e0e-46a1-a224-7ee84c764ebd","system_id":"levelo_inurba_marseille","lat":43.29554,"lon":5.37499,"is_reserved":false,"is_disabled":false,"rental_uris":{"android":"levelo://app?vid=f66753e3-4e0e-46a1-a224-7ee84c764ebd","ios":"levelo://app?vid=f66753e3-4e0e-46a1-a224-7ee84c764ebd"},"vehicle_type_id":"4","last_reported":1779198510,"current_range_meters":3200,"station_id":"ce4bgkp2rcd13ifvqbmg","pricing_plan_id":"cebpf4jnsgd1na2vs0mg"},{"bike_id":"b9ca77f1-80fa-475b-9a37-ec72feacc5df","system_id":"levelo_inurba_marseille","lat":43.29799,"lon":5.44054,"is_reserved":false,"is_disabled":false,"rental_uris":{"android":"levelo://app?vid=b9ca77f1-80fa-475b-9a37-ec72feacc5df","ios":"levelo://app?vid=b9ca77f1-80fa-475b-9a37-ec72feacc5df"},"vehicle_type_id":"4","last_reported":1779198510,"current_range_meters":3200,"station_id":"st_d3jp68qikq2c7381ktn0","pricing_plan_id":"cebpf4jnsgd1na2vs0mg"},{"bike_id":"cf5544a4-8e85-4838-918f-f563a2f5fb78","system_id":"levelo_inurba_marseille","lat":43.28154,"lon":5.42652,"is_reserved":false,"is_disabled":false,"rental_uris":{"android":"levelo://app?vid=cf5544a4-8e85-4838-918f-f563a2f5fb78","ios":"levelo://app?vid=cf5544a4-8e85-4838-918f-f563a2f5fb78"},"vehicle_type_id":"4","last_reported":1779198510,"current_range_meters":3200,"station_id":"ce4bhnh2rcd13ifvqgug","pricing_plan_id":"cebpf4jnsgd1na2vs0mg"},{"bike_id":"f730d25a-84e3-42c5-a939-51609cebefcd","system_id":"levelo_inurba_marseille","lat":43.28692,"lon":5.4671,"is_reserved":false,"is_disabled":false,"rental_uris":{"android":"levelo://app?vid=f730d25a-84e3-42c5-a939-51609cebefcd","ios":"levelo://app?vid=f730d25a-84e3-42c5-a939-51609cebefcd"},"vehicle_type_id":"4","last_reported":1779198510,"current_range_meters":3200,"station_id":"st_d6tc3vkotcvc738tfjhg","pricing_plan_id":"cebpf4jnsgd1na2vs0mg"},{"bike_id":"752a6062-ef32-4ff7-bfef-6330f75fff8c","system_id":"levelo_inurba_marseille","lat":43.31371,"lon":5.38508,"is_reserved":false,"is_disabled":false,"rental_uris":{"android":"levelo://app?vid=752a6062-ef32-4ff7-bfef-6330f75fff8c","ios":"levelo://app?vid=752a6062-ef32-4ff7-bfef-6330f75fff8c"},"vehicle_type_id":"4","last_reported":1779198510,"current_range_meters":3200,"station_id":"ce4bgt92rcd13ifvqcf0","pricing_plan_id":"cebpf4jnsgd1na2vs0mg"},{"bike_id":"9e2fe2f7-d6df-4ab9-966a-e0a262530a00","system_id":"levelo_inurba_marseille","lat":43.24806,"lon":5.3746,"is_reserved":false,"is_disabled":false,"rental_uris":{"android":"levelo://app?vid=9e2fe2f7-d6df-4ab9-966a-e0a262530a00","ios":"levelo://app?vid=9e2fe2f7-d6df-4ab9-966a-e0a262530a00"},"vehicle_type_id":"4","last_reported":1779198510,"current_range_meters":3200,"station_id":"ce4bhgh2rcd13ifvqfb0","pricing_plan_id":"cebpf4jnsgd1na2vs0mg"},{"bike_id":"f0155b3f-a757-41e6-a885-d929684d0a3c","system_id":"levelo_inurba_marseille","lat":43.30597,"lon":5.36572,"is_reserved":false,"is_disabled":false,"rental_uris":{"android":"levelo://app?vid=f0155b3f-a757-41e6-a885-d929684d0a3c","ios":"levelo://app?vid=f0155b3f-a757-41e6-a885-d929684d0a3c"},"vehicle_type_id":"4","last_reported":1779198510,"current_range_meters":3200,"station_id":"ce4bgs12rcd13ifvqcag","pricing_plan_id":"cebpf4jnsgd1na2vs0mg"},{"bike_id":"0cd57f94-48bf-4d85-8827-97122d59775c","system_id":"levelo_inurba_marseille","lat":43.26493,"lon":5.39541,"is_reserved":false,"is_disabled":false,"rental_uris":{"android":"levelo://app?vid=0cd57f94-48bf-4d85-8827-97122d59775c","ios":"levelo://app?vid=0cd57f94-48bf-4d85-8827-97122d59775c"},"vehicle_type_id":"4","last_reported":1779198510,"current_range_meters":3200,"station_id":"ce4bhi12rcd13ifvqfq0","pricing_plan_id":"cebpf4jnsgd1na2vs0mg"},{"bike_id":"25565638-c7aa-4b76-8211-6a39b4ab1cac","system_id":"levelo_inurba_marseille","lat":43.31721,"lon":5.40488,"is_reserved":false,"is_disabled":false,"rental_uris":{"android":"levelo://app?vid=25565638-c7aa-4b76-8211-6a39b4ab1cac","ios":"levelo://app?vid=25565638-c7aa-4b76-8211-6a39b4ab1cac"},"vehicle_type_id":"4","last_reported":1779198510,"current_range_meters":3200,"station_id":"ce4bh012rcd13ifvqd00","pricing_plan_id":"cebpf4jnsgd1na2vs0mg"},{"bike_id":"c077732d-a41c-41a1-b865-768ee2f2497f","system_id":"levelo_inurba_marseille","lat":43.267827,"lon":5.394126,"is_reserved":false,"is_disabled":false,"rental_uris":{"android":"levelo://app?vid=c077732d-a41c-41a1-b865-768ee2f2497f","ios":"levelo://app?vid=c077732d-a41c-41a1-b865-768ee2f2497f"},"vehicle_type_id":"4","last_reported":1779198510,"current_range_meters":3200,"station_id":"","pricing_plan_id":"cebpf4jnsgd1na2vs0mg"},{"bike_id":"92d1f52a-2b5f-46f0-a31e-967db06a4663","system_id":"levelo_inurba_marseille","lat":43.23362,"lon":5.41292,"is_reserved":false,"is_disabled":true,"rental_uris":{"android":"levelo://app?vid=92d1f52a-2b5f-46f0-a31e-967db06a4663","ios":"levelo://app?vid=92d1f52a-2b5f-46f0-a31e-967db06a4663"},"vehicle_type_id":"4","last_reported":1779198510,"current_range_meters":3200,"station_id":"st_d75pvndhf9lc73cqq3eg","pricing_plan_id":"cebpf4jnsgd1na2vs0mg"},{"bike_id":"ee715094-0c59-43b0-8047-36d46bb16f02","system_id":"levelo_inurba_marseille","lat":43.24653,"lon":5.3889,"is_reserved":false,"is_disabled":false,"rental_uris":{"android":"levelo://app?vid=ee715094-0c59-43b0-8047-36d46bb16f02","ios":"levelo://app?vid=ee715094-0c59-43b0-8047-36d46bb16f02"},"vehicle_type_id":"4","last_reported":1779198510,"current_range_meters":3200,"station_id":"ce4bhg12rcd13ifvqf60","pricing_plan_id":"cebpf4jnsgd1na2vs0mg"},{"bike_id":"5a1c8a28-d79f-4b07-a4d8-bce75ba2c426","system_id":"levelo_inurba_marseille","lat":43.25861,"lon":5.39917,"is_reserved":false,"is_disabled":true,"rental_uris":{"android":"levelo://app?vid=5a1c8a28-d79f-4b07-a4d8-bce75ba2c426","ios":"levelo://app?vid=5a1c8a28-d79f-4b07-a4d8-bce75ba2c426"},"vehicle_type_id":"4","last_reported":1779198510,"current_range_meters":3600,"station_id":"ce4bhl92rcd13ifvqghg","pricing_plan_id":"cebpf4jnsgd1na2vs0mg"},{"bike_id":"118f25d8-0255-44ef-8a35-47bb481bb8b6","system_id":"levelo_inurba_marseille","lat":43.24389,"lon":5.37106,"is_reserved":false,"is_disabled":true,"rental_uris":{"android":"levelo://app?vid=118f25d8-0255-44ef-8a35-47bb481bb8b6","ios":"levelo://app?vid=118f25d8-0255-44ef-8a35-47bb481bb8b6"},"vehicle_type_id":"4","last_reported":1779198510,"current_range_meters":3600,"station_id":"ce4bhhh2rcd13ifvqfk0","pricing_plan_id":"cebpf4jnsgd1na2vs0mg"},{"bike_id":"b21d0622-b8a0-4d8f-9256-adc0e72b277a","system_id":"levelo_inurba_marseille","lat":43.284925,"lon":5.384194,"is_reserved":false,"is_disabled":false,"rental_uris":{"android":"levelo://app?vid=b21d0622-b8a0-4d8f-9256-adc0e72b277a","ios":"levelo://app?vid=b21d0622-b8a0-4d8f-9256-adc0e72b277a"},"vehicle_type_id":"4","last_reported":1779198510,"current_range_meters":3600,"station_id":"ce4bh512rcd13ifvqe3g","pricing_plan_id":"cebpf4jnsgd1na2vs0mg"},{"bike_id":"24e5bee3-3553-4cdc-8670-17cc3bfc5b2f","system_id":"levelo_inurba_marseille","lat":43.23969,"lon":5.36626,"is_reserved":false,"is_disabled":false,"rental_uris":{"android":"levelo://app?vid=24e5bee3-3553-4cdc-8670-17cc3bfc5b2f","ios":"levelo://app?vid=24e5bee3-3553-4cdc-8670-17cc3bfc5b2f"},"vehicle_type_id":"4","last_reported":1779198510,"current_range_meters":3600,"station_id":"ce4bhi12rcd13ifvqfp0","pricing_plan_id":"cebpf4jnsgd1na2vs0mg"},{"bike_id":"80a2d31d-ba47-44a0-9d4e-0e1c3cb5d770","system_id":"levelo_inurba_marseille","lat":43.34157,"lon":5.40915,"is_reserved":false,"is_disabled":false,"rental_uris":{"android":"levelo://app?vid=80a2d31d-ba47-44a0-9d4e-0e1c3cb5d770","ios":"levelo://app?vid=80a2d31d-ba47-44a0-9d4e-0e1c3cb5d770"},"vehicle_type_id":"4","last_reported":1779198510,"current_range_meters":3600,"station_id":"ce4bhqh2rcd13ifvqhlg","pricing_plan_id":"cebpf4jnsgd1na2vs0mg"},{"bike_id":"428a210f-87f7-428f-9ac4-76d179596d35","system_id":"levelo_inurba_marseille","lat":43.28574,"lon":5.39521,"is_reserved":false,"is_disabled":true,"rental_uris":{"android":"levelo://app?vid=428a210f-87f7-428f-9ac4-76d179596d35","ios":"levelo://app?vid=428a210f-87f7-428f-9ac4-76d179596d35"},"vehicle_type_id":"4","last_reported":1779198510,"current_range_meters":3600,"station_id":"ce4bh292rcd13ifvqdg0","pricing_plan_id":"cebpf4jnsgd1na2vs0mg"},{"bike_id":"cfb655e2-df65-49f7-bc64-2b86dd6fc027","system_id":"levelo_inurba_marseille","lat":43.25832,"lon":5.39437,"is_reserved":false,"is_disabled":false,"rental_uris":{"android":"levelo://app?vid=cfb655e2-df65-49f7-bc64-2b86dd6fc027","ios":"levelo://app?vid=cfb655e2-df65-49f7-bc64-2b86dd6fc027"},"vehicle_type_id":"4","last_reported":1779198510,"current_range_meters":3600,"station_id":"ce4bhip2rcd13ifvqft0","pricing_plan_id":"cebpf4jnsgd1na2vs0mg"},{"bike_id":"e4b7d2c4-ea52-4d9f-8a4b-f2f114353753","system_id":"levelo_inurba_marseille","lat":43.3236,"lon":5.36736,"is_reserved":false,"is_disabled":false,"rental_uris":{"android":"levelo://app?vid=e4b7d2c4-ea52-4d9f-8a4b-f2f114353753","ios":"levelo://app?vid=e4b7d2c4-ea52-4d9f-8a4b-f2f114353753"},"vehicle_type_id":"4","last_reported":1779198510,"current_range_meters":3600,"station_id":"ce4bhsh2rcd13ifvqi2g","pricing_plan_id":"cebpf4jnsgd1na2vs0mg"},{"bike_id":"6a4190a9-60c1-474d-b36b-bd9f7c409216","system_id":"levelo_inurba_marseille","lat":43.30382,"lon":5.42496,"is_reserved":false,"is_disabled":false,"rental_uris":{"android":"levelo://app?vid=6a4190a9-60c1-474d-b36b-bd9f7c409216","ios":"levelo://app?vid=6a4190a9-60c1-474d-b36b-bd9f7c409216"},"vehicle_type_id":"4","last_reported":1779198510,"current_range_meters":3600,"station_id":"ce4bhoh2rcd13ifvqh6g","pricing_plan_id":"cebpf4jnsgd1na2vs0mg"},{"bike_id":"fe9b1e06-377d-4a4a-86dd-69d87bbb6487","system_id":"levelo_inurba_marseille","lat":43.27322,"lon":5.39118,"is_reserved":false,"is_disabled":false,"rental_uris":{"android":"levelo://app?vid=fe9b1e06-377d-4a4a-86dd-69d87bbb6487","ios":"levelo://app?vid=fe9b1e06-377d-4a4a-86dd-69d87bbb6487"},"vehicle_type_id":"4","last_reported":1779198510,"current_range_meters":3600,"station_id":"ce4bhgp2rcd13ifvqfe0","pricing_plan_id":"cebpf4jnsgd1na2vs0mg"},{"bike_id":"f953e7df-9a8f-4f8e-8e56-6a5db7d34d82","system_id":"levelo_inurba_marseille","lat":43.269189,"lon":5.380411,"is_reserved":false,"is_disabled":false,"rental_uris":{"android":"levelo://app?vid=f953e7df-9a8f-4f8e-8e56-6a5db7d34d82","ios":"levelo://app?vid=f953e7df-9a8f-4f8e-8e56-6a5db7d34d82"},"vehicle_type_id":"4","last_reported":1779198510,"current_range_meters":4000,"station_id":"","pricing_plan_id":"cebpf4jnsgd1na2vs0mg"},{"bike_id":"d330ebaf-89a2-4938-8fb2-a03c97594a54","system_id":"levelo_inurba_marseille","lat":43.29,"lon":5.37595,"is_reserved":false,"is_disabled":false,"rental_uris":{"android":"levelo://app?vid=d330ebaf-89a2-4938-8fb2-a03c97594a54","ios":"levelo://app?vid=d330ebaf-89a2-4938-8fb2-a03c97594a54"},"vehicle_type_id":"4","last_reported":1779198510,"current_range_meters":4000,"station_id":"ce4bh692rcd13ifvqe90","pricing_plan_id":"cebpf4jnsgd1na2vs0mg"},{"bike_id":"884afe10-6e9a-4093-9b55-681bbd685781","system_id":"levelo_inurba_marseille","lat":43.262,"lon":5.3793,"is_reserved":false,"is_disabled":false,"rental_uris":{"android":"levelo://app?vid=884afe10-6e9a-4093-9b55-681bbd685781","ios":"levelo://app?vid=884afe10-6e9a-4093-9b55-681bbd685781"},"vehicle_type_id":"4","last_reported":1779198510,"current_range_meters":4000,"station_id":"ce4bhjp2rcd13ifvqg90","pricing_plan_id":"cebpf4jnsgd1na2vs0mg"},{"bike_id":"dd9ef9f9-cf51-4d13-814e-08626ef3d4f6","system_id":"levelo_inurba_marseille","lat":43.28006,"lon":5.41682,"is_reserved":false,"is_disabled":false,"rental_uris":{"android":"levelo://app?vid=dd9ef9f9-cf51-4d13-814e-08626ef3d4f6","ios":"levelo://app?vid=dd9ef9f9-cf51-4d13-814e-08626ef3d4f6"},"vehicle_type_id":"4","last_reported":1779198510,"current_range_meters":4000,"station_id":"ce4bho12rcd13ifvqh1g","pricing_plan_id":"cebpf4jnsgd1na2vs0mg"},{"bike_id":"5a9c1289-7f36-4d4b-a212-1d3958466b76","system_id":"levelo_inurba_marseille","lat":43.30426,"lon":5.41314,"is_reserved":false,"is_disabled":false,"rental_uris":{"android":"levelo://app?vid=5a9c1289-7f36-4d4b-a212-1d3958466b76","ios":"levelo://app?vid=5a9c1289-7f36-4d4b-a212-1d3958466b76"},"vehicle_type_id":"4","last_reported":1779198510,"current_range_meters":4000,"station_id":"ce4bhop2rcd13ifvqh8g","pricing_plan_id":"cebpf4jnsgd1na2vs0mg"},{"bike_id":"87738673-53fe-496e-a8be-d45e4c2582b4","system_id":"levelo_inurba_marseille","lat":43.29534,"lon":5.37508,"is_reserved":false,"is_disabled":false,"rental_uris":{"android":"levelo://app?vid=87738673-53fe-496e-a8be-d45e4c2582b4","ios":"levelo://app?vid=87738673-53fe-496e-a8be-d45e4c2582b4"},"vehicle_type_id":"4","last_reported":1779198510,"current_range_meters":4000,"station_id":"ce4bgkp2rcd13ifvqbmg","pricing_plan_id":"cebpf4jnsgd1na2vs0mg"},{"bike_id":"b3e47a10-789b-4113-b169-face25d448d0","system_id":"levelo_inurba_marseille","lat":43.28709,"lon":5.46689,"is_reserved":false,"is_disabled":false,"rental_uris":{"android":"levelo://app?vid=b3e47a10-789b-4113-b169-face25d448d0","ios":"levelo://app?vid=b3e47a10-789b-4113-b169-face25d448d0"},"vehicle_type_id":"4","last_reported":1779198510,"current_range_meters":4000,"station_id":"st_d6tc3vkotcvc738tfjhg","pricing_plan_id":"cebpf4jnsgd1na2vs0mg"},{"bike_id":"67298b0d-96b3-4d14-87eb-fc9a2dd8b027","system_id":"levelo_inurba_marseille","lat":43.25123,"lon":5.40309,"is_reserved":false,"is_disabled":true,"rental_uris":{"android":"levelo://app?vid=67298b0d-96b3-4d14-87eb-fc9a2dd8b027","ios":"levelo://app?vid=67298b0d-96b3-4d14-87eb-fc9a2dd8b027"},"vehicle_type_id":"4","last_reported":1779198510,"current_range_meters":4000,"station_id":"ce4bhkp2rcd13ifvqgd0","pricing_plan_id":"cebpf4jnsgd1na2vs0mg"},{"bike_id":"d038226d-46ad-4a2d-a933-b70c609c52e6","system_id":"levelo_inurba_marseille","lat":43.29225,"lon":5.360709,"is_reserved":false,"is_disabled":false,"rental_uris":{"android":"levelo://app?vid=d038226d-46ad-4a2d-a933-b70c609c52e6","ios":"levelo://app?vid=d038226d-46ad-4a2d-a933-b70c609c52e6"},"vehicle_type_id":"4","last_reported":1779198510,"current_range_meters":4400,"station_id":"ce4bhbh2rcd13ifvqeqg","pricing_plan_id":"cebpf4jnsgd1na2vs0mg"},{"bike_id":"5eb11d83-2461-40c2-9484-0a35868d2011","system_id":"levelo_inurba_marseille","lat":43.29735,"lon":5.42746,"is_reserved":false,"is_disabled":true,"rental_uris":{"android":"levelo://app?vid=5eb11d83-2461-40c2-9484-0a35868d2011","ios":"levelo://app?vid=5eb11d83-2461-40c2-9484-0a35868d2011"},"vehicle_type_id":"4","last_reported":1779198510,"current_range_meters":4400,"station_id":"st_d3md5207bmas73dh9klg","pricing_plan_id":"cebpf4jnsgd1na2vs0mg"},{"bike_id":"5b4b1459-7883-4aa2-95c1-80511a276dbb","system_id":"levelo_inurba_marseille","lat":43.2768,"lon":5.38905,"is_reserved":false,"is_disabled":false,"rental_uris":{"android":"levelo://app?vid=5b4b1459-7883-4aa2-95c1-80511a276dbb","ios":"levelo://app?vid=5b4b1459-7883-4aa2-95c1-80511a276dbb"},"vehicle_type_id":"4","last_reported":1779198510,"current_range_meters":4400,"station_id":"ce4bhi12rcd13ifvqfo0","pricing_plan_id":"cebpf4jnsgd1na2vs0mg"},{"bike_id":"1391b47c-e2bc-4907-b929-5586dce0b289","system_id":"levelo_inurba_marseille","lat":43.29985,"lon":5.38488,"is_reserved":false,"is_disabled":false,"rental_uris":{"android":"levelo://app?vid=1391b47c-e2bc-4907-b929-5586dce0b289","ios":"levelo://app?vid=1391b47c-e2bc-4907-b929-5586dce0b289"},"vehicle_type_id":"4","last_reported":1779198510,"current_range_meters":4400,"station_id":"ce4bgj92rcd13ifvqbd0","pricing_plan_id":"cebpf4jnsgd1na2vs0mg"},{"bike_id":"d6c1ca1c-601d-4eef-8c87-ce284000673e","system_id":"levelo_inurba_marseille","lat":43.28727,"lon":5.3793,"is_reserved":false,"is_disabled":false,"rental_uris":{"android":"levelo://app?vid=d6c1ca1c-601d-4eef-8c87-ce284000673e","ios":"levelo://app?vid=d6c1ca1c-601d-4eef-8c87-ce284000673e"},"vehicle_type_id":"4","last_reported":1779198510,"current_range_meters":4400,"station_id":"ce4bh9p2rcd13ifvqec0","pricing_plan_id":"cebpf4jnsgd1na2vs0mg"},{"bike_id":"0c7d6397-f02f-45ec-96f4-0bf6dc7f118c","system_id":"levelo_inurba_marseille","lat":43.28911,"lon":5.36397,"is_reserved":false,"is_disabled":false,"rental_uris":{"android":"levelo://app?vid=0c7d6397-f02f-45ec-96f4-0bf6dc7f118c","ios":"levelo://app?vid=0c7d6397-f02f-45ec-96f4-0bf6dc7f118c"},"vehicle_type_id":"4","last_reported":1779198510,"current_range_meters":4400,"station_id":"ce4bhc92rcd13ifvqetg","pricing_plan_id":"cebpf4jnsgd1na2vs0mg"},{"bike_id":"09ea10e2-43a5-428f-afcc-00b3ec7ae464","system_id":"levelo_inurba_marseille","lat":43.309143,"lon":5.372809,"is_reserved":false,"is_disabled":true,"rental_uris":{"android":"levelo://app?vid=09ea10e2-43a5-428f-afcc-00b3ec7ae464","ios":"levelo://app?vid=09ea10e2-43a5-428f-afcc-00b3ec7ae464"},"vehicle_type_id":"4","last_reported":1779198510,"current_range_meters":4400,"station_id":"ce4bguh2rcd13ifvqckg","pricing_plan_id":"cebpf4jnsgd1na2vs0mg"},{"bike_id":"fb6b8720-7e7e-4810-8200-e0d24fb0dd15","system_id":"levelo_inurba_marseille","lat":43.3017,"lon":5.39815,"is_reserved":false,"is_disabled":false,"rental_uris":{"android":"levelo://app?vid=fb6b8720-7e7e-4810-8200-e0d24fb0dd15","ios":"levelo://app?vid=fb6b8720-7e7e-4810-8200-e0d24fb0dd15"},"vehicle_type_id":"4","last_reported":1779198510,"current_range_meters":4400,"station_id":"","pricing_plan_id":"cebpf4jnsgd1na2vs0mg"},{"bike_id":"76822842-6de5-44db-bee3-28d0eed2902b","system_id":"levelo_inurba_marseille","lat":43.22929,"lon":5.35391,"is_reserved":false,"is_disabled":false,"rental_uris":{"android":"levelo://app?vid=76822842-6de5-44db-bee3-28d0eed2902b","ios":"levelo://app?vid=76822842-6de5-44db-bee3-28d0eed2902b"},"vehicle_type_id":"4","last_reported":1779198510,"current_range_meters":4400,"station_id":"cpo3532slgdg3j2ikp40","pricing_plan_id":"cebpf4jnsgd1na2vs0mg"},{"bike_id":"e573ccad-7e51-42db-be9c-d11800e07cad","system_id":"levelo_inurba_marseille","lat":43.23165,"lon":5.43712,"is_reserved":false,"is_disabled":true,"rental_uris":{"android":"levelo://app?vid=e573ccad-7e51-42db-be9c-d11800e07cad","ios":"levelo://app?vid=e573ccad-7e51-42db-be9c-d11800e07cad"},"vehicle_type_id":"4","last_reported":1779198510,"current_range_meters":4400,"station_id":"ce4bhmp2rcd13ifvqgog","pricing_plan_id":"cebpf4jnsgd1na2vs0mg"},{"bike_id":"08e88718-7ad2-41f1-b020-d7bdccf3eb0f","system_id":"levelo_inurba_marseille","lat":43.23956,"lon":5.36625,"is_reserved":false,"is_disabled":false,"rental_uris":{"android":"levelo://app?vid=08e88718-7ad2-41f1-b020-d7bdccf3eb0f","ios":"levelo://app?vid=08e88718-7ad2-41f1-b020-d7bdccf3eb0f"},"vehicle_type_id":"4","last_reported":1779198510,"current_range_meters":4800,"station_id":"ce4bhi12rcd13ifvqfp0","pricing_plan_id":"cebpf4jnsgd1na2vs0mg"},{"bike_id":"6f2bd330-2761-4a50-8501-6b068a12f733","system_id":"levelo_inurba_marseille","lat":43.33546,"lon":5.37459,"is_reserved":false,"is_disabled":false,"rental_uris":{"android":"levelo://app?vid=6f2bd330-2761-4a50-8501-6b068a12f733","ios":"levelo://app?vid=6f2bd330-2761-4a50-8501-6b068a12f733"},"vehicle_type_id":"4","last_reported":1779198510,"current_range_meters":4800,"station_id":"st_d46tts09ee8s73dlu43g","pricing_plan_id":"cebpf4jnsgd1na2vs0mg"},{"bike_id":"5a86a0a1-ad44-47d0-891b-49f2e25adc15","system_id":"levelo_inurba_marseille","lat":43.265694,"lon":5.390109,"is_reserved":false,"is_disabled":false,"rental_uris":{"android":"levelo://app?vid=5a86a0a1-ad44-47d0-891b-49f2e25adc15","ios":"levelo://app?vid=5a86a0a1-ad44-47d0-891b-49f2e25adc15"},"vehicle_type_id":"4","last_reported":1779198510,"current_range_meters":4800,"station_id":"","pricing_plan_id":"cebpf4jnsgd1na2vs0mg"},{"bike_id":"1f8259a9-7e55-4812-b53f-6d999496a759","system_id":"levelo_inurba_marseille","lat":43.287,"lon":5.4665,"is_reserved":false,"is_disabled":false,"rental_uris":{"android":"levelo://app?vid=1f8259a9-7e55-4812-b53f-6d999496a759","ios":"levelo://app?vid=1f8259a9-7e55-4812-b53f-6d999496a759"},"vehicle_type_id":"4","last_reported":1779198510,"current_range_meters":4800,"station_id":"st_d6tc3vkotcvc738tfjhg","pricing_plan_id":"cebpf4jnsgd1na2vs0mg"},{"bike_id":"07b577fc-9b40-43dc-9f6b-10e1e2c88c11","system_id":"levelo_inurba_marseille","lat":43.27202,"lon":5.39204,"is_reserved":false,"is_disabled":false,"rental_uris":{"android":"levelo://app?vid=07b577fc-9b40-43dc-9f6b-10e1e2c88c11","ios":"levelo://app?vid=07b577fc-9b40-43dc-9f6b-10e1e2c88c11"},"vehicle_type_id":"4","last_reported":1779198510,"current_range_meters":4800,"station_id":"ce4bhhp2rcd13ifvqfm0","pricing_plan_id":"cebpf4jnsgd1na2vs0mg"},{"bike_id":"5886d440-0854-44ba-8f22-a4a9198ce48b","system_id":"levelo_inurba_marseille","lat":43.30218,"lon":5.39476,"is_reserved":false,"is_disabled":false,"rental_uris":{"android":"levelo://app?vid=5886d440-0854-44ba-8f22-a4a9198ce48b","ios":"levelo://app?vid=5886d440-0854-44ba-8f22-a4a9198ce48b"},"vehicle_type_id":"4","last_reported":1779198510,"current_range_meters":4800,"station_id":"ce4bh0p2rcd13ifvqd70","pricing_plan_id":"cebpf4jnsgd1na2vs0mg"},{"bike_id":"b2436aa9-fdf3-4387-83fd-0877a9bd7dbc","system_id":"levelo_inurba_marseille","lat":43.27548,"lon":5.38436,"is_reserved":false,"is_disabled":false,"rental_uris":{"android":"levelo://app?vid=b2436aa9-fdf3-4387-83fd-0877a9bd7dbc","ios":"levelo://app?vid=b2436aa9-fdf3-4387-83fd-0877a9bd7dbc"},"vehicle_type_id":"4","last_reported":1779198510,"current_range_meters":4800,"station_id":"ce4bhh92rcd13ifvqfi0","pricing_plan_id":"cebpf4jnsgd1na2vs0mg"},{"bike_id":"3d91a0c6-2313-4d07-9e3d-0d954422674f","system_id":"levelo_inurba_marseille","lat":43.24693,"lon":5.38178,"is_reserved":false,"is_disabled":true,"rental_uris":{"android":"levelo://app?vid=3d91a0c6-2313-4d07-9e3d-0d954422674f","ios":"levelo://app?vid=3d91a0c6-2313-4d07-9e3d-0d954422674f"},"vehicle_type_id":"4","last_reported":1779198510,"current_range_meters":4800,"station_id":"ce4bhih2rcd13ifvqfr0","pricing_plan_id":"cebpf4jnsgd1na2vs0mg"},{"bike_id":"6b6c87c1-5066-4bc5-901c-038b112594b6","system_id":"levelo_inurba_marseille","lat":43.31357,"lon":5.39005,"is_reserved":false,"is_disabled":false,"rental_uris":{"android":"levelo://app?vid=6b6c87c1-5066-4bc5-901c-038b112594b6","ios":"levelo://app?vid=6b6c87c1-5066-4bc5-901c-038b112594b6"},"vehicle_type_id":"4","last_reported":1779198510,"current_range_meters":4800,"station_id":"","pricing_plan_id":"cebpf4jnsgd1na2vs0mg"},{"bike_id":"df7a379e-c8e9-4602-b858-59cb0a12d09f","system_id":"levelo_inurba_marseille","lat":43.28416,"lon":5.34986,"is_reserved":false,"is_disabled":false,"rental_uris":{"android":"levelo://app?vid=df7a379e-c8e9-4602-b858-59cb0a12d09f","ios":"levelo://app?vid=df7a379e-c8e9-4602-b858-59cb0a12d09f"},"vehicle_type_id":"4","last_reported":1779198510,"current_range_meters":4800,"station_id":"ce4bhbh2rcd13ifvqepg","pricing_plan_id":"cebpf4jnsgd1na2vs0mg"},{"bike_id":"d2f22647-4a9b-4698-969c-204da29088cd","system_id":"levelo_inurba_marseille","lat":43.28623,"lon":5.35099,"is_reserved":false,"is_disabled":false,"rental_uris":{"android":"levelo://app?vid=d2f22647-4a9b-4698-969c-204da29088cd","ios":"levelo://app?vid=d2f22647-4a9b-4698-969c-204da29088cd"},"vehicle_type_id":"4","last_reported":1779198510,"current_range_meters":4800,"station_id":"ce4bhch2rcd13ifvqeug","pricing_plan_id":"cebpf4jnsgd1na2vs0mg"},{"bike_id":"756dda76-f7ad-4653-bf3e-ad0c5accc63a","system_id":"levelo_inurba_marseille","lat":43.26946,"lon":5.4023,"is_reserved":false,"is_disabled":false,"rental_uris":{"android":"levelo://app?vid=756dda76-f7ad-4653-bf3e-ad0c5accc63a","ios":"levelo://app?vid=756dda76-f7ad-4653-bf3e-ad0c5accc63a"},"vehicle_type_id":"4","last_reported":1779198510,"current_range_meters":4800,"station_id":"cjm6bp8fraef2m0cb0m0","pricing_plan_id":"cebpf4jnsgd1na2vs0mg"},{"bike_id":"3f05d236-7a0f-473e-8872-50179639e694","system_id":"levelo_inurba_marseille","lat":43.26216,"lon":5.37452,"is_reserved":false,"is_disabled":false,"rental_uris":{"android":"levelo://app?vid=3f05d236-7a0f-473e-8872-50179639e694","ios":"levelo://app?vid=3f05d236-7a0f-473e-8872-50179639e694"},"vehicle_type_id":"4","last_reported":1779198510,"current_range_meters":4800,"station_id":"ce4bhgp2rcd13ifvqfc0","pricing_plan_id":"cebpf4jnsgd1na2vs0mg"},{"bike_id":"46e5ee1b-6e75-4db8-88e1-e8ff6d5292d7","system_id":"levelo_inurba_marseille","lat":43.23082,"lon":5.39531,"is_reserved":false,"is_disabled":false,"rental_uris":{"android":"levelo://app?vid=46e5ee1b-6e75-4db8-88e1-e8ff6d5292d7","ios":"levelo://app?vid=46e5ee1b-6e75-4db8-88e1-e8ff6d5292d7"},"vehicle_type_id":"4","last_reported":1779198510,"current_range_meters":4800,"station_id":"","pricing_plan_id":"cebpf4jnsgd1na2vs0mg"},{"bike_id":"6983e692-b2bb-4bb9-8a1a-cc5f7de55ff4","system_id":"levelo_inurba_marseille","lat":43.31251,"lon":5.3678,"is_reserved":false,"is_disabled":false,"rental_uris":{"android":"levelo://app?vid=6983e692-b2bb-4bb9-8a1a-cc5f7de55ff4","ios":"levelo://app?vid=6983e692-b2bb-4bb9-8a1a-cc5f7de55ff4"},"vehicle_type_id":"4","last_reported":1779198510,"current_range_meters":4800,"station_id":"","pricing_plan_id":"cebpf4jnsgd1na2vs0mg"},{"bike_id":"46f4e29c-fdfd-4384-a721-6fabfbac785d","system_id":"levelo_inurba_marseille","lat":43.27997,"lon":5.40031,"is_reserved":false,"is_disabled":false,"rental_uris":{"android":"levelo://app?vid=46f4e29c-fdfd-4384-a721-6fabfbac785d","ios":"levelo://app?vid=46f4e29c-fdfd-4384-a721-6fabfbac785d"},"vehicle_type_id":"4","last_reported":1779198510,"current_range_meters":5600,"station_id":"ce4bho92rcd13ifvqh4g","pricing_plan_id":"cebpf4jnsgd1na2vs0mg"},{"bike_id":"58c98de5-8c45-44bc-b9d2-d73286c3efe5","system_id":"levelo_inurba_marseille","lat":43.28155,"lon":5.42652,"is_reserved":false,"is_disabled":false,"rental_uris":{"android":"levelo://app?vid=58c98de5-8c45-44bc-b9d2-d73286c3efe5","ios":"levelo://app?vid=58c98de5-8c45-44bc-b9d2-d73286c3efe5"},"vehicle_type_id":"4","last_reported":1779198510,"current_range_meters":5600,"station_id":"ce4bhnh2rcd13ifvqgug","pricing_plan_id":"cebpf4jnsgd1na2vs0mg"},{"bike_id":"ad5877c2-2dd5-4efe-a899-60dfc29eee1c","system_id":"levelo_inurba_marseille","lat":43.30517,"lon":5.38429,"is_reserved":false,"is_disabled":false,"rental_uris":{"android":"levelo://app?vid=ad5877c2-2dd5-4efe-a899-60dfc29eee1c","ios":"levelo://app?vid=ad5877c2-2dd5-4efe-a899-60dfc29eee1c"},"vehicle_type_id":"4","last_reported":1779198510,"current_range_meters":5600,"station_id":"ce4bgg92rcd13ifvqb30","pricing_plan_id":"cebpf4jnsgd1na2vs0mg"},{"bike_id":"6c152a2f-f191-4099-97a3-0495976e932f","system_id":"levelo_inurba_marseille","lat":43.26375,"lon":5.41079,"is_reserved":false,"is_disabled":false,"rental_uris":{"android":"levelo://app?vid=6c152a2f-f191-4099-97a3-0495976e932f","ios":"levelo://app?vid=6c152a2f-f191-4099-97a3-0495976e932f"},"vehicle_type_id":"4","last_reported":1779198510,"current_range_meters":5600,"station_id":"st_d4e5ca6na9uc73bfl5fg","pricing_plan_id":"cebpf4jnsgd1na2vs0mg"},{"bike_id":"9cece371-4f82-48e0-bd40-bc824dec36ed","system_id":"levelo_inurba_marseille","lat":43.2927,"lon":5.40155,"is_reserved":false,"is_disabled":false,"rental_uris":{"android":"levelo://app?vid=9cece371-4f82-48e0-bd40-bc824dec36ed","ios":"levelo://app?vid=9cece371-4f82-48e0-bd40-bc824dec36ed"},"vehicle_type_id":"4","last_reported":1779198510,"current_range_meters":5600,"station_id":"ce4bh312rcd13ifvqdk0","pricing_plan_id":"cebpf4jnsgd1na2vs0mg"},{"bike_id":"0bded09f-c7d2-4f79-80b1-a9e1c5980942","system_id":"levelo_inurba_marseille","lat":43.29574,"lon":5.37522,"is_reserved":false,"is_disabled":false,"rental_uris":{"android":"levelo://app?vid=0bded09f-c7d2-4f79-80b1-a9e1c5980942","ios":"levelo://app?vid=0bded09f-c7d2-4f79-80b1-a9e1c5980942"},"vehicle_type_id":"4","last_reported":1779198510,"current_range_meters":5600,"station_id":"ce4bgh92rcd13ifvqb50","pricing_plan_id":"cebpf4jnsgd1na2vs0mg"},{"bike_id":"71dadbbf-2988-4d63-8dfa-fc0cb188b342","system_id":"levelo_inurba_marseille","lat":43.27072,"lon":5.40257,"is_reserved":false,"is_disabled":false,"rental_uris":{"android":"levelo://app?vid=71dadbbf-2988-4d63-8dfa-fc0cb188b342","ios":"levelo://app?vid=71dadbbf-2988-4d63-8dfa-fc0cb188b342"},"vehicle_type_id":"4","last_reported":1779198510,"current_range_meters":5600,"station_id":"ce4bhk92rcd13ifvqgc0","pricing_plan_id":"cebpf4jnsgd1na2vs0mg"},{"bike_id":"4dffd446-f50d-4e57-9d5a-6726a2ba86d2","system_id":"levelo_inurba_marseille","lat":43.29729,"lon":5.37681,"is_reserved":false,"is_disabled":false,"rental_uris":{"android":"levelo://app?vid=4dffd446-f50d-4e57-9d5a-6726a2ba86d2","ios":"levelo://app?vid=4dffd446-f50d-4e57-9d5a-6726a2ba86d2"},"vehicle_type_id":"4","last_reported":1779198510,"current_range_meters":5600,"station_id":"ce4bgkh2rcd13ifvqbl0","pricing_plan_id":"cebpf4jnsgd1na2vs0mg"},{"bike_id":"bd5ba8af-d24b-4039-b0e8-a4c61a37e027","system_id":"levelo_inurba_marseille","lat":43.24648,"lon":5.3892,"is_reserved":false,"is_disabled":false,"rental_uris":{"android":"levelo://app?vid=bd5ba8af-d24b-4039-b0e8-a4c61a37e027","ios":"levelo://app?vid=bd5ba8af-d24b-4039-b0e8-a4c61a37e027"},"vehicle_type_id":"4","last_reported":1779198510,"current_range_meters":5600,"station_id":"ce4bhg12rcd13ifvqf60","pricing_plan_id":"cebpf4jnsgd1na2vs0mg"},{"bike_id":"a025988b-1675-488b-8c1d-24a8155993db","system_id":"levelo_inurba_marseille","lat":43.30975,"lon":5.39073,"is_reserved":false,"is_disabled":false,"rental_uris":{"android":"levelo://app?vid=a025988b-1675-488b-8c1d-24a8155993db","ios":"levelo://app?vid=a025988b-1675-488b-8c1d-24a8155993db"},"vehicle_type_id":"4","last_reported":1779198510,"current_range_meters":5600,"station_id":"ce4bgup2rcd13ifvqco0","pricing_plan_id":"cebpf4jnsgd1na2vs0mg"},{"bike_id":"043c5eb0-ceef-4145-a83a-7d929f77dad7","system_id":"levelo_inurba_marseille","lat":43.308915,"lon":5.371997,"is_reserved":false,"is_disabled":false,"rental_uris":{"android":"levelo://app?vid=043c5eb0-ceef-4145-a83a-7d929f77dad7","ios":"levelo://app?vid=043c5eb0-ceef-4145-a83a-7d929f77dad7"},"vehicle_type_id":"4","last_reported":1779198510,"current_range_meters":5600,"station_id":"ce4bguh2rcd13ifvqckg","pricing_plan_id":"cebpf4jnsgd1na2vs0mg"},{"bike_id":"f33bf5fa-ab57-49e9-8455-c54a2d38b218","system_id":"levelo_inurba_marseille","lat":43.31369,"lon":5.38509,"is_reserved":false,"is_disabled":false,"rental_uris":{"android":"levelo://app?vid=f33bf5fa-ab57-49e9-8455-c54a2d38b218","ios":"levelo://app?vid=f33bf5fa-ab57-49e9-8455-c54a2d38b218"},"vehicle_type_id":"4","last_reported":1779198510,"current_range_meters":5600,"station_id":"ce4bgt92rcd13ifvqcf0","pricing_plan_id":"cebpf4jnsgd1na2vs0mg"},{"bike_id":"b2993146-5923-4314-955f-bb02b157f2b9","system_id":"levelo_inurba_marseille","lat":43.26201,"lon":5.37949,"is_reserved":false,"is_disabled":false,"rental_uris":{"android":"levelo://app?vid=b2993146-5923-4314-955f-bb02b157f2b9","ios":"levelo://app?vid=b2993146-5923-4314-955f-bb02b157f2b9"},"vehicle_type_id":"4","last_reported":1779198510,"current_range_meters":5600,"station_id":"ce4bhjp2rcd13ifvqg90","pricing_plan_id":"cebpf4jnsgd1na2vs0mg"},{"bike_id":"8cab908b-dc86-405e-9f46-8e68a3a0223f","system_id":"levelo_inurba_marseille","lat":43.2954,"lon":5.38508,"is_reserved":false,"is_disabled":false,"rental_uris":{"android":"levelo://app?vid=8cab908b-dc86-405e-9f46-8e68a3a0223f","ios":"levelo://app?vid=8cab908b-dc86-405e-9f46-8e68a3a0223f"},"vehicle_type_id":"4","last_reported":1779198510,"current_range_meters":6000,"station_id":"ce4bgih2rcd13ifvqba0","pricing_plan_id":"cebpf4jnsgd1na2vs0mg"},{"bike_id":"859ff56d-18cc-492b-8658-56eb50f4e061","system_id":"levelo_inurba_marseille","lat":43.23895,"lon":5.37453,"is_reserved":false,"is_disabled":false,"rental_uris":{"android":"levelo://app?vid=859ff56d-18cc-492b-8658-56eb50f4e061","ios":"levelo://app?vid=859ff56d-18cc-492b-8658-56eb50f4e061"},"vehicle_type_id":"4","last_reported":1779198510,"current_range_meters":6000,"station_id":"st_d6sm7csbq4hs73f8fpjg","pricing_plan_id":"cebpf4jnsgd1na2vs0mg"},{"bike_id":"0e0d5418-4a56-4251-8866-025e6b539885","system_id":"levelo_inurba_marseille","lat":43.28851,"lon":5.42513,"is_reserved":false,"is_disabled":false,"rental_uris":{"android":"levelo://app?vid=0e0d5418-4a56-4251-8866-025e6b539885","ios":"levelo://app?vid=0e0d5418-4a56-4251-8866-025e6b539885"},"vehicle_type_id":"4","last_reported":1779198510,"current_range_meters":6000,"station_id":"st_d3b462108ojc7389ooeg","pricing_plan_id":"cebpf4jnsgd1na2vs0mg"},{"bike_id":"347fd52f-4ab0-4827-83ad-86d1170b91b0","system_id":"levelo_inurba_marseille","lat":43.276025,"lon":5.360873,"is_reserved":false,"is_disabled":false,"rental_uris":{"android":"levelo://app?vid=347fd52f-4ab0-4827-83ad-86d1170b91b0","ios":"levelo://app?vid=347fd52f-4ab0-4827-83ad-86d1170b91b0"},"vehicle_type_id":"4","last_reported":1779198510,"current_range_meters":6000,"station_id":"ce4bgj92rcd13ifvqbe0","pricing_plan_id":"cebpf4jnsgd1na2vs0mg"},{"bike_id":"5d4dc8e3-e1c8-4f4d-afda-06dc4c7d444e","system_id":"levelo_inurba_marseille","lat":43.26058,"lon":5.39406,"is_reserved":false,"is_disabled":false,"rental_uris":{"android":"levelo://app?vid=5d4dc8e3-e1c8-4f4d-afda-06dc4c7d444e","ios":"levelo://app?vid=5d4dc8e3-e1c8-4f4d-afda-06dc4c7d444e"},"vehicle_type_id":"4","last_reported":1779198510,"current_range_meters":6000,"station_id":"ce4bhh92rcd13ifvqfj0","pricing_plan_id":"cebpf4jnsgd1na2vs0mg"},{"bike_id":"404371ca-9d8b-4654-a6df-01fc0899b2c4","system_id":"levelo_inurba_marseille","lat":43.30543,"lon":5.36511,"is_reserved":false,"is_disabled":false,"rental_uris":{"android":"levelo://app?vid=404371ca-9d8b-4654-a6df-01fc0899b2c4","ios":"levelo://app?vid=404371ca-9d8b-4654-a6df-01fc0899b2c4"},"vehicle_type_id":"4","last_reported":1779198510,"current_range_meters":6000,"station_id":"ce4bgs12rcd13ifvqcag","pricing_plan_id":"cebpf4jnsgd1na2vs0mg"},{"bike_id":"50cfa01f-de61-45f0-90a3-3f0cfe3b0f41","system_id":"levelo_inurba_marseille","lat":43.27208,"lon":5.38565,"is_reserved":false,"is_disabled":false,"rental_uris":{"android":"levelo://app?vid=50cfa01f-de61-45f0-90a3-3f0cfe3b0f41","ios":"levelo://app?vid=50cfa01f-de61-45f0-90a3-3f0cfe3b0f41"},"vehicle_type_id":"4","last_reported":1779198510,"current_range_meters":6000,"station_id":"","pricing_plan_id":"cebpf4jnsgd1na2vs0mg"},{"bike_id":"dcc0e58b-1f8d-4d6f-8038-98c21625dd18","system_id":"levelo_inurba_marseille","lat":43.29734,"lon":5.37699,"is_reserved":false,"is_disabled":false,"rental_uris":{"android":"levelo://app?vid=dcc0e58b-1f8d-4d6f-8038-98c21625dd18","ios":"levelo://app?vid=dcc0e58b-1f8d-4d6f-8038-98c21625dd18"},"vehicle_type_id":"4","last_reported":1779198510,"current_range_meters":6000,"station_id":"ce4bgkh2rcd13ifvqbl0","pricing_plan_id":"cebpf4jnsgd1na2vs0mg"},{"bike_id":"61ffbdf0-5438-49c9-b254-ad74682aa2a8","system_id":"levelo_inurba_marseille","lat":43.31053,"lon":5.3715,"is_reserved":false,"is_disabled":false,"rental_uris":{"android":"levelo://app?vid=61ffbdf0-5438-49c9-b254-ad74682aa2a8","ios":"levelo://app?vid=61ffbdf0-5438-49c9-b254-ad74682aa2a8"},"vehicle_type_id":"4","last_reported":1779198510,"current_range_meters":6000,"station_id":"st_d4kl2rp97mjs73e7tdfg","pricing_plan_id":"cebpf4jnsgd1na2vs0mg"},{"bike_id":"01048a8c-c746-41bc-81b4-97b17005808c","system_id":"levelo_inurba_marseille","lat":43.28707,"lon":5.3794,"is_reserved":false,"is_disabled":false,"rental_uris":{"android":"levelo://app?vid=01048a8c-c746-41bc-81b4-97b17005808c","ios":"levelo://app?vid=01048a8c-c746-41bc-81b4-97b17005808c"},"vehicle_type_id":"4","last_reported":1779198510,"current_range_meters":6000,"station_id":"ce4bh9p2rcd13ifvqec0","pricing_plan_id":"cebpf4jnsgd1na2vs0mg"},{"bike_id":"e37e4ffe-f129-496c-9953-e1d053ad1b77","system_id":"levelo_inurba_marseille","lat":43.29875,"lon":5.365434,"is_reserved":false,"is_disabled":false,"rental_uris":{"android":"levelo://app?vid=e37e4ffe-f129-496c-9953-e1d053ad1b77","ios":"levelo://app?vid=e37e4ffe-f129-496c-9953-e1d053ad1b77"},"vehicle_type_id":"4","last_reported":1779198510,"current_range_meters":6000,"station_id":"ce4bgm92rcd13ifvqbr0","pricing_plan_id":"cebpf4jnsgd1na2vs0mg"},{"bike_id":"c99c6592-ce9c-431b-bc42-9349080350d6","system_id":"levelo_inurba_marseille","lat":43.31528,"lon":5.37269,"is_reserved":false,"is_disabled":false,"rental_uris":{"android":"levelo://app?vid=c99c6592-ce9c-431b-bc42-9349080350d6","ios":"levelo://app?vid=c99c6592-ce9c-431b-bc42-9349080350d6"},"vehicle_type_id":"4","last_reported":1779198510,"current_range_meters":6000,"station_id":"","pricing_plan_id":"cebpf4jnsgd1na2vs0mg"},{"bike_id":"16633114-85a5-4073-a8d3-00ed07bbb0a0","system_id":"levelo_inurba_marseille","lat":43.28935,"lon":5.36383,"is_reserved":false,"is_disabled":false,"rental_uris":{"android":"levelo://app?vid=16633114-85a5-4073-a8d3-00ed07bbb0a0","ios":"levelo://app?vid=16633114-85a5-4073-a8d3-00ed07bbb0a0"},"vehicle_type_id":"4","last_reported":1779198510,"current_range_meters":6000,"station_id":"ce4bhc92rcd13ifvqetg","pricing_plan_id":"cebpf4jnsgd1na2vs0mg"},{"bike_id":"ca4f6bf2-59b9-4fb8-9cc3-7ba12b36fa60","system_id":"levelo_inurba_marseille","lat":43.29615,"lon":5.40586,"is_reserved":false,"is_disabled":false,"rental_uris":{"android":"levelo://app?vid=ca4f6bf2-59b9-4fb8-9cc3-7ba12b36fa60","ios":"levelo://app?vid=ca4f6bf2-59b9-4fb8-9cc3-7ba12b36fa60"},"vehicle_type_id":"4","last_reported":1779198510,"current_range_meters":6400,"station_id":"ce4bh0h2rcd13ifvqd60","pricing_plan_id":"cebpf4jnsgd1na2vs0mg"},{"bike_id":"8d9285c2-2b4c-4446-93e9-9aa598ed5463","system_id":"levelo_inurba_marseille","lat":43.24172,"lon":5.36401,"is_reserved":false,"is_disabled":false,"rental_uris":{"android":"levelo://app?vid=8d9285c2-2b4c-4446-93e9-9aa598ed5463","ios":"levelo://app?vid=8d9285c2-2b4c-4446-93e9-9aa598ed5463"},"vehicle_type_id":"4","last_reported":1779198510,"current_range_meters":6400,"station_id":"cpo36qri1sfpv3e86is0","pricing_plan_id":"cebpf4jnsgd1na2vs0mg"},{"bike_id":"26dc9e1e-5c3b-4d76-98bd-c4843757a338","system_id":"levelo_inurba_marseille","lat":43.30556,"lon":5.36587,"is_reserved":false,"is_disabled":false,"rental_uris":{"android":"levelo://app?vid=26dc9e1e-5c3b-4d76-98bd-c4843757a338","ios":"levelo://app?vid=26dc9e1e-5c3b-4d76-98bd-c4843757a338"},"vehicle_type_id":"4","last_reported":1779198510,"current_range_meters":6400,"station_id":"ce4bgs12rcd13ifvqcag","pricing_plan_id":"cebpf4jnsgd1na2vs0mg"},{"bike_id":"c9513b4e-0f0e-49bc-bbff-f4414a2b16f9","system_id":"levelo_inurba_marseille","lat":43.27463,"lon":5.41616,"is_reserved":false,"is_disabled":false,"rental_uris":{"android":"levelo://app?vid=c9513b4e-0f0e-49bc-bbff-f4414a2b16f9","ios":"levelo://app?vid=c9513b4e-0f0e-49bc-bbff-f4414a2b16f9"},"vehicle_type_id":"4","last_reported":1779198510,"current_range_meters":6400,"station_id":"","pricing_plan_id":"cebpf4jnsgd1na2vs0mg"},{"bike_id":"3ec6b96b-c096-4ebd-ac06-01acb637f776","system_id":"levelo_inurba_marseille","lat":43.30324,"lon":5.40445,"is_reserved":false,"is_disabled":false,"rental_uris":{"android":"levelo://app?vid=3ec6b96b-c096-4ebd-ac06-01acb637f776","ios":"levelo://app?vid=3ec6b96b-c096-4ebd-ac06-01acb637f776"},"vehicle_type_id":"4","last_reported":1779198510,"current_range_meters":6400,"station_id":"ce4bh012rcd13ifvqd10","pricing_plan_id":"cebpf4jnsgd1na2vs0mg"},{"bike_id":"66aa3998-c506-45a5-83d5-cd9a42760e10","system_id":"levelo_inurba_marseille","lat":43.31121,"lon":5.37742,"is_reserved":false,"is_disabled":false,"rental_uris":{"android":"levelo://app?vid=66aa3998-c506-45a5-83d5-cd9a42760e10","ios":"levelo://app?vid=66aa3998-c506-45a5-83d5-cd9a42760e10"},"vehicle_type_id":"4","last_reported":1779198510,"current_range_meters":6400,"station_id":"ce4bgt92rcd13ifvqcg0","pricing_plan_id":"cebpf4jnsgd1na2vs0mg"},{"bike_id":"63aa81f7-902a-4819-ad71-91b7d91032aa","system_id":"levelo_inurba_marseille","lat":43.24998,"lon":5.38926,"is_reserved":false,"is_disabled":false,"rental_uris":{"android":"levelo://app?vid=63aa81f7-902a-4819-ad71-91b7d91032aa","ios":"levelo://app?vid=63aa81f7-902a-4819-ad71-91b7d91032aa"},"vehicle_type_id":"4","last_reported":1779198510,"current_range_meters":6400,"station_id":"ce4bhgp2rcd13ifvqfd0","pricing_plan_id":"cebpf4jnsgd1na2vs0mg"},{"bike_id":"92b0b3de-2579-4176-98aa-1882b4e9c236","system_id":"levelo_inurba_marseille","lat":43.29851,"lon":5.36286,"is_reserved":false,"is_disabled":false,"rental_uris":{"android":"levelo://app?vid=92b0b3de-2579-4176-98aa-1882b4e9c236","ios":"levelo://app?vid=92b0b3de-2579-4176-98aa-1882b4e9c236"},"vehicle_type_id":"4","last_reported":1779198510,"current_range_meters":6400,"station_id":"ce4bgpp2rcd13ifvqc3g","pricing_plan_id":"cebpf4jnsgd1na2vs0mg"},{"bike_id":"bb4f2852-c471-466a-8774-17e4f55df013","system_id":"levelo_inurba_marseille","lat":43.258672,"lon":5.398909,"is_reserved":false,"is_disabled":false,"rental_uris":{"android":"levelo://app?vid=bb4f2852-c471-466a-8774-17e4f55df013","ios":"levelo://app?vid=bb4f2852-c471-466a-8774-17e4f55df013"},"vehicle_type_id":"4","last_reported":1779198510,"current_range_meters":6400,"station_id":"ce4bhl92rcd13ifvqghg","pricing_plan_id":"cebpf4jnsgd1na2vs0mg"},{"bike_id":"d7297adc-63bd-4635-a828-b0fb24ce2c44","system_id":"levelo_inurba_marseille","lat":43.26851,"lon":5.39352,"is_reserved":false,"is_disabled":false,"rental_uris":{"android":"levelo://app?vid=d7297adc-63bd-4635-a828-b0fb24ce2c44","ios":"levelo://app?vid=d7297adc-63bd-4635-a828-b0fb24ce2c44"},"vehicle_type_id":"4","last_reported":1779198510,"current_range_meters":6400,"station_id":"","pricing_plan_id":"cebpf4jnsgd1na2vs0mg"},{"bike_id":"e49708a1-247a-4bdb-ae73-858284adce78","system_id":"levelo_inurba_marseille","lat":43.29544,"lon":5.38531,"is_reserved":false,"is_disabled":false,"rental_uris":{"android":"levelo://app?vid=e49708a1-247a-4bdb-ae73-858284adce78","ios":"levelo://app?vid=e49708a1-247a-4bdb-ae73-858284adce78"},"vehicle_type_id":"4","last_reported":1779198510,"current_range_meters":6400,"station_id":"ce4bgih2rcd13ifvqba0","pricing_plan_id":"cebpf4jnsgd1na2vs0mg"},{"bike_id":"c1667bd0-5c05-4cd7-b7ff-fcbc15caff1e","system_id":"levelo_inurba_marseille","lat":43.25974,"lon":5.37453,"is_reserved":false,"is_disabled":false,"rental_uris":{"android":"levelo://app?vid=c1667bd0-5c05-4cd7-b7ff-fcbc15caff1e","ios":"levelo://app?vid=c1667bd0-5c05-4cd7-b7ff-fcbc15caff1e"},"vehicle_type_id":"4","last_reported":1779198510,"current_range_meters":6400,"station_id":"","pricing_plan_id":"cebpf4jnsgd1na2vs0mg"},{"bike_id":"170c8db2-acb8-4c8a-be7d-b83c42f48658","system_id":"levelo_inurba_marseille","lat":43.31218,"lon":5.36819,"is_reserved":false,"is_disabled":false,"rental_uris":{"android":"levelo://app?vid=170c8db2-acb8-4c8a-be7d-b83c42f48658","ios":"levelo://app?vid=170c8db2-acb8-4c8a-be7d-b83c42f48658"},"vehicle_type_id":"4","last_reported":1779198510,"current_range_meters":6400,"station_id":"ce4bgl92rcd13ifvqbq0","pricing_plan_id":"cebpf4jnsgd1na2vs0mg"},{"bike_id":"9d45a253-1d3a-41f8-95ed-2518452886d5","system_id":"levelo_inurba_marseille","lat":43.25518,"lon":5.37646,"is_reserved":false,"is_disabled":true,"rental_uris":{"android":"levelo://app?vid=9d45a253-1d3a-41f8-95ed-2518452886d5","ios":"levelo://app?vid=9d45a253-1d3a-41f8-95ed-2518452886d5"},"vehicle_type_id":"4","last_reported":1779198510,"current_range_meters":6800,"station_id":"ce4bhh12rcd13ifvqff0","pricing_plan_id":"cebpf4jnsgd1na2vs0mg"},{"bike_id":"d32e766b-eab3-426a-809e-ff0d889e278b","system_id":"levelo_inurba_marseille","lat":43.29493,"lon":5.3855,"is_reserved":false,"is_disabled":false,"rental_uris":{"android":"levelo://app?vid=d32e766b-eab3-426a-809e-ff0d889e278b","ios":"levelo://app?vid=d32e766b-eab3-426a-809e-ff0d889e278b"},"vehicle_type_id":"4","last_reported":1779198510,"current_range_meters":6800,"station_id":"ce4bgih2rcd13ifvqba0","pricing_plan_id":"cebpf4jnsgd1na2vs0mg"},{"bike_id":"b2831627-3b1e-437d-9966-063b64acbf7d","system_id":"levelo_inurba_marseille","lat":43.23959,"lon":5.3663,"is_reserved":false,"is_disabled":false,"rental_uris":{"android":"levelo://app?vid=b2831627-3b1e-437d-9966-063b64acbf7d","ios":"levelo://app?vid=b2831627-3b1e-437d-9966-063b64acbf7d"},"vehicle_type_id":"4","last_reported":1779198510,"current_range_meters":6800,"station_id":"ce4bhi12rcd13ifvqfp0","pricing_plan_id":"cebpf4jnsgd1na2vs0mg"},{"bike_id":"b004721b-15a5-455a-9be8-13495ac39a54","system_id":"levelo_inurba_marseille","lat":43.25321,"lon":5.42154,"is_reserved":false,"is_disabled":false,"rental_uris":{"android":"levelo://app?vid=b004721b-15a5-455a-9be8-13495ac39a54","ios":"levelo://app?vid=b004721b-15a5-455a-9be8-13495ac39a54"},"vehicle_type_id":"4","last_reported":1779198510,"current_range_meters":6800,"station_id":"st_d2m65c5bi1j21697t3ng","pricing_plan_id":"cebpf4jnsgd1na2vs0mg"},{"bike_id":"30f51f43-53da-4d43-b53e-244f016cf14c","system_id":"levelo_inurba_marseille","lat":43.31377,"lon":5.36708,"is_reserved":false,"is_disabled":false,"rental_uris":{"android":"levelo://app?vid=30f51f43-53da-4d43-b53e-244f016cf14c","ios":"levelo://app?vid=30f51f43-53da-4d43-b53e-244f016cf14c"},"vehicle_type_id":"4","last_reported":1779198510,"current_range_meters":6800,"station_id":"ce4bgr92rcd13ifvqc6g","pricing_plan_id":"cebpf4jnsgd1na2vs0mg"},{"bike_id":"19fc25ea-351b-4426-a1ce-87bcda62e902","system_id":"levelo_inurba_marseille","lat":43.30543,"lon":5.36721,"is_reserved":false,"is_disabled":false,"rental_uris":{"android":"levelo://app?vid=19fc25ea-351b-4426-a1ce-87bcda62e902","ios":"levelo://app?vid=19fc25ea-351b-4426-a1ce-87bcda62e902"},"vehicle_type_id":"4","last_reported":1779198510,"current_range_meters":6800,"station_id":"ce4bgrp2rcd13ifvqc9g","pricing_plan_id":"cebpf4jnsgd1na2vs0mg"},{"bike_id":"89dcf81e-d685-4eb4-82aa-fe68a85d332a","system_id":"levelo_inurba_marseille","lat":43.32098,"lon":5.3684,"is_reserved":false,"is_disabled":false,"rental_uris":{"android":"levelo://app?vid=89dcf81e-d685-4eb4-82aa-fe68a85d332a","ios":"levelo://app?vid=89dcf81e-d685-4eb4-82aa-fe68a85d332a"},"vehicle_type_id":"4","last_reported":1779198510,"current_range_meters":6800,"station_id":"","pricing_plan_id":"cebpf4jnsgd1na2vs0mg"},{"bike_id":"a832c9d5-38ae-4dab-ad79-576c5e4ddb28","system_id":"levelo_inurba_marseille","lat":43.29105,"lon":5.40146,"is_reserved":false,"is_disabled":false,"rental_uris":{"android":"levelo://app?vid=a832c9d5-38ae-4dab-ad79-576c5e4ddb28","ios":"levelo://app?vid=a832c9d5-38ae-4dab-ad79-576c5e4ddb28"},"vehicle_type_id":"4","last_reported":1779198510,"current_range_meters":6800,"station_id":"","pricing_plan_id":"cebpf4jnsgd1na2vs0mg"},{"bike_id":"a57b6d8c-426e-41f2-88fd-ed699a7b5fab","system_id":"levelo_inurba_marseille","lat":43.32112,"lon":5.36811,"is_reserved":false,"is_disabled":false,"rental_uris":{"android":"levelo://app?vid=a57b6d8c-426e-41f2-88fd-ed699a7b5fab","ios":"levelo://app?vid=a57b6d8c-426e-41f2-88fd-ed699a7b5fab"},"vehicle_type_id":"4","last_reported":1779198510,"current_range_meters":6800,"station_id":"ce4bhrh2rcd13ifvqhug","pricing_plan_id":"cebpf4jnsgd1na2vs0mg"},{"bike_id":"588f693d-bc7e-4211-9fac-1dbab5e62ec9","system_id":"levelo_inurba_marseille","lat":43.29601,"lon":5.3811,"is_reserved":false,"is_disabled":false,"rental_uris":{"android":"levelo://app?vid=588f693d-bc7e-4211-9fac-1dbab5e62ec9","ios":"levelo://app?vid=588f693d-bc7e-4211-9fac-1dbab5e62ec9"},"vehicle_type_id":"4","last_reported":1779198510,"current_range_meters":6800,"station_id":"ce4bgl12rcd13ifvqbo0","pricing_plan_id":"cebpf4jnsgd1na2vs0mg"},{"bike_id":"ee5fe437-24bf-482c-8cfc-fb6ec77b2c51","system_id":"levelo_inurba_marseille","lat":43.289296,"lon":5.36401,"is_reserved":false,"is_disabled":true,"rental_uris":{"android":"levelo://app?vid=ee5fe437-24bf-482c-8cfc-fb6ec77b2c51","ios":"levelo://app?vid=ee5fe437-24bf-482c-8cfc-fb6ec77b2c51"},"vehicle_type_id":"4","last_reported":1779198510,"current_range_meters":6800,"station_id":"ce4bhap2rcd13ifvqek0","pricing_plan_id":"cebpf4jnsgd1na2vs0mg"},{"bike_id":"92a48778-5aae-45c8-9818-f9e9df801c2b","system_id":"levelo_inurba_marseille","lat":43.33164,"lon":5.37693,"is_reserved":false,"is_disabled":false,"rental_uris":{"android":"levelo://app?vid=92a48778-5aae-45c8-9818-f9e9df801c2b","ios":"levelo://app?vid=92a48778-5aae-45c8-9818-f9e9df801c2b"},"vehicle_type_id":"4","last_reported":1779198510,"current_range_meters":6800,"station_id":"st_d46cu089ee8s73dldbu0","pricing_plan_id":"cebpf4jnsgd1na2vs0mg"},{"bike_id":"fe53b3e7-f1d1-44c2-a667-c6c0f163f826","system_id":"levelo_inurba_marseille","lat":43.28263,"lon":5.35061,"is_reserved":false,"is_disabled":false,"rental_uris":{"android":"levelo://app?vid=fe53b3e7-f1d1-44c2-a667-c6c0f163f826","ios":"levelo://app?vid=fe53b3e7-f1d1-44c2-a667-c6c0f163f826"},"vehicle_type_id":"4","last_reported":1779198510,"current_range_meters":6800,"station_id":"ce4bhbp2rcd13ifvqerg","pricing_plan_id":"cebpf4jnsgd1na2vs0mg"},{"bike_id":"809799d9-4dc2-4ad5-9d75-aa06480743aa","system_id":"levelo_inurba_marseille","lat":43.289391,"lon":5.396278,"is_reserved":false,"is_disabled":false,"rental_uris":{"android":"levelo://app?vid=809799d9-4dc2-4ad5-9d75-aa06480743aa","ios":"levelo://app?vid=809799d9-4dc2-4ad5-9d75-aa06480743aa"},"vehicle_type_id":"4","last_reported":1779198510,"current_range_meters":6800,"station_id":"ce4bh3h2rcd13ifvqdn0","pricing_plan_id":"cebpf4jnsgd1na2vs0mg"},{"bike_id":"ff3b4694-4c2d-4e0e-882d-168610d86b23","system_id":"levelo_inurba_marseille","lat":43.21757,"lon":5.34616,"is_reserved":false,"is_disabled":false,"rental_uris":{"android":"levelo://app?vid=ff3b4694-4c2d-4e0e-882d-168610d86b23","ios":"levelo://app?vid=ff3b4694-4c2d-4e0e-882d-168610d86b23"},"vehicle_type_id":"4","last_reported":1779198510,"current_range_meters":6800,"station_id":"st_cvj6r9ubvosntc0bgbag","pricing_plan_id":"cebpf4jnsgd1na2vs0mg"},{"bike_id":"ea2b7db2-4ec0-4ed4-95e7-78571752cefd","system_id":"levelo_inurba_marseille","lat":43.24816,"lon":5.37462,"is_reserved":false,"is_disabled":false,"rental_uris":{"android":"levelo://app?vid=ea2b7db2-4ec0-4ed4-95e7-78571752cefd","ios":"levelo://app?vid=ea2b7db2-4ec0-4ed4-95e7-78571752cefd"},"vehicle_type_id":"4","last_reported":1779198510,"current_range_meters":6800,"station_id":"ce4bhgh2rcd13ifvqfb0","pricing_plan_id":"cebpf4jnsgd1na2vs0mg"},{"bike_id":"50201ec3-7cac-4351-9303-ea5ea7029da5","system_id":"levelo_inurba_marseille","lat":43.28956,"lon":5.36625,"is_reserved":false,"is_disabled":false,"rental_uris":{"android":"levelo://app?vid=50201ec3-7cac-4351-9303-ea5ea7029da5","ios":"levelo://app?vid=50201ec3-7cac-4351-9303-ea5ea7029da5"},"vehicle_type_id":"4","last_reported":1779198510,"current_range_meters":6800,"station_id":"ce4bhap2rcd13ifvqek0","pricing_plan_id":"cebpf4jnsgd1na2vs0mg"},{"bike_id":"223d9422-3dda-4c6b-9354-0bc002bb9bec","system_id":"levelo_inurba_marseille","lat":43.28716,"lon":5.37973,"is_reserved":false,"is_disabled":false,"rental_uris":{"android":"levelo://app?vid=223d9422-3dda-4c6b-9354-0bc002bb9bec","ios":"levelo://app?vid=223d9422-3dda-4c6b-9354-0bc002bb9bec"},"vehicle_type_id":"4","last_reported":1779198510,"current_range_meters":6800,"station_id":"ce4bh9p2rcd13ifvqec0","pricing_plan_id":"cebpf4jnsgd1na2vs0mg"},{"bike_id":"135c7add-6606-4442-b287-76ca2dc1a53f","system_id":"levelo_inurba_marseille","lat":43.31115,"lon":5.37761,"is_reserved":false,"is_disabled":false,"rental_uris":{"android":"levelo://app?vid=135c7add-6606-4442-b287-76ca2dc1a53f","ios":"levelo://app?vid=135c7add-6606-4442-b287-76ca2dc1a53f"},"vehicle_type_id":"4","last_reported":1779198510,"current_range_meters":6800,"station_id":"ce4bgt92rcd13ifvqcg0","pricing_plan_id":"cebpf4jnsgd1na2vs0mg"},{"bike_id":"604c8d35-0292-4781-b66d-7833a0f007ea","system_id":"levelo_inurba_marseille","lat":43.33506,"lon":5.3746,"is_reserved":false,"is_disabled":false,"rental_uris":{"android":"levelo://app?vid=604c8d35-0292-4781-b66d-7833a0f007ea","ios":"levelo://app?vid=604c8d35-0292-4781-b66d-7833a0f007ea"},"vehicle_type_id":"4","last_reported":1779198510,"current_range_meters":7200,"station_id":"","pricing_plan_id":"cebpf4jnsgd1na2vs0mg"},{"bike_id":"4a8fff30-cbc5-491d-8d3e-d22b568d1485","system_id":"levelo_inurba_marseille","lat":43.26432,"lon":5.37411,"is_reserved":false,"is_disabled":false,"rental_uris":{"android":"levelo://app?vid=4a8fff30-cbc5-491d-8d3e-d22b568d1485","ios":"levelo://app?vid=4a8fff30-cbc5-491d-8d3e-d22b568d1485"},"vehicle_type_id":"4","last_reported":1779198510,"current_range_meters":7200,"station_id":"","pricing_plan_id":"cebpf4jnsgd1na2vs0mg"},{"bike_id":"bceecaf7-12a6-42da-b71f-e6bfc06b8e93","system_id":"levelo_inurba_marseille","lat":43.24655,"lon":5.38154,"is_reserved":false,"is_disabled":false,"rental_uris":{"android":"levelo://app?vid=bceecaf7-12a6-42da-b71f-e6bfc06b8e93","ios":"levelo://app?vid=bceecaf7-12a6-42da-b71f-e6bfc06b8e93"},"vehicle_type_id":"4","last_reported":1779198510,"current_range_meters":7200,"station_id":"ce4bhih2rcd13ifvqfr0","pricing_plan_id":"cebpf4jnsgd1na2vs0mg"},{"bike_id":"a589afee-c55a-43a1-8dc9-b4e20ff4b3a0","system_id":"levelo_inurba_marseille","lat":43.25595,"lon":5.38197,"is_reserved":false,"is_disabled":false,"rental_uris":{"android":"levelo://app?vid=a589afee-c55a-43a1-8dc9-b4e20ff4b3a0","ios":"levelo://app?vid=a589afee-c55a-43a1-8dc9-b4e20ff4b3a0"},"vehicle_type_id":"4","last_reported":1779198510,"current_range_meters":7200,"station_id":"ce4bhih2rcd13ifvqfs0","pricing_plan_id":"cebpf4jnsgd1na2vs0mg"},{"bike_id":"7c260c7d-d9ed-4ca3-9e2d-27bf132a1d6d","system_id":"levelo_inurba_marseille","lat":43.301559,"lon":5.38132,"is_reserved":false,"is_disabled":false,"rental_uris":{"android":"levelo://app?vid=7c260c7d-d9ed-4ca3-9e2d-27bf132a1d6d","ios":"levelo://app?vid=7c260c7d-d9ed-4ca3-9e2d-27bf132a1d6d"},"vehicle_type_id":"4","last_reported":1779198510,"current_range_meters":7200,"station_id":"ce4bgjp2rcd13ifvqbh0","pricing_plan_id":"cebpf4jnsgd1na2vs0mg"},{"bike_id":"69fb0f2e-8291-4305-b561-741ac11e259e","system_id":"levelo_inurba_marseille","lat":43.276186,"lon":5.361004,"is_reserved":false,"is_disabled":true,"rental_uris":{"android":"levelo://app?vid=69fb0f2e-8291-4305-b561-741ac11e259e","ios":"levelo://app?vid=69fb0f2e-8291-4305-b561-741ac11e259e"},"vehicle_type_id":"4","last_reported":1779198510,"current_range_meters":7200,"station_id":"ce4bgj92rcd13ifvqbe0","pricing_plan_id":"cebpf4jnsgd1na2vs0mg"},{"bike_id":"2dbd4466-77a7-454a-ad9e-4c428d1bc40d","system_id":"levelo_inurba_marseille","lat":43.29321,"lon":5.36854,"is_reserved":false,"is_disabled":false,"rental_uris":{"android":"levelo://app?vid=2dbd4466-77a7-454a-ad9e-4c428d1bc40d","ios":"levelo://app?vid=2dbd4466-77a7-454a-ad9e-4c428d1bc40d"},"vehicle_type_id":"4","last_reported":1779198510,"current_range_meters":7200,"station_id":"","pricing_plan_id":"cebpf4jnsgd1na2vs0mg"},{"bike_id":"fd401b64-1c59-4560-9d16-890da994a027","system_id":"levelo_inurba_marseille","lat":43.3247,"lon":5.36518,"is_reserved":false,"is_disabled":false,"rental_uris":{"android":"levelo://app?vid=fd401b64-1c59-4560-9d16-890da994a027","ios":"levelo://app?vid=fd401b64-1c59-4560-9d16-890da994a027"},"vehicle_type_id":"4","last_reported":1779198510,"current_range_meters":7200,"station_id":"ce4bhs12rcd13ifvqhvg","pricing_plan_id":"cebpf4jnsgd1na2vs0mg"},{"bike_id":"0ab54c51-2cd5-429e-99a7-d9b354415bcb","system_id":"levelo_inurba_marseille","lat":43.3118,"lon":5.37895,"is_reserved":false,"is_disabled":false,"rental_uris":{"android":"levelo://app?vid=0ab54c51-2cd5-429e-99a7-d9b354415bcb","ios":"levelo://app?vid=0ab54c51-2cd5-429e-99a7-d9b354415bcb"},"vehicle_type_id":"4","last_reported":1779198510,"current_range_meters":7200,"station_id":"","pricing_plan_id":"cebpf4jnsgd1na2vs0mg"},{"bike_id":"2605a567-29b8-4a97-b380-dff35bce8649","system_id":"levelo_inurba_marseille","lat":43.31073,"lon":5.37168,"is_reserved":false,"is_disabled":false,"rental_uris":{"android":"levelo://app?vid=2605a567-29b8-4a97-b380-dff35bce8649","ios":"levelo://app?vid=2605a567-29b8-4a97-b380-dff35bce8649"},"vehicle_type_id":"4","last_reported":1779198510,"current_range_meters":7200,"station_id":"st_d4kl2rp97mjs73e7tdfg","pricing_plan_id":"cebpf4jnsgd1na2vs0mg"},{"bike_id":"a3ebbe78-84d3-4184-9a16-07dfbc610f82","system_id":"levelo_inurba_marseille","lat":43.31578,"lon":5.36582,"is_reserved":false,"is_disabled":false,"rental_uris":{"android":"levelo://app?vid=a3ebbe78-84d3-4184-9a16-07dfbc610f82","ios":"levelo://app?vid=a3ebbe78-84d3-4184-9a16-07dfbc610f82"},"vehicle_type_id":"4","last_reported":1779198510,"current_range_meters":7200,"station_id":"","pricing_plan_id":"cebpf4jnsgd1na2vs0mg"},{"bike_id":"241f280c-9f8a-41d9-9029-f68c2fc65f3e","system_id":"levelo_inurba_marseille","lat":43.23899,"lon":5.3746,"is_reserved":false,"is_disabled":false,"rental_uris":{"android":"levelo://app?vid=241f280c-9f8a-41d9-9029-f68c2fc65f3e","ios":"levelo://app?vid=241f280c-9f8a-41d9-9029-f68c2fc65f3e"},"vehicle_type_id":"4","last_reported":1779198510,"current_range_meters":7200,"station_id":"st_d6sm7csbq4hs73f8fpjg","pricing_plan_id":"cebpf4jnsgd1na2vs0mg"},{"bike_id":"d5507518-cb58-4fc3-a22b-de5ad3c6e51d","system_id":"levelo_inurba_marseille","lat":43.29824,"lon":5.44068,"is_reserved":false,"is_disabled":false,"rental_uris":{"android":"levelo://app?vid=d5507518-cb58-4fc3-a22b-de5ad3c6e51d","ios":"levelo://app?vid=d5507518-cb58-4fc3-a22b-de5ad3c6e51d"},"vehicle_type_id":"4","last_reported":1779198510,"current_range_meters":7200,"station_id":"st_d3jp68qikq2c7381ktn0","pricing_plan_id":"cebpf4jnsgd1na2vs0mg"},{"bike_id":"5b9c7a4f-0589-46e7-bcb8-d92a7849ff92","system_id":"levelo_inurba_marseille","lat":43.29574,"lon":5.37529,"is_reserved":false,"is_disabled":false,"rental_uris":{"android":"levelo://app?vid=5b9c7a4f-0589-46e7-bcb8-d92a7849ff92","ios":"levelo://app?vid=5b9c7a4f-0589-46e7-bcb8-d92a7849ff92"},"vehicle_type_id":"4","last_reported":1779198510,"current_range_meters":7200,"station_id":"ce4bgh92rcd13ifvqb50","pricing_plan_id":"cebpf4jnsgd1na2vs0mg"},{"bike_id":"a55333fd-393c-48f0-9e94-7da551de4d74","system_id":"levelo_inurba_marseille","lat":43.26394,"lon":5.41053,"is_reserved":false,"is_disabled":false,"rental_uris":{"android":"levelo://app?vid=a55333fd-393c-48f0-9e94-7da551de4d74","ios":"levelo://app?vid=a55333fd-393c-48f0-9e94-7da551de4d74"},"vehicle_type_id":"4","last_reported":1779198510,"current_range_meters":7200,"station_id":"st_d4e5ca6na9uc73bfl5fg","pricing_plan_id":"cebpf4jnsgd1na2vs0mg"},{"bike_id":"9fbcb892-53dc-4435-978e-70ad709748f1","system_id":"levelo_inurba_marseille","lat":43.28401,"lon":5.3499,"is_reserved":false,"is_disabled":false,"rental_uris":{"android":"levelo://app?vid=9fbcb892-53dc-4435-978e-70ad709748f1","ios":"levelo://app?vid=9fbcb892-53dc-4435-978e-70ad709748f1"},"vehicle_type_id":"4","last_reported":1779198510,"current_range_meters":7200,"station_id":"ce4bhbh2rcd13ifvqepg","pricing_plan_id":"cebpf4jnsgd1na2vs0mg"},{"bike_id":"83d79694-a4f4-4369-aa26-09e0ef239455","system_id":"levelo_inurba_marseille","lat":43.27982,"lon":5.38745,"is_reserved":false,"is_disabled":false,"rental_uris":{"android":"levelo://app?vid=83d79694-a4f4-4369-aa26-09e0ef239455","ios":"levelo://app?vid=83d79694-a4f4-4369-aa26-09e0ef239455"},"vehicle_type_id":"4","last_reported":1779198510,"current_range_meters":7200,"station_id":"ce4bhg12rcd13ifvqf80","pricing_plan_id":"cebpf4jnsgd1na2vs0mg"},{"bike_id":"025cde18-1c41-4dd8-b7f1-33ffe6df857e","system_id":"levelo_inurba_marseille","lat":43.29782,"lon":5.37106,"is_reserved":false,"is_disabled":false,"rental_uris":{"android":"levelo://app?vid=025cde18-1c41-4dd8-b7f1-33ffe6df857e","ios":"levelo://app?vid=025cde18-1c41-4dd8-b7f1-33ffe6df857e"},"vehicle_type_id":"4","last_reported":1779198510,"current_range_meters":7200,"station_id":"ce4bgop2rcd13ifvqc1g","pricing_plan_id":"cebpf4jnsgd1na2vs0mg"},{"bike_id":"8b5fe887-0d07-4a23-9fbd-a7025800ec01","system_id":"levelo_inurba_marseille","lat":43.273725,"lon":5.36265,"is_reserved":false,"is_disabled":false,"rental_uris":{"android":"levelo://app?vid=8b5fe887-0d07-4a23-9fbd-a7025800ec01","ios":"levelo://app?vid=8b5fe887-0d07-4a23-9fbd-a7025800ec01"},"vehicle_type_id":"4","last_reported":1779198510,"current_range_meters":7200,"station_id":"ce4bhbh2rcd13ifvqeo0","pricing_plan_id":"cebpf4jnsgd1na2vs0mg"},{"bike_id":"17a58ec1-95d0-4a5e-947f-5381df52ba95","system_id":"levelo_inurba_marseille","lat":43.31605,"lon":5.40675,"is_reserved":false,"is_disabled":false,"rental_uris":{"android":"levelo://app?vid=17a58ec1-95d0-4a5e-947f-5381df52ba95","ios":"levelo://app?vid=17a58ec1-95d0-4a5e-947f-5381df52ba95"},"vehicle_type_id":"4","last_reported":1779198510,"current_range_meters":8000,"station_id":"","pricing_plan_id":"cebpf4jnsgd1na2vs0mg"},{"bike_id":"e8703d1e-38d7-4a37-8b34-74e110535cc7","system_id":"levelo_inurba_marseille","lat":43.2509,"lon":5.395,"is_reserved":false,"is_disabled":false,"rental_uris":{"android":"levelo://app?vid=e8703d1e-38d7-4a37-8b34-74e110535cc7","ios":"levelo://app?vid=e8703d1e-38d7-4a37-8b34-74e110535cc7"},"vehicle_type_id":"4","last_reported":1779198510,"current_range_meters":8000,"station_id":"ce4bhm12rcd13ifvqgkg","pricing_plan_id":"cebpf4jnsgd1na2vs0mg"},{"bike_id":"e632fd55-d64d-438b-a858-8c2eb7d334b4","system_id":"levelo_inurba_marseille","lat":43.31365,"lon":5.36708,"is_reserved":false,"is_disabled":false,"rental_uris":{"android":"levelo://app?vid=e632fd55-d64d-438b-a858-8c2eb7d334b4","ios":"levelo://app?vid=e632fd55-d64d-438b-a858-8c2eb7d334b4"},"vehicle_type_id":"4","last_reported":1779198510,"current_range_meters":8000,"station_id":"ce4bgr92rcd13ifvqc6g","pricing_plan_id":"cebpf4jnsgd1na2vs0mg"},{"bike_id":"8aa4042b-067b-4783-a174-79e2496089f3","system_id":"levelo_inurba_marseille","lat":43.28623,"lon":5.35116,"is_reserved":false,"is_disabled":false,"rental_uris":{"android":"levelo://app?vid=8aa4042b-067b-4783-a174-79e2496089f3","ios":"levelo://app?vid=8aa4042b-067b-4783-a174-79e2496089f3"},"vehicle_type_id":"4","last_reported":1779198510,"current_range_meters":8000,"station_id":"ce4bhch2rcd13ifvqeug","pricing_plan_id":"cebpf4jnsgd1na2vs0mg"},{"bike_id":"27567c64-8b10-4e2b-ac80-dd83579808f5","system_id":"levelo_inurba_marseille","lat":43.29034,"lon":5.39995,"is_reserved":false,"is_disabled":true,"rental_uris":{"android":"levelo://app?vid=27567c64-8b10-4e2b-ac80-dd83579808f5","ios":"levelo://app?vid=27567c64-8b10-4e2b-ac80-dd83579808f5"},"vehicle_type_id":"4","last_reported":1779198510,"current_range_meters":8000,"station_id":"","pricing_plan_id":"cebpf4jnsgd1na2vs0mg"},{"bike_id":"23ac3378-eb1a-4fcb-9d76-97ffca2f6b29","system_id":"levelo_inurba_marseille","lat":43.26195,"lon":5.37448,"is_reserved":false,"is_disabled":false,"rental_uris":{"android":"levelo://app?vid=23ac3378-eb1a-4fcb-9d76-97ffca2f6b29","ios":"levelo://app?vid=23ac3378-eb1a-4fcb-9d76-97ffca2f6b29"},"vehicle_type_id":"4","last_reported":1779198510,"current_range_meters":8000,"station_id":"ce4bhgp2rcd13ifvqfc0","pricing_plan_id":"cebpf4jnsgd1na2vs0mg"},{"bike_id":"31037343-2d47-4785-a875-5231e79a8364","system_id":"levelo_inurba_marseille","lat":43.3094,"lon":5.39036,"is_reserved":false,"is_disabled":false,"rental_uris":{"android":"levelo://app?vid=31037343-2d47-4785-a875-5231e79a8364","ios":"levelo://app?vid=31037343-2d47-4785-a875-5231e79a8364"},"vehicle_type_id":"4","last_reported":1779198510,"current_range_meters":8000,"station_id":"ce4bgup2rcd13ifvqco0","pricing_plan_id":"cebpf4jnsgd1na2vs0mg"},{"bike_id":"2255c620-1176-4d3f-a727-6909d2f5887e","system_id":"levelo_inurba_marseille","lat":43.26941,"lon":5.40259,"is_reserved":false,"is_disabled":false,"rental_uris":{"android":"levelo://app?vid=2255c620-1176-4d3f-a727-6909d2f5887e","ios":"levelo://app?vid=2255c620-1176-4d3f-a727-6909d2f5887e"},"vehicle_type_id":"4","last_reported":1779198510,"current_range_meters":8000,"station_id":"cjm6bp8fraef2m0cb0m0","pricing_plan_id":"cebpf4jnsgd1na2vs0mg"},{"bike_id":"c53b7009-0ab3-42cf-92c9-2b2e00161e7b","system_id":"levelo_inurba_marseille","lat":43.24806,"lon":5.37452,"is_reserved":false,"is_disabled":false,"rental_uris":{"android":"levelo://app?vid=c53b7009-0ab3-42cf-92c9-2b2e00161e7b","ios":"levelo://app?vid=c53b7009-0ab3-42cf-92c9-2b2e00161e7b"},"vehicle_type_id":"4","last_reported":1779198510,"current_range_meters":8000,"station_id":"ce4bhgh2rcd13ifvqfb0","pricing_plan_id":"cebpf4jnsgd1na2vs0mg"},{"bike_id":"33f1022a-86ed-42b2-a2fa-b6b00d8323f5","system_id":"levelo_inurba_marseille","lat":43.31125,"lon":5.37778,"is_reserved":false,"is_disabled":false,"rental_uris":{"android":"levelo://app?vid=33f1022a-86ed-42b2-a2fa-b6b00d8323f5","ios":"levelo://app?vid=33f1022a-86ed-42b2-a2fa-b6b00d8323f5"},"vehicle_type_id":"4","last_reported":1779198510,"current_range_meters":8000,"station_id":"ce4bgt92rcd13ifvqcg0","pricing_plan_id":"cebpf4jnsgd1na2vs0mg"},{"bike_id":"af04df19-3518-4dcd-8dbe-aadc47c6fa27","system_id":"levelo_inurba_marseille","lat":43.30541,"lon":5.36549,"is_reserved":false,"is_disabled":false,"rental_uris":{"android":"levelo://app?vid=af04df19-3518-4dcd-8dbe-aadc47c6fa27","ios":"levelo://app?vid=af04df19-3518-4dcd-8dbe-aadc47c6fa27"},"vehicle_type_id":"4","last_reported":1779198510,"current_range_meters":8000,"station_id":"ce4bgs12rcd13ifvqcag","pricing_plan_id":"cebpf4jnsgd1na2vs0mg"},{"bike_id":"955fd45b-9e3f-4524-9dd3-cff4a37c64da","system_id":"levelo_inurba_marseille","lat":43.26687,"lon":5.38288,"is_reserved":false,"is_disabled":false,"rental_uris":{"android":"levelo://app?vid=955fd45b-9e3f-4524-9dd3-cff4a37c64da","ios":"levelo://app?vid=955fd45b-9e3f-4524-9dd3-cff4a37c64da"},"vehicle_type_id":"4","last_reported":1779198510,"current_range_meters":8000,"station_id":"ce4bhg92rcd13ifvqf90","pricing_plan_id":"cebpf4jnsgd1na2vs0mg"},{"bike_id":"96193dcf-e395-4c1a-b4d1-157ce3715e6b","system_id":"levelo_inurba_marseille","lat":43.286647,"lon":5.386704,"is_reserved":false,"is_disabled":false,"rental_uris":{"android":"levelo://app?vid=96193dcf-e395-4c1a-b4d1-157ce3715e6b","ios":"levelo://app?vid=96193dcf-e395-4c1a-b4d1-157ce3715e6b"},"vehicle_type_id":"4","last_reported":1779198510,"current_range_meters":8000,"station_id":"ce4bh492rcd13ifvqdug","pricing_plan_id":"cebpf4jnsgd1na2vs0mg"},{"bike_id":"eb879b62-c516-45e2-a0a1-067a05270ace","system_id":"levelo_inurba_marseille","lat":43.27989,"lon":5.38759,"is_reserved":false,"is_disabled":false,"rental_uris":{"android":"levelo://app?vid=eb879b62-c516-45e2-a0a1-067a05270ace","ios":"levelo://app?vid=eb879b62-c516-45e2-a0a1-067a05270ace"},"vehicle_type_id":"4","last_reported":1779198510,"current_range_meters":8000,"station_id":"ce4bhg12rcd13ifvqf80","pricing_plan_id":"cebpf4jnsgd1na2vs0mg"},{"bike_id":"e1edea3c-a9ec-4e1d-ae51-331278ede585","system_id":"levelo_inurba_marseille","lat":43.31041,"lon":5.39291,"is_reserved":false,"is_disabled":false,"rental_uris":{"android":"levelo://app?vid=e1edea3c-a9ec-4e1d-ae51-331278ede585","ios":"levelo://app?vid=e1edea3c-a9ec-4e1d-ae51-331278ede585"},"vehicle_type_id":"4","last_reported":1779198510,"current_range_meters":8000,"station_id":"","pricing_plan_id":"cebpf4jnsgd1na2vs0mg"},{"bike_id":"c982f197-5ae1-441d-9666-187b23fc3a07","system_id":"levelo_inurba_marseille","lat":43.28081,"lon":5.35016,"is_reserved":false,"is_disabled":false,"rental_uris":{"android":"levelo://app?vid=c982f197-5ae1-441d-9666-187b23fc3a07","ios":"levelo://app?vid=c982f197-5ae1-441d-9666-187b23fc3a07"},"vehicle_type_id":"4","last_reported":1779198510,"current_range_meters":8000,"station_id":"","pricing_plan_id":"cebpf4jnsgd1na2vs0mg"},{"bike_id":"40cdbae6-714d-4f35-95a9-676040c67aef","system_id":"levelo_inurba_marseille","lat":43.24008,"lon":5.41309,"is_reserved":false,"is_disabled":false,"rental_uris":{"android":"levelo://app?vid=40cdbae6-714d-4f35-95a9-676040c67aef","ios":"levelo://app?vid=40cdbae6-714d-4f35-95a9-676040c67aef"},"vehicle_type_id":"4","last_reported":1779198510,"current_range_meters":8000,"station_id":"","pricing_plan_id":"cebpf4jnsgd1na2vs0mg"},{"bike_id":"261f2914-f86b-4668-a408-95acc694e9f6","system_id":"levelo_inurba_marseille","lat":43.2706,"lon":5.42278,"is_reserved":false,"is_disabled":false,"rental_uris":{"android":"levelo://app?vid=261f2914-f86b-4668-a408-95acc694e9f6","ios":"levelo://app?vid=261f2914-f86b-4668-a408-95acc694e9f6"},"vehicle_type_id":"4","last_reported":1779198510,"current_range_meters":8000,"station_id":"ce4bhk92rcd13ifvqgb0","pricing_plan_id":"cebpf4jnsgd1na2vs0mg"},{"bike_id":"f2f488ba-de43-41cc-a461-3f4bec4e9c61","system_id":"levelo_inurba_marseille","lat":43.28418,"lon":5.3499,"is_reserved":false,"is_disabled":false,"rental_uris":{"android":"levelo://app?vid=f2f488ba-de43-41cc-a461-3f4bec4e9c61","ios":"levelo://app?vid=f2f488ba-de43-41cc-a461-3f4bec4e9c61"},"vehicle_type_id":"4","last_reported":1779198510,"current_range_meters":8000,"station_id":"ce4bhbh2rcd13ifvqepg","pricing_plan_id":"cebpf4jnsgd1na2vs0mg"},{"bike_id":"d304c8a2-d766-4f0b-83fd-5d48dbaa427e","system_id":"levelo_inurba_marseille","lat":43.30295,"lon":5.36902,"is_reserved":false,"is_disabled":false,"rental_uris":{"android":"levelo://app?vid=d304c8a2-d766-4f0b-83fd-5d48dbaa427e","ios":"levelo://app?vid=d304c8a2-d766-4f0b-83fd-5d48dbaa427e"},"vehicle_type_id":"4","last_reported":1779198510,"current_range_meters":8000,"station_id":"ce4bgqh2rcd13ifvqc5g","pricing_plan_id":"cebpf4jnsgd1na2vs0mg"},{"bike_id":"408701cc-3f2d-4c32-b20d-587f50ccde82","system_id":"levelo_inurba_marseille","lat":43.305578,"lon":5.367156,"is_reserved":false,"is_disabled":false,"rental_uris":{"android":"levelo://app?vid=408701cc-3f2d-4c32-b20d-587f50ccde82","ios":"levelo://app?vid=408701cc-3f2d-4c32-b20d-587f50ccde82"},"vehicle_type_id":"4","last_reported":1779198510,"current_range_meters":8000,"station_id":"","pricing_plan_id":"cebpf4jnsgd1na2vs0mg"},{"bike_id":"414b6de7-1cac-4086-9b5f-cef15ba1412b","system_id":"levelo_inurba_marseille","lat":43.28368,"lon":5.38651,"is_reserved":false,"is_disabled":false,"rental_uris":{"android":"levelo://app?vid=414b6de7-1cac-4086-9b5f-cef15ba1412b","ios":"levelo://app?vid=414b6de7-1cac-4086-9b5f-cef15ba1412b"},"vehicle_type_id":"4","last_reported":1779198510,"current_range_meters":8000,"station_id":"ce4bh492rcd13ifvqdvg","pricing_plan_id":"cebpf4jnsgd1na2vs0mg"},{"bike_id":"387fe521-d53f-4c27-b5a9-9ecc876ee07a","system_id":"levelo_inurba_marseille","lat":43.29983,"lon":5.37179,"is_reserved":false,"is_disabled":true,"rental_uris":{"android":"levelo://app?vid=387fe521-d53f-4c27-b5a9-9ecc876ee07a","ios":"levelo://app?vid=387fe521-d53f-4c27-b5a9-9ecc876ee07a"},"vehicle_type_id":"4","last_reported":1779198510,"current_range_meters":8000,"station_id":"","pricing_plan_id":"cebpf4jnsgd1na2vs0mg"},{"bike_id":"2ace50de-e42c-4fc2-a089-62a72d9244dd","system_id":"levelo_inurba_marseille","lat":43.29532,"lon":5.37505,"is_reserved":false,"is_disabled":false,"rental_uris":{"android":"levelo://app?vid=2ace50de-e42c-4fc2-a089-62a72d9244dd","ios":"levelo://app?vid=2ace50de-e42c-4fc2-a089-62a72d9244dd"},"vehicle_type_id":"4","last_reported":1779198510,"current_range_meters":8000,"station_id":"ce4bgkp2rcd13ifvqbmg","pricing_plan_id":"cebpf4jnsgd1na2vs0mg"},{"bike_id":"ca1fdd17-2e10-46ff-9df2-d07e431e11fa","system_id":"levelo_inurba_marseille","lat":43.3092,"lon":5.36821,"is_reserved":false,"is_disabled":false,"rental_uris":{"android":"levelo://app?vid=ca1fdd17-2e10-46ff-9df2-d07e431e11fa","ios":"levelo://app?vid=ca1fdd17-2e10-46ff-9df2-d07e431e11fa"},"vehicle_type_id":"4","last_reported":1779198510,"current_range_meters":8400,"station_id":"ce4bgn92rcd13ifvqbvg","pricing_plan_id":"cebpf4jnsgd1na2vs0mg"},{"bike_id":"fcd263b5-149d-40a3-a150-d7680cfcecab","system_id":"levelo_inurba_marseille","lat":43.28084,"lon":5.39661,"is_reserved":false,"is_disabled":false,"rental_uris":{"android":"levelo://app?vid=fcd263b5-149d-40a3-a150-d7680cfcecab","ios":"levelo://app?vid=fcd263b5-149d-40a3-a150-d7680cfcecab"},"vehicle_type_id":"4","last_reported":1779198510,"current_range_meters":8400,"station_id":"ce4bho12rcd13ifvqh2g","pricing_plan_id":"cebpf4jnsgd1na2vs0mg"},{"bike_id":"c46a8f8e-5bde-4459-b72a-15f7581d746a","system_id":"levelo_inurba_marseille","lat":43.27386,"lon":5.36257,"is_reserved":false,"is_disabled":false,"rental_uris":{"android":"levelo://app?vid=c46a8f8e-5bde-4459-b72a-15f7581d746a","ios":"levelo://app?vid=c46a8f8e-5bde-4459-b72a-15f7581d746a"},"vehicle_type_id":"4","last_reported":1779198510,"current_range_meters":8400,"station_id":"ce4bhbh2rcd13ifvqeo0","pricing_plan_id":"cebpf4jnsgd1na2vs0mg"},{"bike_id":"fc97ef09-a893-4ec9-84b9-1f6bb3ff3fd2","system_id":"levelo_inurba_marseille","lat":43.27334,"lon":5.39105,"is_reserved":false,"is_disabled":false,"rental_uris":{"android":"levelo://app?vid=fc97ef09-a893-4ec9-84b9-1f6bb3ff3fd2","ios":"levelo://app?vid=fc97ef09-a893-4ec9-84b9-1f6bb3ff3fd2"},"vehicle_type_id":"4","last_reported":1779198510,"current_range_meters":8400,"station_id":"ce4bhgp2rcd13ifvqfe0","pricing_plan_id":"cebpf4jnsgd1na2vs0mg"},{"bike_id":"3f42a6d9-721c-4045-81f8-56e377ee5c6e","system_id":"levelo_inurba_marseille","lat":43.26486,"lon":5.3954,"is_reserved":false,"is_disabled":true,"rental_uris":{"android":"levelo://app?vid=3f42a6d9-721c-4045-81f8-56e377ee5c6e","ios":"levelo://app?vid=3f42a6d9-721c-4045-81f8-56e377ee5c6e"},"vehicle_type_id":"4","last_reported":1779198510,"current_range_meters":8400,"station_id":"ce4bhi12rcd13ifvqfq0","pricing_plan_id":"cebpf4jnsgd1na2vs0mg"},{"bike_id":"f7e32718-581c-4a38-98f3-e7f5dd231911","system_id":"levelo_inurba_marseille","lat":43.28699,"lon":5.46693,"is_reserved":false,"is_disabled":false,"rental_uris":{"android":"levelo://app?vid=f7e32718-581c-4a38-98f3-e7f5dd231911","ios":"levelo://app?vid=f7e32718-581c-4a38-98f3-e7f5dd231911"},"vehicle_type_id":"4","last_reported":1779198510,"current_range_meters":8400,"station_id":"st_d6tc3vkotcvc738tfjhg","pricing_plan_id":"cebpf4jnsgd1na2vs0mg"},{"bike_id":"40e11415-186d-4a53-ac50-ac693db6945a","system_id":"levelo_inurba_marseille","lat":43.33545,"lon":5.37476,"is_reserved":false,"is_disabled":false,"rental_uris":{"android":"levelo://app?vid=40e11415-186d-4a53-ac50-ac693db6945a","ios":"levelo://app?vid=40e11415-186d-4a53-ac50-ac693db6945a"},"vehicle_type_id":"4","last_reported":1779198510,"current_range_meters":8400,"station_id":"st_d46tts09ee8s73dlu43g","pricing_plan_id":"cebpf4jnsgd1na2vs0mg"},{"bike_id":"98d0ff40-d434-4be0-8ea7-ad736c13f5fe","system_id":"levelo_inurba_marseille","lat":43.25582,"lon":5.38235,"is_reserved":false,"is_disabled":false,"rental_uris":{"android":"levelo://app?vid=98d0ff40-d434-4be0-8ea7-ad736c13f5fe","ios":"levelo://app?vid=98d0ff40-d434-4be0-8ea7-ad736c13f5fe"},"vehicle_type_id":"4","last_reported":1779198510,"current_range_meters":8400,"station_id":"ce4bhih2rcd13ifvqfs0","pricing_plan_id":"cebpf4jnsgd1na2vs0mg"},{"bike_id":"f7660904-1790-442b-8f7d-2beaac9d6092","system_id":"levelo_inurba_marseille","lat":43.28277,"lon":5.35079,"is_reserved":false,"is_disabled":false,"rental_uris":{"android":"levelo://app?vid=f7660904-1790-442b-8f7d-2beaac9d6092","ios":"levelo://app?vid=f7660904-1790-442b-8f7d-2beaac9d6092"},"vehicle_type_id":"4","last_reported":1779198510,"current_range_meters":8400,"station_id":"ce4bhbp2rcd13ifvqerg","pricing_plan_id":"cebpf4jnsgd1na2vs0mg"},{"bike_id":"4c2030bf-0167-4aa1-99c3-9d88ff9fab34","system_id":"levelo_inurba_marseille","lat":43.27917,"lon":5.39577,"is_reserved":false,"is_disabled":false,"rental_uris":{"android":"levelo://app?vid=4c2030bf-0167-4aa1-99c3-9d88ff9fab34","ios":"levelo://app?vid=4c2030bf-0167-4aa1-99c3-9d88ff9fab34"},"vehicle_type_id":"4","last_reported":1779198510,"current_range_meters":8400,"station_id":"ce4bhf92rcd13ifvqf40","pricing_plan_id":"cebpf4jnsgd1na2vs0mg"},{"bike_id":"70fa82b7-6ab6-401e-87ef-e9b8f74ed0f2","system_id":"levelo_inurba_marseille","lat":43.33072,"lon":5.38068,"is_reserved":false,"is_disabled":false,"rental_uris":{"android":"levelo://app?vid=70fa82b7-6ab6-401e-87ef-e9b8f74ed0f2","ios":"levelo://app?vid=70fa82b7-6ab6-401e-87ef-e9b8f74ed0f2"},"vehicle_type_id":"4","last_reported":1779198510,"current_range_meters":8400,"station_id":"st_d46cu089ee8s73dldbu0","pricing_plan_id":"cebpf4jnsgd1na2vs0mg"},{"bike_id":"5c85e60f-d69d-4b80-b7e9-c5f0ef32684f","system_id":"levelo_inurba_marseille","lat":43.27376,"lon":5.36258,"is_reserved":false,"is_disabled":false,"rental_uris":{"android":"levelo://app?vid=5c85e60f-d69d-4b80-b7e9-c5f0ef32684f","ios":"levelo://app?vid=5c85e60f-d69d-4b80-b7e9-c5f0ef32684f"},"vehicle_type_id":"4","last_reported":1779198510,"current_range_meters":8400,"station_id":"ce4bhbh2rcd13ifvqeo0","pricing_plan_id":"cebpf4jnsgd1na2vs0mg"},{"bike_id":"bd825aa7-1280-4918-9fa7-c6cb9a73e3e9","system_id":"levelo_inurba_marseille","lat":43.28038,"lon":5.3694,"is_reserved":false,"is_disabled":false,"rental_uris":{"android":"levelo://app?vid=bd825aa7-1280-4918-9fa7-c6cb9a73e3e9","ios":"levelo://app?vid=bd825aa7-1280-4918-9fa7-c6cb9a73e3e9"},"vehicle_type_id":"4","last_reported":1779198510,"current_range_meters":8400,"station_id":"ce4bha12rcd13ifvqef0","pricing_plan_id":"cebpf4jnsgd1na2vs0mg"},{"bike_id":"b0c83c94-f6ed-4b7b-b08c-e46573410511","system_id":"levelo_inurba_marseille","lat":43.31416,"lon":5.36652,"is_reserved":false,"is_disabled":false,"rental_uris":{"android":"levelo://app?vid=b0c83c94-f6ed-4b7b-b08c-e46573410511","ios":"levelo://app?vid=b0c83c94-f6ed-4b7b-b08c-e46573410511"},"vehicle_type_id":"4","last_reported":1779198510,"current_range_meters":8400,"station_id":"","pricing_plan_id":"cebpf4jnsgd1na2vs0mg"},{"bike_id":"f4ac26ba-6af2-4a73-af45-c735269cfee8","system_id":"levelo_inurba_marseille","lat":43.23188,"lon":5.3999,"is_reserved":false,"is_disabled":false,"rental_uris":{"android":"levelo://app?vid=f4ac26ba-6af2-4a73-af45-c735269cfee8","ios":"levelo://app?vid=f4ac26ba-6af2-4a73-af45-c735269cfee8"},"vehicle_type_id":"4","last_reported":1779198510,"current_range_meters":8400,"station_id":"ce4bhn12rcd13ifvqgqg","pricing_plan_id":"cebpf4jnsgd1na2vs0mg"},{"bike_id":"3900c272-6a80-4424-968a-5352761b39dd","system_id":"levelo_inurba_marseille","lat":43.299101,"lon":5.38155,"is_reserved":false,"is_disabled":false,"rental_uris":{"android":"levelo://app?vid=3900c272-6a80-4424-968a-5352761b39dd","ios":"levelo://app?vid=3900c272-6a80-4424-968a-5352761b39dd"},"vehicle_type_id":"4","last_reported":1779198510,"current_range_meters":8400,"station_id":"ce4bgj12rcd13ifvqbc0","pricing_plan_id":"cebpf4jnsgd1na2vs0mg"},{"bike_id":"b69ac1f5-7b1d-4eab-bdac-c51273c296d3","system_id":"levelo_inurba_marseille","lat":43.21748,"lon":5.34599,"is_reserved":false,"is_disabled":false,"rental_uris":{"android":"levelo://app?vid=b69ac1f5-7b1d-4eab-bdac-c51273c296d3","ios":"levelo://app?vid=b69ac1f5-7b1d-4eab-bdac-c51273c296d3"},"vehicle_type_id":"4","last_reported":1779198510,"current_range_meters":8400,"station_id":"st_cvj6r9ubvosntc0bgbag","pricing_plan_id":"cebpf4jnsgd1na2vs0mg"},{"bike_id":"bd4d89de-cc54-4b2f-a6c3-a00399faaf0f","system_id":"levelo_inurba_marseille","lat":43.27065,"lon":5.42248,"is_reserved":false,"is_disabled":false,"rental_uris":{"android":"levelo://app?vid=bd4d89de-cc54-4b2f-a6c3-a00399faaf0f","ios":"levelo://app?vid=bd4d89de-cc54-4b2f-a6c3-a00399faaf0f"},"vehicle_type_id":"4","last_reported":1779198510,"current_range_meters":8800,"station_id":"ce4bhk92rcd13ifvqgb0","pricing_plan_id":"cebpf4jnsgd1na2vs0mg"},{"bike_id":"3b636412-1871-4a01-a46b-19502fa84501","system_id":"levelo_inurba_marseille","lat":43.30718,"lon":5.36831,"is_reserved":false,"is_disabled":false,"rental_uris":{"android":"levelo://app?vid=3b636412-1871-4a01-a46b-19502fa84501","ios":"levelo://app?vid=3b636412-1871-4a01-a46b-19502fa84501"},"vehicle_type_id":"4","last_reported":1779198510,"current_range_meters":8800,"station_id":"","pricing_plan_id":"cebpf4jnsgd1na2vs0mg"},{"bike_id":"2c373202-f4c6-4663-8a3c-37276397e0cc","system_id":"levelo_inurba_marseille","lat":43.31353,"lon":5.36701,"is_reserved":false,"is_disabled":false,"rental_uris":{"android":"levelo://app?vid=2c373202-f4c6-4663-8a3c-37276397e0cc","ios":"levelo://app?vid=2c373202-f4c6-4663-8a3c-37276397e0cc"},"vehicle_type_id":"4","last_reported":1779198510,"current_range_meters":8800,"station_id":"ce4bgr92rcd13ifvqc6g","pricing_plan_id":"cebpf4jnsgd1na2vs0mg"},{"bike_id":"43cdbea8-df76-40e1-9a76-0694e77cf450","system_id":"levelo_inurba_marseille","lat":43.26219,"lon":5.37911,"is_reserved":false,"is_disabled":false,"rental_uris":{"android":"levelo://app?vid=43cdbea8-df76-40e1-9a76-0694e77cf450","ios":"levelo://app?vid=43cdbea8-df76-40e1-9a76-0694e77cf450"},"vehicle_type_id":"4","last_reported":1779198510,"current_range_meters":8800,"station_id":"ce4bhjp2rcd13ifvqg90","pricing_plan_id":"cebpf4jnsgd1na2vs0mg"},{"bike_id":"7c7fb249-fc8e-4d79-a1ce-dd5b0f183060","system_id":"levelo_inurba_marseille","lat":43.29803,"lon":5.44071,"is_reserved":false,"is_disabled":false,"rental_uris":{"android":"levelo://app?vid=7c7fb249-fc8e-4d79-a1ce-dd5b0f183060","ios":"levelo://app?vid=7c7fb249-fc8e-4d79-a1ce-dd5b0f183060"},"vehicle_type_id":"4","last_reported":1779198510,"current_range_meters":8800,"station_id":"st_d3jp68qikq2c7381ktn0","pricing_plan_id":"cebpf4jnsgd1na2vs0mg"},{"bike_id":"1b4d6b40-a210-44c0-a634-f0b8e27385fe","system_id":"levelo_inurba_marseille","lat":43.29939,"lon":5.36539,"is_reserved":false,"is_disabled":false,"rental_uris":{"android":"levelo://app?vid=1b4d6b40-a210-44c0-a634-f0b8e27385fe","ios":"levelo://app?vid=1b4d6b40-a210-44c0-a634-f0b8e27385fe"},"vehicle_type_id":"4","last_reported":1779198510,"current_range_meters":8800,"station_id":"ce4bgm92rcd13ifvqbr0","pricing_plan_id":"cebpf4jnsgd1na2vs0mg"},{"bike_id":"27336fbd-b0a6-4f71-b2c2-e7337278a6ba","system_id":"levelo_inurba_marseille","lat":43.26525,"lon":5.37332,"is_reserved":false,"is_disabled":false,"rental_uris":{"android":"levelo://app?vid=27336fbd-b0a6-4f71-b2c2-e7337278a6ba","ios":"levelo://app?vid=27336fbd-b0a6-4f71-b2c2-e7337278a6ba"},"vehicle_type_id":"4","last_reported":1779198510,"current_range_meters":8800,"station_id":"ce4bhg12rcd13ifvqf70","pricing_plan_id":"cebpf4jnsgd1na2vs0mg"},{"bike_id":"d2abe37c-883e-4b78-abe7-962a451ef821","system_id":"levelo_inurba_marseille","lat":43.28617,"lon":5.35096,"is_reserved":false,"is_disabled":false,"rental_uris":{"android":"levelo://app?vid=d2abe37c-883e-4b78-abe7-962a451ef821","ios":"levelo://app?vid=d2abe37c-883e-4b78-abe7-962a451ef821"},"vehicle_type_id":"4","last_reported":1779198510,"current_range_meters":8800,"station_id":"ce4bhch2rcd13ifvqeug","pricing_plan_id":"cebpf4jnsgd1na2vs0mg"},{"bike_id":"6af173ba-5696-4b0e-98a1-bbf9c441a271","system_id":"levelo_inurba_marseille","lat":43.27497,"lon":5.42448,"is_reserved":false,"is_disabled":false,"rental_uris":{"android":"levelo://app?vid=6af173ba-5696-4b0e-98a1-bbf9c441a271","ios":"levelo://app?vid=6af173ba-5696-4b0e-98a1-bbf9c441a271"},"vehicle_type_id":"4","last_reported":1779198510,"current_range_meters":8800,"station_id":"ce4bhn92rcd13ifvqgrg","pricing_plan_id":"cebpf4jnsgd1na2vs0mg"},{"bike_id":"75f75e9c-d7a2-4994-9350-8f55536b0afd","system_id":"levelo_inurba_marseille","lat":43.30979,"lon":5.42986,"is_reserved":false,"is_disabled":false,"rental_uris":{"android":"levelo://app?vid=75f75e9c-d7a2-4994-9350-8f55536b0afd","ios":"levelo://app?vid=75f75e9c-d7a2-4994-9350-8f55536b0afd"},"vehicle_type_id":"4","last_reported":1779198510,"current_range_meters":8800,"station_id":"","pricing_plan_id":"cebpf4jnsgd1na2vs0mg"},{"bike_id":"94133b29-971d-48eb-9475-ae0b64fbd116","system_id":"levelo_inurba_marseille","lat":43.28205,"lon":5.38135,"is_reserved":false,"is_disabled":false,"rental_uris":{"android":"levelo://app?vid=94133b29-971d-48eb-9475-ae0b64fbd116","ios":"levelo://app?vid=94133b29-971d-48eb-9475-ae0b64fbd116"},"vehicle_type_id":"4","last_reported":1779198510,"current_range_meters":8800,"station_id":"","pricing_plan_id":"cebpf4jnsgd1na2vs0mg"},{"bike_id":"f3608c92-268c-4644-b133-2a856d723371","system_id":"levelo_inurba_marseille","lat":43.272105,"lon":5.391812,"is_reserved":false,"is_disabled":false,"rental_uris":{"android":"levelo://app?vid=f3608c92-268c-4644-b133-2a856d723371","ios":"levelo://app?vid=f3608c92-268c-4644-b133-2a856d723371"},"vehicle_type_id":"4","last_reported":1779198510,"current_range_meters":8800,"station_id":"ce4bhhp2rcd13ifvqfm0","pricing_plan_id":"cebpf4jnsgd1na2vs0mg"},{"bike_id":"c7f56980-94ea-4853-bb41-ebfb057785a9","system_id":"levelo_inurba_marseille","lat":43.27382,"lon":5.36253,"is_reserved":false,"is_disabled":false,"rental_uris":{"android":"levelo://app?vid=c7f56980-94ea-4853-bb41-ebfb057785a9","ios":"levelo://app?vid=c7f56980-94ea-4853-bb41-ebfb057785a9"},"vehicle_type_id":"4","last_reported":1779198510,"current_range_meters":8800,"station_id":"ce4bhbh2rcd13ifvqeo0","pricing_plan_id":"cebpf4jnsgd1na2vs0mg"},{"bike_id":"e22890ca-9c74-4f11-a936-346ad4997718","system_id":"levelo_inurba_marseille","lat":43.31225,"lon":5.36809,"is_reserved":false,"is_disabled":false,"rental_uris":{"android":"levelo://app?vid=e22890ca-9c74-4f11-a936-346ad4997718","ios":"levelo://app?vid=e22890ca-9c74-4f11-a936-346ad4997718"},"vehicle_type_id":"4","last_reported":1779198510,"current_range_meters":8800,"station_id":"ce4bgl92rcd13ifvqbq0","pricing_plan_id":"cebpf4jnsgd1na2vs0mg"},{"bike_id":"8e0c3a71-88fb-4dca-a732-c4fb201abb3e","system_id":"levelo_inurba_marseille","lat":43.30592,"lon":5.37472,"is_reserved":false,"is_disabled":true,"rental_uris":{"android":"levelo://app?vid=8e0c3a71-88fb-4dca-a732-c4fb201abb3e","ios":"levelo://app?vid=8e0c3a71-88fb-4dca-a732-c4fb201abb3e"},"vehicle_type_id":"4","last_reported":1779198510,"current_range_meters":8800,"station_id":"","pricing_plan_id":"cebpf4jnsgd1na2vs0mg"},{"bike_id":"291bce7d-95a9-4f5c-a2d8-de5b55889c52","system_id":"levelo_inurba_marseille","lat":43.29194,"lon":5.37279,"is_reserved":false,"is_disabled":false,"rental_uris":{"android":"levelo://app?vid=291bce7d-95a9-4f5c-a2d8-de5b55889c52","ios":"levelo://app?vid=291bce7d-95a9-4f5c-a2d8-de5b55889c52"},"vehicle_type_id":"4","last_reported":1779198510,"current_range_meters":8800,"station_id":"","pricing_plan_id":"cebpf4jnsgd1na2vs0mg"},{"bike_id":"46be8dd3-948b-467e-ad94-fd338307b9c7","system_id":"levelo_inurba_marseille","lat":43.2998,"lon":5.36745,"is_reserved":false,"is_disabled":false,"rental_uris":{"android":"levelo://app?vid=46be8dd3-948b-467e-ad94-fd338307b9c7","ios":"levelo://app?vid=46be8dd3-948b-467e-ad94-fd338307b9c7"},"vehicle_type_id":"4","last_reported":1779198510,"current_range_meters":8800,"station_id":"","pricing_plan_id":"cebpf4jnsgd1na2vs0mg"},{"bike_id":"bc3fe07f-ae95-42d2-91f0-d34745765c9e","system_id":"levelo_inurba_marseille","lat":43.24458,"lon":5.42523,"is_reserved":false,"is_disabled":false,"rental_uris":{"android":"levelo://app?vid=bc3fe07f-ae95-42d2-91f0-d34745765c9e","ios":"levelo://app?vid=bc3fe07f-ae95-42d2-91f0-d34745765c9e"},"vehicle_type_id":"4","last_reported":1779198510,"current_range_meters":8800,"station_id":"st_d4a3vfp97mjs738cd8kg","pricing_plan_id":"cebpf4jnsgd1na2vs0mg"},{"bike_id":"cfbfdf60-d81e-4d76-86b0-d916d82fdeb8","system_id":"levelo_inurba_marseille","lat":43.21743,"lon":5.34602,"is_reserved":false,"is_disabled":false,"rental_uris":{"android":"levelo://app?vid=cfbfdf60-d81e-4d76-86b0-d916d82fdeb8","ios":"levelo://app?vid=cfbfdf60-d81e-4d76-86b0-d916d82fdeb8"},"vehicle_type_id":"4","last_reported":1779198510,"current_range_meters":8800,"station_id":"","pricing_plan_id":"cebpf4jnsgd1na2vs0mg"},{"bike_id":"629d6bcb-91f0-4ae2-9282-59e0c256b391","system_id":"levelo_inurba_marseille","lat":43.32365,"lon":5.36734,"is_reserved":false,"is_disabled":false,"rental_uris":{"android":"levelo://app?vid=629d6bcb-91f0-4ae2-9282-59e0c256b391","ios":"levelo://app?vid=629d6bcb-91f0-4ae2-9282-59e0c256b391"},"vehicle_type_id":"4","last_reported":1779198510,"current_range_meters":8800,"station_id":"ce4bhsh2rcd13ifvqi2g","pricing_plan_id":"cebpf4jnsgd1na2vs0mg"},{"bike_id":"b5225d9b-2e1e-4060-9ca2-c709e98a1ccf","system_id":"levelo_inurba_marseille","lat":43.31339,"lon":5.424,"is_reserved":false,"is_disabled":false,"rental_uris":{"android":"levelo://app?vid=b5225d9b-2e1e-4060-9ca2-c709e98a1ccf","ios":"levelo://app?vid=b5225d9b-2e1e-4060-9ca2-c709e98a1ccf"},"vehicle_type_id":"4","last_reported":1779198510,"current_range_meters":8800,"station_id":"","pricing_plan_id":"cebpf4jnsgd1na2vs0mg"},{"bike_id":"225a0f82-fdfb-4f97-9365-0a8632569746","system_id":"levelo_inurba_marseille","lat":43.29763,"lon":5.42767,"is_reserved":false,"is_disabled":false,"rental_uris":{"android":"levelo://app?vid=225a0f82-fdfb-4f97-9365-0a8632569746","ios":"levelo://app?vid=225a0f82-fdfb-4f97-9365-0a8632569746"},"vehicle_type_id":"4","last_reported":1779198510,"current_range_meters":8800,"station_id":"st_d3md5207bmas73dh9klg","pricing_plan_id":"cebpf4jnsgd1na2vs0mg"},{"bike_id":"e35ca50a-e252-4fec-af7a-48a17bebc951","system_id":"levelo_inurba_marseille","lat":43.295856,"lon":5.375158,"is_reserved":false,"is_disabled":false,"rental_uris":{"android":"levelo://app?vid=e35ca50a-e252-4fec-af7a-48a17bebc951","ios":"levelo://app?vid=e35ca50a-e252-4fec-af7a-48a17bebc951"},"vehicle_type_id":"4","last_reported":1779198510,"current_range_meters":8800,"station_id":"ce4bgh92rcd13ifvqb50","pricing_plan_id":"cebpf4jnsgd1na2vs0mg"},{"bike_id":"ef5cabfd-e604-46a5-96ee-f70b88e313bb","system_id":"levelo_inurba_marseille","lat":43.24389,"lon":5.37059,"is_reserved":false,"is_disabled":false,"rental_uris":{"android":"levelo://app?vid=ef5cabfd-e604-46a5-96ee-f70b88e313bb","ios":"levelo://app?vid=ef5cabfd-e604-46a5-96ee-f70b88e313bb"},"vehicle_type_id":"4","last_reported":1779198510,"current_range_meters":8800,"station_id":"ce4bhhh2rcd13ifvqfk0","pricing_plan_id":"cebpf4jnsgd1na2vs0mg"},{"bike_id":"c9c8477c-0366-474a-bd3e-4479e682cbea","system_id":"levelo_inurba_marseille","lat":43.26062,"lon":5.39411,"is_reserved":false,"is_disabled":false,"rental_uris":{"android":"levelo://app?vid=c9c8477c-0366-474a-bd3e-4479e682cbea","ios":"levelo://app?vid=c9c8477c-0366-474a-bd3e-4479e682cbea"},"vehicle_type_id":"4","last_reported":1779198510,"current_range_meters":9200,"station_id":"ce4bhh92rcd13ifvqfj0","pricing_plan_id":"cebpf4jnsgd1na2vs0mg"},{"bike_id":"b505cf3a-7498-4230-a91c-57c98542569b","system_id":"levelo_inurba_marseille","lat":43.21748,"lon":5.34587,"is_reserved":false,"is_disabled":false,"rental_uris":{"android":"levelo://app?vid=b505cf3a-7498-4230-a91c-57c98542569b","ios":"levelo://app?vid=b505cf3a-7498-4230-a91c-57c98542569b"},"vehicle_type_id":"4","last_reported":1779198510,"current_range_meters":9200,"station_id":"st_cvj6r9ubvosntc0bgbag","pricing_plan_id":"cebpf4jnsgd1na2vs0mg"},{"bike_id":"bd1eedc4-b5fc-4649-aa2a-cda02ea5977a","system_id":"levelo_inurba_marseille","lat":43.27195,"lon":5.39224,"is_reserved":false,"is_disabled":false,"rental_uris":{"android":"levelo://app?vid=bd1eedc4-b5fc-4649-aa2a-cda02ea5977a","ios":"levelo://app?vid=bd1eedc4-b5fc-4649-aa2a-cda02ea5977a"},"vehicle_type_id":"4","last_reported":1779198510,"current_range_meters":9200,"station_id":"ce4bhhp2rcd13ifvqfm0","pricing_plan_id":"cebpf4jnsgd1na2vs0mg"},{"bike_id":"eddc2000-daaa-4830-9cb2-7762df767b43","system_id":"levelo_inurba_marseille","lat":43.23199,"lon":5.39997,"is_reserved":false,"is_disabled":false,"rental_uris":{"android":"levelo://app?vid=eddc2000-daaa-4830-9cb2-7762df767b43","ios":"levelo://app?vid=eddc2000-daaa-4830-9cb2-7762df767b43"},"vehicle_type_id":"4","last_reported":1779198510,"current_range_meters":9200,"station_id":"ce4bhn12rcd13ifvqgqg","pricing_plan_id":"cebpf4jnsgd1na2vs0mg"},{"bike_id":"3fdb8235-6771-4039-83a2-0b935e39a62d","system_id":"levelo_inurba_marseille","lat":43.31353,"lon":5.36731,"is_reserved":false,"is_disabled":false,"rental_uris":{"android":"levelo://app?vid=3fdb8235-6771-4039-83a2-0b935e39a62d","ios":"levelo://app?vid=3fdb8235-6771-4039-83a2-0b935e39a62d"},"vehicle_type_id":"4","last_reported":1779198510,"current_range_meters":9200,"station_id":"ce4bgr92rcd13ifvqc6g","pricing_plan_id":"cebpf4jnsgd1na2vs0mg"},{"bike_id":"436e04c8-e286-44d9-9664-4699e6954d4a","system_id":"levelo_inurba_marseille","lat":43.282768,"lon":5.350585,"is_reserved":false,"is_disabled":false,"rental_uris":{"android":"levelo://app?vid=436e04c8-e286-44d9-9664-4699e6954d4a","ios":"levelo://app?vid=436e04c8-e286-44d9-9664-4699e6954d4a"},"vehicle_type_id":"4","last_reported":1779198510,"current_range_meters":9200,"station_id":"ce4bhbp2rcd13ifvqerg","pricing_plan_id":"cebpf4jnsgd1na2vs0mg"},{"bike_id":"c29e9ffd-3c24-46ad-993b-ec0ed68f7aef","system_id":"levelo_inurba_marseille","lat":43.28906,"lon":5.36397,"is_reserved":false,"is_disabled":false,"rental_uris":{"android":"levelo://app?vid=c29e9ffd-3c24-46ad-993b-ec0ed68f7aef","ios":"levelo://app?vid=c29e9ffd-3c24-46ad-993b-ec0ed68f7aef"},"vehicle_type_id":"4","last_reported":1779198510,"current_range_meters":9200,"station_id":"ce4bhc92rcd13ifvqetg","pricing_plan_id":"cebpf4jnsgd1na2vs0mg"},{"bike_id":"576987e7-5884-4240-aa8e-a3dbed8876d7","system_id":"levelo_inurba_marseille","lat":43.24453,"lon":5.42535,"is_reserved":false,"is_disabled":false,"rental_uris":{"android":"levelo://app?vid=576987e7-5884-4240-aa8e-a3dbed8876d7","ios":"levelo://app?vid=576987e7-5884-4240-aa8e-a3dbed8876d7"},"vehicle_type_id":"4","last_reported":1779198510,"current_range_meters":9200,"station_id":"st_d4a3vfp97mjs738cd8kg","pricing_plan_id":"cebpf4jnsgd1na2vs0mg"},{"bike_id":"f2caf6cf-321b-4802-9c9e-33c894fa8d4a","system_id":"levelo_inurba_marseille","lat":43.28675,"lon":5.3867,"is_reserved":false,"is_disabled":false,"rental_uris":{"android":"levelo://app?vid=f2caf6cf-321b-4802-9c9e-33c894fa8d4a","ios":"levelo://app?vid=f2caf6cf-321b-4802-9c9e-33c894fa8d4a"},"vehicle_type_id":"4","last_reported":1779198510,"current_range_meters":9200,"station_id":"ce4bh492rcd13ifvqdug","pricing_plan_id":"cebpf4jnsgd1na2vs0mg"},{"bike_id":"a7b91a98-37a9-4e86-8c32-6387f8155628","system_id":"levelo_inurba_marseille","lat":43.30558,"lon":5.36531,"is_reserved":false,"is_disabled":false,"rental_uris":{"android":"levelo://app?vid=a7b91a98-37a9-4e86-8c32-6387f8155628","ios":"levelo://app?vid=a7b91a98-37a9-4e86-8c32-6387f8155628"},"vehicle_type_id":"4","last_reported":1779198510,"current_range_meters":9200,"station_id":"ce4bgs12rcd13ifvqcag","pricing_plan_id":"cebpf4jnsgd1na2vs0mg"},{"bike_id":"e5ea93cd-6e5e-4621-9deb-3d090f3e8084","system_id":"levelo_inurba_marseille","lat":43.30963,"lon":5.39079,"is_reserved":false,"is_disabled":false,"rental_uris":{"android":"levelo://app?vid=e5ea93cd-6e5e-4621-9deb-3d090f3e8084","ios":"levelo://app?vid=e5ea93cd-6e5e-4621-9deb-3d090f3e8084"},"vehicle_type_id":"4","last_reported":1779198510,"current_range_meters":9200,"station_id":"ce4bgup2rcd13ifvqco0","pricing_plan_id":"cebpf4jnsgd1na2vs0mg"},{"bike_id":"9cdf25a3-b061-4a6c-b0d7-a7fc5238edf0","system_id":"levelo_inurba_marseille","lat":43.21178,"lon":5.3499,"is_reserved":false,"is_disabled":false,"rental_uris":{"android":"levelo://app?vid=9cdf25a3-b061-4a6c-b0d7-a7fc5238edf0","ios":"levelo://app?vid=9cdf25a3-b061-4a6c-b0d7-a7fc5238edf0"},"vehicle_type_id":"4","last_reported":1779198510,"current_range_meters":9200,"station_id":"","pricing_plan_id":"cebpf4jnsgd1na2vs0mg"},{"bike_id":"724ff4e7-e848-4668-b35a-410e6c05ee32","system_id":"levelo_inurba_marseille","lat":43.29618,"lon":5.38092,"is_reserved":false,"is_disabled":false,"rental_uris":{"android":"levelo://app?vid=724ff4e7-e848-4668-b35a-410e6c05ee32","ios":"levelo://app?vid=724ff4e7-e848-4668-b35a-410e6c05ee32"},"vehicle_type_id":"4","last_reported":1779198510,"current_range_meters":9200,"station_id":"ce4bgl12rcd13ifvqbo0","pricing_plan_id":"cebpf4jnsgd1na2vs0mg"},{"bike_id":"ec16e8fa-ce90-4e52-8028-c7f584c3dd64","system_id":"levelo_inurba_marseille","lat":43.25644,"lon":5.38519,"is_reserved":false,"is_disabled":false,"rental_uris":{"android":"levelo://app?vid=ec16e8fa-ce90-4e52-8028-c7f584c3dd64","ios":"levelo://app?vid=ec16e8fa-ce90-4e52-8028-c7f584c3dd64"},"vehicle_type_id":"4","last_reported":1779198510,"current_range_meters":9200,"station_id":"","pricing_plan_id":"cebpf4jnsgd1na2vs0mg"},{"bike_id":"f00dbe32-4e32-429b-b63a-54e922cc0105","system_id":"levelo_inurba_marseille","lat":43.27323,"lon":5.39095,"is_reserved":false,"is_disabled":true,"rental_uris":{"android":"levelo://app?vid=f00dbe32-4e32-429b-b63a-54e922cc0105","ios":"levelo://app?vid=f00dbe32-4e32-429b-b63a-54e922cc0105"},