{"last_updated":1689797225,"ttl":30,"version":"2.2","data":{"bikes":[{"bike_id":"36b6fc2d-7378-40b4-8a55-03a25c895908","system_id":"levelo_inurba_marseille","lat":43.313391,"lon":5.36706,"is_reserved":false,"is_disabled":false,"rental_uris":{"android":"levelo://app?vid=36b6fc2d-7378-40b4-8a55-03a25c895908","ios":"levelo://app?vid=36b6fc2d-7378-40b4-8a55-03a25c895908"},"vehicle_type_id":"4","last_reported":1689797226,"current_range_meters":11200,"station_id":"ce4bgr92rcd13ifvqc6g","pricing_plan_id":"free"},{"bike_id":"07c0b23e-7a98-479a-b96e-314eb623f6d6","system_id":"levelo_inurba_marseille","lat":43.312239,"lon":5.368562,"is_reserved":false,"is_disabled":false,"rental_uris":{"android":"levelo://app?vid=07c0b23e-7a98-479a-b96e-314eb623f6d6","ios":"levelo://app?vid=07c0b23e-7a98-479a-b96e-314eb623f6d6"},"vehicle_type_id":"4","last_reported":1689797226,"current_range_meters":3200,"station_id":"ce4bgl92rcd13ifvqbq0","pricing_plan_id":"free"},{"bike_id":"a00c2ffc-0fe0-4220-984c-9203641a844a","system_id":"levelo_inurba_marseille","lat":43.31226,"lon":5.36867,"is_reserved":false,"is_disabled":false,"rental_uris":{"android":"levelo://app?vid=a00c2ffc-0fe0-4220-984c-9203641a844a","ios":"levelo://app?vid=a00c2ffc-0fe0-4220-984c-9203641a844a"},"vehicle_type_id":"4","last_reported":1689797226,"current_range_meters":18000,"station_id":"ce4bgl92rcd13ifvqbq0","pricing_plan_id":"free"},{"bike_id":"6825c955-5d6a-4ab4-ac5a-add3f47d58c1","system_id":"levelo_inurba_marseille","lat":43.314811,"lon":5.373104,"is_reserved":false,"is_disabled":false,"rental_uris":{"android":"levelo://app?vid=6825c955-5d6a-4ab4-ac5a-add3f47d58c1","ios":"levelo://app?vid=6825c955-5d6a-4ab4-ac5a-add3f47d58c1"},"vehicle_type_id":"4","last_reported":1689797226,"current_range_meters":30400,"station_id":"ce4bgt12rcd13ifvqcd0","pricing_plan_id":"free"},{"bike_id":"62f3738f-26d2-43ab-86bf-592eb5da1b81","system_id":"levelo_inurba_marseille","lat":43.314811,"lon":5.373103,"is_reserved":false,"is_disabled":false,"rental_uris":{"android":"levelo://app?vid=62f3738f-26d2-43ab-86bf-592eb5da1b81","ios":"levelo://app?vid=62f3738f-26d2-43ab-86bf-592eb5da1b81"},"vehicle_type_id":"4","last_reported":1689797226,"current_range_meters":29600,"station_id":"ce4bgt12rcd13ifvqcd0","pricing_plan_id":"free"},{"bike_id":"4e5744a6-1dff-46ab-aded-6c43e7789cd1","system_id":"levelo_inurba_marseille","lat":43.314811,"lon":5.373103,"is_reserved":false,"is_disabled":false,"rental_uris":{"android":"levelo://app?vid=4e5744a6-1dff-46ab-aded-6c43e7789cd1","ios":"levelo://app?vid=4e5744a6-1dff-46ab-aded-6c43e7789cd1"},"vehicle_type_id":"4","last_reported":1689797226,"current_range_meters":16800,"station_id":"ce4bgt12rcd13ifvqcd0","pricing_plan_id":"free"},{"bike_id":"74839e9a-be24-4ada-92dc-668c0cee02dd","system_id":"levelo_inurba_marseille","lat":43.314811,"lon":5.373103,"is_reserved":false,"is_disabled":false,"rental_uris":{"android":"levelo://app?vid=74839e9a-be24-4ada-92dc-668c0cee02dd","ios":"levelo://app?vid=74839e9a-be24-4ada-92dc-668c0cee02dd"},"vehicle_type_id":"4","last_reported":1689797226,"current_range_meters":16800,"station_id":"ce4bgt12rcd13ifvqcd0","pricing_plan_id":"free"},{"bike_id":"115ddc84-9963-4371-ac88-90df75990d15","system_id":"levelo_inurba_marseille","lat":43.314811,"lon":5.373103,"is_reserved":false,"is_disabled":false,"rental_uris":{"android":"levelo://app?vid=115ddc84-9963-4371-ac88-90df75990d15","ios":"levelo://app?vid=115ddc84-9963-4371-ac88-90df75990d15"},"vehicle_type_id":"4","last_reported":1689797226,"current_range_meters":24000,"station_id":"ce4bgt12rcd13ifvqcd0","pricing_plan_id":"free"},{"bike_id":"8a9f8d2a-3734-4f6a-a888-ffa5fddb1d6d","system_id":"levelo_inurba_marseille","lat":43.314811,"lon":5.373103,"is_reserved":false,"is_disabled":false,"rental_uris":{"android":"levelo://app?vid=8a9f8d2a-3734-4f6a-a888-ffa5fddb1d6d","ios":"levelo://app?vid=8a9f8d2a-3734-4f6a-a888-ffa5fddb1d6d"},"vehicle_type_id":"4","last_reported":1689797226,"current_range_meters":6800,"station_id":"ce4bgt12rcd13ifvqcd0","pricing_plan_id":"free"},{"bike_id":"dfb209ec-86a1-4996-96c8-1302f8ac3fc1","system_id":"levelo_inurba_marseille","lat":43.314811,"lon":5.373103,"is_reserved":false,"is_disabled":false,"rental_uris":{"android":"levelo://app?vid=dfb209ec-86a1-4996-96c8-1302f8ac3fc1","ios":"levelo://app?vid=dfb209ec-86a1-4996-96c8-1302f8ac3fc1"},"vehicle_type_id":"4","last_reported":1689797226,"current_range_meters":8000,"station_id":"ce4bgt12rcd13ifvqcd0","pricing_plan_id":"free"},{"bike_id":"0b12a1dd-1564-4aa9-b61c-6fcd6a1ec6e0","system_id":"levelo_inurba_marseille","lat":43.314811,"lon":5.373103,"is_reserved":false,"is_disabled":false,"rental_uris":{"android":"levelo://app?vid=0b12a1dd-1564-4aa9-b61c-6fcd6a1ec6e0","ios":"levelo://app?vid=0b12a1dd-1564-4aa9-b61c-6fcd6a1ec6e0"},"vehicle_type_id":"4","last_reported":1689797226,"current_range_meters":25200,"station_id":"ce4bgt12rcd13ifvqcd0","pricing_plan_id":"free"},{"bike_id":"f24e3eea-1138-4597-86db-afb8e40f75fe","system_id":"levelo_inurba_marseille","lat":43.314811,"lon":5.373104,"is_reserved":false,"is_disabled":false,"rental_uris":{"android":"levelo://app?vid=f24e3eea-1138-4597-86db-afb8e40f75fe","ios":"levelo://app?vid=f24e3eea-1138-4597-86db-afb8e40f75fe"},"vehicle_type_id":"4","last_reported":1689797226,"current_range_meters":30000,"station_id":"ce4bgt12rcd13ifvqcd0","pricing_plan_id":"free"},{"bike_id":"360650f3-a957-4815-8ebd-1e40102227b7","system_id":"levelo_inurba_marseille","lat":43.31421,"lon":5.37356,"is_reserved":false,"is_disabled":false,"rental_uris":{"android":"levelo://app?vid=360650f3-a957-4815-8ebd-1e40102227b7","ios":"levelo://app?vid=360650f3-a957-4815-8ebd-1e40102227b7"},"vehicle_type_id":"4","last_reported":1689797226,"current_range_meters":29600,"station_id":"","pricing_plan_id":"free"},{"bike_id":"3f6dbbaf-ac80-4152-b174-cadbad3ab43c","system_id":"levelo_inurba_marseille","lat":43.309039,"lon":5.371797,"is_reserved":false,"is_disabled":false,"rental_uris":{"android":"levelo://app?vid=3f6dbbaf-ac80-4152-b174-cadbad3ab43c","ios":"levelo://app?vid=3f6dbbaf-ac80-4152-b174-cadbad3ab43c"},"vehicle_type_id":"4","last_reported":1689797226,"current_range_meters":24000,"station_id":"ce4bguh2rcd13ifvqckg","pricing_plan_id":"free"},{"bike_id":"9ebfdadf-eebb-4934-973d-55963c25c762","system_id":"levelo_inurba_marseille","lat":43.31575,"lon":5.37316,"is_reserved":false,"is_disabled":false,"rental_uris":{"android":"levelo://app?vid=9ebfdadf-eebb-4934-973d-55963c25c762","ios":"levelo://app?vid=9ebfdadf-eebb-4934-973d-55963c25c762"},"vehicle_type_id":"4","last_reported":1689797226,"current_range_meters":30800,"station_id":"","pricing_plan_id":"free"},{"bike_id":"8dab606f-2c1b-4486-94b1-66ef570c57d5","system_id":"levelo_inurba_marseille","lat":43.30888,"lon":5.37304,"is_reserved":false,"is_disabled":false,"rental_uris":{"android":"levelo://app?vid=8dab606f-2c1b-4486-94b1-66ef570c57d5","ios":"levelo://app?vid=8dab606f-2c1b-4486-94b1-66ef570c57d5"},"vehicle_type_id":"4","last_reported":1689797226,"current_range_meters":13200,"station_id":"","pricing_plan_id":"free"},{"bike_id":"f508272a-ab00-434e-841c-4959d5643898","system_id":"levelo_inurba_marseille","lat":43.31666,"lon":5.37305,"is_reserved":false,"is_disabled":false,"rental_uris":{"android":"levelo://app?vid=f508272a-ab00-434e-841c-4959d5643898","ios":"levelo://app?vid=f508272a-ab00-434e-841c-4959d5643898"},"vehicle_type_id":"4","last_reported":1689797226,"current_range_meters":20800,"station_id":"","pricing_plan_id":"free"},{"bike_id":"d5452eac-45ec-41ca-8734-58f25f4b1789","system_id":"levelo_inurba_marseille","lat":43.31313,"lon":5.37689,"is_reserved":false,"is_disabled":false,"rental_uris":{"android":"levelo://app?vid=d5452eac-45ec-41ca-8734-58f25f4b1789","ios":"levelo://app?vid=d5452eac-45ec-41ca-8734-58f25f4b1789"},"vehicle_type_id":"4","last_reported":1689797226,"current_range_meters":25200,"station_id":"","pricing_plan_id":"free"},{"bike_id":"a2e136f1-c728-4018-88c2-a46aa30aa3c2","system_id":"levelo_inurba_marseille","lat":43.305368,"lon":5.367343,"is_reserved":false,"is_disabled":false,"rental_uris":{"android":"levelo://app?vid=a2e136f1-c728-4018-88c2-a46aa30aa3c2","ios":"levelo://app?vid=a2e136f1-c728-4018-88c2-a46aa30aa3c2"},"vehicle_type_id":"4","last_reported":1689797226,"current_range_meters":20400,"station_id":"ce4bgrp2rcd13ifvqc9g","pricing_plan_id":"free"},{"bike_id":"cd5a9569-a628-41ae-8bcd-53d009eff38c","system_id":"levelo_inurba_marseille","lat":43.305368,"lon":5.367343,"is_reserved":false,"is_disabled":false,"rental_uris":{"android":"levelo://app?vid=cd5a9569-a628-41ae-8bcd-53d009eff38c","ios":"levelo://app?vid=cd5a9569-a628-41ae-8bcd-53d009eff38c"},"vehicle_type_id":"4","last_reported":1689797226,"current_range_meters":3600,"station_id":"ce4bgrp2rcd13ifvqc9g","pricing_plan_id":"free"},{"bike_id":"2d5356e1-a301-44bc-adc3-ec9c99c2dc6a","system_id":"levelo_inurba_marseille","lat":43.305989,"lon":5.37225,"is_reserved":false,"is_disabled":false,"rental_uris":{"android":"levelo://app?vid=2d5356e1-a301-44bc-adc3-ec9c99c2dc6a","ios":"levelo://app?vid=2d5356e1-a301-44bc-adc3-ec9c99c2dc6a"},"vehicle_type_id":"4","last_reported":1689797226,"current_range_meters":31200,"station_id":"ce4bgqh2rcd13ifvqc4g","pricing_plan_id":"free"},{"bike_id":"963abd27-037b-4a3f-b03f-b621e2b3f302","system_id":"levelo_inurba_marseille","lat":43.31691,"lon":5.37753,"is_reserved":false,"is_disabled":false,"rental_uris":{"android":"levelo://app?vid=963abd27-037b-4a3f-b03f-b621e2b3f302","ios":"levelo://app?vid=963abd27-037b-4a3f-b03f-b621e2b3f302"},"vehicle_type_id":"4","last_reported":1689797226,"current_range_meters":24800,"station_id":"ce4bgth2rcd13ifvqch0","pricing_plan_id":"free"},{"bike_id":"c0a093f0-cbe8-4784-a4fa-055fdbcae3ca","system_id":"levelo_inurba_marseille","lat":43.317075,"lon":5.377367,"is_reserved":false,"is_disabled":false,"rental_uris":{"android":"levelo://app?vid=c0a093f0-cbe8-4784-a4fa-055fdbcae3ca","ios":"levelo://app?vid=c0a093f0-cbe8-4784-a4fa-055fdbcae3ca"},"vehicle_type_id":"4","last_reported":1689797226,"current_range_meters":16400,"station_id":"ce4bgth2rcd13ifvqch0","pricing_plan_id":"free"},{"bike_id":"75f806f0-7871-4f16-a944-41aaaba75a74","system_id":"levelo_inurba_marseille","lat":43.317075,"lon":5.377367,"is_reserved":false,"is_disabled":false,"rental_uris":{"android":"levelo://app?vid=75f806f0-7871-4f16-a944-41aaaba75a74","ios":"levelo://app?vid=75f806f0-7871-4f16-a944-41aaaba75a74"},"vehicle_type_id":"4","last_reported":1689797226,"current_range_meters":22000,"station_id":"ce4bgth2rcd13ifvqch0","pricing_plan_id":"free"},{"bike_id":"e9ec95b0-da07-4d74-abad-d7e431214fe2","system_id":"levelo_inurba_marseille","lat":43.303046,"lon":5.368981,"is_reserved":false,"is_disabled":false,"rental_uris":{"android":"levelo://app?vid=e9ec95b0-da07-4d74-abad-d7e431214fe2","ios":"levelo://app?vid=e9ec95b0-da07-4d74-abad-d7e431214fe2"},"vehicle_type_id":"4","last_reported":1689797226,"current_range_meters":0,"station_id":"ce4bgqh2rcd13ifvqc5g","pricing_plan_id":"free"},{"bike_id":"70e4329b-ce0f-44a0-a426-a11b7ac1465c","system_id":"levelo_inurba_marseille","lat":43.303046,"lon":5.368981,"is_reserved":false,"is_disabled":false,"rental_uris":{"android":"levelo://app?vid=70e4329b-ce0f-44a0-a426-a11b7ac1465c","ios":"levelo://app?vid=70e4329b-ce0f-44a0-a426-a11b7ac1465c"},"vehicle_type_id":"4","last_reported":1689797226,"current_range_meters":3600,"station_id":"ce4bgqh2rcd13ifvqc5g","pricing_plan_id":"free"},{"bike_id":"c3be3ed4-091b-4a6d-bccb-64e0dc394b8c","system_id":"levelo_inurba_marseille","lat":43.315293,"lon":5.380349,"is_reserved":false,"is_disabled":false,"rental_uris":{"android":"levelo://app?vid=c3be3ed4-091b-4a6d-bccb-64e0dc394b8c","ios":"levelo://app?vid=c3be3ed4-091b-4a6d-bccb-64e0dc394b8c"},"vehicle_type_id":"4","last_reported":1689797226,"current_range_meters":21600,"station_id":"ce4bhsp2rcd13ifvqi50","pricing_plan_id":"free"},{"bike_id":"ea2adf0f-3fd5-485e-9332-fdf53469ff4d","system_id":"levelo_inurba_marseille","lat":43.315293,"lon":5.380349,"is_reserved":false,"is_disabled":false,"rental_uris":{"android":"levelo://app?vid=ea2adf0f-3fd5-485e-9332-fdf53469ff4d","ios":"levelo://app?vid=ea2adf0f-3fd5-485e-9332-fdf53469ff4d"},"vehicle_type_id":"4","last_reported":1689797226,"current_range_meters":5600,"station_id":"ce4bhsp2rcd13ifvqi50","pricing_plan_id":"free"},{"bike_id":"9599f709-3cb8-4be8-b6d2-64beea24b87e","system_id":"levelo_inurba_marseille","lat":43.315293,"lon":5.380349,"is_reserved":false,"is_disabled":false,"rental_uris":{"android":"levelo://app?vid=9599f709-3cb8-4be8-b6d2-64beea24b87e","ios":"levelo://app?vid=9599f709-3cb8-4be8-b6d2-64beea24b87e"},"vehicle_type_id":"4","last_reported":1689797226,"current_range_meters":6400,"station_id":"ce4bhsp2rcd13ifvqi50","pricing_plan_id":"free"},{"bike_id":"09642bd8-c908-4a32-9b51-23e6cf91238e","system_id":"levelo_inurba_marseille","lat":43.308012,"lon":5.381511,"is_reserved":false,"is_disabled":false,"rental_uris":{"android":"levelo://app?vid=09642bd8-c908-4a32-9b51-23e6cf91238e","ios":"levelo://app?vid=09642bd8-c908-4a32-9b51-23e6cf91238e"},"vehicle_type_id":"4","last_reported":1689797226,"current_range_meters":24800,"station_id":"ce4bgt12rcd13ifvqce0","pricing_plan_id":"free"},{"bike_id":"1a26c26c-c675-490b-ae38-6cfdccfa5853","system_id":"levelo_inurba_marseille","lat":43.308012,"lon":5.381511,"is_reserved":false,"is_disabled":false,"rental_uris":{"android":"levelo://app?vid=1a26c26c-c675-490b-ae38-6cfdccfa5853","ios":"levelo://app?vid=1a26c26c-c675-490b-ae38-6cfdccfa5853"},"vehicle_type_id":"4","last_reported":1689797226,"current_range_meters":9600,"station_id":"ce4bgt12rcd13ifvqce0","pricing_plan_id":"free"},{"bike_id":"f7393e79-dc72-4fc4-80a7-7b70ecf0aecd","system_id":"levelo_inurba_marseille","lat":43.308012,"lon":5.381511,"is_reserved":false,"is_disabled":false,"rental_uris":{"android":"levelo://app?vid=f7393e79-dc72-4fc4-80a7-7b70ecf0aecd","ios":"levelo://app?vid=f7393e79-dc72-4fc4-80a7-7b70ecf0aecd"},"vehicle_type_id":"4","last_reported":1689797226,"current_range_meters":11600,"station_id":"ce4bgt12rcd13ifvqce0","pricing_plan_id":"free"},{"bike_id":"d1aa5e1a-fdb6-4663-ae31-66af7298b75e","system_id":"levelo_inurba_marseille","lat":43.304606,"lon":5.379026,"is_reserved":false,"is_disabled":false,"rental_uris":{"android":"levelo://app?vid=d1aa5e1a-fdb6-4663-ae31-66af7298b75e","ios":"levelo://app?vid=d1aa5e1a-fdb6-4663-ae31-66af7298b75e"},"vehicle_type_id":"4","last_reported":1689797226,"current_range_meters":31600,"station_id":"ce4bgup2rcd13ifvqcn0","pricing_plan_id":"free"},{"bike_id":"3e6b9371-617c-4bd2-b060-d8fe6d26cf94","system_id":"levelo_inurba_marseille","lat":43.304606,"lon":5.379026,"is_reserved":false,"is_disabled":false,"rental_uris":{"android":"levelo://app?vid=3e6b9371-617c-4bd2-b060-d8fe6d26cf94","ios":"levelo://app?vid=3e6b9371-617c-4bd2-b060-d8fe6d26cf94"},"vehicle_type_id":"4","last_reported":1689797226,"current_range_meters":32000,"station_id":"ce4bgup2rcd13ifvqcn0","pricing_plan_id":"free"},{"bike_id":"a94a352b-c156-4a5d-89c9-69ec48c32354","system_id":"levelo_inurba_marseille","lat":43.304606,"lon":5.379026,"is_reserved":false,"is_disabled":false,"rental_uris":{"android":"levelo://app?vid=a94a352b-c156-4a5d-89c9-69ec48c32354","ios":"levelo://app?vid=a94a352b-c156-4a5d-89c9-69ec48c32354"},"vehicle_type_id":"4","last_reported":1689797226,"current_range_meters":29200,"station_id":"ce4bgup2rcd13ifvqcn0","pricing_plan_id":"free"},{"bike_id":"4e83cff6-bc8b-4388-b1d5-c7ec876dc170","system_id":"levelo_inurba_marseille","lat":43.30465,"lon":5.37897,"is_reserved":false,"is_disabled":false,"rental_uris":{"android":"levelo://app?vid=4e83cff6-bc8b-4388-b1d5-c7ec876dc170","ios":"levelo://app?vid=4e83cff6-bc8b-4388-b1d5-c7ec876dc170"},"vehicle_type_id":"4","last_reported":1689797226,"current_range_meters":31600,"station_id":"ce4bgup2rcd13ifvqcn0","pricing_plan_id":"free"},{"bike_id":"64dbc8b1-b06e-4adc-8a95-5f14a007bb7c","system_id":"levelo_inurba_marseille","lat":43.304606,"lon":5.379026,"is_reserved":false,"is_disabled":false,"rental_uris":{"android":"levelo://app?vid=64dbc8b1-b06e-4adc-8a95-5f14a007bb7c","ios":"levelo://app?vid=64dbc8b1-b06e-4adc-8a95-5f14a007bb7c"},"vehicle_type_id":"4","last_reported":1689797226,"current_range_meters":13600,"station_id":"ce4bgup2rcd13ifvqcn0","pricing_plan_id":"free"},{"bike_id":"0bfcd98f-e634-40a8-9ea4-ec72d97d0d52","system_id":"levelo_inurba_marseille","lat":43.304606,"lon":5.379026,"is_reserved":false,"is_disabled":false,"rental_uris":{"android":"levelo://app?vid=0bfcd98f-e634-40a8-9ea4-ec72d97d0d52","ios":"levelo://app?vid=0bfcd98f-e634-40a8-9ea4-ec72d97d0d52"},"vehicle_type_id":"4","last_reported":1689797226,"current_range_meters":12800,"station_id":"ce4bgup2rcd13ifvqcn0","pricing_plan_id":"free"},{"bike_id":"b6ad7e97-dc5c-49e2-b31a-7f5d876e7a14","system_id":"levelo_inurba_marseille","lat":43.304606,"lon":5.379026,"is_reserved":false,"is_disabled":false,"rental_uris":{"android":"levelo://app?vid=b6ad7e97-dc5c-49e2-b31a-7f5d876e7a14","ios":"levelo://app?vid=b6ad7e97-dc5c-49e2-b31a-7f5d876e7a14"},"vehicle_type_id":"4","last_reported":1689797226,"current_range_meters":30400,"station_id":"ce4bgup2rcd13ifvqcn0","pricing_plan_id":"free"},{"bike_id":"43e8cc75-ffe6-4a18-839a-c6d0c4d3b2f9","system_id":"levelo_inurba_marseille","lat":43.304606,"lon":5.379026,"is_reserved":false,"is_disabled":false,"rental_uris":{"android":"levelo://app?vid=43e8cc75-ffe6-4a18-839a-c6d0c4d3b2f9","ios":"levelo://app?vid=43e8cc75-ffe6-4a18-839a-c6d0c4d3b2f9"},"vehicle_type_id":"4","last_reported":1689797226,"current_range_meters":23200,"station_id":"ce4bgup2rcd13ifvqcn0","pricing_plan_id":"free"},{"bike_id":"b60786b0-1b4d-444b-801d-86d0fddfa283","system_id":"levelo_inurba_marseille","lat":43.304606,"lon":5.379026,"is_reserved":false,"is_disabled":false,"rental_uris":{"android":"levelo://app?vid=b60786b0-1b4d-444b-801d-86d0fddfa283","ios":"levelo://app?vid=b60786b0-1b4d-444b-801d-86d0fddfa283"},"vehicle_type_id":"4","last_reported":1689797226,"current_range_meters":20800,"station_id":"ce4bgup2rcd13ifvqcn0","pricing_plan_id":"free"},{"bike_id":"7b88987d-ee3a-4f68-8054-b162fbe25a8c","system_id":"levelo_inurba_marseille","lat":43.304606,"lon":5.379026,"is_reserved":false,"is_disabled":false,"rental_uris":{"android":"levelo://app?vid=7b88987d-ee3a-4f68-8054-b162fbe25a8c","ios":"levelo://app?vid=7b88987d-ee3a-4f68-8054-b162fbe25a8c"},"vehicle_type_id":"4","last_reported":1689797226,"current_range_meters":28000,"station_id":"ce4bgup2rcd13ifvqcn0","pricing_plan_id":"free"},{"bike_id":"50542eb1-6783-4ac5-aab4-fded3ff8c8ac","system_id":"levelo_inurba_marseille","lat":43.304606,"lon":5.379026,"is_reserved":false,"is_disabled":false,"rental_uris":{"android":"levelo://app?vid=50542eb1-6783-4ac5-aab4-fded3ff8c8ac","ios":"levelo://app?vid=50542eb1-6783-4ac5-aab4-fded3ff8c8ac"},"vehicle_type_id":"4","last_reported":1689797226,"current_range_meters":18800,"station_id":"ce4bgup2rcd13ifvqcn0","pricing_plan_id":"free"},{"bike_id":"a0f6ab7f-1844-4900-bfd0-d4f80fbea70d","system_id":"levelo_inurba_marseille","lat":43.304606,"lon":5.379026,"is_reserved":false,"is_disabled":false,"rental_uris":{"android":"levelo://app?vid=a0f6ab7f-1844-4900-bfd0-d4f80fbea70d","ios":"levelo://app?vid=a0f6ab7f-1844-4900-bfd0-d4f80fbea70d"},"vehicle_type_id":"4","last_reported":1689797226,"current_range_meters":28400,"station_id":"ce4bgup2rcd13ifvqcn0","pricing_plan_id":"free"},{"bike_id":"3e5ab317-f6ad-4d0f-b2b2-54da833f5f94","system_id":"levelo_inurba_marseille","lat":43.304606,"lon":5.379026,"is_reserved":false,"is_disabled":false,"rental_uris":{"android":"levelo://app?vid=3e5ab317-f6ad-4d0f-b2b2-54da833f5f94","ios":"levelo://app?vid=3e5ab317-f6ad-4d0f-b2b2-54da833f5f94"},"vehicle_type_id":"4","last_reported":1689797226,"current_range_meters":31200,"station_id":"ce4bgup2rcd13ifvqcn0","pricing_plan_id":"free"},{"bike_id":"0c543ff6-6641-4957-b1eb-de6a686e6ee1","system_id":"levelo_inurba_marseille","lat":43.304606,"lon":5.379026,"is_reserved":false,"is_disabled":false,"rental_uris":{"android":"levelo://app?vid=0c543ff6-6641-4957-b1eb-de6a686e6ee1","ios":"levelo://app?vid=0c543ff6-6641-4957-b1eb-de6a686e6ee1"},"vehicle_type_id":"4","last_reported":1689797226,"current_range_meters":21600,"station_id":"ce4bgup2rcd13ifvqcn0","pricing_plan_id":"free"},{"bike_id":"f3607e89-89c1-412e-8937-05484510165e","system_id":"levelo_inurba_marseille","lat":43.304606,"lon":5.379026,"is_reserved":false,"is_disabled":false,"rental_uris":{"android":"levelo://app?vid=f3607e89-89c1-412e-8937-05484510165e","ios":"levelo://app?vid=f3607e89-89c1-412e-8937-05484510165e"},"vehicle_type_id":"4","last_reported":1689797226,"current_range_meters":21600,"station_id":"ce4bgup2rcd13ifvqcn0","pricing_plan_id":"free"},{"bike_id":"0bdd39eb-497c-4e9b-9fd9-d8a8cf7f2a53","system_id":"levelo_inurba_marseille","lat":43.304606,"lon":5.379026,"is_reserved":false,"is_disabled":false,"rental_uris":{"android":"levelo://app?vid=0bdd39eb-497c-4e9b-9fd9-d8a8cf7f2a53","ios":"levelo://app?vid=0bdd39eb-497c-4e9b-9fd9-d8a8cf7f2a53"},"vehicle_type_id":"4","last_reported":1689797226,"current_range_meters":31200,"station_id":"ce4bgup2rcd13ifvqcn0","pricing_plan_id":"free"},{"bike_id":"7bdabb38-98d0-4858-9825-90c185566e90","system_id":"levelo_inurba_marseille","lat":43.304606,"lon":5.379026,"is_reserved":false,"is_disabled":false,"rental_uris":{"android":"levelo://app?vid=7bdabb38-98d0-4858-9825-90c185566e90","ios":"levelo://app?vid=7bdabb38-98d0-4858-9825-90c185566e90"},"vehicle_type_id":"4","last_reported":1689797226,"current_range_meters":12800,"station_id":"ce4bgup2rcd13ifvqcn0","pricing_plan_id":"free"},{"bike_id":"c6a2d5da-1321-4378-96b7-251946d6613e","system_id":"levelo_inurba_marseille","lat":43.302784,"lon":5.377158,"is_reserved":false,"is_disabled":false,"rental_uris":{"android":"levelo://app?vid=c6a2d5da-1321-4378-96b7-251946d6613e","ios":"levelo://app?vid=c6a2d5da-1321-4378-96b7-251946d6613e"},"vehicle_type_id":"4","last_reported":1689797226,"current_range_meters":31600,"station_id":"ce4bguh2rcd13ifvqcj0","pricing_plan_id":"free"},{"bike_id":"bc86ac1e-0558-4835-98bd-45a7071000ab","system_id":"levelo_inurba_marseille","lat":43.302784,"lon":5.377158,"is_reserved":false,"is_disabled":false,"rental_uris":{"android":"levelo://app?vid=bc86ac1e-0558-4835-98bd-45a7071000ab","ios":"levelo://app?vid=bc86ac1e-0558-4835-98bd-45a7071000ab"},"vehicle_type_id":"4","last_reported":1689797226,"current_range_meters":23600,"station_id":"ce4bguh2rcd13ifvqcj0","pricing_plan_id":"free"},{"bike_id":"19100311-c096-4ea3-9658-fe0675467fb5","system_id":"levelo_inurba_marseille","lat":43.319935,"lon":5.381699,"is_reserved":false,"is_disabled":false,"rental_uris":{"android":"levelo://app?vid=19100311-c096-4ea3-9658-fe0675467fb5","ios":"levelo://app?vid=19100311-c096-4ea3-9658-fe0675467fb5"},"vehicle_type_id":"4","last_reported":1689797226,"current_range_meters":25600,"station_id":"ce4bhr12rcd13ifvqhpg","pricing_plan_id":"free"},{"bike_id":"9f03a4dd-df2e-4157-a8bf-57a40ce14c85","system_id":"levelo_inurba_marseille","lat":43.319935,"lon":5.381699,"is_reserved":false,"is_disabled":false,"rental_uris":{"android":"levelo://app?vid=9f03a4dd-df2e-4157-a8bf-57a40ce14c85","ios":"levelo://app?vid=9f03a4dd-df2e-4157-a8bf-57a40ce14c85"},"vehicle_type_id":"4","last_reported":1689797226,"current_range_meters":30000,"station_id":"ce4bhr12rcd13ifvqhpg","pricing_plan_id":"free"},{"bike_id":"f90240af-64d0-4ba8-8f20-53e145a77c44","system_id":"levelo_inurba_marseille","lat":43.319935,"lon":5.381699,"is_reserved":false,"is_disabled":false,"rental_uris":{"android":"levelo://app?vid=f90240af-64d0-4ba8-8f20-53e145a77c44","ios":"levelo://app?vid=f90240af-64d0-4ba8-8f20-53e145a77c44"},"vehicle_type_id":"4","last_reported":1689797226,"current_range_meters":26400,"station_id":"ce4bhr12rcd13ifvqhpg","pricing_plan_id":"free"},{"bike_id":"aecf68cc-6dab-4d48-9b33-456f56f1c060","system_id":"levelo_inurba_marseille","lat":43.319935,"lon":5.381699,"is_reserved":false,"is_disabled":false,"rental_uris":{"android":"levelo://app?vid=aecf68cc-6dab-4d48-9b33-456f56f1c060","ios":"levelo://app?vid=aecf68cc-6dab-4d48-9b33-456f56f1c060"},"vehicle_type_id":"4","last_reported":1689797226,"current_range_meters":22000,"station_id":"ce4bhr12rcd13ifvqhpg","pricing_plan_id":"free"},{"bike_id":"81dbb561-ba63-4cda-a721-d080e1d9f826","system_id":"levelo_inurba_marseille","lat":43.319935,"lon":5.381699,"is_reserved":false,"is_disabled":false,"rental_uris":{"android":"levelo://app?vid=81dbb561-ba63-4cda-a721-d080e1d9f826","ios":"levelo://app?vid=81dbb561-ba63-4cda-a721-d080e1d9f826"},"vehicle_type_id":"4","last_reported":1689797226,"current_range_meters":14000,"station_id":"ce4bhr12rcd13ifvqhpg","pricing_plan_id":"free"},{"bike_id":"d38cccfa-5ebc-4b9c-9934-933da8233c7f","system_id":"levelo_inurba_marseille","lat":43.319935,"lon":5.381699,"is_reserved":false,"is_disabled":false,"rental_uris":{"android":"levelo://app?vid=d38cccfa-5ebc-4b9c-9934-933da8233c7f","ios":"levelo://app?vid=d38cccfa-5ebc-4b9c-9934-933da8233c7f"},"vehicle_type_id":"4","last_reported":1689797226,"current_range_meters":9600,"station_id":"ce4bhr12rcd13ifvqhpg","pricing_plan_id":"free"},{"bike_id":"b0dd87b2-d98f-41f0-92f5-f872f1fe0084","system_id":"levelo_inurba_marseille","lat":43.319935,"lon":5.381699,"is_reserved":false,"is_disabled":false,"rental_uris":{"android":"levelo://app?vid=b0dd87b2-d98f-41f0-92f5-f872f1fe0084","ios":"levelo://app?vid=b0dd87b2-d98f-41f0-92f5-f872f1fe0084"},"vehicle_type_id":"4","last_reported":1689797226,"current_range_meters":26400,"station_id":"ce4bhr12rcd13ifvqhpg","pricing_plan_id":"free"},{"bike_id":"d83eaa40-f4d3-4e37-910c-d9a6410f7691","system_id":"levelo_inurba_marseille","lat":43.319935,"lon":5.381699,"is_reserved":false,"is_disabled":false,"rental_uris":{"android":"levelo://app?vid=d83eaa40-f4d3-4e37-910c-d9a6410f7691","ios":"levelo://app?vid=d83eaa40-f4d3-4e37-910c-d9a6410f7691"},"vehicle_type_id":"4","last_reported":1689797226,"current_range_meters":16000,"station_id":"ce4bhr12rcd13ifvqhpg","pricing_plan_id":"free"},{"bike_id":"faa650bc-ef8b-4851-89a5-35d775b19054","system_id":"levelo_inurba_marseille","lat":43.319935,"lon":5.381699,"is_reserved":false,"is_disabled":false,"rental_uris":{"android":"levelo://app?vid=faa650bc-ef8b-4851-89a5-35d775b19054","ios":"levelo://app?vid=faa650bc-ef8b-4851-89a5-35d775b19054"},"vehicle_type_id":"4","last_reported":1689797226,"current_range_meters":8000,"station_id":"ce4bhr12rcd13ifvqhpg","pricing_plan_id":"free"},{"bike_id":"c22d629b-e57f-42b0-a646-d6518b1f8da3","system_id":"levelo_inurba_marseille","lat":43.313571,"lon":5.384829,"is_reserved":false,"is_disabled":false,"rental_uris":{"android":"levelo://app?vid=c22d629b-e57f-42b0-a646-d6518b1f8da3","ios":"levelo://app?vid=c22d629b-e57f-42b0-a646-d6518b1f8da3"},"vehicle_type_id":"4","last_reported":1689797226,"current_range_meters":12400,"station_id":"ce4bgt92rcd13ifvqcf0","pricing_plan_id":"free"},{"bike_id":"aa57eb2f-bf5e-4ddf-9f21-26d54e9fe339","system_id":"levelo_inurba_marseille","lat":43.313571,"lon":5.384829,"is_reserved":false,"is_disabled":false,"rental_uris":{"android":"levelo://app?vid=aa57eb2f-bf5e-4ddf-9f21-26d54e9fe339","ios":"levelo://app?vid=aa57eb2f-bf5e-4ddf-9f21-26d54e9fe339"},"vehicle_type_id":"4","last_reported":1689797226,"current_range_meters":20000,"station_id":"ce4bgt92rcd13ifvqcf0","pricing_plan_id":"free"},{"bike_id":"fd242919-17d6-4c09-be04-801d0b1fb50e","system_id":"levelo_inurba_marseille","lat":43.313571,"lon":5.384829,"is_reserved":false,"is_disabled":false,"rental_uris":{"android":"levelo://app?vid=fd242919-17d6-4c09-be04-801d0b1fb50e","ios":"levelo://app?vid=fd242919-17d6-4c09-be04-801d0b1fb50e"},"vehicle_type_id":"4","last_reported":1689797226,"current_range_meters":0,"station_id":"ce4bgt92rcd13ifvqcf0","pricing_plan_id":"free"},{"bike_id":"2074821f-2604-4be5-b88c-6f07286a73e2","system_id":"levelo_inurba_marseille","lat":43.313571,"lon":5.384829,"is_reserved":false,"is_disabled":false,"rental_uris":{"android":"levelo://app?vid=2074821f-2604-4be5-b88c-6f07286a73e2","ios":"levelo://app?vid=2074821f-2604-4be5-b88c-6f07286a73e2"},"vehicle_type_id":"4","last_reported":1689797226,"current_range_meters":23600,"station_id":"ce4bgt92rcd13ifvqcf0","pricing_plan_id":"free"},{"bike_id":"e69bf61d-9a95-4cad-a8bd-da5033f7d0b6","system_id":"levelo_inurba_marseille","lat":43.31357,"lon":5.38507,"is_reserved":false,"is_disabled":false,"rental_uris":{"android":"levelo://app?vid=e69bf61d-9a95-4cad-a8bd-da5033f7d0b6","ios":"levelo://app?vid=e69bf61d-9a95-4cad-a8bd-da5033f7d0b6"},"vehicle_type_id":"4","last_reported":1689797226,"current_range_meters":28400,"station_id":"ce4bgt92rcd13ifvqcf0","pricing_plan_id":"free"},{"bike_id":"abcd80e0-37ff-4442-a7b9-13e86bb2b907","system_id":"levelo_inurba_marseille","lat":43.30023,"lon":5.37625,"is_reserved":false,"is_disabled":false,"rental_uris":{"android":"levelo://app?vid=abcd80e0-37ff-4442-a7b9-13e86bb2b907","ios":"levelo://app?vid=abcd80e0-37ff-4442-a7b9-13e86bb2b907"},"vehicle_type_id":"4","last_reported":1689797226,"current_range_meters":6000,"station_id":"","pricing_plan_id":"free"},{"bike_id":"5dea3e7a-ff60-463c-bf06-528e93137412","system_id":"levelo_inurba_marseille","lat":43.308012,"lon":5.381511,"is_reserved":false,"is_disabled":false,"rental_uris":{"android":"levelo://app?vid=5dea3e7a-ff60-463c-bf06-528e93137412","ios":"levelo://app?vid=5dea3e7a-ff60-463c-bf06-528e93137412"},"vehicle_type_id":"4","last_reported":1689797226,"current_range_meters":21200,"station_id":"ce4bgt12rcd13ifvqce0","pricing_plan_id":"free"},{"bike_id":"34e1b65c-9f2c-4df0-9082-7e6d41416097","system_id":"levelo_inurba_marseille","lat":43.29855,"lon":5.36283,"is_reserved":false,"is_disabled":false,"rental_uris":{"android":"levelo://app?vid=34e1b65c-9f2c-4df0-9082-7e6d41416097","ios":"levelo://app?vid=34e1b65c-9f2c-4df0-9082-7e6d41416097"},"vehicle_type_id":"4","last_reported":1689797226,"current_range_meters":16400,"station_id":"ce4bgpp2rcd13ifvqc3g","pricing_plan_id":"free"},{"bike_id":"82c89cce-ef7b-4f28-b4fd-edf58598f8e6","system_id":"levelo_inurba_marseille","lat":43.29851,"lon":5.36285,"is_reserved":false,"is_disabled":false,"rental_uris":{"android":"levelo://app?vid=82c89cce-ef7b-4f28-b4fd-edf58598f8e6","ios":"levelo://app?vid=82c89cce-ef7b-4f28-b4fd-edf58598f8e6"},"vehicle_type_id":"4","last_reported":1689797226,"current_range_meters":6000,"station_id":"ce4bgpp2rcd13ifvqc3g","pricing_plan_id":"free"},{"bike_id":"abc4e737-4e2c-4a26-ad95-f406c688a5f5","system_id":"levelo_inurba_marseille","lat":43.2985,"lon":5.36287,"is_reserved":false,"is_disabled":false,"rental_uris":{"android":"levelo://app?vid=abc4e737-4e2c-4a26-ad95-f406c688a5f5","ios":"levelo://app?vid=abc4e737-4e2c-4a26-ad95-f406c688a5f5"},"vehicle_type_id":"4","last_reported":1689797226,"current_range_meters":12000,"station_id":"ce4bgpp2rcd13ifvqc3g","pricing_plan_id":"free"},{"bike_id":"f0a09b45-cf19-4f0a-a0a2-f7a82e1c9e14","system_id":"levelo_inurba_marseille","lat":43.2985,"lon":5.36283,"is_reserved":false,"is_disabled":false,"rental_uris":{"android":"levelo://app?vid=f0a09b45-cf19-4f0a-a0a2-f7a82e1c9e14","ios":"levelo://app?vid=f0a09b45-cf19-4f0a-a0a2-f7a82e1c9e14"},"vehicle_type_id":"4","last_reported":1689797226,"current_range_meters":9200,"station_id":"ce4bgpp2rcd13ifvqc3g","pricing_plan_id":"free"},{"bike_id":"9b9fffb6-e2bc-4e34-ad03-47b18e4dd9ac","system_id":"levelo_inurba_marseille","lat":43.29849,"lon":5.36287,"is_reserved":false,"is_disabled":false,"rental_uris":{"android":"levelo://app?vid=9b9fffb6-e2bc-4e34-ad03-47b18e4dd9ac","ios":"levelo://app?vid=9b9fffb6-e2bc-4e34-ad03-47b18e4dd9ac"},"vehicle_type_id":"4","last_reported":1689797226,"current_range_meters":31200,"station_id":"ce4bgpp2rcd13ifvqc3g","pricing_plan_id":"free"},{"bike_id":"a1b93bac-2f23-426e-a9ef-22b52e9a6eee","system_id":"levelo_inurba_marseille","lat":43.305364,"lon":5.384119,"is_reserved":false,"is_disabled":false,"rental_uris":{"android":"levelo://app?vid=a1b93bac-2f23-426e-a9ef-22b52e9a6eee","ios":"levelo://app?vid=a1b93bac-2f23-426e-a9ef-22b52e9a6eee"},"vehicle_type_id":"4","last_reported":1689797226,"current_range_meters":14400,"station_id":"ce4bgg92rcd13ifvqb30","pricing_plan_id":"free"},{"bike_id":"b1335a40-9383-45f1-989b-64677ce8d12f","system_id":"levelo_inurba_marseille","lat":43.29847,"lon":5.36278,"is_reserved":false,"is_disabled":false,"rental_uris":{"android":"levelo://app?vid=b1335a40-9383-45f1-989b-64677ce8d12f","ios":"levelo://app?vid=b1335a40-9383-45f1-989b-64677ce8d12f"},"vehicle_type_id":"4","last_reported":1689797226,"current_range_meters":2800,"station_id":"ce4bgpp2rcd13ifvqc3g","pricing_plan_id":"free"},{"bike_id":"1e2161e9-9531-4fad-9cbc-d1d626c6e1be","system_id":"levelo_inurba_marseille","lat":43.298487,"lon":5.362667,"is_reserved":false,"is_disabled":false,"rental_uris":{"android":"levelo://app?vid=1e2161e9-9531-4fad-9cbc-d1d626c6e1be","ios":"levelo://app?vid=1e2161e9-9531-4fad-9cbc-d1d626c6e1be"},"vehicle_type_id":"4","last_reported":1689797226,"current_range_meters":15200,"station_id":"ce4bgpp2rcd13ifvqc3g","pricing_plan_id":"free"},{"bike_id":"8e80645f-995c-4113-a395-8fb69cac7403","system_id":"levelo_inurba_marseille","lat":43.29847,"lon":5.36276,"is_reserved":false,"is_disabled":false,"rental_uris":{"android":"levelo://app?vid=8e80645f-995c-4113-a395-8fb69cac7403","ios":"levelo://app?vid=8e80645f-995c-4113-a395-8fb69cac7403"},"vehicle_type_id":"4","last_reported":1689797226,"current_range_meters":30000,"station_id":"ce4bgpp2rcd13ifvqc3g","pricing_plan_id":"free"},{"bike_id":"24f6271b-eb87-41b9-a041-bfd4295111af","system_id":"levelo_inurba_marseille","lat":43.29846,"lon":5.36275,"is_reserved":false,"is_disabled":false,"rental_uris":{"android":"levelo://app?vid=24f6271b-eb87-41b9-a041-bfd4295111af","ios":"levelo://app?vid=24f6271b-eb87-41b9-a041-bfd4295111af"},"vehicle_type_id":"4","last_reported":1689797226,"current_range_meters":30000,"station_id":"ce4bgpp2rcd13ifvqc3g","pricing_plan_id":"free"},{"bike_id":"3fc5f54c-e738-41cb-8459-a97a534c2aa2","system_id":"levelo_inurba_marseille","lat":43.29845,"lon":5.36281,"is_reserved":false,"is_disabled":false,"rental_uris":{"android":"levelo://app?vid=3fc5f54c-e738-41cb-8459-a97a534c2aa2","ios":"levelo://app?vid=3fc5f54c-e738-41cb-8459-a97a534c2aa2"},"vehicle_type_id":"4","last_reported":1689797226,"current_range_meters":22000,"station_id":"ce4bgpp2rcd13ifvqc3g","pricing_plan_id":"free"},{"bike_id":"36b4d994-f54c-42ca-a130-0b493c269616","system_id":"levelo_inurba_marseille","lat":43.29847,"lon":5.36268,"is_reserved":false,"is_disabled":false,"rental_uris":{"android":"levelo://app?vid=36b4d994-f54c-42ca-a130-0b493c269616","ios":"levelo://app?vid=36b4d994-f54c-42ca-a130-0b493c269616"},"vehicle_type_id":"4","last_reported":1689797226,"current_range_meters":31200,"station_id":"ce4bgpp2rcd13ifvqc3g","pricing_plan_id":"free"},{"bike_id":"bad2e2ed-e74e-43eb-b992-55665c7115db","system_id":"levelo_inurba_marseille","lat":43.29845,"lon":5.36279,"is_reserved":false,"is_disabled":false,"rental_uris":{"android":"levelo://app?vid=bad2e2ed-e74e-43eb-b992-55665c7115db","ios":"levelo://app?vid=bad2e2ed-e74e-43eb-b992-55665c7115db"},"vehicle_type_id":"4","last_reported":1689797226,"current_range_meters":10000,"station_id":"ce4bgpp2rcd13ifvqc3g","pricing_plan_id":"free"},{"bike_id":"be58a856-69a2-4bea-8d50-7dd0c535c30b","system_id":"levelo_inurba_marseille","lat":43.29964,"lon":5.37581,"is_reserved":false,"is_disabled":false,"rental_uris":{"android":"levelo://app?vid=be58a856-69a2-4bea-8d50-7dd0c535c30b","ios":"levelo://app?vid=be58a856-69a2-4bea-8d50-7dd0c535c30b"},"vehicle_type_id":"4","last_reported":1689797226,"current_range_meters":9200,"station_id":"","pricing_plan_id":"free"},{"bike_id":"8876bda6-3fef-4cfe-af1f-c4ba37338ffa","system_id":"levelo_inurba_marseille","lat":43.29846,"lon":5.36269,"is_reserved":false,"is_disabled":false,"rental_uris":{"android":"levelo://app?vid=8876bda6-3fef-4cfe-af1f-c4ba37338ffa","ios":"levelo://app?vid=8876bda6-3fef-4cfe-af1f-c4ba37338ffa"},"vehicle_type_id":"4","last_reported":1689797226,"current_range_meters":1600,"station_id":"ce4bgpp2rcd13ifvqc3g","pricing_plan_id":"free"},{"bike_id":"cd4811ff-a565-4fc4-ad62-aef0c1594bf1","system_id":"levelo_inurba_marseille","lat":43.29845,"lon":5.36273,"is_reserved":false,"is_disabled":false,"rental_uris":{"android":"levelo://app?vid=cd4811ff-a565-4fc4-ad62-aef0c1594bf1","ios":"levelo://app?vid=cd4811ff-a565-4fc4-ad62-aef0c1594bf1"},"vehicle_type_id":"4","last_reported":1689797226,"current_range_meters":10400,"station_id":"ce4bgpp2rcd13ifvqc3g","pricing_plan_id":"free"},{"bike_id":"e3e26794-925c-4a72-a5d6-27f6d9e67888","system_id":"levelo_inurba_marseille","lat":43.29845,"lon":5.36272,"is_reserved":false,"is_disabled":false,"rental_uris":{"android":"levelo://app?vid=e3e26794-925c-4a72-a5d6-27f6d9e67888","ios":"levelo://app?vid=e3e26794-925c-4a72-a5d6-27f6d9e67888"},"vehicle_type_id":"4","last_reported":1689797226,"current_range_meters":28000,"station_id":"ce4bgpp2rcd13ifvqc3g","pricing_plan_id":"free"},{"bike_id":"5592399e-1200-4b39-8269-516fe0f31292","system_id":"levelo_inurba_marseille","lat":43.29844,"lon":5.36278,"is_reserved":false,"is_disabled":false,"rental_uris":{"android":"levelo://app?vid=5592399e-1200-4b39-8269-516fe0f31292","ios":"levelo://app?vid=5592399e-1200-4b39-8269-516fe0f31292"},"vehicle_type_id":"4","last_reported":1689797226,"current_range_meters":1200,"station_id":"ce4bgpp2rcd13ifvqc3g","pricing_plan_id":"free"},{"bike_id":"01b26ff0-333c-4b6e-849f-0d7d800a5590","system_id":"levelo_inurba_marseille","lat":43.29844,"lon":5.36278,"is_reserved":false,"is_disabled":false,"rental_uris":{"android":"levelo://app?vid=01b26ff0-333c-4b6e-849f-0d7d800a5590","ios":"levelo://app?vid=01b26ff0-333c-4b6e-849f-0d7d800a5590"},"vehicle_type_id":"4","last_reported":1689797226,"current_range_meters":30000,"station_id":"ce4bgpp2rcd13ifvqc3g","pricing_plan_id":"free"},{"bike_id":"62e0b439-f4a7-499c-92a1-252ab0caf9d9","system_id":"levelo_inurba_marseille","lat":43.305364,"lon":5.384119,"is_reserved":false,"is_disabled":false,"rental_uris":{"android":"levelo://app?vid=62e0b439-f4a7-499c-92a1-252ab0caf9d9","ios":"levelo://app?vid=62e0b439-f4a7-499c-92a1-252ab0caf9d9"},"vehicle_type_id":"4","last_reported":1689797226,"current_range_meters":31200,"station_id":"ce4bgg92rcd13ifvqb30","pricing_plan_id":"free"},{"bike_id":"65d84cb3-cc96-4b33-a7aa-7b6a39041141","system_id":"levelo_inurba_marseille","lat":43.305364,"lon":5.384119,"is_reserved":false,"is_disabled":false,"rental_uris":{"android":"levelo://app?vid=65d84cb3-cc96-4b33-a7aa-7b6a39041141","ios":"levelo://app?vid=65d84cb3-cc96-4b33-a7aa-7b6a39041141"},"vehicle_type_id":"4","last_reported":1689797226,"current_range_meters":9200,"station_id":"ce4bgg92rcd13ifvqb30","pricing_plan_id":"free"},{"bike_id":"afe271d2-9e04-4c8d-ae71-020eb3f0fcfa","system_id":"levelo_inurba_marseille","lat":43.29843,"lon":5.36273,"is_reserved":false,"is_disabled":false,"rental_uris":{"android":"levelo://app?vid=afe271d2-9e04-4c8d-ae71-020eb3f0fcfa","ios":"levelo://app?vid=afe271d2-9e04-4c8d-ae71-020eb3f0fcfa"},"vehicle_type_id":"4","last_reported":1689797226,"current_range_meters":31200,"station_id":"ce4bgpp2rcd13ifvqc3g","pricing_plan_id":"free"},{"bike_id":"8d31486e-1ca8-41f5-9bef-21840ab25b4b","system_id":"levelo_inurba_marseille","lat":43.29843,"lon":5.36272,"is_reserved":false,"is_disabled":false,"rental_uris":{"android":"levelo://app?vid=8d31486e-1ca8-41f5-9bef-21840ab25b4b","ios":"levelo://app?vid=8d31486e-1ca8-41f5-9bef-21840ab25b4b"},"vehicle_type_id":"4","last_reported":1689797226,"current_range_meters":13600,"station_id":"ce4bgpp2rcd13ifvqc3g","pricing_plan_id":"free"},{"bike_id":"db104de0-dac4-420c-8460-a4649f76d9d4","system_id":"levelo_inurba_marseille","lat":43.305364,"lon":5.384119,"is_reserved":false,"is_disabled":false,"rental_uris":{"android":"levelo://app?vid=db104de0-dac4-420c-8460-a4649f76d9d4","ios":"levelo://app?vid=db104de0-dac4-420c-8460-a4649f76d9d4"},"vehicle_type_id":"4","last_reported":1689797226,"current_range_meters":18400,"station_id":"ce4bgg92rcd13ifvqb30","pricing_plan_id":"free"},{"bike_id":"938ed324-5c2a-4aa7-9aac-879850db487a","system_id":"levelo_inurba_marseille","lat":43.29842,"lon":5.3627,"is_reserved":false,"is_disabled":false,"rental_uris":{"android":"levelo://app?vid=938ed324-5c2a-4aa7-9aac-879850db487a","ios":"levelo://app?vid=938ed324-5c2a-4aa7-9aac-879850db487a"},"vehicle_type_id":"4","last_reported":1689797226,"current_range_meters":14000,"station_id":"ce4bgpp2rcd13ifvqc3g","pricing_plan_id":"free"},{"bike_id":"e9356394-b2db-41c3-815a-8315b83c30b3","system_id":"levelo_inurba_marseille","lat":43.29842,"lon":5.36269,"is_reserved":false,"is_disabled":false,"rental_uris":{"android":"levelo://app?vid=e9356394-b2db-41c3-815a-8315b83c30b3","ios":"levelo://app?vid=e9356394-b2db-41c3-815a-8315b83c30b3"},"vehicle_type_id":"4","last_reported":1689797226,"current_range_meters":30800,"station_id":"ce4bgpp2rcd13ifvqc3g","pricing_plan_id":"free"},{"bike_id":"49e336e3-7e63-43d4-9a61-055c05fb2adf","system_id":"levelo_inurba_marseille","lat":43.29842,"lon":5.36269,"is_reserved":false,"is_disabled":false,"rental_uris":{"android":"levelo://app?vid=49e336e3-7e63-43d4-9a61-055c05fb2adf","ios":"levelo://app?vid=49e336e3-7e63-43d4-9a61-055c05fb2adf"},"vehicle_type_id":"4","last_reported":1689797226,"current_range_meters":16800,"station_id":"ce4bgpp2rcd13ifvqc3g","pricing_plan_id":"free"},{"bike_id":"8b1348b1-a271-497e-87aa-40ab4625e38b","system_id":"levelo_inurba_marseille","lat":43.29842,"lon":5.36266,"is_reserved":false,"is_disabled":false,"rental_uris":{"android":"levelo://app?vid=8b1348b1-a271-497e-87aa-40ab4625e38b","ios":"levelo://app?vid=8b1348b1-a271-497e-87aa-40ab4625e38b"},"vehicle_type_id":"4","last_reported":1689797226,"current_range_meters":25600,"station_id":"ce4bgpp2rcd13ifvqc3g","pricing_plan_id":"free"},{"bike_id":"8a4af9bc-0d30-4e2c-81f6-b037bce77e43","system_id":"levelo_inurba_marseille","lat":43.2984,"lon":5.3627,"is_reserved":false,"is_disabled":false,"rental_uris":{"android":"levelo://app?vid=8a4af9bc-0d30-4e2c-81f6-b037bce77e43","ios":"levelo://app?vid=8a4af9bc-0d30-4e2c-81f6-b037bce77e43"},"vehicle_type_id":"4","last_reported":1689797226,"current_range_meters":4400,"station_id":"ce4bgpp2rcd13ifvqc3g","pricing_plan_id":"free"},{"bike_id":"81def130-d34a-40b0-bf08-6c4eef114ca0","system_id":"levelo_inurba_marseille","lat":43.305364,"lon":5.384119,"is_reserved":false,"is_disabled":false,"rental_uris":{"android":"levelo://app?vid=81def130-d34a-40b0-bf08-6c4eef114ca0","ios":"levelo://app?vid=81def130-d34a-40b0-bf08-6c4eef114ca0"},"vehicle_type_id":"4","last_reported":1689797226,"current_range_meters":31200,"station_id":"ce4bgg92rcd13ifvqb30","pricing_plan_id":"free"},{"bike_id":"ff7644b5-17e4-4c17-9069-fb8b77872712","system_id":"levelo_inurba_marseille","lat":43.298433,"lon":5.362774,"is_reserved":false,"is_disabled":false,"rental_uris":{"android":"levelo://app?vid=ff7644b5-17e4-4c17-9069-fb8b77872712","ios":"levelo://app?vid=ff7644b5-17e4-4c17-9069-fb8b77872712"},"vehicle_type_id":"4","last_reported":1689797226,"current_range_meters":31200,"station_id":"ce4bgpp2rcd13ifvqc3g","pricing_plan_id":"free"},{"bike_id":"8fef798b-9c1a-4c7e-9640-5d86d9bfbebd","system_id":"levelo_inurba_marseille","lat":43.311722,"lon":5.387247,"is_reserved":false,"is_disabled":false,"rental_uris":{"android":"levelo://app?vid=8fef798b-9c1a-4c7e-9640-5d86d9bfbebd","ios":"levelo://app?vid=8fef798b-9c1a-4c7e-9640-5d86d9bfbebd"},"vehicle_type_id":"4","last_reported":1689797226,"current_range_meters":26800,"station_id":"ce4bgv12rcd13ifvqcp0","pricing_plan_id":"free"},{"bike_id":"bd6ff138-9b05-43aa-a500-8caf08da3f7b","system_id":"levelo_inurba_marseille","lat":43.311722,"lon":5.387247,"is_reserved":false,"is_disabled":false,"rental_uris":{"android":"levelo://app?vid=bd6ff138-9b05-43aa-a500-8caf08da3f7b","ios":"levelo://app?vid=bd6ff138-9b05-43aa-a500-8caf08da3f7b"},"vehicle_type_id":"4","last_reported":1689797226,"current_range_meters":31200,"station_id":"ce4bgv12rcd13ifvqcp0","pricing_plan_id":"free"},{"bike_id":"6e540f5c-0a2b-4998-a803-006b3bd56c6d","system_id":"levelo_inurba_marseille","lat":43.311722,"lon":5.387247,"is_reserved":false,"is_disabled":false,"rental_uris":{"android":"levelo://app?vid=6e540f5c-0a2b-4998-a803-006b3bd56c6d","ios":"levelo://app?vid=6e540f5c-0a2b-4998-a803-006b3bd56c6d"},"vehicle_type_id":"4","last_reported":1689797226,"current_range_meters":24000,"station_id":"ce4bgv12rcd13ifvqcp0","pricing_plan_id":"free"},{"bike_id":"83f68f62-d634-4957-a506-961d3b4b0ad3","system_id":"levelo_inurba_marseille","lat":43.297794,"lon":5.370888,"is_reserved":false,"is_disabled":false,"rental_uris":{"android":"levelo://app?vid=83f68f62-d634-4957-a506-961d3b4b0ad3","ios":"levelo://app?vid=83f68f62-d634-4957-a506-961d3b4b0ad3"},"vehicle_type_id":"4","last_reported":1689797226,"current_range_meters":20800,"station_id":"ce4bgop2rcd13ifvqc1g","pricing_plan_id":"free"},{"bike_id":"0ae425c7-7c24-459e-916e-05df3833eec9","system_id":"levelo_inurba_marseille","lat":43.297794,"lon":5.370888,"is_reserved":false,"is_disabled":false,"rental_uris":{"android":"levelo://app?vid=0ae425c7-7c24-459e-916e-05df3833eec9","ios":"levelo://app?vid=0ae425c7-7c24-459e-916e-05df3833eec9"},"vehicle_type_id":"4","last_reported":1689797226,"current_range_meters":22000,"station_id":"ce4bgop2rcd13ifvqc1g","pricing_plan_id":"free"},{"bike_id":"818a262c-8ab2-47ea-b60a-ae52f0d82709","system_id":"levelo_inurba_marseille","lat":43.322872,"lon":5.382756,"is_reserved":false,"is_disabled":false,"rental_uris":{"android":"levelo://app?vid=818a262c-8ab2-47ea-b60a-ae52f0d82709","ios":"levelo://app?vid=818a262c-8ab2-47ea-b60a-ae52f0d82709"},"vehicle_type_id":"4","last_reported":1689797226,"current_range_meters":20000,"station_id":"ce4bhr12rcd13ifvqhqg","pricing_plan_id":"free"},{"bike_id":"3296666b-4550-46e5-8780-de3f4f4bdb22","system_id":"levelo_inurba_marseille","lat":43.322872,"lon":5.382756,"is_reserved":false,"is_disabled":false,"rental_uris":{"android":"levelo://app?vid=3296666b-4550-46e5-8780-de3f4f4bdb22","ios":"levelo://app?vid=3296666b-4550-46e5-8780-de3f4f4bdb22"},"vehicle_type_id":"4","last_reported":1689797226,"current_range_meters":19200,"station_id":"ce4bhr12rcd13ifvqhqg","pricing_plan_id":"free"},{"bike_id":"38cb8470-ab16-4d1e-bd37-13ef2ac7db48","system_id":"levelo_inurba_marseille","lat":43.322872,"lon":5.382756,"is_reserved":false,"is_disabled":false,"rental_uris":{"android":"levelo://app?vid=38cb8470-ab16-4d1e-bd37-13ef2ac7db48","ios":"levelo://app?vid=38cb8470-ab16-4d1e-bd37-13ef2ac7db48"},"vehicle_type_id":"4","last_reported":1689797226,"current_range_meters":20800,"station_id":"ce4bhr12rcd13ifvqhqg","pricing_plan_id":"free"},{"bike_id":"2ed41945-cea8-4afa-87d0-4eb6bbef9c57","system_id":"levelo_inurba_marseille","lat":43.32289,"lon":5.38275,"is_reserved":false,"is_disabled":false,"rental_uris":{"android":"levelo://app?vid=2ed41945-cea8-4afa-87d0-4eb6bbef9c57","ios":"levelo://app?vid=2ed41945-cea8-4afa-87d0-4eb6bbef9c57"},"vehicle_type_id":"4","last_reported":1689797226,"current_range_meters":21200,"station_id":"ce4bhr12rcd13ifvqhqg","pricing_plan_id":"free"},{"bike_id":"e916ca30-98a4-4365-b6d6-d96cd71c267d","system_id":"levelo_inurba_marseille","lat":43.322872,"lon":5.382756,"is_reserved":false,"is_disabled":false,"rental_uris":{"android":"levelo://app?vid=e916ca30-98a4-4365-b6d6-d96cd71c267d","ios":"levelo://app?vid=e916ca30-98a4-4365-b6d6-d96cd71c267d"},"vehicle_type_id":"4","last_reported":1689797226,"current_range_meters":11200,"station_id":"ce4bhr12rcd13ifvqhqg","pricing_plan_id":"free"},{"bike_id":"b795213b-a1bf-4ed8-9d4d-f4a3b5a2a58d","system_id":"levelo_inurba_marseille","lat":43.322872,"lon":5.382756,"is_reserved":false,"is_disabled":false,"rental_uris":{"android":"levelo://app?vid=b795213b-a1bf-4ed8-9d4d-f4a3b5a2a58d","ios":"levelo://app?vid=b795213b-a1bf-4ed8-9d4d-f4a3b5a2a58d"},"vehicle_type_id":"4","last_reported":1689797226,"current_range_meters":7600,"station_id":"ce4bhr12rcd13ifvqhqg","pricing_plan_id":"free"},{"bike_id":"7c154cf1-be76-45ac-8f98-526cdbeb1a99","system_id":"levelo_inurba_marseille","lat":43.32291,"lon":5.38274,"is_reserved":false,"is_disabled":false,"rental_uris":{"android":"levelo://app?vid=7c154cf1-be76-45ac-8f98-526cdbeb1a99","ios":"levelo://app?vid=7c154cf1-be76-45ac-8f98-526cdbeb1a99"},"vehicle_type_id":"4","last_reported":1689797226,"current_range_meters":21200,"station_id":"ce4bhr12rcd13ifvqhqg","pricing_plan_id":"free"},{"bike_id":"c2dbc644-c7fb-4fb5-923b-703ff3d9c54f","system_id":"levelo_inurba_marseille","lat":43.328371,"lon":5.366912,"is_reserved":false,"is_disabled":false,"rental_uris":{"android":"levelo://app?vid=c2dbc644-c7fb-4fb5-923b-703ff3d9c54f","ios":"levelo://app?vid=c2dbc644-c7fb-4fb5-923b-703ff3d9c54f"},"vehicle_type_id":"4","last_reported":1689797226,"current_range_meters":29200,"station_id":"ce4bhs92rcd13ifvqi0g","pricing_plan_id":"free"},{"bike_id":"613c152a-da35-48a6-b01f-b1926d03745e","system_id":"levelo_inurba_marseille","lat":43.328371,"lon":5.366912,"is_reserved":false,"is_disabled":false,"rental_uris":{"android":"levelo://app?vid=613c152a-da35-48a6-b01f-b1926d03745e","ios":"levelo://app?vid=613c152a-da35-48a6-b01f-b1926d03745e"},"vehicle_type_id":"4","last_reported":1689797226,"current_range_meters":28800,"station_id":"ce4bhs92rcd13ifvqi0g","pricing_plan_id":"free"},{"bike_id":"1b1a92f9-a469-49be-ae33-4794a606317c","system_id":"levelo_inurba_marseille","lat":43.328371,"lon":5.366909,"is_reserved":false,"is_disabled":false,"rental_uris":{"android":"levelo://app?vid=1b1a92f9-a469-49be-ae33-4794a606317c","ios":"levelo://app?vid=1b1a92f9-a469-49be-ae33-4794a606317c"},"vehicle_type_id":"4","last_reported":1689797226,"current_range_meters":14000,"station_id":"ce4bhs92rcd13ifvqi0g","pricing_plan_id":"free"},{"bike_id":"bccd87f9-44fb-4c8c-b55e-836d1e79bd1d","system_id":"levelo_inurba_marseille","lat":43.328371,"lon":5.366909,"is_reserved":false,"is_disabled":false,"rental_uris":{"android":"levelo://app?vid=bccd87f9-44fb-4c8c-b55e-836d1e79bd1d","ios":"levelo://app?vid=bccd87f9-44fb-4c8c-b55e-836d1e79bd1d"},"vehicle_type_id":"4","last_reported":1689797226,"current_range_meters":20800,"station_id":"ce4bhs92rcd13ifvqi0g","pricing_plan_id":"free"},{"bike_id":"68aff992-6a2f-4df7-84f1-5f129124d378","system_id":"levelo_inurba_marseille","lat":43.32827,"lon":5.36688,"is_reserved":false,"is_disabled":false,"rental_uris":{"android":"levelo://app?vid=68aff992-6a2f-4df7-84f1-5f129124d378","ios":"levelo://app?vid=68aff992-6a2f-4df7-84f1-5f129124d378"},"vehicle_type_id":"4","last_reported":1689797226,"current_range_meters":29200,"station_id":"ce4bhs92rcd13ifvqi0g","pricing_plan_id":"free"},{"bike_id":"c52398db-3149-4ccd-8b41-49b4cc753238","system_id":"levelo_inurba_marseille","lat":43.328371,"lon":5.366912,"is_reserved":false,"is_disabled":false,"rental_uris":{"android":"levelo://app?vid=c52398db-3149-4ccd-8b41-49b4cc753238","ios":"levelo://app?vid=c52398db-3149-4ccd-8b41-49b4cc753238"},"vehicle_type_id":"4","last_reported":1689797226,"current_range_meters":14400,"station_id":"ce4bhs92rcd13ifvqi0g","pricing_plan_id":"free"},{"bike_id":"deafdcb0-0448-4cec-a8c2-d76e16fe6f1d","system_id":"levelo_inurba_marseille","lat":43.328371,"lon":5.366912,"is_reserved":false,"is_disabled":false,"rental_uris":{"android":"levelo://app?vid=deafdcb0-0448-4cec-a8c2-d76e16fe6f1d","ios":"levelo://app?vid=deafdcb0-0448-4cec-a8c2-d76e16fe6f1d"},"vehicle_type_id":"4","last_reported":1689797226,"current_range_meters":10800,"station_id":"ce4bhs92rcd13ifvqi0g","pricing_plan_id":"free"},{"bike_id":"c60ae560-9dc6-4bdd-b313-baa25229a308","system_id":"levelo_inurba_marseille","lat":43.328371,"lon":5.366912,"is_reserved":false,"is_disabled":false,"rental_uris":{"android":"levelo://app?vid=c60ae560-9dc6-4bdd-b313-baa25229a308","ios":"levelo://app?vid=c60ae560-9dc6-4bdd-b313-baa25229a308"},"vehicle_type_id":"4","last_reported":1689797226,"current_range_meters":19200,"station_id":"ce4bhs92rcd13ifvqi0g","pricing_plan_id":"free"},{"bike_id":"da10ba33-5415-4d7a-97f6-c10c6d32e73b","system_id":"levelo_inurba_marseille","lat":43.3283,"lon":5.3669,"is_reserved":false,"is_disabled":false,"rental_uris":{"android":"levelo://app?vid=da10ba33-5415-4d7a-97f6-c10c6d32e73b","ios":"levelo://app?vid=da10ba33-5415-4d7a-97f6-c10c6d32e73b"},"vehicle_type_id":"4","last_reported":1689797226,"current_range_meters":11200,"station_id":"ce4bhs92rcd13ifvqi0g","pricing_plan_id":"free"},{"bike_id":"13d003be-42f5-4e3b-9b1b-d7cf7e52da36","system_id":"levelo_inurba_marseille","lat":43.3283,"lon":5.36687,"is_reserved":false,"is_disabled":false,"rental_uris":{"android":"levelo://app?vid=13d003be-42f5-4e3b-9b1b-d7cf7e52da36","ios":"levelo://app?vid=13d003be-42f5-4e3b-9b1b-d7cf7e52da36"},"vehicle_type_id":"4","last_reported":1689797226,"current_range_meters":19600,"station_id":"ce4bhs92rcd13ifvqi0g","pricing_plan_id":"free"},{"bike_id":"4339c714-480f-436b-b9e8-7710d4628761","system_id":"levelo_inurba_marseille","lat":43.32831,"lon":5.36687,"is_reserved":false,"is_disabled":false,"rental_uris":{"android":"levelo://app?vid=4339c714-480f-436b-b9e8-7710d4628761","ios":"levelo://app?vid=4339c714-480f-436b-b9e8-7710d4628761"},"vehicle_type_id":"4","last_reported":1689797226,"current_range_meters":10800,"station_id":"ce4bhs92rcd13ifvqi0g","pricing_plan_id":"free"},{"bike_id":"fa22a42c-19fd-4d4c-b13d-acfa470204e5","system_id":"levelo_inurba_marseille","lat":43.328371,"lon":5.366909,"is_reserved":false,"is_disabled":false,"rental_uris":{"android":"levelo://app?vid=fa22a42c-19fd-4d4c-b13d-acfa470204e5","ios":"levelo://app?vid=fa22a42c-19fd-4d4c-b13d-acfa470204e5"},"vehicle_type_id":"4","last_reported":1689797226,"current_range_meters":18800,"station_id":"ce4bhs92rcd13ifvqi0g","pricing_plan_id":"free"},{"bike_id":"3192c59c-2aad-4556-80d4-9c650ba1baa4","system_id":"levelo_inurba_marseille","lat":43.297163,"lon":5.365866,"is_reserved":false,"is_disabled":false,"rental_uris":{"android":"levelo://app?vid=3192c59c-2aad-4556-80d4-9c650ba1baa4","ios":"levelo://app?vid=3192c59c-2aad-4556-80d4-9c650ba1baa4"},"vehicle_type_id":"4","last_reported":1689797226,"current_range_meters":14800,"station_id":"ce4bgn12rcd13ifvqbt0","pricing_plan_id":"free"},{"bike_id":"5ee28161-84d1-4063-ae9f-588ab35f8626","system_id":"levelo_inurba_marseille","lat":43.297163,"lon":5.365866,"is_reserved":false,"is_disabled":false,"rental_uris":{"android":"levelo://app?vid=5ee28161-84d1-4063-ae9f-588ab35f8626","ios":"levelo://app?vid=5ee28161-84d1-4063-ae9f-588ab35f8626"},"vehicle_type_id":"4","last_reported":1689797226,"current_range_meters":15600,"station_id":"ce4bgn12rcd13ifvqbt0","pricing_plan_id":"free"},{"bike_id":"3916e407-8c11-4a2b-8e00-1d25f7bfdca8","system_id":"levelo_inurba_marseille","lat":43.297163,"lon":5.365866,"is_reserved":false,"is_disabled":false,"rental_uris":{"android":"levelo://app?vid=3916e407-8c11-4a2b-8e00-1d25f7bfdca8","ios":"levelo://app?vid=3916e407-8c11-4a2b-8e00-1d25f7bfdca8"},"vehicle_type_id":"4","last_reported":1689797226,"current_range_meters":25200,"station_id":"ce4bgn12rcd13ifvqbt0","pricing_plan_id":"free"},{"bike_id":"c8ae7394-5f90-4713-ac46-82381b4c84c4","system_id":"levelo_inurba_marseille","lat":43.297163,"lon":5.365866,"is_reserved":false,"is_disabled":false,"rental_uris":{"android":"levelo://app?vid=c8ae7394-5f90-4713-ac46-82381b4c84c4","ios":"levelo://app?vid=c8ae7394-5f90-4713-ac46-82381b4c84c4"},"vehicle_type_id":"4","last_reported":1689797226,"current_range_meters":16000,"station_id":"ce4bgn12rcd13ifvqbt0","pricing_plan_id":"free"},{"bike_id":"8dd7e157-1c0d-4e10-ae0e-d0ac7503eae8","system_id":"levelo_inurba_marseille","lat":43.297163,"lon":5.365866,"is_reserved":false,"is_disabled":false,"rental_uris":{"android":"levelo://app?vid=8dd7e157-1c0d-4e10-ae0e-d0ac7503eae8","ios":"levelo://app?vid=8dd7e157-1c0d-4e10-ae0e-d0ac7503eae8"},"vehicle_type_id":"4","last_reported":1689797226,"current_range_meters":29200,"station_id":"ce4bgn12rcd13ifvqbt0","pricing_plan_id":"free"},{"bike_id":"4f9a30f3-654d-44e2-8b68-1fe80e6d6a60","system_id":"levelo_inurba_marseille","lat":43.2968,"lon":5.37291,"is_reserved":false,"is_disabled":false,"rental_uris":{"android":"levelo://app?vid=4f9a30f3-654d-44e2-8b68-1fe80e6d6a60","ios":"levelo://app?vid=4f9a30f3-654d-44e2-8b68-1fe80e6d6a60"},"vehicle_type_id":"4","last_reported":1689797226,"current_range_meters":30400,"station_id":"ce4bgk12rcd13ifvqbj0","pricing_plan_id":"free"},{"bike_id":"5b8a7518-5216-454d-9b40-b7871c1908ae","system_id":"levelo_inurba_marseille","lat":43.2968,"lon":5.37291,"is_reserved":false,"is_disabled":false,"rental_uris":{"android":"levelo://app?vid=5b8a7518-5216-454d-9b40-b7871c1908ae","ios":"levelo://app?vid=5b8a7518-5216-454d-9b40-b7871c1908ae"},"vehicle_type_id":"4","last_reported":1689797226,"current_range_meters":7600,"station_id":"ce4bgk12rcd13ifvqbj0","pricing_plan_id":"free"},{"bike_id":"cfeae729-bd97-4b45-9e4d-33dca73e4bb1","system_id":"levelo_inurba_marseille","lat":43.2968,"lon":5.37291,"is_reserved":false,"is_disabled":false,"rental_uris":{"android":"levelo://app?vid=cfeae729-bd97-4b45-9e4d-33dca73e4bb1","ios":"levelo://app?vid=cfeae729-bd97-4b45-9e4d-33dca73e4bb1"},"vehicle_type_id":"4","last_reported":1689797226,"current_range_meters":20400,"station_id":"ce4bgk12rcd13ifvqbj0","pricing_plan_id":"free"},{"bike_id":"6c6910e7-02aa-4511-afdc-de4027496eb4","system_id":"levelo_inurba_marseille","lat":43.2968,"lon":5.37291,"is_reserved":false,"is_disabled":false,"rental_uris":{"android":"levelo://app?vid=6c6910e7-02aa-4511-afdc-de4027496eb4","ios":"levelo://app?vid=6c6910e7-02aa-4511-afdc-de4027496eb4"},"vehicle_type_id":"4","last_reported":1689797226,"current_range_meters":23600,"station_id":"ce4bgk12rcd13ifvqbj0","pricing_plan_id":"free"},{"bike_id":"b70b567e-b85b-4784-bca3-a6bed43532dd","system_id":"levelo_inurba_marseille","lat":43.29621,"lon":5.37163,"is_reserved":false,"is_disabled":false,"rental_uris":{"android":"levelo://app?vid=b70b567e-b85b-4784-bca3-a6bed43532dd","ios":"levelo://app?vid=b70b567e-b85b-4784-bca3-a6bed43532dd"},"vehicle_type_id":"4","last_reported":1689797226,"current_range_meters":20800,"station_id":"","pricing_plan_id":"free"},{"bike_id":"d837d6c0-8bf1-4d13-8783-5b1726bd41ab","system_id":"levelo_inurba_marseille","lat":43.296131,"lon":5.370773,"is_reserved":false,"is_disabled":false,"rental_uris":{"android":"levelo://app?vid=d837d6c0-8bf1-4d13-8783-5b1726bd41ab","ios":"levelo://app?vid=d837d6c0-8bf1-4d13-8783-5b1726bd41ab"},"vehicle_type_id":"4","last_reported":1689797226,"current_range_meters":6000,"station_id":"ce4bgnh2rcd13ifvqc0g","pricing_plan_id":"free"},{"bike_id":"c8a36828-15ec-4b0b-8c8b-6cc7259d2771","system_id":"levelo_inurba_marseille","lat":43.29573,"lon":5.367355,"is_reserved":false,"is_disabled":false,"rental_uris":{"android":"levelo://app?vid=c8a36828-15ec-4b0b-8c8b-6cc7259d2771","ios":"levelo://app?vid=c8a36828-15ec-4b0b-8c8b-6cc7259d2771"},"vehicle_type_id":"4","last_reported":1689797226,"current_range_meters":20800,"station_id":"ce4bgph2rcd13ifvqc2g","pricing_plan_id":"free"},{"bike_id":"1beec325-4d8f-4c00-b885-b78818bc7f58","system_id":"levelo_inurba_marseille","lat":43.29582,"lon":5.3675,"is_reserved":false,"is_disabled":false,"rental_uris":{"android":"levelo://app?vid=1beec325-4d8f-4c00-b885-b78818bc7f58","ios":"levelo://app?vid=1beec325-4d8f-4c00-b885-b78818bc7f58"},"vehicle_type_id":"4","last_reported":1689797226,"current_range_meters":28400,"station_id":"ce4bgph2rcd13ifvqc2g","pricing_plan_id":"free"},{"bike_id":"60ff305d-c2e9-4b4f-b3a3-ba066b9e5c3d","system_id":"levelo_inurba_marseille","lat":43.29581,"lon":5.36732,"is_reserved":false,"is_disabled":false,"rental_uris":{"android":"levelo://app?vid=60ff305d-c2e9-4b4f-b3a3-ba066b9e5c3d","ios":"levelo://app?vid=60ff305d-c2e9-4b4f-b3a3-ba066b9e5c3d"},"vehicle_type_id":"4","last_reported":1689797226,"current_range_meters":22800,"station_id":"ce4bgph2rcd13ifvqc2g","pricing_plan_id":"free"},{"bike_id":"f58a82b5-ae03-4611-a3a5-8a41c25c502d","system_id":"levelo_inurba_marseille","lat":43.29573,"lon":5.367355,"is_reserved":false,"is_disabled":false,"rental_uris":{"android":"levelo://app?vid=f58a82b5-ae03-4611-a3a5-8a41c25c502d","ios":"levelo://app?vid=f58a82b5-ae03-4611-a3a5-8a41c25c502d"},"vehicle_type_id":"4","last_reported":1689797226,"current_range_meters":0,"station_id":"ce4bgph2rcd13ifvqc2g","pricing_plan_id":"free"},{"bike_id":"66bca24f-c741-4519-bb11-2489646e93bd","system_id":"levelo_inurba_marseille","lat":43.29573,"lon":5.367355,"is_reserved":false,"is_disabled":false,"rental_uris":{"android":"levelo://app?vid=66bca24f-c741-4519-bb11-2489646e93bd","ios":"levelo://app?vid=66bca24f-c741-4519-bb11-2489646e93bd"},"vehicle_type_id":"4","last_reported":1689797226,"current_range_meters":21200,"station_id":"ce4bgph2rcd13ifvqc2g","pricing_plan_id":"free"},{"bike_id":"94cc6a0d-737b-42da-a1ee-fe66ad937afd","system_id":"levelo_inurba_marseille","lat":43.309589,"lon":5.390258,"is_reserved":false,"is_disabled":false,"rental_uris":{"android":"levelo://app?vid=94cc6a0d-737b-42da-a1ee-fe66ad937afd","ios":"levelo://app?vid=94cc6a0d-737b-42da-a1ee-fe66ad937afd"},"vehicle_type_id":"4","last_reported":1689797226,"current_range_meters":5600,"station_id":"ce4bgup2rcd13ifvqco0","pricing_plan_id":"free"},{"bike_id":"18c3e19e-3bf2-4353-a051-b482eb6255ad","system_id":"levelo_inurba_marseille","lat":43.29573,"lon":5.367355,"is_reserved":false,"is_disabled":false,"rental_uris":{"android":"levelo://app?vid=18c3e19e-3bf2-4353-a051-b482eb6255ad","ios":"levelo://app?vid=18c3e19e-3bf2-4353-a051-b482eb6255ad"},"vehicle_type_id":"4","last_reported":1689797226,"current_range_meters":25200,"station_id":"ce4bgph2rcd13ifvqc2g","pricing_plan_id":"free"},{"bike_id":"0187d2bb-bb23-4c1f-91d5-6759474e6f9c","system_id":"levelo_inurba_marseille","lat":43.29573,"lon":5.367355,"is_reserved":false,"is_disabled":false,"rental_uris":{"android":"levelo://app?vid=0187d2bb-bb23-4c1f-91d5-6759474e6f9c","ios":"levelo://app?vid=0187d2bb-bb23-4c1f-91d5-6759474e6f9c"},"vehicle_type_id":"4","last_reported":1689797226,"current_range_meters":0,"station_id":"ce4bgph2rcd13ifvqc2g","pricing_plan_id":"free"},{"bike_id":"e9050a86-ae45-468d-8d18-4c25b97c7075","system_id":"levelo_inurba_marseille","lat":43.296935,"lon":5.376544,"is_reserved":false,"is_disabled":false,"rental_uris":{"android":"levelo://app?vid=e9050a86-ae45-468d-8d18-4c25b97c7075","ios":"levelo://app?vid=e9050a86-ae45-468d-8d18-4c25b97c7075"},"vehicle_type_id":"4","last_reported":1689797226,"current_range_meters":31600,"station_id":"ce4bgkh2rcd13ifvqbl0","pricing_plan_id":"free"},{"bike_id":"fcfcfb07-e7bb-4229-bd40-2bf888c50e96","system_id":"levelo_inurba_marseille","lat":43.296935,"lon":5.376544,"is_reserved":false,"is_disabled":false,"rental_uris":{"android":"levelo://app?vid=fcfcfb07-e7bb-4229-bd40-2bf888c50e96","ios":"levelo://app?vid=fcfcfb07-e7bb-4229-bd40-2bf888c50e96"},"vehicle_type_id":"4","last_reported":1689797226,"current_range_meters":2000,"station_id":"ce4bgkh2rcd13ifvqbl0","pricing_plan_id":"free"},{"bike_id":"f9d209b6-dc93-4a81-b83c-3c2bb6c98dd6","system_id":"levelo_inurba_marseille","lat":43.29622,"lon":5.36034,"is_reserved":false,"is_disabled":false,"rental_uris":{"android":"levelo://app?vid=f9d209b6-dc93-4a81-b83c-3c2bb6c98dd6","ios":"levelo://app?vid=f9d209b6-dc93-4a81-b83c-3c2bb6c98dd6"},"vehicle_type_id":"4","last_reported":1689797226,"current_range_meters":26400,"station_id":"","pricing_plan_id":"free"},{"bike_id":"39d396cb-18b9-4666-8acf-90d9bddbdb47","system_id":"levelo_inurba_marseille","lat":43.299028,"lon":5.381509,"is_reserved":false,"is_disabled":false,"rental_uris":{"android":"levelo://app?vid=39d396cb-18b9-4666-8acf-90d9bddbdb47","ios":"levelo://app?vid=39d396cb-18b9-4666-8acf-90d9bddbdb47"},"vehicle_type_id":"4","last_reported":1689797226,"current_range_meters":23600,"station_id":"ce4bgj12rcd13ifvqbc0","pricing_plan_id":"free"},{"bike_id":"4ba7d06b-350f-4d41-83b0-07d897c408af","system_id":"levelo_inurba_marseille","lat":43.299028,"lon":5.381509,"is_reserved":false,"is_disabled":false,"rental_uris":{"android":"levelo://app?vid=4ba7d06b-350f-4d41-83b0-07d897c408af","ios":"levelo://app?vid=4ba7d06b-350f-4d41-83b0-07d897c408af"},"vehicle_type_id":"4","last_reported":1689797226,"current_range_meters":31200,"station_id":"ce4bgj12rcd13ifvqbc0","pricing_plan_id":"free"},{"bike_id":"44492cb2-0763-4644-8429-316db2c06f14","system_id":"levelo_inurba_marseille","lat":43.29906,"lon":5.38139,"is_reserved":false,"is_disabled":false,"rental_uris":{"android":"levelo://app?vid=44492cb2-0763-4644-8429-316db2c06f14","ios":"levelo://app?vid=44492cb2-0763-4644-8429-316db2c06f14"},"vehicle_type_id":"4","last_reported":1689797226,"current_range_meters":18400,"station_id":"ce4bgj12rcd13ifvqbc0","pricing_plan_id":"free"},{"bike_id":"4e20b501-fb73-4531-a92b-eb4c42b192b1","system_id":"levelo_inurba_marseille","lat":43.296921,"lon":5.376579,"is_reserved":false,"is_disabled":false,"rental_uris":{"android":"levelo://app?vid=4e20b501-fb73-4531-a92b-eb4c42b192b1","ios":"levelo://app?vid=4e20b501-fb73-4531-a92b-eb4c42b192b1"},"vehicle_type_id":"4","last_reported":1689797226,"current_range_meters":3200,"station_id":"ce4bgkh2rcd13ifvqbl0","pricing_plan_id":"free"},{"bike_id":"3dc61cf6-fa35-48eb-afef-e23be226d178","system_id":"levelo_inurba_marseille","lat":43.29901,"lon":5.38136,"is_reserved":false,"is_disabled":false,"rental_uris":{"android":"levelo://app?vid=3dc61cf6-fa35-48eb-afef-e23be226d178","ios":"levelo://app?vid=3dc61cf6-fa35-48eb-afef-e23be226d178"},"vehicle_type_id":"4","last_reported":1689797226,"current_range_meters":19200,"station_id":"ce4bgj12rcd13ifvqbc0","pricing_plan_id":"free"},{"bike_id":"b86cb754-69c8-4a52-acfc-71fdbe6682dd","system_id":"levelo_inurba_marseille","lat":43.299028,"lon":5.381509,"is_reserved":false,"is_disabled":false,"rental_uris":{"android":"levelo://app?vid=b86cb754-69c8-4a52-acfc-71fdbe6682dd","ios":"levelo://app?vid=b86cb754-69c8-4a52-acfc-71fdbe6682dd"},"vehicle_type_id":"4","last_reported":1689797226,"current_range_meters":27200,"station_id":"ce4bgj12rcd13ifvqbc0","pricing_plan_id":"free"},{"bike_id":"08fcd5ed-86a8-4fa2-8b07-02a6ae0fafae","system_id":"levelo_inurba_marseille","lat":43.29904,"lon":5.38145,"is_reserved":false,"is_disabled":false,"rental_uris":{"android":"levelo://app?vid=08fcd5ed-86a8-4fa2-8b07-02a6ae0fafae","ios":"levelo://app?vid=08fcd5ed-86a8-4fa2-8b07-02a6ae0fafae"},"vehicle_type_id":"4","last_reported":1689797226,"current_range_meters":20800,"station_id":"ce4bgj12rcd13ifvqbc0","pricing_plan_id":"free"},{"bike_id":"aab1b9b6-1de0-4872-ac8a-a097207f04f1","system_id":"levelo_inurba_marseille","lat":43.299028,"lon":5.381509,"is_reserved":false,"is_disabled":false,"rental_uris":{"android":"levelo://app?vid=aab1b9b6-1de0-4872-ac8a-a097207f04f1","ios":"levelo://app?vid=aab1b9b6-1de0-4872-ac8a-a097207f04f1"},"vehicle_type_id":"4","last_reported":1689797226,"current_range_meters":31200,"station_id":"ce4bgj12rcd13ifvqbc0","pricing_plan_id":"free"},{"bike_id":"0067aad5-1eb9-4b8d-8773-71092011dd0a","system_id":"levelo_inurba_marseille","lat":43.309589,"lon":5.390258,"is_reserved":false,"is_disabled":false,"rental_uris":{"android":"levelo://app?vid=0067aad5-1eb9-4b8d-8773-71092011dd0a","ios":"levelo://app?vid=0067aad5-1eb9-4b8d-8773-71092011dd0a"},"vehicle_type_id":"4","last_reported":1689797226,"current_range_meters":29600,"station_id":"ce4bgup2rcd13ifvqco0","pricing_plan_id":"free"},{"bike_id":"3e68acac-5d66-4f9e-aca6-91f240b0491a","system_id":"levelo_inurba_marseille","lat":43.299028,"lon":5.381509,"is_reserved":false,"is_disabled":false,"rental_uris":{"android":"levelo://app?vid=3e68acac-5d66-4f9e-aca6-91f240b0491a","ios":"levelo://app?vid=3e68acac-5d66-4f9e-aca6-91f240b0491a"},"vehicle_type_id":"4","last_reported":1689797226,"current_range_meters":30400,"station_id":"ce4bgj12rcd13ifvqbc0","pricing_plan_id":"free"},{"bike_id":"577d7ee5-96b3-4588-a247-6bcb1650368c","system_id":"levelo_inurba_marseille","lat":43.309589,"lon":5.390258,"is_reserved":false,"is_disabled":false,"rental_uris":{"android":"levelo://app?vid=577d7ee5-96b3-4588-a247-6bcb1650368c","ios":"levelo://app?vid=577d7ee5-96b3-4588-a247-6bcb1650368c"},"vehicle_type_id":"4","last_reported":1689797226,"current_range_meters":28400,"station_id":"ce4bgup2rcd13ifvqco0","pricing_plan_id":"free"},{"bike_id":"bb576ec3-6280-4aad-a50a-6f5a38127f82","system_id":"levelo_inurba_marseille","lat":43.299028,"lon":5.381509,"is_reserved":false,"is_disabled":false,"rental_uris":{"android":"levelo://app?vid=bb576ec3-6280-4aad-a50a-6f5a38127f82","ios":"levelo://app?vid=bb576ec3-6280-4aad-a50a-6f5a38127f82"},"vehicle_type_id":"4","last_reported":1689797226,"current_range_meters":28800,"station_id":"ce4bgj12rcd13ifvqbc0","pricing_plan_id":"free"},{"bike_id":"547ebcab-c826-47da-a439-80020c8fa12b","system_id":"levelo_inurba_marseille","lat":43.299028,"lon":5.381509,"is_reserved":false,"is_disabled":false,"rental_uris":{"android":"levelo://app?vid=547ebcab-c826-47da-a439-80020c8fa12b","ios":"levelo://app?vid=547ebcab-c826-47da-a439-80020c8fa12b"},"vehicle_type_id":"4","last_reported":1689797226,"current_range_meters":24400,"station_id":"ce4bgj12rcd13ifvqbc0","pricing_plan_id":"free"},{"bike_id":"433b16e5-ef4a-484c-a62d-532404766549","system_id":"levelo_inurba_marseille","lat":43.317557,"lon":5.390173,"is_reserved":false,"is_disabled":false,"rental_uris":{"android":"levelo://app?vid=433b16e5-ef4a-484c-a62d-532404766549","ios":"levelo://app?vid=433b16e5-ef4a-484c-a62d-532404766549"},"vehicle_type_id":"4","last_reported":1689797226,"current_range_meters":27600,"station_id":"ce4bhqp2rcd13ifvqhng","pricing_plan_id":"free"},{"bike_id":"50737f05-2c23-4da9-86bb-1dfe7beffc1f","system_id":"levelo_inurba_marseille","lat":43.29799,"lon":5.38095,"is_reserved":false,"is_disabled":false,"rental_uris":{"android":"levelo://app?vid=50737f05-2c23-4da9-86bb-1dfe7beffc1f","ios":"levelo://app?vid=50737f05-2c23-4da9-86bb-1dfe7beffc1f"},"vehicle_type_id":"4","last_reported":1689797226,"current_range_meters":25600,"station_id":"","pricing_plan_id":"free"},{"bike_id":"672c759f-1e9e-4232-804c-7502f26c1dc4","system_id":"levelo_inurba_marseille","lat":43.295748,"lon":5.37522,"is_reserved":false,"is_disabled":false,"rental_uris":{"android":"levelo://app?vid=672c759f-1e9e-4232-804c-7502f26c1dc4","ios":"levelo://app?vid=672c759f-1e9e-4232-804c-7502f26c1dc4"},"vehicle_type_id":"4","last_reported":1689797226,"current_range_meters":6400,"station_id":"ce4bgh92rcd13ifvqb50","pricing_plan_id":"free"},{"bike_id":"19a1dd82-a145-4b80-b738-92494de2c75c","system_id":"levelo_inurba_marseille","lat":43.295279,"lon":5.375048,"is_reserved":false,"is_disabled":false,"rental_uris":{"android":"levelo://app?vid=19a1dd82-a145-4b80-b738-92494de2c75c","ios":"levelo://app?vid=19a1dd82-a145-4b80-b738-92494de2c75c"},"vehicle_type_id":"4","last_reported":1689797226,"current_range_meters":12800,"station_id":"ce4bgkp2rcd13ifvqbmg","pricing_plan_id":"free"},{"bike_id":"b201d5c9-2487-4a4d-9486-801352ffe77b","system_id":"levelo_inurba_marseille","lat":43.299707,"lon":5.384859,"is_reserved":false,"is_disabled":false,"rental_uris":{"android":"levelo://app?vid=b201d5c9-2487-4a4d-9486-801352ffe77b","ios":"levelo://app?vid=b201d5c9-2487-4a4d-9486-801352ffe77b"},"vehicle_type_id":"4","last_reported":1689797226,"current_range_meters":18000,"station_id":"ce4bgj92rcd13ifvqbd0","pricing_plan_id":"free"},{"bike_id":"e28b485b-cb4f-4f22-9900-ee7e92cfd184","system_id":"levelo_inurba_marseille","lat":43.299707,"lon":5.384859,"is_reserved":false,"is_disabled":false,"rental_uris":{"android":"levelo://app?vid=e28b485b-cb4f-4f22-9900-ee7e92cfd184","ios":"levelo://app?vid=e28b485b-cb4f-4f22-9900-ee7e92cfd184"},"vehicle_type_id":"4","last_reported":1689797226,"current_range_meters":12800,"station_id":"ce4bgj92rcd13ifvqbd0","pricing_plan_id":"free"},{"bike_id":"8915427b-c342-4dd9-a656-1ede38c32562","system_id":"levelo_inurba_marseille","lat":43.29975,"lon":5.3849,"is_reserved":false,"is_disabled":false,"rental_uris":{"android":"levelo://app?vid=8915427b-c342-4dd9-a656-1ede38c32562","ios":"levelo://app?vid=8915427b-c342-4dd9-a656-1ede38c32562"},"vehicle_type_id":"4","last_reported":1689797226,"current_range_meters":23600,"station_id":"ce4bgj92rcd13ifvqbd0","pricing_plan_id":"free"},{"bike_id":"354a0ba5-e887-4181-bcbd-a25b2f01dbfb","system_id":"levelo_inurba_marseille","lat":43.299724,"lon":5.384848,"is_reserved":false,"is_disabled":false,"rental_uris":{"android":"levelo://app?vid=354a0ba5-e887-4181-bcbd-a25b2f01dbfb","ios":"levelo://app?vid=354a0ba5-e887-4181-bcbd-a25b2f01dbfb"},"vehicle_type_id":"4","last_reported":1689797226,"current_range_meters":10000,"station_id":"ce4bgj92rcd13ifvqbd0","pricing_plan_id":"free"},{"bike_id":"38770162-7c67-425c-a043-712da5f9b2d7","system_id":"levelo_inurba_marseille","lat":43.299707,"lon":5.384859,"is_reserved":false,"is_disabled":false,"rental_uris":{"android":"levelo://app?vid=38770162-7c67-425c-a043-712da5f9b2d7","ios":"levelo://app?vid=38770162-7c67-425c-a043-712da5f9b2d7"},"vehicle_type_id":"4","last_reported":1689797226,"current_range_meters":2800,"station_id":"ce4bgj92rcd13ifvqbd0","pricing_plan_id":"free"},{"bike_id":"0ab1fa93-4b94-41d9-93e9-159116400a02","system_id":"levelo_inurba_marseille","lat":43.29973,"lon":5.38493,"is_reserved":false,"is_disabled":false,"rental_uris":{"android":"levelo://app?vid=0ab1fa93-4b94-41d9-93e9-159116400a02","ios":"levelo://app?vid=0ab1fa93-4b94-41d9-93e9-159116400a02"},"vehicle_type_id":"4","last_reported":1689797226,"current_range_meters":28400,"station_id":"ce4bgj92rcd13ifvqbd0","pricing_plan_id":"free"},{"bike_id":"15ae5af0-f7b7-40a6-99fb-150dd9b34de9","system_id":"levelo_inurba_marseille","lat":43.295279,"lon":5.375048,"is_reserved":false,"is_disabled":false,"rental_uris":{"android":"levelo://app?vid=15ae5af0-f7b7-40a6-99fb-150dd9b34de9","ios":"levelo://app?vid=15ae5af0-f7b7-40a6-99fb-150dd9b34de9"},"vehicle_type_id":"4","last_reported":1689797226,"current_range_meters":22400,"station_id":"ce4bgkp2rcd13ifvqbmg","pricing_plan_id":"free"},{"bike_id":"350642f8-b006-4b71-8e93-6f4f5bf5787a","system_id":"levelo_inurba_marseille","lat":43.299717,"lon":5.384845,"is_reserved":false,"is_disabled":false,"rental_uris":{"android":"levelo://app?vid=350642f8-b006-4b71-8e93-6f4f5bf5787a","ios":"levelo://app?vid=350642f8-b006-4b71-8e93-6f4f5bf5787a"},"vehicle_type_id":"4","last_reported":1689797226,"current_range_meters":12400,"station_id":"ce4bgj92rcd13ifvqbd0","pricing_plan_id":"free"},{"bike_id":"3d8307bf-791c-404b-aa4c-f140601e29d0","system_id":"levelo_inurba_marseille","lat":43.299717,"lon":5.384845,"is_reserved":false,"is_disabled":false,"rental_uris":{"android":"levelo://app?vid=3d8307bf-791c-404b-aa4c-f140601e29d0","ios":"levelo://app?vid=3d8307bf-791c-404b-aa4c-f140601e29d0"},"vehicle_type_id":"4","last_reported":1689797226,"current_range_meters":18000,"station_id":"ce4bgj92rcd13ifvqbd0","pricing_plan_id":"free"},{"bike_id":"b42befd7-6d2f-4249-bad3-ecde31bc38e8","system_id":"levelo_inurba_marseille","lat":43.29969,"lon":5.38497,"is_reserved":false,"is_disabled":false,"rental_uris":{"android":"levelo://app?vid=b42befd7-6d2f-4249-bad3-ecde31bc38e8","ios":"levelo://app?vid=b42befd7-6d2f-4249-bad3-ecde31bc38e8"},"vehicle_type_id":"4","last_reported":1689797226,"current_range_meters":15600,"station_id":"ce4bgj92rcd13ifvqbd0","pricing_plan_id":"free"},{"bike_id":"c5723839-40ae-4989-9f22-5253f1c65d04","system_id":"levelo_inurba_marseille","lat":43.2997,"lon":5.38499,"is_reserved":false,"is_disabled":false,"rental_uris":{"android":"levelo://app?vid=c5723839-40ae-4989-9f22-5253f1c65d04","ios":"levelo://app?vid=c5723839-40ae-4989-9f22-5253f1c65d04"},"vehicle_type_id":"4","last_reported":1689797226,"current_range_meters":12400,"station_id":"ce4bgj92rcd13ifvqbd0","pricing_plan_id":"free"},{"bike_id":"ee6f5e6e-a0e7-4321-a493-3a496a081ecd","system_id":"levelo_inurba_marseille","lat":43.29972,"lon":5.38504,"is_reserved":false,"is_disabled":false,"rental_uris":{"android":"levelo://app?vid=ee6f5e6e-a0e7-4321-a493-3a496a081ecd","ios":"levelo://app?vid=ee6f5e6e-a0e7-4321-a493-3a496a081ecd"},"vehicle_type_id":"4","last_reported":1689797226,"current_range_meters":19200,"station_id":"ce4bgj92rcd13ifvqbd0","pricing_plan_id":"free"},{"bike_id":"d64f2987-6e49-4b79-9fe9-f351df0c05f4","system_id":"levelo_inurba_marseille","lat":43.295279,"lon":5.375048,"is_reserved":false,"is_disabled":false,"rental_uris":{"android":"levelo://app?vid=d64f2987-6e49-4b79-9fe9-f351df0c05f4","ios":"levelo://app?vid=d64f2987-6e49-4b79-9fe9-f351df0c05f4"},"vehicle_type_id":"4","last_reported":1689797226,"current_range_meters":24000,"station_id":"ce4bgkp2rcd13ifvqbmg","pricing_plan_id":"free"},{"bike_id":"466b8be3-4ee0-458b-926f-ea1f8e9ce435","system_id":"levelo_inurba_marseille","lat":43.29963,"lon":5.38496,"is_reserved":false,"is_disabled":false,"rental_uris":{"android":"levelo://app?vid=466b8be3-4ee0-458b-926f-ea1f8e9ce435","ios":"levelo://app?vid=466b8be3-4ee0-458b-926f-ea1f8e9ce435"},"vehicle_type_id":"4","last_reported":1689797226,"current_range_meters":28000,"station_id":"ce4bgj92rcd13ifvqbd0","pricing_plan_id":"free"},{"bike_id":"f37f64bb-e83b-4660-a8f5-9c0f634cb78e","system_id":"levelo_inurba_marseille","lat":43.295279,"lon":5.375048,"is_reserved":false,"is_disabled":false,"rental_uris":{"android":"levelo://app?vid=f37f64bb-e83b-4660-a8f5-9c0f634cb78e","ios":"levelo://app?vid=f37f64bb-e83b-4660-a8f5-9c0f634cb78e"},"vehicle_type_id":"4","last_reported":1689797226,"current_range_meters":11600,"station_id":"ce4bgkp2rcd13ifvqbmg","pricing_plan_id":"free"},{"bike_id":"61229be2-0960-48eb-b40b-2ad919debe09","system_id":"levelo_inurba_marseille","lat":43.2996,"lon":5.38499,"is_reserved":false,"is_disabled":false,"rental_uris":{"android":"levelo://app?vid=61229be2-0960-48eb-b40b-2ad919debe09","ios":"levelo://app?vid=61229be2-0960-48eb-b40b-2ad919debe09"},"vehicle_type_id":"4","last_reported":1689797226,"current_range_meters":16000,"station_id":"ce4bgj92rcd13ifvqbd0","pricing_plan_id":"free"},{"bike_id":"7bd88bd0-e57b-43af-8a6e-0967debe6b12","system_id":"levelo_inurba_marseille","lat":43.299724,"lon":5.384848,"is_reserved":false,"is_disabled":false,"rental_uris":{"android":"levelo://app?vid=7bd88bd0-e57b-43af-8a6e-0967debe6b12","ios":"levelo://app?vid=7bd88bd0-e57b-43af-8a6e-0967debe6b12"},"vehicle_type_id":"4","last_reported":1689797226,"current_range_meters":31200,"station_id":"ce4bgj92rcd13ifvqbd0","pricing_plan_id":"free"},{"bike_id":"9bbeb734-dc63-4688-b2a4-0cefc7868ce3","system_id":"levelo_inurba_marseille","lat":43.295279,"lon":5.375048,"is_reserved":false,"is_disabled":false,"rental_uris":{"android":"levelo://app?vid=9bbeb734-dc63-4688-b2a4-0cefc7868ce3","ios":"levelo://app?vid=9bbeb734-dc63-4688-b2a4-0cefc7868ce3"},"vehicle_type_id":"4","last_reported":1689797226,"current_range_meters":18800,"station_id":"ce4bgkp2rcd13ifvqbmg","pricing_plan_id":"free"},{"bike_id":"cd91c437-f36a-4c1c-b133-2b926ebfaa54","system_id":"levelo_inurba_marseille","lat":43.29957,"lon":5.38504,"is_reserved":false,"is_disabled":false,"rental_uris":{"android":"levelo://app?vid=cd91c437-f36a-4c1c-b133-2b926ebfaa54","ios":"levelo://app?vid=cd91c437-f36a-4c1c-b133-2b926ebfaa54"},"vehicle_type_id":"4","last_reported":1689797226,"current_range_meters":14800,"station_id":"ce4bgj92rcd13ifvqbd0","pricing_plan_id":"free"},{"bike_id":"1a5b5c4b-5f40-41c1-92f3-0aabb852d443","system_id":"levelo_inurba_marseille","lat":43.32367,"lon":5.388836,"is_reserved":false,"is_disabled":false,"rental_uris":{"android":"levelo://app?vid=1a5b5c4b-5f40-41c1-92f3-0aabb852d443","ios":"levelo://app?vid=1a5b5c4b-5f40-41c1-92f3-0aabb852d443"},"vehicle_type_id":"4","last_reported":1689797226,"current_range_meters":20000,"station_id":"ce4bhqp2rcd13ifvqhog","pricing_plan_id":"free"},{"bike_id":"9b412f08-a29d-4638-a972-39ea1fce4e0c","system_id":"levelo_inurba_marseille","lat":43.29599,"lon":5.38098,"is_reserved":false,"is_disabled":false,"rental_uris":{"android":"levelo://app?vid=9b412f08-a29d-4638-a972-39ea1fce4e0c","ios":"levelo://app?vid=9b412f08-a29d-4638-a972-39ea1fce4e0c"},"vehicle_type_id":"4","last_reported":1689797226,"current_range_meters":4400,"station_id":"","pricing_plan_id":"free"},{"bike_id":"68185b9f-8aac-440b-8362-a6811b119de2","system_id":"levelo_inurba_marseille","lat":43.29601,"lon":5.381084,"is_reserved":false,"is_disabled":false,"rental_uris":{"android":"levelo://app?vid=68185b9f-8aac-440b-8362-a6811b119de2","ios":"levelo://app?vid=68185b9f-8aac-440b-8362-a6811b119de2"},"vehicle_type_id":"4","last_reported":1689797226,"current_range_meters":12400,"station_id":"ce4bgl12rcd13ifvqbo0","pricing_plan_id":"free"},{"bike_id":"f915b948-14f5-4d48-b527-3af1214dac74","system_id":"levelo_inurba_marseille","lat":43.29602,"lon":5.381084,"is_reserved":false,"is_disabled":false,"rental_uris":{"android":"levelo://app?vid=f915b948-14f5-4d48-b527-3af1214dac74","ios":"levelo://app?vid=f915b948-14f5-4d48-b527-3af1214dac74"},"vehicle_type_id":"4","last_reported":1689797226,"current_range_meters":17200,"station_id":"ce4bgl12rcd13ifvqbo0","pricing_plan_id":"free"},{"bike_id":"89024f3f-38f6-4c33-a6a3-757e64c3efcd","system_id":"levelo_inurba_marseille","lat":43.29602,"lon":5.381084,"is_reserved":false,"is_disabled":false,"rental_uris":{"android":"levelo://app?vid=89024f3f-38f6-4c33-a6a3-757e64c3efcd","ios":"levelo://app?vid=89024f3f-38f6-4c33-a6a3-757e64c3efcd"},"vehicle_type_id":"4","last_reported":1689797226,"current_range_meters":9200,"station_id":"ce4bgl12rcd13ifvqbo0","pricing_plan_id":"free"},{"bike_id":"694c8c66-c750-4576-8264-7bf306ac8e21","system_id":"levelo_inurba_marseille","lat":43.29273,"lon":5.36849,"is_reserved":false,"is_disabled":false,"rental_uris":{"android":"levelo://app?vid=694c8c66-c750-4576-8264-7bf306ac8e21","ios":"levelo://app?vid=694c8c66-c750-4576-8264-7bf306ac8e21"},"vehicle_type_id":"4","last_reported":1689797226,"current_range_meters":15600,"station_id":"ce4bhbp2rcd13ifvqesg","pricing_plan_id":"free"},{"bike_id":"327448c9-ec25-4e8f-8153-b647b1e4ddba","system_id":"levelo_inurba_marseille","lat":43.292749,"lon":5.368402,"is_reserved":false,"is_disabled":false,"rental_uris":{"android":"levelo://app?vid=327448c9-ec25-4e8f-8153-b647b1e4ddba","ios":"levelo://app?vid=327448c9-ec25-4e8f-8153-b647b1e4ddba"},"vehicle_type_id":"4","last_reported":1689797226,"current_range_meters":14800,"station_id":"ce4bhbp2rcd13ifvqesg","pricing_plan_id":"free"},{"bike_id":"0726044d-daed-4838-9ab8-b28600964bd4","system_id":"levelo_inurba_marseille","lat":43.293009,"lon":5.374584,"is_reserved":false,"is_disabled":false,"rental_uris":{"android":"levelo://app?vid=0726044d-daed-4838-9ab8-b28600964bd4","ios":"levelo://app?vid=0726044d-daed-4838-9ab8-b28600964bd4"},"vehicle_type_id":"4","last_reported":1689797226,"current_range_meters":28800,"station_id":"ce4bgi12rcd13ifvqb70","pricing_plan_id":"free"},{"bike_id":"ecf9c0ba-db0d-4f30-976d-d69c6d1c00dc","system_id":"levelo_inurba_marseille","lat":43.29302,"lon":5.37461,"is_reserved":false,"is_disabled":false,"rental_uris":{"android":"levelo://app?vid=ecf9c0ba-db0d-4f30-976d-d69c6d1c00dc","ios":"levelo://app?vid=ecf9c0ba-db0d-4f30-976d-d69c6d1c00dc"},"vehicle_type_id":"4","last_reported":1689797226,"current_range_meters":29200,"station_id":"ce4bgi12rcd13ifvqb70","pricing_plan_id":"free"},{"bike_id":"f3f47c28-c78e-4692-9ec2-e685b898a133","system_id":"levelo_inurba_marseille","lat":43.293009,"lon":5.374584,"is_reserved":false,"is_disabled":false,"rental_uris":{"android":"levelo://app?vid=f3f47c28-c78e-4692-9ec2-e685b898a133","ios":"levelo://app?vid=f3f47c28-c78e-4692-9ec2-e685b898a133"},"vehicle_type_id":"4","last_reported":1689797226,"current_range_meters":6400,"station_id":"ce4bgi12rcd13ifvqb70","pricing_plan_id":"free"},{"bike_id":"1b985553-3902-4cf8-80c2-b491e09c5487","system_id":"levelo_inurba_marseille","lat":43.29293,"lon":5.3746,"is_reserved":false,"is_disabled":false,"rental_uris":{"android":"levelo://app?vid=1b985553-3902-4cf8-80c2-b491e09c5487","ios":"levelo://app?vid=1b985553-3902-4cf8-80c2-b491e09c5487"},"vehicle_type_id":"4","last_reported":1689797226,"current_range_meters":2400,"station_id":"ce4bgi12rcd13ifvqb70","pricing_plan_id":"free"},{"bike_id":"c692545d-74c9-484b-a2ff-ee571d589158","system_id":"levelo_inurba_marseille","lat":43.30593,"lon":5.39362,"is_reserved":false,"is_disabled":false,"rental_uris":{"android":"levelo://app?vid=c692545d-74c9-484b-a2ff-ee571d589158","ios":"levelo://app?vid=c692545d-74c9-484b-a2ff-ee571d589158"},"vehicle_type_id":"4","last_reported":1689797226,"current_range_meters":2400,"station_id":"ce4bh0p2rcd13ifvqd80","pricing_plan_id":"free"},{"bike_id":"c11f8a9b-b321-4cd4-8216-77d73b4fff9b","system_id":"levelo_inurba_marseille","lat":43.29287,"lon":5.37452,"is_reserved":false,"is_disabled":false,"rental_uris":{"android":"levelo://app?vid=c11f8a9b-b321-4cd4-8216-77d73b4fff9b","ios":"levelo://app?vid=c11f8a9b-b321-4cd4-8216-77d73b4fff9b"},"vehicle_type_id":"4","last_reported":1689797226,"current_range_meters":29200,"station_id":"ce4bgi12rcd13ifvqb70","pricing_plan_id":"free"},{"bike_id":"def737c6-fb6e-48fa-bfd3-872198ef731e","system_id":"levelo_inurba_marseille","lat":43.303002,"lon":5.392142,"is_reserved":false,"is_disabled":false,"rental_uris":{"android":"levelo://app?vid=def737c6-fb6e-48fa-bfd3-872198ef731e","ios":"levelo://app?vid=def737c6-fb6e-48fa-bfd3-872198ef731e"},"vehicle_type_id":"4","last_reported":1689797226,"current_range_meters":21200,"station_id":"ce4bgkh2rcd13ifvqbk0","pricing_plan_id":"free"},{"bike_id":"168f5f9d-6a17-4bf4-89f2-4fe46ffe4f80","system_id":"levelo_inurba_marseille","lat":43.302992,"lon":5.392136,"is_reserved":false,"is_disabled":false,"rental_uris":{"android":"levelo://app?vid=168f5f9d-6a17-4bf4-89f2-4fe46ffe4f80","ios":"levelo://app?vid=168f5f9d-6a17-4bf4-89f2-4fe46ffe4f80"},"vehicle_type_id":"4","last_reported":1689797226,"current_range_meters":24800,"station_id":"ce4bgkh2rcd13ifvqbk0","pricing_plan_id":"free"},{"bike_id":"ca9db8f9-2545-4b97-94ed-d13f8563c3d1","system_id":"levelo_inurba_marseille","lat":43.302992,"lon":5.392136,"is_reserved":false,"is_disabled":false,"rental_uris":{"android":"levelo://app?vid=ca9db8f9-2545-4b97-94ed-d13f8563c3d1","ios":"levelo://app?vid=ca9db8f9-2545-4b97-94ed-d13f8563c3d1"},"vehicle_type_id":"4","last_reported":1689797226,"current_range_meters":14000,"station_id":"ce4bgkh2rcd13ifvqbk0","pricing_plan_id":"free"},{"bike_id":"f634662a-87ac-4bb0-afd2-60550f374c39","system_id":"levelo_inurba_marseille","lat":43.302992,"lon":5.392136,"is_reserved":false,"is_disabled":false,"rental_uris":{"android":"levelo://app?vid=f634662a-87ac-4bb0-afd2-60550f374c39","ios":"levelo://app?vid=f634662a-87ac-4bb0-afd2-60550f374c39"},"vehicle_type_id":"4","last_reported":1689797226,"current_range_meters":400,"station_id":"ce4bgkh2rcd13ifvqbk0","pricing_plan_id":"free"},{"bike_id":"9ffb7072-e02f-4f2a-ba00-81c890b4f49f","system_id":"levelo_inurba_marseille","lat":43.30296,"lon":5.39211,"is_reserved":false,"is_disabled":false,"rental_uris":{"android":"levelo://app?vid=9ffb7072-e02f-4f2a-ba00-81c890b4f49f","ios":"levelo://app?vid=9ffb7072-e02f-4f2a-ba00-81c890b4f49f"},"vehicle_type_id":"4","last_reported":1689797226,"current_range_meters":0,"station_id":"ce4bgkh2rcd13ifvqbk0","pricing_plan_id":"free"},{"bike_id":"746b9755-69e9-4384-9638-62133a1f7e5f","system_id":"levelo_inurba_marseille","lat":43.30293,"lon":5.3921,"is_reserved":false,"is_disabled":false,"rental_uris":{"android":"levelo://app?vid=746b9755-69e9-4384-9638-62133a1f7e5f","ios":"levelo://app?vid=746b9755-69e9-4384-9638-62133a1f7e5f"},"vehicle_type_id":"4","last_reported":1689797226,"current_range_meters":8000,"station_id":"ce4bgkh2rcd13ifvqbk0","pricing_plan_id":"free"},{"bike_id":"2a5257a6-dbc2-4ef9-afd0-4b7dd16e59bf","system_id":"levelo_inurba_marseille","lat":43.290995,"lon":5.381361,"is_reserved":false,"is_disabled":false,"rental_uris":{"android":"levelo://app?vid=2a5257a6-dbc2-4ef9-afd0-4b7dd16e59bf","ios":"levelo://app?vid=2a5257a6-dbc2-4ef9-afd0-4b7dd16e59bf"},"vehicle_type_id":"4","last_reported":1689797226,"current_range_meters":22000,"station_id":"ce4bh512rcd13ifvqe2g","pricing_plan_id":"free"},{"bike_id":"d64e984a-11a5-4332-9f41-bc34a0374ab4","system_id":"levelo_inurba_marseille","lat":43.292311,"lon":5.360731,"is_reserved":false,"is_disabled":false,"rental_uris":{"android":"levelo://app?vid=d64e984a-11a5-4332-9f41-bc34a0374ab4","ios":"levelo://app?vid=d64e984a-11a5-4332-9f41-bc34a0374ab4"},"vehicle_type_id":"4","last_reported":1689797226,"current_range_meters":20400,"station_id":"ce4bhbh2rcd13ifvqeqg","pricing_plan_id":"free"},{"bike_id":"e6737a1d-6bc7-4247-b7aa-4646748407b1","system_id":"levelo_inurba_marseille","lat":43.29221,"lon":5.36066,"is_reserved":false,"is_disabled":false,"rental_uris":{"android":"levelo://app?vid=e6737a1d-6bc7-4247-b7aa-4646748407b1","ios":"levelo://app?vid=e6737a1d-6bc7-4247-b7aa-4646748407b1"},"vehicle_type_id":"4","last_reported":1689797226,"current_range_meters":26400,"station_id":"ce4bhbh2rcd13ifvqeqg","pricing_plan_id":"free"},{"bike_id":"f688a2cd-4fe1-4b57-8842-de63631294c5","system_id":"levelo_inurba_marseille","lat":43.298764,"lon":5.388973,"is_reserved":false,"is_disabled":false,"rental_uris":{"android":"levelo://app?vid=f688a2cd-4fe1-4b57-8842-de63631294c5","ios":"levelo://app?vid=f688a2cd-4fe1-4b57-8842-de63631294c5"},"vehicle_type_id":"4","last_reported":1689797226,"current_range_meters":29200,"station_id":"ce4bh392rcd13ifvqdl0","pricing_plan_id":"free"},{"bike_id":"1deb9488-95a1-43ca-b06e-63c9d231777b","system_id":"levelo_inurba_marseille","lat":43.298764,"lon":5.388973,"is_reserved":false,"is_disabled":false,"rental_uris":{"android":"levelo://app?vid=1deb9488-95a1-43ca-b06e-63c9d231777b","ios":"levelo://app?vid=1deb9488-95a1-43ca-b06e-63c9d231777b"},"vehicle_type_id":"4","last_reported":1689797226,"current_range_meters":26400,"station_id":"ce4bh392rcd13ifvqdl0","pricing_plan_id":"free"},{"bike_id":"9d0e22e2-fb2b-48d7-b212-43dbb276e039","system_id":"levelo_inurba_marseille","lat":43.291671,"lon":5.371575,"is_reserved":false,"is_disabled":false,"rental_uris":{"android":"levelo://app?vid=9d0e22e2-fb2b-48d7-b212-43dbb276e039","ios":"levelo://app?vid=9d0e22e2-fb2b-48d7-b212-43dbb276e039"},"vehicle_type_id":"4","last_reported":1689797226,"current_range_meters":26000,"station_id":"ce4bha92rcd13ifvqeh0","pricing_plan_id":"free"},{"bike_id":"4b91d3d3-3202-4e77-9595-a2f7ee913d78","system_id":"levelo_inurba_marseille","lat":43.298764,"lon":5.388973,"is_reserved":false,"is_disabled":false,"rental_uris":{"android":"levelo://app?vid=4b91d3d3-3202-4e77-9595-a2f7ee913d78","ios":"levelo://app?vid=4b91d3d3-3202-4e77-9595-a2f7ee913d78"},"vehicle_type_id":"4","last_reported":1689797226,"current_range_meters":29600,"station_id":"ce4bh392rcd13ifvqdl0","pricing_plan_id":"free"},{"bike_id":"4e5d0700-4c01-41fd-8ef7-1f94730a8d2a","system_id":"levelo_inurba_marseille","lat":43.298764,"lon":5.388973,"is_reserved":false,"is_disabled":false,"rental_uris":{"android":"levelo://app?vid=4e5d0700-4c01-41fd-8ef7-1f94730a8d2a","ios":"levelo://app?vid=4e5d0700-4c01-41fd-8ef7-1f94730a8d2a"},"vehicle_type_id":"4","last_reported":1689797226,"current_range_meters":31200,"station_id":"ce4bh392rcd13ifvqdl0","pricing_plan_id":"free"},{"bike_id":"ee5cecc0-b570-48ce-9228-c7e7d6a822b0","system_id":"levelo_inurba_marseille","lat":43.298764,"lon":5.388973,"is_reserved":false,"is_disabled":false,"rental_uris":{"android":"levelo://app?vid=ee5cecc0-b570-48ce-9228-c7e7d6a822b0","ios":"levelo://app?vid=ee5cecc0-b570-48ce-9228-c7e7d6a822b0"},"vehicle_type_id":"4","last_reported":1689797226,"current_range_meters":22800,"station_id":"ce4bh392rcd13ifvqdl0","pricing_plan_id":"free"},{"bike_id":"ba9742d5-5e1e-458f-9055-959b9ff70161","system_id":"levelo_inurba_marseille","lat":43.309038,"lon":5.396546,"is_reserved":false,"is_disabled":false,"rental_uris":{"android":"levelo://app?vid=ba9742d5-5e1e-458f-9055-959b9ff70161","ios":"levelo://app?vid=ba9742d5-5e1e-458f-9055-959b9ff70161"},"vehicle_type_id":"4","last_reported":1689797226,"current_range_meters":24800,"station_id":"ce4bh012rcd13ifvqcv0","pricing_plan_id":"free"},{"bike_id":"7c789a75-961e-4af4-9e93-0152b71a380d","system_id":"levelo_inurba_marseille","lat":43.309038,"lon":5.396546,"is_reserved":false,"is_disabled":false,"rental_uris":{"android":"levelo://app?vid=7c789a75-961e-4af4-9e93-0152b71a380d","ios":"levelo://app?vid=7c789a75-961e-4af4-9e93-0152b71a380d"},"vehicle_type_id":"4","last_reported":1689797226,"current_range_meters":14000,"station_id":"ce4bh012rcd13ifvqcv0","pricing_plan_id":"free"},{"bike_id":"853dfe9a-e3a1-4dee-9291-ad8b2b807dc1","system_id":"levelo_inurba_marseille","lat":43.2919,"lon":5.35799,"is_reserved":false,"is_disabled":false,"rental_uris":{"android":"levelo://app?vid=853dfe9a-e3a1-4dee-9291-ad8b2b807dc1","ios":"levelo://app?vid=853dfe9a-e3a1-4dee-9291-ad8b2b807dc1"},"vehicle_type_id":"4","last_reported":1689797226,"current_range_meters":26400,"station_id":"ce4bhb12rcd13ifvqel0","pricing_plan_id":"free"},{"bike_id":"892468a7-8e76-4722-b45a-401394794269","system_id":"levelo_inurba_marseille","lat":43.313291,"lon":5.396838,"is_reserved":false,"is_disabled":false,"rental_uris":{"android":"levelo://app?vid=892468a7-8e76-4722-b45a-401394794269","ios":"levelo://app?vid=892468a7-8e76-4722-b45a-401394794269"},"vehicle_type_id":"4","last_reported":1689797226,"current_range_meters":3600,"station_id":"ce4bgvp2rcd13ifvqcu0","pricing_plan_id":"free"},{"bike_id":"458a3ca6-27f1-4f2d-8349-a3026b98698f","system_id":"levelo_inurba_marseille","lat":43.309038,"lon":5.396546,"is_reserved":false,"is_disabled":false,"rental_uris":{"android":"levelo://app?vid=458a3ca6-27f1-4f2d-8349-a3026b98698f","ios":"levelo://app?vid=458a3ca6-27f1-4f2d-8349-a3026b98698f"},"vehicle_type_id":"4","last_reported":1689797226,"current_range_meters":4800,"station_id":"ce4bh012rcd13ifvqcv0","pricing_plan_id":"free"},{"bike_id":"2dbde184-76e3-4790-bf1f-c786b5b157ae","system_id":"levelo_inurba_marseille","lat":43.309038,"lon":5.396546,"is_reserved":false,"is_disabled":false,"rental_uris":{"android":"levelo://app?vid=2dbde184-76e3-4790-bf1f-c786b5b157ae","ios":"levelo://app?vid=2dbde184-76e3-4790-bf1f-c786b5b157ae"},"vehicle_type_id":"4","last_reported":1689797226,"current_range_meters":28400,"station_id":"ce4bh012rcd13ifvqcv0","pricing_plan_id":"free"},{"bike_id":"35a6a6a1-876b-4ba0-9c19-bf16bd5f31eb","system_id":"levelo_inurba_marseille","lat":43.29537,"lon":5.38543,"is_reserved":false,"is_disabled":false,"rental_uris":{"android":"levelo://app?vid=35a6a6a1-876b-4ba0-9c19-bf16bd5f31eb","ios":"levelo://app?vid=35a6a6a1-876b-4ba0-9c19-bf16bd5f31eb"},"vehicle_type_id":"4","last_reported":1689797226,"current_range_meters":18400,"station_id":"ce4bgih2rcd13ifvqba0","pricing_plan_id":"free"},{"bike_id":"c632a5aa-2b82-489c-9408-a8d049e96f9b","system_id":"levelo_inurba_marseille","lat":43.29529,"lon":5.385581,"is_reserved":false,"is_disabled":false,"rental_uris":{"android":"levelo://app?vid=c632a5aa-2b82-489c-9408-a8d049e96f9b","ios":"levelo://app?vid=c632a5aa-2b82-489c-9408-a8d049e96f9b"},"vehicle_type_id":"4","last_reported":1689797226,"current_range_meters":21200,"station_id":"ce4bgih2rcd13ifvqba0","pricing_plan_id":"free"},{"bike_id":"cd3b3478-31f2-44a8-9032-5029c9f2194b","system_id":"levelo_inurba_marseille","lat":43.29529,"lon":5.385581,"is_reserved":false,"is_disabled":false,"rental_uris":{"android":"levelo://app?vid=cd3b3478-31f2-44a8-9032-5029c9f2194b","ios":"levelo://app?vid=cd3b3478-31f2-44a8-9032-5029c9f2194b"},"vehicle_type_id":"4","last_reported":1689797226,"current_range_meters":15600,"station_id":"ce4bgih2rcd13ifvqba0","pricing_plan_id":"free"},{"bike_id":"fb4e1993-7681-4994-8308-26b752f8e018","system_id":"levelo_inurba_marseille","lat":43.29529,"lon":5.385581,"is_reserved":false,"is_disabled":false,"rental_uris":{"android":"levelo://app?vid=fb4e1993-7681-4994-8308-26b752f8e018","ios":"levelo://app?vid=fb4e1993-7681-4994-8308-26b752f8e018"},"vehicle_type_id":"4","last_reported":1689797226,"current_range_meters":4800,"station_id":"ce4bgih2rcd13ifvqba0","pricing_plan_id":"free"},{"bike_id":"977a52a0-ee85-4d9f-97b6-9cdb9f8f29d6","system_id":"levelo_inurba_marseille","lat":43.29529,"lon":5.385581,"is_reserved":false,"is_disabled":false,"rental_uris":{"android":"levelo://app?vid=977a52a0-ee85-4d9f-97b6-9cdb9f8f29d6","ios":"levelo://app?vid=977a52a0-ee85-4d9f-97b6-9cdb9f8f29d6"},"vehicle_type_id":"4","last_reported":1689797226,"current_range_meters":20000,"station_id":"ce4bgih2rcd13ifvqba0","pricing_plan_id":"free"},{"bike_id":"a6e4de9a-7039-467e-af25-4f53cae29d70","system_id":"levelo_inurba_marseille","lat":43.29529,"lon":5.385581,"is_reserved":false,"is_disabled":false,"rental_uris":{"android":"levelo://app?vid=a6e4de9a-7039-467e-af25-4f53cae29d70","ios":"levelo://app?vid=a6e4de9a-7039-467e-af25-4f53cae29d70"},"vehicle_type_id":"4","last_reported":1689797226,"current_range_meters":4000,"station_id":"ce4bgih2rcd13ifvqba0","pricing_plan_id":"free"},{"bike_id":"e68b5237-e636-44ae-9f1a-c25a2affefb3","system_id":"levelo_inurba_marseille","lat":43.29529,"lon":5.385581,"is_reserved":false,"is_disabled":false,"rental_uris":{"android":"levelo://app?vid=e68b5237-e636-44ae-9f1a-c25a2affefb3","ios":"levelo://app?vid=e68b5237-e636-44ae-9f1a-c25a2affefb3"},"vehicle_type_id":"4","last_reported":1689797226,"current_range_meters":1600,"station_id":"ce4bgih2rcd13ifvqba0","pricing_plan_id":"free"},{"bike_id":"63fd2eab-7ac6-4ed0-b44e-3fa3b7805a8a","system_id":"levelo_inurba_marseille","lat":43.29529,"lon":5.385581,"is_reserved":false,"is_disabled":false,"rental_uris":{"android":"levelo://app?vid=63fd2eab-7ac6-4ed0-b44e-3fa3b7805a8a","ios":"levelo://app?vid=63fd2eab-7ac6-4ed0-b44e-3fa3b7805a8a"},"vehicle_type_id":"4","last_reported":1689797226,"current_range_meters":3600,"station_id":"ce4bgih2rcd13ifvqba0","pricing_plan_id":"free"},{"bike_id":"c347a57a-2d63-4dad-9ccd-5f6252c64d58","system_id":"levelo_inurba_marseille","lat":43.29529,"lon":5.385581,"is_reserved":false,"is_disabled":false,"rental_uris":{"android":"levelo://app?vid=c347a57a-2d63-4dad-9ccd-5f6252c64d58","ios":"levelo://app?vid=c347a57a-2d63-4dad-9ccd-5f6252c64d58"},"vehicle_type_id":"4","last_reported":1689797226,"current_range_meters":5600,"station_id":"ce4bgih2rcd13ifvqba0","pricing_plan_id":"free"},{"bike_id":"161d7d0a-cdbd-47c9-b08c-fe5d2da93bb5","system_id":"levelo_inurba_marseille","lat":43.290779,"lon":5.371482,"is_reserved":false,"is_disabled":false,"rental_uris":{"android":"levelo://app?vid=161d7d0a-cdbd-47c9-b08c-fe5d2da93bb5","ios":"levelo://app?vid=161d7d0a-cdbd-47c9-b08c-fe5d2da93bb5"},"vehicle_type_id":"4","last_reported":1689797226,"current_range_meters":18800,"station_id":"ce4bh5p2rcd13ifvqe4g","pricing_plan_id":"free"},{"bike_id":"84f79b76-1326-47fb-82a2-db0115256a02","system_id":"levelo_inurba_marseille","lat":43.290779,"lon":5.371482,"is_reserved":false,"is_disabled":false,"rental_uris":{"android":"levelo://app?vid=84f79b76-1326-47fb-82a2-db0115256a02","ios":"levelo://app?vid=84f79b76-1326-47fb-82a2-db0115256a02"},"vehicle_type_id":"4","last_reported":1689797226,"current_range_meters":24400,"station_id":"ce4bh5p2rcd13ifvqe4g","pricing_plan_id":"free"},{"bike_id":"b69faa0e-7096-4522-acce-d15564b8da8f","system_id":"levelo_inurba_marseille","lat":43.290779,"lon":5.371482,"is_reserved":false,"is_disabled":false,"rental_uris":{"android":"levelo://app?vid=b69faa0e-7096-4522-acce-d15564b8da8f","ios":"levelo://app?vid=b69faa0e-7096-4522-acce-d15564b8da8f"},"vehicle_type_id":"4","last_reported":1689797226,"current_range_meters":31600,"station_id":"ce4bh5p2rcd13ifvqe4g","pricing_plan_id":"free"},