{"last_updated":1733256683,"ttl":60,"version":"2.2","data":{"bikes":[{"bike_id":"f70c644f-0702-4500-b281-df95e9cad7d9","system_id":"levelo_inurba_marseille","lat":43.289108,"lon":5.384058,"is_reserved":false,"is_disabled":false,"rental_uris":{"android":"levelo://app?vid=f70c644f-0702-4500-b281-df95e9cad7d9","ios":"levelo://app?vid=f70c644f-0702-4500-b281-df95e9cad7d9"},"vehicle_type_id":"4","last_reported":1733256684,"current_range_meters":7200,"station_id":"ce4bh612rcd13ifvqe6g","pricing_plan_id":"cebpf4jnsgd1na2vs0mg"},{"bike_id":"df479c2c-35ac-44ad-b9d6-81c89ed769ce","system_id":"levelo_inurba_marseille","lat":43.29696,"lon":5.37054,"is_reserved":false,"is_disabled":true,"rental_uris":{"android":"levelo://app?vid=df479c2c-35ac-44ad-b9d6-81c89ed769ce","ios":"levelo://app?vid=df479c2c-35ac-44ad-b9d6-81c89ed769ce"},"vehicle_type_id":"4","last_reported":1733256684,"current_range_meters":0,"station_id":"","pricing_plan_id":"cebpf4jnsgd1na2vs0mg"},{"bike_id":"8e029eaf-e104-4c5d-858d-6cd39de73d09","system_id":"levelo_inurba_marseille","lat":43.24162,"lon":5.36389,"is_reserved":false,"is_disabled":false,"rental_uris":{"android":"levelo://app?vid=8e029eaf-e104-4c5d-858d-6cd39de73d09","ios":"levelo://app?vid=8e029eaf-e104-4c5d-858d-6cd39de73d09"},"vehicle_type_id":"4","last_reported":1733256684,"current_range_meters":13600,"station_id":"cpo36qri1sfpv3e86is0","pricing_plan_id":"cebpf4jnsgd1na2vs0mg"},{"bike_id":"fd85f247-bc9f-4512-8957-89e7641ccdee","system_id":"levelo_inurba_marseille","lat":43.32476,"lon":5.36575,"is_reserved":false,"is_disabled":false,"rental_uris":{"android":"levelo://app?vid=fd85f247-bc9f-4512-8957-89e7641ccdee","ios":"levelo://app?vid=fd85f247-bc9f-4512-8957-89e7641ccdee"},"vehicle_type_id":"4","last_reported":1733256684,"current_range_meters":37600,"station_id":"ce4bhs12rcd13ifvqhvg","pricing_plan_id":"cebpf4jnsgd1na2vs0mg"},{"bike_id":"d6cf49a9-66ae-4e46-91f8-44b36ab435b0","system_id":"levelo_inurba_marseille","lat":43.26564,"lon":5.39013,"is_reserved":false,"is_disabled":true,"rental_uris":{"android":"levelo://app?vid=d6cf49a9-66ae-4e46-91f8-44b36ab435b0","ios":"levelo://app?vid=d6cf49a9-66ae-4e46-91f8-44b36ab435b0"},"vehicle_type_id":"4","last_reported":1733256684,"current_range_meters":0,"station_id":"ce4bhe12rcd13ifvqf30","pricing_plan_id":"cebpf4jnsgd1na2vs0mg"},{"bike_id":"51b51fa2-c31e-4579-91e7-095efd534359","system_id":"levelo_inurba_marseille","lat":43.231956,"lon":5.355457,"is_reserved":false,"is_disabled":false,"rental_uris":{"android":"levelo://app?vid=51b51fa2-c31e-4579-91e7-095efd534359","ios":"levelo://app?vid=51b51fa2-c31e-4579-91e7-095efd534359"},"vehicle_type_id":"4","last_reported":1733256684,"current_range_meters":38800,"station_id":"ce4bhu92rcd13ifvqi70","pricing_plan_id":"cebpf4jnsgd1na2vs0mg"},{"bike_id":"bf2697d8-6d9e-4d88-9119-8a9081010bc1","system_id":"levelo_inurba_marseille","lat":43.28003,"lon":5.40009,"is_reserved":false,"is_disabled":false,"rental_uris":{"android":"levelo://app?vid=bf2697d8-6d9e-4d88-9119-8a9081010bc1","ios":"levelo://app?vid=bf2697d8-6d9e-4d88-9119-8a9081010bc1"},"vehicle_type_id":"4","last_reported":1733256684,"current_range_meters":39200,"station_id":"ce4bho92rcd13ifvqh4g","pricing_plan_id":"cebpf4jnsgd1na2vs0mg"},{"bike_id":"44667e0e-3f11-43c3-8c43-85aa4e53fc8f","system_id":"levelo_inurba_marseille","lat":43.30416,"lon":5.41286,"is_reserved":false,"is_disabled":true,"rental_uris":{"android":"levelo://app?vid=44667e0e-3f11-43c3-8c43-85aa4e53fc8f","ios":"levelo://app?vid=44667e0e-3f11-43c3-8c43-85aa4e53fc8f"},"vehicle_type_id":"4","last_reported":1733256684,"current_range_meters":0,"station_id":"ce4bhop2rcd13ifvqh8g","pricing_plan_id":"cebpf4jnsgd1na2vs0mg"},{"bike_id":"be407bbe-d1ce-48de-8db2-09114af9efd7","system_id":"levelo_inurba_marseille","lat":43.32364,"lon":5.36755,"is_reserved":false,"is_disabled":false,"rental_uris":{"android":"levelo://app?vid=be407bbe-d1ce-48de-8db2-09114af9efd7","ios":"levelo://app?vid=be407bbe-d1ce-48de-8db2-09114af9efd7"},"vehicle_type_id":"4","last_reported":1733256684,"current_range_meters":37600,"station_id":"ce4bhsh2rcd13ifvqi2g","pricing_plan_id":"cebpf4jnsgd1na2vs0mg"},{"bike_id":"d7dbcf0e-e106-424c-996c-6cd9cd757ab9","system_id":"levelo_inurba_marseille","lat":43.29007,"lon":5.3561,"is_reserved":false,"is_disabled":false,"rental_uris":{"android":"levelo://app?vid=d7dbcf0e-e106-424c-996c-6cd9cd757ab9","ios":"levelo://app?vid=d7dbcf0e-e106-424c-996c-6cd9cd757ab9"},"vehicle_type_id":"4","last_reported":1733256684,"current_range_meters":30000,"station_id":"ce4bhb92rcd13ifvqen0","pricing_plan_id":"cebpf4jnsgd1na2vs0mg"},{"bike_id":"e40b678c-7cbe-44b0-93b4-49adceef9719","system_id":"levelo_inurba_marseille","lat":43.27814,"lon":5.40701,"is_reserved":false,"is_disabled":false,"rental_uris":{"android":"levelo://app?vid=e40b678c-7cbe-44b0-93b4-49adceef9719","ios":"levelo://app?vid=e40b678c-7cbe-44b0-93b4-49adceef9719"},"vehicle_type_id":"4","last_reported":1733256684,"current_range_meters":24000,"station_id":"ce4bhnh2rcd13ifvqgtg","pricing_plan_id":"cebpf4jnsgd1na2vs0mg"},{"bike_id":"d8336ea8-90bc-4350-bb3f-6d8f1f984358","system_id":"levelo_inurba_marseille","lat":43.26943,"lon":5.40253,"is_reserved":false,"is_disabled":false,"rental_uris":{"android":"levelo://app?vid=d8336ea8-90bc-4350-bb3f-6d8f1f984358","ios":"levelo://app?vid=d8336ea8-90bc-4350-bb3f-6d8f1f984358"},"vehicle_type_id":"4","last_reported":1733256684,"current_range_meters":38800,"station_id":"cjm6bp8fraef2m0cb0m0","pricing_plan_id":"cebpf4jnsgd1na2vs0mg"},{"bike_id":"8bd642b2-0279-44c7-9ee2-fc3b57332c83","system_id":"levelo_inurba_marseille","lat":43.27455,"lon":5.40073,"is_reserved":false,"is_disabled":true,"rental_uris":{"android":"levelo://app?vid=8bd642b2-0279-44c7-9ee2-fc3b57332c83","ios":"levelo://app?vid=8bd642b2-0279-44c7-9ee2-fc3b57332c83"},"vehicle_type_id":"4","last_reported":1733256684,"current_range_meters":0,"station_id":"","pricing_plan_id":"cebpf4jnsgd1na2vs0mg"},{"bike_id":"6bf4110d-986c-4044-ae49-e1e8b2aadc14","system_id":"levelo_inurba_marseille","lat":43.28157,"lon":5.42643,"is_reserved":false,"is_disabled":false,"rental_uris":{"android":"levelo://app?vid=6bf4110d-986c-4044-ae49-e1e8b2aadc14","ios":"levelo://app?vid=6bf4110d-986c-4044-ae49-e1e8b2aadc14"},"vehicle_type_id":"4","last_reported":1733256684,"current_range_meters":37600,"station_id":"ce4bhnh2rcd13ifvqgug","pricing_plan_id":"cebpf4jnsgd1na2vs0mg"},{"bike_id":"71138e1c-a5b3-413d-83c0-65f8aafbbe56","system_id":"levelo_inurba_marseille","lat":43.2407,"lon":5.37764,"is_reserved":false,"is_disabled":true,"rental_uris":{"android":"levelo://app?vid=71138e1c-a5b3-413d-83c0-65f8aafbbe56","ios":"levelo://app?vid=71138e1c-a5b3-413d-83c0-65f8aafbbe56"},"vehicle_type_id":"4","last_reported":1733256684,"current_range_meters":1600,"station_id":"ce4bhnp2rcd13ifvqgvg","pricing_plan_id":"cebpf4jnsgd1na2vs0mg"},{"bike_id":"647c9f5d-38ae-406a-af37-47e78bdb92c8","system_id":"levelo_inurba_marseille","lat":43.337444,"lon":5.374475,"is_reserved":false,"is_disabled":false,"rental_uris":{"android":"levelo://app?vid=647c9f5d-38ae-406a-af37-47e78bdb92c8","ios":"levelo://app?vid=647c9f5d-38ae-406a-af37-47e78bdb92c8"},"vehicle_type_id":"4","last_reported":1733256684,"current_range_meters":23200,"station_id":"","pricing_plan_id":"cebpf4jnsgd1na2vs0mg"},{"bike_id":"2a8bea7a-c003-4a5e-9cc2-8b79eb366d78","system_id":"levelo_inurba_marseille","lat":43.26195,"lon":5.37452,"is_reserved":false,"is_disabled":true,"rental_uris":{"android":"levelo://app?vid=2a8bea7a-c003-4a5e-9cc2-8b79eb366d78","ios":"levelo://app?vid=2a8bea7a-c003-4a5e-9cc2-8b79eb366d78"},"vehicle_type_id":"4","last_reported":1733256684,"current_range_meters":36400,"station_id":"ce4bhgp2rcd13ifvqfc0","pricing_plan_id":"cebpf4jnsgd1na2vs0mg"},{"bike_id":"cc2cfcf6-1009-4fe2-8b83-637c73b31711","system_id":"levelo_inurba_marseille","lat":43.29444,"lon":5.39741,"is_reserved":false,"is_disabled":false,"rental_uris":{"android":"levelo://app?vid=cc2cfcf6-1009-4fe2-8b83-637c73b31711","ios":"levelo://app?vid=cc2cfcf6-1009-4fe2-8b83-637c73b31711"},"vehicle_type_id":"4","last_reported":1733256684,"current_range_meters":12800,"station_id":"ce4bh3h2rcd13ifvqdo0","pricing_plan_id":"cebpf4jnsgd1na2vs0mg"},{"bike_id":"594cc245-413d-4ab3-93f9-c3a896ffb37f","system_id":"levelo_inurba_marseille","lat":43.27617,"lon":5.36106,"is_reserved":false,"is_disabled":false,"rental_uris":{"android":"levelo://app?vid=594cc245-413d-4ab3-93f9-c3a896ffb37f","ios":"levelo://app?vid=594cc245-413d-4ab3-93f9-c3a896ffb37f"},"vehicle_type_id":"4","last_reported":1733256684,"current_range_meters":32000,"station_id":"ce4bgj92rcd13ifvqbe0","pricing_plan_id":"cebpf4jnsgd1na2vs0mg"},{"bike_id":"c9ae347f-afd8-436c-933c-cf5e2e790d85","system_id":"levelo_inurba_marseille","lat":43.30196,"lon":5.39458,"is_reserved":false,"is_disabled":true,"rental_uris":{"android":"levelo://app?vid=c9ae347f-afd8-436c-933c-cf5e2e790d85","ios":"levelo://app?vid=c9ae347f-afd8-436c-933c-cf5e2e790d85"},"vehicle_type_id":"4","last_reported":1733256684,"current_range_meters":33600,"station_id":"ce4bh0p2rcd13ifvqd70","pricing_plan_id":"cebpf4jnsgd1na2vs0mg"},{"bike_id":"16c81e58-5de2-4b13-a3b2-87a46dd75cc9","system_id":"levelo_inurba_marseille","lat":43.31757,"lon":5.39016,"is_reserved":false,"is_disabled":false,"rental_uris":{"android":"levelo://app?vid=16c81e58-5de2-4b13-a3b2-87a46dd75cc9","ios":"levelo://app?vid=16c81e58-5de2-4b13-a3b2-87a46dd75cc9"},"vehicle_type_id":"4","last_reported":1733256684,"current_range_meters":38800,"station_id":"ce4bhqp2rcd13ifvqhng","pricing_plan_id":"cebpf4jnsgd1na2vs0mg"},{"bike_id":"79dfac25-41ac-45aa-90f0-f5c14884ed87","system_id":"levelo_inurba_marseille","lat":43.2903,"lon":5.38656,"is_reserved":false,"is_disabled":false,"rental_uris":{"android":"levelo://app?vid=79dfac25-41ac-45aa-90f0-f5c14884ed87","ios":"levelo://app?vid=79dfac25-41ac-45aa-90f0-f5c14884ed87"},"vehicle_type_id":"4","last_reported":1733256684,"current_range_meters":30800,"station_id":"ce4bh4p2rcd13ifvqe0g","pricing_plan_id":"cebpf4jnsgd1na2vs0mg"},{"bike_id":"df7fdeec-c3bf-4f28-8d5e-46b6d8d9dc7d","system_id":"levelo_inurba_marseille","lat":43.29201,"lon":5.35789,"is_reserved":false,"is_disabled":false,"rental_uris":{"android":"levelo://app?vid=df7fdeec-c3bf-4f28-8d5e-46b6d8d9dc7d","ios":"levelo://app?vid=df7fdeec-c3bf-4f28-8d5e-46b6d8d9dc7d"},"vehicle_type_id":"4","last_reported":1733256684,"current_range_meters":38000,"station_id":"ce4bhb12rcd13ifvqel0","pricing_plan_id":"cebpf4jnsgd1na2vs0mg"},{"bike_id":"28b52837-d828-49e4-b4be-cfbac010c328","system_id":"levelo_inurba_marseille","lat":43.33727,"lon":5.39194,"is_reserved":false,"is_disabled":false,"rental_uris":{"android":"levelo://app?vid=28b52837-d828-49e4-b4be-cfbac010c328","ios":"levelo://app?vid=28b52837-d828-49e4-b4be-cfbac010c328"},"vehicle_type_id":"4","last_reported":1733256684,"current_range_meters":38800,"station_id":"ce4bhr92rcd13ifvqhsg","pricing_plan_id":"cebpf4jnsgd1na2vs0mg"},{"bike_id":"b3f478ac-3b05-4edf-bdbf-76399090f8e9","system_id":"levelo_inurba_marseille","lat":43.29994,"lon":5.37639,"is_reserved":false,"is_disabled":true,"rental_uris":{"android":"levelo://app?vid=b3f478ac-3b05-4edf-bdbf-76399090f8e9","ios":"levelo://app?vid=b3f478ac-3b05-4edf-bdbf-76399090f8e9"},"vehicle_type_id":"4","last_reported":1733256684,"current_range_meters":0,"station_id":"","pricing_plan_id":"cebpf4jnsgd1na2vs0mg"},{"bike_id":"c3587c28-5435-41c6-a9b7-aa468e6b19aa","system_id":"levelo_inurba_marseille","lat":43.29746,"lon":5.37916,"is_reserved":false,"is_disabled":true,"rental_uris":{"android":"levelo://app?vid=c3587c28-5435-41c6-a9b7-aa468e6b19aa","ios":"levelo://app?vid=c3587c28-5435-41c6-a9b7-aa468e6b19aa"},"vehicle_type_id":"4","last_reported":1733256684,"current_range_meters":0,"station_id":"","pricing_plan_id":"cebpf4jnsgd1na2vs0mg"},{"bike_id":"75c4f34a-89f4-4145-a2e2-7dafbc1cdf90","system_id":"levelo_inurba_marseille","lat":43.29004,"lon":5.37256,"is_reserved":false,"is_disabled":true,"rental_uris":{"android":"levelo://app?vid=75c4f34a-89f4-4145-a2e2-7dafbc1cdf90","ios":"levelo://app?vid=75c4f34a-89f4-4145-a2e2-7dafbc1cdf90"},"vehicle_type_id":"4","last_reported":1733256684,"current_range_meters":0,"station_id":"","pricing_plan_id":"cebpf4jnsgd1na2vs0mg"},{"bike_id":"d1e7e331-3210-4ed4-9a22-c153367e0fdc","system_id":"levelo_inurba_marseille","lat":43.29527,"lon":5.38536,"is_reserved":false,"is_disabled":false,"rental_uris":{"android":"levelo://app?vid=d1e7e331-3210-4ed4-9a22-c153367e0fdc","ios":"levelo://app?vid=d1e7e331-3210-4ed4-9a22-c153367e0fdc"},"vehicle_type_id":"4","last_reported":1733256684,"current_range_meters":3200,"station_id":"ce4bgih2rcd13ifvqba0","pricing_plan_id":"cebpf4jnsgd1na2vs0mg"},{"bike_id":"e8d9fcd3-6c4c-4c2e-a87e-41c5e4dfa6d0","system_id":"levelo_inurba_marseille","lat":43.25438,"lon":5.38158,"is_reserved":false,"is_disabled":true,"rental_uris":{"android":"levelo://app?vid=e8d9fcd3-6c4c-4c2e-a87e-41c5e4dfa6d0","ios":"levelo://app?vid=e8d9fcd3-6c4c-4c2e-a87e-41c5e4dfa6d0"},"vehicle_type_id":"4","last_reported":1733256684,"current_range_meters":0,"station_id":"","pricing_plan_id":"cebpf4jnsgd1na2vs0mg"},{"bike_id":"e7c2b082-ef91-42b1-9ef0-9e4329cee9cb","system_id":"levelo_inurba_marseille","lat":43.29872,"lon":5.40274,"is_reserved":false,"is_disabled":true,"rental_uris":{"android":"levelo://app?vid=e7c2b082-ef91-42b1-9ef0-9e4329cee9cb","ios":"levelo://app?vid=e7c2b082-ef91-42b1-9ef0-9e4329cee9cb"},"vehicle_type_id":"4","last_reported":1733256684,"current_range_meters":0,"station_id":"","pricing_plan_id":"cebpf4jnsgd1na2vs0mg"},{"bike_id":"00338470-4736-4e03-b8d8-f7f2c4f350f5","system_id":"levelo_inurba_marseille","lat":43.31326,"lon":5.39691,"is_reserved":false,"is_disabled":false,"rental_uris":{"android":"levelo://app?vid=00338470-4736-4e03-b8d8-f7f2c4f350f5","ios":"levelo://app?vid=00338470-4736-4e03-b8d8-f7f2c4f350f5"},"vehicle_type_id":"4","last_reported":1733256684,"current_range_meters":30000,"station_id":"ce4bgvp2rcd13ifvqcu0","pricing_plan_id":"cebpf4jnsgd1na2vs0mg"},{"bike_id":"ba2f11c3-a4e2-4666-8f95-d860b1c21946","system_id":"levelo_inurba_marseille","lat":43.2319,"lon":5.39979,"is_reserved":false,"is_disabled":false,"rental_uris":{"android":"levelo://app?vid=ba2f11c3-a4e2-4666-8f95-d860b1c21946","ios":"levelo://app?vid=ba2f11c3-a4e2-4666-8f95-d860b1c21946"},"vehicle_type_id":"4","last_reported":1733256684,"current_range_meters":33200,"station_id":"ce4bhn12rcd13ifvqgqg","pricing_plan_id":"cebpf4jnsgd1na2vs0mg"},{"bike_id":"e5af8f06-b11d-4a9c-a17e-c358f51ba456","system_id":"levelo_inurba_marseille","lat":43.24811,"lon":5.37462,"is_reserved":false,"is_disabled":false,"rental_uris":{"android":"levelo://app?vid=e5af8f06-b11d-4a9c-a17e-c358f51ba456","ios":"levelo://app?vid=e5af8f06-b11d-4a9c-a17e-c358f51ba456"},"vehicle_type_id":"4","last_reported":1733256684,"current_range_meters":38800,"station_id":"ce4bhgh2rcd13ifvqfb0","pricing_plan_id":"cebpf4jnsgd1na2vs0mg"},{"bike_id":"624f3da5-c3fc-45f4-af42-aad65ebed2f0","system_id":"levelo_inurba_marseille","lat":43.2901,"lon":5.35607,"is_reserved":false,"is_disabled":false,"rental_uris":{"android":"levelo://app?vid=624f3da5-c3fc-45f4-af42-aad65ebed2f0","ios":"levelo://app?vid=624f3da5-c3fc-45f4-af42-aad65ebed2f0"},"vehicle_type_id":"4","last_reported":1733256684,"current_range_meters":27200,"station_id":"ce4bhb92rcd13ifvqen0","pricing_plan_id":"cebpf4jnsgd1na2vs0mg"},{"bike_id":"0ee0ab59-5abb-4d53-bc4d-a3af2b711996","system_id":"levelo_inurba_marseille","lat":43.32366,"lon":5.36756,"is_reserved":false,"is_disabled":false,"rental_uris":{"android":"levelo://app?vid=0ee0ab59-5abb-4d53-bc4d-a3af2b711996","ios":"levelo://app?vid=0ee0ab59-5abb-4d53-bc4d-a3af2b711996"},"vehicle_type_id":"4","last_reported":1733256684,"current_range_meters":32800,"station_id":"ce4bhsh2rcd13ifvqi2g","pricing_plan_id":"cebpf4jnsgd1na2vs0mg"},{"bike_id":"12d7e6b6-4f16-4c68-825a-763d5cbf2154","system_id":"levelo_inurba_marseille","lat":43.25072,"lon":5.37535,"is_reserved":false,"is_disabled":false,"rental_uris":{"android":"levelo://app?vid=12d7e6b6-4f16-4c68-825a-763d5cbf2154","ios":"levelo://app?vid=12d7e6b6-4f16-4c68-825a-763d5cbf2154"},"vehicle_type_id":"4","last_reported":1733256684,"current_range_meters":12000,"station_id":"ce4bhnp2rcd13ifvqgvg","pricing_plan_id":"cebpf4jnsgd1na2vs0mg"},{"bike_id":"88a59e6e-69c3-4d60-baf2-b8541b8a44bb","system_id":"levelo_inurba_marseille","lat":43.28702,"lon":5.3999,"is_reserved":false,"is_disabled":false,"rental_uris":{"android":"levelo://app?vid=88a59e6e-69c3-4d60-baf2-b8541b8a44bb","ios":"levelo://app?vid=88a59e6e-69c3-4d60-baf2-b8541b8a44bb"},"vehicle_type_id":"4","last_reported":1733256684,"current_range_meters":33600,"station_id":"ce4bho92rcd13ifvqh3g","pricing_plan_id":"cebpf4jnsgd1na2vs0mg"},{"bike_id":"afcbeb75-6f5b-46e4-8346-25004ebb5bf8","system_id":"levelo_inurba_marseille","lat":43.3107,"lon":5.38344,"is_reserved":false,"is_disabled":false,"rental_uris":{"android":"levelo://app?vid=afcbeb75-6f5b-46e4-8346-25004ebb5bf8","ios":"levelo://app?vid=afcbeb75-6f5b-46e4-8346-25004ebb5bf8"},"vehicle_type_id":"4","last_reported":1733256684,"current_range_meters":30800,"station_id":"ce4bgv92rcd13ifvqcr0","pricing_plan_id":"cebpf4jnsgd1na2vs0mg"},{"bike_id":"0b8ca9f5-3686-408a-922a-b3bf7e8b4228","system_id":"levelo_inurba_marseille","lat":43.27177,"lon":5.40994,"is_reserved":false,"is_disabled":false,"rental_uris":{"android":"levelo://app?vid=0b8ca9f5-3686-408a-922a-b3bf7e8b4228","ios":"levelo://app?vid=0b8ca9f5-3686-408a-922a-b3bf7e8b4228"},"vehicle_type_id":"4","last_reported":1733256684,"current_range_meters":16400,"station_id":"ce4bhl12rcd13ifvqgf0","pricing_plan_id":"cebpf4jnsgd1na2vs0mg"},{"bike_id":"e12bdda5-dc2c-4545-bb40-fff311effa17","system_id":"levelo_inurba_marseille","lat":43.29798,"lon":5.38107,"is_reserved":false,"is_disabled":true,"rental_uris":{"android":"levelo://app?vid=e12bdda5-dc2c-4545-bb40-fff311effa17","ios":"levelo://app?vid=e12bdda5-dc2c-4545-bb40-fff311effa17"},"vehicle_type_id":"4","last_reported":1733256684,"current_range_meters":0,"station_id":"ce4bgip2rcd13ifvqbb0","pricing_plan_id":"cebpf4jnsgd1na2vs0mg"},{"bike_id":"2f3968e7-9336-4ee4-ba78-8e92c0a818cc","system_id":"levelo_inurba_marseille","lat":43.31322,"lon":5.36647,"is_reserved":false,"is_disabled":true,"rental_uris":{"android":"levelo://app?vid=2f3968e7-9336-4ee4-ba78-8e92c0a818cc","ios":"levelo://app?vid=2f3968e7-9336-4ee4-ba78-8e92c0a818cc"},"vehicle_type_id":"4","last_reported":1733256684,"current_range_meters":6000,"station_id":"","pricing_plan_id":"cebpf4jnsgd1na2vs0mg"},{"bike_id":"8ed9bd96-4c70-4377-9843-d18fd39db93e","system_id":"levelo_inurba_marseille","lat":43.28397,"lon":5.37528,"is_reserved":false,"is_disabled":true,"rental_uris":{"android":"levelo://app?vid=8ed9bd96-4c70-4377-9843-d18fd39db93e","ios":"levelo://app?vid=8ed9bd96-4c70-4377-9843-d18fd39db93e"},"vehicle_type_id":"4","last_reported":1733256684,"current_range_meters":1200,"station_id":"ce4bh412rcd13ifvqds0","pricing_plan_id":"cebpf4jnsgd1na2vs0mg"},{"bike_id":"16bea42d-3248-41fd-8b51-39fb3d7ec2c4","system_id":"levelo_inurba_marseille","lat":43.26479,"lon":5.38521,"is_reserved":false,"is_disabled":true,"rental_uris":{"android":"levelo://app?vid=16bea42d-3248-41fd-8b51-39fb3d7ec2c4","ios":"levelo://app?vid=16bea42d-3248-41fd-8b51-39fb3d7ec2c4"},"vehicle_type_id":"4","last_reported":1733256684,"current_range_meters":0,"station_id":"","pricing_plan_id":"cebpf4jnsgd1na2vs0mg"},{"bike_id":"5adcbc94-0c26-4a81-920b-0a04b9667672","system_id":"levelo_inurba_marseille","lat":43.31368,"lon":5.38495,"is_reserved":false,"is_disabled":false,"rental_uris":{"android":"levelo://app?vid=5adcbc94-0c26-4a81-920b-0a04b9667672","ios":"levelo://app?vid=5adcbc94-0c26-4a81-920b-0a04b9667672"},"vehicle_type_id":"4","last_reported":1733256684,"current_range_meters":9200,"station_id":"ce4bgt92rcd13ifvqcf0","pricing_plan_id":"cebpf4jnsgd1na2vs0mg"},{"bike_id":"8aa77435-38a9-471a-8b27-546833cee6d3","system_id":"levelo_inurba_marseille","lat":43.26065,"lon":5.39391,"is_reserved":false,"is_disabled":false,"rental_uris":{"android":"levelo://app?vid=8aa77435-38a9-471a-8b27-546833cee6d3","ios":"levelo://app?vid=8aa77435-38a9-471a-8b27-546833cee6d3"},"vehicle_type_id":"4","last_reported":1733256684,"current_range_meters":15200,"station_id":"ce4bhh92rcd13ifvqfj0","pricing_plan_id":"cebpf4jnsgd1na2vs0mg"},{"bike_id":"91f600ce-3b8b-401c-8533-6638e53f3d15","system_id":"levelo_inurba_marseille","lat":43.23966,"lon":5.36633,"is_reserved":false,"is_disabled":false,"rental_uris":{"android":"levelo://app?vid=91f600ce-3b8b-401c-8533-6638e53f3d15","ios":"levelo://app?vid=91f600ce-3b8b-401c-8533-6638e53f3d15"},"vehicle_type_id":"4","last_reported":1733256684,"current_range_meters":5600,"station_id":"ce4bhi12rcd13ifvqfp0","pricing_plan_id":"cebpf4jnsgd1na2vs0mg"},{"bike_id":"5ec91a05-3d6f-4e1d-b430-be6b30951a3e","system_id":"levelo_inurba_marseille","lat":43.31075,"lon":5.37829,"is_reserved":false,"is_disabled":false,"rental_uris":{"android":"levelo://app?vid=5ec91a05-3d6f-4e1d-b430-be6b30951a3e","ios":"levelo://app?vid=5ec91a05-3d6f-4e1d-b430-be6b30951a3e"},"vehicle_type_id":"4","last_reported":1733256684,"current_range_meters":36000,"station_id":"","pricing_plan_id":"cebpf4jnsgd1na2vs0mg"},{"bike_id":"dc024656-8506-4b5a-a609-460bbae9d176","system_id":"levelo_inurba_marseille","lat":43.30801,"lon":5.37943,"is_reserved":false,"is_disabled":false,"rental_uris":{"android":"levelo://app?vid=dc024656-8506-4b5a-a609-460bbae9d176","ios":"levelo://app?vid=dc024656-8506-4b5a-a609-460bbae9d176"},"vehicle_type_id":"4","last_reported":1733256684,"current_range_meters":20800,"station_id":"","pricing_plan_id":"cebpf4jnsgd1na2vs0mg"},{"bike_id":"dc980a27-75cd-4f72-8ee5-cb8efb03514c","system_id":"levelo_inurba_marseille","lat":43.29561,"lon":5.42277,"is_reserved":false,"is_disabled":false,"rental_uris":{"android":"levelo://app?vid=dc980a27-75cd-4f72-8ee5-cb8efb03514c","ios":"levelo://app?vid=dc980a27-75cd-4f72-8ee5-cb8efb03514c"},"vehicle_type_id":"4","last_reported":1733256684,"current_range_meters":20000,"station_id":"ce4bhph2rcd13ifvqhdg","pricing_plan_id":"cebpf4jnsgd1na2vs0mg"},{"bike_id":"03238b9d-aa93-43c4-9b5c-93693053e595","system_id":"levelo_inurba_marseille","lat":43.27811,"lon":5.40713,"is_reserved":false,"is_disabled":false,"rental_uris":{"android":"levelo://app?vid=03238b9d-aa93-43c4-9b5c-93693053e595","ios":"levelo://app?vid=03238b9d-aa93-43c4-9b5c-93693053e595"},"vehicle_type_id":"4","last_reported":1733256684,"current_range_meters":39200,"station_id":"ce4bhnh2rcd13ifvqgtg","pricing_plan_id":"cebpf4jnsgd1na2vs0mg"},{"bike_id":"5ec23ff3-20df-46bf-92e4-fe56f6cc3834","system_id":"levelo_inurba_marseille","lat":43.31277,"lon":5.4016,"is_reserved":false,"is_disabled":false,"rental_uris":{"android":"levelo://app?vid=5ec23ff3-20df-46bf-92e4-fe56f6cc3834","ios":"levelo://app?vid=5ec23ff3-20df-46bf-92e4-fe56f6cc3834"},"vehicle_type_id":"4","last_reported":1733256684,"current_range_meters":38000,"station_id":"ce4bh092rcd13ifvqd30","pricing_plan_id":"cebpf4jnsgd1na2vs0mg"},{"bike_id":"0f03cf6f-7916-43e3-9bea-acf3e77b14b5","system_id":"levelo_inurba_marseille","lat":43.29014,"lon":5.3561,"is_reserved":false,"is_disabled":false,"rental_uris":{"android":"levelo://app?vid=0f03cf6f-7916-43e3-9bea-acf3e77b14b5","ios":"levelo://app?vid=0f03cf6f-7916-43e3-9bea-acf3e77b14b5"},"vehicle_type_id":"4","last_reported":1733256684,"current_range_meters":39200,"station_id":"ce4bhb92rcd13ifvqen0","pricing_plan_id":"cebpf4jnsgd1na2vs0mg"},{"bike_id":"e4b789b1-3807-4e26-ba04-6ee974521cd6","system_id":"levelo_inurba_marseille","lat":43.29026,"lon":5.38645,"is_reserved":false,"is_disabled":true,"rental_uris":{"android":"levelo://app?vid=e4b789b1-3807-4e26-ba04-6ee974521cd6","ios":"levelo://app?vid=e4b789b1-3807-4e26-ba04-6ee974521cd6"},"vehicle_type_id":"4","last_reported":1733256684,"current_range_meters":0,"station_id":"ce4bh4p2rcd13ifvqe0g","pricing_plan_id":"cebpf4jnsgd1na2vs0mg"},{"bike_id":"6e9913e5-ee49-4048-9584-31f34047785a","system_id":"levelo_inurba_marseille","lat":43.30931,"lon":5.40144,"is_reserved":false,"is_disabled":false,"rental_uris":{"android":"levelo://app?vid=6e9913e5-ee49-4048-9584-31f34047785a","ios":"levelo://app?vid=6e9913e5-ee49-4048-9584-31f34047785a"},"vehicle_type_id":"4","last_reported":1733256684,"current_range_meters":3200,"station_id":"ce4bgvp2rcd13ifvqct0","pricing_plan_id":"cebpf4jnsgd1na2vs0mg"},{"bike_id":"0bac3ac9-64af-435d-b120-f74f72b0749f","system_id":"levelo_inurba_marseille","lat":43.27836,"lon":5.3921,"is_reserved":false,"is_disabled":false,"rental_uris":{"android":"levelo://app?vid=0bac3ac9-64af-435d-b120-f74f72b0749f","ios":"levelo://app?vid=0bac3ac9-64af-435d-b120-f74f72b0749f"},"vehicle_type_id":"4","last_reported":1733256684,"current_range_meters":7200,"station_id":"ce4bhjp2rcd13ifvqga0","pricing_plan_id":"cebpf4jnsgd1na2vs0mg"},{"bike_id":"742dab92-5096-4264-b55b-0340560689eb","system_id":"levelo_inurba_marseille","lat":43.28695,"lon":5.37397,"is_reserved":false,"is_disabled":false,"rental_uris":{"android":"levelo://app?vid=742dab92-5096-4264-b55b-0340560689eb","ios":"levelo://app?vid=742dab92-5096-4264-b55b-0340560689eb"},"vehicle_type_id":"4","last_reported":1733256684,"current_range_meters":12800,"station_id":"ce4bh3p2rcd13ifvqdq0","pricing_plan_id":"cebpf4jnsgd1na2vs0mg"},{"bike_id":"2c703f8d-be41-4560-81d8-ad42fc3fc150","system_id":"levelo_inurba_marseille","lat":43.28073,"lon":5.3966,"is_reserved":false,"is_disabled":false,"rental_uris":{"android":"levelo://app?vid=2c703f8d-be41-4560-81d8-ad42fc3fc150","ios":"levelo://app?vid=2c703f8d-be41-4560-81d8-ad42fc3fc150"},"vehicle_type_id":"4","last_reported":1733256684,"current_range_meters":38800,"station_id":"ce4bho12rcd13ifvqh2g","pricing_plan_id":"cebpf4jnsgd1na2vs0mg"},{"bike_id":"95c08085-5c8a-4c4e-8507-05711eb57ec0","system_id":"levelo_inurba_marseille","lat":43.28613,"lon":5.35101,"is_reserved":false,"is_disabled":false,"rental_uris":{"android":"levelo://app?vid=95c08085-5c8a-4c4e-8507-05711eb57ec0","ios":"levelo://app?vid=95c08085-5c8a-4c4e-8507-05711eb57ec0"},"vehicle_type_id":"4","last_reported":1733256684,"current_range_meters":8000,"station_id":"ce4bhch2rcd13ifvqeug","pricing_plan_id":"cebpf4jnsgd1na2vs0mg"},{"bike_id":"ef8dccf7-5c02-4648-910c-2c64ce488a65","system_id":"levelo_inurba_marseille","lat":43.2816,"lon":5.42813,"is_reserved":false,"is_disabled":false,"rental_uris":{"android":"levelo://app?vid=ef8dccf7-5c02-4648-910c-2c64ce488a65","ios":"levelo://app?vid=ef8dccf7-5c02-4648-910c-2c64ce488a65"},"vehicle_type_id":"4","last_reported":1733256684,"current_range_meters":14800,"station_id":"","pricing_plan_id":"cebpf4jnsgd1na2vs0mg"},{"bike_id":"2328afe4-3679-437e-827c-94361c2e185f","system_id":"levelo_inurba_marseille","lat":43.2857,"lon":5.39503,"is_reserved":false,"is_disabled":false,"rental_uris":{"android":"levelo://app?vid=2328afe4-3679-437e-827c-94361c2e185f","ios":"levelo://app?vid=2328afe4-3679-437e-827c-94361c2e185f"},"vehicle_type_id":"4","last_reported":1733256684,"current_range_meters":18000,"station_id":"ce4bh292rcd13ifvqdg0","pricing_plan_id":"cebpf4jnsgd1na2vs0mg"},{"bike_id":"285d4d97-3ab4-419a-84e4-687443bc50a5","system_id":"levelo_inurba_marseille","lat":43.25871,"lon":5.39894,"is_reserved":false,"is_disabled":false,"rental_uris":{"android":"levelo://app?vid=285d4d97-3ab4-419a-84e4-687443bc50a5","ios":"levelo://app?vid=285d4d97-3ab4-419a-84e4-687443bc50a5"},"vehicle_type_id":"4","last_reported":1733256684,"current_range_meters":10800,"station_id":"ce4bhl92rcd13ifvqghg","pricing_plan_id":"cebpf4jnsgd1na2vs0mg"},{"bike_id":"8d3823ea-8728-4708-a8ab-a7316ed9637a","system_id":"levelo_inurba_marseille","lat":43.28949,"lon":5.36632,"is_reserved":false,"is_disabled":true,"rental_uris":{"android":"levelo://app?vid=8d3823ea-8728-4708-a8ab-a7316ed9637a","ios":"levelo://app?vid=8d3823ea-8728-4708-a8ab-a7316ed9637a"},"vehicle_type_id":"4","last_reported":1733256684,"current_range_meters":22800,"station_id":"ce4bhap2rcd13ifvqek0","pricing_plan_id":"cebpf4jnsgd1na2vs0mg"},{"bike_id":"17684b53-454d-47e4-aba8-4d08922f63f0","system_id":"levelo_inurba_marseille","lat":43.30331,"lon":5.4044,"is_reserved":false,"is_disabled":false,"rental_uris":{"android":"levelo://app?vid=17684b53-454d-47e4-aba8-4d08922f63f0","ios":"levelo://app?vid=17684b53-454d-47e4-aba8-4d08922f63f0"},"vehicle_type_id":"4","last_reported":1733256684,"current_range_meters":3200,"station_id":"ce4bh012rcd13ifvqd10","pricing_plan_id":"cebpf4jnsgd1na2vs0mg"},{"bike_id":"45ff3798-a743-4ffc-962c-fbce8ce4e073","system_id":"levelo_inurba_marseille","lat":43.23154,"lon":5.43708,"is_reserved":false,"is_disabled":false,"rental_uris":{"android":"levelo://app?vid=45ff3798-a743-4ffc-962c-fbce8ce4e073","ios":"levelo://app?vid=45ff3798-a743-4ffc-962c-fbce8ce4e073"},"vehicle_type_id":"4","last_reported":1733256684,"current_range_meters":10000,"station_id":"ce4bhmp2rcd13ifvqgog","pricing_plan_id":"cebpf4jnsgd1na2vs0mg"},{"bike_id":"1a3cd8d7-7142-485c-b49a-eeb93944eb38","system_id":"levelo_inurba_marseille","lat":43.3111,"lon":5.37781,"is_reserved":false,"is_disabled":false,"rental_uris":{"android":"levelo://app?vid=1a3cd8d7-7142-485c-b49a-eeb93944eb38","ios":"levelo://app?vid=1a3cd8d7-7142-485c-b49a-eeb93944eb38"},"vehicle_type_id":"4","last_reported":1733256684,"current_range_meters":28000,"station_id":"ce4bgt92rcd13ifvqcg0","pricing_plan_id":"cebpf4jnsgd1na2vs0mg"},{"bike_id":"253b0b88-7ae1-4205-a437-b9ccb63bf772","system_id":"levelo_inurba_marseille","lat":43.27567,"lon":5.38422,"is_reserved":false,"is_disabled":false,"rental_uris":{"android":"levelo://app?vid=253b0b88-7ae1-4205-a437-b9ccb63bf772","ios":"levelo://app?vid=253b0b88-7ae1-4205-a437-b9ccb63bf772"},"vehicle_type_id":"4","last_reported":1733256684,"current_range_meters":38800,"station_id":"ce4bhh92rcd13ifvqfi0","pricing_plan_id":"cebpf4jnsgd1na2vs0mg"},{"bike_id":"939eefa8-b5a3-44e4-94d6-a48c91f6f004","system_id":"levelo_inurba_marseille","lat":43.28449,"lon":5.39209,"is_reserved":false,"is_disabled":false,"rental_uris":{"android":"levelo://app?vid=939eefa8-b5a3-44e4-94d6-a48c91f6f004","ios":"levelo://app?vid=939eefa8-b5a3-44e4-94d6-a48c91f6f004"},"vehicle_type_id":"4","last_reported":1733256684,"current_range_meters":38000,"station_id":"ce4bhoh2rcd13ifvqh5g","pricing_plan_id":"cebpf4jnsgd1na2vs0mg"},{"bike_id":"cdfe6590-4984-4014-86c8-6dd70747c27a","system_id":"levelo_inurba_marseille","lat":43.29737,"lon":5.37434,"is_reserved":false,"is_disabled":true,"rental_uris":{"android":"levelo://app?vid=cdfe6590-4984-4014-86c8-6dd70747c27a","ios":"levelo://app?vid=cdfe6590-4984-4014-86c8-6dd70747c27a"},"vehicle_type_id":"4","last_reported":1733256684,"current_range_meters":0,"station_id":"","pricing_plan_id":"cebpf4jnsgd1na2vs0mg"},{"bike_id":"8c10b77e-9276-4f90-bb28-d9403699abca","system_id":"levelo_inurba_marseille","lat":43.27559,"lon":5.38412,"is_reserved":false,"is_disabled":true,"rental_uris":{"android":"levelo://app?vid=8c10b77e-9276-4f90-bb28-d9403699abca","ios":"levelo://app?vid=8c10b77e-9276-4f90-bb28-d9403699abca"},"vehicle_type_id":"4","last_reported":1733256684,"current_range_meters":0,"station_id":"ce4bhh92rcd13ifvqfi0","pricing_plan_id":"cebpf4jnsgd1na2vs0mg"},{"bike_id":"60e8fab7-891d-493a-be58-5b6923431452","system_id":"levelo_inurba_marseille","lat":43.28358,"lon":5.38109,"is_reserved":false,"is_disabled":false,"rental_uris":{"android":"levelo://app?vid=60e8fab7-891d-493a-be58-5b6923431452","ios":"levelo://app?vid=60e8fab7-891d-493a-be58-5b6923431452"},"vehicle_type_id":"4","last_reported":1733256684,"current_range_meters":30400,"station_id":"ce4bh412rcd13ifvqdr0","pricing_plan_id":"cebpf4jnsgd1na2vs0mg"},{"bike_id":"9be91ae4-f0e4-4815-8771-11307b3a366c","system_id":"levelo_inurba_marseille","lat":43.33024,"lon":5.39037,"is_reserved":false,"is_disabled":false,"rental_uris":{"android":"levelo://app?vid=9be91ae4-f0e4-4815-8771-11307b3a366c","ios":"levelo://app?vid=9be91ae4-f0e4-4815-8771-11307b3a366c"},"vehicle_type_id":"4","last_reported":1733256684,"current_range_meters":8000,"station_id":"ce4bhr92rcd13ifvqhrg","pricing_plan_id":"cebpf4jnsgd1na2vs0mg"},{"bike_id":"36142e23-8ff6-4096-ad19-b039c8156b69","system_id":"levelo_inurba_marseille","lat":43.28658,"lon":5.36353,"is_reserved":false,"is_disabled":true,"rental_uris":{"android":"levelo://app?vid=36142e23-8ff6-4096-ad19-b039c8156b69","ios":"levelo://app?vid=36142e23-8ff6-4096-ad19-b039c8156b69"},"vehicle_type_id":"4","last_reported":1733256684,"current_range_meters":29600,"station_id":"ce4bhah2rcd13ifvqej0","pricing_plan_id":"cebpf4jnsgd1na2vs0mg"},{"bike_id":"42b9061c-3a22-4f56-8cdd-6e08457777e2","system_id":"levelo_inurba_marseille","lat":43.29832,"lon":5.39772,"is_reserved":false,"is_disabled":false,"rental_uris":{"android":"levelo://app?vid=42b9061c-3a22-4f56-8cdd-6e08457777e2","ios":"levelo://app?vid=42b9061c-3a22-4f56-8cdd-6e08457777e2"},"vehicle_type_id":"4","last_reported":1733256684,"current_range_meters":38800,"station_id":"","pricing_plan_id":"cebpf4jnsgd1na2vs0mg"},{"bike_id":"2775f11a-2b4d-4f15-b31b-5224deb6b613","system_id":"levelo_inurba_marseille","lat":43.28079,"lon":5.39662,"is_reserved":false,"is_disabled":false,"rental_uris":{"android":"levelo://app?vid=2775f11a-2b4d-4f15-b31b-5224deb6b613","ios":"levelo://app?vid=2775f11a-2b4d-4f15-b31b-5224deb6b613"},"vehicle_type_id":"4","last_reported":1733256684,"current_range_meters":38000,"station_id":"ce4bho12rcd13ifvqh2g","pricing_plan_id":"cebpf4jnsgd1na2vs0mg"},{"bike_id":"4c3fb316-febe-4764-b0a1-d58fd67e3e9a","system_id":"levelo_inurba_marseille","lat":43.28184,"lon":5.38291,"is_reserved":false,"is_disabled":true,"rental_uris":{"android":"levelo://app?vid=4c3fb316-febe-4764-b0a1-d58fd67e3e9a","ios":"levelo://app?vid=4c3fb316-febe-4764-b0a1-d58fd67e3e9a"},"vehicle_type_id":"4","last_reported":1733256684,"current_range_meters":25200,"station_id":"","pricing_plan_id":"cebpf4jnsgd1na2vs0mg"},{"bike_id":"987a5ab4-d60c-480c-94b6-7cab38975402","system_id":"levelo_inurba_marseille","lat":43.29748,"lon":5.37971,"is_reserved":false,"is_disabled":true,"rental_uris":{"android":"levelo://app?vid=987a5ab4-d60c-480c-94b6-7cab38975402","ios":"levelo://app?vid=987a5ab4-d60c-480c-94b6-7cab38975402"},"vehicle_type_id":"4","last_reported":1733256684,"current_range_meters":0,"station_id":"","pricing_plan_id":"cebpf4jnsgd1na2vs0mg"},{"bike_id":"6877f033-d09d-44d8-8868-c02f5054dd5f","system_id":"levelo_inurba_marseille","lat":43.3149,"lon":5.3727,"is_reserved":false,"is_disabled":false,"rental_uris":{"android":"levelo://app?vid=6877f033-d09d-44d8-8868-c02f5054dd5f","ios":"levelo://app?vid=6877f033-d09d-44d8-8868-c02f5054dd5f"},"vehicle_type_id":"4","last_reported":1733256684,"current_range_meters":10000,"station_id":"ce4bgt12rcd13ifvqcd0","pricing_plan_id":"cebpf4jnsgd1na2vs0mg"},{"bike_id":"2c4596ad-0ad9-4016-b92b-0093349de2b4","system_id":"levelo_inurba_marseille","lat":43.3072,"lon":5.38235,"is_reserved":false,"is_disabled":true,"rental_uris":{"android":"levelo://app?vid=2c4596ad-0ad9-4016-b92b-0093349de2b4","ios":"levelo://app?vid=2c4596ad-0ad9-4016-b92b-0093349de2b4"},"vehicle_type_id":"4","last_reported":1733256684,"current_range_meters":0,"station_id":"","pricing_plan_id":"cebpf4jnsgd1na2vs0mg"},{"bike_id":"01bf2d77-2887-492a-8e61-418aad60aab8","system_id":"levelo_inurba_marseille","lat":43.23191,"lon":5.3998,"is_reserved":false,"is_disabled":false,"rental_uris":{"android":"levelo://app?vid=01bf2d77-2887-492a-8e61-418aad60aab8","ios":"levelo://app?vid=01bf2d77-2887-492a-8e61-418aad60aab8"},"vehicle_type_id":"4","last_reported":1733256684,"current_range_meters":38800,"station_id":"ce4bhn12rcd13ifvqgqg","pricing_plan_id":"cebpf4jnsgd1na2vs0mg"},{"bike_id":"1f28300c-d8be-4d08-b5ea-d3aadf1e301d","system_id":"levelo_inurba_marseille","lat":43.26255,"lon":5.42105,"is_reserved":false,"is_disabled":false,"rental_uris":{"android":"levelo://app?vid=1f28300c-d8be-4d08-b5ea-d3aadf1e301d","ios":"levelo://app?vid=1f28300c-d8be-4d08-b5ea-d3aadf1e301d"},"vehicle_type_id":"4","last_reported":1733256684,"current_range_meters":17200,"station_id":"","pricing_plan_id":"cebpf4jnsgd1na2vs0mg"},{"bike_id":"b7ab8c01-033f-4395-8276-23c850ad3d02","system_id":"levelo_inurba_marseille","lat":43.30323,"lon":5.36573,"is_reserved":false,"is_disabled":true,"rental_uris":{"android":"levelo://app?vid=b7ab8c01-033f-4395-8276-23c850ad3d02","ios":"levelo://app?vid=b7ab8c01-033f-4395-8276-23c850ad3d02"},"vehicle_type_id":"4","last_reported":1733256684,"current_range_meters":0,"station_id":"","pricing_plan_id":"cebpf4jnsgd1na2vs0mg"},{"bike_id":"5e952925-1491-4f8f-b074-0d84f66a6dea","system_id":"levelo_inurba_marseille","lat":43.32291,"lon":5.38278,"is_reserved":false,"is_disabled":false,"rental_uris":{"android":"levelo://app?vid=5e952925-1491-4f8f-b074-0d84f66a6dea","ios":"levelo://app?vid=5e952925-1491-4f8f-b074-0d84f66a6dea"},"vehicle_type_id":"4","last_reported":1733256684,"current_range_meters":38800,"station_id":"ce4bhr12rcd13ifvqhqg","pricing_plan_id":"cebpf4jnsgd1na2vs0mg"},{"bike_id":"c6e6729e-5027-422b-b134-990c8bb67ebc","system_id":"levelo_inurba_marseille","lat":43.28034,"lon":5.3695,"is_reserved":false,"is_disabled":false,"rental_uris":{"android":"levelo://app?vid=c6e6729e-5027-422b-b134-990c8bb67ebc","ios":"levelo://app?vid=c6e6729e-5027-422b-b134-990c8bb67ebc"},"vehicle_type_id":"4","last_reported":1733256684,"current_range_meters":38800,"station_id":"ce4bha12rcd13ifvqef0","pricing_plan_id":"cebpf4jnsgd1na2vs0mg"},{"bike_id":"ce9f5d0c-0440-494a-92a3-99b91e99b586","system_id":"levelo_inurba_marseille","lat":43.27566,"lon":5.38422,"is_reserved":false,"is_disabled":true,"rental_uris":{"android":"levelo://app?vid=ce9f5d0c-0440-494a-92a3-99b91e99b586","ios":"levelo://app?vid=ce9f5d0c-0440-494a-92a3-99b91e99b586"},"vehicle_type_id":"4","last_reported":1733256684,"current_range_meters":0,"station_id":"ce4bhh92rcd13ifvqfi0","pricing_plan_id":"cebpf4jnsgd1na2vs0mg"},{"bike_id":"8d8f863b-0066-4dab-b916-897fbd65d119","system_id":"levelo_inurba_marseille","lat":43.2966,"lon":5.37848,"is_reserved":false,"is_disabled":false,"rental_uris":{"android":"levelo://app?vid=8d8f863b-0066-4dab-b916-897fbd65d119","ios":"levelo://app?vid=8d8f863b-0066-4dab-b916-897fbd65d119"},"vehicle_type_id":"4","last_reported":1733256684,"current_range_meters":14400,"station_id":"","pricing_plan_id":"cebpf4jnsgd1na2vs0mg"},{"bike_id":"e2f9c5f8-5ab5-42b3-9e67-1c538ea168a5","system_id":"levelo_inurba_marseille","lat":43.31703,"lon":5.37735,"is_reserved":false,"is_disabled":false,"rental_uris":{"android":"levelo://app?vid=e2f9c5f8-5ab5-42b3-9e67-1c538ea168a5","ios":"levelo://app?vid=e2f9c5f8-5ab5-42b3-9e67-1c538ea168a5"},"vehicle_type_id":"4","last_reported":1733256684,"current_range_meters":24800,"station_id":"ce4bgth2rcd13ifvqch0","pricing_plan_id":"cebpf4jnsgd1na2vs0mg"},{"bike_id":"04b25c4a-c35d-484d-bc42-6b386c7474ac","system_id":"levelo_inurba_marseille","lat":43.24813,"lon":5.37462,"is_reserved":false,"is_disabled":false,"rental_uris":{"android":"levelo://app?vid=04b25c4a-c35d-484d-bc42-6b386c7474ac","ios":"levelo://app?vid=04b25c4a-c35d-484d-bc42-6b386c7474ac"},"vehicle_type_id":"4","last_reported":1733256684,"current_range_meters":37600,"station_id":"ce4bhgh2rcd13ifvqfb0","pricing_plan_id":"cebpf4jnsgd1na2vs0mg"},{"bike_id":"9130b44a-fbfa-4ab1-943b-a1948d15e832","system_id":"levelo_inurba_marseille","lat":43.23187,"lon":5.39984,"is_reserved":false,"is_disabled":false,"rental_uris":{"android":"levelo://app?vid=9130b44a-fbfa-4ab1-943b-a1948d15e832","ios":"levelo://app?vid=9130b44a-fbfa-4ab1-943b-a1948d15e832"},"vehicle_type_id":"4","last_reported":1733256684,"current_range_meters":38000,"station_id":"ce4bhn12rcd13ifvqgqg","pricing_plan_id":"cebpf4jnsgd1na2vs0mg"},{"bike_id":"6cc6805f-c0ca-4585-bdf1-b5a0339762b0","system_id":"levelo_inurba_marseille","lat":43.29012,"lon":5.42801,"is_reserved":false,"is_disabled":true,"rental_uris":{"android":"levelo://app?vid=6cc6805f-c0ca-4585-bdf1-b5a0339762b0","ios":"levelo://app?vid=6cc6805f-c0ca-4585-bdf1-b5a0339762b0"},"vehicle_type_id":"4","last_reported":1733256684,"current_range_meters":1600,"station_id":"","pricing_plan_id":"cebpf4jnsgd1na2vs0mg"},{"bike_id":"66e5e480-df3d-4353-82a1-17abdba691f0","system_id":"levelo_inurba_marseille","lat":43.29181,"lon":5.3582,"is_reserved":false,"is_disabled":false,"rental_uris":{"android":"levelo://app?vid=66e5e480-df3d-4353-82a1-17abdba691f0","ios":"levelo://app?vid=66e5e480-df3d-4353-82a1-17abdba691f0"},"vehicle_type_id":"4","last_reported":1733256684,"current_range_meters":18000,"station_id":"ce4bhb12rcd13ifvqel0","pricing_plan_id":"cebpf4jnsgd1na2vs0mg"},{"bike_id":"ff8db18b-53b4-449c-9d6c-2cc1ddb9741a","system_id":"levelo_inurba_marseille","lat":43.29008,"lon":5.35615,"is_reserved":false,"is_disabled":false,"rental_uris":{"android":"levelo://app?vid=ff8db18b-53b4-449c-9d6c-2cc1ddb9741a","ios":"levelo://app?vid=ff8db18b-53b4-449c-9d6c-2cc1ddb9741a"},"vehicle_type_id":"4","last_reported":1733256684,"current_range_meters":19200,"station_id":"ce4bhb92rcd13ifvqen0","pricing_plan_id":"cebpf4jnsgd1na2vs0mg"},{"bike_id":"8d1c8b92-79bb-4181-b0d2-5e94db1a14d0","system_id":"levelo_inurba_marseille","lat":43.30006,"lon":5.38259,"is_reserved":false,"is_disabled":true,"rental_uris":{"android":"levelo://app?vid=8d1c8b92-79bb-4181-b0d2-5e94db1a14d0","ios":"levelo://app?vid=8d1c8b92-79bb-4181-b0d2-5e94db1a14d0"},"vehicle_type_id":"4","last_reported":1733256684,"current_range_meters":0,"station_id":"","pricing_plan_id":"cebpf4jnsgd1na2vs0mg"},{"bike_id":"321fb0cd-a839-42e1-aeab-d63181afd719","system_id":"levelo_inurba_marseille","lat":43.29421,"lon":5.38619,"is_reserved":false,"is_disabled":false,"rental_uris":{"android":"levelo://app?vid=321fb0cd-a839-42e1-aeab-d63181afd719","ios":"levelo://app?vid=321fb0cd-a839-42e1-aeab-d63181afd719"},"vehicle_type_id":"4","last_reported":1733256684,"current_range_meters":9600,"station_id":"ce4bh2h2rcd13ifvqdh0","pricing_plan_id":"cebpf4jnsgd1na2vs0mg"},{"bike_id":"5741a92c-5fdd-4387-bf90-3ee06302df87","system_id":"levelo_inurba_marseille","lat":43.31074,"lon":5.38357,"is_reserved":false,"is_disabled":false,"rental_uris":{"android":"levelo://app?vid=5741a92c-5fdd-4387-bf90-3ee06302df87","ios":"levelo://app?vid=5741a92c-5fdd-4387-bf90-3ee06302df87"},"vehicle_type_id":"4","last_reported":1733256684,"current_range_meters":34000,"station_id":"ce4bgv92rcd13ifvqcr0","pricing_plan_id":"cebpf4jnsgd1na2vs0mg"},{"bike_id":"39c38e53-ea3e-42a9-931c-75358654e812","system_id":"levelo_inurba_marseille","lat":43.3042,"lon":5.39742,"is_reserved":false,"is_disabled":false,"rental_uris":{"android":"levelo://app?vid=39c38e53-ea3e-42a9-931c-75358654e812","ios":"levelo://app?vid=39c38e53-ea3e-42a9-931c-75358654e812"},"vehicle_type_id":"4","last_reported":1733256684,"current_range_meters":13600,"station_id":"ce4bh092rcd13ifvqd20","pricing_plan_id":"cebpf4jnsgd1na2vs0mg"},{"bike_id":"63707155-bbcb-481b-bd99-c1dea9ee513c","system_id":"levelo_inurba_marseille","lat":43.29801,"lon":5.40409,"is_reserved":false,"is_disabled":false,"rental_uris":{"android":"levelo://app?vid=63707155-bbcb-481b-bd99-c1dea9ee513c","ios":"levelo://app?vid=63707155-bbcb-481b-bd99-c1dea9ee513c"},"vehicle_type_id":"4","last_reported":1733256684,"current_range_meters":35600,"station_id":"ce4bh112rcd13ifvqd90","pricing_plan_id":"cebpf4jnsgd1na2vs0mg"},{"bike_id":"4e6a3799-ecb2-4f9a-8164-e68eb4d72231","system_id":"levelo_inurba_marseille","lat":43.28941,"lon":5.39639,"is_reserved":false,"is_disabled":true,"rental_uris":{"android":"levelo://app?vid=4e6a3799-ecb2-4f9a-8164-e68eb4d72231","ios":"levelo://app?vid=4e6a3799-ecb2-4f9a-8164-e68eb4d72231"},"vehicle_type_id":"4","last_reported":1733256684,"current_range_meters":38800,"station_id":"ce4bh3h2rcd13ifvqdn0","pricing_plan_id":"cebpf4jnsgd1na2vs0mg"},{"bike_id":"8c6ae27f-3733-439a-943c-f088570574ea","system_id":"levelo_inurba_marseille","lat":43.24803,"lon":5.37454,"is_reserved":false,"is_disabled":false,"rental_uris":{"android":"levelo://app?vid=8c6ae27f-3733-439a-943c-f088570574ea","ios":"levelo://app?vid=8c6ae27f-3733-439a-943c-f088570574ea"},"vehicle_type_id":"4","last_reported":1733256684,"current_range_meters":39200,"station_id":"ce4bhgh2rcd13ifvqfb0","pricing_plan_id":"cebpf4jnsgd1na2vs0mg"},{"bike_id":"30548017-e5f5-4193-a4b7-acc2c9e9bfdb","system_id":"levelo_inurba_marseille","lat":43.3302,"lon":5.39041,"is_reserved":false,"is_disabled":false,"rental_uris":{"android":"levelo://app?vid=30548017-e5f5-4193-a4b7-acc2c9e9bfdb","ios":"levelo://app?vid=30548017-e5f5-4193-a4b7-acc2c9e9bfdb"},"vehicle_type_id":"4","last_reported":1733256684,"current_range_meters":38400,"station_id":"ce4bhr92rcd13ifvqhrg","pricing_plan_id":"cebpf4jnsgd1na2vs0mg"},{"bike_id":"ae11192b-7477-4050-9e15-a2e6b81f0e44","system_id":"levelo_inurba_marseille","lat":43.30263,"lon":5.38664,"is_reserved":false,"is_disabled":false,"rental_uris":{"android":"levelo://app?vid=ae11192b-7477-4050-9e15-a2e6b81f0e44","ios":"levelo://app?vid=ae11192b-7477-4050-9e15-a2e6b81f0e44"},"vehicle_type_id":"4","last_reported":1733256684,"current_range_meters":8000,"station_id":"","pricing_plan_id":"cebpf4jnsgd1na2vs0mg"},{"bike_id":"4e666bff-a384-4eb4-909f-618e48911254","system_id":"levelo_inurba_marseille","lat":43.28003,"lon":5.40024,"is_reserved":false,"is_disabled":false,"rental_uris":{"android":"levelo://app?vid=4e666bff-a384-4eb4-909f-618e48911254","ios":"levelo://app?vid=4e666bff-a384-4eb4-909f-618e48911254"},"vehicle_type_id":"4","last_reported":1733256684,"current_range_meters":39200,"station_id":"ce4bho92rcd13ifvqh4g","pricing_plan_id":"cebpf4jnsgd1na2vs0mg"},{"bike_id":"5084cec7-cd98-476d-a574-a0236a0e067f","system_id":"levelo_inurba_marseille","lat":43.29051,"lon":5.35914,"is_reserved":false,"is_disabled":false,"rental_uris":{"android":"levelo://app?vid=5084cec7-cd98-476d-a574-a0236a0e067f","ios":"levelo://app?vid=5084cec7-cd98-476d-a574-a0236a0e067f"},"vehicle_type_id":"4","last_reported":1733256684,"current_range_meters":24000,"station_id":"ce4bha92rcd13ifvqeg0","pricing_plan_id":"cebpf4jnsgd1na2vs0mg"},{"bike_id":"1ca0aca0-4ca4-4bf8-9b1d-054345c3a341","system_id":"levelo_inurba_marseille","lat":43.28873,"lon":5.40005,"is_reserved":false,"is_disabled":false,"rental_uris":{"android":"levelo://app?vid=1ca0aca0-4ca4-4bf8-9b1d-054345c3a341","ios":"levelo://app?vid=1ca0aca0-4ca4-4bf8-9b1d-054345c3a341"},"vehicle_type_id":"4","last_reported":1733256684,"current_range_meters":33200,"station_id":"","pricing_plan_id":"cebpf4jnsgd1na2vs0mg"},{"bike_id":"3ca6588e-c8b9-49b7-b4e4-a7ce1d82c740","system_id":"levelo_inurba_marseille","lat":43.28939,"lon":5.39627,"is_reserved":false,"is_disabled":false,"rental_uris":{"android":"levelo://app?vid=3ca6588e-c8b9-49b7-b4e4-a7ce1d82c740","ios":"levelo://app?vid=3ca6588e-c8b9-49b7-b4e4-a7ce1d82c740"},"vehicle_type_id":"4","last_reported":1733256684,"current_range_meters":34800,"station_id":"ce4bh3h2rcd13ifvqdn0","pricing_plan_id":"cebpf4jnsgd1na2vs0mg"},{"bike_id":"f4776288-5e63-48da-8463-2e221106a8c3","system_id":"levelo_inurba_marseille","lat":43.28928,"lon":5.38385,"is_reserved":false,"is_disabled":true,"rental_uris":{"android":"levelo://app?vid=f4776288-5e63-48da-8463-2e221106a8c3","ios":"levelo://app?vid=f4776288-5e63-48da-8463-2e221106a8c3"},"vehicle_type_id":"4","last_reported":1733256684,"current_range_meters":2000,"station_id":"ce4bh612rcd13ifvqe6g","pricing_plan_id":"cebpf4jnsgd1na2vs0mg"},{"bike_id":"4f8c6457-7b21-40cc-8da9-83dbe00b2111","system_id":"levelo_inurba_marseille","lat":43.27957,"lon":5.41043,"is_reserved":false,"is_disabled":false,"rental_uris":{"android":"levelo://app?vid=4f8c6457-7b21-40cc-8da9-83dbe00b2111","ios":"levelo://app?vid=4f8c6457-7b21-40cc-8da9-83dbe00b2111"},"vehicle_type_id":"4","last_reported":1733256684,"current_range_meters":34800,"station_id":"ce4bhnp2rcd13ifvqh0g","pricing_plan_id":"cebpf4jnsgd1na2vs0mg"},{"bike_id":"d2c28698-e177-4ec3-804c-ede2349774ad","system_id":"levelo_inurba_marseille","lat":43.26044,"lon":5.37531,"is_reserved":false,"is_disabled":false,"rental_uris":{"android":"levelo://app?vid=d2c28698-e177-4ec3-804c-ede2349774ad","ios":"levelo://app?vid=d2c28698-e177-4ec3-804c-ede2349774ad"},"vehicle_type_id":"4","last_reported":1733256684,"current_range_meters":11600,"station_id":"ce4bhgh2rcd13ifvqfa0","pricing_plan_id":"cebpf4jnsgd1na2vs0mg"},{"bike_id":"5c6e9ba5-5f48-4700-90e5-8f3e9be51e92","system_id":"levelo_inurba_marseille","lat":43.31062,"lon":5.38335,"is_reserved":false,"is_disabled":false,"rental_uris":{"android":"levelo://app?vid=5c6e9ba5-5f48-4700-90e5-8f3e9be51e92","ios":"levelo://app?vid=5c6e9ba5-5f48-4700-90e5-8f3e9be51e92"},"vehicle_type_id":"4","last_reported":1733256684,"current_range_meters":24000,"station_id":"ce4bgv92rcd13ifvqcr0","pricing_plan_id":"cebpf4jnsgd1na2vs0mg"},{"bike_id":"f8f377b7-0b8d-4c3e-b327-5132c9308c8a","system_id":"levelo_inurba_marseille","lat":43.28843,"lon":5.3931,"is_reserved":false,"is_disabled":false,"rental_uris":{"android":"levelo://app?vid=f8f377b7-0b8d-4c3e-b327-5132c9308c8a","ios":"levelo://app?vid=f8f377b7-0b8d-4c3e-b327-5132c9308c8a"},"vehicle_type_id":"4","last_reported":1733256684,"current_range_meters":39200,"station_id":"ce4bh2p2rcd13ifvqdi0","pricing_plan_id":"cebpf4jnsgd1na2vs0mg"},{"bike_id":"9c77a68d-2e99-44e9-b903-950fb6644d35","system_id":"levelo_inurba_marseille","lat":43.25268,"lon":5.39464,"is_reserved":false,"is_disabled":true,"rental_uris":{"android":"levelo://app?vid=9c77a68d-2e99-44e9-b903-950fb6644d35","ios":"levelo://app?vid=9c77a68d-2e99-44e9-b903-950fb6644d35"},"vehicle_type_id":"4","last_reported":1733256684,"current_range_meters":0,"station_id":"","pricing_plan_id":"cebpf4jnsgd1na2vs0mg"},{"bike_id":"bf38dbe1-735d-41b7-93c5-c219ca300fc2","system_id":"levelo_inurba_marseille","lat":43.28661,"lon":5.36359,"is_reserved":false,"is_disabled":false,"rental_uris":{"android":"levelo://app?vid=bf38dbe1-735d-41b7-93c5-c219ca300fc2","ios":"levelo://app?vid=bf38dbe1-735d-41b7-93c5-c219ca300fc2"},"vehicle_type_id":"4","last_reported":1733256684,"current_range_meters":28400,"station_id":"ce4bhah2rcd13ifvqej0","pricing_plan_id":"cebpf4jnsgd1na2vs0mg"},{"bike_id":"25c7c59e-a74e-45fd-a476-3c4f0e9d6527","system_id":"levelo_inurba_marseille","lat":43.27615,"lon":5.36104,"is_reserved":false,"is_disabled":false,"rental_uris":{"android":"levelo://app?vid=25c7c59e-a74e-45fd-a476-3c4f0e9d6527","ios":"levelo://app?vid=25c7c59e-a74e-45fd-a476-3c4f0e9d6527"},"vehicle_type_id":"4","last_reported":1733256684,"current_range_meters":26800,"station_id":"ce4bgj92rcd13ifvqbe0","pricing_plan_id":"cebpf4jnsgd1na2vs0mg"},{"bike_id":"83985555-c848-4b28-808f-8a7e7cf8519e","system_id":"levelo_inurba_marseille","lat":43.28118,"lon":5.44005,"is_reserved":false,"is_disabled":true,"rental_uris":{"android":"levelo://app?vid=83985555-c848-4b28-808f-8a7e7cf8519e","ios":"levelo://app?vid=83985555-c848-4b28-808f-8a7e7cf8519e"},"vehicle_type_id":"4","last_reported":1733256684,"current_range_meters":0,"station_id":"","pricing_plan_id":"cebpf4jnsgd1na2vs0mg"},{"bike_id":"57102c6f-b80b-45ba-b78f-8a83a31b1b04","system_id":"levelo_inurba_marseille","lat":43.27812,"lon":5.40711,"is_reserved":false,"is_disabled":false,"rental_uris":{"android":"levelo://app?vid=57102c6f-b80b-45ba-b78f-8a83a31b1b04","ios":"levelo://app?vid=57102c6f-b80b-45ba-b78f-8a83a31b1b04"},"vehicle_type_id":"4","last_reported":1733256684,"current_range_meters":38800,"station_id":"ce4bhnh2rcd13ifvqgtg","pricing_plan_id":"cebpf4jnsgd1na2vs0mg"},{"bike_id":"903ec8f1-f4c3-441f-a117-ff7454fcb959","system_id":"levelo_inurba_marseille","lat":43.29464,"lon":5.394074,"is_reserved":false,"is_disabled":true,"rental_uris":{"android":"levelo://app?vid=903ec8f1-f4c3-441f-a117-ff7454fcb959","ios":"levelo://app?vid=903ec8f1-f4c3-441f-a117-ff7454fcb959"},"vehicle_type_id":"4","last_reported":1733256684,"current_range_meters":0,"station_id":"","pricing_plan_id":"cebpf4jnsgd1na2vs0mg"},{"bike_id":"07a60b7f-80b7-470a-9515-22fa33d21dee","system_id":"levelo_inurba_marseille","lat":43.30264,"lon":5.39639,"is_reserved":false,"is_disabled":true,"rental_uris":{"android":"levelo://app?vid=07a60b7f-80b7-470a-9515-22fa33d21dee","ios":"levelo://app?vid=07a60b7f-80b7-470a-9515-22fa33d21dee"},"vehicle_type_id":"4","last_reported":1733256684,"current_range_meters":2000,"station_id":"","pricing_plan_id":"cebpf4jnsgd1na2vs0mg"},{"bike_id":"a310f9d9-7716-49d1-87cd-ba71d81d3872","system_id":"levelo_inurba_marseille","lat":43.28832,"lon":5.35853,"is_reserved":false,"is_disabled":false,"rental_uris":{"android":"levelo://app?vid=a310f9d9-7716-49d1-87cd-ba71d81d3872","ios":"levelo://app?vid=a310f9d9-7716-49d1-87cd-ba71d81d3872"},"vehicle_type_id":"4","last_reported":1733256684,"current_range_meters":3600,"station_id":"ce4bhb12rcd13ifvqem0","pricing_plan_id":"cebpf4jnsgd1na2vs0mg"},{"bike_id":"941eeae1-8936-4a86-b31a-ea87d84b2048","system_id":"levelo_inurba_marseille","lat":43.2806,"lon":5.35633,"is_reserved":false,"is_disabled":false,"rental_uris":{"android":"levelo://app?vid=941eeae1-8936-4a86-b31a-ea87d84b2048","ios":"levelo://app?vid=941eeae1-8936-4a86-b31a-ea87d84b2048"},"vehicle_type_id":"4","last_reported":1733256684,"current_range_meters":5600,"station_id":"","pricing_plan_id":"cebpf4jnsgd1na2vs0mg"},{"bike_id":"004528a2-8e59-4dbd-a594-fa7532d81d48","system_id":"levelo_inurba_marseille","lat":43.29185,"lon":5.35812,"is_reserved":false,"is_disabled":false,"rental_uris":{"android":"levelo://app?vid=004528a2-8e59-4dbd-a594-fa7532d81d48","ios":"levelo://app?vid=004528a2-8e59-4dbd-a594-fa7532d81d48"},"vehicle_type_id":"4","last_reported":1733256684,"current_range_meters":38800,"station_id":"ce4bhb12rcd13ifvqel0","pricing_plan_id":"cebpf4jnsgd1na2vs0mg"},{"bike_id":"afffd621-dccc-49f4-8d6c-13a2bffc6176","system_id":"levelo_inurba_marseille","lat":43.25094,"lon":5.39517,"is_reserved":false,"is_disabled":false,"rental_uris":{"android":"levelo://app?vid=afffd621-dccc-49f4-8d6c-13a2bffc6176","ios":"levelo://app?vid=afffd621-dccc-49f4-8d6c-13a2bffc6176"},"vehicle_type_id":"4","last_reported":1733256684,"current_range_meters":24800,"station_id":"ce4bhm12rcd13ifvqgkg","pricing_plan_id":"cebpf4jnsgd1na2vs0mg"},{"bike_id":"ff3067c4-fadd-4c84-b95e-3b023799d1c8","system_id":"levelo_inurba_marseille","lat":43.30932,"lon":5.40149,"is_reserved":false,"is_disabled":false,"rental_uris":{"android":"levelo://app?vid=ff3067c4-fadd-4c84-b95e-3b023799d1c8","ios":"levelo://app?vid=ff3067c4-fadd-4c84-b95e-3b023799d1c8"},"vehicle_type_id":"4","last_reported":1733256684,"current_range_meters":32000,"station_id":"ce4bgvp2rcd13ifvqct0","pricing_plan_id":"cebpf4jnsgd1na2vs0mg"},{"bike_id":"696718ee-c802-44d4-ac98-76f6757ab099","system_id":"levelo_inurba_marseille","lat":43.30887,"lon":5.37211,"is_reserved":false,"is_disabled":true,"rental_uris":{"android":"levelo://app?vid=696718ee-c802-44d4-ac98-76f6757ab099","ios":"levelo://app?vid=696718ee-c802-44d4-ac98-76f6757ab099"},"vehicle_type_id":"4","last_reported":1733256684,"current_range_meters":38800,"station_id":"ce4bguh2rcd13ifvqckg","pricing_plan_id":"cebpf4jnsgd1na2vs0mg"},{"bike_id":"69dc143b-323b-4e13-ae3a-11dff440fb50","system_id":"levelo_inurba_marseille","lat":43.26208,"lon":5.37438,"is_reserved":false,"is_disabled":false,"rental_uris":{"android":"levelo://app?vid=69dc143b-323b-4e13-ae3a-11dff440fb50","ios":"levelo://app?vid=69dc143b-323b-4e13-ae3a-11dff440fb50"},"vehicle_type_id":"4","last_reported":1733256684,"current_range_meters":36000,"station_id":"ce4bhgp2rcd13ifvqfc0","pricing_plan_id":"cebpf4jnsgd1na2vs0mg"},{"bike_id":"b733bdf6-b8a1-46ce-9968-9e4835eb1003","system_id":"levelo_inurba_marseille","lat":43.32661,"lon":5.40992,"is_reserved":false,"is_disabled":false,"rental_uris":{"android":"levelo://app?vid=b733bdf6-b8a1-46ce-9968-9e4835eb1003","ios":"levelo://app?vid=b733bdf6-b8a1-46ce-9968-9e4835eb1003"},"vehicle_type_id":"4","last_reported":1733256684,"current_range_meters":19600,"station_id":"ce4bhpp2rcd13ifvqhgg","pricing_plan_id":"cebpf4jnsgd1na2vs0mg"},{"bike_id":"d968385f-de2b-44eb-96a8-54efc707caa9","system_id":"levelo_inurba_marseille","lat":43.23204,"lon":5.35541,"is_reserved":false,"is_disabled":false,"rental_uris":{"android":"levelo://app?vid=d968385f-de2b-44eb-96a8-54efc707caa9","ios":"levelo://app?vid=d968385f-de2b-44eb-96a8-54efc707caa9"},"vehicle_type_id":"4","last_reported":1733256684,"current_range_meters":38800,"station_id":"ce4bhu92rcd13ifvqi70","pricing_plan_id":"cebpf4jnsgd1na2vs0mg"},{"bike_id":"5e78eeea-0aab-425d-bd69-4fdcfd1fae70","system_id":"levelo_inurba_marseille","lat":43.32294,"lon":5.38264,"is_reserved":false,"is_disabled":false,"rental_uris":{"android":"levelo://app?vid=5e78eeea-0aab-425d-bd69-4fdcfd1fae70","ios":"levelo://app?vid=5e78eeea-0aab-425d-bd69-4fdcfd1fae70"},"vehicle_type_id":"4","last_reported":1733256684,"current_range_meters":38000,"station_id":"ce4bhr12rcd13ifvqhqg","pricing_plan_id":"cebpf4jnsgd1na2vs0mg"},{"bike_id":"e218f52a-3c8a-490a-99d9-5af7196625b0","system_id":"levelo_inurba_marseille","lat":43.23198,"lon":5.35547,"is_reserved":false,"is_disabled":false,"rental_uris":{"android":"levelo://app?vid=e218f52a-3c8a-490a-99d9-5af7196625b0","ios":"levelo://app?vid=e218f52a-3c8a-490a-99d9-5af7196625b0"},"vehicle_type_id":"4","last_reported":1733256684,"current_range_meters":38800,"station_id":"ce4bhu92rcd13ifvqi70","pricing_plan_id":"cebpf4jnsgd1na2vs0mg"},{"bike_id":"506c09f4-6c9b-4fb3-996c-4c7f86dd75a8","system_id":"levelo_inurba_marseille","lat":43.24557,"lon":5.37357,"is_reserved":false,"is_disabled":true,"rental_uris":{"android":"levelo://app?vid=506c09f4-6c9b-4fb3-996c-4c7f86dd75a8","ios":"levelo://app?vid=506c09f4-6c9b-4fb3-996c-4c7f86dd75a8"},"vehicle_type_id":"4","last_reported":1733256684,"current_range_meters":0,"station_id":"","pricing_plan_id":"cebpf4jnsgd1na2vs0mg"},{"bike_id":"78ded5db-5932-41d7-89e7-baf9f08e5081","system_id":"levelo_inurba_marseille","lat":43.30589,"lon":5.39356,"is_reserved":false,"is_disabled":false,"rental_uris":{"android":"levelo://app?vid=78ded5db-5932-41d7-89e7-baf9f08e5081","ios":"levelo://app?vid=78ded5db-5932-41d7-89e7-baf9f08e5081"},"vehicle_type_id":"4","last_reported":1733256684,"current_range_meters":35200,"station_id":"ce4bh0p2rcd13ifvqd80","pricing_plan_id":"cebpf4jnsgd1na2vs0mg"},{"bike_id":"811f147d-6a67-460d-b589-e71e2c93967c","system_id":"levelo_inurba_marseille","lat":43.31525,"lon":5.38024,"is_reserved":false,"is_disabled":false,"rental_uris":{"android":"levelo://app?vid=811f147d-6a67-460d-b589-e71e2c93967c","ios":"levelo://app?vid=811f147d-6a67-460d-b589-e71e2c93967c"},"vehicle_type_id":"4","last_reported":1733256684,"current_range_meters":38000,"station_id":"ce4bhsp2rcd13ifvqi50","pricing_plan_id":"cebpf4jnsgd1na2vs0mg"},{"bike_id":"9202c63e-372c-4469-a5c1-8e35757d1940","system_id":"levelo_inurba_marseille","lat":43.30053,"lon":5.38832,"is_reserved":false,"is_disabled":true,"rental_uris":{"android":"levelo://app?vid=9202c63e-372c-4469-a5c1-8e35757d1940","ios":"levelo://app?vid=9202c63e-372c-4469-a5c1-8e35757d1940"},"vehicle_type_id":"4","last_reported":1733256684,"current_range_meters":0,"station_id":"","pricing_plan_id":"cebpf4jnsgd1na2vs0mg"},{"bike_id":"35f9e607-19fc-442f-b731-41b7ee0028d0","system_id":"levelo_inurba_marseille","lat":43.27428,"lon":5.39404,"is_reserved":false,"is_disabled":false,"rental_uris":{"android":"levelo://app?vid=35f9e607-19fc-442f-b731-41b7ee0028d0","ios":"levelo://app?vid=35f9e607-19fc-442f-b731-41b7ee0028d0"},"vehicle_type_id":"4","last_reported":1733256684,"current_range_meters":3600,"station_id":"ce4bhdp2rcd13ifvqf20","pricing_plan_id":"cebpf4jnsgd1na2vs0mg"},{"bike_id":"3bee1790-16ee-492d-8a22-4fd1c0150a5b","system_id":"levelo_inurba_marseille","lat":43.30304,"lon":5.39207,"is_reserved":false,"is_disabled":false,"rental_uris":{"android":"levelo://app?vid=3bee1790-16ee-492d-8a22-4fd1c0150a5b","ios":"levelo://app?vid=3bee1790-16ee-492d-8a22-4fd1c0150a5b"},"vehicle_type_id":"4","last_reported":1733256684,"current_range_meters":15200,"station_id":"ce4bgkh2rcd13ifvqbk0","pricing_plan_id":"cebpf4jnsgd1na2vs0mg"},{"bike_id":"59fe6ee5-2970-40fb-8f17-79075f699540","system_id":"levelo_inurba_marseille","lat":43.27055,"lon":5.40265,"is_reserved":false,"is_disabled":false,"rental_uris":{"android":"levelo://app?vid=59fe6ee5-2970-40fb-8f17-79075f699540","ios":"levelo://app?vid=59fe6ee5-2970-40fb-8f17-79075f699540"},"vehicle_type_id":"4","last_reported":1733256684,"current_range_meters":38000,"station_id":"ce4bhk92rcd13ifvqgc0","pricing_plan_id":"cebpf4jnsgd1na2vs0mg"},{"bike_id":"238bf486-f5d9-407e-8ece-8215dacd96ed","system_id":"levelo_inurba_marseille","lat":43.25581,"lon":5.38228,"is_reserved":false,"is_disabled":false,"rental_uris":{"android":"levelo://app?vid=238bf486-f5d9-407e-8ece-8215dacd96ed","ios":"levelo://app?vid=238bf486-f5d9-407e-8ece-8215dacd96ed"},"vehicle_type_id":"4","last_reported":1733256684,"current_range_meters":33600,"station_id":"ce4bhih2rcd13ifvqfs0","pricing_plan_id":"cebpf4jnsgd1na2vs0mg"},{"bike_id":"cf3e6ea0-09ff-406c-b357-28a6a6117f94","system_id":"levelo_inurba_marseille","lat":43.22941,"lon":5.35381,"is_reserved":false,"is_disabled":false,"rental_uris":{"android":"levelo://app?vid=cf3e6ea0-09ff-406c-b357-28a6a6117f94","ios":"levelo://app?vid=cf3e6ea0-09ff-406c-b357-28a6a6117f94"},"vehicle_type_id":"4","last_reported":1733256684,"current_range_meters":38000,"station_id":"cpo3532slgdg3j2ikp40","pricing_plan_id":"cebpf4jnsgd1na2vs0mg"},{"bike_id":"c2a8faff-bb33-449e-ba22-c78399448fc1","system_id":"levelo_inurba_marseille","lat":43.28142,"lon":5.4264,"is_reserved":false,"is_disabled":false,"rental_uris":{"android":"levelo://app?vid=c2a8faff-bb33-449e-ba22-c78399448fc1","ios":"levelo://app?vid=c2a8faff-bb33-449e-ba22-c78399448fc1"},"vehicle_type_id":"4","last_reported":1733256684,"current_range_meters":38800,"station_id":"ce4bhnh2rcd13ifvqgug","pricing_plan_id":"cebpf4jnsgd1na2vs0mg"},{"bike_id":"4a163e59-10c0-4f85-9663-cc135fcf421e","system_id":"levelo_inurba_marseille","lat":43.24806,"lon":5.37459,"is_reserved":false,"is_disabled":false,"rental_uris":{"android":"levelo://app?vid=4a163e59-10c0-4f85-9663-cc135fcf421e","ios":"levelo://app?vid=4a163e59-10c0-4f85-9663-cc135fcf421e"},"vehicle_type_id":"4","last_reported":1733256684,"current_range_meters":21600,"station_id":"ce4bhgh2rcd13ifvqfb0","pricing_plan_id":"cebpf4jnsgd1na2vs0mg"},{"bike_id":"69b6bb90-265b-43e3-a900-65f6bd36c0d5","system_id":"levelo_inurba_marseille","lat":43.334463,"lon":5.410781,"is_reserved":false,"is_disabled":false,"rental_uris":{"android":"levelo://app?vid=69b6bb90-265b-43e3-a900-65f6bd36c0d5","ios":"levelo://app?vid=69b6bb90-265b-43e3-a900-65f6bd36c0d5"},"vehicle_type_id":"4","last_reported":1733256684,"current_range_meters":7200,"station_id":"","pricing_plan_id":"cebpf4jnsgd1na2vs0mg"},{"bike_id":"6106d5df-b978-4824-a3ab-a84b8c3ba6b9","system_id":"levelo_inurba_marseille","lat":43.28943,"lon":5.39632,"is_reserved":false,"is_disabled":false,"rental_uris":{"android":"levelo://app?vid=6106d5df-b978-4824-a3ab-a84b8c3ba6b9","ios":"levelo://app?vid=6106d5df-b978-4824-a3ab-a84b8c3ba6b9"},"vehicle_type_id":"4","last_reported":1733256684,"current_range_meters":30400,"station_id":"ce4bh3h2rcd13ifvqdn0","pricing_plan_id":"cebpf4jnsgd1na2vs0mg"},{"bike_id":"719e509a-25e4-4b1b-9830-f708d85d7593","system_id":"levelo_inurba_marseille","lat":43.29569,"lon":5.37512,"is_reserved":false,"is_disabled":true,"rental_uris":{"android":"levelo://app?vid=719e509a-25e4-4b1b-9830-f708d85d7593","ios":"levelo://app?vid=719e509a-25e4-4b1b-9830-f708d85d7593"},"vehicle_type_id":"4","last_reported":1733256684,"current_range_meters":0,"station_id":"ce4bgh92rcd13ifvqb50","pricing_plan_id":"cebpf4jnsgd1na2vs0mg"},{"bike_id":"34990873-3196-4058-b006-4ffbc0216fdf","system_id":"levelo_inurba_marseille","lat":43.23196,"lon":5.35549,"is_reserved":false,"is_disabled":false,"rental_uris":{"android":"levelo://app?vid=34990873-3196-4058-b006-4ffbc0216fdf","ios":"levelo://app?vid=34990873-3196-4058-b006-4ffbc0216fdf"},"vehicle_type_id":"4","last_reported":1733256684,"current_range_meters":39200,"station_id":"ce4bhu92rcd13ifvqi70","pricing_plan_id":"cebpf4jnsgd1na2vs0mg"},{"bike_id":"67349bb0-6aea-4077-9f3f-f0ef08cb5e75","system_id":"levelo_inurba_marseille","lat":43.30787,"lon":5.37644,"is_reserved":false,"is_disabled":false,"rental_uris":{"android":"levelo://app?vid=67349bb0-6aea-4077-9f3f-f0ef08cb5e75","ios":"levelo://app?vid=67349bb0-6aea-4077-9f3f-f0ef08cb5e75"},"vehicle_type_id":"4","last_reported":1733256684,"current_range_meters":36400,"station_id":"ce4bgv92rcd13ifvqcq0","pricing_plan_id":"cebpf4jnsgd1na2vs0mg"},{"bike_id":"235e4433-937e-41f8-a4d6-6889c27bd8c1","system_id":"levelo_inurba_marseille","lat":43.31068,"lon":5.38341,"is_reserved":false,"is_disabled":false,"rental_uris":{"android":"levelo://app?vid=235e4433-937e-41f8-a4d6-6889c27bd8c1","ios":"levelo://app?vid=235e4433-937e-41f8-a4d6-6889c27bd8c1"},"vehicle_type_id":"4","last_reported":1733256684,"current_range_meters":22800,"station_id":"ce4bgv92rcd13ifvqcr0","pricing_plan_id":"cebpf4jnsgd1na2vs0mg"},{"bike_id":"c7246d43-f3b0-4f6e-a739-f76f925adbb6","system_id":"levelo_inurba_marseille","lat":43.26064,"lon":5.39399,"is_reserved":false,"is_disabled":false,"rental_uris":{"android":"levelo://app?vid=c7246d43-f3b0-4f6e-a739-f76f925adbb6","ios":"levelo://app?vid=c7246d43-f3b0-4f6e-a739-f76f925adbb6"},"vehicle_type_id":"4","last_reported":1733256684,"current_range_meters":14000,"station_id":"ce4bhh92rcd13ifvqfj0","pricing_plan_id":"cebpf4jnsgd1na2vs0mg"},{"bike_id":"c0b0668b-9f20-44f3-b7e1-3963df177deb","system_id":"levelo_inurba_marseille","lat":43.26028,"lon":5.3755,"is_reserved":false,"is_disabled":false,"rental_uris":{"android":"levelo://app?vid=c0b0668b-9f20-44f3-b7e1-3963df177deb","ios":"levelo://app?vid=c0b0668b-9f20-44f3-b7e1-3963df177deb"},"vehicle_type_id":"4","last_reported":1733256684,"current_range_meters":28800,"station_id":"ce4bhgh2rcd13ifvqfa0","pricing_plan_id":"cebpf4jnsgd1na2vs0mg"},{"bike_id":"7eeb5ac6-a3ab-4724-a0d1-17bed7e385e6","system_id":"levelo_inurba_marseille","lat":43.28,"lon":5.41662,"is_reserved":false,"is_disabled":true,"rental_uris":{"android":"levelo://app?vid=7eeb5ac6-a3ab-4724-a0d1-17bed7e385e6","ios":"levelo://app?vid=7eeb5ac6-a3ab-4724-a0d1-17bed7e385e6"},"vehicle_type_id":"4","last_reported":1733256684,"current_range_meters":28000,"station_id":"ce4bho12rcd13ifvqh1g","pricing_plan_id":"cebpf4jnsgd1na2vs0mg"},{"bike_id":"48f7fad5-9736-4854-ad66-3ac0235f4d2f","system_id":"levelo_inurba_marseille","lat":43.27057,"lon":5.40258,"is_reserved":false,"is_disabled":false,"rental_uris":{"android":"levelo://app?vid=48f7fad5-9736-4854-ad66-3ac0235f4d2f","ios":"levelo://app?vid=48f7fad5-9736-4854-ad66-3ac0235f4d2f"},"vehicle_type_id":"4","last_reported":1733256684,"current_range_meters":22800,"station_id":"ce4bhk92rcd13ifvqgc0","pricing_plan_id":"cebpf4jnsgd1na2vs0mg"},{"bike_id":"1765576d-ad21-4bb0-85a8-4c7cde4f5294","system_id":"levelo_inurba_marseille","lat":43.29624,"lon":5.3715,"is_reserved":false,"is_disabled":true,"rental_uris":{"android":"levelo://app?vid=1765576d-ad21-4bb0-85a8-4c7cde4f5294","ios":"levelo://app?vid=1765576d-ad21-4bb0-85a8-4c7cde4f5294"},"vehicle_type_id":"4","last_reported":1733256684,"current_range_meters":4800,"station_id":"ce4bgnh2rcd13ifvqc0g","pricing_plan_id":"cebpf4jnsgd1na2vs0mg"},{"bike_id":"d66bb060-eae4-4237-b847-a034287e114d","system_id":"levelo_inurba_marseille","lat":43.239597,"lon":5.36634,"is_reserved":false,"is_disabled":false,"rental_uris":{"android":"levelo://app?vid=d66bb060-eae4-4237-b847-a034287e114d","ios":"levelo://app?vid=d66bb060-eae4-4237-b847-a034287e114d"},"vehicle_type_id":"4","last_reported":1733256684,"current_range_meters":22800,"station_id":"ce4bhi12rcd13ifvqfp0","pricing_plan_id":"cebpf4jnsgd1na2vs0mg"},{"bike_id":"2ab40175-787c-46f4-91da-7344e2f7695c","system_id":"levelo_inurba_marseille","lat":43.3043,"lon":5.38889,"is_reserved":false,"is_disabled":false,"rental_uris":{"android":"levelo://app?vid=2ab40175-787c-46f4-91da-7344e2f7695c","ios":"levelo://app?vid=2ab40175-787c-46f4-91da-7344e2f7695c"},"vehicle_type_id":"4","last_reported":1733256684,"current_range_meters":22000,"station_id":"ce4bgk12rcd13ifvqbi0","pricing_plan_id":"cebpf4jnsgd1na2vs0mg"},{"bike_id":"ecf59274-c53f-4d00-8000-107aaa195945","system_id":"levelo_inurba_marseille","lat":43.28105,"lon":5.37847,"is_reserved":false,"is_disabled":false,"rental_uris":{"android":"levelo://app?vid=ecf59274-c53f-4d00-8000-107aaa195945","ios":"levelo://app?vid=ecf59274-c53f-4d00-8000-107aaa195945"},"vehicle_type_id":"4","last_reported":1733256684,"current_range_meters":36000,"station_id":"ce4bha12rcd13ifvqee0","pricing_plan_id":"cebpf4jnsgd1na2vs0mg"},{"bike_id":"3af9ae96-3d15-4a10-94de-7d6d7a98c4b7","system_id":"levelo_inurba_marseille","lat":43.28457,"lon":5.392,"is_reserved":false,"is_disabled":false,"rental_uris":{"android":"levelo://app?vid=3af9ae96-3d15-4a10-94de-7d6d7a98c4b7","ios":"levelo://app?vid=3af9ae96-3d15-4a10-94de-7d6d7a98c4b7"},"vehicle_type_id":"4","last_reported":1733256684,"current_range_meters":11600,"station_id":"ce4bhoh2rcd13ifvqh5g","pricing_plan_id":"cebpf4jnsgd1na2vs0mg"},{"bike_id":"306ac285-bc0c-4835-93e0-a6039d545963","system_id":"levelo_inurba_marseille","lat":43.30094,"lon":5.39087,"is_reserved":false,"is_disabled":true,"rental_uris":{"android":"levelo://app?vid=306ac285-bc0c-4835-93e0-a6039d545963","ios":"levelo://app?vid=306ac285-bc0c-4835-93e0-a6039d545963"},"vehicle_type_id":"4","last_reported":1733256684,"current_range_meters":38400,"station_id":"ce4bh192rcd13ifvqdb0","pricing_plan_id":"cebpf4jnsgd1na2vs0mg"},{"bike_id":"8ddd70e6-f2b9-4484-b4c8-a1aedb775bd7","system_id":"levelo_inurba_marseille","lat":43.2816,"lon":5.4263,"is_reserved":false,"is_disabled":false,"rental_uris":{"android":"levelo://app?vid=8ddd70e6-f2b9-4484-b4c8-a1aedb775bd7","ios":"levelo://app?vid=8ddd70e6-f2b9-4484-b4c8-a1aedb775bd7"},"vehicle_type_id":"4","last_reported":1733256684,"current_range_meters":19200,"station_id":"ce4bhnh2rcd13ifvqgug","pricing_plan_id":"cebpf4jnsgd1na2vs0mg"},{"bike_id":"510f7d64-056d-4591-848e-33c7bef51b35","system_id":"levelo_inurba_marseille","lat":43.330222,"lon":5.390345,"is_reserved":false,"is_disabled":false,"rental_uris":{"android":"levelo://app?vid=510f7d64-056d-4591-848e-33c7bef51b35","ios":"levelo://app?vid=510f7d64-056d-4591-848e-33c7bef51b35"},"vehicle_type_id":"4","last_reported":1733256684,"current_range_meters":38800,"station_id":"ce4bhr92rcd13ifvqhrg","pricing_plan_id":"cebpf4jnsgd1na2vs0mg"},{"bike_id":"1dc70cdf-4f74-41af-9e95-77502d50e11a","system_id":"levelo_inurba_marseille","lat":43.30417,"lon":5.41286,"is_reserved":false,"is_disabled":true,"rental_uris":{"android":"levelo://app?vid=1dc70cdf-4f74-41af-9e95-77502d50e11a","ios":"levelo://app?vid=1dc70cdf-4f74-41af-9e95-77502d50e11a"},"vehicle_type_id":"4","last_reported":1733256684,"current_range_meters":16000,"station_id":"ce4bhop2rcd13ifvqh8g","pricing_plan_id":"cebpf4jnsgd1na2vs0mg"},{"bike_id":"a5768550-3c96-44d5-960b-1ba73ff96b1c","system_id":"levelo_inurba_marseille","lat":43.29008,"lon":5.35605,"is_reserved":false,"is_disabled":true,"rental_uris":{"android":"levelo://app?vid=a5768550-3c96-44d5-960b-1ba73ff96b1c","ios":"levelo://app?vid=a5768550-3c96-44d5-960b-1ba73ff96b1c"},"vehicle_type_id":"4","last_reported":1733256684,"current_range_meters":0,"station_id":"ce4bhb92rcd13ifvqen0","pricing_plan_id":"cebpf4jnsgd1na2vs0mg"},{"bike_id":"0dcbcd7e-c737-411b-bb7f-576711ab8aeb","system_id":"levelo_inurba_marseille","lat":43.27841,"lon":5.39213,"is_reserved":false,"is_disabled":true,"rental_uris":{"android":"levelo://app?vid=0dcbcd7e-c737-411b-bb7f-576711ab8aeb","ios":"levelo://app?vid=0dcbcd7e-c737-411b-bb7f-576711ab8aeb"},"vehicle_type_id":"4","last_reported":1733256684,"current_range_meters":2000,"station_id":"ce4bhjp2rcd13ifvqga0","pricing_plan_id":"cebpf4jnsgd1na2vs0mg"},{"bike_id":"c5e00de4-0852-4ff1-bb8a-0dc77da9f77b","system_id":"levelo_inurba_marseille","lat":43.2957,"lon":5.37511,"is_reserved":false,"is_disabled":false,"rental_uris":{"android":"levelo://app?vid=c5e00de4-0852-4ff1-bb8a-0dc77da9f77b","ios":"levelo://app?vid=c5e00de4-0852-4ff1-bb8a-0dc77da9f77b"},"vehicle_type_id":"4","last_reported":1733256684,"current_range_meters":38400,"station_id":"ce4bgh92rcd13ifvqb50","pricing_plan_id":"cebpf4jnsgd1na2vs0mg"},{"bike_id":"a57352c3-6470-473f-b725-4b1ac6d22442","system_id":"levelo_inurba_marseille","lat":43.28619,"lon":5.35105,"is_reserved":false,"is_disabled":false,"rental_uris":{"android":"levelo://app?vid=a57352c3-6470-473f-b725-4b1ac6d22442","ios":"levelo://app?vid=a57352c3-6470-473f-b725-4b1ac6d22442"},"vehicle_type_id":"4","last_reported":1733256684,"current_range_meters":22400,"station_id":"ce4bhch2rcd13ifvqeug","pricing_plan_id":"cebpf4jnsgd1na2vs0mg"},{"bike_id":"72e21a5e-0a93-46f4-be99-089514dd36e9","system_id":"levelo_inurba_marseille","lat":43.33027,"lon":5.3904,"is_reserved":false,"is_disabled":false,"rental_uris":{"android":"levelo://app?vid=72e21a5e-0a93-46f4-be99-089514dd36e9","ios":"levelo://app?vid=72e21a5e-0a93-46f4-be99-089514dd36e9"},"vehicle_type_id":"4","last_reported":1733256684,"current_range_meters":38800,"station_id":"ce4bhr92rcd13ifvqhrg","pricing_plan_id":"cebpf4jnsgd1na2vs0mg"},{"bike_id":"79c8ea6d-5102-4a1e-b941-afdabc095945","system_id":"levelo_inurba_marseille","lat":43.29079,"lon":5.38358,"is_reserved":false,"is_disabled":true,"rental_uris":{"android":"levelo://app?vid=79c8ea6d-5102-4a1e-b941-afdabc095945","ios":"levelo://app?vid=79c8ea6d-5102-4a1e-b941-afdabc095945"},"vehicle_type_id":"4","last_reported":1733256684,"current_range_meters":24000,"station_id":"","pricing_plan_id":"cebpf4jnsgd1na2vs0mg"},{"bike_id":"fa33c55c-d1dd-4ce6-bd4a-de924a6886f2","system_id":"levelo_inurba_marseille","lat":43.28156,"lon":5.4265,"is_reserved":false,"is_disabled":false,"rental_uris":{"android":"levelo://app?vid=fa33c55c-d1dd-4ce6-bd4a-de924a6886f2","ios":"levelo://app?vid=fa33c55c-d1dd-4ce6-bd4a-de924a6886f2"},"vehicle_type_id":"4","last_reported":1733256684,"current_range_meters":14400,"station_id":"ce4bhnh2rcd13ifvqgug","pricing_plan_id":"cebpf4jnsgd1na2vs0mg"},{"bike_id":"27179a53-4158-444c-8305-a83afa910ee5","system_id":"levelo_inurba_marseille","lat":43.2971,"lon":5.36603,"is_reserved":false,"is_disabled":false,"rental_uris":{"android":"levelo://app?vid=27179a53-4158-444c-8305-a83afa910ee5","ios":"levelo://app?vid=27179a53-4158-444c-8305-a83afa910ee5"},"vehicle_type_id":"4","last_reported":1733256684,"current_range_meters":19200,"station_id":"ce4bgn12rcd13ifvqbt0","pricing_plan_id":"cebpf4jnsgd1na2vs0mg"},{"bike_id":"016f68b4-d473-4846-80a2-b710a62372af","system_id":"levelo_inurba_marseille","lat":43.31716,"lon":5.4371,"is_reserved":false,"is_disabled":false,"rental_uris":{"android":"levelo://app?vid=016f68b4-d473-4846-80a2-b710a62372af","ios":"levelo://app?vid=016f68b4-d473-4846-80a2-b710a62372af"},"vehicle_type_id":"4","last_reported":1733256684,"current_range_meters":30400,"station_id":"ce4bhp92rcd13ifvqhcg","pricing_plan_id":"cebpf4jnsgd1na2vs0mg"},{"bike_id":"e2fbadc5-61e9-414c-8d9c-149493eaf445","system_id":"levelo_inurba_marseille","lat":43.29045,"lon":5.37579,"is_reserved":false,"is_disabled":false,"rental_uris":{"android":"levelo://app?vid=e2fbadc5-61e9-414c-8d9c-149493eaf445","ios":"levelo://app?vid=e2fbadc5-61e9-414c-8d9c-149493eaf445"},"vehicle_type_id":"4","last_reported":1733256684,"current_range_meters":38800,"station_id":"ce4bh692rcd13ifvqe90","pricing_plan_id":"cebpf4jnsgd1na2vs0mg"},{"bike_id":"d337693b-82b2-4f65-ad74-9a2472a5f9cd","system_id":"levelo_inurba_marseille","lat":43.297863,"lon":5.381094,"is_reserved":false,"is_disabled":true,"rental_uris":{"android":"levelo://app?vid=d337693b-82b2-4f65-ad74-9a2472a5f9cd","ios":"levelo://app?vid=d337693b-82b2-4f65-ad74-9a2472a5f9cd"},"vehicle_type_id":"4","last_reported":1733256684,"current_range_meters":36800,"station_id":"ce4bgip2rcd13ifvqbb0","pricing_plan_id":"cebpf4jnsgd1na2vs0mg"},{"bike_id":"1f3491f0-7911-4ef6-949b-178332ea511b","system_id":"levelo_inurba_marseille","lat":43.27933,"lon":5.38758,"is_reserved":false,"is_disabled":false,"rental_uris":{"android":"levelo://app?vid=1f3491f0-7911-4ef6-949b-178332ea511b","ios":"levelo://app?vid=1f3491f0-7911-4ef6-949b-178332ea511b"},"vehicle_type_id":"4","last_reported":1733256684,"current_range_meters":23200,"station_id":"ce4bhg12rcd13ifvqf80","pricing_plan_id":"cebpf4jnsgd1na2vs0mg"},{"bike_id":"0107f250-a8c2-4f58-9b6e-91ed41f811e4","system_id":"levelo_inurba_marseille","lat":43.31705,"lon":5.43702,"is_reserved":false,"is_disabled":false,"rental_uris":{"android":"levelo://app?vid=0107f250-a8c2-4f58-9b6e-91ed41f811e4","ios":"levelo://app?vid=0107f250-a8c2-4f58-9b6e-91ed41f811e4"},"vehicle_type_id":"4","last_reported":1733256684,"current_range_meters":5600,"station_id":"ce4bhp92rcd13ifvqhcg","pricing_plan_id":"cebpf4jnsgd1na2vs0mg"},{"bike_id":"427d7497-fe79-4531-b7d6-69d2614ceec1","system_id":"levelo_inurba_marseille","lat":43.29187,"lon":5.38489,"is_reserved":false,"is_disabled":true,"rental_uris":{"android":"levelo://app?vid=427d7497-fe79-4531-b7d6-69d2614ceec1","ios":"levelo://app?vid=427d7497-fe79-4531-b7d6-69d2614ceec1"},"vehicle_type_id":"4","last_reported":1733256684,"current_range_meters":8400,"station_id":"","pricing_plan_id":"cebpf4jnsgd1na2vs0mg"},{"bike_id":"5a76fd04-cbd6-46b3-befd-93c3b1917ad9","system_id":"levelo_inurba_marseille","lat":43.29185,"lon":5.35813,"is_reserved":false,"is_disabled":false,"rental_uris":{"android":"levelo://app?vid=5a76fd04-cbd6-46b3-befd-93c3b1917ad9","ios":"levelo://app?vid=5a76fd04-cbd6-46b3-befd-93c3b1917ad9"},"vehicle_type_id":"4","last_reported":1733256684,"current_range_meters":38800,"station_id":"ce4bhb12rcd13ifvqel0","pricing_plan_id":"cebpf4jnsgd1na2vs0mg"},{"bike_id":"3e0a386b-df42-46c9-8a4b-b873ec10d864","system_id":"levelo_inurba_marseille","lat":43.28155,"lon":5.42636,"is_reserved":false,"is_disabled":false,"rental_uris":{"android":"levelo://app?vid=3e0a386b-df42-46c9-8a4b-b873ec10d864","ios":"levelo://app?vid=3e0a386b-df42-46c9-8a4b-b873ec10d864"},"vehicle_type_id":"4","last_reported":1733256684,"current_range_meters":14800,"station_id":"ce4bhnh2rcd13ifvqgug","pricing_plan_id":"cebpf4jnsgd1na2vs0mg"},{"bike_id":"d08cbdef-fa5f-4eaa-9a1b-d4e2d436791f","system_id":"levelo_inurba_marseille","lat":43.32489,"lon":5.36557,"is_reserved":false,"is_disabled":false,"rental_uris":{"android":"levelo://app?vid=d08cbdef-fa5f-4eaa-9a1b-d4e2d436791f","ios":"levelo://app?vid=d08cbdef-fa5f-4eaa-9a1b-d4e2d436791f"},"vehicle_type_id":"4","last_reported":1733256684,"current_range_meters":38800,"station_id":"ce4bhs12rcd13ifvqhvg","pricing_plan_id":"cebpf4jnsgd1na2vs0mg"},{"bike_id":"ed420919-74d5-496e-8d22-f774c8fcfbb2","system_id":"levelo_inurba_marseille","lat":43.2901,"lon":5.35605,"is_reserved":false,"is_disabled":false,"rental_uris":{"android":"levelo://app?vid=ed420919-74d5-496e-8d22-f774c8fcfbb2","ios":"levelo://app?vid=ed420919-74d5-496e-8d22-f774c8fcfbb2"},"vehicle_type_id":"4","last_reported":1733256684,"current_range_meters":39200,"station_id":"ce4bhb92rcd13ifvqen0","pricing_plan_id":"cebpf4jnsgd1na2vs0mg"},{"bike_id":"a4b9e425-64b8-4ce2-a5ab-5fcc5d1230a4","system_id":"levelo_inurba_marseille","lat":43.32106,"lon":5.36779,"is_reserved":false,"is_disabled":false,"rental_uris":{"android":"levelo://app?vid=a4b9e425-64b8-4ce2-a5ab-5fcc5d1230a4","ios":"levelo://app?vid=a4b9e425-64b8-4ce2-a5ab-5fcc5d1230a4"},"vehicle_type_id":"4","last_reported":1733256684,"current_range_meters":9200,"station_id":"ce4bhrh2rcd13ifvqhug","pricing_plan_id":"cebpf4jnsgd1na2vs0mg"},{"bike_id":"803c1b66-728a-435a-beca-1893ffcb222f","system_id":"levelo_inurba_marseille","lat":43.29039,"lon":5.35922,"is_reserved":false,"is_disabled":false,"rental_uris":{"android":"levelo://app?vid=803c1b66-728a-435a-beca-1893ffcb222f","ios":"levelo://app?vid=803c1b66-728a-435a-beca-1893ffcb222f"},"vehicle_type_id":"4","last_reported":1733256684,"current_range_meters":20400,"station_id":"ce4bha92rcd13ifvqeg0","pricing_plan_id":"cebpf4jnsgd1na2vs0mg"},{"bike_id":"35c7d7dd-1835-4a10-a2d9-66363c082bd3","system_id":"levelo_inurba_marseille","lat":43.24072,"lon":5.37757,"is_reserved":false,"is_disabled":false,"rental_uris":{"android":"levelo://app?vid=35c7d7dd-1835-4a10-a2d9-66363c082bd3","ios":"levelo://app?vid=35c7d7dd-1835-4a10-a2d9-66363c082bd3"},"vehicle_type_id":"4","last_reported":1733256684,"current_range_meters":37600,"station_id":"ce4bhnp2rcd13ifvqgvg","pricing_plan_id":"cebpf4jnsgd1na2vs0mg"},{"bike_id":"b2bc1728-46a3-400e-bd39-12c204f62d20","system_id":"levelo_inurba_marseille","lat":43.26942,"lon":5.40242,"is_reserved":false,"is_disabled":false,"rental_uris":{"android":"levelo://app?vid=b2bc1728-46a3-400e-bd39-12c204f62d20","ios":"levelo://app?vid=b2bc1728-46a3-400e-bd39-12c204f62d20"},"vehicle_type_id":"4","last_reported":1733256684,"current_range_meters":25600,"station_id":"cjm6bp8fraef2m0cb0m0","pricing_plan_id":"cebpf4jnsgd1na2vs0mg"},{"bike_id":"124e256b-6755-4adb-956b-3d5fbbcf671d","system_id":"levelo_inurba_marseille","lat":43.29782,"lon":5.39337,"is_reserved":false,"is_disabled":true,"rental_uris":{"android":"levelo://app?vid=124e256b-6755-4adb-956b-3d5fbbcf671d","ios":"levelo://app?vid=124e256b-6755-4adb-956b-3d5fbbcf671d"},"vehicle_type_id":"4","last_reported":1733256684,"current_range_meters":0,"station_id":"chh1huq6cuj3fo74tm60","pricing_plan_id":"cebpf4jnsgd1na2vs0mg"},{"bike_id":"0fb51153-e333-4cf0-9413-a3ae27df6b16","system_id":"levelo_inurba_marseille","lat":43.27992,"lon":5.40027,"is_reserved":false,"is_disabled":false,"rental_uris":{"android":"levelo://app?vid=0fb51153-e333-4cf0-9413-a3ae27df6b16","ios":"levelo://app?vid=0fb51153-e333-4cf0-9413-a3ae27df6b16"},"vehicle_type_id":"4","last_reported":1733256684,"current_range_meters":22800,"station_id":"ce4bho92rcd13ifvqh4g","pricing_plan_id":"cebpf4jnsgd1na2vs0mg"},{"bike_id":"6fa73ae3-91e9-49d0-af4b-d9ca8591ccaf","system_id":"levelo_inurba_marseille","lat":43.33032,"lon":5.39032,"is_reserved":false,"is_disabled":false,"rental_uris":{"android":"levelo://app?vid=6fa73ae3-91e9-49d0-af4b-d9ca8591ccaf","ios":"levelo://app?vid=6fa73ae3-91e9-49d0-af4b-d9ca8591ccaf"},"vehicle_type_id":"4","last_reported":1733256684,"current_range_meters":20000,"station_id":"ce4bhr92rcd13ifvqhrg","pricing_plan_id":"cebpf4jnsgd1na2vs0mg"},{"bike_id":"7d275e9a-1bd4-4401-948a-bf8c39ad132d","system_id":"levelo_inurba_marseille","lat":43.31325,"lon":5.39686,"is_reserved":false,"is_disabled":false,"rental_uris":{"android":"levelo://app?vid=7d275e9a-1bd4-4401-948a-bf8c39ad132d","ios":"levelo://app?vid=7d275e9a-1bd4-4401-948a-bf8c39ad132d"},"vehicle_type_id":"4","last_reported":1733256684,"current_range_meters":11600,"station_id":"ce4bgvp2rcd13ifvqcu0","pricing_plan_id":"cebpf4jnsgd1na2vs0mg"},{"bike_id":"0112a8c7-aaf7-4044-b05d-a8dc345517a8","system_id":"levelo_inurba_marseille","lat":43.31331,"lon":5.39687,"is_reserved":false,"is_disabled":false,"rental_uris":{"android":"levelo://app?vid=0112a8c7-aaf7-4044-b05d-a8dc345517a8","ios":"levelo://app?vid=0112a8c7-aaf7-4044-b05d-a8dc345517a8"},"vehicle_type_id":"4","last_reported":1733256684,"current_range_meters":27600,"station_id":"ce4bgvp2rcd13ifvqcu0","pricing_plan_id":"cebpf4jnsgd1na2vs0mg"},{"bike_id":"48185404-d534-4bac-b883-d6690bbc29c1","system_id":"levelo_inurba_marseille","lat":43.30251,"lon":5.40073,"is_reserved":false,"is_disabled":true,"rental_uris":{"android":"levelo://app?vid=48185404-d534-4bac-b883-d6690bbc29c1","ios":"levelo://app?vid=48185404-d534-4bac-b883-d6690bbc29c1"},"vehicle_type_id":"4","last_reported":1733256684,"current_range_meters":0,"station_id":"ce4bgvh2rcd13ifvqcs0","pricing_plan_id":"cebpf4jnsgd1na2vs0mg"},{"bike_id":"803ae2dc-bb0e-4bdd-a79c-7df72396dc05","system_id":"levelo_inurba_marseille","lat":43.27997,"lon":5.40016,"is_reserved":false,"is_disabled":false,"rental_uris":{"android":"levelo://app?vid=803ae2dc-bb0e-4bdd-a79c-7df72396dc05","ios":"levelo://app?vid=803ae2dc-bb0e-4bdd-a79c-7df72396dc05"},"vehicle_type_id":"4","last_reported":1733256684,"current_range_meters":39200,"station_id":"ce4bho92rcd13ifvqh4g","pricing_plan_id":"cebpf4jnsgd1na2vs0mg"},{"bike_id":"f71ac255-d536-4796-9210-11e60417045d","system_id":"levelo_inurba_marseille","lat":43.31734,"lon":5.423943,"is_reserved":false,"is_disabled":false,"rental_uris":{"android":"levelo://app?vid=f71ac255-d536-4796-9210-11e60417045d","ios":"levelo://app?vid=f71ac255-d536-4796-9210-11e60417045d"},"vehicle_type_id":"4","last_reported":1733256684,"current_range_meters":25600,"station_id":"ce4bhp92rcd13ifvqhbg","pricing_plan_id":"cebpf4jnsgd1na2vs0mg"},{"bike_id":"629133d4-cff8-483d-809a-322864079e4d","system_id":"levelo_inurba_marseille","lat":43.31705,"lon":5.42397,"is_reserved":false,"is_disabled":false,"rental_uris":{"android":"levelo://app?vid=629133d4-cff8-483d-809a-322864079e4d","ios":"levelo://app?vid=629133d4-cff8-483d-809a-322864079e4d"},"vehicle_type_id":"4","last_reported":1733256684,"current_range_meters":20800,"station_id":"ce4bhp92rcd13ifvqhbg","pricing_plan_id":"cebpf4jnsgd1na2vs0mg"},{"bike_id":"4a6fa495-0217-4feb-af84-5c6424e5656c","system_id":"levelo_inurba_marseille","lat":43.32068,"lon":5.41543,"is_reserved":false,"is_disabled":false,"rental_uris":{"android":"levelo://app?vid=4a6fa495-0217-4feb-af84-5c6424e5656c","ios":"levelo://app?vid=4a6fa495-0217-4feb-af84-5c6424e5656c"},"vehicle_type_id":"4","last_reported":1733256684,"current_range_meters":31200,"station_id":"ce4bhq92rcd13ifvqhkg","pricing_plan_id":"cebpf4jnsgd1na2vs0mg"},{"bike_id":"57e0f190-7f16-4931-934d-384b1700b76f","system_id":"levelo_inurba_marseille","lat":43.33099,"lon":5.3623,"is_reserved":false,"is_disabled":true,"rental_uris":{"android":"levelo://app?vid=57e0f190-7f16-4931-934d-384b1700b76f","ios":"levelo://app?vid=57e0f190-7f16-4931-934d-384b1700b76f"},"vehicle_type_id":"4","last_reported":1733256684,"current_range_meters":0,"station_id":"","pricing_plan_id":"cebpf4jnsgd1na2vs0mg"},{"bike_id":"5e160b8e-5c83-4423-b051-bd2cf577003d","system_id":"levelo_inurba_marseille","lat":43.23199,"lon":5.35549,"is_reserved":false,"is_disabled":false,"rental_uris":{"android":"levelo://app?vid=5e160b8e-5c83-4423-b051-bd2cf577003d","ios":"levelo://app?vid=5e160b8e-5c83-4423-b051-bd2cf577003d"},"vehicle_type_id":"4","last_reported":1733256684,"current_range_meters":39200,"station_id":"ce4bhu92rcd13ifvqi70","pricing_plan_id":"cebpf4jnsgd1na2vs0mg"},{"bike_id":"fe22b0f1-4409-493b-92e7-efe79b2e56cf","system_id":"levelo_inurba_marseille","lat":43.27069,"lon":5.42284,"is_reserved":false,"is_disabled":false,"rental_uris":{"android":"levelo://app?vid=fe22b0f1-4409-493b-92e7-efe79b2e56cf","ios":"levelo://app?vid=fe22b0f1-4409-493b-92e7-efe79b2e56cf"},"vehicle_type_id":"4","last_reported":1733256684,"current_range_meters":37600,"station_id":"ce4bhk92rcd13ifvqgb0","pricing_plan_id":"cebpf4jnsgd1na2vs0mg"},{"bike_id":"89790328-14f8-4b3a-86d2-09c07c01657a","system_id":"levelo_inurba_marseille","lat":43.33023,"lon":5.39034,"is_reserved":false,"is_disabled":false,"rental_uris":{"android":"levelo://app?vid=89790328-14f8-4b3a-86d2-09c07c01657a","ios":"levelo://app?vid=89790328-14f8-4b3a-86d2-09c07c01657a"},"vehicle_type_id":"4","last_reported":1733256684,"current_range_meters":29600,"station_id":"ce4bhr92rcd13ifvqhrg","pricing_plan_id":"cebpf4jnsgd1na2vs0mg"},{"bike_id":"2474f47f-3502-4a86-9cdf-a92970d48289","system_id":"levelo_inurba_marseille","lat":43.32368,"lon":5.38886,"is_reserved":false,"is_disabled":false,"rental_uris":{"android":"levelo://app?vid=2474f47f-3502-4a86-9cdf-a92970d48289","ios":"levelo://app?vid=2474f47f-3502-4a86-9cdf-a92970d48289"},"vehicle_type_id":"4","last_reported":1733256684,"current_range_meters":36400,"station_id":"ce4bhqp2rcd13ifvqhog","pricing_plan_id":"cebpf4jnsgd1na2vs0mg"},{"bike_id":"0ecfd779-5539-47af-aacd-2f9643bc2006","system_id":"levelo_inurba_marseille","lat":43.301484,"lon":5.3808,"is_reserved":false,"is_disabled":false,"rental_uris":{"android":"levelo://app?vid=0ecfd779-5539-47af-aacd-2f9643bc2006","ios":"levelo://app?vid=0ecfd779-5539-47af-aacd-2f9643bc2006"},"vehicle_type_id":"4","last_reported":1733256684,"current_range_meters":28000,"station_id":"ce4bgjp2rcd13ifvqbh0","pricing_plan_id":"cebpf4jnsgd1na2vs0mg"},{"bike_id":"1df12b90-cbae-49c5-a6f4-8e27e7cb26fb","system_id":"levelo_inurba_marseille","lat":43.30646,"lon":5.40082,"is_reserved":false,"is_disabled":false,"rental_uris":{"android":"levelo://app?vid=1df12b90-cbae-49c5-a6f4-8e27e7cb26fb","ios":"levelo://app?vid=1df12b90-cbae-49c5-a6f4-8e27e7cb26fb"},"vehicle_type_id":"4","last_reported":1733256684,"current_range_meters":22400,"station_id":"ce4bh112rcd13ifvqda0","pricing_plan_id":"cebpf4jnsgd1na2vs0mg"},{"bike_id":"337a9be2-ef08-4eff-89f9-35aab4dd8102","system_id":"levelo_inurba_marseille","lat":43.31324,"lon":5.39699,"is_reserved":false,"is_disabled":false,"rental_uris":{"android":"levelo://app?vid=337a9be2-ef08-4eff-89f9-35aab4dd8102","ios":"levelo://app?vid=337a9be2-ef08-4eff-89f9-35aab4dd8102"},"vehicle_type_id":"4","last_reported":1733256684,"current_range_meters":28400,"station_id":"ce4bgvp2rcd13ifvqcu0","pricing_plan_id":"cebpf4jnsgd1na2vs0mg"},{"bike_id":"51beb246-2835-46c0-b571-4251cbe73d9c","system_id":"levelo_inurba_marseille","lat":43.29518,"lon":5.37505,"is_reserved":false,"is_disabled":false,"rental_uris":{"android":"levelo://app?vid=51beb246-2835-46c0-b571-4251cbe73d9c","ios":"levelo://app?vid=51beb246-2835-46c0-b571-4251cbe73d9c"},"vehicle_type_id":"4","last_reported":1733256684,"current_range_meters":33600,"station_id":"ce4bgkp2rcd13ifvqbmg","pricing_plan_id":"cebpf4jnsgd1na2vs0mg"},{"bike_id":"ce6a429f-4825-4c63-b948-e0dfdaaab389","system_id":"levelo_inurba_marseille","lat":43.29213,"lon":5.36046,"is_reserved":false,"is_disabled":true,"rental_uris":{"android":"levelo://app?vid=ce6a429f-4825-4c63-b948-e0dfdaaab389","ios":"levelo://app?vid=ce6a429f-4825-4c63-b948-e0dfdaaab389"},"vehicle_type_id":"4","last_reported":1733256684,"current_range_meters":38400,"station_id":"ce4bhbh2rcd13ifvqeqg","pricing_plan_id":"cebpf4jnsgd1na2vs0mg"},{"bike_id":"6ff8511d-9df9-4558-b3a2-c11675198623","system_id":"levelo_inurba_marseille","lat":43.29272,"lon":5.36846,"is_reserved":false,"is_disabled":true,"rental_uris":{"android":"levelo://app?vid=6ff8511d-9df9-4558-b3a2-c11675198623","ios":"levelo://app?vid=6ff8511d-9df9-4558-b3a2-c11675198623"},"vehicle_type_id":"4","last_reported":1733256684,"current_range_meters":10000,"station_id":"ce4bhbp2rcd13ifvqesg","pricing_plan_id":"cebpf4jnsgd1na2vs0mg"},{"bike_id":"8d4a4adb-15e8-4c6e-af88-14589ad7920d","system_id":"levelo_inurba_marseille","lat":43.28617,"lon":5.351,"is_reserved":false,"is_disabled":true,"rental_uris":{"android":"levelo://app?vid=8d4a4adb-15e8-4c6e-af88-14589ad7920d","ios":"levelo://app?vid=8d4a4adb-15e8-4c6e-af88-14589ad7920d"},"vehicle_type_id":"4","last_reported":1733256684,"current_range_meters":0,"station_id":"ce4bhch2rcd13ifvqeug","pricing_plan_id":"cebpf4jnsgd1na2vs0mg"},{"bike_id":"e63aa962-a242-44bd-8328-31cf6c0d9d3d","system_id":"levelo_inurba_marseille","lat":43.29305,"lon":5.37184,"is_reserved":false,"is_disabled":true,"rental_uris":{"android":"levelo://app?vid=e63aa962-a242-44bd-8328-31cf6c0d9d3d","ios":"levelo://app?vid=e63aa962-a242-44bd-8328-31cf6c0d9d3d"},"vehicle_type_id":"4","last_reported":1733256684,"current_range_meters":0,"station_id":"ce4bgh92rcd13ifvqb40","pricing_plan_id":"cebpf4jnsgd1na2vs0mg"},{"bike_id":"f8bcc820-9a1c-492a-9f26-6a6b26934b17","system_id":"levelo_inurba_marseille","lat":43.28617,"lon":5.37061,"is_reserved":false,"is_disabled":true,"rental_uris":{"android":"levelo://app?vid=f8bcc820-9a1c-492a-9f26-6a6b26934b17","ios":"levelo://app?vid=f8bcc820-9a1c-492a-9f26-6a6b26934b17"},"vehicle_type_id":"4","last_reported":1733256684,"current_range_meters":37600,"station_id":"ce4bht12rcd13ifvqi60","pricing_plan_id":"cebpf4jnsgd1na2vs0mg"},{"bike_id":"811e9b12-e984-4596-9f3f-190cadf4f0c8","system_id":"levelo_inurba_marseille","lat":43.24805,"lon":5.37451,"is_reserved":false,"is_disabled":false,"rental_uris":{"android":"levelo://app?vid=811e9b12-e984-4596-9f3f-190cadf4f0c8","ios":"levelo://app?vid=811e9b12-e984-4596-9f3f-190cadf4f0c8"},"vehicle_type_id":"4","last_reported":1733256684,"current_range_meters":3200,"station_id":"ce4bhgh2rcd13ifvqfb0","pricing_plan_id":"cebpf4jnsgd1na2vs0mg"},{"bike_id":"ffa321ed-06ff-48bd-8b4c-2f6701e60320","system_id":"levelo_inurba_marseille","lat":43.26928,"lon":5.38917,"is_reserved":false,"is_disabled":false,"rental_uris":{"android":"levelo://app?vid=ffa321ed-06ff-48bd-8b4c-2f6701e60320","ios":"levelo://app?vid=ffa321ed-06ff-48bd-8b4c-2f6701e60320"},"vehicle_type_id":"4","last_reported":1733256684,"current_range_meters":23200,"station_id":"ce4bhhh2rcd13ifvqfl0","pricing_plan_id":"cebpf4jnsgd1na2vs0mg"},{"bike_id":"569ece25-8cce-4a84-ac6c-a85a6b257fe8","system_id":"levelo_inurba_marseille","lat":43.31684,"lon":5.40475,"is_reserved":false,"is_disabled":false,"rental_uris":{"android":"levelo://app?vid=569ece25-8cce-4a84-ac6c-a85a6b257fe8","ios":"levelo://app?vid=569ece25-8cce-4a84-ac6c-a85a6b257fe8"},"vehicle_type_id":"4","last_reported":1733256684,"current_range_meters":24000,"station_id":"ce4bh012rcd13ifvqd00","pricing_plan_id":"cebpf4jnsgd1na2vs0mg"},{"bike_id":"3a9149f3-357c-4d0a-859b-18382ef024a5","system_id":"levelo_inurba_marseille","lat":43.32112,"lon":5.36779,"is_reserved":false,"is_disabled":false,"rental_uris":{"android":"levelo://app?vid=3a9149f3-357c-4d0a-859b-18382ef024a5","ios":"levelo://app?vid=3a9149f3-357c-4d0a-859b-18382ef024a5"},"vehicle_type_id":"4","last_reported":1733256684,"current_range_meters":30800,"station_id":"ce4bhrh2rcd13ifvqhug","pricing_plan_id":"cebpf4jnsgd1na2vs0mg"},{"bike_id":"40598e4d-94a0-4d5a-8238-bc07f3dbce29","system_id":"levelo_inurba_marseille","lat":43.27994,"lon":5.40015,"is_reserved":false,"is_disabled":false,"rental_uris":{"android":"levelo://app?vid=40598e4d-94a0-4d5a-8238-bc07f3dbce29","ios":"levelo://app?vid=40598e4d-94a0-4d5a-8238-bc07f3dbce29"},"vehicle_type_id":"4","last_reported":1733256684,"current_range_meters":32800,"station_id":"ce4bho92rcd13ifvqh4g","pricing_plan_id":"cebpf4jnsgd1na2vs0mg"},{"bike_id":"03ee2335-9a9e-4c34-b796-5568e1b9dae7","system_id":"levelo_inurba_marseille","lat":43.34149,"lon":5.409074,"is_reserved":false,"is_disabled":false,"rental_uris":{"android":"levelo://app?vid=03ee2335-9a9e-4c34-b796-5568e1b9dae7","ios":"levelo://app?vid=03ee2335-9a9e-4c34-b796-5568e1b9dae7"},"vehicle_type_id":"4","last_reported":1733256684,"current_range_meters":38400,"station_id":"ce4bhqh2rcd13ifvqhlg","pricing_plan_id":"cebpf4jnsgd1na2vs0mg"},{"bike_id":"325e222a-420f-430a-a4bf-9365f0b714ab","system_id":"levelo_inurba_marseille","lat":43.27945,"lon":5.4104,"is_reserved":false,"is_disabled":true,"rental_uris":{"android":"levelo://app?vid=325e222a-420f-430a-a4bf-9365f0b714ab","ios":"levelo://app?vid=325e222a-420f-430a-a4bf-9365f0b714ab"},"vehicle_type_id":"4","last_reported":1733256684,"current_range_meters":38800,"station_id":"ce4bhnp2rcd13ifvqh0g","pricing_plan_id":"cebpf4jnsgd1na2vs0mg"},{"bike_id":"67599700-ee45-4273-a9c7-950d4097057c","system_id":"levelo_inurba_marseille","lat":43.25824,"lon":5.39436,"is_reserved":false,"is_disabled":false,"rental_uris":{"android":"levelo://app?vid=67599700-ee45-4273-a9c7-950d4097057c","ios":"levelo://app?vid=67599700-ee45-4273-a9c7-950d4097057c"},"vehicle_type_id":"4","last_reported":1733256684,"current_range_meters":38800,"station_id":"ce4bhip2rcd13ifvqft0","pricing_plan_id":"cebpf4jnsgd1na2vs0mg"},{"bike_id":"127f2fbd-bfca-40a8-b6ca-e65773111529","system_id":"levelo_inurba_marseille","lat":43.31324,"lon":5.3971,"is_reserved":false,"is_disabled":false,"rental_uris":{"android":"levelo://app?vid=127f2fbd-bfca-40a8-b6ca-e65773111529","ios":"levelo://app?vid=127f2fbd-bfca-40a8-b6ca-e65773111529"},"vehicle_type_id":"4","last_reported":1733256684,"current_range_meters":38800,"station_id":"ce4bgvp2rcd13ifvqcu0","pricing_plan_id":"cebpf4jnsgd1na2vs0mg"},{"bike_id":"da6a7a1d-e653-4950-af8c-8137b06f7d40","system_id":"levelo_inurba_marseille","lat":43.3004,"lon":5.37551,"is_reserved":false,"is_disabled":true,"rental_uris":{"android":"levelo://app?vid=da6a7a1d-e653-4950-af8c-8137b06f7d40","ios":"levelo://app?vid=da6a7a1d-e653-4950-af8c-8137b06f7d40"},"vehicle_type_id":"4","last_reported":1733256684,"current_range_meters":0,"station_id":"","pricing_plan_id":"cebpf4jnsgd1na2vs0mg"},{"bike_id":"7d60429c-0aba-4758-83d4-be2ceb95d10c","system_id":"levelo_inurba_marseille","lat":43.30333,"lon":5.4044,"is_reserved":false,"is_disabled":true,"rental_uris":{"android":"levelo://app?vid=7d60429c-0aba-4758-83d4-be2ceb95d10c","ios":"levelo://app?vid=7d60429c-0aba-4758-83d4-be2ceb95d10c"},"vehicle_type_id":"4","last_reported":1733256684,"current_range_meters":1200,"station_id":"ce4bh012rcd13ifvqd10","pricing_plan_id":"cebpf4jnsgd1na2vs0mg"},{"bike_id":"45762765-6bbb-4b45-92bb-833d11cab2ae","system_id":"levelo_inurba_marseille","lat":43.28112,"lon":5.37828,"is_reserved":false,"is_disabled":false,"rental_uris":{"android":"levelo://app?vid=45762765-6bbb-4b45-92bb-833d11cab2ae","ios":"levelo://app?vid=45762765-6bbb-4b45-92bb-833d11cab2ae"},"vehicle_type_id":"4","last_reported":1733256684,"current_range_meters":31200,"station_id":"ce4bha12rcd13ifvqee0","pricing_plan_id":"cebpf4jnsgd1na2vs0mg"},{"bike_id":"0b29b0d4-7092-44ea-8833-b65fc73c49ac","system_id":"levelo_inurba_marseille","lat":43.27984,"lon":5.41671,"is_reserved":false,"is_disabled":false,"rental_uris":{"android":"levelo://app?vid=0b29b0d4-7092-44ea-8833-b65fc73c49ac","ios":"levelo://app?vid=0b29b0d4-7092-44ea-8833-b65fc73c49ac"},"vehicle_type_id":"4","last_reported":1733256684,"current_range_meters":38800,"station_id":"ce4bho12rcd13ifvqh1g","pricing_plan_id":"cebpf4jnsgd1na2vs0mg"},{"bike_id":"50ca6a15-cf29-47fe-bf6c-378eb3713217","system_id":"levelo_inurba_marseille","lat":43.2928,"lon":5.3685,"is_reserved":false,"is_disabled":false,"rental_uris":{"android":"levelo://app?vid=50ca6a15-cf29-47fe-bf6c-378eb3713217","ios":"levelo://app?vid=50ca6a15-cf29-47fe-bf6c-378eb3713217"},"vehicle_type_id":"4","last_reported":1733256684,"current_range_meters":38800,"station_id":"ce4bhbp2rcd13ifvqesg","pricing_plan_id":"cebpf4jnsgd1na2vs0mg"},{"bike_id":"85556445-264f-417c-9519-cc47fd4f4e30","system_id":"levelo_inurba_marseille","lat":43.31324,"lon":5.39688,"is_reserved":false,"is_disabled":false,"rental_uris":{"android":"levelo://app?vid=85556445-264f-417c-9519-cc47fd4f4e30","ios":"levelo://app?vid=85556445-264f-417c-9519-cc47fd4f4e30"},"vehicle_type_id":"4","last_reported":1733256684,"current_range_meters":9200,"station_id":"ce4bgvp2rcd13ifvqcu0","pricing_plan_id":"cebpf4jnsgd1na2vs0mg"},{"bike_id":"cb306982-526a-4efe-8358-8e6d2731838f","system_id":"levelo_inurba_marseille","lat":43.30257,"lon":5.40086,"is_reserved":false,"is_disabled":false,"rental_uris":{"android":"levelo://app?vid=cb306982-526a-4efe-8358-8e6d2731838f","ios":"levelo://app?vid=cb306982-526a-4efe-8358-8e6d2731838f"},"vehicle_type_id":"4","last_reported":1733256684,"current_range_meters":8800,"station_id":"ce4bgvh2rcd13ifvqcs0","pricing_plan_id":"cebpf4jnsgd1na2vs0mg"},{"bike_id":"5cf9c467-a605-4044-860b-4b6dad31311e","system_id":"levelo_inurba_marseille","lat":43.2828,"lon":5.35084,"is_reserved":false,"is_disabled":false,"rental_uris":{"android":"levelo://app?vid=5cf9c467-a605-4044-860b-4b6dad31311e","ios":"levelo://app?vid=5cf9c467-a605-4044-860b-4b6dad31311e"},"vehicle_type_id":"4","last_reported":1733256684,"current_range_meters":21600,"station_id":"ce4bhbp2rcd13ifvqerg","pricing_plan_id":"cebpf4jnsgd1na2vs0mg"},{"bike_id":"07ac680f-cee7-4c3a-86b5-629060e7c4af","system_id":"levelo_inurba_marseille","lat":43.29281,"lon":5.36835,"is_reserved":false,"is_disabled":false,"rental_uris":{"android":"levelo://app?vid=07ac680f-cee7-4c3a-86b5-629060e7c4af","ios":"levelo://app?vid=07ac680f-cee7-4c3a-86b5-629060e7c4af"},