{"last_updated":1702566459,"ttl":30,"version":"2.2","data":{"bikes":[{"bike_id":"79b27502-46cd-423f-9fcb-ffae1d3f261a","system_id":"levelo_inurba_marseille","lat":43.313465,"lon":5.367165,"is_reserved":false,"is_disabled":false,"rental_uris":{"android":"levelo://app?vid=79b27502-46cd-423f-9fcb-ffae1d3f261a","ios":"levelo://app?vid=79b27502-46cd-423f-9fcb-ffae1d3f261a"},"vehicle_type_id":"4","last_reported":1702566459,"current_range_meters":25200,"station_id":"ce4bgr92rcd13ifvqc6g","pricing_plan_id":"free"},{"bike_id":"73c9e4fb-1aba-4222-a1a0-0a63f406e511","system_id":"levelo_inurba_marseille","lat":43.31341,"lon":5.367098,"is_reserved":false,"is_disabled":false,"rental_uris":{"android":"levelo://app?vid=73c9e4fb-1aba-4222-a1a0-0a63f406e511","ios":"levelo://app?vid=73c9e4fb-1aba-4222-a1a0-0a63f406e511"},"vehicle_type_id":"4","last_reported":1702566459,"current_range_meters":29600,"station_id":"ce4bgr92rcd13ifvqc6g","pricing_plan_id":"free"},{"bike_id":"49e5abb6-f09f-4b7e-bdeb-52461f3f6eb2","system_id":"levelo_inurba_marseille","lat":43.313391,"lon":5.36706,"is_reserved":false,"is_disabled":false,"rental_uris":{"android":"levelo://app?vid=49e5abb6-f09f-4b7e-bdeb-52461f3f6eb2","ios":"levelo://app?vid=49e5abb6-f09f-4b7e-bdeb-52461f3f6eb2"},"vehicle_type_id":"4","last_reported":1702566459,"current_range_meters":17200,"station_id":"ce4bgr92rcd13ifvqc6g","pricing_plan_id":"free"},{"bike_id":"a723faf6-6dfb-426d-a6cf-68dca6c2720e","system_id":"levelo_inurba_marseille","lat":43.313391,"lon":5.36706,"is_reserved":false,"is_disabled":false,"rental_uris":{"android":"levelo://app?vid=a723faf6-6dfb-426d-a6cf-68dca6c2720e","ios":"levelo://app?vid=a723faf6-6dfb-426d-a6cf-68dca6c2720e"},"vehicle_type_id":"4","last_reported":1702566459,"current_range_meters":17200,"station_id":"ce4bgr92rcd13ifvqc6g","pricing_plan_id":"free"},{"bike_id":"5e870a68-e5e1-4f23-9b79-346d0b2e9ca3","system_id":"levelo_inurba_marseille","lat":43.313391,"lon":5.36706,"is_reserved":false,"is_disabled":false,"rental_uris":{"android":"levelo://app?vid=5e870a68-e5e1-4f23-9b79-346d0b2e9ca3","ios":"levelo://app?vid=5e870a68-e5e1-4f23-9b79-346d0b2e9ca3"},"vehicle_type_id":"4","last_reported":1702566459,"current_range_meters":31600,"station_id":"ce4bgr92rcd13ifvqc6g","pricing_plan_id":"free"},{"bike_id":"0349cfe3-d4fc-4c2f-a928-645bcf88f8c7","system_id":"levelo_inurba_marseille","lat":43.313391,"lon":5.36706,"is_reserved":false,"is_disabled":false,"rental_uris":{"android":"levelo://app?vid=0349cfe3-d4fc-4c2f-a928-645bcf88f8c7","ios":"levelo://app?vid=0349cfe3-d4fc-4c2f-a928-645bcf88f8c7"},"vehicle_type_id":"4","last_reported":1702566459,"current_range_meters":31600,"station_id":"ce4bgr92rcd13ifvqc6g","pricing_plan_id":"free"},{"bike_id":"63506cc9-8014-44db-b920-011f0d9737ca","system_id":"levelo_inurba_marseille","lat":43.313567,"lon":5.367169,"is_reserved":false,"is_disabled":false,"rental_uris":{"android":"levelo://app?vid=63506cc9-8014-44db-b920-011f0d9737ca","ios":"levelo://app?vid=63506cc9-8014-44db-b920-011f0d9737ca"},"vehicle_type_id":"4","last_reported":1702566459,"current_range_meters":16000,"station_id":"ce4bgr92rcd13ifvqc6g","pricing_plan_id":"free"},{"bike_id":"84fb6133-0fe4-4a0a-bb08-af103338ef6c","system_id":"levelo_inurba_marseille","lat":43.31358,"lon":5.3672,"is_reserved":false,"is_disabled":false,"rental_uris":{"android":"levelo://app?vid=84fb6133-0fe4-4a0a-bb08-af103338ef6c","ios":"levelo://app?vid=84fb6133-0fe4-4a0a-bb08-af103338ef6c"},"vehicle_type_id":"4","last_reported":1702566459,"current_range_meters":5200,"station_id":"ce4bgr92rcd13ifvqc6g","pricing_plan_id":"free"},{"bike_id":"132756b2-21b0-4b37-a3ac-98574bf56a76","system_id":"levelo_inurba_marseille","lat":43.313391,"lon":5.36706,"is_reserved":false,"is_disabled":false,"rental_uris":{"android":"levelo://app?vid=132756b2-21b0-4b37-a3ac-98574bf56a76","ios":"levelo://app?vid=132756b2-21b0-4b37-a3ac-98574bf56a76"},"vehicle_type_id":"4","last_reported":1702566459,"current_range_meters":14800,"station_id":"ce4bgr92rcd13ifvqc6g","pricing_plan_id":"free"},{"bike_id":"fd0d3195-a222-4a69-a6a8-0786757b5026","system_id":"levelo_inurba_marseille","lat":43.313391,"lon":5.36706,"is_reserved":false,"is_disabled":false,"rental_uris":{"android":"levelo://app?vid=fd0d3195-a222-4a69-a6a8-0786757b5026","ios":"levelo://app?vid=fd0d3195-a222-4a69-a6a8-0786757b5026"},"vehicle_type_id":"4","last_reported":1702566459,"current_range_meters":20400,"station_id":"ce4bgr92rcd13ifvqc6g","pricing_plan_id":"free"},{"bike_id":"33e8d0a6-b2a8-4156-b786-d5622f35b13b","system_id":"levelo_inurba_marseille","lat":43.313643,"lon":5.367162,"is_reserved":false,"is_disabled":false,"rental_uris":{"android":"levelo://app?vid=33e8d0a6-b2a8-4156-b786-d5622f35b13b","ios":"levelo://app?vid=33e8d0a6-b2a8-4156-b786-d5622f35b13b"},"vehicle_type_id":"4","last_reported":1702566459,"current_range_meters":31200,"station_id":"ce4bgr92rcd13ifvqc6g","pricing_plan_id":"free"},{"bike_id":"5a037603-ad63-44df-b177-426009f2951c","system_id":"levelo_inurba_marseille","lat":43.312239,"lon":5.368562,"is_reserved":false,"is_disabled":false,"rental_uris":{"android":"levelo://app?vid=5a037603-ad63-44df-b177-426009f2951c","ios":"levelo://app?vid=5a037603-ad63-44df-b177-426009f2951c"},"vehicle_type_id":"4","last_reported":1702566459,"current_range_meters":31200,"station_id":"ce4bgl92rcd13ifvqbq0","pricing_plan_id":"free"},{"bike_id":"b78c9a51-0e04-4998-b6ca-7a16de769080","system_id":"levelo_inurba_marseille","lat":43.312239,"lon":5.368562,"is_reserved":false,"is_disabled":false,"rental_uris":{"android":"levelo://app?vid=b78c9a51-0e04-4998-b6ca-7a16de769080","ios":"levelo://app?vid=b78c9a51-0e04-4998-b6ca-7a16de769080"},"vehicle_type_id":"4","last_reported":1702566459,"current_range_meters":31200,"station_id":"ce4bgl92rcd13ifvqbq0","pricing_plan_id":"free"},{"bike_id":"4e8da820-d94c-4282-a15b-0d99d45343d6","system_id":"levelo_inurba_marseille","lat":43.312239,"lon":5.368562,"is_reserved":false,"is_disabled":false,"rental_uris":{"android":"levelo://app?vid=4e8da820-d94c-4282-a15b-0d99d45343d6","ios":"levelo://app?vid=4e8da820-d94c-4282-a15b-0d99d45343d6"},"vehicle_type_id":"4","last_reported":1702566459,"current_range_meters":31200,"station_id":"ce4bgl92rcd13ifvqbq0","pricing_plan_id":"free"},{"bike_id":"6598fe0a-0e14-432a-8111-f8b14e8fe7d0","system_id":"levelo_inurba_marseille","lat":43.31539,"lon":5.37306,"is_reserved":false,"is_disabled":false,"rental_uris":{"android":"levelo://app?vid=6598fe0a-0e14-432a-8111-f8b14e8fe7d0","ios":"levelo://app?vid=6598fe0a-0e14-432a-8111-f8b14e8fe7d0"},"vehicle_type_id":"4","last_reported":1702566459,"current_range_meters":24400,"station_id":"","pricing_plan_id":"free"},{"bike_id":"d9f06614-0365-4523-99f4-b88a5f27a317","system_id":"levelo_inurba_marseille","lat":43.3088,"lon":5.37202,"is_reserved":false,"is_disabled":false,"rental_uris":{"android":"levelo://app?vid=d9f06614-0365-4523-99f4-b88a5f27a317","ios":"levelo://app?vid=d9f06614-0365-4523-99f4-b88a5f27a317"},"vehicle_type_id":"4","last_reported":1702566459,"current_range_meters":17200,"station_id":"ce4bguh2rcd13ifvqckg","pricing_plan_id":"free"},{"bike_id":"3f8b821f-e430-4a35-bf14-f8b6e777ea11","system_id":"levelo_inurba_marseille","lat":43.313939,"lon":5.375306,"is_reserved":false,"is_disabled":false,"rental_uris":{"android":"levelo://app?vid=3f8b821f-e430-4a35-bf14-f8b6e777ea11","ios":"levelo://app?vid=3f8b821f-e430-4a35-bf14-f8b6e777ea11"},"vehicle_type_id":"4","last_reported":1702566459,"current_range_meters":3600,"station_id":"","pricing_plan_id":"free"},{"bike_id":"2cd90bf6-9884-431c-8976-592e2052cb15","system_id":"levelo_inurba_marseille","lat":43.30547,"lon":5.36729,"is_reserved":false,"is_disabled":false,"rental_uris":{"android":"levelo://app?vid=2cd90bf6-9884-431c-8976-592e2052cb15","ios":"levelo://app?vid=2cd90bf6-9884-431c-8976-592e2052cb15"},"vehicle_type_id":"4","last_reported":1702566459,"current_range_meters":1200,"station_id":"ce4bgrp2rcd13ifvqc9g","pricing_plan_id":"free"},{"bike_id":"955e4ab2-16e5-44e8-a986-a2f50ff96c06","system_id":"levelo_inurba_marseille","lat":43.305382,"lon":5.365389,"is_reserved":false,"is_disabled":false,"rental_uris":{"android":"levelo://app?vid=955e4ab2-16e5-44e8-a986-a2f50ff96c06","ios":"levelo://app?vid=955e4ab2-16e5-44e8-a986-a2f50ff96c06"},"vehicle_type_id":"4","last_reported":1702566459,"current_range_meters":22800,"station_id":"","pricing_plan_id":"free"},{"bike_id":"21db55fb-26e2-4400-9351-c897baffe75c","system_id":"levelo_inurba_marseille","lat":43.305706,"lon":5.365654,"is_reserved":false,"is_disabled":false,"rental_uris":{"android":"levelo://app?vid=21db55fb-26e2-4400-9351-c897baffe75c","ios":"levelo://app?vid=21db55fb-26e2-4400-9351-c897baffe75c"},"vehicle_type_id":"4","last_reported":1702566459,"current_range_meters":30400,"station_id":"ce4bgs12rcd13ifvqcag","pricing_plan_id":"free"},{"bike_id":"57c31d00-c31c-4176-8d82-875859294995","system_id":"levelo_inurba_marseille","lat":43.311125,"lon":5.377624,"is_reserved":false,"is_disabled":false,"rental_uris":{"android":"levelo://app?vid=57c31d00-c31c-4176-8d82-875859294995","ios":"levelo://app?vid=57c31d00-c31c-4176-8d82-875859294995"},"vehicle_type_id":"4","last_reported":1702566459,"current_range_meters":13600,"station_id":"ce4bgt92rcd13ifvqcg0","pricing_plan_id":"free"},{"bike_id":"7762ac47-f716-4d94-82cb-04027e00d14d","system_id":"levelo_inurba_marseille","lat":43.311125,"lon":5.377624,"is_reserved":false,"is_disabled":false,"rental_uris":{"android":"levelo://app?vid=7762ac47-f716-4d94-82cb-04027e00d14d","ios":"levelo://app?vid=7762ac47-f716-4d94-82cb-04027e00d14d"},"vehicle_type_id":"4","last_reported":1702566459,"current_range_meters":22000,"station_id":"ce4bgt92rcd13ifvqcg0","pricing_plan_id":"free"},{"bike_id":"92478f81-596d-4e63-945b-676b649ed0ef","system_id":"levelo_inurba_marseille","lat":43.307945,"lon":5.376487,"is_reserved":false,"is_disabled":false,"rental_uris":{"android":"levelo://app?vid=92478f81-596d-4e63-945b-676b649ed0ef","ios":"levelo://app?vid=92478f81-596d-4e63-945b-676b649ed0ef"},"vehicle_type_id":"4","last_reported":1702566459,"current_range_meters":400,"station_id":"ce4bgv92rcd13ifvqcq0","pricing_plan_id":"free"},{"bike_id":"6dac830e-02f2-4ff2-85ca-153130d6bdd5","system_id":"levelo_inurba_marseille","lat":43.307945,"lon":5.376487,"is_reserved":false,"is_disabled":false,"rental_uris":{"android":"levelo://app?vid=6dac830e-02f2-4ff2-85ca-153130d6bdd5","ios":"levelo://app?vid=6dac830e-02f2-4ff2-85ca-153130d6bdd5"},"vehicle_type_id":"4","last_reported":1702566459,"current_range_meters":28400,"station_id":"ce4bgv92rcd13ifvqcq0","pricing_plan_id":"free"},{"bike_id":"3b271a5a-e9ca-4a01-862b-03064370a391","system_id":"levelo_inurba_marseille","lat":43.317075,"lon":5.377367,"is_reserved":false,"is_disabled":false,"rental_uris":{"android":"levelo://app?vid=3b271a5a-e9ca-4a01-862b-03064370a391","ios":"levelo://app?vid=3b271a5a-e9ca-4a01-862b-03064370a391"},"vehicle_type_id":"4","last_reported":1702566459,"current_range_meters":8000,"station_id":"ce4bgth2rcd13ifvqch0","pricing_plan_id":"free"},{"bike_id":"1e9e1ade-de23-4b8a-9abb-bbb7cafb2990","system_id":"levelo_inurba_marseille","lat":43.31527,"lon":5.38033,"is_reserved":false,"is_disabled":false,"rental_uris":{"android":"levelo://app?vid=1e9e1ade-de23-4b8a-9abb-bbb7cafb2990","ios":"levelo://app?vid=1e9e1ade-de23-4b8a-9abb-bbb7cafb2990"},"vehicle_type_id":"4","last_reported":1702566459,"current_range_meters":26800,"station_id":"ce4bhsp2rcd13ifvqi50","pricing_plan_id":"free"},{"bike_id":"e67a8336-8a5f-4db1-8276-19b0d7ff32d0","system_id":"levelo_inurba_marseille","lat":43.30193,"lon":5.36619,"is_reserved":false,"is_disabled":false,"rental_uris":{"android":"levelo://app?vid=e67a8336-8a5f-4db1-8276-19b0d7ff32d0","ios":"levelo://app?vid=e67a8336-8a5f-4db1-8276-19b0d7ff32d0"},"vehicle_type_id":"4","last_reported":1702566459,"current_range_meters":28800,"station_id":"ce4bgrh2rcd13ifvqc8g","pricing_plan_id":"free"},{"bike_id":"5d788ce2-3608-42c8-8cad-a52897ba6cfc","system_id":"levelo_inurba_marseille","lat":43.301939,"lon":5.366286,"is_reserved":false,"is_disabled":false,"rental_uris":{"android":"levelo://app?vid=5d788ce2-3608-42c8-8cad-a52897ba6cfc","ios":"levelo://app?vid=5d788ce2-3608-42c8-8cad-a52897ba6cfc"},"vehicle_type_id":"4","last_reported":1702566459,"current_range_meters":23600,"station_id":"ce4bgrh2rcd13ifvqc8g","pricing_plan_id":"free"},{"bike_id":"bb01b5ec-96c0-4f06-bc6a-cae2b35d626c","system_id":"levelo_inurba_marseille","lat":43.308012,"lon":5.381511,"is_reserved":false,"is_disabled":false,"rental_uris":{"android":"levelo://app?vid=bb01b5ec-96c0-4f06-bc6a-cae2b35d626c","ios":"levelo://app?vid=bb01b5ec-96c0-4f06-bc6a-cae2b35d626c"},"vehicle_type_id":"4","last_reported":1702566459,"current_range_meters":20400,"station_id":"ce4bgt12rcd13ifvqce0","pricing_plan_id":"free"},{"bike_id":"0a22aa39-10ab-4084-a29f-9cd53145e10a","system_id":"levelo_inurba_marseille","lat":43.30808,"lon":5.38154,"is_reserved":false,"is_disabled":false,"rental_uris":{"android":"levelo://app?vid=0a22aa39-10ab-4084-a29f-9cd53145e10a","ios":"levelo://app?vid=0a22aa39-10ab-4084-a29f-9cd53145e10a"},"vehicle_type_id":"4","last_reported":1702566459,"current_range_meters":13600,"station_id":"ce4bgt12rcd13ifvqce0","pricing_plan_id":"free"},{"bike_id":"7219fce9-6d97-4bc6-af29-33ba1f2f19d2","system_id":"levelo_inurba_marseille","lat":43.30803,"lon":5.38152,"is_reserved":false,"is_disabled":false,"rental_uris":{"android":"levelo://app?vid=7219fce9-6d97-4bc6-af29-33ba1f2f19d2","ios":"levelo://app?vid=7219fce9-6d97-4bc6-af29-33ba1f2f19d2"},"vehicle_type_id":"4","last_reported":1702566459,"current_range_meters":24000,"station_id":"ce4bgt12rcd13ifvqce0","pricing_plan_id":"free"},{"bike_id":"bbf81178-3ed1-4f1d-9d90-86c7c9e7de62","system_id":"levelo_inurba_marseille","lat":43.308012,"lon":5.381511,"is_reserved":false,"is_disabled":false,"rental_uris":{"android":"levelo://app?vid=bbf81178-3ed1-4f1d-9d90-86c7c9e7de62","ios":"levelo://app?vid=bbf81178-3ed1-4f1d-9d90-86c7c9e7de62"},"vehicle_type_id":"4","last_reported":1702566459,"current_range_meters":0,"station_id":"ce4bgt12rcd13ifvqce0","pricing_plan_id":"free"},{"bike_id":"1ad4128e-4177-42b6-9873-bf612995e316","system_id":"levelo_inurba_marseille","lat":43.308012,"lon":5.381511,"is_reserved":false,"is_disabled":false,"rental_uris":{"android":"levelo://app?vid=1ad4128e-4177-42b6-9873-bf612995e316","ios":"levelo://app?vid=1ad4128e-4177-42b6-9873-bf612995e316"},"vehicle_type_id":"4","last_reported":1702566459,"current_range_meters":3600,"station_id":"ce4bgt12rcd13ifvqce0","pricing_plan_id":"free"},{"bike_id":"c50c95ba-3d17-4b36-961c-d28aafe9123b","system_id":"levelo_inurba_marseille","lat":43.30149,"lon":5.37423,"is_reserved":false,"is_disabled":false,"rental_uris":{"android":"levelo://app?vid=c50c95ba-3d17-4b36-961c-d28aafe9123b","ios":"levelo://app?vid=c50c95ba-3d17-4b36-961c-d28aafe9123b"},"vehicle_type_id":"4","last_reported":1702566459,"current_range_meters":22000,"station_id":"ce4bgs92rcd13ifvqcc0","pricing_plan_id":"free"},{"bike_id":"a98942ac-dce3-4583-98f9-107cbe1f107f","system_id":"levelo_inurba_marseille","lat":43.313571,"lon":5.384829,"is_reserved":false,"is_disabled":false,"rental_uris":{"android":"levelo://app?vid=a98942ac-dce3-4583-98f9-107cbe1f107f","ios":"levelo://app?vid=a98942ac-dce3-4583-98f9-107cbe1f107f"},"vehicle_type_id":"4","last_reported":1702566459,"current_range_meters":0,"station_id":"ce4bgt92rcd13ifvqcf0","pricing_plan_id":"free"},{"bike_id":"e54a0970-8680-4803-8f87-0bb25bd7a9c6","system_id":"levelo_inurba_marseille","lat":43.313571,"lon":5.384829,"is_reserved":false,"is_disabled":false,"rental_uris":{"android":"levelo://app?vid=e54a0970-8680-4803-8f87-0bb25bd7a9c6","ios":"levelo://app?vid=e54a0970-8680-4803-8f87-0bb25bd7a9c6"},"vehicle_type_id":"4","last_reported":1702566459,"current_range_meters":31200,"station_id":"ce4bgt92rcd13ifvqcf0","pricing_plan_id":"free"},{"bike_id":"41abff8d-f2b7-453f-b9af-8d7eb8e4fe96","system_id":"levelo_inurba_marseille","lat":43.305364,"lon":5.384119,"is_reserved":false,"is_disabled":false,"rental_uris":{"android":"levelo://app?vid=41abff8d-f2b7-453f-b9af-8d7eb8e4fe96","ios":"levelo://app?vid=41abff8d-f2b7-453f-b9af-8d7eb8e4fe96"},"vehicle_type_id":"4","last_reported":1702566459,"current_range_meters":25600,"station_id":"ce4bgg92rcd13ifvqb30","pricing_plan_id":"free"},{"bike_id":"cf880a93-689f-496b-b06b-64d66a80d22d","system_id":"levelo_inurba_marseille","lat":43.298433,"lon":5.362774,"is_reserved":false,"is_disabled":false,"rental_uris":{"android":"levelo://app?vid=cf880a93-689f-496b-b06b-64d66a80d22d","ios":"levelo://app?vid=cf880a93-689f-496b-b06b-64d66a80d22d"},"vehicle_type_id":"4","last_reported":1702566459,"current_range_meters":29600,"station_id":"ce4bgpp2rcd13ifvqc3g","pricing_plan_id":"free"},{"bike_id":"cced99b2-0a85-4050-a312-70a26cfc5366","system_id":"levelo_inurba_marseille","lat":43.299243,"lon":5.374807,"is_reserved":false,"is_disabled":false,"rental_uris":{"android":"levelo://app?vid=cced99b2-0a85-4050-a312-70a26cfc5366","ios":"levelo://app?vid=cced99b2-0a85-4050-a312-70a26cfc5366"},"vehicle_type_id":"4","last_reported":1702566459,"current_range_meters":27600,"station_id":"ce4bgjh2rcd13ifvqbg0","pricing_plan_id":"free"},{"bike_id":"95ba8250-563f-4226-baec-903bba3fa1df","system_id":"levelo_inurba_marseille","lat":43.311722,"lon":5.387247,"is_reserved":false,"is_disabled":false,"rental_uris":{"android":"levelo://app?vid=95ba8250-563f-4226-baec-903bba3fa1df","ios":"levelo://app?vid=95ba8250-563f-4226-baec-903bba3fa1df"},"vehicle_type_id":"4","last_reported":1702566459,"current_range_meters":11200,"station_id":"ce4bgv12rcd13ifvqcp0","pricing_plan_id":"free"},{"bike_id":"86e0e54e-0936-47a5-a0e0-46d076503933","system_id":"levelo_inurba_marseille","lat":43.311722,"lon":5.387247,"is_reserved":false,"is_disabled":false,"rental_uris":{"android":"levelo://app?vid=86e0e54e-0936-47a5-a0e0-46d076503933","ios":"levelo://app?vid=86e0e54e-0936-47a5-a0e0-46d076503933"},"vehicle_type_id":"4","last_reported":1702566459,"current_range_meters":6000,"station_id":"ce4bgv12rcd13ifvqcp0","pricing_plan_id":"free"},{"bike_id":"ed5f0256-776d-4300-ad00-c107bee05a60","system_id":"levelo_inurba_marseille","lat":43.322872,"lon":5.382756,"is_reserved":false,"is_disabled":false,"rental_uris":{"android":"levelo://app?vid=ed5f0256-776d-4300-ad00-c107bee05a60","ios":"levelo://app?vid=ed5f0256-776d-4300-ad00-c107bee05a60"},"vehicle_type_id":"4","last_reported":1702566459,"current_range_meters":22800,"station_id":"ce4bhr12rcd13ifvqhqg","pricing_plan_id":"free"},{"bike_id":"f4fb7911-372c-4f05-bddd-6b35e013d87a","system_id":"levelo_inurba_marseille","lat":43.29709,"lon":5.37695,"is_reserved":false,"is_disabled":false,"rental_uris":{"android":"levelo://app?vid=f4fb7911-372c-4f05-bddd-6b35e013d87a","ios":"levelo://app?vid=f4fb7911-372c-4f05-bddd-6b35e013d87a"},"vehicle_type_id":"4","last_reported":1702566459,"current_range_meters":9200,"station_id":"ce4bgkh2rcd13ifvqbl0","pricing_plan_id":"free"},{"bike_id":"2c095bd7-bc78-4563-9288-54bbb3329bde","system_id":"levelo_inurba_marseille","lat":43.299028,"lon":5.381509,"is_reserved":false,"is_disabled":false,"rental_uris":{"android":"levelo://app?vid=2c095bd7-bc78-4563-9288-54bbb3329bde","ios":"levelo://app?vid=2c095bd7-bc78-4563-9288-54bbb3329bde"},"vehicle_type_id":"4","last_reported":1702566459,"current_range_meters":28400,"station_id":"ce4bgj12rcd13ifvqbc0","pricing_plan_id":"free"},{"bike_id":"14206f8e-4f96-421d-bf03-1d7e4c1b962b","system_id":"levelo_inurba_marseille","lat":43.299028,"lon":5.381509,"is_reserved":false,"is_disabled":false,"rental_uris":{"android":"levelo://app?vid=14206f8e-4f96-421d-bf03-1d7e4c1b962b","ios":"levelo://app?vid=14206f8e-4f96-421d-bf03-1d7e4c1b962b"},"vehicle_type_id":"4","last_reported":1702566459,"current_range_meters":12400,"station_id":"ce4bgj12rcd13ifvqbc0","pricing_plan_id":"free"},{"bike_id":"320aa95c-98ea-43a0-84b9-5c40a986a0c9","system_id":"levelo_inurba_marseille","lat":43.29802,"lon":5.38107,"is_reserved":false,"is_disabled":false,"rental_uris":{"android":"levelo://app?vid=320aa95c-98ea-43a0-84b9-5c40a986a0c9","ios":"levelo://app?vid=320aa95c-98ea-43a0-84b9-5c40a986a0c9"},"vehicle_type_id":"4","last_reported":1702566459,"current_range_meters":14000,"station_id":"ce4bgip2rcd13ifvqbb0","pricing_plan_id":"free"},{"bike_id":"309cb9f9-2f02-426a-a129-241d7561cb52","system_id":"levelo_inurba_marseille","lat":43.304274,"lon":5.388873,"is_reserved":false,"is_disabled":false,"rental_uris":{"android":"levelo://app?vid=309cb9f9-2f02-426a-a129-241d7561cb52","ios":"levelo://app?vid=309cb9f9-2f02-426a-a129-241d7561cb52"},"vehicle_type_id":"4","last_reported":1702566459,"current_range_meters":14800,"station_id":"ce4bgk12rcd13ifvqbi0","pricing_plan_id":"free"},{"bike_id":"620e130b-d656-42ee-94b9-cfd92f6bedc8","system_id":"levelo_inurba_marseille","lat":43.29613,"lon":5.3773,"is_reserved":false,"is_disabled":false,"rental_uris":{"android":"levelo://app?vid=620e130b-d656-42ee-94b9-cfd92f6bedc8","ios":"levelo://app?vid=620e130b-d656-42ee-94b9-cfd92f6bedc8"},"vehicle_type_id":"4","last_reported":1702566459,"current_range_meters":26400,"station_id":"ce4bgi92rcd13ifvqb90","pricing_plan_id":"free"},{"bike_id":"9a02d80d-df52-43bc-8e8b-a6e422d77c49","system_id":"levelo_inurba_marseille","lat":43.299724,"lon":5.384848,"is_reserved":false,"is_disabled":false,"rental_uris":{"android":"levelo://app?vid=9a02d80d-df52-43bc-8e8b-a6e422d77c49","ios":"levelo://app?vid=9a02d80d-df52-43bc-8e8b-a6e422d77c49"},"vehicle_type_id":"4","last_reported":1702566459,"current_range_meters":6400,"station_id":"ce4bgj92rcd13ifvqbd0","pricing_plan_id":"free"},{"bike_id":"1ff3dbc6-0507-4369-a23a-6d1955998577","system_id":"levelo_inurba_marseille","lat":43.29602,"lon":5.381084,"is_reserved":false,"is_disabled":false,"rental_uris":{"android":"levelo://app?vid=1ff3dbc6-0507-4369-a23a-6d1955998577","ios":"levelo://app?vid=1ff3dbc6-0507-4369-a23a-6d1955998577"},"vehicle_type_id":"4","last_reported":1702566459,"current_range_meters":12800,"station_id":"ce4bgl12rcd13ifvqbo0","pricing_plan_id":"free"},{"bike_id":"2e492c67-d3ad-4df9-9462-cbcdb978cb10","system_id":"levelo_inurba_marseille","lat":43.292311,"lon":5.360731,"is_reserved":false,"is_disabled":false,"rental_uris":{"android":"levelo://app?vid=2e492c67-d3ad-4df9-9462-cbcdb978cb10","ios":"levelo://app?vid=2e492c67-d3ad-4df9-9462-cbcdb978cb10"},"vehicle_type_id":"4","last_reported":1702566459,"current_range_meters":18000,"station_id":"ce4bhbh2rcd13ifvqeqg","pricing_plan_id":"free"},{"bike_id":"938365b4-3d95-401c-901b-14a173e61903","system_id":"levelo_inurba_marseille","lat":43.305994,"lon":5.393687,"is_reserved":false,"is_disabled":false,"rental_uris":{"android":"levelo://app?vid=938365b4-3d95-401c-901b-14a173e61903","ios":"levelo://app?vid=938365b4-3d95-401c-901b-14a173e61903"},"vehicle_type_id":"4","last_reported":1702566459,"current_range_meters":0,"station_id":"ce4bh0p2rcd13ifvqd80","pricing_plan_id":"free"},{"bike_id":"3544b960-3cc6-4d85-bbfe-ee88366323d3","system_id":"levelo_inurba_marseille","lat":43.302992,"lon":5.392136,"is_reserved":false,"is_disabled":false,"rental_uris":{"android":"levelo://app?vid=3544b960-3cc6-4d85-bbfe-ee88366323d3","ios":"levelo://app?vid=3544b960-3cc6-4d85-bbfe-ee88366323d3"},"vehicle_type_id":"4","last_reported":1702566459,"current_range_meters":25600,"station_id":"ce4bgkh2rcd13ifvqbk0","pricing_plan_id":"free"},{"bike_id":"4e9ca449-2c9c-40d1-841e-4ef49e4ba79d","system_id":"levelo_inurba_marseille","lat":43.2936,"lon":5.37835,"is_reserved":false,"is_disabled":false,"rental_uris":{"android":"levelo://app?vid=4e9ca449-2c9c-40d1-841e-4ef49e4ba79d","ios":"levelo://app?vid=4e9ca449-2c9c-40d1-841e-4ef49e4ba79d"},"vehicle_type_id":"4","last_reported":1702566459,"current_range_meters":23600,"station_id":"ce4bgjh2rcd13ifvqbf0","pricing_plan_id":"free"},{"bike_id":"251dcd38-1158-4ef8-94fa-21bd2069f762","system_id":"levelo_inurba_marseille","lat":43.313291,"lon":5.396838,"is_reserved":false,"is_disabled":false,"rental_uris":{"android":"levelo://app?vid=251dcd38-1158-4ef8-94fa-21bd2069f762","ios":"levelo://app?vid=251dcd38-1158-4ef8-94fa-21bd2069f762"},"vehicle_type_id":"4","last_reported":1702566459,"current_range_meters":2400,"station_id":"ce4bgvp2rcd13ifvqcu0","pricing_plan_id":"free"},{"bike_id":"5d479735-2d30-41a6-b3b4-958188783e2c","system_id":"levelo_inurba_marseille","lat":43.313291,"lon":5.396838,"is_reserved":false,"is_disabled":false,"rental_uris":{"android":"levelo://app?vid=5d479735-2d30-41a6-b3b4-958188783e2c","ios":"levelo://app?vid=5d479735-2d30-41a6-b3b4-958188783e2c"},"vehicle_type_id":"4","last_reported":1702566459,"current_range_meters":14800,"station_id":"ce4bgvp2rcd13ifvqcu0","pricing_plan_id":"free"},{"bike_id":"0587ad18-c9e7-4842-a249-6b86986634bb","system_id":"levelo_inurba_marseille","lat":43.313291,"lon":5.396838,"is_reserved":false,"is_disabled":false,"rental_uris":{"android":"levelo://app?vid=0587ad18-c9e7-4842-a249-6b86986634bb","ios":"levelo://app?vid=0587ad18-c9e7-4842-a249-6b86986634bb"},"vehicle_type_id":"4","last_reported":1702566459,"current_range_meters":0,"station_id":"ce4bgvp2rcd13ifvqcu0","pricing_plan_id":"free"},{"bike_id":"0436da71-1e29-4ee1-b593-d868b234c5d4","system_id":"levelo_inurba_marseille","lat":43.294153,"lon":5.386305,"is_reserved":false,"is_disabled":false,"rental_uris":{"android":"levelo://app?vid=0436da71-1e29-4ee1-b593-d868b234c5d4","ios":"levelo://app?vid=0436da71-1e29-4ee1-b593-d868b234c5d4"},"vehicle_type_id":"4","last_reported":1702566459,"current_range_meters":24800,"station_id":"ce4bh2h2rcd13ifvqdh0","pricing_plan_id":"free"},{"bike_id":"484095cc-ebef-4ed8-aada-69945208eb9a","system_id":"levelo_inurba_marseille","lat":43.289184,"lon":5.366408,"is_reserved":false,"is_disabled":false,"rental_uris":{"android":"levelo://app?vid=484095cc-ebef-4ed8-aada-69945208eb9a","ios":"levelo://app?vid=484095cc-ebef-4ed8-aada-69945208eb9a"},"vehicle_type_id":"4","last_reported":1702566459,"current_range_meters":18000,"station_id":"ce4bhap2rcd13ifvqek0","pricing_plan_id":"free"},{"bike_id":"80a1d50c-e567-449e-b385-005312834f78","system_id":"levelo_inurba_marseille","lat":43.304296,"lon":5.397513,"is_reserved":false,"is_disabled":false,"rental_uris":{"android":"levelo://app?vid=80a1d50c-e567-449e-b385-005312834f78","ios":"levelo://app?vid=80a1d50c-e567-449e-b385-005312834f78"},"vehicle_type_id":"4","last_reported":1702566459,"current_range_meters":4400,"station_id":"ce4bh092rcd13ifvqd20","pricing_plan_id":"free"},{"bike_id":"ba08c5b2-ce1c-46b9-83fa-2eb928b0a229","system_id":"levelo_inurba_marseille","lat":43.304274,"lon":5.397513,"is_reserved":false,"is_disabled":false,"rental_uris":{"android":"levelo://app?vid=ba08c5b2-ce1c-46b9-83fa-2eb928b0a229","ios":"levelo://app?vid=ba08c5b2-ce1c-46b9-83fa-2eb928b0a229"},"vehicle_type_id":"4","last_reported":1702566459,"current_range_meters":5200,"station_id":"ce4bh092rcd13ifvqd20","pricing_plan_id":"free"},{"bike_id":"acf55410-98e7-44f5-b596-6f30757c5925","system_id":"levelo_inurba_marseille","lat":43.292642,"lon":5.384254,"is_reserved":false,"is_disabled":false,"rental_uris":{"android":"levelo://app?vid=acf55410-98e7-44f5-b596-6f30757c5925","ios":"levelo://app?vid=acf55410-98e7-44f5-b596-6f30757c5925"},"vehicle_type_id":"4","last_reported":1702566459,"current_range_meters":2800,"station_id":"ce4bh692rcd13ifvqea0","pricing_plan_id":"free"},{"bike_id":"cb9fd427-de30-4af9-8d37-561c3faeda7f","system_id":"levelo_inurba_marseille","lat":43.330442,"lon":5.389148,"is_reserved":false,"is_disabled":false,"rental_uris":{"android":"levelo://app?vid=cb9fd427-de30-4af9-8d37-561c3faeda7f","ios":"levelo://app?vid=cb9fd427-de30-4af9-8d37-561c3faeda7f"},"vehicle_type_id":"4","last_reported":1702566459,"current_range_meters":22400,"station_id":"ce4bhr92rcd13ifvqhrg","pricing_plan_id":"free"},{"bike_id":"d2397ff7-108b-48ba-804a-8dc8027d2eb2","system_id":"levelo_inurba_marseille","lat":43.330442,"lon":5.389148,"is_reserved":false,"is_disabled":false,"rental_uris":{"android":"levelo://app?vid=d2397ff7-108b-48ba-804a-8dc8027d2eb2","ios":"levelo://app?vid=d2397ff7-108b-48ba-804a-8dc8027d2eb2"},"vehicle_type_id":"4","last_reported":1702566459,"current_range_meters":28000,"station_id":"ce4bhr92rcd13ifvqhrg","pricing_plan_id":"free"},{"bike_id":"1869d7fa-e62e-4b7f-8743-08352f5bb934","system_id":"levelo_inurba_marseille","lat":43.290995,"lon":5.381361,"is_reserved":false,"is_disabled":false,"rental_uris":{"android":"levelo://app?vid=1869d7fa-e62e-4b7f-8743-08352f5bb934","ios":"levelo://app?vid=1869d7fa-e62e-4b7f-8743-08352f5bb934"},"vehicle_type_id":"4","last_reported":1702566459,"current_range_meters":18000,"station_id":"ce4bh512rcd13ifvqe2g","pricing_plan_id":"free"},{"bike_id":"1eeb1c0a-9986-4a65-ab62-26e822825c05","system_id":"levelo_inurba_marseille","lat":43.30939,"lon":5.40144,"is_reserved":false,"is_disabled":false,"rental_uris":{"android":"levelo://app?vid=1eeb1c0a-9986-4a65-ab62-26e822825c05","ios":"levelo://app?vid=1eeb1c0a-9986-4a65-ab62-26e822825c05"},"vehicle_type_id":"4","last_reported":1702566459,"current_range_meters":0,"station_id":"ce4bgvp2rcd13ifvqct0","pricing_plan_id":"free"},{"bike_id":"719f1c3e-810e-48cb-b1d5-fd10149a54fd","system_id":"levelo_inurba_marseille","lat":43.306412,"lon":5.401035,"is_reserved":false,"is_disabled":false,"rental_uris":{"android":"levelo://app?vid=719f1c3e-810e-48cb-b1d5-fd10149a54fd","ios":"levelo://app?vid=719f1c3e-810e-48cb-b1d5-fd10149a54fd"},"vehicle_type_id":"4","last_reported":1702566459,"current_range_meters":29200,"station_id":"ce4bh112rcd13ifvqda0","pricing_plan_id":"free"},{"bike_id":"a8380a10-7fd3-48e9-974d-e8687e1a130c","system_id":"levelo_inurba_marseille","lat":43.33767,"lon":5.37443,"is_reserved":false,"is_disabled":false,"rental_uris":{"android":"levelo://app?vid=a8380a10-7fd3-48e9-974d-e8687e1a130c","ios":"levelo://app?vid=a8380a10-7fd3-48e9-974d-e8687e1a130c"},"vehicle_type_id":"4","last_reported":1702566459,"current_range_meters":30400,"station_id":"","pricing_plan_id":"free"},{"bike_id":"8f999b8d-c315-4c44-b3c6-1872920aa2db","system_id":"levelo_inurba_marseille","lat":43.30155,"lon":5.3986,"is_reserved":false,"is_disabled":false,"rental_uris":{"android":"levelo://app?vid=8f999b8d-c315-4c44-b3c6-1872920aa2db","ios":"levelo://app?vid=8f999b8d-c315-4c44-b3c6-1872920aa2db"},"vehicle_type_id":"4","last_reported":1702566459,"current_range_meters":20400,"station_id":"ce4bh0h2rcd13ifvqd40","pricing_plan_id":"free"},{"bike_id":"7e2e508f-5a15-4989-8331-9b01acbc9d49","system_id":"levelo_inurba_marseille","lat":43.28727,"lon":5.36078,"is_reserved":false,"is_disabled":false,"rental_uris":{"android":"levelo://app?vid=7e2e508f-5a15-4989-8331-9b01acbc9d49","ios":"levelo://app?vid=7e2e508f-5a15-4989-8331-9b01acbc9d49"},"vehicle_type_id":"4","last_reported":1702566459,"current_range_meters":7200,"station_id":"cki0cbj6b192h4jlfktg","pricing_plan_id":"free"},{"bike_id":"581f4ef3-db2e-4faf-9f11-e1e04f8a2f77","system_id":"levelo_inurba_marseille","lat":43.28727,"lon":5.36078,"is_reserved":false,"is_disabled":false,"rental_uris":{"android":"levelo://app?vid=581f4ef3-db2e-4faf-9f11-e1e04f8a2f77","ios":"levelo://app?vid=581f4ef3-db2e-4faf-9f11-e1e04f8a2f77"},"vehicle_type_id":"4","last_reported":1702566459,"current_range_meters":12800,"station_id":"cki0cbj6b192h4jlfktg","pricing_plan_id":"free"},{"bike_id":"b5bf6bc7-2fdd-455f-8afc-5702b67dc7eb","system_id":"levelo_inurba_marseille","lat":43.286961,"lon":5.373785,"is_reserved":false,"is_disabled":false,"rental_uris":{"android":"levelo://app?vid=b5bf6bc7-2fdd-455f-8afc-5702b67dc7eb","ios":"levelo://app?vid=b5bf6bc7-2fdd-455f-8afc-5702b67dc7eb"},"vehicle_type_id":"4","last_reported":1702566459,"current_range_meters":24400,"station_id":"ce4bh3p2rcd13ifvqdq0","pricing_plan_id":"free"},{"bike_id":"995e63ec-d80e-40ec-bfde-fb26c3f79256","system_id":"levelo_inurba_marseille","lat":43.295194,"lon":5.39397,"is_reserved":false,"is_disabled":false,"rental_uris":{"android":"levelo://app?vid=995e63ec-d80e-40ec-bfde-fb26c3f79256","ios":"levelo://app?vid=995e63ec-d80e-40ec-bfde-fb26c3f79256"},"vehicle_type_id":"4","last_reported":1702566459,"current_range_meters":0,"station_id":"ce4bh292rcd13ifvqdf0","pricing_plan_id":"free"},{"bike_id":"84ab372b-64b1-4478-b00e-5469dff1c17c","system_id":"levelo_inurba_marseille","lat":43.289307,"lon":5.38406,"is_reserved":false,"is_disabled":false,"rental_uris":{"android":"levelo://app?vid=84ab372b-64b1-4478-b00e-5469dff1c17c","ios":"levelo://app?vid=84ab372b-64b1-4478-b00e-5469dff1c17c"},"vehicle_type_id":"4","last_reported":1702566459,"current_range_meters":27600,"station_id":"ce4bh612rcd13ifvqe6g","pricing_plan_id":"free"},{"bike_id":"4c52402f-3a82-4eee-a9e6-e9a9d1057c16","system_id":"levelo_inurba_marseille","lat":43.289307,"lon":5.38406,"is_reserved":false,"is_disabled":false,"rental_uris":{"android":"levelo://app?vid=4c52402f-3a82-4eee-a9e6-e9a9d1057c16","ios":"levelo://app?vid=4c52402f-3a82-4eee-a9e6-e9a9d1057c16"},"vehicle_type_id":"4","last_reported":1702566459,"current_range_meters":27600,"station_id":"ce4bh612rcd13ifvqe6g","pricing_plan_id":"free"},{"bike_id":"c5f5f6a3-b308-43f4-aefb-2a884ba30373","system_id":"levelo_inurba_marseille","lat":43.302759,"lon":5.400793,"is_reserved":false,"is_disabled":false,"rental_uris":{"android":"levelo://app?vid=c5f5f6a3-b308-43f4-aefb-2a884ba30373","ios":"levelo://app?vid=c5f5f6a3-b308-43f4-aefb-2a884ba30373"},"vehicle_type_id":"4","last_reported":1702566459,"current_range_meters":800,"station_id":"ce4bgvh2rcd13ifvqcs0","pricing_plan_id":"free"},{"bike_id":"6dceedce-e94a-49aa-9268-4beb32f8aea2","system_id":"levelo_inurba_marseille","lat":43.302759,"lon":5.400793,"is_reserved":false,"is_disabled":false,"rental_uris":{"android":"levelo://app?vid=6dceedce-e94a-49aa-9268-4beb32f8aea2","ios":"levelo://app?vid=6dceedce-e94a-49aa-9268-4beb32f8aea2"},"vehicle_type_id":"4","last_reported":1702566459,"current_range_meters":6800,"station_id":"ce4bgvh2rcd13ifvqcs0","pricing_plan_id":"free"},{"bike_id":"d560e33b-32d0-4741-91ec-080b3482f59b","system_id":"levelo_inurba_marseille","lat":43.286039,"lon":5.370681,"is_reserved":false,"is_disabled":false,"rental_uris":{"android":"levelo://app?vid=d560e33b-32d0-4741-91ec-080b3482f59b","ios":"levelo://app?vid=d560e33b-32d0-4741-91ec-080b3482f59b"},"vehicle_type_id":"4","last_reported":1702566459,"current_range_meters":23600,"station_id":"ce4bht12rcd13ifvqi60","pricing_plan_id":"free"},{"bike_id":"ac6cc22c-849f-4dbd-912f-679a3efaff3c","system_id":"levelo_inurba_marseille","lat":43.287185,"lon":5.379373,"is_reserved":false,"is_disabled":false,"rental_uris":{"android":"levelo://app?vid=ac6cc22c-849f-4dbd-912f-679a3efaff3c","ios":"levelo://app?vid=ac6cc22c-849f-4dbd-912f-679a3efaff3c"},"vehicle_type_id":"4","last_reported":1702566459,"current_range_meters":23200,"station_id":"ce4bh9p2rcd13ifvqec0","pricing_plan_id":"free"},{"bike_id":"2e561e80-6259-4368-86e7-4f23807a139a","system_id":"levelo_inurba_marseille","lat":43.31686,"lon":5.40474,"is_reserved":false,"is_disabled":false,"rental_uris":{"android":"levelo://app?vid=2e561e80-6259-4368-86e7-4f23807a139a","ios":"levelo://app?vid=2e561e80-6259-4368-86e7-4f23807a139a"},"vehicle_type_id":"4","last_reported":1702566459,"current_range_meters":14000,"station_id":"ce4bh012rcd13ifvqd00","pricing_plan_id":"free"},{"bike_id":"13f50fae-6c79-49b9-9c5b-d7ecfd09f864","system_id":"levelo_inurba_marseille","lat":43.284538,"lon":5.358657,"is_reserved":false,"is_disabled":false,"rental_uris":{"android":"levelo://app?vid=13f50fae-6c79-49b9-9c5b-d7ecfd09f864","ios":"levelo://app?vid=13f50fae-6c79-49b9-9c5b-d7ecfd09f864"},"vehicle_type_id":"4","last_reported":1702566459,"current_range_meters":25600,"station_id":"ce4bhah2rcd13ifvqei0","pricing_plan_id":"free"},{"bike_id":"6f451403-3db7-4a7c-978f-f7608f994de0","system_id":"levelo_inurba_marseille","lat":43.284534,"lon":5.358662,"is_reserved":false,"is_disabled":false,"rental_uris":{"android":"levelo://app?vid=6f451403-3db7-4a7c-978f-f7608f994de0","ios":"levelo://app?vid=6f451403-3db7-4a7c-978f-f7608f994de0"},"vehicle_type_id":"4","last_reported":1702566459,"current_range_meters":12800,"station_id":"ce4bhah2rcd13ifvqei0","pricing_plan_id":"free"},{"bike_id":"1557f4f0-742a-4f3f-92f7-a683e004d469","system_id":"levelo_inurba_marseille","lat":43.295713,"lon":5.399639,"is_reserved":false,"is_disabled":false,"rental_uris":{"android":"levelo://app?vid=1557f4f0-742a-4f3f-92f7-a683e004d469","ios":"levelo://app?vid=1557f4f0-742a-4f3f-92f7-a683e004d469"},"vehicle_type_id":"4","last_reported":1702566459,"current_range_meters":2000,"station_id":"ce4bh312rcd13ifvqdj0","pricing_plan_id":"free"},{"bike_id":"11b5dbff-a366-4e8c-badc-fe6cbb7578f1","system_id":"levelo_inurba_marseille","lat":43.286595,"lon":5.386795,"is_reserved":false,"is_disabled":false,"rental_uris":{"android":"levelo://app?vid=11b5dbff-a366-4e8c-badc-fe6cbb7578f1","ios":"levelo://app?vid=11b5dbff-a366-4e8c-badc-fe6cbb7578f1"},"vehicle_type_id":"4","last_reported":1702566459,"current_range_meters":27200,"station_id":"ce4bh492rcd13ifvqdug","pricing_plan_id":"free"},{"bike_id":"a7eb0261-4f72-4764-9160-3ff45f0961d0","system_id":"levelo_inurba_marseille","lat":43.319179,"lon":5.407725,"is_reserved":false,"is_disabled":false,"rental_uris":{"android":"levelo://app?vid=a7eb0261-4f72-4764-9160-3ff45f0961d0","ios":"levelo://app?vid=a7eb0261-4f72-4764-9160-3ff45f0961d0"},"vehicle_type_id":"4","last_reported":1702566459,"current_range_meters":10000,"station_id":"ce4bhq12rcd13ifvqhig","pricing_plan_id":"free"},{"bike_id":"8fa7556e-3edc-4516-8ff9-b83f063aed03","system_id":"levelo_inurba_marseille","lat":43.323464,"lon":5.406297,"is_reserved":false,"is_disabled":false,"rental_uris":{"android":"levelo://app?vid=8fa7556e-3edc-4516-8ff9-b83f063aed03","ios":"levelo://app?vid=8fa7556e-3edc-4516-8ff9-b83f063aed03"},"vehicle_type_id":"4","last_reported":1702566459,"current_range_meters":17600,"station_id":"ce4bhq92rcd13ifvqhjg","pricing_plan_id":"free"},{"bike_id":"0b141c7b-79f1-4322-b2ff-061a542c7aff","system_id":"levelo_inurba_marseille","lat":43.323464,"lon":5.406297,"is_reserved":false,"is_disabled":false,"rental_uris":{"android":"levelo://app?vid=0b141c7b-79f1-4322-b2ff-061a542c7aff","ios":"levelo://app?vid=0b141c7b-79f1-4322-b2ff-061a542c7aff"},"vehicle_type_id":"4","last_reported":1702566459,"current_range_meters":4800,"station_id":"ce4bhq92rcd13ifvqhjg","pricing_plan_id":"free"},{"bike_id":"7fd6d5a1-3690-43fc-a5b6-ef2ab34d488f","system_id":"levelo_inurba_marseille","lat":43.283494,"lon":5.380945,"is_reserved":false,"is_disabled":false,"rental_uris":{"android":"levelo://app?vid=7fd6d5a1-3690-43fc-a5b6-ef2ab34d488f","ios":"levelo://app?vid=7fd6d5a1-3690-43fc-a5b6-ef2ab34d488f"},"vehicle_type_id":"4","last_reported":1702566459,"current_range_meters":24400,"station_id":"ce4bh412rcd13ifvqdr0","pricing_plan_id":"free"},{"bike_id":"3d87fabc-957d-4580-afe1-ee71ef5b4a79","system_id":"levelo_inurba_marseille","lat":43.284217,"lon":5.349697,"is_reserved":false,"is_disabled":false,"rental_uris":{"android":"levelo://app?vid=3d87fabc-957d-4580-afe1-ee71ef5b4a79","ios":"levelo://app?vid=3d87fabc-957d-4580-afe1-ee71ef5b4a79"},"vehicle_type_id":"4","last_reported":1702566459,"current_range_meters":17200,"station_id":"ce4bhbh2rcd13ifvqepg","pricing_plan_id":"free"},{"bike_id":"6139ce80-f68f-4a96-a8f8-63367dc8060d","system_id":"levelo_inurba_marseille","lat":43.284217,"lon":5.349697,"is_reserved":false,"is_disabled":false,"rental_uris":{"android":"levelo://app?vid=6139ce80-f68f-4a96-a8f8-63367dc8060d","ios":"levelo://app?vid=6139ce80-f68f-4a96-a8f8-63367dc8060d"},"vehicle_type_id":"4","last_reported":1702566459,"current_range_meters":2400,"station_id":"ce4bhbh2rcd13ifvqepg","pricing_plan_id":"free"},{"bike_id":"040a9e58-dfd8-416d-b97a-53f169b1af5e","system_id":"levelo_inurba_marseille","lat":43.282754,"lon":5.350519,"is_reserved":false,"is_disabled":false,"rental_uris":{"android":"levelo://app?vid=040a9e58-dfd8-416d-b97a-53f169b1af5e","ios":"levelo://app?vid=040a9e58-dfd8-416d-b97a-53f169b1af5e"},"vehicle_type_id":"4","last_reported":1702566459,"current_range_meters":21600,"station_id":"ce4bhbp2rcd13ifvqerg","pricing_plan_id":"free"},{"bike_id":"0a825eab-9da2-4a72-bfe2-aeb4617588ff","system_id":"levelo_inurba_marseille","lat":43.283502,"lon":5.386471,"is_reserved":false,"is_disabled":false,"rental_uris":{"android":"levelo://app?vid=0a825eab-9da2-4a72-bfe2-aeb4617588ff","ios":"levelo://app?vid=0a825eab-9da2-4a72-bfe2-aeb4617588ff"},"vehicle_type_id":"4","last_reported":1702566459,"current_range_meters":23600,"station_id":"ce4bh492rcd13ifvqdvg","pricing_plan_id":"free"},{"bike_id":"dd5ebd52-97ad-4cc2-90fd-77a169903ef7","system_id":"levelo_inurba_marseille","lat":43.283502,"lon":5.386471,"is_reserved":false,"is_disabled":false,"rental_uris":{"android":"levelo://app?vid=dd5ebd52-97ad-4cc2-90fd-77a169903ef7","ios":"levelo://app?vid=dd5ebd52-97ad-4cc2-90fd-77a169903ef7"},"vehicle_type_id":"4","last_reported":1702566459,"current_range_meters":16800,"station_id":"ce4bh492rcd13ifvqdvg","pricing_plan_id":"free"},{"bike_id":"77330320-8ccb-4092-91ed-43f91c0119a3","system_id":"levelo_inurba_marseille","lat":43.281044,"lon":5.378308,"is_reserved":false,"is_disabled":false,"rental_uris":{"android":"levelo://app?vid=77330320-8ccb-4092-91ed-43f91c0119a3","ios":"levelo://app?vid=77330320-8ccb-4092-91ed-43f91c0119a3"},"vehicle_type_id":"4","last_reported":1702566459,"current_range_meters":23600,"station_id":"ce4bha12rcd13ifvqee0","pricing_plan_id":"free"},{"bike_id":"dee68766-d5de-4982-bd8b-45c3f2fea505","system_id":"levelo_inurba_marseille","lat":43.28573,"lon":5.394992,"is_reserved":false,"is_disabled":false,"rental_uris":{"android":"levelo://app?vid=dee68766-d5de-4982-bd8b-45c3f2fea505","ios":"levelo://app?vid=dee68766-d5de-4982-bd8b-45c3f2fea505"},"vehicle_type_id":"4","last_reported":1702566459,"current_range_meters":17600,"station_id":"ce4bh292rcd13ifvqdg0","pricing_plan_id":"free"},{"bike_id":"a6750e93-4d83-46ef-8dc0-4c546875d106","system_id":"levelo_inurba_marseille","lat":43.304188,"lon":5.412904,"is_reserved":false,"is_disabled":false,"rental_uris":{"android":"levelo://app?vid=a6750e93-4d83-46ef-8dc0-4c546875d106","ios":"levelo://app?vid=a6750e93-4d83-46ef-8dc0-4c546875d106"},"vehicle_type_id":"4","last_reported":1702566459,"current_range_meters":22400,"station_id":"ce4bhop2rcd13ifvqh8g","pricing_plan_id":"free"},{"bike_id":"e3dad211-83f2-4f50-a012-ec5a518c433b","system_id":"levelo_inurba_marseille","lat":43.279742,"lon":5.38744,"is_reserved":false,"is_disabled":false,"rental_uris":{"android":"levelo://app?vid=e3dad211-83f2-4f50-a012-ec5a518c433b","ios":"levelo://app?vid=e3dad211-83f2-4f50-a012-ec5a518c433b"},"vehicle_type_id":"4","last_reported":1702566459,"current_range_meters":7200,"station_id":"ce4bhg12rcd13ifvqf80","pricing_plan_id":"free"},{"bike_id":"bff324ce-e44f-4900-af29-1ad61599803c","system_id":"levelo_inurba_marseille","lat":43.292571,"lon":5.409107,"is_reserved":false,"is_disabled":false,"rental_uris":{"android":"levelo://app?vid=bff324ce-e44f-4900-af29-1ad61599803c","ios":"levelo://app?vid=bff324ce-e44f-4900-af29-1ad61599803c"},"vehicle_type_id":"4","last_reported":1702566459,"current_range_meters":6400,"station_id":"ce4bh192rcd13ifvqdc0","pricing_plan_id":"free"},{"bike_id":"98f31671-f862-47d7-b4e9-09287a18c663","system_id":"levelo_inurba_marseille","lat":43.292569,"lon":5.409107,"is_reserved":false,"is_disabled":false,"rental_uris":{"android":"levelo://app?vid=98f31671-f862-47d7-b4e9-09287a18c663","ios":"levelo://app?vid=98f31671-f862-47d7-b4e9-09287a18c663"},"vehicle_type_id":"4","last_reported":1702566459,"current_range_meters":26000,"station_id":"ce4bh192rcd13ifvqdc0","pricing_plan_id":"free"},{"bike_id":"93160ac2-f71b-47ff-989a-a8354ea99363","system_id":"levelo_inurba_marseille","lat":43.292569,"lon":5.409107,"is_reserved":false,"is_disabled":false,"rental_uris":{"android":"levelo://app?vid=93160ac2-f71b-47ff-989a-a8354ea99363","ios":"levelo://app?vid=93160ac2-f71b-47ff-989a-a8354ea99363"},"vehicle_type_id":"4","last_reported":1702566459,"current_range_meters":28400,"station_id":"ce4bh192rcd13ifvqdc0","pricing_plan_id":"free"},{"bike_id":"44d93f86-6321-4de3-bbc1-780bc3cf4cb8","system_id":"levelo_inurba_marseille","lat":43.325233,"lon":5.414318,"is_reserved":false,"is_disabled":false,"rental_uris":{"android":"levelo://app?vid=44d93f86-6321-4de3-bbc1-780bc3cf4cb8","ios":"levelo://app?vid=44d93f86-6321-4de3-bbc1-780bc3cf4cb8"},"vehicle_type_id":"4","last_reported":1702566459,"current_range_meters":28400,"station_id":"ce4bhq12rcd13ifvqhhg","pricing_plan_id":"free"},{"bike_id":"052d3562-553f-46bc-8e79-acb09a9855d0","system_id":"levelo_inurba_marseille","lat":43.276012,"lon":5.36092,"is_reserved":false,"is_disabled":false,"rental_uris":{"android":"levelo://app?vid=052d3562-553f-46bc-8e79-acb09a9855d0","ios":"levelo://app?vid=052d3562-553f-46bc-8e79-acb09a9855d0"},"vehicle_type_id":"4","last_reported":1702566459,"current_range_meters":1600,"station_id":"ce4bgj92rcd13ifvqbe0","pricing_plan_id":"free"},{"bike_id":"bccc1904-bebd-4f0c-9713-968d93dab142","system_id":"levelo_inurba_marseille","lat":43.273613,"lon":5.362705,"is_reserved":false,"is_disabled":false,"rental_uris":{"android":"levelo://app?vid=bccc1904-bebd-4f0c-9713-968d93dab142","ios":"levelo://app?vid=bccc1904-bebd-4f0c-9713-968d93dab142"},"vehicle_type_id":"4","last_reported":1702566459,"current_range_meters":23600,"station_id":"ce4bhbh2rcd13ifvqeo0","pricing_plan_id":"free"},{"bike_id":"c4cfb68b-0ac0-4a8c-b786-f9b41850db55","system_id":"levelo_inurba_marseille","lat":43.273613,"lon":5.362705,"is_reserved":false,"is_disabled":false,"rental_uris":{"android":"levelo://app?vid=c4cfb68b-0ac0-4a8c-b786-f9b41850db55","ios":"levelo://app?vid=c4cfb68b-0ac0-4a8c-b786-f9b41850db55"},"vehicle_type_id":"4","last_reported":1702566459,"current_range_meters":30400,"station_id":"ce4bhbh2rcd13ifvqeo0","pricing_plan_id":"free"},{"bike_id":"ccaa59a6-7d99-4a18-9e46-95087d495809","system_id":"levelo_inurba_marseille","lat":43.273613,"lon":5.362705,"is_reserved":false,"is_disabled":false,"rental_uris":{"android":"levelo://app?vid=ccaa59a6-7d99-4a18-9e46-95087d495809","ios":"levelo://app?vid=ccaa59a6-7d99-4a18-9e46-95087d495809"},"vehicle_type_id":"4","last_reported":1702566459,"current_range_meters":30000,"station_id":"ce4bhbh2rcd13ifvqeo0","pricing_plan_id":"free"},{"bike_id":"149d70a1-6596-40ad-b88a-0acaa67761e8","system_id":"levelo_inurba_marseille","lat":43.336148,"lon":5.410349,"is_reserved":false,"is_disabled":false,"rental_uris":{"android":"levelo://app?vid=149d70a1-6596-40ad-b88a-0acaa67761e8","ios":"levelo://app?vid=149d70a1-6596-40ad-b88a-0acaa67761e8"},"vehicle_type_id":"4","last_reported":1702566459,"current_range_meters":22400,"station_id":"ce4bhqh2rcd13ifvqhmg","pricing_plan_id":"free"},{"bike_id":"001224a0-a861-4e3d-99bb-9659122a307b","system_id":"levelo_inurba_marseille","lat":43.336148,"lon":5.410349,"is_reserved":false,"is_disabled":false,"rental_uris":{"android":"levelo://app?vid=001224a0-a861-4e3d-99bb-9659122a307b","ios":"levelo://app?vid=001224a0-a861-4e3d-99bb-9659122a307b"},"vehicle_type_id":"4","last_reported":1702566459,"current_range_meters":10000,"station_id":"ce4bhqh2rcd13ifvqhmg","pricing_plan_id":"free"},{"bike_id":"83a717f9-c014-41b6-9b1e-6bfc4e4e22e5","system_id":"levelo_inurba_marseille","lat":43.279952,"lon":5.400085,"is_reserved":false,"is_disabled":false,"rental_uris":{"android":"levelo://app?vid=83a717f9-c014-41b6-9b1e-6bfc4e4e22e5","ios":"levelo://app?vid=83a717f9-c014-41b6-9b1e-6bfc4e4e22e5"},"vehicle_type_id":"4","last_reported":1702566459,"current_range_meters":8400,"station_id":"ce4bho92rcd13ifvqh4g","pricing_plan_id":"free"},{"bike_id":"c1bb8d87-2ec8-43f9-90cc-c1323bd02da6","system_id":"levelo_inurba_marseille","lat":43.34139,"lon":5.409062,"is_reserved":false,"is_disabled":false,"rental_uris":{"android":"levelo://app?vid=c1bb8d87-2ec8-43f9-90cc-c1323bd02da6","ios":"levelo://app?vid=c1bb8d87-2ec8-43f9-90cc-c1323bd02da6"},"vehicle_type_id":"4","last_reported":1702566459,"current_range_meters":20800,"station_id":"ce4bhqh2rcd13ifvqhlg","pricing_plan_id":"free"},{"bike_id":"3ca2c2d2-99b0-4aa6-a05d-e30f02e6a7fb","system_id":"levelo_inurba_marseille","lat":43.276092,"lon":5.395289,"is_reserved":false,"is_disabled":false,"rental_uris":{"android":"levelo://app?vid=3ca2c2d2-99b0-4aa6-a05d-e30f02e6a7fb","ios":"levelo://app?vid=3ca2c2d2-99b0-4aa6-a05d-e30f02e6a7fb"},"vehicle_type_id":"4","last_reported":1702566459,"current_range_meters":29600,"station_id":"","pricing_plan_id":"free"},{"bike_id":"0b1f3767-ffec-4683-83c0-14492170b1b4","system_id":"levelo_inurba_marseille","lat":43.295511,"lon":5.422926,"is_reserved":false,"is_disabled":false,"rental_uris":{"android":"levelo://app?vid=0b1f3767-ffec-4683-83c0-14492170b1b4","ios":"levelo://app?vid=0b1f3767-ffec-4683-83c0-14492170b1b4"},"vehicle_type_id":"4","last_reported":1702566459,"current_range_meters":27600,"station_id":"ce4bhph2rcd13ifvqhdg","pricing_plan_id":"free"},{"bike_id":"05dc09c7-d8e3-4827-9e9b-2f0eca525362","system_id":"levelo_inurba_marseille","lat":43.28573,"lon":5.394992,"is_reserved":false,"is_disabled":false,"rental_uris":{"android":"levelo://app?vid=05dc09c7-d8e3-4827-9e9b-2f0eca525362","ios":"levelo://app?vid=05dc09c7-d8e3-4827-9e9b-2f0eca525362"},"vehicle_type_id":"4","last_reported":1702566459,"current_range_meters":14000,"station_id":"ce4bh292rcd13ifvqdg0","pricing_plan_id":"free"},{"bike_id":"4215fa14-1109-44e8-af0a-d524ef8478ad","system_id":"levelo_inurba_marseille","lat":43.272116,"lon":5.391747,"is_reserved":false,"is_disabled":false,"rental_uris":{"android":"levelo://app?vid=4215fa14-1109-44e8-af0a-d524ef8478ad","ios":"levelo://app?vid=4215fa14-1109-44e8-af0a-d524ef8478ad"},"vehicle_type_id":"4","last_reported":1702566459,"current_range_meters":2400,"station_id":"ce4bhhp2rcd13ifvqfm0","pricing_plan_id":"free"},{"bike_id":"3044bdbb-e413-4f8b-ba0a-98e0296d76a3","system_id":"levelo_inurba_marseille","lat":43.269319,"lon":5.389397,"is_reserved":false,"is_disabled":false,"rental_uris":{"android":"levelo://app?vid=3044bdbb-e413-4f8b-ba0a-98e0296d76a3","ios":"levelo://app?vid=3044bdbb-e413-4f8b-ba0a-98e0296d76a3"},"vehicle_type_id":"4","last_reported":1702566459,"current_range_meters":16400,"station_id":"ce4bhhh2rcd13ifvqfl0","pricing_plan_id":"free"},{"bike_id":"b14fbab4-94cd-4b40-b8a9-0ed64348a43e","system_id":"levelo_inurba_marseille","lat":43.26556,"lon":5.37287,"is_reserved":false,"is_disabled":false,"rental_uris":{"android":"levelo://app?vid=b14fbab4-94cd-4b40-b8a9-0ed64348a43e","ios":"levelo://app?vid=b14fbab4-94cd-4b40-b8a9-0ed64348a43e"},"vehicle_type_id":"4","last_reported":1702566459,"current_range_meters":10000,"station_id":"ce4bhg12rcd13ifvqf70","pricing_plan_id":"free"},{"bike_id":"caf76e87-acd9-4099-8c77-0311393acca8","system_id":"levelo_inurba_marseille","lat":43.265714,"lon":5.372891,"is_reserved":false,"is_disabled":false,"rental_uris":{"android":"levelo://app?vid=caf76e87-acd9-4099-8c77-0311393acca8","ios":"levelo://app?vid=caf76e87-acd9-4099-8c77-0311393acca8"},"vehicle_type_id":"4","last_reported":1702566459,"current_range_meters":21200,"station_id":"ce4bhg12rcd13ifvqf70","pricing_plan_id":"free"},{"bike_id":"f7ba1bd1-0b64-4579-812f-07ee12780698","system_id":"levelo_inurba_marseille","lat":43.265714,"lon":5.372891,"is_reserved":false,"is_disabled":false,"rental_uris":{"android":"levelo://app?vid=f7ba1bd1-0b64-4579-812f-07ee12780698","ios":"levelo://app?vid=f7ba1bd1-0b64-4579-812f-07ee12780698"},"vehicle_type_id":"4","last_reported":1702566459,"current_range_meters":31200,"station_id":"ce4bhg12rcd13ifvqf70","pricing_plan_id":"free"},{"bike_id":"1602f995-e5ac-4d02-abd6-a9991d3b680d","system_id":"levelo_inurba_marseille","lat":43.275028,"lon":5.424534,"is_reserved":false,"is_disabled":false,"rental_uris":{"android":"levelo://app?vid=1602f995-e5ac-4d02-abd6-a9991d3b680d","ios":"levelo://app?vid=1602f995-e5ac-4d02-abd6-a9991d3b680d"},"vehicle_type_id":"4","last_reported":1702566459,"current_range_meters":13600,"station_id":"ce4bhn92rcd13ifvqgrg","pricing_plan_id":"free"},{"bike_id":"82b9e567-bf87-4442-b8c8-61bb48dde2f5","system_id":"levelo_inurba_marseille","lat":43.308051,"lon":5.43527,"is_reserved":false,"is_disabled":false,"rental_uris":{"android":"levelo://app?vid=82b9e567-bf87-4442-b8c8-61bb48dde2f5","ios":"levelo://app?vid=82b9e567-bf87-4442-b8c8-61bb48dde2f5"},"vehicle_type_id":"4","last_reported":1702566459,"current_range_meters":10800,"station_id":"ce4bhph2rcd13ifvqheg","pricing_plan_id":"free"},{"bike_id":"6ed9a9b0-eeef-4de0-a34b-cab56517fd5a","system_id":"levelo_inurba_marseille","lat":43.26949,"lon":5.40262,"is_reserved":false,"is_disabled":false,"rental_uris":{"android":"levelo://app?vid=6ed9a9b0-eeef-4de0-a34b-cab56517fd5a","ios":"levelo://app?vid=6ed9a9b0-eeef-4de0-a34b-cab56517fd5a"},"vehicle_type_id":"4","last_reported":1702566459,"current_range_meters":28400,"station_id":"cjm6bp8fraef2m0cb0m0","pricing_plan_id":"free"},{"bike_id":"6bfabbda-d923-450e-bd71-6476bbcd5430","system_id":"levelo_inurba_marseille","lat":43.26927,"lon":5.40267,"is_reserved":false,"is_disabled":false,"rental_uris":{"android":"levelo://app?vid=6bfabbda-d923-450e-bd71-6476bbcd5430","ios":"levelo://app?vid=6bfabbda-d923-450e-bd71-6476bbcd5430"},"vehicle_type_id":"4","last_reported":1702566459,"current_range_meters":29200,"station_id":"cjm6bp8fraef2m0cb0m0","pricing_plan_id":"free"},{"bike_id":"b6938647-2397-4611-817c-2b79f86944cf","system_id":"levelo_inurba_marseille","lat":43.261855,"lon":5.37447,"is_reserved":false,"is_disabled":false,"rental_uris":{"android":"levelo://app?vid=b6938647-2397-4611-817c-2b79f86944cf","ios":"levelo://app?vid=b6938647-2397-4611-817c-2b79f86944cf"},"vehicle_type_id":"4","last_reported":1702566459,"current_range_meters":14400,"station_id":"ce4bhgp2rcd13ifvqfc0","pricing_plan_id":"free"},{"bike_id":"9c2ff6ff-4b0d-4f55-ba05-f2cbbd018860","system_id":"levelo_inurba_marseille","lat":43.261782,"lon":5.374515,"is_reserved":false,"is_disabled":false,"rental_uris":{"android":"levelo://app?vid=9c2ff6ff-4b0d-4f55-ba05-f2cbbd018860","ios":"levelo://app?vid=9c2ff6ff-4b0d-4f55-ba05-f2cbbd018860"},"vehicle_type_id":"4","last_reported":1702566459,"current_range_meters":30400,"station_id":"ce4bhgp2rcd13ifvqfc0","pricing_plan_id":"free"},{"bike_id":"2a9b5c26-716b-49ad-a0d0-742f445ef661","system_id":"levelo_inurba_marseille","lat":43.262012,"lon":5.379307,"is_reserved":false,"is_disabled":false,"rental_uris":{"android":"levelo://app?vid=2a9b5c26-716b-49ad-a0d0-742f445ef661","ios":"levelo://app?vid=2a9b5c26-716b-49ad-a0d0-742f445ef661"},"vehicle_type_id":"4","last_reported":1702566459,"current_range_meters":29600,"station_id":"ce4bhjp2rcd13ifvqg90","pricing_plan_id":"free"},{"bike_id":"ae6f9245-5cb7-449d-b038-f2de69599c57","system_id":"levelo_inurba_marseille","lat":43.26202,"lon":5.379299,"is_reserved":false,"is_disabled":false,"rental_uris":{"android":"levelo://app?vid=ae6f9245-5cb7-449d-b038-f2de69599c57","ios":"levelo://app?vid=ae6f9245-5cb7-449d-b038-f2de69599c57"},"vehicle_type_id":"4","last_reported":1702566459,"current_range_meters":20400,"station_id":"ce4bhjp2rcd13ifvqg90","pricing_plan_id":"free"},{"bike_id":"c1a8efc5-2e3d-49d0-904c-c79a29112631","system_id":"levelo_inurba_marseille","lat":43.26202,"lon":5.379299,"is_reserved":false,"is_disabled":false,"rental_uris":{"android":"levelo://app?vid=c1a8efc5-2e3d-49d0-904c-c79a29112631","ios":"levelo://app?vid=c1a8efc5-2e3d-49d0-904c-c79a29112631"},"vehicle_type_id":"4","last_reported":1702566459,"current_range_meters":31600,"station_id":"ce4bhjp2rcd13ifvqg90","pricing_plan_id":"free"},{"bike_id":"9ff9ecae-2b4f-4539-a9a9-ab0253748a72","system_id":"levelo_inurba_marseille","lat":43.267959,"lon":5.402685,"is_reserved":false,"is_disabled":false,"rental_uris":{"android":"levelo://app?vid=9ff9ecae-2b4f-4539-a9a9-ab0253748a72","ios":"levelo://app?vid=9ff9ecae-2b4f-4539-a9a9-ab0253748a72"},"vehicle_type_id":"4","last_reported":1702566459,"current_range_meters":30000,"station_id":"ce501612rcd8frsf0b60","pricing_plan_id":"free"},{"bike_id":"38a4a3ac-b01c-43e0-abb4-5a012521fc8c","system_id":"levelo_inurba_marseille","lat":43.298768,"lon":5.43643,"is_reserved":false,"is_disabled":false,"rental_uris":{"android":"levelo://app?vid=38a4a3ac-b01c-43e0-abb4-5a012521fc8c","ios":"levelo://app?vid=38a4a3ac-b01c-43e0-abb4-5a012521fc8c"},"vehicle_type_id":"4","last_reported":1702566459,"current_range_meters":30000,"station_id":"ce4bhpp2rcd13ifvqhfg","pricing_plan_id":"free"},{"bike_id":"510ea8ac-973a-4e67-bcb0-ba8457820803","system_id":"levelo_inurba_marseille","lat":43.25579,"lon":5.38232,"is_reserved":false,"is_disabled":false,"rental_uris":{"android":"levelo://app?vid=510ea8ac-973a-4e67-bcb0-ba8457820803","ios":"levelo://app?vid=510ea8ac-973a-4e67-bcb0-ba8457820803"},"vehicle_type_id":"4","last_reported":1702566459,"current_range_meters":20400,"station_id":"ce4bhih2rcd13ifvqfs0","pricing_plan_id":"free"},{"bike_id":"8930228e-77b2-4434-a368-ffee58eccf81","system_id":"levelo_inurba_marseille","lat":43.25575,"lon":5.38247,"is_reserved":false,"is_disabled":false,"rental_uris":{"android":"levelo://app?vid=8930228e-77b2-4434-a368-ffee58eccf81","ios":"levelo://app?vid=8930228e-77b2-4434-a368-ffee58eccf81"},"vehicle_type_id":"4","last_reported":1702566459,"current_range_meters":6000,"station_id":"ce4bhih2rcd13ifvqfs0","pricing_plan_id":"free"},{"bike_id":"ecf01aad-11c2-411e-91d2-0e6db3600a9b","system_id":"levelo_inurba_marseille","lat":43.258139,"lon":5.394299,"is_reserved":false,"is_disabled":false,"rental_uris":{"android":"levelo://app?vid=ecf01aad-11c2-411e-91d2-0e6db3600a9b","ios":"levelo://app?vid=ecf01aad-11c2-411e-91d2-0e6db3600a9b"},"vehicle_type_id":"4","last_reported":1702566459,"current_range_meters":12800,"station_id":"ce4bhip2rcd13ifvqft0","pricing_plan_id":"free"},{"bike_id":"7961ec90-acd8-4474-9438-fc0e8dd1c637","system_id":"levelo_inurba_marseille","lat":43.258658,"lon":5.398935,"is_reserved":false,"is_disabled":false,"rental_uris":{"android":"levelo://app?vid=7961ec90-acd8-4474-9438-fc0e8dd1c637","ios":"levelo://app?vid=7961ec90-acd8-4474-9438-fc0e8dd1c637"},"vehicle_type_id":"4","last_reported":1702566459,"current_range_meters":21200,"station_id":"ce4bhl92rcd13ifvqghg","pricing_plan_id":"free"},{"bike_id":"9d3a85b4-3ffa-45ee-a0ed-d032bf9b456e","system_id":"levelo_inurba_marseille","lat":43.25868,"lon":5.39905,"is_reserved":false,"is_disabled":false,"rental_uris":{"android":"levelo://app?vid=9d3a85b4-3ffa-45ee-a0ed-d032bf9b456e","ios":"levelo://app?vid=9d3a85b4-3ffa-45ee-a0ed-d032bf9b456e"},"vehicle_type_id":"4","last_reported":1702566459,"current_range_meters":0,"station_id":"ce4bhl92rcd13ifvqghg","pricing_plan_id":"free"},{"bike_id":"520495f4-cc33-4c3f-b4bc-2c65001bc9fe","system_id":"levelo_inurba_marseille","lat":43.258658,"lon":5.398935,"is_reserved":false,"is_disabled":false,"rental_uris":{"android":"levelo://app?vid=520495f4-cc33-4c3f-b4bc-2c65001bc9fe","ios":"levelo://app?vid=520495f4-cc33-4c3f-b4bc-2c65001bc9fe"},"vehicle_type_id":"4","last_reported":1702566459,"current_range_meters":26400,"station_id":"ce4bhl92rcd13ifvqghg","pricing_plan_id":"free"},{"bike_id":"1ed77d23-4464-4b50-af65-7fdd9400c546","system_id":"levelo_inurba_marseille","lat":43.24803,"lon":5.37457,"is_reserved":false,"is_disabled":false,"rental_uris":{"android":"levelo://app?vid=1ed77d23-4464-4b50-af65-7fdd9400c546","ios":"levelo://app?vid=1ed77d23-4464-4b50-af65-7fdd9400c546"},"vehicle_type_id":"4","last_reported":1702566459,"current_range_meters":4000,"station_id":"ce4bhgh2rcd13ifvqfb0","pricing_plan_id":"free"},{"bike_id":"f9eb4a07-5337-4ec1-a2c2-b138679e1ff9","system_id":"levelo_inurba_marseille","lat":43.248015,"lon":5.374531,"is_reserved":false,"is_disabled":false,"rental_uris":{"android":"levelo://app?vid=f9eb4a07-5337-4ec1-a2c2-b138679e1ff9","ios":"levelo://app?vid=f9eb4a07-5337-4ec1-a2c2-b138679e1ff9"},"vehicle_type_id":"4","last_reported":1702566459,"current_range_meters":13200,"station_id":"","pricing_plan_id":"free"},{"bike_id":"41141c1c-d172-4264-ae0f-545f42a7f1d0","system_id":"levelo_inurba_marseille","lat":43.250966,"lon":5.395186,"is_reserved":false,"is_disabled":false,"rental_uris":{"android":"levelo://app?vid=41141c1c-d172-4264-ae0f-545f42a7f1d0","ios":"levelo://app?vid=41141c1c-d172-4264-ae0f-545f42a7f1d0"},"vehicle_type_id":"4","last_reported":1702566459,"current_range_meters":26800,"station_id":"ce4bhm12rcd13ifvqgkg","pricing_plan_id":"free"},{"bike_id":"41700391-4d2f-4639-ae7c-c14323a03405","system_id":"levelo_inurba_marseille","lat":43.25102,"lon":5.403214,"is_reserved":false,"is_disabled":false,"rental_uris":{"android":"levelo://app?vid=41700391-4d2f-4639-ae7c-c14323a03405","ios":"levelo://app?vid=41700391-4d2f-4639-ae7c-c14323a03405"},"vehicle_type_id":"4","last_reported":1702566459,"current_range_meters":26800,"station_id":"ce4bhlh2rcd13ifvqgig","pricing_plan_id":"free"},{"bike_id":"0554d89a-bf10-4088-aea0-f9a46e4181a4","system_id":"levelo_inurba_marseille","lat":43.25102,"lon":5.403214,"is_reserved":false,"is_disabled":false,"rental_uris":{"android":"levelo://app?vid=0554d89a-bf10-4088-aea0-f9a46e4181a4","ios":"levelo://app?vid=0554d89a-bf10-4088-aea0-f9a46e4181a4"},"vehicle_type_id":"4","last_reported":1702566459,"current_range_meters":4400,"station_id":"ce4bhlh2rcd13ifvqgig","pricing_plan_id":"free"},{"bike_id":"b513b85b-1756-46c2-8292-edd07501fdb9","system_id":"levelo_inurba_marseille","lat":43.246461,"lon":5.389014,"is_reserved":false,"is_disabled":false,"rental_uris":{"android":"levelo://app?vid=b513b85b-1756-46c2-8292-edd07501fdb9","ios":"levelo://app?vid=b513b85b-1756-46c2-8292-edd07501fdb9"},"vehicle_type_id":"4","last_reported":1702566459,"current_range_meters":3200,"station_id":"ce4bhg12rcd13ifvqf60","pricing_plan_id":"free"},{"bike_id":"76d772ca-c4b4-4738-a402-ec17de5ecd83","system_id":"levelo_inurba_marseille","lat":43.246467,"lon":5.388984,"is_reserved":false,"is_disabled":false,"rental_uris":{"android":"levelo://app?vid=76d772ca-c4b4-4738-a402-ec17de5ecd83","ios":"levelo://app?vid=76d772ca-c4b4-4738-a402-ec17de5ecd83"},"vehicle_type_id":"4","last_reported":1702566459,"current_range_meters":16800,"station_id":"ce4bhg12rcd13ifvqf60","pricing_plan_id":"free"},{"bike_id":"ffbd30eb-b933-4720-adcd-5890c10c111e","system_id":"levelo_inurba_marseille","lat":43.245581,"lon":5.395069,"is_reserved":false,"is_disabled":false,"rental_uris":{"android":"levelo://app?vid=ffbd30eb-b933-4720-adcd-5890c10c111e","ios":"levelo://app?vid=ffbd30eb-b933-4720-adcd-5890c10c111e"},"vehicle_type_id":"4","last_reported":1702566459,"current_range_meters":4800,"station_id":"ce4bhlp2rcd13ifvqgjg","pricing_plan_id":"free"},{"bike_id":"1169cefa-df20-4730-aa8a-0ee13310751c","system_id":"levelo_inurba_marseille","lat":43.245581,"lon":5.395069,"is_reserved":false,"is_disabled":false,"rental_uris":{"android":"levelo://app?vid=1169cefa-df20-4730-aa8a-0ee13310751c","ios":"levelo://app?vid=1169cefa-df20-4730-aa8a-0ee13310751c"},"vehicle_type_id":"4","last_reported":1702566459,"current_range_meters":4800,"station_id":"ce4bhlp2rcd13ifvqgjg","pricing_plan_id":"free"},{"bike_id":"ab2168df-d4ad-4521-b605-35f4153a0577","system_id":"levelo_inurba_marseille","lat":43.24073,"lon":5.37763,"is_reserved":false,"is_disabled":false,"rental_uris":{"android":"levelo://app?vid=ab2168df-d4ad-4521-b605-35f4153a0577","ios":"levelo://app?vid=ab2168df-d4ad-4521-b605-35f4153a0577"},"vehicle_type_id":"4","last_reported":1702566459,"current_range_meters":31200,"station_id":"ce4bhnp2rcd13ifvqgvg","pricing_plan_id":"free"},{"bike_id":"0732b389-4fc5-4785-9cec-740279a0349e","system_id":"levelo_inurba_marseille","lat":43.240623,"lon":5.377642,"is_reserved":false,"is_disabled":false,"rental_uris":{"android":"levelo://app?vid=0732b389-4fc5-4785-9cec-740279a0349e","ios":"levelo://app?vid=0732b389-4fc5-4785-9cec-740279a0349e"},"vehicle_type_id":"4","last_reported":1702566459,"current_range_meters":20400,"station_id":"ce4bhnp2rcd13ifvqgvg","pricing_plan_id":"free"},{"bike_id":"a006d6a9-936f-407e-8804-fb4c62db6209","system_id":"levelo_inurba_marseille","lat":43.239588,"lon":5.366238,"is_reserved":false,"is_disabled":false,"rental_uris":{"android":"levelo://app?vid=a006d6a9-936f-407e-8804-fb4c62db6209","ios":"levelo://app?vid=a006d6a9-936f-407e-8804-fb4c62db6209"},"vehicle_type_id":"4","last_reported":1702566459,"current_range_meters":20800,"station_id":"ce4bhi12rcd13ifvqfp0","pricing_plan_id":"free"},{"bike_id":"3a814a24-07d8-4e6f-9e30-e43634a525e4","system_id":"levelo_inurba_marseille","lat":43.23965,"lon":5.36639,"is_reserved":false,"is_disabled":false,"rental_uris":{"android":"levelo://app?vid=3a814a24-07d8-4e6f-9e30-e43634a525e4","ios":"levelo://app?vid=3a814a24-07d8-4e6f-9e30-e43634a525e4"},"vehicle_type_id":"4","last_reported":1702566459,"current_range_meters":6800,"station_id":"ce4bhi12rcd13ifvqfp0","pricing_plan_id":"free"},{"bike_id":"417c4bb2-53a9-4a4c-a128-5a6478c52446","system_id":"levelo_inurba_marseille","lat":43.239588,"lon":5.366238,"is_reserved":false,"is_disabled":false,"rental_uris":{"android":"levelo://app?vid=417c4bb2-53a9-4a4c-a128-5a6478c52446","ios":"levelo://app?vid=417c4bb2-53a9-4a4c-a128-5a6478c52446"},"vehicle_type_id":"4","last_reported":1702566459,"current_range_meters":23200,"station_id":"ce4bhi12rcd13ifvqfp0","pricing_plan_id":"free"},{"bike_id":"f42c64c6-938d-453a-8637-863b38e508ac","system_id":"levelo_inurba_marseille","lat":43.231793,"lon":5.400044,"is_reserved":false,"is_disabled":false,"rental_uris":{"android":"levelo://app?vid=f42c64c6-938d-453a-8637-863b38e508ac","ios":"levelo://app?vid=f42c64c6-938d-453a-8637-863b38e508ac"},"vehicle_type_id":"4","last_reported":1702566459,"current_range_meters":7200,"station_id":"ce4bhn12rcd13ifvqgqg","pricing_plan_id":"free"},{"bike_id":"dd7ed4dd-77c8-413e-9e14-33a4d651f1aa","system_id":"levelo_inurba_marseille","lat":43.231793,"lon":5.400044,"is_reserved":false,"is_disabled":false,"rental_uris":{"android":"levelo://app?vid=dd7ed4dd-77c8-413e-9e14-33a4d651f1aa","ios":"levelo://app?vid=dd7ed4dd-77c8-413e-9e14-33a4d651f1aa"},"vehicle_type_id":"4","last_reported":1702566459,"current_range_meters":20800,"station_id":"ce4bhn12rcd13ifvqgqg","pricing_plan_id":"free"},{"bike_id":"a77fff13-9f20-4e3b-b9d6-ff4e799f8066","system_id":"levelo_inurba_marseille","lat":43.231793,"lon":5.400044,"is_reserved":false,"is_disabled":false,"rental_uris":{"android":"levelo://app?vid=a77fff13-9f20-4e3b-b9d6-ff4e799f8066","ios":"levelo://app?vid=a77fff13-9f20-4e3b-b9d6-ff4e799f8066"},"vehicle_type_id":"4","last_reported":1702566459,"current_range_meters":24800,"station_id":"ce4bhn12rcd13ifvqgqg","pricing_plan_id":"free"},{"bike_id":"06866d47-2c37-4144-baca-d9ea40f74b26","system_id":"levelo_inurba_marseille","lat":43.231562,"lon":5.436933,"is_reserved":false,"is_disabled":false,"rental_uris":{"android":"levelo://app?vid=06866d47-2c37-4144-baca-d9ea40f74b26","ios":"levelo://app?vid=06866d47-2c37-4144-baca-d9ea40f74b26"},"vehicle_type_id":"4","last_reported":1702566459,"current_range_meters":16800,"station_id":"ce4bhmp2rcd13ifvqgog","pricing_plan_id":"free"},{"bike_id":"e9376b7c-c4b9-4207-9443-fa996b245a3f","system_id":"levelo_inurba_marseille","lat":43.231562,"lon":5.436933,"is_reserved":false,"is_disabled":false,"rental_uris":{"android":"levelo://app?vid=e9376b7c-c4b9-4207-9443-fa996b245a3f","ios":"levelo://app?vid=e9376b7c-c4b9-4207-9443-fa996b245a3f"},"vehicle_type_id":"4","last_reported":1702566459,"current_range_meters":8000,"station_id":"ce4bhmp2rcd13ifvqgog","pricing_plan_id":"free"},{"bike_id":"be72807a-9a7f-4d6b-9ec7-53daa8856b96","system_id":"levelo_inurba_marseille","lat":43.231562,"lon":5.436933,"is_reserved":false,"is_disabled":false,"rental_uris":{"android":"levelo://app?vid=be72807a-9a7f-4d6b-9ec7-53daa8856b96","ios":"levelo://app?vid=be72807a-9a7f-4d6b-9ec7-53daa8856b96"},"vehicle_type_id":"4","last_reported":1702566459,"current_range_meters":31200,"station_id":"ce4bhmp2rcd13ifvqgog","pricing_plan_id":"free"},{"bike_id":"2bfd76a0-1e79-4241-ad52-f5a596eddc26","system_id":"levelo_inurba_marseille","lat":43.231562,"lon":5.436933,"is_reserved":false,"is_disabled":false,"rental_uris":{"android":"levelo://app?vid=2bfd76a0-1e79-4241-ad52-f5a596eddc26","ios":"levelo://app?vid=2bfd76a0-1e79-4241-ad52-f5a596eddc26"},"vehicle_type_id":"4","last_reported":1702566459,"current_range_meters":30400,"station_id":"ce4bhmp2rcd13ifvqgog","pricing_plan_id":"free"},{"bike_id":"f6419703-0daf-4ce1-8be0-92733369fcca","system_id":"levelo_inurba_marseille","lat":43.231562,"lon":5.436933,"is_reserved":false,"is_disabled":false,"rental_uris":{"android":"levelo://app?vid=f6419703-0daf-4ce1-8be0-92733369fcca","ios":"levelo://app?vid=f6419703-0daf-4ce1-8be0-92733369fcca"},"vehicle_type_id":"4","last_reported":1702566459,"current_range_meters":15200,"station_id":"ce4bhmp2rcd13ifvqgog","pricing_plan_id":"free"},{"bike_id":"ca5e62ab-ad96-4c53-a03e-be2c50cd695e","system_id":"levelo_inurba_marseille","lat":43.231562,"lon":5.436933,"is_reserved":false,"is_disabled":false,"rental_uris":{"android":"levelo://app?vid=ca5e62ab-ad96-4c53-a03e-be2c50cd695e","ios":"levelo://app?vid=ca5e62ab-ad96-4c53-a03e-be2c50cd695e"},"vehicle_type_id":"4","last_reported":1702566459,"current_range_meters":31200,"station_id":"ce4bhmp2rcd13ifvqgog","pricing_plan_id":"free"},{"bike_id":"5baad603-16af-4b46-9899-8c12c42ef7f0","system_id":"levelo_inurba_marseille","lat":43.231562,"lon":5.436933,"is_reserved":false,"is_disabled":false,"rental_uris":{"android":"levelo://app?vid=5baad603-16af-4b46-9899-8c12c42ef7f0","ios":"levelo://app?vid=5baad603-16af-4b46-9899-8c12c42ef7f0"},"vehicle_type_id":"4","last_reported":1702566459,"current_range_meters":31600,"station_id":"ce4bhmp2rcd13ifvqgog","pricing_plan_id":"free"},{"bike_id":"b569a46d-e980-4041-aabf-063e4829ad55","system_id":"levelo_inurba_marseille","lat":43.23152,"lon":5.43718,"is_reserved":false,"is_disabled":false,"rental_uris":{"android":"levelo://app?vid=b569a46d-e980-4041-aabf-063e4829ad55","ios":"levelo://app?vid=b569a46d-e980-4041-aabf-063e4829ad55"},"vehicle_type_id":"4","last_reported":1702566459,"current_range_meters":26000,"station_id":"ce4bhmp2rcd13ifvqgog","pricing_plan_id":"free"},{"bike_id":"ae4ddecf-40fa-483c-a214-73fd38f74dd6","system_id":"levelo_inurba_marseille","lat":43.231562,"lon":5.436933,"is_reserved":false,"is_disabled":false,"rental_uris":{"android":"levelo://app?vid=ae4ddecf-40fa-483c-a214-73fd38f74dd6","ios":"levelo://app?vid=ae4ddecf-40fa-483c-a214-73fd38f74dd6"},"vehicle_type_id":"4","last_reported":1702566459,"current_range_meters":30000,"station_id":"ce4bhmp2rcd13ifvqgog","pricing_plan_id":"free"},{"bike_id":"edd0328e-4f4d-4404-b1ac-6a3c4f9973e8","system_id":"levelo_inurba_marseille","lat":43.231562,"lon":5.436933,"is_reserved":false,"is_disabled":false,"rental_uris":{"android":"levelo://app?vid=edd0328e-4f4d-4404-b1ac-6a3c4f9973e8","ios":"levelo://app?vid=edd0328e-4f4d-4404-b1ac-6a3c4f9973e8"},"vehicle_type_id":"4","last_reported":1702566459,"current_range_meters":15200,"station_id":"ce4bhmp2rcd13ifvqgog","pricing_plan_id":"free"}]}}