{"last_updated":1687039570,"ttl":30,"version":"2.2","data":{"bikes":[{"bike_id":"54413184-bd3e-4bd8-8f1a-adb9b3676551","system_id":"levelo_inurba_marseille","lat":43.313391,"lon":5.36706,"is_reserved":false,"is_disabled":false,"rental_uris":{"android":"levelo://app?vid=54413184-bd3e-4bd8-8f1a-adb9b3676551","ios":"levelo://app?vid=54413184-bd3e-4bd8-8f1a-adb9b3676551"},"vehicle_type_id":"4","last_reported":1687039571,"current_range_meters":28000,"station_id":"ce4bgr92rcd13ifvqc6g","pricing_plan_id":"free"},{"bike_id":"4c3fefa3-c80e-4a74-ae8b-cd049df8ecaf","system_id":"levelo_inurba_marseille","lat":43.309076,"lon":5.368465,"is_reserved":false,"is_disabled":false,"rental_uris":{"android":"levelo://app?vid=4c3fefa3-c80e-4a74-ae8b-cd049df8ecaf","ios":"levelo://app?vid=4c3fefa3-c80e-4a74-ae8b-cd049df8ecaf"},"vehicle_type_id":"4","last_reported":1687039571,"current_range_meters":31200,"station_id":"ce4bgn92rcd13ifvqbvg","pricing_plan_id":"free"},{"bike_id":"e11405e4-1c28-4bcc-b77e-4987edcfed82","system_id":"levelo_inurba_marseille","lat":43.314811,"lon":5.373103,"is_reserved":false,"is_disabled":false,"rental_uris":{"android":"levelo://app?vid=e11405e4-1c28-4bcc-b77e-4987edcfed82","ios":"levelo://app?vid=e11405e4-1c28-4bcc-b77e-4987edcfed82"},"vehicle_type_id":"4","last_reported":1687039571,"current_range_meters":26800,"station_id":"ce4bgt12rcd13ifvqcd0","pricing_plan_id":"free"},{"bike_id":"aa5f2b33-9796-4342-9890-4a1c681add18","system_id":"levelo_inurba_marseille","lat":43.314811,"lon":5.373103,"is_reserved":false,"is_disabled":false,"rental_uris":{"android":"levelo://app?vid=aa5f2b33-9796-4342-9890-4a1c681add18","ios":"levelo://app?vid=aa5f2b33-9796-4342-9890-4a1c681add18"},"vehicle_type_id":"4","last_reported":1687039571,"current_range_meters":8000,"station_id":"ce4bgt12rcd13ifvqcd0","pricing_plan_id":"free"},{"bike_id":"4d6a94cc-c9b4-4347-b940-adf8a33efb7e","system_id":"levelo_inurba_marseille","lat":43.314811,"lon":5.373104,"is_reserved":false,"is_disabled":false,"rental_uris":{"android":"levelo://app?vid=4d6a94cc-c9b4-4347-b940-adf8a33efb7e","ios":"levelo://app?vid=4d6a94cc-c9b4-4347-b940-adf8a33efb7e"},"vehicle_type_id":"4","last_reported":1687039571,"current_range_meters":12400,"station_id":"ce4bgt12rcd13ifvqcd0","pricing_plan_id":"free"},{"bike_id":"47117898-2b90-4a71-b81c-0f7a4a3c3207","system_id":"levelo_inurba_marseille","lat":43.314811,"lon":5.373103,"is_reserved":false,"is_disabled":false,"rental_uris":{"android":"levelo://app?vid=47117898-2b90-4a71-b81c-0f7a4a3c3207","ios":"levelo://app?vid=47117898-2b90-4a71-b81c-0f7a4a3c3207"},"vehicle_type_id":"4","last_reported":1687039571,"current_range_meters":28800,"station_id":"ce4bgt12rcd13ifvqcd0","pricing_plan_id":"free"},{"bike_id":"0efe43ec-f35b-4a79-9f63-71c37de9cb41","system_id":"levelo_inurba_marseille","lat":43.31487,"lon":5.3731,"is_reserved":false,"is_disabled":false,"rental_uris":{"android":"levelo://app?vid=0efe43ec-f35b-4a79-9f63-71c37de9cb41","ios":"levelo://app?vid=0efe43ec-f35b-4a79-9f63-71c37de9cb41"},"vehicle_type_id":"4","last_reported":1687039571,"current_range_meters":4800,"station_id":"ce4bgt12rcd13ifvqcd0","pricing_plan_id":"free"},{"bike_id":"ac4065ca-74b3-42a7-8b5f-7666ff25303d","system_id":"levelo_inurba_marseille","lat":43.314811,"lon":5.373104,"is_reserved":false,"is_disabled":false,"rental_uris":{"android":"levelo://app?vid=ac4065ca-74b3-42a7-8b5f-7666ff25303d","ios":"levelo://app?vid=ac4065ca-74b3-42a7-8b5f-7666ff25303d"},"vehicle_type_id":"4","last_reported":1687039571,"current_range_meters":5600,"station_id":"ce4bgt12rcd13ifvqcd0","pricing_plan_id":"free"},{"bike_id":"ca07db5c-8763-45fa-a7c2-8e86e9b5fc61","system_id":"levelo_inurba_marseille","lat":43.30541,"lon":5.367,"is_reserved":false,"is_disabled":false,"rental_uris":{"android":"levelo://app?vid=ca07db5c-8763-45fa-a7c2-8e86e9b5fc61","ios":"levelo://app?vid=ca07db5c-8763-45fa-a7c2-8e86e9b5fc61"},"vehicle_type_id":"4","last_reported":1687039571,"current_range_meters":31200,"station_id":"ce4bgrp2rcd13ifvqc9g","pricing_plan_id":"free"},{"bike_id":"608908a8-9484-4528-8d2c-02698148be39","system_id":"levelo_inurba_marseille","lat":43.305989,"lon":5.37225,"is_reserved":false,"is_disabled":false,"rental_uris":{"android":"levelo://app?vid=608908a8-9484-4528-8d2c-02698148be39","ios":"levelo://app?vid=608908a8-9484-4528-8d2c-02698148be39"},"vehicle_type_id":"4","last_reported":1687039571,"current_range_meters":4400,"station_id":"ce4bgqh2rcd13ifvqc4g","pricing_plan_id":"free"},{"bike_id":"9c746439-937e-436d-8c66-cb90c42aae7f","system_id":"levelo_inurba_marseille","lat":43.31168,"lon":5.37746,"is_reserved":false,"is_disabled":false,"rental_uris":{"android":"levelo://app?vid=9c746439-937e-436d-8c66-cb90c42aae7f","ios":"levelo://app?vid=9c746439-937e-436d-8c66-cb90c42aae7f"},"vehicle_type_id":"4","last_reported":1687039571,"current_range_meters":28400,"station_id":"","pricing_plan_id":"free"},{"bike_id":"94983d95-fa15-43f8-b326-d25e9e2ac099","system_id":"levelo_inurba_marseille","lat":43.306,"lon":5.3722,"is_reserved":false,"is_disabled":false,"rental_uris":{"android":"levelo://app?vid=94983d95-fa15-43f8-b326-d25e9e2ac099","ios":"levelo://app?vid=94983d95-fa15-43f8-b326-d25e9e2ac099"},"vehicle_type_id":"4","last_reported":1687039571,"current_range_meters":18400,"station_id":"ce4bgqh2rcd13ifvqc4g","pricing_plan_id":"free"},{"bike_id":"b59e10b7-0ecb-4f7b-aa3c-39d683922716","system_id":"levelo_inurba_marseille","lat":43.311125,"lon":5.377624,"is_reserved":false,"is_disabled":false,"rental_uris":{"android":"levelo://app?vid=b59e10b7-0ecb-4f7b-aa3c-39d683922716","ios":"levelo://app?vid=b59e10b7-0ecb-4f7b-aa3c-39d683922716"},"vehicle_type_id":"4","last_reported":1687039571,"current_range_meters":31600,"station_id":"ce4bgt92rcd13ifvqcg0","pricing_plan_id":"free"},{"bike_id":"c0113fb8-90d9-4eb8-915a-555941939ed1","system_id":"levelo_inurba_marseille","lat":43.311125,"lon":5.377624,"is_reserved":false,"is_disabled":false,"rental_uris":{"android":"levelo://app?vid=c0113fb8-90d9-4eb8-915a-555941939ed1","ios":"levelo://app?vid=c0113fb8-90d9-4eb8-915a-555941939ed1"},"vehicle_type_id":"4","last_reported":1687039571,"current_range_meters":7200,"station_id":"ce4bgt92rcd13ifvqcg0","pricing_plan_id":"free"},{"bike_id":"61d908a2-632e-4b37-a294-18661c35e7d6","system_id":"levelo_inurba_marseille","lat":43.311125,"lon":5.377624,"is_reserved":false,"is_disabled":false,"rental_uris":{"android":"levelo://app?vid=61d908a2-632e-4b37-a294-18661c35e7d6","ios":"levelo://app?vid=61d908a2-632e-4b37-a294-18661c35e7d6"},"vehicle_type_id":"4","last_reported":1687039571,"current_range_meters":8000,"station_id":"ce4bgt92rcd13ifvqcg0","pricing_plan_id":"free"},{"bike_id":"2424216c-0462-4ad0-b127-d0366c91b61c","system_id":"levelo_inurba_marseille","lat":43.31709,"lon":5.37724,"is_reserved":false,"is_disabled":false,"rental_uris":{"android":"levelo://app?vid=2424216c-0462-4ad0-b127-d0366c91b61c","ios":"levelo://app?vid=2424216c-0462-4ad0-b127-d0366c91b61c"},"vehicle_type_id":"4","last_reported":1687039571,"current_range_meters":31200,"station_id":"ce4bgth2rcd13ifvqch0","pricing_plan_id":"free"},{"bike_id":"9995f459-fa59-416d-8a8e-7899ff978c5c","system_id":"levelo_inurba_marseille","lat":43.317075,"lon":5.377367,"is_reserved":false,"is_disabled":false,"rental_uris":{"android":"levelo://app?vid=9995f459-fa59-416d-8a8e-7899ff978c5c","ios":"levelo://app?vid=9995f459-fa59-416d-8a8e-7899ff978c5c"},"vehicle_type_id":"4","last_reported":1687039571,"current_range_meters":18400,"station_id":"ce4bgth2rcd13ifvqch0","pricing_plan_id":"free"},{"bike_id":"fbf7f121-825b-46b2-88eb-fe1565ad7f4e","system_id":"levelo_inurba_marseille","lat":43.317075,"lon":5.377367,"is_reserved":false,"is_disabled":false,"rental_uris":{"android":"levelo://app?vid=fbf7f121-825b-46b2-88eb-fe1565ad7f4e","ios":"levelo://app?vid=fbf7f121-825b-46b2-88eb-fe1565ad7f4e"},"vehicle_type_id":"4","last_reported":1687039571,"current_range_meters":16800,"station_id":"ce4bgth2rcd13ifvqch0","pricing_plan_id":"free"},{"bike_id":"3bbb518e-9a83-40f5-84e5-3a5e60f17226","system_id":"levelo_inurba_marseille","lat":43.317075,"lon":5.377367,"is_reserved":false,"is_disabled":false,"rental_uris":{"android":"levelo://app?vid=3bbb518e-9a83-40f5-84e5-3a5e60f17226","ios":"levelo://app?vid=3bbb518e-9a83-40f5-84e5-3a5e60f17226"},"vehicle_type_id":"4","last_reported":1687039571,"current_range_meters":8800,"station_id":"ce4bgth2rcd13ifvqch0","pricing_plan_id":"free"},{"bike_id":"0db3308e-a308-4e01-b972-880bec556f3d","system_id":"levelo_inurba_marseille","lat":43.317075,"lon":5.377367,"is_reserved":false,"is_disabled":false,"rental_uris":{"android":"levelo://app?vid=0db3308e-a308-4e01-b972-880bec556f3d","ios":"levelo://app?vid=0db3308e-a308-4e01-b972-880bec556f3d"},"vehicle_type_id":"4","last_reported":1687039571,"current_range_meters":24800,"station_id":"ce4bgth2rcd13ifvqch0","pricing_plan_id":"free"},{"bike_id":"54105187-4d93-4d9f-90b5-aa0b4942a62d","system_id":"levelo_inurba_marseille","lat":43.315289,"lon":5.380349,"is_reserved":false,"is_disabled":false,"rental_uris":{"android":"levelo://app?vid=54105187-4d93-4d9f-90b5-aa0b4942a62d","ios":"levelo://app?vid=54105187-4d93-4d9f-90b5-aa0b4942a62d"},"vehicle_type_id":"4","last_reported":1687039571,"current_range_meters":0,"station_id":"ce4bhsp2rcd13ifvqi50","pricing_plan_id":"free"},{"bike_id":"8d51db3c-ddf0-4868-a42f-0868b9c8ed86","system_id":"levelo_inurba_marseille","lat":43.31537,"lon":5.38024,"is_reserved":false,"is_disabled":false,"rental_uris":{"android":"levelo://app?vid=8d51db3c-ddf0-4868-a42f-0868b9c8ed86","ios":"levelo://app?vid=8d51db3c-ddf0-4868-a42f-0868b9c8ed86"},"vehicle_type_id":"4","last_reported":1687039571,"current_range_meters":6400,"station_id":"ce4bhsp2rcd13ifvqi50","pricing_plan_id":"free"},{"bike_id":"ae33307b-fcd5-479b-9ae1-9002ed226c6e","system_id":"levelo_inurba_marseille","lat":43.308012,"lon":5.381511,"is_reserved":false,"is_disabled":false,"rental_uris":{"android":"levelo://app?vid=ae33307b-fcd5-479b-9ae1-9002ed226c6e","ios":"levelo://app?vid=ae33307b-fcd5-479b-9ae1-9002ed226c6e"},"vehicle_type_id":"4","last_reported":1687039571,"current_range_meters":31200,"station_id":"ce4bgt12rcd13ifvqce0","pricing_plan_id":"free"},{"bike_id":"b4f0752b-5c62-4001-baae-030a8e3ac28c","system_id":"levelo_inurba_marseille","lat":43.30793,"lon":5.38157,"is_reserved":false,"is_disabled":false,"rental_uris":{"android":"levelo://app?vid=b4f0752b-5c62-4001-baae-030a8e3ac28c","ios":"levelo://app?vid=b4f0752b-5c62-4001-baae-030a8e3ac28c"},"vehicle_type_id":"4","last_reported":1687039571,"current_range_meters":31200,"station_id":"ce4bgt12rcd13ifvqce0","pricing_plan_id":"free"},{"bike_id":"43fc693e-f2a9-4aec-8fd9-d094bb02cb70","system_id":"levelo_inurba_marseille","lat":43.304606,"lon":5.379026,"is_reserved":false,"is_disabled":false,"rental_uris":{"android":"levelo://app?vid=43fc693e-f2a9-4aec-8fd9-d094bb02cb70","ios":"levelo://app?vid=43fc693e-f2a9-4aec-8fd9-d094bb02cb70"},"vehicle_type_id":"4","last_reported":1687039571,"current_range_meters":20000,"station_id":"ce4bgup2rcd13ifvqcn0","pricing_plan_id":"free"},{"bike_id":"d6ce0e57-207c-4ada-8105-b710323d57f9","system_id":"levelo_inurba_marseille","lat":43.30146,"lon":5.37427,"is_reserved":false,"is_disabled":false,"rental_uris":{"android":"levelo://app?vid=d6ce0e57-207c-4ada-8105-b710323d57f9","ios":"levelo://app?vid=d6ce0e57-207c-4ada-8105-b710323d57f9"},"vehicle_type_id":"4","last_reported":1687039571,"current_range_meters":18000,"station_id":"ce4bgs92rcd13ifvqcc0","pricing_plan_id":"free"},{"bike_id":"40047d22-ec1e-4a32-b291-2accccf3a7f4","system_id":"levelo_inurba_marseille","lat":43.30143,"lon":5.37413,"is_reserved":false,"is_disabled":false,"rental_uris":{"android":"levelo://app?vid=40047d22-ec1e-4a32-b291-2accccf3a7f4","ios":"levelo://app?vid=40047d22-ec1e-4a32-b291-2accccf3a7f4"},"vehicle_type_id":"4","last_reported":1687039571,"current_range_meters":18400,"station_id":"ce4bgs92rcd13ifvqcc0","pricing_plan_id":"free"},{"bike_id":"5003c2fa-8578-4b5b-aee0-bf9c6a52e3f5","system_id":"levelo_inurba_marseille","lat":43.31991,"lon":5.38145,"is_reserved":false,"is_disabled":false,"rental_uris":{"android":"levelo://app?vid=5003c2fa-8578-4b5b-aee0-bf9c6a52e3f5","ios":"levelo://app?vid=5003c2fa-8578-4b5b-aee0-bf9c6a52e3f5"},"vehicle_type_id":"4","last_reported":1687039571,"current_range_meters":0,"station_id":"ce4bhr12rcd13ifvqhpg","pricing_plan_id":"free"},{"bike_id":"5ca77738-6310-42c3-b6c3-d9668da647fe","system_id":"levelo_inurba_marseille","lat":43.31995,"lon":5.38151,"is_reserved":false,"is_disabled":false,"rental_uris":{"android":"levelo://app?vid=5ca77738-6310-42c3-b6c3-d9668da647fe","ios":"levelo://app?vid=5ca77738-6310-42c3-b6c3-d9668da647fe"},"vehicle_type_id":"4","last_reported":1687039571,"current_range_meters":18800,"station_id":"ce4bhr12rcd13ifvqhpg","pricing_plan_id":"free"},{"bike_id":"924521ee-c5b9-4d2a-8d21-8dc1ab275713","system_id":"levelo_inurba_marseille","lat":43.313571,"lon":5.384829,"is_reserved":false,"is_disabled":false,"rental_uris":{"android":"levelo://app?vid=924521ee-c5b9-4d2a-8d21-8dc1ab275713","ios":"levelo://app?vid=924521ee-c5b9-4d2a-8d21-8dc1ab275713"},"vehicle_type_id":"4","last_reported":1687039571,"current_range_meters":16400,"station_id":"ce4bgt92rcd13ifvqcf0","pricing_plan_id":"free"},{"bike_id":"b7a04f58-67ae-402c-8dcd-236991a1864e","system_id":"levelo_inurba_marseille","lat":43.30173,"lon":5.3764,"is_reserved":false,"is_disabled":false,"rental_uris":{"android":"levelo://app?vid=b7a04f58-67ae-402c-8dcd-236991a1864e","ios":"levelo://app?vid=b7a04f58-67ae-402c-8dcd-236991a1864e"},"vehicle_type_id":"4","last_reported":1687039571,"current_range_meters":11200,"station_id":"","pricing_plan_id":"free"},{"bike_id":"6e28bd5a-93e6-42b5-b6f5-0c239ef2e7f7","system_id":"levelo_inurba_marseille","lat":43.313571,"lon":5.384829,"is_reserved":false,"is_disabled":false,"rental_uris":{"android":"levelo://app?vid=6e28bd5a-93e6-42b5-b6f5-0c239ef2e7f7","ios":"levelo://app?vid=6e28bd5a-93e6-42b5-b6f5-0c239ef2e7f7"},"vehicle_type_id":"4","last_reported":1687039571,"current_range_meters":21600,"station_id":"ce4bgt92rcd13ifvqcf0","pricing_plan_id":"free"},{"bike_id":"b50ba2f7-d5f2-4418-a133-9c573d2a7e86","system_id":"levelo_inurba_marseille","lat":43.31358,"lon":5.3849,"is_reserved":false,"is_disabled":false,"rental_uris":{"android":"levelo://app?vid=b50ba2f7-d5f2-4418-a133-9c573d2a7e86","ios":"levelo://app?vid=b50ba2f7-d5f2-4418-a133-9c573d2a7e86"},"vehicle_type_id":"4","last_reported":1687039571,"current_range_meters":24000,"station_id":"ce4bgt92rcd13ifvqcf0","pricing_plan_id":"free"},{"bike_id":"47851bed-6dee-4f60-a6d5-7a8303bf4d46","system_id":"levelo_inurba_marseille","lat":43.31357,"lon":5.38494,"is_reserved":false,"is_disabled":false,"rental_uris":{"android":"levelo://app?vid=47851bed-6dee-4f60-a6d5-7a8303bf4d46","ios":"levelo://app?vid=47851bed-6dee-4f60-a6d5-7a8303bf4d46"},"vehicle_type_id":"4","last_reported":1687039571,"current_range_meters":2800,"station_id":"ce4bgt92rcd13ifvqcf0","pricing_plan_id":"free"},{"bike_id":"be9b30f3-9373-4cea-afa6-196e414e5e56","system_id":"levelo_inurba_marseille","lat":43.31356,"lon":5.38495,"is_reserved":false,"is_disabled":false,"rental_uris":{"android":"levelo://app?vid=be9b30f3-9373-4cea-afa6-196e414e5e56","ios":"levelo://app?vid=be9b30f3-9373-4cea-afa6-196e414e5e56"},"vehicle_type_id":"4","last_reported":1687039571,"current_range_meters":26000,"station_id":"ce4bgt92rcd13ifvqcf0","pricing_plan_id":"free"},{"bike_id":"71500408-18a8-4462-a538-479ec487d429","system_id":"levelo_inurba_marseille","lat":43.31359,"lon":5.38495,"is_reserved":false,"is_disabled":false,"rental_uris":{"android":"levelo://app?vid=71500408-18a8-4462-a538-479ec487d429","ios":"levelo://app?vid=71500408-18a8-4462-a538-479ec487d429"},"vehicle_type_id":"4","last_reported":1687039571,"current_range_meters":30800,"station_id":"ce4bgt92rcd13ifvqcf0","pricing_plan_id":"free"},{"bike_id":"9f2a96b0-ee04-4dc0-bb33-b97070d5fcbc","system_id":"levelo_inurba_marseille","lat":43.31357,"lon":5.38496,"is_reserved":false,"is_disabled":false,"rental_uris":{"android":"levelo://app?vid=9f2a96b0-ee04-4dc0-bb33-b97070d5fcbc","ios":"levelo://app?vid=9f2a96b0-ee04-4dc0-bb33-b97070d5fcbc"},"vehicle_type_id":"4","last_reported":1687039571,"current_range_meters":30400,"station_id":"ce4bgt92rcd13ifvqcf0","pricing_plan_id":"free"},{"bike_id":"a37eae01-9c97-4166-a85a-f4f3ab945240","system_id":"levelo_inurba_marseille","lat":43.31356,"lon":5.38498,"is_reserved":false,"is_disabled":false,"rental_uris":{"android":"levelo://app?vid=a37eae01-9c97-4166-a85a-f4f3ab945240","ios":"levelo://app?vid=a37eae01-9c97-4166-a85a-f4f3ab945240"},"vehicle_type_id":"4","last_reported":1687039571,"current_range_meters":30400,"station_id":"ce4bgt92rcd13ifvqcf0","pricing_plan_id":"free"},{"bike_id":"330412da-b9eb-49fa-9ba0-9288ee9ddd31","system_id":"levelo_inurba_marseille","lat":43.30044,"lon":5.37519,"is_reserved":false,"is_disabled":false,"rental_uris":{"android":"levelo://app?vid=330412da-b9eb-49fa-9ba0-9288ee9ddd31","ios":"levelo://app?vid=330412da-b9eb-49fa-9ba0-9288ee9ddd31"},"vehicle_type_id":"4","last_reported":1687039571,"current_range_meters":17200,"station_id":"","pricing_plan_id":"free"},{"bike_id":"4c6fe108-c6e9-4795-8fdd-5b04ebdc1bfd","system_id":"levelo_inurba_marseille","lat":43.311722,"lon":5.387247,"is_reserved":false,"is_disabled":false,"rental_uris":{"android":"levelo://app?vid=4c6fe108-c6e9-4795-8fdd-5b04ebdc1bfd","ios":"levelo://app?vid=4c6fe108-c6e9-4795-8fdd-5b04ebdc1bfd"},"vehicle_type_id":"4","last_reported":1687039571,"current_range_meters":7600,"station_id":"ce4bgv12rcd13ifvqcp0","pricing_plan_id":"free"},{"bike_id":"c425ddc1-98fb-4f5b-a30e-e4f1e90290b1","system_id":"levelo_inurba_marseille","lat":43.328371,"lon":5.366909,"is_reserved":false,"is_disabled":false,"rental_uris":{"android":"levelo://app?vid=c425ddc1-98fb-4f5b-a30e-e4f1e90290b1","ios":"levelo://app?vid=c425ddc1-98fb-4f5b-a30e-e4f1e90290b1"},"vehicle_type_id":"4","last_reported":1687039571,"current_range_meters":8800,"station_id":"ce4bhs92rcd13ifvqi0g","pricing_plan_id":"free"},{"bike_id":"176f4894-d7fc-460e-aa5d-7c8c1e206dc3","system_id":"levelo_inurba_marseille","lat":43.29699,"lon":5.36589,"is_reserved":false,"is_disabled":false,"rental_uris":{"android":"levelo://app?vid=176f4894-d7fc-460e-aa5d-7c8c1e206dc3","ios":"levelo://app?vid=176f4894-d7fc-460e-aa5d-7c8c1e206dc3"},"vehicle_type_id":"4","last_reported":1687039571,"current_range_meters":14000,"station_id":"ce4bgn12rcd13ifvqbt0","pricing_plan_id":"free"},{"bike_id":"88d0330c-5bb0-4a19-9b65-d4683b42e015","system_id":"levelo_inurba_marseille","lat":43.29683,"lon":5.36046,"is_reserved":false,"is_disabled":false,"rental_uris":{"android":"levelo://app?vid=88d0330c-5bb0-4a19-9b65-d4683b42e015","ios":"levelo://app?vid=88d0330c-5bb0-4a19-9b65-d4683b42e015"},"vehicle_type_id":"4","last_reported":1687039571,"current_range_meters":5200,"station_id":"ce4bgpp2rcd13ifvqc3g","pricing_plan_id":"free"},{"bike_id":"24f41ca5-b432-4feb-a0c8-a15026b97306","system_id":"levelo_inurba_marseille","lat":43.296131,"lon":5.370773,"is_reserved":false,"is_disabled":false,"rental_uris":{"android":"levelo://app?vid=24f41ca5-b432-4feb-a0c8-a15026b97306","ios":"levelo://app?vid=24f41ca5-b432-4feb-a0c8-a15026b97306"},"vehicle_type_id":"4","last_reported":1687039571,"current_range_meters":14400,"station_id":"ce4bgnh2rcd13ifvqc0g","pricing_plan_id":"free"},{"bike_id":"20ce8cf1-4650-4e64-902d-cbb7b19c0731","system_id":"levelo_inurba_marseille","lat":43.309589,"lon":5.390258,"is_reserved":false,"is_disabled":false,"rental_uris":{"android":"levelo://app?vid=20ce8cf1-4650-4e64-902d-cbb7b19c0731","ios":"levelo://app?vid=20ce8cf1-4650-4e64-902d-cbb7b19c0731"},"vehicle_type_id":"4","last_reported":1687039571,"current_range_meters":9600,"station_id":"ce4bgup2rcd13ifvqco0","pricing_plan_id":"free"},{"bike_id":"d5de72ab-84bd-4696-acdf-5093e90042cb","system_id":"levelo_inurba_marseille","lat":43.309589,"lon":5.390258,"is_reserved":false,"is_disabled":false,"rental_uris":{"android":"levelo://app?vid=d5de72ab-84bd-4696-acdf-5093e90042cb","ios":"levelo://app?vid=d5de72ab-84bd-4696-acdf-5093e90042cb"},"vehicle_type_id":"4","last_reported":1687039571,"current_range_meters":0,"station_id":"ce4bgup2rcd13ifvqco0","pricing_plan_id":"free"},{"bike_id":"250c8a96-8498-4211-b8f3-1b00a8d1fbaf","system_id":"levelo_inurba_marseille","lat":43.296477,"lon":5.37768,"is_reserved":false,"is_disabled":false,"rental_uris":{"android":"levelo://app?vid=250c8a96-8498-4211-b8f3-1b00a8d1fbaf","ios":"levelo://app?vid=250c8a96-8498-4211-b8f3-1b00a8d1fbaf"},"vehicle_type_id":"4","last_reported":1687039571,"current_range_meters":15200,"station_id":"","pricing_plan_id":"free"},{"bike_id":"76099af6-a7ef-4cbb-8bfe-83e730be4153","system_id":"levelo_inurba_marseille","lat":43.29567,"lon":5.37521,"is_reserved":false,"is_disabled":false,"rental_uris":{"android":"levelo://app?vid=76099af6-a7ef-4cbb-8bfe-83e730be4153","ios":"levelo://app?vid=76099af6-a7ef-4cbb-8bfe-83e730be4153"},"vehicle_type_id":"4","last_reported":1687039571,"current_range_meters":27200,"station_id":"ce4bgh92rcd13ifvqb50","pricing_plan_id":"free"},{"bike_id":"de049a9b-63c3-4ce9-85b5-77dcd621203f","system_id":"levelo_inurba_marseille","lat":43.29559,"lon":5.37526,"is_reserved":false,"is_disabled":false,"rental_uris":{"android":"levelo://app?vid=de049a9b-63c3-4ce9-85b5-77dcd621203f","ios":"levelo://app?vid=de049a9b-63c3-4ce9-85b5-77dcd621203f"},"vehicle_type_id":"4","last_reported":1687039571,"current_range_meters":18400,"station_id":"ce4bgh92rcd13ifvqb50","pricing_plan_id":"free"},{"bike_id":"eb56f040-d7e3-440c-9d05-82afe187dd21","system_id":"levelo_inurba_marseille","lat":43.299717,"lon":5.384845,"is_reserved":false,"is_disabled":false,"rental_uris":{"android":"levelo://app?vid=eb56f040-d7e3-440c-9d05-82afe187dd21","ios":"levelo://app?vid=eb56f040-d7e3-440c-9d05-82afe187dd21"},"vehicle_type_id":"4","last_reported":1687039571,"current_range_meters":30800,"station_id":"ce4bgj92rcd13ifvqbd0","pricing_plan_id":"free"},{"bike_id":"2c9ad911-25e0-4222-8751-d809dfadd582","system_id":"levelo_inurba_marseille","lat":43.32368,"lon":5.38854,"is_reserved":false,"is_disabled":false,"rental_uris":{"android":"levelo://app?vid=2c9ad911-25e0-4222-8751-d809dfadd582","ios":"levelo://app?vid=2c9ad911-25e0-4222-8751-d809dfadd582"},"vehicle_type_id":"4","last_reported":1687039571,"current_range_meters":24000,"station_id":"ce4bhqp2rcd13ifvqhog","pricing_plan_id":"free"},{"bike_id":"c25bbca6-334a-48c9-b2aa-c69eb97c9d81","system_id":"levelo_inurba_marseille","lat":43.32367,"lon":5.388836,"is_reserved":false,"is_disabled":false,"rental_uris":{"android":"levelo://app?vid=c25bbca6-334a-48c9-b2aa-c69eb97c9d81","ios":"levelo://app?vid=c25bbca6-334a-48c9-b2aa-c69eb97c9d81"},"vehicle_type_id":"4","last_reported":1687039571,"current_range_meters":13200,"station_id":"ce4bhqp2rcd13ifvqhog","pricing_plan_id":"free"},{"bike_id":"6bf2229b-f534-4647-b322-42cb17c0e26c","system_id":"levelo_inurba_marseille","lat":43.32361,"lon":5.38884,"is_reserved":false,"is_disabled":false,"rental_uris":{"android":"levelo://app?vid=6bf2229b-f534-4647-b322-42cb17c0e26c","ios":"levelo://app?vid=6bf2229b-f534-4647-b322-42cb17c0e26c"},"vehicle_type_id":"4","last_reported":1687039571,"current_range_meters":17600,"station_id":"ce4bhqp2rcd13ifvqhog","pricing_plan_id":"free"},{"bike_id":"a5d34394-8ea3-4622-ac56-bc8a8abe2d11","system_id":"levelo_inurba_marseille","lat":43.32367,"lon":5.388836,"is_reserved":false,"is_disabled":false,"rental_uris":{"android":"levelo://app?vid=a5d34394-8ea3-4622-ac56-bc8a8abe2d11","ios":"levelo://app?vid=a5d34394-8ea3-4622-ac56-bc8a8abe2d11"},"vehicle_type_id":"4","last_reported":1687039571,"current_range_meters":1200,"station_id":"ce4bhqp2rcd13ifvqhog","pricing_plan_id":"free"},{"bike_id":"bd5e051b-6414-4247-b6a0-72183ead9f6c","system_id":"levelo_inurba_marseille","lat":43.3198,"lon":5.39193,"is_reserved":false,"is_disabled":false,"rental_uris":{"android":"levelo://app?vid=bd5e051b-6414-4247-b6a0-72183ead9f6c","ios":"levelo://app?vid=bd5e051b-6414-4247-b6a0-72183ead9f6c"},"vehicle_type_id":"4","last_reported":1687039571,"current_range_meters":8400,"station_id":"","pricing_plan_id":"free"},{"bike_id":"42a65487-8629-410d-96b5-324dafb063e8","system_id":"levelo_inurba_marseille","lat":43.292749,"lon":5.368398,"is_reserved":false,"is_disabled":false,"rental_uris":{"android":"levelo://app?vid=42a65487-8629-410d-96b5-324dafb063e8","ios":"levelo://app?vid=42a65487-8629-410d-96b5-324dafb063e8"},"vehicle_type_id":"4","last_reported":1687039571,"current_range_meters":8800,"station_id":"ce4bhbp2rcd13ifvqesg","pricing_plan_id":"free"},{"bike_id":"29cb60db-e7c9-4b9d-a3ff-a7954cc4cc48","system_id":"levelo_inurba_marseille","lat":43.292749,"lon":5.368398,"is_reserved":false,"is_disabled":false,"rental_uris":{"android":"levelo://app?vid=29cb60db-e7c9-4b9d-a3ff-a7954cc4cc48","ios":"levelo://app?vid=29cb60db-e7c9-4b9d-a3ff-a7954cc4cc48"},"vehicle_type_id":"4","last_reported":1687039571,"current_range_meters":31200,"station_id":"ce4bhbp2rcd13ifvqesg","pricing_plan_id":"free"},{"bike_id":"177e7726-e1aa-4531-a4d2-6e61b545d53a","system_id":"levelo_inurba_marseille","lat":43.305994,"lon":5.393687,"is_reserved":false,"is_disabled":false,"rental_uris":{"android":"levelo://app?vid=177e7726-e1aa-4531-a4d2-6e61b545d53a","ios":"levelo://app?vid=177e7726-e1aa-4531-a4d2-6e61b545d53a"},"vehicle_type_id":"4","last_reported":1687039571,"current_range_meters":13200,"station_id":"ce4bh0p2rcd13ifvqd80","pricing_plan_id":"free"},{"bike_id":"483b5078-af06-4c64-8807-7ff712ebc304","system_id":"levelo_inurba_marseille","lat":43.30302,"lon":5.39201,"is_reserved":false,"is_disabled":false,"rental_uris":{"android":"levelo://app?vid=483b5078-af06-4c64-8807-7ff712ebc304","ios":"levelo://app?vid=483b5078-af06-4c64-8807-7ff712ebc304"},"vehicle_type_id":"4","last_reported":1687039571,"current_range_meters":8000,"station_id":"ce4bgkh2rcd13ifvqbk0","pricing_plan_id":"free"},{"bike_id":"c98865ac-0aec-48d7-b62b-e4ad22f43884","system_id":"levelo_inurba_marseille","lat":43.302992,"lon":5.392136,"is_reserved":false,"is_disabled":false,"rental_uris":{"android":"levelo://app?vid=c98865ac-0aec-48d7-b62b-e4ad22f43884","ios":"levelo://app?vid=c98865ac-0aec-48d7-b62b-e4ad22f43884"},"vehicle_type_id":"4","last_reported":1687039571,"current_range_meters":3200,"station_id":"ce4bgkh2rcd13ifvqbk0","pricing_plan_id":"free"},{"bike_id":"c2a9e8bd-85fd-469d-8568-90e564cbadc9","system_id":"levelo_inurba_marseille","lat":43.302992,"lon":5.392136,"is_reserved":false,"is_disabled":false,"rental_uris":{"android":"levelo://app?vid=c2a9e8bd-85fd-469d-8568-90e564cbadc9","ios":"levelo://app?vid=c2a9e8bd-85fd-469d-8568-90e564cbadc9"},"vehicle_type_id":"4","last_reported":1687039571,"current_range_meters":14000,"station_id":"ce4bgkh2rcd13ifvqbk0","pricing_plan_id":"free"},{"bike_id":"e178cc72-5331-47c4-8e48-2cffaee869c4","system_id":"levelo_inurba_marseille","lat":43.302992,"lon":5.392136,"is_reserved":false,"is_disabled":false,"rental_uris":{"android":"levelo://app?vid=e178cc72-5331-47c4-8e48-2cffaee869c4","ios":"levelo://app?vid=e178cc72-5331-47c4-8e48-2cffaee869c4"},"vehicle_type_id":"4","last_reported":1687039571,"current_range_meters":7200,"station_id":"ce4bgkh2rcd13ifvqbk0","pricing_plan_id":"free"},{"bike_id":"d830f3c8-dff9-4855-95b4-b66fc21b0ff0","system_id":"levelo_inurba_marseille","lat":43.2937,"lon":5.37855,"is_reserved":false,"is_disabled":false,"rental_uris":{"android":"levelo://app?vid=d830f3c8-dff9-4855-95b4-b66fc21b0ff0","ios":"levelo://app?vid=d830f3c8-dff9-4855-95b4-b66fc21b0ff0"},"vehicle_type_id":"4","last_reported":1687039571,"current_range_meters":22000,"station_id":"ce4bgjh2rcd13ifvqbf0","pricing_plan_id":"free"},{"bike_id":"fea58113-5148-4596-9608-8a7f92a0921c","system_id":"levelo_inurba_marseille","lat":43.291675,"lon":5.371583,"is_reserved":false,"is_disabled":false,"rental_uris":{"android":"levelo://app?vid=fea58113-5148-4596-9608-8a7f92a0921c","ios":"levelo://app?vid=fea58113-5148-4596-9608-8a7f92a0921c"},"vehicle_type_id":"4","last_reported":1687039571,"current_range_meters":1200,"station_id":"ce4bha92rcd13ifvqeh0","pricing_plan_id":"free"},{"bike_id":"66f74f47-f768-4932-b5bf-137177fa21bc","system_id":"levelo_inurba_marseille","lat":43.289184,"lon":5.366408,"is_reserved":false,"is_disabled":false,"rental_uris":{"android":"levelo://app?vid=66f74f47-f768-4932-b5bf-137177fa21bc","ios":"levelo://app?vid=66f74f47-f768-4932-b5bf-137177fa21bc"},"vehicle_type_id":"4","last_reported":1687039571,"current_range_meters":4000,"station_id":"ce4bhap2rcd13ifvqek0","pricing_plan_id":"free"},{"bike_id":"9fae794a-e187-4180-bed5-fa48ac0be0a0","system_id":"levelo_inurba_marseille","lat":43.289468,"lon":5.363719,"is_reserved":false,"is_disabled":false,"rental_uris":{"android":"levelo://app?vid=9fae794a-e187-4180-bed5-fa48ac0be0a0","ios":"levelo://app?vid=9fae794a-e187-4180-bed5-fa48ac0be0a0"},"vehicle_type_id":"4","last_reported":1687039571,"current_range_meters":31200,"station_id":"ce4bhc92rcd13ifvqetg","pricing_plan_id":"free"},{"bike_id":"9dca89d5-e7d6-4b54-967b-f6a0e921d6d8","system_id":"levelo_inurba_marseille","lat":43.292644,"lon":5.384257,"is_reserved":false,"is_disabled":false,"rental_uris":{"android":"levelo://app?vid=9dca89d5-e7d6-4b54-967b-f6a0e921d6d8","ios":"levelo://app?vid=9dca89d5-e7d6-4b54-967b-f6a0e921d6d8"},"vehicle_type_id":"4","last_reported":1687039571,"current_range_meters":30000,"station_id":"ce4bh692rcd13ifvqea0","pricing_plan_id":"free"},{"bike_id":"38eb09af-7166-42b9-865e-84246929498f","system_id":"levelo_inurba_marseille","lat":43.292642,"lon":5.384254,"is_reserved":false,"is_disabled":false,"rental_uris":{"android":"levelo://app?vid=38eb09af-7166-42b9-865e-84246929498f","ios":"levelo://app?vid=38eb09af-7166-42b9-865e-84246929498f"},"vehicle_type_id":"4","last_reported":1687039571,"current_range_meters":31200,"station_id":"ce4bh692rcd13ifvqea0","pricing_plan_id":"free"},{"bike_id":"cde74307-d47e-4f82-8f97-105d6c2472cf","system_id":"levelo_inurba_marseille","lat":43.33044,"lon":5.38915,"is_reserved":false,"is_disabled":false,"rental_uris":{"android":"levelo://app?vid=cde74307-d47e-4f82-8f97-105d6c2472cf","ios":"levelo://app?vid=cde74307-d47e-4f82-8f97-105d6c2472cf"},"vehicle_type_id":"4","last_reported":1687039571,"current_range_meters":30800,"station_id":"ce4bhr92rcd13ifvqhrg","pricing_plan_id":"free"},{"bike_id":"46a8e731-9ddb-4ace-907b-cbe70799f0ca","system_id":"levelo_inurba_marseille","lat":43.330442,"lon":5.389148,"is_reserved":false,"is_disabled":false,"rental_uris":{"android":"levelo://app?vid=46a8e731-9ddb-4ace-907b-cbe70799f0ca","ios":"levelo://app?vid=46a8e731-9ddb-4ace-907b-cbe70799f0ca"},"vehicle_type_id":"4","last_reported":1687039571,"current_range_meters":30800,"station_id":"ce4bhr92rcd13ifvqhrg","pricing_plan_id":"free"},{"bike_id":"e78022f8-c60a-4d3f-8608-3ba74f18b5e2","system_id":"levelo_inurba_marseille","lat":43.290104,"lon":5.356111,"is_reserved":false,"is_disabled":false,"rental_uris":{"android":"levelo://app?vid=e78022f8-c60a-4d3f-8608-3ba74f18b5e2","ios":"levelo://app?vid=e78022f8-c60a-4d3f-8608-3ba74f18b5e2"},"vehicle_type_id":"4","last_reported":1687039571,"current_range_meters":23600,"station_id":"ce4bhb92rcd13ifvqen0","pricing_plan_id":"free"},{"bike_id":"af779039-8539-4a60-9c5e-b3e41fc1f3ab","system_id":"levelo_inurba_marseille","lat":43.33046,"lon":5.38915,"is_reserved":false,"is_disabled":false,"rental_uris":{"android":"levelo://app?vid=af779039-8539-4a60-9c5e-b3e41fc1f3ab","ios":"levelo://app?vid=af779039-8539-4a60-9c5e-b3e41fc1f3ab"},"vehicle_type_id":"4","last_reported":1687039571,"current_range_meters":20000,"station_id":"ce4bhr92rcd13ifvqhrg","pricing_plan_id":"free"},{"bike_id":"7a19f85c-3a1e-497c-ac40-4aee991e94ff","system_id":"levelo_inurba_marseille","lat":43.330442,"lon":5.389148,"is_reserved":false,"is_disabled":false,"rental_uris":{"android":"levelo://app?vid=7a19f85c-3a1e-497c-ac40-4aee991e94ff","ios":"levelo://app?vid=7a19f85c-3a1e-497c-ac40-4aee991e94ff"},"vehicle_type_id":"4","last_reported":1687039571,"current_range_meters":31200,"station_id":"ce4bhr92rcd13ifvqhrg","pricing_plan_id":"free"},{"bike_id":"95c066a4-e4d6-47f9-9ac2-324b145985cd","system_id":"levelo_inurba_marseille","lat":43.330442,"lon":5.389148,"is_reserved":false,"is_disabled":false,"rental_uris":{"android":"levelo://app?vid=95c066a4-e4d6-47f9-9ac2-324b145985cd","ios":"levelo://app?vid=95c066a4-e4d6-47f9-9ac2-324b145985cd"},"vehicle_type_id":"4","last_reported":1687039571,"current_range_meters":14800,"station_id":"ce4bhr92rcd13ifvqhrg","pricing_plan_id":"free"},{"bike_id":"23eeb573-4448-424f-96da-b3546939297b","system_id":"levelo_inurba_marseille","lat":43.290104,"lon":5.356111,"is_reserved":false,"is_disabled":false,"rental_uris":{"android":"levelo://app?vid=23eeb573-4448-424f-96da-b3546939297b","ios":"levelo://app?vid=23eeb573-4448-424f-96da-b3546939297b"},"vehicle_type_id":"4","last_reported":1687039571,"current_range_meters":28400,"station_id":"ce4bhb92rcd13ifvqen0","pricing_plan_id":"free"},{"bike_id":"a6fa5d2e-257b-4d29-b15b-ced973c9f431","system_id":"levelo_inurba_marseille","lat":43.330454,"lon":5.389209,"is_reserved":false,"is_disabled":false,"rental_uris":{"android":"levelo://app?vid=a6fa5d2e-257b-4d29-b15b-ced973c9f431","ios":"levelo://app?vid=a6fa5d2e-257b-4d29-b15b-ced973c9f431"},"vehicle_type_id":"4","last_reported":1687039571,"current_range_meters":4800,"station_id":"","pricing_plan_id":"free"},{"bike_id":"c0c5bf50-0bc5-4a0b-a755-eb9213e0434d","system_id":"levelo_inurba_marseille","lat":43.29096,"lon":5.3813,"is_reserved":false,"is_disabled":false,"rental_uris":{"android":"levelo://app?vid=c0c5bf50-0bc5-4a0b-a755-eb9213e0434d","ios":"levelo://app?vid=c0c5bf50-0bc5-4a0b-a755-eb9213e0434d"},"vehicle_type_id":"4","last_reported":1687039571,"current_range_meters":31200,"station_id":"ce4bh512rcd13ifvqe2g","pricing_plan_id":"free"},{"bike_id":"c196bfc0-6f2d-4840-8014-74cae0399758","system_id":"levelo_inurba_marseille","lat":43.29094,"lon":5.38126,"is_reserved":false,"is_disabled":false,"rental_uris":{"android":"levelo://app?vid=c196bfc0-6f2d-4840-8014-74cae0399758","ios":"levelo://app?vid=c196bfc0-6f2d-4840-8014-74cae0399758"},"vehicle_type_id":"4","last_reported":1687039571,"current_range_meters":31200,"station_id":"ce4bh512rcd13ifvqe2g","pricing_plan_id":"free"},{"bike_id":"32b0b4c3-2cbc-4763-8573-9d80d9a50de3","system_id":"levelo_inurba_marseille","lat":43.29091,"lon":5.38138,"is_reserved":false,"is_disabled":false,"rental_uris":{"android":"levelo://app?vid=32b0b4c3-2cbc-4763-8573-9d80d9a50de3","ios":"levelo://app?vid=32b0b4c3-2cbc-4763-8573-9d80d9a50de3"},"vehicle_type_id":"4","last_reported":1687039571,"current_range_meters":26000,"station_id":"","pricing_plan_id":"free"},{"bike_id":"b9b44b37-7edf-4ab6-8685-17eb58a26dbc","system_id":"levelo_inurba_marseille","lat":43.295169,"lon":5.390426,"is_reserved":false,"is_disabled":false,"rental_uris":{"android":"levelo://app?vid=b9b44b37-7edf-4ab6-8685-17eb58a26dbc","ios":"levelo://app?vid=b9b44b37-7edf-4ab6-8685-17eb58a26dbc"},"vehicle_type_id":"4","last_reported":1687039571,"current_range_meters":30000,"station_id":"ce4bh3p2rcd13ifvqdp0","pricing_plan_id":"free"},{"bike_id":"40e59e64-9295-42a0-9590-a684a2d1ed78","system_id":"levelo_inurba_marseille","lat":43.330442,"lon":5.389148,"is_reserved":false,"is_disabled":false,"rental_uris":{"android":"levelo://app?vid=40e59e64-9295-42a0-9590-a684a2d1ed78","ios":"levelo://app?vid=40e59e64-9295-42a0-9590-a684a2d1ed78"},"vehicle_type_id":"4","last_reported":1687039571,"current_range_meters":19600,"station_id":"ce4bhr92rcd13ifvqhrg","pricing_plan_id":"free"},{"bike_id":"2c61e288-c6ea-42a7-a7e6-3adc41ce6c8c","system_id":"levelo_inurba_marseille","lat":43.28856,"lon":5.358371,"is_reserved":false,"is_disabled":false,"rental_uris":{"android":"levelo://app?vid=2c61e288-c6ea-42a7-a7e6-3adc41ce6c8c","ios":"levelo://app?vid=2c61e288-c6ea-42a7-a7e6-3adc41ce6c8c"},"vehicle_type_id":"4","last_reported":1687039571,"current_range_meters":22000,"station_id":"ce4bhb12rcd13ifvqem0","pricing_plan_id":"free"},{"bike_id":"828e6b40-3bc1-43bd-bfd5-eeb2f48ee34a","system_id":"levelo_inurba_marseille","lat":43.2901,"lon":5.381269,"is_reserved":false,"is_disabled":false,"rental_uris":{"android":"levelo://app?vid=828e6b40-3bc1-43bd-bfd5-eeb2f48ee34a","ios":"levelo://app?vid=828e6b40-3bc1-43bd-bfd5-eeb2f48ee34a"},"vehicle_type_id":"4","last_reported":1687039571,"current_range_meters":28800,"station_id":"ce4bh4p2rcd13ifvqe1g","pricing_plan_id":"free"},{"bike_id":"8dbd347e-71d1-4f5a-8553-aed6e2c7c58a","system_id":"levelo_inurba_marseille","lat":43.2901,"lon":5.381269,"is_reserved":false,"is_disabled":false,"rental_uris":{"android":"levelo://app?vid=8dbd347e-71d1-4f5a-8553-aed6e2c7c58a","ios":"levelo://app?vid=8dbd347e-71d1-4f5a-8553-aed6e2c7c58a"},"vehicle_type_id":"4","last_reported":1687039571,"current_range_meters":0,"station_id":"ce4bh4p2rcd13ifvqe1g","pricing_plan_id":"free"},{"bike_id":"c0fb8083-e02d-4dec-b1b9-fa095e6c5b75","system_id":"levelo_inurba_marseille","lat":43.337396,"lon":5.374526,"is_reserved":false,"is_disabled":false,"rental_uris":{"android":"levelo://app?vid=c0fb8083-e02d-4dec-b1b9-fa095e6c5b75","ios":"levelo://app?vid=c0fb8083-e02d-4dec-b1b9-fa095e6c5b75"},"vehicle_type_id":"4","last_reported":1687039571,"current_range_meters":0,"station_id":"ce4bhp92rcd13ifvqhag","pricing_plan_id":"free"},{"bike_id":"41a8749b-6d93-4d1b-8e52-c5f60f65ae7c","system_id":"levelo_inurba_marseille","lat":43.33752,"lon":5.37443,"is_reserved":false,"is_disabled":false,"rental_uris":{"android":"levelo://app?vid=41a8749b-6d93-4d1b-8e52-c5f60f65ae7c","ios":"levelo://app?vid=41a8749b-6d93-4d1b-8e52-c5f60f65ae7c"},"vehicle_type_id":"4","last_reported":1687039571,"current_range_meters":29200,"station_id":"","pricing_plan_id":"free"},{"bike_id":"0a863b74-b1d7-4a4d-b636-8de9698db32b","system_id":"levelo_inurba_marseille","lat":43.30642,"lon":5.401031,"is_reserved":false,"is_disabled":false,"rental_uris":{"android":"levelo://app?vid=0a863b74-b1d7-4a4d-b636-8de9698db32b","ios":"levelo://app?vid=0a863b74-b1d7-4a4d-b636-8de9698db32b"},"vehicle_type_id":"4","last_reported":1687039571,"current_range_meters":13600,"station_id":"ce4bh112rcd13ifvqda0","pricing_plan_id":"free"},{"bike_id":"9fc2d521-b395-4924-8b62-ed7954c12a57","system_id":"levelo_inurba_marseille","lat":43.30642,"lon":5.401031,"is_reserved":false,"is_disabled":false,"rental_uris":{"android":"levelo://app?vid=9fc2d521-b395-4924-8b62-ed7954c12a57","ios":"levelo://app?vid=9fc2d521-b395-4924-8b62-ed7954c12a57"},"vehicle_type_id":"4","last_reported":1687039571,"current_range_meters":26000,"station_id":"ce4bh112rcd13ifvqda0","pricing_plan_id":"free"},{"bike_id":"9f360811-6b61-43c1-aa2c-be545695506d","system_id":"levelo_inurba_marseille","lat":43.301117,"lon":5.398795,"is_reserved":false,"is_disabled":false,"rental_uris":{"android":"levelo://app?vid=9f360811-6b61-43c1-aa2c-be545695506d","ios":"levelo://app?vid=9f360811-6b61-43c1-aa2c-be545695506d"},"vehicle_type_id":"4","last_reported":1687039571,"current_range_meters":20400,"station_id":"ce4bh0h2rcd13ifvqd40","pricing_plan_id":"free"},{"bike_id":"3bf9373c-9dae-447f-9e67-31d6d48fd876","system_id":"levelo_inurba_marseille","lat":43.298681,"lon":5.397225,"is_reserved":false,"is_disabled":false,"rental_uris":{"android":"levelo://app?vid=3bf9373c-9dae-447f-9e67-31d6d48fd876","ios":"levelo://app?vid=3bf9373c-9dae-447f-9e67-31d6d48fd876"},"vehicle_type_id":"4","last_reported":1687039571,"current_range_meters":2000,"station_id":"ce4bh0h2rcd13ifvqd50","pricing_plan_id":"free"},{"bike_id":"f22778d2-d576-4706-8121-0538b06cb53d","system_id":"levelo_inurba_marseille","lat":43.298681,"lon":5.397225,"is_reserved":false,"is_disabled":false,"rental_uris":{"android":"levelo://app?vid=f22778d2-d576-4706-8121-0538b06cb53d","ios":"levelo://app?vid=f22778d2-d576-4706-8121-0538b06cb53d"},"vehicle_type_id":"4","last_reported":1687039571,"current_range_meters":23200,"station_id":"ce4bh0h2rcd13ifvqd50","pricing_plan_id":"free"},{"bike_id":"cf7fdb9c-a992-4bf2-a332-81d775f91782","system_id":"levelo_inurba_marseille","lat":43.298681,"lon":5.397225,"is_reserved":false,"is_disabled":false,"rental_uris":{"android":"levelo://app?vid=cf7fdb9c-a992-4bf2-a332-81d775f91782","ios":"levelo://app?vid=cf7fdb9c-a992-4bf2-a332-81d775f91782"},"vehicle_type_id":"4","last_reported":1687039571,"current_range_meters":15200,"station_id":"ce4bh0h2rcd13ifvqd50","pricing_plan_id":"free"},{"bike_id":"383bdd14-b339-4cca-bc84-80806c90cc15","system_id":"levelo_inurba_marseille","lat":43.286961,"lon":5.373785,"is_reserved":false,"is_disabled":false,"rental_uris":{"android":"levelo://app?vid=383bdd14-b339-4cca-bc84-80806c90cc15","ios":"levelo://app?vid=383bdd14-b339-4cca-bc84-80806c90cc15"},"vehicle_type_id":"4","last_reported":1687039571,"current_range_meters":400,"station_id":"ce4bh3p2rcd13ifvqdq0","pricing_plan_id":"free"},{"bike_id":"7ef3ea55-fcae-4575-ad3d-5f2ad8d63eca","system_id":"levelo_inurba_marseille","lat":43.298681,"lon":5.397225,"is_reserved":false,"is_disabled":false,"rental_uris":{"android":"levelo://app?vid=7ef3ea55-fcae-4575-ad3d-5f2ad8d63eca","ios":"levelo://app?vid=7ef3ea55-fcae-4575-ad3d-5f2ad8d63eca"},"vehicle_type_id":"4","last_reported":1687039571,"current_range_meters":20400,"station_id":"ce4bh0h2rcd13ifvqd50","pricing_plan_id":"free"},{"bike_id":"93369fd3-5575-41cd-a635-fc72f719be1a","system_id":"levelo_inurba_marseille","lat":43.286591,"lon":5.363346,"is_reserved":false,"is_disabled":false,"rental_uris":{"android":"levelo://app?vid=93369fd3-5575-41cd-a635-fc72f719be1a","ios":"levelo://app?vid=93369fd3-5575-41cd-a635-fc72f719be1a"},"vehicle_type_id":"4","last_reported":1687039571,"current_range_meters":23600,"station_id":"ce4bhah2rcd13ifvqej0","pricing_plan_id":"free"},{"bike_id":"28567b30-efa8-4634-b755-8608e455ab89","system_id":"levelo_inurba_marseille","lat":43.290345,"lon":5.38646,"is_reserved":false,"is_disabled":false,"rental_uris":{"android":"levelo://app?vid=28567b30-efa8-4634-b755-8608e455ab89","ios":"levelo://app?vid=28567b30-efa8-4634-b755-8608e455ab89"},"vehicle_type_id":"4","last_reported":1687039571,"current_range_meters":23600,"station_id":"ce4bh4p2rcd13ifvqe0g","pricing_plan_id":"free"},{"bike_id":"0cdc2b33-91ae-4877-bf62-657c4383314d","system_id":"levelo_inurba_marseille","lat":43.302759,"lon":5.400793,"is_reserved":false,"is_disabled":false,"rental_uris":{"android":"levelo://app?vid=0cdc2b33-91ae-4877-bf62-657c4383314d","ios":"levelo://app?vid=0cdc2b33-91ae-4877-bf62-657c4383314d"},"vehicle_type_id":"4","last_reported":1687039571,"current_range_meters":14800,"station_id":"ce4bgvh2rcd13ifvqcs0","pricing_plan_id":"free"},{"bike_id":"8f392288-48e8-4530-bc9b-7a4bd7128a0b","system_id":"levelo_inurba_marseille","lat":43.302759,"lon":5.400793,"is_reserved":false,"is_disabled":false,"rental_uris":{"android":"levelo://app?vid=8f392288-48e8-4530-bc9b-7a4bd7128a0b","ios":"levelo://app?vid=8f392288-48e8-4530-bc9b-7a4bd7128a0b"},"vehicle_type_id":"4","last_reported":1687039571,"current_range_meters":8000,"station_id":"ce4bgvh2rcd13ifvqcs0","pricing_plan_id":"free"},{"bike_id":"2948e002-dfbf-4e12-a6e4-4a434e73c2e4","system_id":"levelo_inurba_marseille","lat":43.287184,"lon":5.37937,"is_reserved":false,"is_disabled":false,"rental_uris":{"android":"levelo://app?vid=2948e002-dfbf-4e12-a6e4-4a434e73c2e4","ios":"levelo://app?vid=2948e002-dfbf-4e12-a6e4-4a434e73c2e4"},"vehicle_type_id":"4","last_reported":1687039571,"current_range_meters":13200,"station_id":"ce4bh9p2rcd13ifvqec0","pricing_plan_id":"free"},{"bike_id":"a278104e-0224-471b-bf69-08650d5c2d32","system_id":"levelo_inurba_marseille","lat":43.29213,"lon":5.39314,"is_reserved":false,"is_disabled":false,"rental_uris":{"android":"levelo://app?vid=a278104e-0224-471b-bf69-08650d5c2d32","ios":"levelo://app?vid=a278104e-0224-471b-bf69-08650d5c2d32"},"vehicle_type_id":"4","last_reported":1687039571,"current_range_meters":14800,"station_id":"","pricing_plan_id":"free"},{"bike_id":"a439a2bc-e8e7-4820-8db0-ff1baed640e5","system_id":"levelo_inurba_marseille","lat":43.29208,"lon":5.39319,"is_reserved":false,"is_disabled":false,"rental_uris":{"android":"levelo://app?vid=a439a2bc-e8e7-4820-8db0-ff1baed640e5","ios":"levelo://app?vid=a439a2bc-e8e7-4820-8db0-ff1baed640e5"},"vehicle_type_id":"4","last_reported":1687039571,"current_range_meters":0,"station_id":"ce4bh192rcd13ifvqdd0","pricing_plan_id":"free"},{"bike_id":"0017d863-7b8b-4946-893b-6af1153e805e","system_id":"levelo_inurba_marseille","lat":43.29206,"lon":5.39321,"is_reserved":false,"is_disabled":false,"rental_uris":{"android":"levelo://app?vid=0017d863-7b8b-4946-893b-6af1153e805e","ios":"levelo://app?vid=0017d863-7b8b-4946-893b-6af1153e805e"},"vehicle_type_id":"4","last_reported":1687039571,"current_range_meters":18400,"station_id":"ce4bh192rcd13ifvqdd0","pricing_plan_id":"free"},{"bike_id":"bda99b23-0a41-43b1-96f0-d27d00b35840","system_id":"levelo_inurba_marseille","lat":43.29197,"lon":5.39313,"is_reserved":false,"is_disabled":false,"rental_uris":{"android":"levelo://app?vid=bda99b23-0a41-43b1-96f0-d27d00b35840","ios":"levelo://app?vid=bda99b23-0a41-43b1-96f0-d27d00b35840"},"vehicle_type_id":"4","last_reported":1687039571,"current_range_meters":29200,"station_id":"ce4bh192rcd13ifvqdd0","pricing_plan_id":"free"},{"bike_id":"6d9e43eb-65ac-4c02-a5d9-a28328f0519e","system_id":"levelo_inurba_marseille","lat":43.284534,"lon":5.358662,"is_reserved":false,"is_disabled":false,"rental_uris":{"android":"levelo://app?vid=6d9e43eb-65ac-4c02-a5d9-a28328f0519e","ios":"levelo://app?vid=6d9e43eb-65ac-4c02-a5d9-a28328f0519e"},"vehicle_type_id":"4","last_reported":1687039571,"current_range_meters":28000,"station_id":"ce4bhah2rcd13ifvqei0","pricing_plan_id":"free"},{"bike_id":"003a321a-14a1-4f8f-a67a-c4042c0fa0cc","system_id":"levelo_inurba_marseille","lat":43.284534,"lon":5.358662,"is_reserved":false,"is_disabled":false,"rental_uris":{"android":"levelo://app?vid=003a321a-14a1-4f8f-a67a-c4042c0fa0cc","ios":"levelo://app?vid=003a321a-14a1-4f8f-a67a-c4042c0fa0cc"},"vehicle_type_id":"4","last_reported":1687039571,"current_range_meters":6400,"station_id":"ce4bhah2rcd13ifvqei0","pricing_plan_id":"free"},{"bike_id":"ff30f783-ec47-425f-b8ee-47edd928e37b","system_id":"levelo_inurba_marseille","lat":43.284534,"lon":5.358662,"is_reserved":false,"is_disabled":false,"rental_uris":{"android":"levelo://app?vid=ff30f783-ec47-425f-b8ee-47edd928e37b","ios":"levelo://app?vid=ff30f783-ec47-425f-b8ee-47edd928e37b"},"vehicle_type_id":"4","last_reported":1687039571,"current_range_meters":30400,"station_id":"ce4bhah2rcd13ifvqei0","pricing_plan_id":"free"},{"bike_id":"9a29b68f-9b34-4ab4-8a98-bb3f8a7237ae","system_id":"levelo_inurba_marseille","lat":43.284534,"lon":5.358662,"is_reserved":false,"is_disabled":false,"rental_uris":{"android":"levelo://app?vid=9a29b68f-9b34-4ab4-8a98-bb3f8a7237ae","ios":"levelo://app?vid=9a29b68f-9b34-4ab4-8a98-bb3f8a7237ae"},"vehicle_type_id":"4","last_reported":1687039571,"current_range_meters":3200,"station_id":"ce4bhah2rcd13ifvqei0","pricing_plan_id":"free"},{"bike_id":"b7defab1-3370-4466-a46d-e6c1ef3c228a","system_id":"levelo_inurba_marseille","lat":43.284534,"lon":5.358662,"is_reserved":false,"is_disabled":false,"rental_uris":{"android":"levelo://app?vid=b7defab1-3370-4466-a46d-e6c1ef3c228a","ios":"levelo://app?vid=b7defab1-3370-4466-a46d-e6c1ef3c228a"},"vehicle_type_id":"4","last_reported":1687039571,"current_range_meters":22400,"station_id":"ce4bhah2rcd13ifvqei0","pricing_plan_id":"free"},{"bike_id":"d96eb2d8-7bd8-472d-b4cd-4d3ebf3f0414","system_id":"levelo_inurba_marseille","lat":43.29445,"lon":5.39748,"is_reserved":false,"is_disabled":false,"rental_uris":{"android":"levelo://app?vid=d96eb2d8-7bd8-472d-b4cd-4d3ebf3f0414","ios":"levelo://app?vid=d96eb2d8-7bd8-472d-b4cd-4d3ebf3f0414"},"vehicle_type_id":"4","last_reported":1687039571,"current_range_meters":5200,"station_id":"ce4bh3h2rcd13ifvqdo0","pricing_plan_id":"free"},{"bike_id":"db1337bc-ed9a-4fc6-8282-2523f7051261","system_id":"levelo_inurba_marseille","lat":43.295713,"lon":5.399639,"is_reserved":false,"is_disabled":false,"rental_uris":{"android":"levelo://app?vid=db1337bc-ed9a-4fc6-8282-2523f7051261","ios":"levelo://app?vid=db1337bc-ed9a-4fc6-8282-2523f7051261"},"vehicle_type_id":"4","last_reported":1687039571,"current_range_meters":13200,"station_id":"ce4bh312rcd13ifvqdj0","pricing_plan_id":"free"},{"bike_id":"21ce4222-4b8c-4160-8b44-d500cdc7e84e","system_id":"levelo_inurba_marseille","lat":43.295713,"lon":5.399639,"is_reserved":false,"is_disabled":false,"rental_uris":{"android":"levelo://app?vid=21ce4222-4b8c-4160-8b44-d500cdc7e84e","ios":"levelo://app?vid=21ce4222-4b8c-4160-8b44-d500cdc7e84e"},"vehicle_type_id":"4","last_reported":1687039571,"current_range_meters":16800,"station_id":"ce4bh312rcd13ifvqdj0","pricing_plan_id":"free"},{"bike_id":"dd6b45c9-9fcf-4490-b512-3b548e681d97","system_id":"levelo_inurba_marseille","lat":43.295713,"lon":5.399639,"is_reserved":false,"is_disabled":false,"rental_uris":{"android":"levelo://app?vid=dd6b45c9-9fcf-4490-b512-3b548e681d97","ios":"levelo://app?vid=dd6b45c9-9fcf-4490-b512-3b548e681d97"},"vehicle_type_id":"4","last_reported":1687039571,"current_range_meters":11200,"station_id":"ce4bh312rcd13ifvqdj0","pricing_plan_id":"free"},{"bike_id":"43275ef6-770c-4f0e-926c-1c3aecd7abec","system_id":"levelo_inurba_marseille","lat":43.287909,"lon":5.390554,"is_reserved":false,"is_disabled":false,"rental_uris":{"android":"levelo://app?vid=43275ef6-770c-4f0e-926c-1c3aecd7abec","ios":"levelo://app?vid=43275ef6-770c-4f0e-926c-1c3aecd7abec"},"vehicle_type_id":"4","last_reported":1687039571,"current_range_meters":14800,"station_id":"","pricing_plan_id":"free"},{"bike_id":"16e5fedd-6e86-436a-a0a2-72c7cd60a6ea","system_id":"levelo_inurba_marseille","lat":43.323464,"lon":5.406297,"is_reserved":false,"is_disabled":false,"rental_uris":{"android":"levelo://app?vid=16e5fedd-6e86-436a-a0a2-72c7cd60a6ea","ios":"levelo://app?vid=16e5fedd-6e86-436a-a0a2-72c7cd60a6ea"},"vehicle_type_id":"4","last_reported":1687039571,"current_range_meters":29600,"station_id":"ce4bhq92rcd13ifvqhjg","pricing_plan_id":"free"},{"bike_id":"c32e253f-1689-41c9-98eb-e4a61fae27ba","system_id":"levelo_inurba_marseille","lat":43.284793,"lon":5.384113,"is_reserved":false,"is_disabled":false,"rental_uris":{"android":"levelo://app?vid=c32e253f-1689-41c9-98eb-e4a61fae27ba","ios":"levelo://app?vid=c32e253f-1689-41c9-98eb-e4a61fae27ba"},"vehicle_type_id":"4","last_reported":1687039571,"current_range_meters":10000,"station_id":"ce4bh512rcd13ifvqe3g","pricing_plan_id":"free"},{"bike_id":"af6abd85-8747-4a74-9215-51a758ce71f3","system_id":"levelo_inurba_marseille","lat":43.28828,"lon":5.39231,"is_reserved":false,"is_disabled":false,"rental_uris":{"android":"levelo://app?vid=af6abd85-8747-4a74-9215-51a758ce71f3","ios":"levelo://app?vid=af6abd85-8747-4a74-9215-51a758ce71f3"},"vehicle_type_id":"4","last_reported":1687039571,"current_range_meters":3200,"station_id":"ce4bh392rcd13ifvqdm0","pricing_plan_id":"free"},{"bike_id":"068cd3ef-7a9f-4e1d-82c5-a8604b83fb5c","system_id":"levelo_inurba_marseille","lat":43.284787,"lon":5.384116,"is_reserved":false,"is_disabled":false,"rental_uris":{"android":"levelo://app?vid=068cd3ef-7a9f-4e1d-82c5-a8604b83fb5c","ios":"levelo://app?vid=068cd3ef-7a9f-4e1d-82c5-a8604b83fb5c"},"vehicle_type_id":"4","last_reported":1687039571,"current_range_meters":20800,"station_id":"ce4bh512rcd13ifvqe3g","pricing_plan_id":"free"},{"bike_id":"13ce5371-3da8-4c35-ac12-d7e4f080eff5","system_id":"levelo_inurba_marseille","lat":43.284793,"lon":5.384119,"is_reserved":false,"is_disabled":false,"rental_uris":{"android":"levelo://app?vid=13ce5371-3da8-4c35-ac12-d7e4f080eff5","ios":"levelo://app?vid=13ce5371-3da8-4c35-ac12-d7e4f080eff5"},"vehicle_type_id":"4","last_reported":1687039571,"current_range_meters":4400,"station_id":"ce4bh512rcd13ifvqe3g","pricing_plan_id":"free"},{"bike_id":"00f59bac-28fd-48fe-bc48-d3e691046967","system_id":"levelo_inurba_marseille","lat":43.284793,"lon":5.384119,"is_reserved":false,"is_disabled":false,"rental_uris":{"android":"levelo://app?vid=00f59bac-28fd-48fe-bc48-d3e691046967","ios":"levelo://app?vid=00f59bac-28fd-48fe-bc48-d3e691046967"},"vehicle_type_id":"4","last_reported":1687039571,"current_range_meters":14800,"station_id":"ce4bh512rcd13ifvqe3g","pricing_plan_id":"free"},{"bike_id":"2624dea4-b888-4a15-b6de-a118c235a0f3","system_id":"levelo_inurba_marseille","lat":43.288501,"lon":5.393087,"is_reserved":false,"is_disabled":false,"rental_uris":{"android":"levelo://app?vid=2624dea4-b888-4a15-b6de-a118c235a0f3","ios":"levelo://app?vid=2624dea4-b888-4a15-b6de-a118c235a0f3"},"vehicle_type_id":"4","last_reported":1687039571,"current_range_meters":11600,"station_id":"ce4bh2p2rcd13ifvqdi0","pricing_plan_id":"free"},{"bike_id":"0aef9730-18b9-4440-a3f2-333dec009a79","system_id":"levelo_inurba_marseille","lat":43.28356,"lon":5.38101,"is_reserved":false,"is_disabled":false,"rental_uris":{"android":"levelo://app?vid=0aef9730-18b9-4440-a3f2-333dec009a79","ios":"levelo://app?vid=0aef9730-18b9-4440-a3f2-333dec009a79"},"vehicle_type_id":"4","last_reported":1687039571,"current_range_meters":31200,"station_id":"ce4bh412rcd13ifvqdr0","pricing_plan_id":"free"},{"bike_id":"00b4d942-d645-4a17-a320-9c02b5ecca68","system_id":"levelo_inurba_marseille","lat":43.288497,"lon":5.393089,"is_reserved":false,"is_disabled":false,"rental_uris":{"android":"levelo://app?vid=00b4d942-d645-4a17-a320-9c02b5ecca68","ios":"levelo://app?vid=00b4d942-d645-4a17-a320-9c02b5ecca68"},"vehicle_type_id":"4","last_reported":1687039571,"current_range_meters":24400,"station_id":"ce4bh2p2rcd13ifvqdi0","pricing_plan_id":"free"},{"bike_id":"657d059f-ac1f-4e69-a4d3-f709f756afac","system_id":"levelo_inurba_marseille","lat":43.28351,"lon":5.38089,"is_reserved":false,"is_disabled":false,"rental_uris":{"android":"levelo://app?vid=657d059f-ac1f-4e69-a4d3-f709f756afac","ios":"levelo://app?vid=657d059f-ac1f-4e69-a4d3-f709f756afac"},"vehicle_type_id":"4","last_reported":1687039571,"current_range_meters":31200,"station_id":"ce4bh412rcd13ifvqdr0","pricing_plan_id":"free"},{"bike_id":"485fbe80-7791-47a3-874c-0d57ca2838f7","system_id":"levelo_inurba_marseille","lat":43.28348,"lon":5.38116,"is_reserved":false,"is_disabled":false,"rental_uris":{"android":"levelo://app?vid=485fbe80-7791-47a3-874c-0d57ca2838f7","ios":"levelo://app?vid=485fbe80-7791-47a3-874c-0d57ca2838f7"},"vehicle_type_id":"4","last_reported":1687039571,"current_range_meters":22400,"station_id":"ce4bh412rcd13ifvqdr0","pricing_plan_id":"free"},{"bike_id":"34fd0f70-e946-483f-b9f8-b28b28c5ffe1","system_id":"levelo_inurba_marseille","lat":43.284219,"lon":5.3497,"is_reserved":false,"is_disabled":false,"rental_uris":{"android":"levelo://app?vid=34fd0f70-e946-483f-b9f8-b28b28c5ffe1","ios":"levelo://app?vid=34fd0f70-e946-483f-b9f8-b28b28c5ffe1"},"vehicle_type_id":"4","last_reported":1687039571,"current_range_meters":6400,"station_id":"ce4bhbh2rcd13ifvqepg","pricing_plan_id":"free"},{"bike_id":"7258b29c-3a4a-4760-9b6f-13710f3f396f","system_id":"levelo_inurba_marseille","lat":43.289363,"lon":5.396322,"is_reserved":false,"is_disabled":false,"rental_uris":{"android":"levelo://app?vid=7258b29c-3a4a-4760-9b6f-13710f3f396f","ios":"levelo://app?vid=7258b29c-3a4a-4760-9b6f-13710f3f396f"},"vehicle_type_id":"4","last_reported":1687039571,"current_range_meters":27600,"station_id":"ce4bh3h2rcd13ifvqdn0","pricing_plan_id":"free"},{"bike_id":"f5bea615-ccaa-4deb-a010-dd2da91bcff8","system_id":"levelo_inurba_marseille","lat":43.289363,"lon":5.396322,"is_reserved":false,"is_disabled":false,"rental_uris":{"android":"levelo://app?vid=f5bea615-ccaa-4deb-a010-dd2da91bcff8","ios":"levelo://app?vid=f5bea615-ccaa-4deb-a010-dd2da91bcff8"},"vehicle_type_id":"4","last_reported":1687039571,"current_range_meters":22000,"station_id":"ce4bh3h2rcd13ifvqdn0","pricing_plan_id":"free"},{"bike_id":"1f24386c-f4de-4f2b-bb8a-d54495b1f62e","system_id":"levelo_inurba_marseille","lat":43.29311,"lon":5.40122,"is_reserved":false,"is_disabled":false,"rental_uris":{"android":"levelo://app?vid=1f24386c-f4de-4f2b-bb8a-d54495b1f62e","ios":"levelo://app?vid=1f24386c-f4de-4f2b-bb8a-d54495b1f62e"},"vehicle_type_id":"4","last_reported":1687039571,"current_range_meters":28800,"station_id":"","pricing_plan_id":"free"},{"bike_id":"0098c3ab-2fa3-442e-8739-433fcf8d41a1","system_id":"levelo_inurba_marseille","lat":43.292724,"lon":5.401131,"is_reserved":false,"is_disabled":false,"rental_uris":{"android":"levelo://app?vid=0098c3ab-2fa3-442e-8739-433fcf8d41a1","ios":"levelo://app?vid=0098c3ab-2fa3-442e-8739-433fcf8d41a1"},"vehicle_type_id":"4","last_reported":1687039571,"current_range_meters":26400,"station_id":"ce4bh312rcd13ifvqdk0","pricing_plan_id":"free"},{"bike_id":"c319c0c2-eddd-47cd-8d6b-c11dd0155495","system_id":"levelo_inurba_marseille","lat":43.292724,"lon":5.401131,"is_reserved":false,"is_disabled":false,"rental_uris":{"android":"levelo://app?vid=c319c0c2-eddd-47cd-8d6b-c11dd0155495","ios":"levelo://app?vid=c319c0c2-eddd-47cd-8d6b-c11dd0155495"},"vehicle_type_id":"4","last_reported":1687039571,"current_range_meters":26400,"station_id":"ce4bh312rcd13ifvqdk0","pricing_plan_id":"free"},{"bike_id":"32c84e20-4726-4674-87ba-2b5ef7e1f362","system_id":"levelo_inurba_marseille","lat":43.28039,"lon":5.369297,"is_reserved":false,"is_disabled":false,"rental_uris":{"android":"levelo://app?vid=32c84e20-4726-4674-87ba-2b5ef7e1f362","ios":"levelo://app?vid=32c84e20-4726-4674-87ba-2b5ef7e1f362"},"vehicle_type_id":"4","last_reported":1687039571,"current_range_meters":22800,"station_id":"ce4bha12rcd13ifvqef0","pricing_plan_id":"free"},{"bike_id":"7fd76e0f-7b9d-4b7f-a99b-fe56dae574f3","system_id":"levelo_inurba_marseille","lat":43.28362,"lon":5.38635,"is_reserved":false,"is_disabled":false,"rental_uris":{"android":"levelo://app?vid=7fd76e0f-7b9d-4b7f-a99b-fe56dae574f3","ios":"levelo://app?vid=7fd76e0f-7b9d-4b7f-a99b-fe56dae574f3"},"vehicle_type_id":"4","last_reported":1687039571,"current_range_meters":8000,"station_id":"ce4bh492rcd13ifvqdvg","pricing_plan_id":"free"},{"bike_id":"5466ae6a-fab2-4b3c-bc20-f26a798490f0","system_id":"levelo_inurba_marseille","lat":43.28039,"lon":5.369297,"is_reserved":false,"is_disabled":false,"rental_uris":{"android":"levelo://app?vid=5466ae6a-fab2-4b3c-bc20-f26a798490f0","ios":"levelo://app?vid=5466ae6a-fab2-4b3c-bc20-f26a798490f0"},"vehicle_type_id":"4","last_reported":1687039571,"current_range_meters":15200,"station_id":"ce4bha12rcd13ifvqef0","pricing_plan_id":"free"},{"bike_id":"e89252f6-bc0e-48a6-b30b-2e10a4fb2382","system_id":"levelo_inurba_marseille","lat":43.28355,"lon":5.38628,"is_reserved":false,"is_disabled":false,"rental_uris":{"android":"levelo://app?vid=e89252f6-bc0e-48a6-b30b-2e10a4fb2382","ios":"levelo://app?vid=e89252f6-bc0e-48a6-b30b-2e10a4fb2382"},"vehicle_type_id":"4","last_reported":1687039571,"current_range_meters":12400,"station_id":"ce4bh492rcd13ifvqdvg","pricing_plan_id":"free"},{"bike_id":"65fc1912-6f25-43f5-b512-48b78e398b02","system_id":"levelo_inurba_marseille","lat":43.28037,"lon":5.36941,"is_reserved":false,"is_disabled":false,"rental_uris":{"android":"levelo://app?vid=65fc1912-6f25-43f5-b512-48b78e398b02","ios":"levelo://app?vid=65fc1912-6f25-43f5-b512-48b78e398b02"},"vehicle_type_id":"4","last_reported":1687039571,"current_range_meters":27200,"station_id":"ce4bha12rcd13ifvqef0","pricing_plan_id":"free"},{"bike_id":"24d8c596-6f26-479e-b590-2e6f43206cd2","system_id":"levelo_inurba_marseille","lat":43.29045,"lon":5.39954,"is_reserved":false,"is_disabled":false,"rental_uris":{"android":"levelo://app?vid=24d8c596-6f26-479e-b590-2e6f43206cd2","ios":"levelo://app?vid=24d8c596-6f26-479e-b590-2e6f43206cd2"},"vehicle_type_id":"4","last_reported":1687039571,"current_range_meters":15200,"station_id":"ce4bh392rcd13ifvqdm0","pricing_plan_id":"free"},{"bike_id":"5830a0d0-7406-4969-8a8f-c7979d4ad845","system_id":"levelo_inurba_marseille","lat":43.29044,"lon":5.39955,"is_reserved":false,"is_disabled":false,"rental_uris":{"android":"levelo://app?vid=5830a0d0-7406-4969-8a8f-c7979d4ad845","ios":"levelo://app?vid=5830a0d0-7406-4969-8a8f-c7979d4ad845"},"vehicle_type_id":"4","last_reported":1687039571,"current_range_meters":19200,"station_id":"ce4bh392rcd13ifvqdm0","pricing_plan_id":"free"},{"bike_id":"a60a7fab-0ccf-491e-8bb8-990f1321af05","system_id":"levelo_inurba_marseille","lat":43.2904,"lon":5.39951,"is_reserved":false,"is_disabled":false,"rental_uris":{"android":"levelo://app?vid=a60a7fab-0ccf-491e-8bb8-990f1321af05","ios":"levelo://app?vid=a60a7fab-0ccf-491e-8bb8-990f1321af05"},"vehicle_type_id":"4","last_reported":1687039571,"current_range_meters":8000,"station_id":"ce4bh392rcd13ifvqdm0","pricing_plan_id":"free"},{"bike_id":"d50e6d5f-5007-48b5-993b-448805bf0810","system_id":"levelo_inurba_marseille","lat":43.281044,"lon":5.378308,"is_reserved":false,"is_disabled":false,"rental_uris":{"android":"levelo://app?vid=d50e6d5f-5007-48b5-993b-448805bf0810","ios":"levelo://app?vid=d50e6d5f-5007-48b5-993b-448805bf0810"},"vehicle_type_id":"4","last_reported":1687039571,"current_range_meters":28800,"station_id":"ce4bha12rcd13ifvqee0","pricing_plan_id":"free"},{"bike_id":"9a24e0f9-7080-438f-9549-e9d03ec0cbbf","system_id":"levelo_inurba_marseille","lat":43.290412,"lon":5.399633,"is_reserved":false,"is_disabled":false,"rental_uris":{"android":"levelo://app?vid=9a24e0f9-7080-438f-9549-e9d03ec0cbbf","ios":"levelo://app?vid=9a24e0f9-7080-438f-9549-e9d03ec0cbbf"},"vehicle_type_id":"4","last_reported":1687039571,"current_range_meters":8400,"station_id":"ce4bh392rcd13ifvqdm0","pricing_plan_id":"free"},{"bike_id":"0c8200be-f0df-49da-b035-d4aabb52fe78","system_id":"levelo_inurba_marseille","lat":43.281044,"lon":5.378308,"is_reserved":false,"is_disabled":false,"rental_uris":{"android":"levelo://app?vid=0c8200be-f0df-49da-b035-d4aabb52fe78","ios":"levelo://app?vid=0c8200be-f0df-49da-b035-d4aabb52fe78"},"vehicle_type_id":"4","last_reported":1687039571,"current_range_meters":28000,"station_id":"ce4bha12rcd13ifvqee0","pricing_plan_id":"free"},{"bike_id":"9706f054-9b2f-4180-a217-3e3e66527398","system_id":"levelo_inurba_marseille","lat":43.296263,"lon":5.40601,"is_reserved":false,"is_disabled":false,"rental_uris":{"android":"levelo://app?vid=9706f054-9b2f-4180-a217-3e3e66527398","ios":"levelo://app?vid=9706f054-9b2f-4180-a217-3e3e66527398"},"vehicle_type_id":"4","last_reported":1687039571,"current_range_meters":7200,"station_id":"ce4bh0h2rcd13ifvqd60","pricing_plan_id":"free"},{"bike_id":"c9818828-954c-4234-9bfd-13bd5586d05a","system_id":"levelo_inurba_marseille","lat":43.284462,"lon":5.392121,"is_reserved":false,"is_disabled":false,"rental_uris":{"android":"levelo://app?vid=c9818828-954c-4234-9bfd-13bd5586d05a","ios":"levelo://app?vid=c9818828-954c-4234-9bfd-13bd5586d05a"},"vehicle_type_id":"4","last_reported":1687039571,"current_range_meters":23600,"station_id":"ce4bhoh2rcd13ifvqh5g","pricing_plan_id":"free"},{"bike_id":"f1de0abe-852e-4ee2-892c-40ab74dab12c","system_id":"levelo_inurba_marseille","lat":43.284462,"lon":5.392121,"is_reserved":false,"is_disabled":false,"rental_uris":{"android":"levelo://app?vid=f1de0abe-852e-4ee2-892c-40ab74dab12c","ios":"levelo://app?vid=f1de0abe-852e-4ee2-892c-40ab74dab12c"},"vehicle_type_id":"4","last_reported":1687039571,"current_range_meters":13200,"station_id":"ce4bhoh2rcd13ifvqh5g","pricing_plan_id":"free"},{"bike_id":"c3a07ce2-7b58-493d-8920-7e500fe39b19","system_id":"levelo_inurba_marseille","lat":43.284462,"lon":5.392121,"is_reserved":false,"is_disabled":false,"rental_uris":{"android":"levelo://app?vid=c3a07ce2-7b58-493d-8920-7e500fe39b19","ios":"levelo://app?vid=c3a07ce2-7b58-493d-8920-7e500fe39b19"},"vehicle_type_id":"4","last_reported":1687039571,"current_range_meters":14800,"station_id":"ce4bhoh2rcd13ifvqh5g","pricing_plan_id":"free"},{"bike_id":"faf71b86-25e7-4d56-8b01-c764c8436f9e","system_id":"levelo_inurba_marseille","lat":43.28573,"lon":5.394992,"is_reserved":false,"is_disabled":false,"rental_uris":{"android":"levelo://app?vid=faf71b86-25e7-4d56-8b01-c764c8436f9e","ios":"levelo://app?vid=faf71b86-25e7-4d56-8b01-c764c8436f9e"},"vehicle_type_id":"4","last_reported":1687039571,"current_range_meters":23600,"station_id":"ce4bh292rcd13ifvqdg0","pricing_plan_id":"free"},{"bike_id":"675cba75-2536-4873-a427-a612758c5a7f","system_id":"levelo_inurba_marseille","lat":43.28573,"lon":5.394992,"is_reserved":false,"is_disabled":false,"rental_uris":{"android":"levelo://app?vid=675cba75-2536-4873-a427-a612758c5a7f","ios":"levelo://app?vid=675cba75-2536-4873-a427-a612758c5a7f"},"vehicle_type_id":"4","last_reported":1687039571,"current_range_meters":30400,"station_id":"ce4bh292rcd13ifvqdg0","pricing_plan_id":"free"},{"bike_id":"9c5cd916-101c-4554-9d24-b5a7e1a31f88","system_id":"levelo_inurba_marseille","lat":43.30421,"lon":5.41277,"is_reserved":false,"is_disabled":false,"rental_uris":{"android":"levelo://app?vid=9c5cd916-101c-4554-9d24-b5a7e1a31f88","ios":"levelo://app?vid=9c5cd916-101c-4554-9d24-b5a7e1a31f88"},"vehicle_type_id":"4","last_reported":1687039571,"current_range_meters":19200,"station_id":"ce4bhop2rcd13ifvqh8g","pricing_plan_id":"free"},{"bike_id":"7359bb71-b784-456d-a467-03b996874fd4","system_id":"levelo_inurba_marseille","lat":43.28013,"lon":5.38251,"is_reserved":false,"is_disabled":false,"rental_uris":{"android":"levelo://app?vid=7359bb71-b784-456d-a467-03b996874fd4","ios":"levelo://app?vid=7359bb71-b784-456d-a467-03b996874fd4"},"vehicle_type_id":"4","last_reported":1687039571,"current_range_meters":26000,"station_id":"","pricing_plan_id":"free"},{"bike_id":"f03d7b98-4921-4d54-a88e-59e059089282","system_id":"levelo_inurba_marseille","lat":43.27906,"lon":5.38008,"is_reserved":false,"is_disabled":false,"rental_uris":{"android":"levelo://app?vid=f03d7b98-4921-4d54-a88e-59e059089282","ios":"levelo://app?vid=f03d7b98-4921-4d54-a88e-59e059089282"},"vehicle_type_id":"4","last_reported":1687039571,"current_range_meters":1600,"station_id":"","pricing_plan_id":"free"},{"bike_id":"d8c65610-530f-4dc9-a7f7-dd0f519631e7","system_id":"levelo_inurba_marseille","lat":43.287154,"lon":5.399979,"is_reserved":false,"is_disabled":false,"rental_uris":{"android":"levelo://app?vid=d8c65610-530f-4dc9-a7f7-dd0f519631e7","ios":"levelo://app?vid=d8c65610-530f-4dc9-a7f7-dd0f519631e7"},"vehicle_type_id":"4","last_reported":1687039571,"current_range_meters":20800,"station_id":"ce4bho92rcd13ifvqh3g","pricing_plan_id":"free"},{"bike_id":"904b75a0-7d1f-40f9-9247-10099c55691e","system_id":"levelo_inurba_marseille","lat":43.27895,"lon":5.38012,"is_reserved":false,"is_disabled":false,"rental_uris":{"android":"levelo://app?vid=904b75a0-7d1f-40f9-9247-10099c55691e","ios":"levelo://app?vid=904b75a0-7d1f-40f9-9247-10099c55691e"},"vehicle_type_id":"4","last_reported":1687039571,"current_range_meters":4400,"station_id":"","pricing_plan_id":"free"},{"bike_id":"6477cfdc-834f-4b42-8e34-8eda8c2c04da","system_id":"levelo_inurba_marseille","lat":43.287154,"lon":5.399979,"is_reserved":false,"is_disabled":false,"rental_uris":{"android":"levelo://app?vid=6477cfdc-834f-4b42-8e34-8eda8c2c04da","ios":"levelo://app?vid=6477cfdc-834f-4b42-8e34-8eda8c2c04da"},"vehicle_type_id":"4","last_reported":1687039571,"current_range_meters":13200,"station_id":"ce4bho92rcd13ifvqh3g","pricing_plan_id":"free"},{"bike_id":"ef0e182a-9cf1-4374-b42e-e32a691528d0","system_id":"levelo_inurba_marseille","lat":43.287154,"lon":5.399979,"is_reserved":false,"is_disabled":false,"rental_uris":{"android":"levelo://app?vid=ef0e182a-9cf1-4374-b42e-e32a691528d0","ios":"levelo://app?vid=ef0e182a-9cf1-4374-b42e-e32a691528d0"},"vehicle_type_id":"4","last_reported":1687039571,"current_range_meters":9600,"station_id":"ce4bho92rcd13ifvqh3g","pricing_plan_id":"free"},{"bike_id":"74f75e0c-ec02-4f51-8858-e5f248a14ad6","system_id":"levelo_inurba_marseille","lat":43.28699,"lon":5.39986,"is_reserved":false,"is_disabled":false,"rental_uris":{"android":"levelo://app?vid=74f75e0c-ec02-4f51-8858-e5f248a14ad6","ios":"levelo://app?vid=74f75e0c-ec02-4f51-8858-e5f248a14ad6"},"vehicle_type_id":"4","last_reported":1687039571,"current_range_meters":9200,"station_id":"ce4bho92rcd13ifvqh3g","pricing_plan_id":"free"},{"bike_id":"b1790f63-7525-466a-ba74-a78226fd9255","system_id":"levelo_inurba_marseille","lat":43.292571,"lon":5.409107,"is_reserved":false,"is_disabled":false,"rental_uris":{"android":"levelo://app?vid=b1790f63-7525-466a-ba74-a78226fd9255","ios":"levelo://app?vid=b1790f63-7525-466a-ba74-a78226fd9255"},"vehicle_type_id":"4","last_reported":1687039571,"current_range_meters":11600,"station_id":"ce4bh192rcd13ifvqdc0","pricing_plan_id":"free"},{"bike_id":"984dc6e0-5830-495f-8cf2-d783ea570542","system_id":"levelo_inurba_marseille","lat":43.292571,"lon":5.409107,"is_reserved":false,"is_disabled":false,"rental_uris":{"android":"levelo://app?vid=984dc6e0-5830-495f-8cf2-d783ea570542","ios":"levelo://app?vid=984dc6e0-5830-495f-8cf2-d783ea570542"},"vehicle_type_id":"4","last_reported":1687039571,"current_range_meters":0,"station_id":"ce4bh192rcd13ifvqdc0","pricing_plan_id":"free"},{"bike_id":"5dd3f923-74db-4940-8eed-f1be51c5c887","system_id":"levelo_inurba_marseille","lat":43.27629,"lon":5.35851,"is_reserved":false,"is_disabled":false,"rental_uris":{"android":"levelo://app?vid=5dd3f923-74db-4940-8eed-f1be51c5c887","ios":"levelo://app?vid=5dd3f923-74db-4940-8eed-f1be51c5c887"},"vehicle_type_id":"4","last_reported":1687039571,"current_range_meters":14400,"station_id":"","pricing_plan_id":"free"},{"bike_id":"3afa5abb-0a64-479c-888a-cf99465cd00a","system_id":"levelo_inurba_marseille","lat":43.27833,"lon":5.38897,"is_reserved":false,"is_disabled":false,"rental_uris":{"android":"levelo://app?vid=3afa5abb-0a64-479c-888a-cf99465cd00a","ios":"levelo://app?vid=3afa5abb-0a64-479c-888a-cf99465cd00a"},"vehicle_type_id":"4","last_reported":1687039571,"current_range_meters":2400,"station_id":"","pricing_plan_id":"free"},{"bike_id":"3c002f32-63ba-4229-9562-f4b5d8c9153d","system_id":"levelo_inurba_marseille","lat":43.280784,"lon":5.396622,"is_reserved":false,"is_disabled":false,"rental_uris":{"android":"levelo://app?vid=3c002f32-63ba-4229-9562-f4b5d8c9153d","ios":"levelo://app?vid=3c002f32-63ba-4229-9562-f4b5d8c9153d"},"vehicle_type_id":"4","last_reported":1687039571,"current_range_meters":22400,"station_id":"ce4bho12rcd13ifvqh2g","pricing_plan_id":"free"},{"bike_id":"f7cb4d63-724b-4985-aa4a-5b18a2747f97","system_id":"levelo_inurba_marseille","lat":43.280784,"lon":5.396622,"is_reserved":false,"is_disabled":false,"rental_uris":{"android":"levelo://app?vid=f7cb4d63-724b-4985-aa4a-5b18a2747f97","ios":"levelo://app?vid=f7cb4d63-724b-4985-aa4a-5b18a2747f97"},"vehicle_type_id":"4","last_reported":1687039571,"current_range_meters":6400,"station_id":"ce4bho12rcd13ifvqh2g","pricing_plan_id":"free"},{"bike_id":"5177b267-7966-4148-9d61-71c78e6768b2","system_id":"levelo_inurba_marseille","lat":43.280784,"lon":5.396622,"is_reserved":false,"is_disabled":false,"rental_uris":{"android":"levelo://app?vid=5177b267-7966-4148-9d61-71c78e6768b2","ios":"levelo://app?vid=5177b267-7966-4148-9d61-71c78e6768b2"},"vehicle_type_id":"4","last_reported":1687039571,"current_range_meters":6800,"station_id":"ce4bho12rcd13ifvqh2g","pricing_plan_id":"free"},{"bike_id":"1d9f308d-1141-466e-8c26-e1fffc23ffc6","system_id":"levelo_inurba_marseille","lat":43.280784,"lon":5.396622,"is_reserved":false,"is_disabled":false,"rental_uris":{"android":"levelo://app?vid=1d9f308d-1141-466e-8c26-e1fffc23ffc6","ios":"levelo://app?vid=1d9f308d-1141-466e-8c26-e1fffc23ffc6"},"vehicle_type_id":"4","last_reported":1687039571,"current_range_meters":9200,"station_id":"ce4bho12rcd13ifvqh2g","pricing_plan_id":"free"},{"bike_id":"6dd86767-0514-4a67-abcf-a2c29475d6c9","system_id":"levelo_inurba_marseille","lat":43.280784,"lon":5.396622,"is_reserved":false,"is_disabled":false,"rental_uris":{"android":"levelo://app?vid=6dd86767-0514-4a67-abcf-a2c29475d6c9","ios":"levelo://app?vid=6dd86767-0514-4a67-abcf-a2c29475d6c9"},"vehicle_type_id":"4","last_reported":1687039571,"current_range_meters":19200,"station_id":"ce4bho12rcd13ifvqh2g","pricing_plan_id":"free"},{"bike_id":"472fe5d6-4cf8-4f3e-b388-d3028c9ddaf9","system_id":"levelo_inurba_marseille","lat":43.27841,"lon":5.39204,"is_reserved":false,"is_disabled":false,"rental_uris":{"android":"levelo://app?vid=472fe5d6-4cf8-4f3e-b388-d3028c9ddaf9","ios":"levelo://app?vid=472fe5d6-4cf8-4f3e-b388-d3028c9ddaf9"},"vehicle_type_id":"4","last_reported":1687039571,"current_range_meters":24000,"station_id":"ce4bhjp2rcd13ifvqga0","pricing_plan_id":"free"},{"bike_id":"3a372097-9ea3-4b97-b30d-21f9dec09acb","system_id":"levelo_inurba_marseille","lat":43.278401,"lon":5.392152,"is_reserved":false,"is_disabled":false,"rental_uris":{"android":"levelo://app?vid=3a372097-9ea3-4b97-b30d-21f9dec09acb","ios":"levelo://app?vid=3a372097-9ea3-4b97-b30d-21f9dec09acb"},"vehicle_type_id":"4","last_reported":1687039571,"current_range_meters":31200,"station_id":"ce4bhjp2rcd13ifvqga0","pricing_plan_id":"free"},{"bike_id":"da61dc12-f4a8-4f0e-9a8b-8772d630c72a","system_id":"levelo_inurba_marseille","lat":43.275625,"lon":5.384392,"is_reserved":false,"is_disabled":false,"rental_uris":{"android":"levelo://app?vid=da61dc12-f4a8-4f0e-9a8b-8772d630c72a","ios":"levelo://app?vid=da61dc12-f4a8-4f0e-9a8b-8772d630c72a"},"vehicle_type_id":"4","last_reported":1687039571,"current_range_meters":3200,"station_id":"ce4bhh92rcd13ifvqfi0","pricing_plan_id":"free"},{"bike_id":"ba3fdd24-48a4-4d96-9d85-a07d078f66b1","system_id":"levelo_inurba_marseille","lat":43.273613,"lon":5.362705,"is_reserved":false,"is_disabled":false,"rental_uris":{"android":"levelo://app?vid=ba3fdd24-48a4-4d96-9d85-a07d078f66b1","ios":"levelo://app?vid=ba3fdd24-48a4-4d96-9d85-a07d078f66b1"},"vehicle_type_id":"4","last_reported":1687039571,"current_range_meters":31200,"station_id":"ce4bhbh2rcd13ifvqeo0","pricing_plan_id":"free"},{"bike_id":"e80d0adf-e31b-4808-872d-5d9889f18a1b","system_id":"levelo_inurba_marseille","lat":43.33604,"lon":5.41033,"is_reserved":false,"is_disabled":false,"rental_uris":{"android":"levelo://app?vid=e80d0adf-e31b-4808-872d-5d9889f18a1b","ios":"levelo://app?vid=e80d0adf-e31b-4808-872d-5d9889f18a1b"},"vehicle_type_id":"4","last_reported":1687039571,"current_range_meters":14000,"station_id":"ce4bhqh2rcd13ifvqhmg","pricing_plan_id":"free"},{"bike_id":"605e99ef-31e2-473a-b14b-90bfb9d35464","system_id":"levelo_inurba_marseille","lat":43.31721,"lon":5.424,"is_reserved":false,"is_disabled":false,"rental_uris":{"android":"levelo://app?vid=605e99ef-31e2-473a-b14b-90bfb9d35464","ios":"levelo://app?vid=605e99ef-31e2-473a-b14b-90bfb9d35464"},"vehicle_type_id":"4","last_reported":1687039571,"current_range_meters":21600,"station_id":"ce4bhp92rcd13ifvqhbg","pricing_plan_id":"free"},{"bike_id":"c830d109-c9c0-4db8-b175-463387695a69","system_id":"levelo_inurba_marseille","lat":43.310785,"lon":5.424305,"is_reserved":false,"is_disabled":false,"rental_uris":{"android":"levelo://app?vid=c830d109-c9c0-4db8-b175-463387695a69","ios":"levelo://app?vid=c830d109-c9c0-4db8-b175-463387695a69"},"vehicle_type_id":"4","last_reported":1687039571,"current_range_meters":14400,"station_id":"ce4bhp92rcd13ifvqhag","pricing_plan_id":"free"},{"bike_id":"3d1f0bf2-a175-4923-9b10-a667ae75f12c","system_id":"levelo_inurba_marseille","lat":43.29585,"lon":5.42065,"is_reserved":false,"is_disabled":false,"rental_uris":{"android":"levelo://app?vid=3d1f0bf2-a175-4923-9b10-a667ae75f12c","ios":"levelo://app?vid=3d1f0bf2-a175-4923-9b10-a667ae75f12c"},"vehicle_type_id":"4","last_reported":1687039571,"current_range_meters":18000,"station_id":"ce4bhph2rcd13ifvqhdg","pricing_plan_id":"free"},{"bike_id":"6275aaca-a354-407f-be44-df40f2969d44","system_id":"levelo_inurba_marseille","lat":43.273125,"lon":5.390731,"is_reserved":false,"is_disabled":false,"rental_uris":{"android":"levelo://app?vid=6275aaca-a354-407f-be44-df40f2969d44","ios":"levelo://app?vid=6275aaca-a354-407f-be44-df40f2969d44"},"vehicle_type_id":"4","last_reported":1687039571,"current_range_meters":31200,"station_id":"ce4bhgp2rcd13ifvqfe0","pricing_plan_id":"free"},{"bike_id":"f82c4e0b-ce86-4de4-962b-f266d6ba506e","system_id":"levelo_inurba_marseille","lat":43.273125,"lon":5.390731,"is_reserved":false,"is_disabled":false,"rental_uris":{"android":"levelo://app?vid=f82c4e0b-ce86-4de4-962b-f266d6ba506e","ios":"levelo://app?vid=f82c4e0b-ce86-4de4-962b-f266d6ba506e"},"vehicle_type_id":"4","last_reported":1687039571,"current_range_meters":28800,"station_id":"ce4bhgp2rcd13ifvqfe0","pricing_plan_id":"free"},{"bike_id":"cfba2fbe-9ed5-423f-b411-8d6c38451715","system_id":"levelo_inurba_marseille","lat":43.273125,"lon":5.390731,"is_reserved":false,"is_disabled":false,"rental_uris":{"android":"levelo://app?vid=cfba2fbe-9ed5-423f-b411-8d6c38451715","ios":"levelo://app?vid=cfba2fbe-9ed5-423f-b411-8d6c38451715"},"vehicle_type_id":"4","last_reported":1687039571,"current_range_meters":31200,"station_id":"ce4bhgp2rcd13ifvqfe0","pricing_plan_id":"free"},{"bike_id":"eccf7542-747e-4ae3-bde2-55f7842b0215","system_id":"levelo_inurba_marseille","lat":43.27423,"lon":5.39406,"is_reserved":false,"is_disabled":false,"rental_uris":{"android":"levelo://app?vid=eccf7542-747e-4ae3-bde2-55f7842b0215","ios":"levelo://app?vid=eccf7542-747e-4ae3-bde2-55f7842b0215"},"vehicle_type_id":"4","last_reported":1687039571,"current_range_meters":19600,"station_id":"","pricing_plan_id":"free"},{"bike_id":"c2047bb5-22cd-49bd-b587-998080a823b4","system_id":"levelo_inurba_marseille","lat":43.27423,"lon":5.39408,"is_reserved":false,"is_disabled":false,"rental_uris":{"android":"levelo://app?vid=c2047bb5-22cd-49bd-b587-998080a823b4","ios":"levelo://app?vid=c2047bb5-22cd-49bd-b587-998080a823b4"},"vehicle_type_id":"4","last_reported":1687039571,"current_range_meters":14400,"station_id":"","pricing_plan_id":"free"},{"bike_id":"a3c0b230-1ef1-4747-bc7a-9cae75611082","system_id":"levelo_inurba_marseille","lat":43.27423,"lon":5.39411,"is_reserved":false,"is_disabled":false,"rental_uris":{"android":"levelo://app?vid=a3c0b230-1ef1-4747-bc7a-9cae75611082","ios":"levelo://app?vid=a3c0b230-1ef1-4747-bc7a-9cae75611082"},"vehicle_type_id":"4","last_reported":1687039571,"current_range_meters":8000,"station_id":"","pricing_plan_id":"free"},{"bike_id":"bb8b0633-db3e-4ae1-bd7d-1df19195d0f4","system_id":"levelo_inurba_marseille","lat":43.27424,"lon":5.39414,"is_reserved":false,"is_disabled":false,"rental_uris":{"android":"levelo://app?vid=bb8b0633-db3e-4ae1-bd7d-1df19195d0f4","ios":"levelo://app?vid=bb8b0633-db3e-4ae1-bd7d-1df19195d0f4"},"vehicle_type_id":"4","last_reported":1687039571,"current_range_meters":0,"station_id":"","pricing_plan_id":"free"},{"bike_id":"6bba4975-69cd-477a-a154-292c2c0d32ba","system_id":"levelo_inurba_marseille","lat":43.27419,"lon":5.39405,"is_reserved":false,"is_disabled":false,"rental_uris":{"android":"levelo://app?vid=6bba4975-69cd-477a-a154-292c2c0d32ba","ios":"levelo://app?vid=6bba4975-69cd-477a-a154-292c2c0d32ba"},"vehicle_type_id":"4","last_reported":1687039571,"current_range_meters":8800,"station_id":"","pricing_plan_id":"free"},{"bike_id":"c7c208a7-5834-4cc7-b9ad-617762a9327b","system_id":"levelo_inurba_marseille","lat":43.295523,"lon":5.422926,"is_reserved":false,"is_disabled":false,"rental_uris":{"android":"levelo://app?vid=c7c208a7-5834-4cc7-b9ad-617762a9327b","ios":"levelo://app?vid=c7c208a7-5834-4cc7-b9ad-617762a9327b"},"vehicle_type_id":"4","last_reported":1687039571,"current_range_meters":25200,"station_id":"ce4bhph2rcd13ifvqhdg","pricing_plan_id":"free"},{"bike_id":"17b54309-3065-4be1-a8b9-b08272f5856d","system_id":"levelo_inurba_marseille","lat":43.29544,"lon":5.42278,"is_reserved":false,"is_disabled":false,"rental_uris":{"android":"levelo://app?vid=17b54309-3065-4be1-a8b9-b08272f5856d","ios":"levelo://app?vid=17b54309-3065-4be1-a8b9-b08272f5856d"},"vehicle_type_id":"4","last_reported":1687039571,"current_range_meters":24800,"station_id":"ce4bhph2rcd13ifvqhdg","pricing_plan_id":"free"},{"bike_id":"036339f8-e04e-4939-9552-b325f958423e","system_id":"levelo_inurba_marseille","lat":43.295511,"lon":5.422926,"is_reserved":false,"is_disabled":false,"rental_uris":{"android":"levelo://app?vid=036339f8-e04e-4939-9552-b325f958423e","ios":"levelo://app?vid=036339f8-e04e-4939-9552-b325f958423e"},"vehicle_type_id":"4","last_reported":1687039571,"current_range_meters":7200,"station_id":"ce4bhph2rcd13ifvqhdg","pricing_plan_id":"free"},{"bike_id":"7d6aa1dd-d339-4470-b5fa-4fce1ac81d3f","system_id":"levelo_inurba_marseille","lat":43.295523,"lon":5.422926,"is_reserved":false,"is_disabled":false,"rental_uris":{"android":"levelo://app?vid=7d6aa1dd-d339-4470-b5fa-4fce1ac81d3f","ios":"levelo://app?vid=7d6aa1dd-d339-4470-b5fa-4fce1ac81d3f"},"vehicle_type_id":"4","last_reported":1687039571,"current_range_meters":14400,"station_id":"ce4bhph2rcd13ifvqhdg","pricing_plan_id":"free"},{"bike_id":"37b79acc-993d-4825-ba69-0bc41aa1e66b","system_id":"levelo_inurba_marseille","lat":43.29544,"lon":5.42289,"is_reserved":false,"is_disabled":false,"rental_uris":{"android":"levelo://app?vid=37b79acc-993d-4825-ba69-0bc41aa1e66b","ios":"levelo://app?vid=37b79acc-993d-4825-ba69-0bc41aa1e66b"},"vehicle_type_id":"4","last_reported":1687039571,"current_range_meters":16800,"station_id":"ce4bhph2rcd13ifvqhdg","pricing_plan_id":"free"},{"bike_id":"113e9f8e-3c64-4303-b0fc-84bff271821b","system_id":"levelo_inurba_marseille","lat":43.27207,"lon":5.39181,"is_reserved":false,"is_disabled":false,"rental_uris":{"android":"levelo://app?vid=113e9f8e-3c64-4303-b0fc-84bff271821b","ios":"levelo://app?vid=113e9f8e-3c64-4303-b0fc-84bff271821b"},"vehicle_type_id":"4","last_reported":1687039571,"current_range_meters":31200,"station_id":"ce4bhhp2rcd13ifvqfm0","pricing_plan_id":"free"},{"bike_id":"37c23d86-2751-45c1-ae54-358e0aa6d19b","system_id":"levelo_inurba_marseille","lat":43.27207,"lon":5.39186,"is_reserved":false,"is_disabled":false,"rental_uris":{"android":"levelo://app?vid=37c23d86-2751-45c1-ae54-358e0aa6d19b","ios":"levelo://app?vid=37c23d86-2751-45c1-ae54-358e0aa6d19b"},"vehicle_type_id":"4","last_reported":1687039571,"current_range_meters":31200,"station_id":"ce4bhhp2rcd13ifvqfm0","pricing_plan_id":"free"},{"bike_id":"43d08785-d30c-491e-a936-36f71ae4ff17","system_id":"levelo_inurba_marseille","lat":43.272116,"lon":5.391747,"is_reserved":false,"is_disabled":false,"rental_uris":{"android":"levelo://app?vid=43d08785-d30c-491e-a936-36f71ae4ff17","ios":"levelo://app?vid=43d08785-d30c-491e-a936-36f71ae4ff17"},"vehicle_type_id":"4","last_reported":1687039571,"current_range_meters":8400,"station_id":"ce4bhhp2rcd13ifvqfm0","pricing_plan_id":"free"},{"bike_id":"24077aae-22cf-4e9b-87d1-9ebb83667652","system_id":"levelo_inurba_marseille","lat":43.27819,"lon":5.40709,"is_reserved":false,"is_disabled":false,"rental_uris":{"android":"levelo://app?vid=24077aae-22cf-4e9b-87d1-9ebb83667652","ios":"levelo://app?vid=24077aae-22cf-4e9b-87d1-9ebb83667652"},"vehicle_type_id":"4","last_reported":1687039571,"current_range_meters":29200,"station_id":"ce4bhnh2rcd13ifvqgtg","pricing_plan_id":"free"},{"bike_id":"f63ec399-f461-4132-a7fc-d6ce0f8d97e8","system_id":"levelo_inurba_marseille","lat":43.27819,"lon":5.40711,"is_reserved":false,"is_disabled":false,"rental_uris":{"android":"levelo://app?vid=f63ec399-f461-4132-a7fc-d6ce0f8d97e8","ios":"levelo://app?vid=f63ec399-f461-4132-a7fc-d6ce0f8d97e8"},"vehicle_type_id":"4","last_reported":1687039571,"current_range_meters":19200,"station_id":"ce4bhnh2rcd13ifvqgtg","pricing_plan_id":"free"},{"bike_id":"7ce63589-08ef-4986-be6f-af77cde2d4f6","system_id":"levelo_inurba_marseille","lat":43.269467,"lon":5.386439,"is_reserved":false,"is_disabled":false,"rental_uris":{"android":"levelo://app?vid=7ce63589-08ef-4986-be6f-af77cde2d4f6","ios":"levelo://app?vid=7ce63589-08ef-4986-be6f-af77cde2d4f6"},"vehicle_type_id":"4","last_reported":1687039571,"current_range_meters":0,"station_id":"ce4bhh92rcd13ifvqfh0","pricing_plan_id":"free"},{"bike_id":"94264a6c-573b-46ba-92c5-a6f98af24983","system_id":"levelo_inurba_marseille","lat":43.269467,"lon":5.386439,"is_reserved":false,"is_disabled":false,"rental_uris":{"android":"levelo://app?vid=94264a6c-573b-46ba-92c5-a6f98af24983","ios":"levelo://app?vid=94264a6c-573b-46ba-92c5-a6f98af24983"},"vehicle_type_id":"4","last_reported":1687039571,"current_range_meters":0,"station_id":"ce4bhh92rcd13ifvqfh0","pricing_plan_id":"free"},{"bike_id":"5f2b6782-3cec-4cdf-94f3-aa613d6bb32e","system_id":"levelo_inurba_marseille","lat":43.269467,"lon":5.386439,"is_reserved":false,"is_disabled":false,"rental_uris":{"android":"levelo://app?vid=5f2b6782-3cec-4cdf-94f3-aa613d6bb32e","ios":"levelo://app?vid=5f2b6782-3cec-4cdf-94f3-aa613d6bb32e"},"vehicle_type_id":"4","last_reported":1687039571,"current_range_meters":10000,"station_id":"ce4bhh92rcd13ifvqfh0","pricing_plan_id":"free"},{"bike_id":"0944b1d7-43d5-4bdd-8ee0-c2d578d6c3e9","system_id":"levelo_inurba_marseille","lat":43.269319,"lon":5.389397,"is_reserved":false,"is_disabled":false,"rental_uris":{"android":"levelo://app?vid=0944b1d7-43d5-4bdd-8ee0-c2d578d6c3e9","ios":"levelo://app?vid=0944b1d7-43d5-4bdd-8ee0-c2d578d6c3e9"},"vehicle_type_id":"4","last_reported":1687039571,"current_range_meters":3200,"station_id":"ce4bhhh2rcd13ifvqfl0","pricing_plan_id":"free"},{"bike_id":"aab74693-8d9d-4b7f-aca3-b17b1e4c492b","system_id":"levelo_inurba_marseille","lat":43.269319,"lon":5.389397,"is_reserved":false,"is_disabled":false,"rental_uris":{"android":"levelo://app?vid=aab74693-8d9d-4b7f-aca3-b17b1e4c492b","ios":"levelo://app?vid=aab74693-8d9d-4b7f-aca3-b17b1e4c492b"},"vehicle_type_id":"4","last_reported":1687039571,"current_range_meters":23200,"station_id":"ce4bhhh2rcd13ifvqfl0","pricing_plan_id":"free"},{"bike_id":"60f05933-1528-4c64-bc04-da12704b6b0b","system_id":"levelo_inurba_marseille","lat":43.26681,"lon":5.382694,"is_reserved":false,"is_disabled":false,"rental_uris":{"android":"levelo://app?vid=60f05933-1528-4c64-bc04-da12704b6b0b","ios":"levelo://app?vid=60f05933-1528-4c64-bc04-da12704b6b0b"},"vehicle_type_id":"4","last_reported":1687039571,"current_range_meters":30400,"station_id":"ce4bhg92rcd13ifvqf90","pricing_plan_id":"free"},{"bike_id":"d78d7ec5-f2d5-40b9-9ac0-deb985a7ead5","system_id":"levelo_inurba_marseille","lat":43.2799,"lon":5.41663,"is_reserved":false,"is_disabled":false,"rental_uris":{"android":"levelo://app?vid=d78d7ec5-f2d5-40b9-9ac0-deb985a7ead5","ios":"levelo://app?vid=d78d7ec5-f2d5-40b9-9ac0-deb985a7ead5"},"vehicle_type_id":"4","last_reported":1687039571,"current_range_meters":21600,"station_id":"ce4bho12rcd13ifvqh1g","pricing_plan_id":"free"},{"bike_id":"7a43edb7-750e-493b-bd64-b1038c9521ad","system_id":"levelo_inurba_marseille","lat":43.267966,"lon":5.393976,"is_reserved":false,"is_disabled":false,"rental_uris":{"android":"levelo://app?vid=7a43edb7-750e-493b-bd64-b1038c9521ad","ios":"levelo://app?vid=7a43edb7-750e-493b-bd64-b1038c9521ad"},"vehicle_type_id":"4","last_reported":1687039571,"current_range_meters":0,"station_id":"ce4bhh12rcd13ifvqfg0","pricing_plan_id":"free"},{"bike_id":"3987290e-fd4b-4f2b-81c0-57fca98f9cde","system_id":"levelo_inurba_marseille","lat":43.267966,"lon":5.393976,"is_reserved":false,"is_disabled":false,"rental_uris":{"android":"levelo://app?vid=3987290e-fd4b-4f2b-81c0-57fca98f9cde","ios":"levelo://app?vid=3987290e-fd4b-4f2b-81c0-57fca98f9cde"},"vehicle_type_id":"4","last_reported":1687039571,"current_range_meters":30800,"station_id":"ce4bhh12rcd13ifvqfg0","pricing_plan_id":"free"},{"bike_id":"930e1062-7e1d-4d99-ba86-6912046fbb3a","system_id":"levelo_inurba_marseille","lat":43.265569,"lon":5.390047,"is_reserved":false,"is_disabled":false,"rental_uris":{"android":"levelo://app?vid=930e1062-7e1d-4d99-ba86-6912046fbb3a","ios":"levelo://app?vid=930e1062-7e1d-4d99-ba86-6912046fbb3a"},"vehicle_type_id":"4","last_reported":1687039571,"current_range_meters":20000,"station_id":"ce4bhe12rcd13ifvqf30","pricing_plan_id":"free"},{"bike_id":"cda28a23-f977-444e-be81-0c35c0e3524a","system_id":"levelo_inurba_marseille","lat":43.30822,"lon":5.43553,"is_reserved":false,"is_disabled":false,"rental_uris":{"android":"levelo://app?vid=cda28a23-f977-444e-be81-0c35c0e3524a","ios":"levelo://app?vid=cda28a23-f977-444e-be81-0c35c0e3524a"},"vehicle_type_id":"4","last_reported":1687039571,"current_range_meters":400,"station_id":"","pricing_plan_id":"free"},{"bike_id":"90d6893a-f1b0-4703-883c-6fbf42830f17","system_id":"levelo_inurba_marseille","lat":43.26234,"lon":5.37516,"is_reserved":false,"is_disabled":false,"rental_uris":{"android":"levelo://app?vid=90d6893a-f1b0-4703-883c-6fbf42830f17","ios":"levelo://app?vid=90d6893a-f1b0-4703-883c-6fbf42830f17"},"vehicle_type_id":"4","last_reported":1687039571,"current_range_meters":24800,"station_id":"","pricing_plan_id":"free"},{"bike_id":"87155ef8-4efb-4c75-89a1-70176ed0d1d0","system_id":"levelo_inurba_marseille","lat":43.26199,"lon":5.37536,"is_reserved":false,"is_disabled":false,"rental_uris":{"android":"levelo://app?vid=87155ef8-4efb-4c75-89a1-70176ed0d1d0","ios":"levelo://app?vid=87155ef8-4efb-4c75-89a1-70176ed0d1d0"},"vehicle_type_id":"4","last_reported":1687039571,"current_range_meters":28000,"station_id":"","pricing_plan_id":"free"},{"bike_id":"cd352925-79be-4e24-8444-88fdc27a08ad","system_id":"levelo_inurba_marseille","lat":43.26191,"lon":5.3744,"is_reserved":false,"is_disabled":false,"rental_uris":{"android":"levelo://app?vid=cd352925-79be-4e24-8444-88fdc27a08ad","ios":"levelo://app?vid=cd352925-79be-4e24-8444-88fdc27a08ad"},"vehicle_type_id":"4","last_reported":1687039571,"current_range_meters":0,"station_id":"ce4bhgp2rcd13ifvqfc0","pricing_plan_id":"free"},{"bike_id":"b6ed9d89-3a62-4cef-ba50-35984eac1702","system_id":"levelo_inurba_marseille","lat":43.262176,"lon":5.379207,"is_reserved":false,"is_disabled":false,"rental_uris":{"android":"levelo://app?vid=b6ed9d89-3a62-4cef-ba50-35984eac1702","ios":"levelo://app?vid=b6ed9d89-3a62-4cef-ba50-35984eac1702"},"vehicle_type_id":"4","last_reported":1687039571,"current_range_meters":30800,"station_id":"ce4bhjp2rcd13ifvqg90","pricing_plan_id":"free"},{"bike_id":"2aa79ce7-fff8-4b93-bc10-41660464c642","system_id":"levelo_inurba_marseille","lat":43.26213,"lon":5.37919,"is_reserved":false,"is_disabled":false,"rental_uris":{"android":"levelo://app?vid=2aa79ce7-fff8-4b93-bc10-41660464c642","ios":"levelo://app?vid=2aa79ce7-fff8-4b93-bc10-41660464c642"},"vehicle_type_id":"4","last_reported":1687039571,"current_range_meters":21200,"station_id":"ce4bhjp2rcd13ifvqg90","pricing_plan_id":"free"},{"bike_id":"b76cc4f0-c162-477e-9775-3c477ba8fe87","system_id":"levelo_inurba_marseille","lat":43.26213,"lon":5.37922,"is_reserved":false,"is_disabled":false,"rental_uris":{"android":"levelo://app?vid=b76cc4f0-c162-477e-9775-3c477ba8fe87","ios":"levelo://app?vid=b76cc4f0-c162-477e-9775-3c477ba8fe87"},"vehicle_type_id":"4","last_reported":1687039571,"current_range_meters":29600,"station_id":"ce4bhjp2rcd13ifvqg90","pricing_plan_id":"free"},{"bike_id":"ea62e870-934e-46c7-b7e6-8e74ec0b9b90","system_id":"levelo_inurba_marseille","lat":43.26212,"lon":5.37918,"is_reserved":false,"is_disabled":false,"rental_uris":{"android":"levelo://app?vid=ea62e870-934e-46c7-b7e6-8e74ec0b9b90","ios":"levelo://app?vid=ea62e870-934e-46c7-b7e6-8e74ec0b9b90"},"vehicle_type_id":"4","last_reported":1687039571,"current_range_meters":24800,"station_id":"ce4bhjp2rcd13ifvqg90","pricing_plan_id":"free"},{"bike_id":"3aaaae40-4715-472e-9fb3-833756e6b3c6","system_id":"levelo_inurba_marseille","lat":43.26213,"lon":5.37929,"is_reserved":false,"is_disabled":false,"rental_uris":{"android":"levelo://app?vid=3aaaae40-4715-472e-9fb3-833756e6b3c6","ios":"levelo://app?vid=3aaaae40-4715-472e-9fb3-833756e6b3c6"},"vehicle_type_id":"4","last_reported":1687039571,"current_range_meters":31200,"station_id":"ce4bhjp2rcd13ifvqg90","pricing_plan_id":"free"},{"bike_id":"bddd26ce-6b5c-4b34-85fc-515db0a13eaf","system_id":"levelo_inurba_marseille","lat":43.26211,"lon":5.37918,"is_reserved":false,"is_disabled":false,"rental_uris":{"android":"levelo://app?vid=bddd26ce-6b5c-4b34-85fc-515db0a13eaf","ios":"levelo://app?vid=bddd26ce-6b5c-4b34-85fc-515db0a13eaf"},"vehicle_type_id":"4","last_reported":1687039571,"current_range_meters":31200,"station_id":"ce4bhjp2rcd13ifvqg90","pricing_plan_id":"free"},{"bike_id":"9df76f25-1cd8-4d21-a4a1-42e690d94951","system_id":"levelo_inurba_marseille","lat":43.26211,"lon":5.37922,"is_reserved":false,"is_disabled":false,"rental_uris":{"android":"levelo://app?vid=9df76f25-1cd8-4d21-a4a1-42e690d94951","ios":"levelo://app?vid=9df76f25-1cd8-4d21-a4a1-42e690d94951"},"vehicle_type_id":"4","last_reported":1687039571,"current_range_meters":17200,"station_id":"ce4bhjp2rcd13ifvqg90","pricing_plan_id":"free"},{"bike_id":"511de726-445a-48f1-a41c-0b171f4678fa","system_id":"levelo_inurba_marseille","lat":43.2621,"lon":5.37928,"is_reserved":false,"is_disabled":false,"rental_uris":{"android":"levelo://app?vid=511de726-445a-48f1-a41c-0b171f4678fa","ios":"levelo://app?vid=511de726-445a-48f1-a41c-0b171f4678fa"},"vehicle_type_id":"4","last_reported":1687039571,"current_range_meters":31200,"station_id":"ce4bhjp2rcd13ifvqg90","pricing_plan_id":"free"},{"bike_id":"cb819c0f-6ffa-4f80-a81f-88af8c3cc91d","system_id":"levelo_inurba_marseille","lat":43.2621,"lon":5.37928,"is_reserved":false,"is_disabled":false,"rental_uris":{"android":"levelo://app?vid=cb819c0f-6ffa-4f80-a81f-88af8c3cc91d","ios":"levelo://app?vid=cb819c0f-6ffa-4f80-a81f-88af8c3cc91d"},"vehicle_type_id":"4","last_reported":1687039571,"current_range_meters":31200,"station_id":"ce4bhjp2rcd13ifvqg90","pricing_plan_id":"free"},{"bike_id":"84b9db6e-3ff6-4fc5-9588-de39363ea0a4","system_id":"levelo_inurba_marseille","lat":43.2621,"lon":5.379313,"is_reserved":false,"is_disabled":false,"rental_uris":{"android":"levelo://app?vid=84b9db6e-3ff6-4fc5-9588-de39363ea0a4","ios":"levelo://app?vid=84b9db6e-3ff6-4fc5-9588-de39363ea0a4"},"vehicle_type_id":"4","last_reported":1687039571,"current_range_meters":30000,"station_id":"ce4bhjp2rcd13ifvqg90","pricing_plan_id":"free"},{"bike_id":"9d9d66d5-3cae-40ac-8709-6b524ba29811","system_id":"levelo_inurba_marseille","lat":43.26209,"lon":5.37925,"is_reserved":false,"is_disabled":false,"rental_uris":{"android":"levelo://app?vid=9d9d66d5-3cae-40ac-8709-6b524ba29811","ios":"levelo://app?vid=9d9d66d5-3cae-40ac-8709-6b524ba29811"},"vehicle_type_id":"4","last_reported":1687039571,"current_range_meters":17200,"station_id":"ce4bhjp2rcd13ifvqg90","pricing_plan_id":"free"},{"bike_id":"7d384896-0137-4921-acd3-bc3badb3d20e","system_id":"levelo_inurba_marseille","lat":43.26208,"lon":5.37918,"is_reserved":false,"is_disabled":false,"rental_uris":{"android":"levelo://app?vid=7d384896-0137-4921-acd3-bc3badb3d20e","ios":"levelo://app?vid=7d384896-0137-4921-acd3-bc3badb3d20e"},"vehicle_type_id":"4","last_reported":1687039571,"current_range_meters":20400,"station_id":"ce4bhjp2rcd13ifvqg90","pricing_plan_id":"free"},{"bike_id":"345386e5-0aa6-4b66-8386-c8304249d7e8","system_id":"levelo_inurba_marseille","lat":43.26208,"lon":5.37926,"is_reserved":false,"is_disabled":false,"rental_uris":{"android":"levelo://app?vid=345386e5-0aa6-4b66-8386-c8304249d7e8","ios":"levelo://app?vid=345386e5-0aa6-4b66-8386-c8304249d7e8"},"vehicle_type_id":"4","last_reported":1687039571,"current_range_meters":18000,"station_id":"ce4bhjp2rcd13ifvqg90","pricing_plan_id":"free"},{"bike_id":"b405e01a-b660-44ad-9d22-7b92ff72c3bc","system_id":"levelo_inurba_marseille","lat":43.26208,"lon":5.37926,"is_reserved":false,"is_disabled":false,"rental_uris":{"android":"levelo://app?vid=b405e01a-b660-44ad-9d22-7b92ff72c3bc","ios":"levelo://app?vid=b405e01a-b660-44ad-9d22-7b92ff72c3bc"},"vehicle_type_id":"4","last_reported":1687039571,"current_range_meters":30800,"station_id":"ce4bhjp2rcd13ifvqg90","pricing_plan_id":"free"},{"bike_id":"ab511131-7c27-4778-8d24-a26196192374","system_id":"levelo_inurba_marseille","lat":43.26207,"lon":5.37919,"is_reserved":false,"is_disabled":false,"rental_uris":{"android":"levelo://app?vid=ab511131-7c27-4778-8d24-a26196192374","ios":"levelo://app?vid=ab511131-7c27-4778-8d24-a26196192374"},"vehicle_type_id":"4","last_reported":1687039571,"current_range_meters":10000,"station_id":"ce4bhjp2rcd13ifvqg90","pricing_plan_id":"free"},{"bike_id":"e002c8e0-d3a4-45be-a015-e49dbcdde71d","system_id":"levelo_inurba_marseille","lat":43.26208,"lon":5.37927,"is_reserved":false,"is_disabled":false,"rental_uris":{"android":"levelo://app?vid=e002c8e0-d3a4-45be-a015-e49dbcdde71d","ios":"levelo://app?vid=e002c8e0-d3a4-45be-a015-e49dbcdde71d"},"vehicle_type_id":"4","last_reported":1687039571,"current_range_meters":28800,"station_id":"ce4bhjp2rcd13ifvqg90","pricing_plan_id":"free"},{"bike_id":"1e06eb7f-d33a-44ad-b658-e04700a25e6f","system_id":"levelo_inurba_marseille","lat":43.26207,"lon":5.37924,"is_reserved":false,"is_disabled":false,"rental_uris":{"android":"levelo://app?vid=1e06eb7f-d33a-44ad-b658-e04700a25e6f","ios":"levelo://app?vid=1e06eb7f-d33a-44ad-b658-e04700a25e6f"},"vehicle_type_id":"4","last_reported":1687039571,"current_range_meters":31200,"station_id":"ce4bhjp2rcd13ifvqg90","pricing_plan_id":"free"},{"bike_id":"faab296f-48d1-46c5-b2d8-73e773fb8dde","system_id":"levelo_inurba_marseille","lat":43.26207,"lon":5.37924,"is_reserved":false,"is_disabled":false,"rental_uris":{"android":"levelo://app?vid=faab296f-48d1-46c5-b2d8-73e773fb8dde","ios":"levelo://app?vid=faab296f-48d1-46c5-b2d8-73e773fb8dde"},"vehicle_type_id":"4","last_reported":1687039571,"current_range_meters":21600,"station_id":"ce4bhjp2rcd13ifvqg90","pricing_plan_id":"free"},{"bike_id":"68160dc5-66ee-48f3-a7fd-08d448042157","system_id":"levelo_inurba_marseille","lat":43.26207,"lon":5.37925,"is_reserved":false,"is_disabled":false,"rental_uris":{"android":"levelo://app?vid=68160dc5-66ee-48f3-a7fd-08d448042157","ios":"levelo://app?vid=68160dc5-66ee-48f3-a7fd-08d448042157"},"vehicle_type_id":"4","last_reported":1687039571,"current_range_meters":28000,"station_id":"ce4bhjp2rcd13ifvqg90","pricing_plan_id":"free"},{"bike_id":"34b78aa5-f66b-433e-848f-3a318f520e7b","system_id":"levelo_inurba_marseille","lat":43.26206,"lon":5.3792,"is_reserved":false,"is_disabled":false,"rental_uris":{"android":"levelo://app?vid=34b78aa5-f66b-433e-848f-3a318f520e7b","ios":"levelo://app?vid=34b78aa5-f66b-433e-848f-3a318f520e7b"},"vehicle_type_id":"4","last_reported":1687039571,"current_range_meters":14000,"station_id":"ce4bhjp2rcd13ifvqg90","pricing_plan_id":"free"},{"bike_id":"467df531-33c3-407c-936c-56836c8edfbc","system_id":"levelo_inurba_marseille","lat":43.26206,"lon":5.37923,"is_reserved":false,"is_disabled":false,"rental_uris":{"android":"levelo://app?vid=467df531-33c3-407c-936c-56836c8edfbc","ios":"levelo://app?vid=467df531-33c3-407c-936c-56836c8edfbc"},"vehicle_type_id":"4","last_reported":1687039571,"current_range_meters":30000,"station_id":"ce4bhjp2rcd13ifvqg90","pricing_plan_id":"free"},{"bike_id":"350b9ea5-6643-4a3a-b826-0bf340ae4c16","system_id":"levelo_inurba_marseille","lat":43.26207,"lon":5.37931,"is_reserved":false,"is_disabled":false,"rental_uris":{"android":"levelo://app?vid=350b9ea5-6643-4a3a-b826-0bf340ae4c16","ios":"levelo://app?vid=350b9ea5-6643-4a3a-b826-0bf340ae4c16"},"vehicle_type_id":"4","last_reported":1687039571,"current_range_meters":20400,"station_id":"ce4bhjp2rcd13ifvqg90","pricing_plan_id":"free"},{"bike_id":"4d0f0de9-e360-4980-86a0-e12c39ac1f0a","system_id":"levelo_inurba_marseille","lat":43.26205,"lon":5.37924,"is_reserved":false,"is_disabled":false,"rental_uris":{"android":"levelo://app?vid=4d0f0de9-e360-4980-86a0-e12c39ac1f0a","ios":"levelo://app?vid=4d0f0de9-e360-4980-86a0-e12c39ac1f0a"},"vehicle_type_id":"4","last_reported":1687039571,"current_range_meters":13600,"station_id":"ce4bhjp2rcd13ifvqg90","pricing_plan_id":"free"},