{"last_updated":1702458463,"ttl":30,"version":"2.2","data":{"bikes":[{"bike_id":"3da9b715-16fa-4475-bbc5-32aace7b5088","system_id":"levelo_inurba_marseille","lat":43.31341,"lon":5.367098,"is_reserved":false,"is_disabled":false,"rental_uris":{"android":"levelo://app?vid=3da9b715-16fa-4475-bbc5-32aace7b5088","ios":"levelo://app?vid=3da9b715-16fa-4475-bbc5-32aace7b5088"},"vehicle_type_id":"4","last_reported":1702458463,"current_range_meters":28000,"station_id":"ce4bgr92rcd13ifvqc6g","pricing_plan_id":"free"},{"bike_id":"8581f538-5522-4f56-adec-5ffbe311eb09","system_id":"levelo_inurba_marseille","lat":43.313391,"lon":5.36706,"is_reserved":false,"is_disabled":false,"rental_uris":{"android":"levelo://app?vid=8581f538-5522-4f56-adec-5ffbe311eb09","ios":"levelo://app?vid=8581f538-5522-4f56-adec-5ffbe311eb09"},"vehicle_type_id":"4","last_reported":1702458463,"current_range_meters":10400,"station_id":"ce4bgr92rcd13ifvqc6g","pricing_plan_id":"free"},{"bike_id":"89cb498c-8917-4dc4-b170-cfab119c6084","system_id":"levelo_inurba_marseille","lat":43.31341,"lon":5.367098,"is_reserved":false,"is_disabled":false,"rental_uris":{"android":"levelo://app?vid=89cb498c-8917-4dc4-b170-cfab119c6084","ios":"levelo://app?vid=89cb498c-8917-4dc4-b170-cfab119c6084"},"vehicle_type_id":"4","last_reported":1702458463,"current_range_meters":12400,"station_id":"ce4bgr92rcd13ifvqc6g","pricing_plan_id":"free"},{"bike_id":"f82fb867-fc5d-44de-8d5c-3ff43cdeb374","system_id":"levelo_inurba_marseille","lat":43.313391,"lon":5.36706,"is_reserved":false,"is_disabled":false,"rental_uris":{"android":"levelo://app?vid=f82fb867-fc5d-44de-8d5c-3ff43cdeb374","ios":"levelo://app?vid=f82fb867-fc5d-44de-8d5c-3ff43cdeb374"},"vehicle_type_id":"4","last_reported":1702458463,"current_range_meters":21200,"station_id":"ce4bgr92rcd13ifvqc6g","pricing_plan_id":"free"},{"bike_id":"13c1f4fb-885a-44dc-99cf-87eaca28e421","system_id":"levelo_inurba_marseille","lat":43.313391,"lon":5.36706,"is_reserved":false,"is_disabled":false,"rental_uris":{"android":"levelo://app?vid=13c1f4fb-885a-44dc-99cf-87eaca28e421","ios":"levelo://app?vid=13c1f4fb-885a-44dc-99cf-87eaca28e421"},"vehicle_type_id":"4","last_reported":1702458463,"current_range_meters":12000,"station_id":"ce4bgr92rcd13ifvqc6g","pricing_plan_id":"free"},{"bike_id":"e2695bd0-ce67-4f77-90a9-96930a84434f","system_id":"levelo_inurba_marseille","lat":43.30907,"lon":5.36845,"is_reserved":false,"is_disabled":false,"rental_uris":{"android":"levelo://app?vid=e2695bd0-ce67-4f77-90a9-96930a84434f","ios":"levelo://app?vid=e2695bd0-ce67-4f77-90a9-96930a84434f"},"vehicle_type_id":"4","last_reported":1702458463,"current_range_meters":14400,"station_id":"ce4bgn92rcd13ifvqbvg","pricing_plan_id":"free"},{"bike_id":"3d8c2391-28a6-4a80-a1f9-65d545b62b01","system_id":"levelo_inurba_marseille","lat":43.309076,"lon":5.368465,"is_reserved":false,"is_disabled":false,"rental_uris":{"android":"levelo://app?vid=3d8c2391-28a6-4a80-a1f9-65d545b62b01","ios":"levelo://app?vid=3d8c2391-28a6-4a80-a1f9-65d545b62b01"},"vehicle_type_id":"4","last_reported":1702458463,"current_range_meters":18000,"station_id":"ce4bgn92rcd13ifvqbvg","pricing_plan_id":"free"},{"bike_id":"d5073758-7e10-48e6-8c33-512d77b4eb64","system_id":"levelo_inurba_marseille","lat":43.309,"lon":5.36844,"is_reserved":false,"is_disabled":false,"rental_uris":{"android":"levelo://app?vid=d5073758-7e10-48e6-8c33-512d77b4eb64","ios":"levelo://app?vid=d5073758-7e10-48e6-8c33-512d77b4eb64"},"vehicle_type_id":"4","last_reported":1702458463,"current_range_meters":25600,"station_id":"ce4bgn92rcd13ifvqbvg","pricing_plan_id":"free"},{"bike_id":"a1e3aba9-fcfd-4739-90ab-7cc1f526f6df","system_id":"levelo_inurba_marseille","lat":43.309039,"lon":5.371797,"is_reserved":false,"is_disabled":false,"rental_uris":{"android":"levelo://app?vid=a1e3aba9-fcfd-4739-90ab-7cc1f526f6df","ios":"levelo://app?vid=a1e3aba9-fcfd-4739-90ab-7cc1f526f6df"},"vehicle_type_id":"4","last_reported":1702458463,"current_range_meters":26400,"station_id":"ce4bguh2rcd13ifvqckg","pricing_plan_id":"free"},{"bike_id":"3f8b821f-e430-4a35-bf14-f8b6e777ea11","system_id":"levelo_inurba_marseille","lat":43.313939,"lon":5.375306,"is_reserved":false,"is_disabled":false,"rental_uris":{"android":"levelo://app?vid=3f8b821f-e430-4a35-bf14-f8b6e777ea11","ios":"levelo://app?vid=3f8b821f-e430-4a35-bf14-f8b6e777ea11"},"vehicle_type_id":"4","last_reported":1702458463,"current_range_meters":8400,"station_id":"","pricing_plan_id":"free"},{"bike_id":"955e4ab2-16e5-44e8-a986-a2f50ff96c06","system_id":"levelo_inurba_marseille","lat":43.305382,"lon":5.365389,"is_reserved":false,"is_disabled":false,"rental_uris":{"android":"levelo://app?vid=955e4ab2-16e5-44e8-a986-a2f50ff96c06","ios":"levelo://app?vid=955e4ab2-16e5-44e8-a986-a2f50ff96c06"},"vehicle_type_id":"4","last_reported":1702458463,"current_range_meters":27600,"station_id":"","pricing_plan_id":"free"},{"bike_id":"5068c8cc-dfdf-49ae-a09e-68aac06cdd58","system_id":"levelo_inurba_marseille","lat":43.305714,"lon":5.365633,"is_reserved":false,"is_disabled":false,"rental_uris":{"android":"levelo://app?vid=5068c8cc-dfdf-49ae-a09e-68aac06cdd58","ios":"levelo://app?vid=5068c8cc-dfdf-49ae-a09e-68aac06cdd58"},"vehicle_type_id":"4","last_reported":1702458463,"current_range_meters":27600,"station_id":"ce4bgs12rcd13ifvqcag","pricing_plan_id":"free"},{"bike_id":"f439a4ed-6ed9-4523-a66f-b75f98fb0b6d","system_id":"levelo_inurba_marseille","lat":43.305706,"lon":5.365654,"is_reserved":false,"is_disabled":false,"rental_uris":{"android":"levelo://app?vid=f439a4ed-6ed9-4523-a66f-b75f98fb0b6d","ios":"levelo://app?vid=f439a4ed-6ed9-4523-a66f-b75f98fb0b6d"},"vehicle_type_id":"4","last_reported":1702458463,"current_range_meters":16800,"station_id":"ce4bgs12rcd13ifvqcag","pricing_plan_id":"free"},{"bike_id":"31d73def-4038-4a71-bb25-805788dde480","system_id":"levelo_inurba_marseille","lat":43.305706,"lon":5.365654,"is_reserved":false,"is_disabled":false,"rental_uris":{"android":"levelo://app?vid=31d73def-4038-4a71-bb25-805788dde480","ios":"levelo://app?vid=31d73def-4038-4a71-bb25-805788dde480"},"vehicle_type_id":"4","last_reported":1702458463,"current_range_meters":32000,"station_id":"ce4bgs12rcd13ifvqcag","pricing_plan_id":"free"},{"bike_id":"dc68debd-6203-4696-b9a5-55eea857c5a0","system_id":"levelo_inurba_marseille","lat":43.317185,"lon":5.376794,"is_reserved":false,"is_disabled":false,"rental_uris":{"android":"levelo://app?vid=dc68debd-6203-4696-b9a5-55eea857c5a0","ios":"levelo://app?vid=dc68debd-6203-4696-b9a5-55eea857c5a0"},"vehicle_type_id":"4","last_reported":1702458463,"current_range_meters":24400,"station_id":"ce4bgth2rcd13ifvqch0","pricing_plan_id":"free"},{"bike_id":"f0547b77-6f20-423d-98ca-ff544c3c1d23","system_id":"levelo_inurba_marseille","lat":43.317,"lon":5.37827,"is_reserved":false,"is_disabled":false,"rental_uris":{"android":"levelo://app?vid=f0547b77-6f20-423d-98ca-ff544c3c1d23","ios":"levelo://app?vid=f0547b77-6f20-423d-98ca-ff544c3c1d23"},"vehicle_type_id":"4","last_reported":1702458463,"current_range_meters":21600,"station_id":"","pricing_plan_id":"free"},{"bike_id":"bf4dad79-34f4-456f-9cf6-a3cad45f24b9","system_id":"levelo_inurba_marseille","lat":43.303046,"lon":5.368981,"is_reserved":false,"is_disabled":false,"rental_uris":{"android":"levelo://app?vid=bf4dad79-34f4-456f-9cf6-a3cad45f24b9","ios":"levelo://app?vid=bf4dad79-34f4-456f-9cf6-a3cad45f24b9"},"vehicle_type_id":"4","last_reported":1702458463,"current_range_meters":4400,"station_id":"ce4bgqh2rcd13ifvqc5g","pricing_plan_id":"free"},{"bike_id":"0bc36960-caa0-4dc3-8385-51f352dce1ae","system_id":"levelo_inurba_marseille","lat":43.30304,"lon":5.368987,"is_reserved":false,"is_disabled":false,"rental_uris":{"android":"levelo://app?vid=0bc36960-caa0-4dc3-8385-51f352dce1ae","ios":"levelo://app?vid=0bc36960-caa0-4dc3-8385-51f352dce1ae"},"vehicle_type_id":"4","last_reported":1702458463,"current_range_meters":10800,"station_id":"ce4bgqh2rcd13ifvqc5g","pricing_plan_id":"free"},{"bike_id":"9467d73e-0515-4cf0-a7ba-5edf32f4286d","system_id":"levelo_inurba_marseille","lat":43.303046,"lon":5.368981,"is_reserved":false,"is_disabled":false,"rental_uris":{"android":"levelo://app?vid=9467d73e-0515-4cf0-a7ba-5edf32f4286d","ios":"levelo://app?vid=9467d73e-0515-4cf0-a7ba-5edf32f4286d"},"vehicle_type_id":"4","last_reported":1702458463,"current_range_meters":28400,"station_id":"ce4bgqh2rcd13ifvqc5g","pricing_plan_id":"free"},{"bike_id":"ed7bf12c-5623-4eab-84f6-e0d3c43baa25","system_id":"levelo_inurba_marseille","lat":43.301939,"lon":5.366286,"is_reserved":false,"is_disabled":false,"rental_uris":{"android":"levelo://app?vid=ed7bf12c-5623-4eab-84f6-e0d3c43baa25","ios":"levelo://app?vid=ed7bf12c-5623-4eab-84f6-e0d3c43baa25"},"vehicle_type_id":"4","last_reported":1702458463,"current_range_meters":16400,"station_id":"ce4bgrh2rcd13ifvqc8g","pricing_plan_id":"free"},{"bike_id":"6448e185-b705-4f45-9847-29bf2e5840be","system_id":"levelo_inurba_marseille","lat":43.301939,"lon":5.366286,"is_reserved":false,"is_disabled":false,"rental_uris":{"android":"levelo://app?vid=6448e185-b705-4f45-9847-29bf2e5840be","ios":"levelo://app?vid=6448e185-b705-4f45-9847-29bf2e5840be"},"vehicle_type_id":"4","last_reported":1702458463,"current_range_meters":18000,"station_id":"ce4bgrh2rcd13ifvqc8g","pricing_plan_id":"free"},{"bike_id":"bd663495-2d00-45d9-9147-438013957ae2","system_id":"levelo_inurba_marseille","lat":43.304606,"lon":5.379026,"is_reserved":false,"is_disabled":false,"rental_uris":{"android":"levelo://app?vid=bd663495-2d00-45d9-9147-438013957ae2","ios":"levelo://app?vid=bd663495-2d00-45d9-9147-438013957ae2"},"vehicle_type_id":"4","last_reported":1702458463,"current_range_meters":21600,"station_id":"ce4bgup2rcd13ifvqcn0","pricing_plan_id":"free"},{"bike_id":"786a39c6-14d6-4dd9-912f-4bdfae06e5a6","system_id":"levelo_inurba_marseille","lat":43.304606,"lon":5.379026,"is_reserved":false,"is_disabled":false,"rental_uris":{"android":"levelo://app?vid=786a39c6-14d6-4dd9-912f-4bdfae06e5a6","ios":"levelo://app?vid=786a39c6-14d6-4dd9-912f-4bdfae06e5a6"},"vehicle_type_id":"4","last_reported":1702458463,"current_range_meters":14800,"station_id":"ce4bgup2rcd13ifvqcn0","pricing_plan_id":"free"},{"bike_id":"3ecccf1f-40d8-41f5-9602-6cc522a72bd5","system_id":"levelo_inurba_marseille","lat":43.304606,"lon":5.379026,"is_reserved":false,"is_disabled":false,"rental_uris":{"android":"levelo://app?vid=3ecccf1f-40d8-41f5-9602-6cc522a72bd5","ios":"levelo://app?vid=3ecccf1f-40d8-41f5-9602-6cc522a72bd5"},"vehicle_type_id":"4","last_reported":1702458463,"current_range_meters":0,"station_id":"ce4bgup2rcd13ifvqcn0","pricing_plan_id":"free"},{"bike_id":"345f35ec-090f-4c29-9962-aedc953a09b5","system_id":"levelo_inurba_marseille","lat":43.304606,"lon":5.379026,"is_reserved":false,"is_disabled":false,"rental_uris":{"android":"levelo://app?vid=345f35ec-090f-4c29-9962-aedc953a09b5","ios":"levelo://app?vid=345f35ec-090f-4c29-9962-aedc953a09b5"},"vehicle_type_id":"4","last_reported":1702458463,"current_range_meters":19600,"station_id":"ce4bgup2rcd13ifvqcn0","pricing_plan_id":"free"},{"bike_id":"cf99650e-1d8a-4c28-826d-0125bd8508f7","system_id":"levelo_inurba_marseille","lat":43.304606,"lon":5.379026,"is_reserved":false,"is_disabled":false,"rental_uris":{"android":"levelo://app?vid=cf99650e-1d8a-4c28-826d-0125bd8508f7","ios":"levelo://app?vid=cf99650e-1d8a-4c28-826d-0125bd8508f7"},"vehicle_type_id":"4","last_reported":1702458463,"current_range_meters":26800,"station_id":"ce4bgup2rcd13ifvqcn0","pricing_plan_id":"free"},{"bike_id":"806d1095-eba4-4b4e-a978-6519c4d6aea4","system_id":"levelo_inurba_marseille","lat":43.30456,"lon":5.37902,"is_reserved":false,"is_disabled":false,"rental_uris":{"android":"levelo://app?vid=806d1095-eba4-4b4e-a978-6519c4d6aea4","ios":"levelo://app?vid=806d1095-eba4-4b4e-a978-6519c4d6aea4"},"vehicle_type_id":"4","last_reported":1702458463,"current_range_meters":0,"station_id":"ce4bgup2rcd13ifvqcn0","pricing_plan_id":"free"},{"bike_id":"443495d3-5c95-4ec2-bf2b-82b8d38de0b4","system_id":"levelo_inurba_marseille","lat":43.324771,"lon":5.36557,"is_reserved":false,"is_disabled":false,"rental_uris":{"android":"levelo://app?vid=443495d3-5c95-4ec2-bf2b-82b8d38de0b4","ios":"levelo://app?vid=443495d3-5c95-4ec2-bf2b-82b8d38de0b4"},"vehicle_type_id":"4","last_reported":1702458463,"current_range_meters":22000,"station_id":"ce4bhs12rcd13ifvqhvg","pricing_plan_id":"free"},{"bike_id":"aa3cdc10-a2b4-4348-a58d-ea513d683fe2","system_id":"levelo_inurba_marseille","lat":43.324771,"lon":5.36557,"is_reserved":false,"is_disabled":false,"rental_uris":{"android":"levelo://app?vid=aa3cdc10-a2b4-4348-a58d-ea513d683fe2","ios":"levelo://app?vid=aa3cdc10-a2b4-4348-a58d-ea513d683fe2"},"vehicle_type_id":"4","last_reported":1702458463,"current_range_meters":23600,"station_id":"ce4bhs12rcd13ifvqhvg","pricing_plan_id":"free"},{"bike_id":"52aa6ea4-0821-40ea-878b-8773a1b09047","system_id":"levelo_inurba_marseille","lat":43.324845,"lon":5.36564,"is_reserved":false,"is_disabled":false,"rental_uris":{"android":"levelo://app?vid=52aa6ea4-0821-40ea-878b-8773a1b09047","ios":"levelo://app?vid=52aa6ea4-0821-40ea-878b-8773a1b09047"},"vehicle_type_id":"4","last_reported":1702458463,"current_range_meters":15600,"station_id":"ce4bhs12rcd13ifvqhvg","pricing_plan_id":"free"},{"bike_id":"b7ee20e8-bd1e-4140-9fe4-3bdec21128ef","system_id":"levelo_inurba_marseille","lat":43.301429,"lon":5.37413,"is_reserved":false,"is_disabled":false,"rental_uris":{"android":"levelo://app?vid=b7ee20e8-bd1e-4140-9fe4-3bdec21128ef","ios":"levelo://app?vid=b7ee20e8-bd1e-4140-9fe4-3bdec21128ef"},"vehicle_type_id":"4","last_reported":1702458463,"current_range_meters":20400,"station_id":"ce4bgs92rcd13ifvqcc0","pricing_plan_id":"free"},{"bike_id":"5b5dcf26-a151-47d4-a13d-98d287b3e762","system_id":"levelo_inurba_marseille","lat":43.301429,"lon":5.37413,"is_reserved":false,"is_disabled":false,"rental_uris":{"android":"levelo://app?vid=5b5dcf26-a151-47d4-a13d-98d287b3e762","ios":"levelo://app?vid=5b5dcf26-a151-47d4-a13d-98d287b3e762"},"vehicle_type_id":"4","last_reported":1702458463,"current_range_meters":16400,"station_id":"ce4bgs92rcd13ifvqcc0","pricing_plan_id":"free"},{"bike_id":"9b40e5cd-36b8-403d-ae9d-29c69884f68b","system_id":"levelo_inurba_marseille","lat":43.298433,"lon":5.362774,"is_reserved":false,"is_disabled":false,"rental_uris":{"android":"levelo://app?vid=9b40e5cd-36b8-403d-ae9d-29c69884f68b","ios":"levelo://app?vid=9b40e5cd-36b8-403d-ae9d-29c69884f68b"},"vehicle_type_id":"4","last_reported":1702458463,"current_range_meters":9600,"station_id":"ce4bgpp2rcd13ifvqc3g","pricing_plan_id":"free"},{"bike_id":"2c2b3f82-6c5d-4f0f-8d24-54dd1bcebd06","system_id":"levelo_inurba_marseille","lat":43.298433,"lon":5.362774,"is_reserved":false,"is_disabled":false,"rental_uris":{"android":"levelo://app?vid=2c2b3f82-6c5d-4f0f-8d24-54dd1bcebd06","ios":"levelo://app?vid=2c2b3f82-6c5d-4f0f-8d24-54dd1bcebd06"},"vehicle_type_id":"4","last_reported":1702458463,"current_range_meters":31600,"station_id":"ce4bgpp2rcd13ifvqc3g","pricing_plan_id":"free"},{"bike_id":"c3c042f3-5c14-40b6-bc32-21ec2071e696","system_id":"levelo_inurba_marseille","lat":43.298433,"lon":5.362774,"is_reserved":false,"is_disabled":false,"rental_uris":{"android":"levelo://app?vid=c3c042f3-5c14-40b6-bc32-21ec2071e696","ios":"levelo://app?vid=c3c042f3-5c14-40b6-bc32-21ec2071e696"},"vehicle_type_id":"4","last_reported":1702458463,"current_range_meters":30000,"station_id":"ce4bgpp2rcd13ifvqc3g","pricing_plan_id":"free"},{"bike_id":"94dd4388-750d-4433-8817-e6d4ec041d47","system_id":"levelo_inurba_marseille","lat":43.298433,"lon":5.362774,"is_reserved":false,"is_disabled":false,"rental_uris":{"android":"levelo://app?vid=94dd4388-750d-4433-8817-e6d4ec041d47","ios":"levelo://app?vid=94dd4388-750d-4433-8817-e6d4ec041d47"},"vehicle_type_id":"4","last_reported":1702458463,"current_range_meters":25200,"station_id":"ce4bgpp2rcd13ifvqc3g","pricing_plan_id":"free"},{"bike_id":"e9dc218a-f9f8-4894-afbe-6c44c55ea5de","system_id":"levelo_inurba_marseille","lat":43.298433,"lon":5.362774,"is_reserved":false,"is_disabled":false,"rental_uris":{"android":"levelo://app?vid=e9dc218a-f9f8-4894-afbe-6c44c55ea5de","ios":"levelo://app?vid=e9dc218a-f9f8-4894-afbe-6c44c55ea5de"},"vehicle_type_id":"4","last_reported":1702458463,"current_range_meters":4400,"station_id":"ce4bgpp2rcd13ifvqc3g","pricing_plan_id":"free"},{"bike_id":"77a6c46d-d898-4e4f-8846-efa91689c7f0","system_id":"levelo_inurba_marseille","lat":43.302006,"lon":5.38065,"is_reserved":false,"is_disabled":false,"rental_uris":{"android":"levelo://app?vid=77a6c46d-d898-4e4f-8846-efa91689c7f0","ios":"levelo://app?vid=77a6c46d-d898-4e4f-8846-efa91689c7f0"},"vehicle_type_id":"4","last_reported":1702458463,"current_range_meters":0,"station_id":"","pricing_plan_id":"free"},{"bike_id":"ef62d099-880c-48b4-a857-30e56a94bd16","system_id":"levelo_inurba_marseille","lat":43.322872,"lon":5.382756,"is_reserved":false,"is_disabled":false,"rental_uris":{"android":"levelo://app?vid=ef62d099-880c-48b4-a857-30e56a94bd16","ios":"levelo://app?vid=ef62d099-880c-48b4-a857-30e56a94bd16"},"vehicle_type_id":"4","last_reported":1702458463,"current_range_meters":31200,"station_id":"ce4bhr12rcd13ifvqhqg","pricing_plan_id":"free"},{"bike_id":"2f3bb280-052a-4468-af6b-ff1bc60be439","system_id":"levelo_inurba_marseille","lat":43.32827,"lon":5.36686,"is_reserved":false,"is_disabled":false,"rental_uris":{"android":"levelo://app?vid=2f3bb280-052a-4468-af6b-ff1bc60be439","ios":"levelo://app?vid=2f3bb280-052a-4468-af6b-ff1bc60be439"},"vehicle_type_id":"4","last_reported":1702458463,"current_range_meters":18400,"station_id":"ce4bhs92rcd13ifvqi0g","pricing_plan_id":"free"},{"bike_id":"f6a62362-1831-4aa5-9227-c5f949743ee8","system_id":"levelo_inurba_marseille","lat":43.328316,"lon":5.366718,"is_reserved":false,"is_disabled":false,"rental_uris":{"android":"levelo://app?vid=f6a62362-1831-4aa5-9227-c5f949743ee8","ios":"levelo://app?vid=f6a62362-1831-4aa5-9227-c5f949743ee8"},"vehicle_type_id":"4","last_reported":1702458463,"current_range_meters":26800,"station_id":"ce4bhs92rcd13ifvqi0g","pricing_plan_id":"free"},{"bike_id":"7a878ee5-6910-45dd-b3bd-722059d35da7","system_id":"levelo_inurba_marseille","lat":43.29787,"lon":5.37679,"is_reserved":false,"is_disabled":false,"rental_uris":{"android":"levelo://app?vid=7a878ee5-6910-45dd-b3bd-722059d35da7","ios":"levelo://app?vid=7a878ee5-6910-45dd-b3bd-722059d35da7"},"vehicle_type_id":"4","last_reported":1702458463,"current_range_meters":9200,"station_id":"","pricing_plan_id":"free"},{"bike_id":"f149b977-e31c-44b2-9796-7a58e374fb3a","system_id":"levelo_inurba_marseille","lat":43.29573,"lon":5.367355,"is_reserved":false,"is_disabled":false,"rental_uris":{"android":"levelo://app?vid=f149b977-e31c-44b2-9796-7a58e374fb3a","ios":"levelo://app?vid=f149b977-e31c-44b2-9796-7a58e374fb3a"},"vehicle_type_id":"4","last_reported":1702458463,"current_range_meters":28000,"station_id":"ce4bgph2rcd13ifvqc2g","pricing_plan_id":"free"},{"bike_id":"917163f5-a9fe-4629-b888-f696daffb958","system_id":"levelo_inurba_marseille","lat":43.309589,"lon":5.390258,"is_reserved":false,"is_disabled":false,"rental_uris":{"android":"levelo://app?vid=917163f5-a9fe-4629-b888-f696daffb958","ios":"levelo://app?vid=917163f5-a9fe-4629-b888-f696daffb958"},"vehicle_type_id":"4","last_reported":1702458463,"current_range_meters":26400,"station_id":"ce4bgup2rcd13ifvqco0","pricing_plan_id":"free"},{"bike_id":"2ea7b05f-c8ed-43f8-acf9-5d07b6d39f80","system_id":"levelo_inurba_marseille","lat":43.309589,"lon":5.390258,"is_reserved":false,"is_disabled":false,"rental_uris":{"android":"levelo://app?vid=2ea7b05f-c8ed-43f8-acf9-5d07b6d39f80","ios":"levelo://app?vid=2ea7b05f-c8ed-43f8-acf9-5d07b6d39f80"},"vehicle_type_id":"4","last_reported":1702458463,"current_range_meters":13600,"station_id":"ce4bgup2rcd13ifvqco0","pricing_plan_id":"free"},{"bike_id":"23bbe805-c94b-4a71-b6b3-02557ecd6b8b","system_id":"levelo_inurba_marseille","lat":43.317557,"lon":5.390173,"is_reserved":false,"is_disabled":false,"rental_uris":{"android":"levelo://app?vid=23bbe805-c94b-4a71-b6b3-02557ecd6b8b","ios":"levelo://app?vid=23bbe805-c94b-4a71-b6b3-02557ecd6b8b"},"vehicle_type_id":"4","last_reported":1702458463,"current_range_meters":25600,"station_id":"ce4bhqp2rcd13ifvqhng","pricing_plan_id":"free"},{"bike_id":"3cbfc71f-c155-4a69-affa-91a6366f925f","system_id":"levelo_inurba_marseille","lat":43.299707,"lon":5.384859,"is_reserved":false,"is_disabled":false,"rental_uris":{"android":"levelo://app?vid=3cbfc71f-c155-4a69-affa-91a6366f925f","ios":"levelo://app?vid=3cbfc71f-c155-4a69-affa-91a6366f925f"},"vehicle_type_id":"4","last_reported":1702458463,"current_range_meters":30400,"station_id":"ce4bgj92rcd13ifvqbd0","pricing_plan_id":"free"},{"bike_id":"8f1b47fb-cd4a-4659-8c77-00fdd927cf02","system_id":"levelo_inurba_marseille","lat":43.295279,"lon":5.375048,"is_reserved":false,"is_disabled":false,"rental_uris":{"android":"levelo://app?vid=8f1b47fb-cd4a-4659-8c77-00fdd927cf02","ios":"levelo://app?vid=8f1b47fb-cd4a-4659-8c77-00fdd927cf02"},"vehicle_type_id":"4","last_reported":1702458463,"current_range_meters":28000,"station_id":"ce4bgkp2rcd13ifvqbmg","pricing_plan_id":"free"},{"bike_id":"190d4039-3fc9-4d91-b38e-022acda8d48d","system_id":"levelo_inurba_marseille","lat":43.309371,"lon":5.401449,"is_reserved":false,"is_disabled":false,"rental_uris":{"android":"levelo://app?vid=190d4039-3fc9-4d91-b38e-022acda8d48d","ios":"levelo://app?vid=190d4039-3fc9-4d91-b38e-022acda8d48d"},"vehicle_type_id":"4","last_reported":1702458463,"current_range_meters":10000,"station_id":"ce4bgvp2rcd13ifvqct0","pricing_plan_id":"free"},{"bike_id":"2f59eee8-f309-4f22-92d1-7f5177bee492","system_id":"levelo_inurba_marseille","lat":43.29601,"lon":5.381084,"is_reserved":false,"is_disabled":false,"rental_uris":{"android":"levelo://app?vid=2f59eee8-f309-4f22-92d1-7f5177bee492","ios":"levelo://app?vid=2f59eee8-f309-4f22-92d1-7f5177bee492"},"vehicle_type_id":"4","last_reported":1702458463,"current_range_meters":26000,"station_id":"ce4bgl12rcd13ifvqbo0","pricing_plan_id":"free"},{"bike_id":"167732c8-b026-44d1-98f6-1d19217ac5be","system_id":"levelo_inurba_marseille","lat":43.293259,"lon":5.371586,"is_reserved":false,"is_disabled":false,"rental_uris":{"android":"levelo://app?vid=167732c8-b026-44d1-98f6-1d19217ac5be","ios":"levelo://app?vid=167732c8-b026-44d1-98f6-1d19217ac5be"},"vehicle_type_id":"4","last_reported":1702458463,"current_range_meters":26800,"station_id":"ce4bgh92rcd13ifvqb40","pricing_plan_id":"free"},{"bike_id":"365d89dd-4a8a-4b09-99ab-12e88bf6270d","system_id":"levelo_inurba_marseille","lat":43.29278,"lon":5.36844,"is_reserved":false,"is_disabled":false,"rental_uris":{"android":"levelo://app?vid=365d89dd-4a8a-4b09-99ab-12e88bf6270d","ios":"levelo://app?vid=365d89dd-4a8a-4b09-99ab-12e88bf6270d"},"vehicle_type_id":"4","last_reported":1702458463,"current_range_meters":24800,"station_id":"ce4bhbp2rcd13ifvqesg","pricing_plan_id":"free"},{"bike_id":"dfbac94d-2b28-48f9-993d-5db05ea354be","system_id":"levelo_inurba_marseille","lat":43.293259,"lon":5.371586,"is_reserved":false,"is_disabled":false,"rental_uris":{"android":"levelo://app?vid=dfbac94d-2b28-48f9-993d-5db05ea354be","ios":"levelo://app?vid=dfbac94d-2b28-48f9-993d-5db05ea354be"},"vehicle_type_id":"4","last_reported":1702458463,"current_range_meters":10000,"station_id":"ce4bgh92rcd13ifvqb40","pricing_plan_id":"free"},{"bike_id":"7a9ee087-8ac5-4446-99e0-d141af274668","system_id":"levelo_inurba_marseille","lat":43.2936,"lon":5.37835,"is_reserved":false,"is_disabled":false,"rental_uris":{"android":"levelo://app?vid=7a9ee087-8ac5-4446-99e0-d141af274668","ios":"levelo://app?vid=7a9ee087-8ac5-4446-99e0-d141af274668"},"vehicle_type_id":"4","last_reported":1702458463,"current_range_meters":1200,"station_id":"ce4bgjh2rcd13ifvqbf0","pricing_plan_id":"free"},{"bike_id":"af03e5aa-ccfc-4a17-a10d-76025824d200","system_id":"levelo_inurba_marseille","lat":43.292311,"lon":5.360731,"is_reserved":false,"is_disabled":false,"rental_uris":{"android":"levelo://app?vid=af03e5aa-ccfc-4a17-a10d-76025824d200","ios":"levelo://app?vid=af03e5aa-ccfc-4a17-a10d-76025824d200"},"vehicle_type_id":"4","last_reported":1702458463,"current_range_meters":25200,"station_id":"ce4bhbh2rcd13ifvqeqg","pricing_plan_id":"free"},{"bike_id":"50c2a155-c4f1-464d-85a9-ef6762d0166e","system_id":"levelo_inurba_marseille","lat":43.291675,"lon":5.371583,"is_reserved":false,"is_disabled":false,"rental_uris":{"android":"levelo://app?vid=50c2a155-c4f1-464d-85a9-ef6762d0166e","ios":"levelo://app?vid=50c2a155-c4f1-464d-85a9-ef6762d0166e"},"vehicle_type_id":"4","last_reported":1702458463,"current_range_meters":28400,"station_id":"ce4bha92rcd13ifvqeh0","pricing_plan_id":"free"},{"bike_id":"678ba1ed-2544-4c00-91b3-be369ff3b312","system_id":"levelo_inurba_marseille","lat":43.302008,"lon":5.394694,"is_reserved":false,"is_disabled":false,"rental_uris":{"android":"levelo://app?vid=678ba1ed-2544-4c00-91b3-be369ff3b312","ios":"levelo://app?vid=678ba1ed-2544-4c00-91b3-be369ff3b312"},"vehicle_type_id":"4","last_reported":1702458463,"current_range_meters":28400,"station_id":"ce4bh0p2rcd13ifvqd70","pricing_plan_id":"free"},{"bike_id":"e845f637-7a35-47a0-844c-5b2441956b59","system_id":"levelo_inurba_marseille","lat":43.294153,"lon":5.386305,"is_reserved":false,"is_disabled":false,"rental_uris":{"android":"levelo://app?vid=e845f637-7a35-47a0-844c-5b2441956b59","ios":"levelo://app?vid=e845f637-7a35-47a0-844c-5b2441956b59"},"vehicle_type_id":"4","last_reported":1702458463,"current_range_meters":10800,"station_id":"ce4bh2h2rcd13ifvqdh0","pricing_plan_id":"free"},{"bike_id":"5b25297c-02a4-4eb1-8fde-7f60f8a4a862","system_id":"levelo_inurba_marseille","lat":43.29044,"lon":5.37588,"is_reserved":false,"is_disabled":false,"rental_uris":{"android":"levelo://app?vid=5b25297c-02a4-4eb1-8fde-7f60f8a4a862","ios":"levelo://app?vid=5b25297c-02a4-4eb1-8fde-7f60f8a4a862"},"vehicle_type_id":"4","last_reported":1702458463,"current_range_meters":23200,"station_id":"","pricing_plan_id":"free"},{"bike_id":"087a3547-808f-42ab-a68f-98fba1fc6e48","system_id":"levelo_inurba_marseille","lat":43.290327,"lon":5.375711,"is_reserved":false,"is_disabled":false,"rental_uris":{"android":"levelo://app?vid=087a3547-808f-42ab-a68f-98fba1fc6e48","ios":"levelo://app?vid=087a3547-808f-42ab-a68f-98fba1fc6e48"},"vehicle_type_id":"4","last_reported":1702458463,"current_range_meters":8800,"station_id":"ce4bh692rcd13ifvqe90","pricing_plan_id":"free"},{"bike_id":"a2ee078a-ddeb-4878-827c-98319291d5c0","system_id":"levelo_inurba_marseille","lat":43.294153,"lon":5.386305,"is_reserved":false,"is_disabled":false,"rental_uris":{"android":"levelo://app?vid=a2ee078a-ddeb-4878-827c-98319291d5c0","ios":"levelo://app?vid=a2ee078a-ddeb-4878-827c-98319291d5c0"},"vehicle_type_id":"4","last_reported":1702458463,"current_range_meters":13200,"station_id":"ce4bh2h2rcd13ifvqdh0","pricing_plan_id":"free"},{"bike_id":"941c353c-4bfd-47a9-9e37-970be5db7ba8","system_id":"levelo_inurba_marseille","lat":43.28951,"lon":5.36413,"is_reserved":false,"is_disabled":false,"rental_uris":{"android":"levelo://app?vid=941c353c-4bfd-47a9-9e37-970be5db7ba8","ios":"levelo://app?vid=941c353c-4bfd-47a9-9e37-970be5db7ba8"},"vehicle_type_id":"4","last_reported":1702458463,"current_range_meters":12800,"station_id":"ce4bhc92rcd13ifvqetg","pricing_plan_id":"free"},{"bike_id":"f8f0686e-72b5-4342-8af6-2000be4c3eec","system_id":"levelo_inurba_marseille","lat":43.290161,"lon":5.375651,"is_reserved":false,"is_disabled":false,"rental_uris":{"android":"levelo://app?vid=f8f0686e-72b5-4342-8af6-2000be4c3eec","ios":"levelo://app?vid=f8f0686e-72b5-4342-8af6-2000be4c3eec"},"vehicle_type_id":"4","last_reported":1702458463,"current_range_meters":0,"station_id":"","pricing_plan_id":"free"},{"bike_id":"3d294140-9ffc-4c77-9c92-6d796411ffea","system_id":"levelo_inurba_marseille","lat":43.290103,"lon":5.356114,"is_reserved":false,"is_disabled":false,"rental_uris":{"android":"levelo://app?vid=3d294140-9ffc-4c77-9c92-6d796411ffea","ios":"levelo://app?vid=3d294140-9ffc-4c77-9c92-6d796411ffea"},"vehicle_type_id":"4","last_reported":1702458463,"current_range_meters":23200,"station_id":"ce4bhb92rcd13ifvqen0","pricing_plan_id":"free"},{"bike_id":"4374d41a-d7bd-4edf-a189-9f6d7cf38e89","system_id":"levelo_inurba_marseille","lat":43.289743,"lon":5.378304,"is_reserved":false,"is_disabled":false,"rental_uris":{"android":"levelo://app?vid=4374d41a-d7bd-4edf-a189-9f6d7cf38e89","ios":"levelo://app?vid=4374d41a-d7bd-4edf-a189-9f6d7cf38e89"},"vehicle_type_id":"4","last_reported":1702458463,"current_range_meters":10000,"station_id":"ce4bh9p2rcd13ifvqed0","pricing_plan_id":"free"},{"bike_id":"d2aa3117-4182-4508-8677-7f8e97c50107","system_id":"levelo_inurba_marseille","lat":43.2901,"lon":5.381269,"is_reserved":false,"is_disabled":false,"rental_uris":{"android":"levelo://app?vid=d2aa3117-4182-4508-8677-7f8e97c50107","ios":"levelo://app?vid=d2aa3117-4182-4508-8677-7f8e97c50107"},"vehicle_type_id":"4","last_reported":1702458463,"current_range_meters":30800,"station_id":"ce4bh4p2rcd13ifvqe1g","pricing_plan_id":"free"},{"bike_id":"67a71298-f781-4402-8d03-cdb5dd11acae","system_id":"levelo_inurba_marseille","lat":43.337451,"lon":5.37463,"is_reserved":false,"is_disabled":false,"rental_uris":{"android":"levelo://app?vid=67a71298-f781-4402-8d03-cdb5dd11acae","ios":"levelo://app?vid=67a71298-f781-4402-8d03-cdb5dd11acae"},"vehicle_type_id":"4","last_reported":1702458463,"current_range_meters":28400,"station_id":"","pricing_plan_id":"free"},{"bike_id":"d6743355-1548-4ab2-86b1-f17f3ddf380c","system_id":"levelo_inurba_marseille","lat":43.33753,"lon":5.37461,"is_reserved":false,"is_disabled":false,"rental_uris":{"android":"levelo://app?vid=d6743355-1548-4ab2-86b1-f17f3ddf380c","ios":"levelo://app?vid=d6743355-1548-4ab2-86b1-f17f3ddf380c"},"vehicle_type_id":"4","last_reported":1702458463,"current_range_meters":30000,"station_id":"","pricing_plan_id":"free"},{"bike_id":"709bebcd-7a96-4a30-894a-152bbb656aa7","system_id":"levelo_inurba_marseille","lat":43.33768,"lon":5.37475,"is_reserved":false,"is_disabled":false,"rental_uris":{"android":"levelo://app?vid=709bebcd-7a96-4a30-894a-152bbb656aa7","ios":"levelo://app?vid=709bebcd-7a96-4a30-894a-152bbb656aa7"},"vehicle_type_id":"4","last_reported":1702458463,"current_range_meters":16800,"station_id":"","pricing_plan_id":"free"},{"bike_id":"3cbcbb37-a92d-4f78-b689-2f73f286e701","system_id":"levelo_inurba_marseille","lat":43.33769,"lon":5.37476,"is_reserved":false,"is_disabled":false,"rental_uris":{"android":"levelo://app?vid=3cbcbb37-a92d-4f78-b689-2f73f286e701","ios":"levelo://app?vid=3cbcbb37-a92d-4f78-b689-2f73f286e701"},"vehicle_type_id":"4","last_reported":1702458463,"current_range_meters":14000,"station_id":"","pricing_plan_id":"free"},{"bike_id":"c6f51b3a-e34b-4807-900d-ce4e1dc52ae1","system_id":"levelo_inurba_marseille","lat":43.257079,"lon":5.411051,"is_reserved":false,"is_disabled":false,"rental_uris":{"android":"levelo://app?vid=c6f51b3a-e34b-4807-900d-ce4e1dc52ae1","ios":"levelo://app?vid=c6f51b3a-e34b-4807-900d-ce4e1dc52ae1"},"vehicle_type_id":"4","last_reported":1702458463,"current_range_meters":11600,"station_id":"ce4bhkp2rcd13ifvqgd0","pricing_plan_id":"free"},{"bike_id":"f0b352e0-3ae6-4504-9f62-2514e01bbb71","system_id":"levelo_inurba_marseille","lat":43.298681,"lon":5.397225,"is_reserved":false,"is_disabled":false,"rental_uris":{"android":"levelo://app?vid=f0b352e0-3ae6-4504-9f62-2514e01bbb71","ios":"levelo://app?vid=f0b352e0-3ae6-4504-9f62-2514e01bbb71"},"vehicle_type_id":"4","last_reported":1702458463,"current_range_meters":16800,"station_id":"ce4bh0h2rcd13ifvqd50","pricing_plan_id":"free"},{"bike_id":"2664540a-62df-46c6-85a7-62261b5674b1","system_id":"levelo_inurba_marseille","lat":43.286593,"lon":5.363346,"is_reserved":false,"is_disabled":false,"rental_uris":{"android":"levelo://app?vid=2664540a-62df-46c6-85a7-62261b5674b1","ios":"levelo://app?vid=2664540a-62df-46c6-85a7-62261b5674b1"},"vehicle_type_id":"4","last_reported":1702458463,"current_range_meters":30400,"station_id":"ce4bhah2rcd13ifvqej0","pricing_plan_id":"free"},{"bike_id":"302a48de-139a-4a79-a939-3b469ec87209","system_id":"levelo_inurba_marseille","lat":43.29021,"lon":5.38639,"is_reserved":false,"is_disabled":false,"rental_uris":{"android":"levelo://app?vid=302a48de-139a-4a79-a939-3b469ec87209","ios":"levelo://app?vid=302a48de-139a-4a79-a939-3b469ec87209"},"vehicle_type_id":"4","last_reported":1702458463,"current_range_meters":0,"station_id":"ce4bh4p2rcd13ifvqe0g","pricing_plan_id":"free"},{"bike_id":"bdef343e-3919-4410-b23f-0d081c0c7b47","system_id":"levelo_inurba_marseille","lat":43.287185,"lon":5.379373,"is_reserved":false,"is_disabled":false,"rental_uris":{"android":"levelo://app?vid=bdef343e-3919-4410-b23f-0d081c0c7b47","ios":"levelo://app?vid=bdef343e-3919-4410-b23f-0d081c0c7b47"},"vehicle_type_id":"4","last_reported":1702458463,"current_range_meters":12800,"station_id":"ce4bh9p2rcd13ifvqec0","pricing_plan_id":"free"},{"bike_id":"54b4c7d2-420f-4944-bf36-fe375e34082a","system_id":"levelo_inurba_marseille","lat":43.287184,"lon":5.37937,"is_reserved":false,"is_disabled":false,"rental_uris":{"android":"levelo://app?vid=54b4c7d2-420f-4944-bf36-fe375e34082a","ios":"levelo://app?vid=54b4c7d2-420f-4944-bf36-fe375e34082a"},"vehicle_type_id":"4","last_reported":1702458463,"current_range_meters":12400,"station_id":"ce4bh9p2rcd13ifvqec0","pricing_plan_id":"free"},{"bike_id":"af1c0583-a6f9-4622-9c5d-e55b8324ff6d","system_id":"levelo_inurba_marseille","lat":43.287184,"lon":5.37937,"is_reserved":false,"is_disabled":false,"rental_uris":{"android":"levelo://app?vid=af1c0583-a6f9-4622-9c5d-e55b8324ff6d","ios":"levelo://app?vid=af1c0583-a6f9-4622-9c5d-e55b8324ff6d"},"vehicle_type_id":"4","last_reported":1702458463,"current_range_meters":2800,"station_id":"ce4bh9p2rcd13ifvqec0","pricing_plan_id":"free"},{"bike_id":"72daed3d-5ff3-4153-9f56-20fdfd6e38f7","system_id":"levelo_inurba_marseille","lat":43.295713,"lon":5.399639,"is_reserved":false,"is_disabled":false,"rental_uris":{"android":"levelo://app?vid=72daed3d-5ff3-4153-9f56-20fdfd6e38f7","ios":"levelo://app?vid=72daed3d-5ff3-4153-9f56-20fdfd6e38f7"},"vehicle_type_id":"4","last_reported":1702458463,"current_range_meters":28000,"station_id":"ce4bh312rcd13ifvqdj0","pricing_plan_id":"free"},{"bike_id":"b1378e90-4919-4496-a86a-6036eb619aef","system_id":"levelo_inurba_marseille","lat":43.32337,"lon":5.40623,"is_reserved":false,"is_disabled":false,"rental_uris":{"android":"levelo://app?vid=b1378e90-4919-4496-a86a-6036eb619aef","ios":"levelo://app?vid=b1378e90-4919-4496-a86a-6036eb619aef"},"vehicle_type_id":"4","last_reported":1702458463,"current_range_meters":0,"station_id":"ce4bhq92rcd13ifvqhjg","pricing_plan_id":"free"},{"bike_id":"02b736b5-3933-4c7a-9b06-0188c462dd77","system_id":"levelo_inurba_marseille","lat":43.284793,"lon":5.384119,"is_reserved":false,"is_disabled":false,"rental_uris":{"android":"levelo://app?vid=02b736b5-3933-4c7a-9b06-0188c462dd77","ios":"levelo://app?vid=02b736b5-3933-4c7a-9b06-0188c462dd77"},"vehicle_type_id":"4","last_reported":1702458463,"current_range_meters":11200,"station_id":"ce4bh512rcd13ifvqe3g","pricing_plan_id":"free"},{"bike_id":"45366f3f-8c9b-42dc-b92d-59b1f0248e10","system_id":"levelo_inurba_marseille","lat":43.284219,"lon":5.3497,"is_reserved":false,"is_disabled":false,"rental_uris":{"android":"levelo://app?vid=45366f3f-8c9b-42dc-b92d-59b1f0248e10","ios":"levelo://app?vid=45366f3f-8c9b-42dc-b92d-59b1f0248e10"},"vehicle_type_id":"4","last_reported":1702458463,"current_range_meters":13600,"station_id":"ce4bhbh2rcd13ifvqepg","pricing_plan_id":"free"},{"bike_id":"079a9048-a019-4927-9572-7503858f6af7","system_id":"levelo_inurba_marseille","lat":43.289363,"lon":5.396322,"is_reserved":false,"is_disabled":false,"rental_uris":{"android":"levelo://app?vid=079a9048-a019-4927-9572-7503858f6af7","ios":"levelo://app?vid=079a9048-a019-4927-9572-7503858f6af7"},"vehicle_type_id":"4","last_reported":1702458463,"current_range_meters":28000,"station_id":"ce4bh3h2rcd13ifvqdn0","pricing_plan_id":"free"},{"bike_id":"d0745363-d4f1-4bd7-9320-546758b8fc47","system_id":"levelo_inurba_marseille","lat":43.282693,"lon":5.350573,"is_reserved":false,"is_disabled":false,"rental_uris":{"android":"levelo://app?vid=d0745363-d4f1-4bd7-9320-546758b8fc47","ios":"levelo://app?vid=d0745363-d4f1-4bd7-9320-546758b8fc47"},"vehicle_type_id":"4","last_reported":1702458463,"current_range_meters":13600,"station_id":"","pricing_plan_id":"free"},{"bike_id":"c2a97232-1ab8-4ede-9f0c-879f2c3be379","system_id":"levelo_inurba_marseille","lat":43.28573,"lon":5.394992,"is_reserved":false,"is_disabled":false,"rental_uris":{"android":"levelo://app?vid=c2a97232-1ab8-4ede-9f0c-879f2c3be379","ios":"levelo://app?vid=c2a97232-1ab8-4ede-9f0c-879f2c3be379"},"vehicle_type_id":"4","last_reported":1702458463,"current_range_meters":23600,"station_id":"ce4bh292rcd13ifvqdg0","pricing_plan_id":"free"},{"bike_id":"9f0a0553-ca14-40a5-987d-77f17f2a9d5b","system_id":"levelo_inurba_marseille","lat":43.28573,"lon":5.394992,"is_reserved":false,"is_disabled":false,"rental_uris":{"android":"levelo://app?vid=9f0a0553-ca14-40a5-987d-77f17f2a9d5b","ios":"levelo://app?vid=9f0a0553-ca14-40a5-987d-77f17f2a9d5b"},"vehicle_type_id":"4","last_reported":1702458463,"current_range_meters":13200,"station_id":"ce4bh292rcd13ifvqdg0","pricing_plan_id":"free"},{"bike_id":"3a4d2c9d-3dd0-44b2-bd24-6f65c04f3652","system_id":"levelo_inurba_marseille","lat":43.326605,"lon":5.409903,"is_reserved":false,"is_disabled":false,"rental_uris":{"android":"levelo://app?vid=3a4d2c9d-3dd0-44b2-bd24-6f65c04f3652","ios":"levelo://app?vid=3a4d2c9d-3dd0-44b2-bd24-6f65c04f3652"},"vehicle_type_id":"4","last_reported":1702458463,"current_range_meters":27200,"station_id":"ce4bhpp2rcd13ifvqhgg","pricing_plan_id":"free"},{"bike_id":"7b12e561-7dea-43fb-a938-03acb4d64507","system_id":"levelo_inurba_marseille","lat":43.304188,"lon":5.412904,"is_reserved":false,"is_disabled":false,"rental_uris":{"android":"levelo://app?vid=7b12e561-7dea-43fb-a938-03acb4d64507","ios":"levelo://app?vid=7b12e561-7dea-43fb-a938-03acb4d64507"},"vehicle_type_id":"4","last_reported":1702458463,"current_range_meters":29600,"station_id":"ce4bhop2rcd13ifvqh8g","pricing_plan_id":"free"},{"bike_id":"05506258-6b2c-413a-b99c-e3f1357ec725","system_id":"levelo_inurba_marseille","lat":43.279087,"lon":5.380114,"is_reserved":false,"is_disabled":false,"rental_uris":{"android":"levelo://app?vid=05506258-6b2c-413a-b99c-e3f1357ec725","ios":"levelo://app?vid=05506258-6b2c-413a-b99c-e3f1357ec725"},"vehicle_type_id":"4","last_reported":1702458463,"current_range_meters":20400,"station_id":"ce4bhf92rcd13ifvqf50","pricing_plan_id":"free"},{"bike_id":"7c178209-6470-420c-be24-0913cfd03e4c","system_id":"levelo_inurba_marseille","lat":43.279742,"lon":5.38744,"is_reserved":false,"is_disabled":false,"rental_uris":{"android":"levelo://app?vid=7c178209-6470-420c-be24-0913cfd03e4c","ios":"levelo://app?vid=7c178209-6470-420c-be24-0913cfd03e4c"},"vehicle_type_id":"4","last_reported":1702458463,"current_range_meters":28000,"station_id":"ce4bhg12rcd13ifvqf80","pricing_plan_id":"free"},{"bike_id":"4f9077e6-8330-404b-9708-862e13be6aff","system_id":"levelo_inurba_marseille","lat":43.325233,"lon":5.414318,"is_reserved":false,"is_disabled":false,"rental_uris":{"android":"levelo://app?vid=4f9077e6-8330-404b-9708-862e13be6aff","ios":"levelo://app?vid=4f9077e6-8330-404b-9708-862e13be6aff"},"vehicle_type_id":"4","last_reported":1702458463,"current_range_meters":14000,"station_id":"ce4bhq12rcd13ifvqhhg","pricing_plan_id":"free"},{"bike_id":"cdad76ba-aaf3-43f5-bf77-e53b8e256e12","system_id":"levelo_inurba_marseille","lat":43.325233,"lon":5.414318,"is_reserved":false,"is_disabled":false,"rental_uris":{"android":"levelo://app?vid=cdad76ba-aaf3-43f5-bf77-e53b8e256e12","ios":"levelo://app?vid=cdad76ba-aaf3-43f5-bf77-e53b8e256e12"},"vehicle_type_id":"4","last_reported":1702458463,"current_range_meters":30000,"station_id":"ce4bhq12rcd13ifvqhhg","pricing_plan_id":"free"},{"bike_id":"bca5a27f-c25f-433b-ad08-f15021e37e7e","system_id":"levelo_inurba_marseille","lat":43.325243,"lon":5.414326,"is_reserved":false,"is_disabled":false,"rental_uris":{"android":"levelo://app?vid=bca5a27f-c25f-433b-ad08-f15021e37e7e","ios":"levelo://app?vid=bca5a27f-c25f-433b-ad08-f15021e37e7e"},"vehicle_type_id":"4","last_reported":1702458463,"current_range_meters":31600,"station_id":"ce4bhq12rcd13ifvqhhg","pricing_plan_id":"free"},{"bike_id":"13ed7864-5e28-4879-bef0-43ec97cea419","system_id":"levelo_inurba_marseille","lat":43.325243,"lon":5.414326,"is_reserved":false,"is_disabled":false,"rental_uris":{"android":"levelo://app?vid=13ed7864-5e28-4879-bef0-43ec97cea419","ios":"levelo://app?vid=13ed7864-5e28-4879-bef0-43ec97cea419"},"vehicle_type_id":"4","last_reported":1702458463,"current_range_meters":20800,"station_id":"ce4bhq12rcd13ifvqhhg","pricing_plan_id":"free"},{"bike_id":"8e814ecb-5dbf-4da1-91b3-8823fe935348","system_id":"levelo_inurba_marseille","lat":43.325233,"lon":5.414318,"is_reserved":false,"is_disabled":false,"rental_uris":{"android":"levelo://app?vid=8e814ecb-5dbf-4da1-91b3-8823fe935348","ios":"levelo://app?vid=8e814ecb-5dbf-4da1-91b3-8823fe935348"},"vehicle_type_id":"4","last_reported":1702458463,"current_range_meters":25600,"station_id":"ce4bhq12rcd13ifvqhhg","pricing_plan_id":"free"},{"bike_id":"d2decb6a-0615-4ef5-91a0-17ea7a9b1868","system_id":"levelo_inurba_marseille","lat":43.325243,"lon":5.414326,"is_reserved":false,"is_disabled":false,"rental_uris":{"android":"levelo://app?vid=d2decb6a-0615-4ef5-91a0-17ea7a9b1868","ios":"levelo://app?vid=d2decb6a-0615-4ef5-91a0-17ea7a9b1868"},"vehicle_type_id":"4","last_reported":1702458463,"current_range_meters":17200,"station_id":"ce4bhq12rcd13ifvqhhg","pricing_plan_id":"free"},{"bike_id":"7fef914d-05f6-48cb-9574-76e6499d4dc4","system_id":"levelo_inurba_marseille","lat":43.325243,"lon":5.414326,"is_reserved":false,"is_disabled":false,"rental_uris":{"android":"levelo://app?vid=7fef914d-05f6-48cb-9574-76e6499d4dc4","ios":"levelo://app?vid=7fef914d-05f6-48cb-9574-76e6499d4dc4"},"vehicle_type_id":"4","last_reported":1702458463,"current_range_meters":23200,"station_id":"ce4bhq12rcd13ifvqhhg","pricing_plan_id":"free"},{"bike_id":"c6aca481-1eb7-4e97-91b4-8a13adfac883","system_id":"levelo_inurba_marseille","lat":43.325233,"lon":5.414318,"is_reserved":false,"is_disabled":false,"rental_uris":{"android":"levelo://app?vid=c6aca481-1eb7-4e97-91b4-8a13adfac883","ios":"levelo://app?vid=c6aca481-1eb7-4e97-91b4-8a13adfac883"},"vehicle_type_id":"4","last_reported":1702458463,"current_range_meters":25600,"station_id":"ce4bhq12rcd13ifvqhhg","pricing_plan_id":"free"},{"bike_id":"a2193a31-972a-4444-af9b-13db93a15aa4","system_id":"levelo_inurba_marseille","lat":43.278399,"lon":5.392139,"is_reserved":false,"is_disabled":false,"rental_uris":{"android":"levelo://app?vid=a2193a31-972a-4444-af9b-13db93a15aa4","ios":"levelo://app?vid=a2193a31-972a-4444-af9b-13db93a15aa4"},"vehicle_type_id":"4","last_reported":1702458463,"current_range_meters":24800,"station_id":"ce4bhjp2rcd13ifvqga0","pricing_plan_id":"free"},{"bike_id":"2a6acaf0-1a89-462b-b361-30003cd1d988","system_id":"levelo_inurba_marseille","lat":43.278401,"lon":5.392152,"is_reserved":false,"is_disabled":false,"rental_uris":{"android":"levelo://app?vid=2a6acaf0-1a89-462b-b361-30003cd1d988","ios":"levelo://app?vid=2a6acaf0-1a89-462b-b361-30003cd1d988"},"vehicle_type_id":"4","last_reported":1702458463,"current_range_meters":14800,"station_id":"ce4bhjp2rcd13ifvqga0","pricing_plan_id":"free"},{"bike_id":"b2c7d88c-210a-4321-850f-bfd0a5784e43","system_id":"levelo_inurba_marseille","lat":43.33606,"lon":5.41031,"is_reserved":false,"is_disabled":false,"rental_uris":{"android":"levelo://app?vid=b2c7d88c-210a-4321-850f-bfd0a5784e43","ios":"levelo://app?vid=b2c7d88c-210a-4321-850f-bfd0a5784e43"},"vehicle_type_id":"4","last_reported":1702458463,"current_range_meters":26400,"station_id":"ce4bhqh2rcd13ifvqhmg","pricing_plan_id":"free"},{"bike_id":"615d6c0f-be02-4cf9-b9de-3f3c234ab430","system_id":"levelo_inurba_marseille","lat":43.336148,"lon":5.410349,"is_reserved":false,"is_disabled":false,"rental_uris":{"android":"levelo://app?vid=615d6c0f-be02-4cf9-b9de-3f3c234ab430","ios":"levelo://app?vid=615d6c0f-be02-4cf9-b9de-3f3c234ab430"},"vehicle_type_id":"4","last_reported":1702458463,"current_range_meters":18800,"station_id":"ce4bhqh2rcd13ifvqhmg","pricing_plan_id":"free"},{"bike_id":"e5b15f66-7fec-45f1-a30a-a8d4a59bfbf8","system_id":"levelo_inurba_marseille","lat":43.336148,"lon":5.410349,"is_reserved":false,"is_disabled":false,"rental_uris":{"android":"levelo://app?vid=e5b15f66-7fec-45f1-a30a-a8d4a59bfbf8","ios":"levelo://app?vid=e5b15f66-7fec-45f1-a30a-a8d4a59bfbf8"},"vehicle_type_id":"4","last_reported":1702458463,"current_range_meters":10400,"station_id":"ce4bhqh2rcd13ifvqhmg","pricing_plan_id":"free"},{"bike_id":"9f4aac77-b9fd-4e02-8da1-4b39cb263313","system_id":"levelo_inurba_marseille","lat":43.336148,"lon":5.410349,"is_reserved":false,"is_disabled":false,"rental_uris":{"android":"levelo://app?vid=9f4aac77-b9fd-4e02-8da1-4b39cb263313","ios":"levelo://app?vid=9f4aac77-b9fd-4e02-8da1-4b39cb263313"},"vehicle_type_id":"4","last_reported":1702458463,"current_range_meters":13200,"station_id":"ce4bhqh2rcd13ifvqhmg","pricing_plan_id":"free"},{"bike_id":"c6d9375e-66a7-484b-b3d1-29372aeefeb1","system_id":"levelo_inurba_marseille","lat":43.336148,"lon":5.410349,"is_reserved":false,"is_disabled":false,"rental_uris":{"android":"levelo://app?vid=c6d9375e-66a7-484b-b3d1-29372aeefeb1","ios":"levelo://app?vid=c6d9375e-66a7-484b-b3d1-29372aeefeb1"},"vehicle_type_id":"4","last_reported":1702458463,"current_range_meters":27200,"station_id":"ce4bhqh2rcd13ifvqhmg","pricing_plan_id":"free"},{"bike_id":"9a3fe78b-0a72-4ac5-ba6a-5017d86f408b","system_id":"levelo_inurba_marseille","lat":43.336148,"lon":5.410349,"is_reserved":false,"is_disabled":false,"rental_uris":{"android":"levelo://app?vid=9a3fe78b-0a72-4ac5-ba6a-5017d86f408b","ios":"levelo://app?vid=9a3fe78b-0a72-4ac5-ba6a-5017d86f408b"},"vehicle_type_id":"4","last_reported":1702458463,"current_range_meters":19600,"station_id":"ce4bhqh2rcd13ifvqhmg","pricing_plan_id":"free"},{"bike_id":"2ebed63a-d06c-4bf2-8fe7-0a8769e4a4fb","system_id":"levelo_inurba_marseille","lat":43.336148,"lon":5.410349,"is_reserved":false,"is_disabled":false,"rental_uris":{"android":"levelo://app?vid=2ebed63a-d06c-4bf2-8fe7-0a8769e4a4fb","ios":"levelo://app?vid=2ebed63a-d06c-4bf2-8fe7-0a8769e4a4fb"},"vehicle_type_id":"4","last_reported":1702458463,"current_range_meters":18400,"station_id":"ce4bhqh2rcd13ifvqhmg","pricing_plan_id":"free"},{"bike_id":"d70a39bf-38b5-4294-b987-a81c2a326e5a","system_id":"levelo_inurba_marseille","lat":43.279975,"lon":5.40009,"is_reserved":false,"is_disabled":false,"rental_uris":{"android":"levelo://app?vid=d70a39bf-38b5-4294-b987-a81c2a326e5a","ios":"levelo://app?vid=d70a39bf-38b5-4294-b987-a81c2a326e5a"},"vehicle_type_id":"4","last_reported":1702458463,"current_range_meters":16400,"station_id":"ce4bho92rcd13ifvqh4g","pricing_plan_id":"free"},{"bike_id":"fe0a789f-e57a-472a-b8c8-b3b0f92ab63e","system_id":"levelo_inurba_marseille","lat":43.317121,"lon":5.423936,"is_reserved":false,"is_disabled":false,"rental_uris":{"android":"levelo://app?vid=fe0a789f-e57a-472a-b8c8-b3b0f92ab63e","ios":"levelo://app?vid=fe0a789f-e57a-472a-b8c8-b3b0f92ab63e"},"vehicle_type_id":"4","last_reported":1702458463,"current_range_meters":19600,"station_id":"ce4bhp92rcd13ifvqhbg","pricing_plan_id":"free"},{"bike_id":"3f2ff6f7-f4b7-4970-a83f-c76ac30a4fae","system_id":"levelo_inurba_marseille","lat":43.310832,"lon":5.424281,"is_reserved":false,"is_disabled":false,"rental_uris":{"android":"levelo://app?vid=3f2ff6f7-f4b7-4970-a83f-c76ac30a4fae","ios":"levelo://app?vid=3f2ff6f7-f4b7-4970-a83f-c76ac30a4fae"},"vehicle_type_id":"4","last_reported":1702458463,"current_range_meters":11200,"station_id":"","pricing_plan_id":"free"},{"bike_id":"e15fcb76-150b-4e94-ba14-1765fbabad44","system_id":"levelo_inurba_marseille","lat":43.310833,"lon":5.42429,"is_reserved":false,"is_disabled":false,"rental_uris":{"android":"levelo://app?vid=e15fcb76-150b-4e94-ba14-1765fbabad44","ios":"levelo://app?vid=e15fcb76-150b-4e94-ba14-1765fbabad44"},"vehicle_type_id":"4","last_reported":1702458463,"current_range_meters":31200,"station_id":"ce4bhp92rcd13ifvqhag","pricing_plan_id":"free"},{"bike_id":"b1c028eb-0fe1-4afa-b35c-b9783a0e9537","system_id":"levelo_inurba_marseille","lat":43.31723,"lon":5.42405,"is_reserved":false,"is_disabled":false,"rental_uris":{"android":"levelo://app?vid=b1c028eb-0fe1-4afa-b35c-b9783a0e9537","ios":"levelo://app?vid=b1c028eb-0fe1-4afa-b35c-b9783a0e9537"},"vehicle_type_id":"4","last_reported":1702458463,"current_range_meters":2400,"station_id":"ce4bhp92rcd13ifvqhbg","pricing_plan_id":"free"},{"bike_id":"280c51f4-a63c-441a-8bb6-1199267e463c","system_id":"levelo_inurba_marseille","lat":43.340804,"lon":5.410219,"is_reserved":false,"is_disabled":false,"rental_uris":{"android":"levelo://app?vid=280c51f4-a63c-441a-8bb6-1199267e463c","ios":"levelo://app?vid=280c51f4-a63c-441a-8bb6-1199267e463c"},"vehicle_type_id":"4","last_reported":1702458463,"current_range_meters":25200,"station_id":"ce4bhqh2rcd13ifvqhlg","pricing_plan_id":"free"},{"bike_id":"8efdea31-6d8e-4c78-81e8-b21d5fe06482","system_id":"levelo_inurba_marseille","lat":43.340804,"lon":5.410219,"is_reserved":false,"is_disabled":false,"rental_uris":{"android":"levelo://app?vid=8efdea31-6d8e-4c78-81e8-b21d5fe06482","ios":"levelo://app?vid=8efdea31-6d8e-4c78-81e8-b21d5fe06482"},"vehicle_type_id":"4","last_reported":1702458463,"current_range_meters":27600,"station_id":"ce4bhqh2rcd13ifvqhlg","pricing_plan_id":"free"},{"bike_id":"61a9b484-7355-4cf6-8693-c63404a20eed","system_id":"levelo_inurba_marseille","lat":43.340804,"lon":5.410219,"is_reserved":false,"is_disabled":false,"rental_uris":{"android":"levelo://app?vid=61a9b484-7355-4cf6-8693-c63404a20eed","ios":"levelo://app?vid=61a9b484-7355-4cf6-8693-c63404a20eed"},"vehicle_type_id":"4","last_reported":1702458463,"current_range_meters":21600,"station_id":"ce4bhqh2rcd13ifvqhlg","pricing_plan_id":"free"},{"bike_id":"3ca2c2d2-99b0-4aa6-a05d-e30f02e6a7fb","system_id":"levelo_inurba_marseille","lat":43.27588,"lon":5.39495,"is_reserved":false,"is_disabled":false,"rental_uris":{"android":"levelo://app?vid=3ca2c2d2-99b0-4aa6-a05d-e30f02e6a7fb","ios":"levelo://app?vid=3ca2c2d2-99b0-4aa6-a05d-e30f02e6a7fb"},"vehicle_type_id":"4","last_reported":1702458463,"current_range_meters":17200,"station_id":"","pricing_plan_id":"free"},{"bike_id":"6f3c849c-7010-4254-a69e-f63f656a54d2","system_id":"levelo_inurba_marseille","lat":43.273125,"lon":5.390731,"is_reserved":false,"is_disabled":false,"rental_uris":{"android":"levelo://app?vid=6f3c849c-7010-4254-a69e-f63f656a54d2","ios":"levelo://app?vid=6f3c849c-7010-4254-a69e-f63f656a54d2"},"vehicle_type_id":"4","last_reported":1702458463,"current_range_meters":20800,"station_id":"ce4bhgp2rcd13ifvqfe0","pricing_plan_id":"free"},{"bike_id":"b570eaa6-73a8-460a-a0b7-1c0a1b9e5833","system_id":"levelo_inurba_marseille","lat":43.295523,"lon":5.422926,"is_reserved":false,"is_disabled":false,"rental_uris":{"android":"levelo://app?vid=b570eaa6-73a8-460a-a0b7-1c0a1b9e5833","ios":"levelo://app?vid=b570eaa6-73a8-460a-a0b7-1c0a1b9e5833"},"vehicle_type_id":"4","last_reported":1702458463,"current_range_meters":26400,"station_id":"ce4bhph2rcd13ifvqhdg","pricing_plan_id":"free"},{"bike_id":"d7a6c85d-a811-4fa8-800a-8c7d7fbad1e5","system_id":"levelo_inurba_marseille","lat":43.28623,"lon":5.4171,"is_reserved":false,"is_disabled":false,"rental_uris":{"android":"levelo://app?vid=d7a6c85d-a811-4fa8-800a-8c7d7fbad1e5","ios":"levelo://app?vid=d7a6c85d-a811-4fa8-800a-8c7d7fbad1e5"},"vehicle_type_id":"4","last_reported":1702458463,"current_range_meters":0,"station_id":"","pricing_plan_id":"free"},{"bike_id":"3ba407b0-588f-4112-a75b-4f7b645f5614","system_id":"levelo_inurba_marseille","lat":43.279465,"lon":5.410561,"is_reserved":false,"is_disabled":false,"rental_uris":{"android":"levelo://app?vid=3ba407b0-588f-4112-a75b-4f7b645f5614","ios":"levelo://app?vid=3ba407b0-588f-4112-a75b-4f7b645f5614"},"vehicle_type_id":"4","last_reported":1702458463,"current_range_meters":24000,"station_id":"ce4bhnp2rcd13ifvqh0g","pricing_plan_id":"free"},{"bike_id":"e9b64e48-2906-4cee-bb0b-04fb577a4c2b","system_id":"levelo_inurba_marseille","lat":43.2668,"lon":5.38267,"is_reserved":false,"is_disabled":false,"rental_uris":{"android":"levelo://app?vid=e9b64e48-2906-4cee-bb0b-04fb577a4c2b","ios":"levelo://app?vid=e9b64e48-2906-4cee-bb0b-04fb577a4c2b"},"vehicle_type_id":"4","last_reported":1702458463,"current_range_meters":9200,"station_id":"ce4bhg92rcd13ifvqf90","pricing_plan_id":"free"},{"bike_id":"6c980cdd-f8fd-480a-92fb-bd554570fad8","system_id":"levelo_inurba_marseille","lat":43.26681,"lon":5.382694,"is_reserved":false,"is_disabled":false,"rental_uris":{"android":"levelo://app?vid=6c980cdd-f8fd-480a-92fb-bd554570fad8","ios":"levelo://app?vid=6c980cdd-f8fd-480a-92fb-bd554570fad8"},"vehicle_type_id":"4","last_reported":1702458463,"current_range_meters":8800,"station_id":"ce4bhg92rcd13ifvqf90","pricing_plan_id":"free"},{"bike_id":"1279f38c-9ffd-4f96-b2e2-0d61915e3e76","system_id":"levelo_inurba_marseille","lat":43.26681,"lon":5.382694,"is_reserved":false,"is_disabled":false,"rental_uris":{"android":"levelo://app?vid=1279f38c-9ffd-4f96-b2e2-0d61915e3e76","ios":"levelo://app?vid=1279f38c-9ffd-4f96-b2e2-0d61915e3e76"},"vehicle_type_id":"4","last_reported":1702458463,"current_range_meters":14000,"station_id":"ce4bhg92rcd13ifvqf90","pricing_plan_id":"free"},{"bike_id":"db8bc762-03ec-412b-9bc4-267b6f826428","system_id":"levelo_inurba_marseille","lat":43.265714,"lon":5.372891,"is_reserved":false,"is_disabled":false,"rental_uris":{"android":"levelo://app?vid=db8bc762-03ec-412b-9bc4-267b6f826428","ios":"levelo://app?vid=db8bc762-03ec-412b-9bc4-267b6f826428"},"vehicle_type_id":"4","last_reported":1702458463,"current_range_meters":17200,"station_id":"ce4bhg12rcd13ifvqf70","pricing_plan_id":"free"},{"bike_id":"dcb63836-c70a-443a-832e-59bb779956b3","system_id":"levelo_inurba_marseille","lat":43.267966,"lon":5.393976,"is_reserved":false,"is_disabled":false,"rental_uris":{"android":"levelo://app?vid=dcb63836-c70a-443a-832e-59bb779956b3","ios":"levelo://app?vid=dcb63836-c70a-443a-832e-59bb779956b3"},"vehicle_type_id":"4","last_reported":1702458463,"current_range_meters":17600,"station_id":"ce4bhh12rcd13ifvqfg0","pricing_plan_id":"free"},{"bike_id":"79588488-9f3a-4d10-af96-084a21295070","system_id":"levelo_inurba_marseille","lat":43.260219,"lon":5.37546,"is_reserved":false,"is_disabled":false,"rental_uris":{"android":"levelo://app?vid=79588488-9f3a-4d10-af96-084a21295070","ios":"levelo://app?vid=79588488-9f3a-4d10-af96-084a21295070"},"vehicle_type_id":"4","last_reported":1702458463,"current_range_meters":14800,"station_id":"ce4bhgh2rcd13ifvqfa0","pricing_plan_id":"free"},{"bike_id":"383e139c-3bb6-4daf-a45c-7a9d4e30f140","system_id":"levelo_inurba_marseille","lat":43.281548,"lon":5.42643,"is_reserved":false,"is_disabled":false,"rental_uris":{"android":"levelo://app?vid=383e139c-3bb6-4daf-a45c-7a9d4e30f140","ios":"levelo://app?vid=383e139c-3bb6-4daf-a45c-7a9d4e30f140"},"vehicle_type_id":"4","last_reported":1702458463,"current_range_meters":27200,"station_id":"ce4bhnh2rcd13ifvqgug","pricing_plan_id":"free"},{"bike_id":"a31174c0-f5c2-4cad-8cc4-913df26114f0","system_id":"levelo_inurba_marseille","lat":43.28152,"lon":5.42642,"is_reserved":false,"is_disabled":false,"rental_uris":{"android":"levelo://app?vid=a31174c0-f5c2-4cad-8cc4-913df26114f0","ios":"levelo://app?vid=a31174c0-f5c2-4cad-8cc4-913df26114f0"},"vehicle_type_id":"4","last_reported":1702458463,"current_range_meters":19600,"station_id":"ce4bhnh2rcd13ifvqgug","pricing_plan_id":"free"},{"bike_id":"22629fef-dcbc-451f-99d9-ae21da47c622","system_id":"levelo_inurba_marseille","lat":43.281542,"lon":5.426465,"is_reserved":false,"is_disabled":false,"rental_uris":{"android":"levelo://app?vid=22629fef-dcbc-451f-99d9-ae21da47c622","ios":"levelo://app?vid=22629fef-dcbc-451f-99d9-ae21da47c622"},"vehicle_type_id":"4","last_reported":1702458463,"current_range_meters":11200,"station_id":"ce4bhnh2rcd13ifvqgug","pricing_plan_id":"free"},{"bike_id":"28e52ee3-390e-4359-8953-9e6647d18e16","system_id":"levelo_inurba_marseille","lat":43.28152,"lon":5.42651,"is_reserved":false,"is_disabled":false,"rental_uris":{"android":"levelo://app?vid=28e52ee3-390e-4359-8953-9e6647d18e16","ios":"levelo://app?vid=28e52ee3-390e-4359-8953-9e6647d18e16"},"vehicle_type_id":"4","last_reported":1702458463,"current_range_meters":25600,"station_id":"ce4bhnh2rcd13ifvqgug","pricing_plan_id":"free"},{"bike_id":"45c11460-fdba-47e9-90d2-47f8d8836f9f","system_id":"levelo_inurba_marseille","lat":43.2607,"lon":5.393983,"is_reserved":false,"is_disabled":false,"rental_uris":{"android":"levelo://app?vid=45c11460-fdba-47e9-90d2-47f8d8836f9f","ios":"levelo://app?vid=45c11460-fdba-47e9-90d2-47f8d8836f9f"},"vehicle_type_id":"4","last_reported":1702458463,"current_range_meters":30800,"station_id":"ce4bhh92rcd13ifvqfj0","pricing_plan_id":"free"},{"bike_id":"145ba03e-f3d6-4f34-83d2-a2ba7062a026","system_id":"levelo_inurba_marseille","lat":43.275028,"lon":5.424534,"is_reserved":false,"is_disabled":false,"rental_uris":{"android":"levelo://app?vid=145ba03e-f3d6-4f34-83d2-a2ba7062a026","ios":"levelo://app?vid=145ba03e-f3d6-4f34-83d2-a2ba7062a026"},"vehicle_type_id":"4","last_reported":1702458463,"current_range_meters":22000,"station_id":"ce4bhn92rcd13ifvqgrg","pricing_plan_id":"free"},{"bike_id":"90d5fbb3-db78-4dbf-b663-2e69a4f8cc1b","system_id":"levelo_inurba_marseille","lat":43.275028,"lon":5.424534,"is_reserved":false,"is_disabled":false,"rental_uris":{"android":"levelo://app?vid=90d5fbb3-db78-4dbf-b663-2e69a4f8cc1b","ios":"levelo://app?vid=90d5fbb3-db78-4dbf-b663-2e69a4f8cc1b"},"vehicle_type_id":"4","last_reported":1702458463,"current_range_meters":25600,"station_id":"ce4bhn92rcd13ifvqgrg","pricing_plan_id":"free"},{"bike_id":"cce728e5-10f1-441c-af03-90a0c1e29896","system_id":"levelo_inurba_marseille","lat":43.275028,"lon":5.424534,"is_reserved":false,"is_disabled":false,"rental_uris":{"android":"levelo://app?vid=cce728e5-10f1-441c-af03-90a0c1e29896","ios":"levelo://app?vid=cce728e5-10f1-441c-af03-90a0c1e29896"},"vehicle_type_id":"4","last_reported":1702458463,"current_range_meters":23200,"station_id":"ce4bhn92rcd13ifvqgrg","pricing_plan_id":"free"},{"bike_id":"96435139-4e80-4111-a2d3-eddd6fd8d6da","system_id":"levelo_inurba_marseille","lat":43.275028,"lon":5.424534,"is_reserved":false,"is_disabled":false,"rental_uris":{"android":"levelo://app?vid=96435139-4e80-4111-a2d3-eddd6fd8d6da","ios":"levelo://app?vid=96435139-4e80-4111-a2d3-eddd6fd8d6da"},"vehicle_type_id":"4","last_reported":1702458463,"current_range_meters":10800,"station_id":"ce4bhn92rcd13ifvqgrg","pricing_plan_id":"free"},{"bike_id":"55676f63-e2aa-41d4-a9aa-18ad58bf432e","system_id":"levelo_inurba_marseille","lat":43.275028,"lon":5.424534,"is_reserved":false,"is_disabled":false,"rental_uris":{"android":"levelo://app?vid=55676f63-e2aa-41d4-a9aa-18ad58bf432e","ios":"levelo://app?vid=55676f63-e2aa-41d4-a9aa-18ad58bf432e"},"vehicle_type_id":"4","last_reported":1702458463,"current_range_meters":31600,"station_id":"ce4bhn92rcd13ifvqgrg","pricing_plan_id":"free"},{"bike_id":"30ad3222-c02e-46dc-9cb8-03a31a79a834","system_id":"levelo_inurba_marseille","lat":43.275028,"lon":5.424534,"is_reserved":false,"is_disabled":false,"rental_uris":{"android":"levelo://app?vid=30ad3222-c02e-46dc-9cb8-03a31a79a834","ios":"levelo://app?vid=30ad3222-c02e-46dc-9cb8-03a31a79a834"},"vehicle_type_id":"4","last_reported":1702458463,"current_range_meters":22800,"station_id":"ce4bhn92rcd13ifvqgrg","pricing_plan_id":"free"},{"bike_id":"edf103af-f9ea-4edb-a620-2936127ea68c","system_id":"levelo_inurba_marseille","lat":43.275028,"lon":5.424534,"is_reserved":false,"is_disabled":false,"rental_uris":{"android":"levelo://app?vid=edf103af-f9ea-4edb-a620-2936127ea68c","ios":"levelo://app?vid=edf103af-f9ea-4edb-a620-2936127ea68c"},"vehicle_type_id":"4","last_reported":1702458463,"current_range_meters":23200,"station_id":"ce4bhn92rcd13ifvqgrg","pricing_plan_id":"free"},{"bike_id":"52f7521e-0075-46ee-a221-ef2c80e3548a","system_id":"levelo_inurba_marseille","lat":43.275028,"lon":5.424534,"is_reserved":false,"is_disabled":false,"rental_uris":{"android":"levelo://app?vid=52f7521e-0075-46ee-a221-ef2c80e3548a","ios":"levelo://app?vid=52f7521e-0075-46ee-a221-ef2c80e3548a"},"vehicle_type_id":"4","last_reported":1702458463,"current_range_meters":13600,"station_id":"ce4bhn92rcd13ifvqgrg","pricing_plan_id":"free"},{"bike_id":"230d1998-3a5c-4ebd-ab97-43fbf67c09a6","system_id":"levelo_inurba_marseille","lat":43.27495,"lon":5.42451,"is_reserved":false,"is_disabled":false,"rental_uris":{"android":"levelo://app?vid=230d1998-3a5c-4ebd-ab97-43fbf67c09a6","ios":"levelo://app?vid=230d1998-3a5c-4ebd-ab97-43fbf67c09a6"},"vehicle_type_id":"4","last_reported":1702458463,"current_range_meters":24400,"station_id":"ce4bhn92rcd13ifvqgrg","pricing_plan_id":"free"},{"bike_id":"a9e69201-3094-4c70-b8ec-d9ce766ff471","system_id":"levelo_inurba_marseille","lat":43.275028,"lon":5.424534,"is_reserved":false,"is_disabled":false,"rental_uris":{"android":"levelo://app?vid=a9e69201-3094-4c70-b8ec-d9ce766ff471","ios":"levelo://app?vid=a9e69201-3094-4c70-b8ec-d9ce766ff471"},"vehicle_type_id":"4","last_reported":1702458463,"current_range_meters":14000,"station_id":"ce4bhn92rcd13ifvqgrg","pricing_plan_id":"free"},{"bike_id":"1451ed9b-fe84-419a-b1d5-e8f84e0ed322","system_id":"levelo_inurba_marseille","lat":43.27494,"lon":5.42451,"is_reserved":false,"is_disabled":false,"rental_uris":{"android":"levelo://app?vid=1451ed9b-fe84-419a-b1d5-e8f84e0ed322","ios":"levelo://app?vid=1451ed9b-fe84-419a-b1d5-e8f84e0ed322"},"vehicle_type_id":"4","last_reported":1702458463,"current_range_meters":30800,"station_id":"ce4bhn92rcd13ifvqgrg","pricing_plan_id":"free"},{"bike_id":"3e01b48c-bd05-4752-8a77-1daac3ba9d41","system_id":"levelo_inurba_marseille","lat":43.27494,"lon":5.42451,"is_reserved":false,"is_disabled":false,"rental_uris":{"android":"levelo://app?vid=3e01b48c-bd05-4752-8a77-1daac3ba9d41","ios":"levelo://app?vid=3e01b48c-bd05-4752-8a77-1daac3ba9d41"},"vehicle_type_id":"4","last_reported":1702458463,"current_range_meters":21600,"station_id":"ce4bhn92rcd13ifvqgrg","pricing_plan_id":"free"},{"bike_id":"dab504f2-a48e-41d7-a364-675c81464ffc","system_id":"levelo_inurba_marseille","lat":43.27493,"lon":5.4245,"is_reserved":false,"is_disabled":false,"rental_uris":{"android":"levelo://app?vid=dab504f2-a48e-41d7-a364-675c81464ffc","ios":"levelo://app?vid=dab504f2-a48e-41d7-a364-675c81464ffc"},"vehicle_type_id":"4","last_reported":1702458463,"current_range_meters":18000,"station_id":"ce4bhn92rcd13ifvqgrg","pricing_plan_id":"free"},{"bike_id":"706d3d5b-8bb8-44aa-92cc-e2f166556867","system_id":"levelo_inurba_marseille","lat":43.27493,"lon":5.4245,"is_reserved":false,"is_disabled":false,"rental_uris":{"android":"levelo://app?vid=706d3d5b-8bb8-44aa-92cc-e2f166556867","ios":"levelo://app?vid=706d3d5b-8bb8-44aa-92cc-e2f166556867"},"vehicle_type_id":"4","last_reported":1702458463,"current_range_meters":22800,"station_id":"ce4bhn92rcd13ifvqgrg","pricing_plan_id":"free"},{"bike_id":"4d368ea5-0e8b-4103-8838-19e15b49f25a","system_id":"levelo_inurba_marseille","lat":43.275028,"lon":5.424534,"is_reserved":false,"is_disabled":false,"rental_uris":{"android":"levelo://app?vid=4d368ea5-0e8b-4103-8838-19e15b49f25a","ios":"levelo://app?vid=4d368ea5-0e8b-4103-8838-19e15b49f25a"},"vehicle_type_id":"4","last_reported":1702458463,"current_range_meters":18400,"station_id":"ce4bhn92rcd13ifvqgrg","pricing_plan_id":"free"},{"bike_id":"b4ca9359-4fc8-4f31-a46c-70645d2374fb","system_id":"levelo_inurba_marseille","lat":43.25583,"lon":5.3824,"is_reserved":false,"is_disabled":false,"rental_uris":{"android":"levelo://app?vid=b4ca9359-4fc8-4f31-a46c-70645d2374fb","ios":"levelo://app?vid=b4ca9359-4fc8-4f31-a46c-70645d2374fb"},"vehicle_type_id":"4","last_reported":1702458463,"current_range_meters":20000,"station_id":"ce4bhih2rcd13ifvqfs0","pricing_plan_id":"free"},{"bike_id":"4d0c71de-ce50-4c6f-9f30-74445d5a83ae","system_id":"levelo_inurba_marseille","lat":43.25583,"lon":5.38241,"is_reserved":false,"is_disabled":false,"rental_uris":{"android":"levelo://app?vid=4d0c71de-ce50-4c6f-9f30-74445d5a83ae","ios":"levelo://app?vid=4d0c71de-ce50-4c6f-9f30-74445d5a83ae"},"vehicle_type_id":"4","last_reported":1702458463,"current_range_meters":27200,"station_id":"ce4bhih2rcd13ifvqfs0","pricing_plan_id":"free"},{"bike_id":"9cb2a676-4576-4b22-929a-e72b508c9605","system_id":"levelo_inurba_marseille","lat":43.25577,"lon":5.38232,"is_reserved":false,"is_disabled":false,"rental_uris":{"android":"levelo://app?vid=9cb2a676-4576-4b22-929a-e72b508c9605","ios":"levelo://app?vid=9cb2a676-4576-4b22-929a-e72b508c9605"},"vehicle_type_id":"4","last_reported":1702458463,"current_range_meters":23200,"station_id":"ce4bhih2rcd13ifvqfs0","pricing_plan_id":"free"},{"bike_id":"8f82f722-baf6-4a17-b4d5-1d388e742d98","system_id":"levelo_inurba_marseille","lat":43.255756,"lon":5.382303,"is_reserved":false,"is_disabled":false,"rental_uris":{"android":"levelo://app?vid=8f82f722-baf6-4a17-b4d5-1d388e742d98","ios":"levelo://app?vid=8f82f722-baf6-4a17-b4d5-1d388e742d98"},"vehicle_type_id":"4","last_reported":1702458463,"current_range_meters":13600,"station_id":"ce4bhih2rcd13ifvqfs0","pricing_plan_id":"free"},{"bike_id":"7641d20a-3297-445a-9fc5-52085faa8582","system_id":"levelo_inurba_marseille","lat":43.270721,"lon":5.422764,"is_reserved":false,"is_disabled":false,"rental_uris":{"android":"levelo://app?vid=7641d20a-3297-445a-9fc5-52085faa8582","ios":"levelo://app?vid=7641d20a-3297-445a-9fc5-52085faa8582"},"vehicle_type_id":"4","last_reported":1702458463,"current_range_meters":30000,"station_id":"ce4bhk92rcd13ifvqgb0","pricing_plan_id":"free"},{"bike_id":"0a9cdefe-88ec-469b-9af2-cc7ead3d85b0","system_id":"levelo_inurba_marseille","lat":43.258658,"lon":5.398935,"is_reserved":false,"is_disabled":false,"rental_uris":{"android":"levelo://app?vid=0a9cdefe-88ec-469b-9af2-cc7ead3d85b0","ios":"levelo://app?vid=0a9cdefe-88ec-469b-9af2-cc7ead3d85b0"},"vehicle_type_id":"4","last_reported":1702458463,"current_range_meters":27600,"station_id":"ce4bhl92rcd13ifvqghg","pricing_plan_id":"free"},{"bike_id":"f6225d43-7fd2-473d-ac6d-94ea8205fe30","system_id":"levelo_inurba_marseille","lat":43.259013,"lon":5.409301,"is_reserved":false,"is_disabled":false,"rental_uris":{"android":"levelo://app?vid=f6225d43-7fd2-473d-ac6d-94ea8205fe30","ios":"levelo://app?vid=f6225d43-7fd2-473d-ac6d-94ea8205fe30"},"vehicle_type_id":"4","last_reported":1702458463,"current_range_meters":12000,"station_id":"ce4bhm92rcd13ifvqglg","pricing_plan_id":"free"},{"bike_id":"1fe35241-90af-400e-bfa5-b9dcb4673da0","system_id":"levelo_inurba_marseille","lat":43.25936,"lon":5.40912,"is_reserved":false,"is_disabled":false,"rental_uris":{"android":"levelo://app?vid=1fe35241-90af-400e-bfa5-b9dcb4673da0","ios":"levelo://app?vid=1fe35241-90af-400e-bfa5-b9dcb4673da0"},"vehicle_type_id":"4","last_reported":1702458463,"current_range_meters":21200,"station_id":"ce4bhm92rcd13ifvqglg","pricing_plan_id":"free"},{"bike_id":"a3021670-21f8-4ec0-bb57-96aa3dbcd2bd","system_id":"levelo_inurba_marseille","lat":43.259013,"lon":5.409301,"is_reserved":false,"is_disabled":false,"rental_uris":{"android":"levelo://app?vid=a3021670-21f8-4ec0-bb57-96aa3dbcd2bd","ios":"levelo://app?vid=a3021670-21f8-4ec0-bb57-96aa3dbcd2bd"},"vehicle_type_id":"4","last_reported":1702458463,"current_range_meters":19600,"station_id":"ce4bhm92rcd13ifvqglg","pricing_plan_id":"free"},{"bike_id":"24bd5834-b673-4cb0-a1e8-d6c03ecdae8d","system_id":"levelo_inurba_marseille","lat":43.259009,"lon":5.40929,"is_reserved":false,"is_disabled":false,"rental_uris":{"android":"levelo://app?vid=24bd5834-b673-4cb0-a1e8-d6c03ecdae8d","ios":"levelo://app?vid=24bd5834-b673-4cb0-a1e8-d6c03ecdae8d"},"vehicle_type_id":"4","last_reported":1702458463,"current_range_meters":2800,"station_id":"ce4bhm92rcd13ifvqglg","pricing_plan_id":"free"},{"bike_id":"19e4093a-ac82-432d-8bbc-43176b7dbed3","system_id":"levelo_inurba_marseille","lat":43.259009,"lon":5.40929,"is_reserved":false,"is_disabled":false,"rental_uris":{"android":"levelo://app?vid=19e4093a-ac82-432d-8bbc-43176b7dbed3","ios":"levelo://app?vid=19e4093a-ac82-432d-8bbc-43176b7dbed3"},"vehicle_type_id":"4","last_reported":1702458463,"current_range_meters":0,"station_id":"ce4bhm92rcd13ifvqglg","pricing_plan_id":"free"},{"bike_id":"95aceb84-4e62-4a22-a3ba-b7c2cf268896","system_id":"levelo_inurba_marseille","lat":43.259009,"lon":5.40929,"is_reserved":false,"is_disabled":false,"rental_uris":{"android":"levelo://app?vid=95aceb84-4e62-4a22-a3ba-b7c2cf268896","ios":"levelo://app?vid=95aceb84-4e62-4a22-a3ba-b7c2cf268896"},"vehicle_type_id":"4","last_reported":1702458463,"current_range_meters":19200,"station_id":"ce4bhm92rcd13ifvqglg","pricing_plan_id":"free"},{"bike_id":"195ccb90-de3e-4cf8-b85d-ca0be29343cd","system_id":"levelo_inurba_marseille","lat":43.243884,"lon":5.370737,"is_reserved":false,"is_disabled":false,"rental_uris":{"android":"levelo://app?vid=195ccb90-de3e-4cf8-b85d-ca0be29343cd","ios":"levelo://app?vid=195ccb90-de3e-4cf8-b85d-ca0be29343cd"},"vehicle_type_id":"4","last_reported":1702458463,"current_range_meters":16000,"station_id":"ce4bhhh2rcd13ifvqfk0","pricing_plan_id":"free"},{"bike_id":"045720db-19db-465c-8429-c03704b24fad","system_id":"levelo_inurba_marseille","lat":43.239588,"lon":5.366238,"is_reserved":false,"is_disabled":false,"rental_uris":{"android":"levelo://app?vid=045720db-19db-465c-8429-c03704b24fad","ios":"levelo://app?vid=045720db-19db-465c-8429-c03704b24fad"},"vehicle_type_id":"4","last_reported":1702458463,"current_range_meters":16000,"station_id":"ce4bhi12rcd13ifvqfp0","pricing_plan_id":"free"},{"bike_id":"c2a1c464-7bfa-4950-8dd1-fe287bf0bada","system_id":"levelo_inurba_marseille","lat":43.24077,"lon":5.37764,"is_reserved":false,"is_disabled":false,"rental_uris":{"android":"levelo://app?vid=c2a1c464-7bfa-4950-8dd1-fe287bf0bada","ios":"levelo://app?vid=c2a1c464-7bfa-4950-8dd1-fe287bf0bada"},"vehicle_type_id":"4","last_reported":1702458463,"current_range_meters":23200,"station_id":"ce4bhnp2rcd13ifvqgvg","pricing_plan_id":"free"},{"bike_id":"5b726ebf-359b-4d8e-8046-55590f3d5a03","system_id":"levelo_inurba_marseille","lat":43.24075,"lon":5.37762,"is_reserved":false,"is_disabled":false,"rental_uris":{"android":"levelo://app?vid=5b726ebf-359b-4d8e-8046-55590f3d5a03","ios":"levelo://app?vid=5b726ebf-359b-4d8e-8046-55590f3d5a03"},"vehicle_type_id":"4","last_reported":1702458463,"current_range_meters":16400,"station_id":"ce4bhnp2rcd13ifvqgvg","pricing_plan_id":"free"},{"bike_id":"ef35b9cc-0d3f-432b-ac3d-b32a58b646c9","system_id":"levelo_inurba_marseille","lat":43.24074,"lon":5.37761,"is_reserved":false,"is_disabled":false,"rental_uris":{"android":"levelo://app?vid=ef35b9cc-0d3f-432b-ac3d-b32a58b646c9","ios":"levelo://app?vid=ef35b9cc-0d3f-432b-ac3d-b32a58b646c9"},"vehicle_type_id":"4","last_reported":1702458463,"current_range_meters":0,"station_id":"ce4bhnp2rcd13ifvqgvg","pricing_plan_id":"free"},{"bike_id":"d1f26f1c-66c7-4318-906f-15aa2b56ee47","system_id":"levelo_inurba_marseille","lat":43.240623,"lon":5.377642,"is_reserved":false,"is_disabled":false,"rental_uris":{"android":"levelo://app?vid=d1f26f1c-66c7-4318-906f-15aa2b56ee47","ios":"levelo://app?vid=d1f26f1c-66c7-4318-906f-15aa2b56ee47"},"vehicle_type_id":"4","last_reported":1702458463,"current_range_meters":28400,"station_id":"ce4bhnp2rcd13ifvqgvg","pricing_plan_id":"free"},{"bike_id":"6bce1200-d534-49ab-b8cc-042a0f168b35","system_id":"levelo_inurba_marseille","lat":43.24072,"lon":5.37758,"is_reserved":false,"is_disabled":false,"rental_uris":{"android":"levelo://app?vid=6bce1200-d534-49ab-b8cc-042a0f168b35","ios":"levelo://app?vid=6bce1200-d534-49ab-b8cc-042a0f168b35"},"vehicle_type_id":"4","last_reported":1702458463,"current_range_meters":25600,"station_id":"ce4bhnp2rcd13ifvqgvg","pricing_plan_id":"free"},{"bike_id":"7260f420-0839-438c-9ce1-1f48e433ff87","system_id":"levelo_inurba_marseille","lat":43.240623,"lon":5.377642,"is_reserved":false,"is_disabled":false,"rental_uris":{"android":"levelo://app?vid=7260f420-0839-438c-9ce1-1f48e433ff87","ios":"levelo://app?vid=7260f420-0839-438c-9ce1-1f48e433ff87"},"vehicle_type_id":"4","last_reported":1702458463,"current_range_meters":31600,"station_id":"ce4bhnp2rcd13ifvqgvg","pricing_plan_id":"free"},{"bike_id":"65907040-647d-4b31-9062-759da46767a7","system_id":"levelo_inurba_marseille","lat":43.24069,"lon":5.37767,"is_reserved":false,"is_disabled":false,"rental_uris":{"android":"levelo://app?vid=65907040-647d-4b31-9062-759da46767a7","ios":"levelo://app?vid=65907040-647d-4b31-9062-759da46767a7"},"vehicle_type_id":"4","last_reported":1702458463,"current_range_meters":12400,"station_id":"ce4bhnp2rcd13ifvqgvg","pricing_plan_id":"free"},{"bike_id":"9c22ab75-65a5-4b82-b9cb-34c34de7d97f","system_id":"levelo_inurba_marseille","lat":43.240623,"lon":5.377642,"is_reserved":false,"is_disabled":false,"rental_uris":{"android":"levelo://app?vid=9c22ab75-65a5-4b82-b9cb-34c34de7d97f","ios":"levelo://app?vid=9c22ab75-65a5-4b82-b9cb-34c34de7d97f"},"vehicle_type_id":"4","last_reported":1702458463,"current_range_meters":31600,"station_id":"ce4bhnp2rcd13ifvqgvg","pricing_plan_id":"free"},{"bike_id":"0bba32c0-a216-45cd-bf6e-6247f051d79f","system_id":"levelo_inurba_marseille","lat":43.24065,"lon":5.37762,"is_reserved":false,"is_disabled":false,"rental_uris":{"android":"levelo://app?vid=0bba32c0-a216-45cd-bf6e-6247f051d79f","ios":"levelo://app?vid=0bba32c0-a216-45cd-bf6e-6247f051d79f"},"vehicle_type_id":"4","last_reported":1702458463,"current_range_meters":11600,"station_id":"ce4bhnp2rcd13ifvqgvg","pricing_plan_id":"free"},{"bike_id":"d4f10a46-c26b-49e3-95d5-9f8c8454ced6","system_id":"levelo_inurba_marseille","lat":43.241782,"lon":5.397261,"is_reserved":false,"is_disabled":false,"rental_uris":{"android":"levelo://app?vid=d4f10a46-c26b-49e3-95d5-9f8c8454ced6","ios":"levelo://app?vid=d4f10a46-c26b-49e3-95d5-9f8c8454ced6"},"vehicle_type_id":"4","last_reported":1702458463,"current_range_meters":24000,"station_id":"ce4bhn12rcd13ifvqgpg","pricing_plan_id":"free"},{"bike_id":"6fb06ddb-97a9-4e82-97f4-85f411863478","system_id":"levelo_inurba_marseille","lat":43.231919,"lon":5.355532,"is_reserved":false,"is_disabled":false,"rental_uris":{"android":"levelo://app?vid=6fb06ddb-97a9-4e82-97f4-85f411863478","ios":"levelo://app?vid=6fb06ddb-97a9-4e82-97f4-85f411863478"},"vehicle_type_id":"4","last_reported":1702458463,"current_range_meters":28000,"station_id":"ce4bhu92rcd13ifvqi70","pricing_plan_id":"free"},{"bike_id":"9a98bb3c-9036-4450-ac50-69f372e3f4af","system_id":"levelo_inurba_marseille","lat":43.23194,"lon":5.35547,"is_reserved":false,"is_disabled":false,"rental_uris":{"android":"levelo://app?vid=9a98bb3c-9036-4450-ac50-69f372e3f4af","ios":"levelo://app?vid=9a98bb3c-9036-4450-ac50-69f372e3f4af"},"vehicle_type_id":"4","last_reported":1702458463,"current_range_meters":10400,"station_id":"ce4bhu92rcd13ifvqi70","pricing_plan_id":"free"},{"bike_id":"ebb80fa1-e0b5-4738-af00-71e836845110","system_id":"levelo_inurba_marseille","lat":43.231562,"lon":5.436933,"is_reserved":false,"is_disabled":false,"rental_uris":{"android":"levelo://app?vid=ebb80fa1-e0b5-4738-af00-71e836845110","ios":"levelo://app?vid=ebb80fa1-e0b5-4738-af00-71e836845110"},"vehicle_type_id":"4","last_reported":1702458463,"current_range_meters":30400,"station_id":"ce4bhmp2rcd13ifvqgog","pricing_plan_id":"free"},{"bike_id":"58ad7b1b-1e96-4241-8f3b-6d49dc932f71","system_id":"levelo_inurba_marseille","lat":43.23149,"lon":5.43719,"is_reserved":false,"is_disabled":false,"rental_uris":{"android":"levelo://app?vid=58ad7b1b-1e96-4241-8f3b-6d49dc932f71","ios":"levelo://app?vid=58ad7b1b-1e96-4241-8f3b-6d49dc932f71"},"vehicle_type_id":"4","last_reported":1702458463,"current_range_meters":11600,"station_id":"ce4bhmp2rcd13ifvqgog","pricing_plan_id":"free"},{"bike_id":"f4aec10b-8a5f-47fd-994a-96c79c18a718","system_id":"levelo_inurba_marseille","lat":43.231562,"lon":5.436933,"is_reserved":false,"is_disabled":false,"rental_uris":{"android":"levelo://app?vid=f4aec10b-8a5f-47fd-994a-96c79c18a718","ios":"levelo://app?vid=f4aec10b-8a5f-47fd-994a-96c79c18a718"},"vehicle_type_id":"4","last_reported":1702458463,"current_range_meters":7600,"station_id":"ce4bhmp2rcd13ifvqgog","pricing_plan_id":"free"},{"bike_id":"f7b60400-fc08-4a89-bfab-a480add7ef96","system_id":"levelo_inurba_marseille","lat":43.231562,"lon":5.436933,"is_reserved":false,"is_disabled":false,"rental_uris":{"android":"levelo://app?vid=f7b60400-fc08-4a89-bfab-a480add7ef96","ios":"levelo://app?vid=f7b60400-fc08-4a89-bfab-a480add7ef96"},"vehicle_type_id":"4","last_reported":1702458463,"current_range_meters":29200,"station_id":"ce4bhmp2rcd13ifvqgog","pricing_plan_id":"free"}]}}