{"last_updated":1761044908,"ttl":60,"version":"2.2","data":{"bikes":[{"bike_id":"cd5fe388-5009-4e6c-bf44-310c449b8858","system_id":"levelo_inurba_marseille","lat":43.337444,"lon":5.374475,"is_reserved":false,"is_disabled":false,"rental_uris":{"android":"levelo://app?vid=cd5fe388-5009-4e6c-bf44-310c449b8858","ios":"levelo://app?vid=cd5fe388-5009-4e6c-bf44-310c449b8858"},"vehicle_type_id":"4","last_reported":1761044909,"current_range_meters":0,"station_id":"","pricing_plan_id":"cebpf4jnsgd1na2vs0mg"},{"bike_id":"cfcb0590-4045-45bd-b28b-758b2325e5cd","system_id":"levelo_inurba_marseille","lat":43.29578,"lon":5.36745,"is_reserved":false,"is_disabled":false,"rental_uris":{"android":"levelo://app?vid=cfcb0590-4045-45bd-b28b-758b2325e5cd","ios":"levelo://app?vid=cfcb0590-4045-45bd-b28b-758b2325e5cd"},"vehicle_type_id":"4","last_reported":1761044909,"current_range_meters":2800,"station_id":"ce4bgph2rcd13ifvqc2g","pricing_plan_id":"cebpf4jnsgd1na2vs0mg"},{"bike_id":"1f7e2beb-6ba5-45d4-a531-c71f45096117","system_id":"levelo_inurba_marseille","lat":43.30956,"lon":5.39032,"is_reserved":false,"is_disabled":true,"rental_uris":{"android":"levelo://app?vid=1f7e2beb-6ba5-45d4-a531-c71f45096117","ios":"levelo://app?vid=1f7e2beb-6ba5-45d4-a531-c71f45096117"},"vehicle_type_id":"4","last_reported":1761044909,"current_range_meters":2800,"station_id":"ce4bgup2rcd13ifvqco0","pricing_plan_id":"cebpf4jnsgd1na2vs0mg"},{"bike_id":"a767d33e-483d-461d-bbd4-7088aeea37d0","system_id":"levelo_inurba_marseille","lat":43.286999,"lon":5.399843,"is_reserved":false,"is_disabled":false,"rental_uris":{"android":"levelo://app?vid=a767d33e-483d-461d-bbd4-7088aeea37d0","ios":"levelo://app?vid=a767d33e-483d-461d-bbd4-7088aeea37d0"},"vehicle_type_id":"4","last_reported":1761044909,"current_range_meters":3600,"station_id":"ce4bho92rcd13ifvqh3g","pricing_plan_id":"cebpf4jnsgd1na2vs0mg"},{"bike_id":"b1e1b256-6132-4a23-8ef4-bc6a10133ef8","system_id":"levelo_inurba_marseille","lat":43.28461,"lon":5.35895,"is_reserved":false,"is_disabled":false,"rental_uris":{"android":"levelo://app?vid=b1e1b256-6132-4a23-8ef4-bc6a10133ef8","ios":"levelo://app?vid=b1e1b256-6132-4a23-8ef4-bc6a10133ef8"},"vehicle_type_id":"4","last_reported":1761044909,"current_range_meters":4000,"station_id":"ce4bhah2rcd13ifvqei0","pricing_plan_id":"cebpf4jnsgd1na2vs0mg"},{"bike_id":"0a089c46-f2e9-4122-96ea-01811716c140","system_id":"levelo_inurba_marseille","lat":43.270698,"lon":5.422804,"is_reserved":false,"is_disabled":false,"rental_uris":{"android":"levelo://app?vid=0a089c46-f2e9-4122-96ea-01811716c140","ios":"levelo://app?vid=0a089c46-f2e9-4122-96ea-01811716c140"},"vehicle_type_id":"4","last_reported":1761044909,"current_range_meters":4000,"station_id":"ce4bhk92rcd13ifvqgb0","pricing_plan_id":"cebpf4jnsgd1na2vs0mg"},{"bike_id":"0b99830d-6a07-4566-ae0f-8aac001b55fa","system_id":"levelo_inurba_marseille","lat":43.310786,"lon":5.383435,"is_reserved":false,"is_disabled":false,"rental_uris":{"android":"levelo://app?vid=0b99830d-6a07-4566-ae0f-8aac001b55fa","ios":"levelo://app?vid=0b99830d-6a07-4566-ae0f-8aac001b55fa"},"vehicle_type_id":"4","last_reported":1761044909,"current_range_meters":4000,"station_id":"","pricing_plan_id":"cebpf4jnsgd1na2vs0mg"},{"bike_id":"44b8dc19-1c49-47f5-9134-daf336c59f4c","system_id":"levelo_inurba_marseille","lat":43.29973,"lon":5.3717,"is_reserved":false,"is_disabled":false,"rental_uris":{"android":"levelo://app?vid=44b8dc19-1c49-47f5-9134-daf336c59f4c","ios":"levelo://app?vid=44b8dc19-1c49-47f5-9134-daf336c59f4c"},"vehicle_type_id":"4","last_reported":1761044909,"current_range_meters":4000,"station_id":"ce4bgr92rcd13ifvqc7g","pricing_plan_id":"cebpf4jnsgd1na2vs0mg"},{"bike_id":"70cc9d68-f2e5-49d9-82f8-ddae45592518","system_id":"levelo_inurba_marseille","lat":43.29274,"lon":5.40108,"is_reserved":false,"is_disabled":false,"rental_uris":{"android":"levelo://app?vid=70cc9d68-f2e5-49d9-82f8-ddae45592518","ios":"levelo://app?vid=70cc9d68-f2e5-49d9-82f8-ddae45592518"},"vehicle_type_id":"4","last_reported":1761044909,"current_range_meters":4400,"station_id":"ce4bh312rcd13ifvqdk0","pricing_plan_id":"cebpf4jnsgd1na2vs0mg"},{"bike_id":"410edae7-da4f-44be-9795-c402173975df","system_id":"levelo_inurba_marseille","lat":43.29053,"lon":5.3591,"is_reserved":false,"is_disabled":false,"rental_uris":{"android":"levelo://app?vid=410edae7-da4f-44be-9795-c402173975df","ios":"levelo://app?vid=410edae7-da4f-44be-9795-c402173975df"},"vehicle_type_id":"4","last_reported":1761044909,"current_range_meters":4400,"station_id":"ce4bha92rcd13ifvqeg0","pricing_plan_id":"cebpf4jnsgd1na2vs0mg"},{"bike_id":"9bbe382f-28e7-4afc-bdfb-eeb2e0d3e35c","system_id":"levelo_inurba_marseille","lat":43.21747,"lon":5.34602,"is_reserved":false,"is_disabled":false,"rental_uris":{"android":"levelo://app?vid=9bbe382f-28e7-4afc-bdfb-eeb2e0d3e35c","ios":"levelo://app?vid=9bbe382f-28e7-4afc-bdfb-eeb2e0d3e35c"},"vehicle_type_id":"4","last_reported":1761044909,"current_range_meters":4400,"station_id":"st_cvj6r9ubvosntc0bgbag","pricing_plan_id":"cebpf4jnsgd1na2vs0mg"},{"bike_id":"f0d159a3-9e92-4f38-bb40-f7c3fac08aab","system_id":"levelo_inurba_marseille","lat":43.29686,"lon":5.37295,"is_reserved":false,"is_disabled":false,"rental_uris":{"android":"levelo://app?vid=f0d159a3-9e92-4f38-bb40-f7c3fac08aab","ios":"levelo://app?vid=f0d159a3-9e92-4f38-bb40-f7c3fac08aab"},"vehicle_type_id":"4","last_reported":1761044909,"current_range_meters":4400,"station_id":"ce4bgk12rcd13ifvqbj0","pricing_plan_id":"cebpf4jnsgd1na2vs0mg"},{"bike_id":"8758806c-a775-4e20-b8bd-1fb9bd76f1c5","system_id":"levelo_inurba_marseille","lat":43.27914,"lon":5.4096,"is_reserved":false,"is_disabled":false,"rental_uris":{"android":"levelo://app?vid=8758806c-a775-4e20-b8bd-1fb9bd76f1c5","ios":"levelo://app?vid=8758806c-a775-4e20-b8bd-1fb9bd76f1c5"},"vehicle_type_id":"4","last_reported":1761044909,"current_range_meters":4800,"station_id":"","pricing_plan_id":"cebpf4jnsgd1na2vs0mg"},{"bike_id":"63af7f75-ae37-4bd3-9613-127db36eb0c3","system_id":"levelo_inurba_marseille","lat":43.28868,"lon":5.4251,"is_reserved":false,"is_disabled":false,"rental_uris":{"android":"levelo://app?vid=63af7f75-ae37-4bd3-9613-127db36eb0c3","ios":"levelo://app?vid=63af7f75-ae37-4bd3-9613-127db36eb0c3"},"vehicle_type_id":"4","last_reported":1761044909,"current_range_meters":4800,"station_id":"st_d3b462108ojc7389ooeg","pricing_plan_id":"cebpf4jnsgd1na2vs0mg"},{"bike_id":"0e4de842-b992-4025-b712-92ce60d11db7","system_id":"levelo_inurba_marseille","lat":43.28354,"lon":5.38099,"is_reserved":false,"is_disabled":false,"rental_uris":{"android":"levelo://app?vid=0e4de842-b992-4025-b712-92ce60d11db7","ios":"levelo://app?vid=0e4de842-b992-4025-b712-92ce60d11db7"},"vehicle_type_id":"4","last_reported":1761044909,"current_range_meters":4800,"station_id":"ce4bh412rcd13ifvqdr0","pricing_plan_id":"cebpf4jnsgd1na2vs0mg"},{"bike_id":"9af824a2-4f89-4c1d-8802-de2d90042022","system_id":"levelo_inurba_marseille","lat":43.337444,"lon":5.374475,"is_reserved":false,"is_disabled":false,"rental_uris":{"android":"levelo://app?vid=9af824a2-4f89-4c1d-8802-de2d90042022","ios":"levelo://app?vid=9af824a2-4f89-4c1d-8802-de2d90042022"},"vehicle_type_id":"4","last_reported":1761044909,"current_range_meters":5600,"station_id":"","pricing_plan_id":"cebpf4jnsgd1na2vs0mg"},{"bike_id":"679c3c1f-72e8-4456-b0d9-4c2ad9c70dd9","system_id":"levelo_inurba_marseille","lat":43.2119,"lon":5.35033,"is_reserved":false,"is_disabled":false,"rental_uris":{"android":"levelo://app?vid=679c3c1f-72e8-4456-b0d9-4c2ad9c70dd9","ios":"levelo://app?vid=679c3c1f-72e8-4456-b0d9-4c2ad9c70dd9"},"vehicle_type_id":"4","last_reported":1761044909,"current_range_meters":5600,"station_id":"st_cvj6sg6p6f1abm77japg","pricing_plan_id":"cebpf4jnsgd1na2vs0mg"},{"bike_id":"9aeebf4b-1b22-4c5c-8afd-b3496c319416","system_id":"levelo_inurba_marseille","lat":43.23156,"lon":5.437,"is_reserved":false,"is_disabled":false,"rental_uris":{"android":"levelo://app?vid=9aeebf4b-1b22-4c5c-8afd-b3496c319416","ios":"levelo://app?vid=9aeebf4b-1b22-4c5c-8afd-b3496c319416"},"vehicle_type_id":"4","last_reported":1761044909,"current_range_meters":5600,"station_id":"ce4bhmp2rcd13ifvqgog","pricing_plan_id":"cebpf4jnsgd1na2vs0mg"},{"bike_id":"86ce52f8-f590-4694-90e1-216ddc477b29","system_id":"levelo_inurba_marseille","lat":43.30968,"lon":5.3812,"is_reserved":false,"is_disabled":false,"rental_uris":{"android":"levelo://app?vid=86ce52f8-f590-4694-90e1-216ddc477b29","ios":"levelo://app?vid=86ce52f8-f590-4694-90e1-216ddc477b29"},"vehicle_type_id":"4","last_reported":1761044909,"current_range_meters":5600,"station_id":"","pricing_plan_id":"cebpf4jnsgd1na2vs0mg"},{"bike_id":"add14055-c5ac-4ba8-9cc8-3a9c6cd67c16","system_id":"levelo_inurba_marseille","lat":43.243963,"lon":5.396213,"is_reserved":false,"is_disabled":false,"rental_uris":{"android":"levelo://app?vid=add14055-c5ac-4ba8-9cc8-3a9c6cd67c16","ios":"levelo://app?vid=add14055-c5ac-4ba8-9cc8-3a9c6cd67c16"},"vehicle_type_id":"4","last_reported":1761044909,"current_range_meters":5600,"station_id":"","pricing_plan_id":"cebpf4jnsgd1na2vs0mg"},{"bike_id":"a3c3c6e1-69e2-41a6-96c0-a5336e60baeb","system_id":"levelo_inurba_marseille","lat":43.2315,"lon":5.43718,"is_reserved":false,"is_disabled":false,"rental_uris":{"android":"levelo://app?vid=a3c3c6e1-69e2-41a6-96c0-a5336e60baeb","ios":"levelo://app?vid=a3c3c6e1-69e2-41a6-96c0-a5336e60baeb"},"vehicle_type_id":"4","last_reported":1761044909,"current_range_meters":5600,"station_id":"ce4bhmp2rcd13ifvqgog","pricing_plan_id":"cebpf4jnsgd1na2vs0mg"},{"bike_id":"6e6b4698-38ad-4ceb-80ff-bfe391455ace","system_id":"levelo_inurba_marseille","lat":43.244414,"lon":5.371114,"is_reserved":false,"is_disabled":false,"rental_uris":{"android":"levelo://app?vid=6e6b4698-38ad-4ceb-80ff-bfe391455ace","ios":"levelo://app?vid=6e6b4698-38ad-4ceb-80ff-bfe391455ace"},"vehicle_type_id":"4","last_reported":1761044909,"current_range_meters":5600,"station_id":"ce4bhhh2rcd13ifvqfk0","pricing_plan_id":"cebpf4jnsgd1na2vs0mg"},{"bike_id":"11fde29b-12d8-40b7-821f-818623aaa265","system_id":"levelo_inurba_marseille","lat":43.2707,"lon":5.4228,"is_reserved":false,"is_disabled":false,"rental_uris":{"android":"levelo://app?vid=11fde29b-12d8-40b7-821f-818623aaa265","ios":"levelo://app?vid=11fde29b-12d8-40b7-821f-818623aaa265"},"vehicle_type_id":"4","last_reported":1761044909,"current_range_meters":6000,"station_id":"ce4bhk92rcd13ifvqgb0","pricing_plan_id":"cebpf4jnsgd1na2vs0mg"},{"bike_id":"2b4d8f1f-8319-457e-a16f-a75d4c20cb55","system_id":"levelo_inurba_marseille","lat":43.22522,"lon":5.348315,"is_reserved":false,"is_disabled":false,"rental_uris":{"android":"levelo://app?vid=2b4d8f1f-8319-457e-a16f-a75d4c20cb55","ios":"levelo://app?vid=2b4d8f1f-8319-457e-a16f-a75d4c20cb55"},"vehicle_type_id":"4","last_reported":1761044909,"current_range_meters":6000,"station_id":"","pricing_plan_id":"cebpf4jnsgd1na2vs0mg"},{"bike_id":"edb105c5-cf20-471f-b824-20e0ed239322","system_id":"levelo_inurba_marseille","lat":43.29599,"lon":5.381,"is_reserved":false,"is_disabled":false,"rental_uris":{"android":"levelo://app?vid=edb105c5-cf20-471f-b824-20e0ed239322","ios":"levelo://app?vid=edb105c5-cf20-471f-b824-20e0ed239322"},"vehicle_type_id":"4","last_reported":1761044909,"current_range_meters":6400,"station_id":"ce4bgl12rcd13ifvqbo0","pricing_plan_id":"cebpf4jnsgd1na2vs0mg"},{"bike_id":"245a030c-0c43-41f8-a4cc-088d55252b06","system_id":"levelo_inurba_marseille","lat":43.24481,"lon":5.36934,"is_reserved":false,"is_disabled":false,"rental_uris":{"android":"levelo://app?vid=245a030c-0c43-41f8-a4cc-088d55252b06","ios":"levelo://app?vid=245a030c-0c43-41f8-a4cc-088d55252b06"},"vehicle_type_id":"4","last_reported":1761044909,"current_range_meters":6400,"station_id":"","pricing_plan_id":"cebpf4jnsgd1na2vs0mg"},{"bike_id":"4bbd6801-e86f-4670-a08c-5a08e1dabb92","system_id":"levelo_inurba_marseille","lat":43.29211,"lon":5.38091,"is_reserved":false,"is_disabled":false,"rental_uris":{"android":"levelo://app?vid=4bbd6801-e86f-4670-a08c-5a08e1dabb92","ios":"levelo://app?vid=4bbd6801-e86f-4670-a08c-5a08e1dabb92"},"vehicle_type_id":"4","last_reported":1761044909,"current_range_meters":6400,"station_id":"","pricing_plan_id":"cebpf4jnsgd1na2vs0mg"},{"bike_id":"3cc4001b-2070-4794-8eb8-dddb3541b118","system_id":"levelo_inurba_marseille","lat":43.271733,"lon":5.409988,"is_reserved":false,"is_disabled":false,"rental_uris":{"android":"levelo://app?vid=3cc4001b-2070-4794-8eb8-dddb3541b118","ios":"levelo://app?vid=3cc4001b-2070-4794-8eb8-dddb3541b118"},"vehicle_type_id":"4","last_reported":1761044909,"current_range_meters":6400,"station_id":"ce4bhl12rcd13ifvqgf0","pricing_plan_id":"cebpf4jnsgd1na2vs0mg"},{"bike_id":"1b4e66dd-f506-4884-ad76-0aaf3c7ef7c5","system_id":"levelo_inurba_marseille","lat":43.30633,"lon":5.40096,"is_reserved":false,"is_disabled":false,"rental_uris":{"android":"levelo://app?vid=1b4e66dd-f506-4884-ad76-0aaf3c7ef7c5","ios":"levelo://app?vid=1b4e66dd-f506-4884-ad76-0aaf3c7ef7c5"},"vehicle_type_id":"4","last_reported":1761044909,"current_range_meters":6400,"station_id":"ce4bh112rcd13ifvqda0","pricing_plan_id":"cebpf4jnsgd1na2vs0mg"},{"bike_id":"0d4475db-d3fd-4741-babb-7d3b614007a3","system_id":"levelo_inurba_marseille","lat":43.29966,"lon":5.38496,"is_reserved":false,"is_disabled":false,"rental_uris":{"android":"levelo://app?vid=0d4475db-d3fd-4741-babb-7d3b614007a3","ios":"levelo://app?vid=0d4475db-d3fd-4741-babb-7d3b614007a3"},"vehicle_type_id":"4","last_reported":1761044909,"current_range_meters":6800,"station_id":"ce4bgj92rcd13ifvqbd0","pricing_plan_id":"cebpf4jnsgd1na2vs0mg"},{"bike_id":"9652283e-21f4-4490-ac9e-ffa9429f0005","system_id":"levelo_inurba_marseille","lat":43.29058,"lon":5.40543,"is_reserved":false,"is_disabled":false,"rental_uris":{"android":"levelo://app?vid=9652283e-21f4-4490-ac9e-ffa9429f0005","ios":"levelo://app?vid=9652283e-21f4-4490-ac9e-ffa9429f0005"},"vehicle_type_id":"4","last_reported":1761044909,"current_range_meters":6800,"station_id":"","pricing_plan_id":"cebpf4jnsgd1na2vs0mg"},{"bike_id":"2c3fb915-d790-4cca-9208-3500d7a950bd","system_id":"levelo_inurba_marseille","lat":43.32493,"lon":5.36557,"is_reserved":false,"is_disabled":false,"rental_uris":{"android":"levelo://app?vid=2c3fb915-d790-4cca-9208-3500d7a950bd","ios":"levelo://app?vid=2c3fb915-d790-4cca-9208-3500d7a950bd"},"vehicle_type_id":"4","last_reported":1761044909,"current_range_meters":6800,"station_id":"ce4bhs12rcd13ifvqhvg","pricing_plan_id":"cebpf4jnsgd1na2vs0mg"},{"bike_id":"74d1360a-b511-430f-9593-b971603f6c88","system_id":"levelo_inurba_marseille","lat":43.2743,"lon":5.39419,"is_reserved":false,"is_disabled":false,"rental_uris":{"android":"levelo://app?vid=74d1360a-b511-430f-9593-b971603f6c88","ios":"levelo://app?vid=74d1360a-b511-430f-9593-b971603f6c88"},"vehicle_type_id":"4","last_reported":1761044909,"current_range_meters":6800,"station_id":"ce4bhdp2rcd13ifvqf20","pricing_plan_id":"cebpf4jnsgd1na2vs0mg"},{"bike_id":"0f787efd-37ca-4060-a03d-15d3c3ce389f","system_id":"levelo_inurba_marseille","lat":43.300061,"lon":5.37358,"is_reserved":false,"is_disabled":false,"rental_uris":{"android":"levelo://app?vid=0f787efd-37ca-4060-a03d-15d3c3ce389f","ios":"levelo://app?vid=0f787efd-37ca-4060-a03d-15d3c3ce389f"},"vehicle_type_id":"4","last_reported":1761044909,"current_range_meters":7200,"station_id":"","pricing_plan_id":"cebpf4jnsgd1na2vs0mg"},{"bike_id":"4764da5a-f464-4d5d-a477-d4d6c69bb9ff","system_id":"levelo_inurba_marseille","lat":43.29005,"lon":5.35617,"is_reserved":false,"is_disabled":false,"rental_uris":{"android":"levelo://app?vid=4764da5a-f464-4d5d-a477-d4d6c69bb9ff","ios":"levelo://app?vid=4764da5a-f464-4d5d-a477-d4d6c69bb9ff"},"vehicle_type_id":"4","last_reported":1761044909,"current_range_meters":7200,"station_id":"ce4bhb92rcd13ifvqen0","pricing_plan_id":"cebpf4jnsgd1na2vs0mg"},{"bike_id":"78fe83c7-5376-41e5-afa1-483e220954a6","system_id":"levelo_inurba_marseille","lat":43.29185,"lon":5.37059,"is_reserved":false,"is_disabled":false,"rental_uris":{"android":"levelo://app?vid=78fe83c7-5376-41e5-afa1-483e220954a6","ios":"levelo://app?vid=78fe83c7-5376-41e5-afa1-483e220954a6"},"vehicle_type_id":"4","last_reported":1761044909,"current_range_meters":8000,"station_id":"","pricing_plan_id":"cebpf4jnsgd1na2vs0mg"},{"bike_id":"b64f5a90-0c5f-4ae5-b1e4-8d412cb049d3","system_id":"levelo_inurba_marseille","lat":43.273563,"lon":5.415099,"is_reserved":false,"is_disabled":false,"rental_uris":{"android":"levelo://app?vid=b64f5a90-0c5f-4ae5-b1e4-8d412cb049d3","ios":"levelo://app?vid=b64f5a90-0c5f-4ae5-b1e4-8d412cb049d3"},"vehicle_type_id":"4","last_reported":1761044909,"current_range_meters":8000,"station_id":"","pricing_plan_id":"cebpf4jnsgd1na2vs0mg"},{"bike_id":"e590f316-b6a9-49aa-a6ef-e37eaec2bd15","system_id":"levelo_inurba_marseille","lat":43.3046,"lon":5.37903,"is_reserved":false,"is_disabled":false,"rental_uris":{"android":"levelo://app?vid=e590f316-b6a9-49aa-a6ef-e37eaec2bd15","ios":"levelo://app?vid=e590f316-b6a9-49aa-a6ef-e37eaec2bd15"},"vehicle_type_id":"4","last_reported":1761044909,"current_range_meters":8000,"station_id":"ce4bgup2rcd13ifvqcn0","pricing_plan_id":"cebpf4jnsgd1na2vs0mg"},{"bike_id":"b795dcee-745f-4569-9cc0-ecc3631ffb10","system_id":"levelo_inurba_marseille","lat":43.301529,"lon":5.372178,"is_reserved":false,"is_disabled":false,"rental_uris":{"android":"levelo://app?vid=b795dcee-745f-4569-9cc0-ecc3631ffb10","ios":"levelo://app?vid=b795dcee-745f-4569-9cc0-ecc3631ffb10"},"vehicle_type_id":"4","last_reported":1761044909,"current_range_meters":8400,"station_id":"","pricing_plan_id":"cebpf4jnsgd1na2vs0mg"},{"bike_id":"40e9d2cb-a62c-4cca-ba80-02f1949517c1","system_id":"levelo_inurba_marseille","lat":43.34742,"lon":5.36606,"is_reserved":false,"is_disabled":false,"rental_uris":{"android":"levelo://app?vid=40e9d2cb-a62c-4cca-ba80-02f1949517c1","ios":"levelo://app?vid=40e9d2cb-a62c-4cca-ba80-02f1949517c1"},"vehicle_type_id":"4","last_reported":1761044909,"current_range_meters":8400,"station_id":"","pricing_plan_id":"cebpf4jnsgd1na2vs0mg"},{"bike_id":"e99e31ab-0051-40da-bc30-7e077ad1cc64","system_id":"levelo_inurba_marseille","lat":43.28157,"lon":5.34764,"is_reserved":false,"is_disabled":false,"rental_uris":{"android":"levelo://app?vid=e99e31ab-0051-40da-bc30-7e077ad1cc64","ios":"levelo://app?vid=e99e31ab-0051-40da-bc30-7e077ad1cc64"},"vehicle_type_id":"4","last_reported":1761044909,"current_range_meters":8400,"station_id":"","pricing_plan_id":"cebpf4jnsgd1na2vs0mg"},{"bike_id":"b84f5d5c-4af3-41b9-bd23-a606402416d4","system_id":"levelo_inurba_marseille","lat":43.32041,"lon":5.41543,"is_reserved":false,"is_disabled":true,"rental_uris":{"android":"levelo://app?vid=b84f5d5c-4af3-41b9-bd23-a606402416d4","ios":"levelo://app?vid=b84f5d5c-4af3-41b9-bd23-a606402416d4"},"vehicle_type_id":"4","last_reported":1761044909,"current_range_meters":8400,"station_id":"","pricing_plan_id":"cebpf4jnsgd1na2vs0mg"},{"bike_id":"e6590b07-9be7-4cbe-803d-0f89b96667d8","system_id":"levelo_inurba_marseille","lat":43.25106,"lon":5.40319,"is_reserved":false,"is_disabled":false,"rental_uris":{"android":"levelo://app?vid=e6590b07-9be7-4cbe-803d-0f89b96667d8","ios":"levelo://app?vid=e6590b07-9be7-4cbe-803d-0f89b96667d8"},"vehicle_type_id":"4","last_reported":1761044909,"current_range_meters":8400,"station_id":"ce4bhlh2rcd13ifvqgig","pricing_plan_id":"cebpf4jnsgd1na2vs0mg"},{"bike_id":"94611032-96b9-4bd7-b50a-ec6b005dda8c","system_id":"levelo_inurba_marseille","lat":43.28937,"lon":5.39607,"is_reserved":false,"is_disabled":false,"rental_uris":{"android":"levelo://app?vid=94611032-96b9-4bd7-b50a-ec6b005dda8c","ios":"levelo://app?vid=94611032-96b9-4bd7-b50a-ec6b005dda8c"},"vehicle_type_id":"4","last_reported":1761044909,"current_range_meters":8400,"station_id":"ce4bh3h2rcd13ifvqdn0","pricing_plan_id":"cebpf4jnsgd1na2vs0mg"},{"bike_id":"793bd619-12af-4bc1-a674-b70d86b415bd","system_id":"levelo_inurba_marseille","lat":43.33133,"lon":5.39125,"is_reserved":false,"is_disabled":false,"rental_uris":{"android":"levelo://app?vid=793bd619-12af-4bc1-a674-b70d86b415bd","ios":"levelo://app?vid=793bd619-12af-4bc1-a674-b70d86b415bd"},"vehicle_type_id":"4","last_reported":1761044909,"current_range_meters":8400,"station_id":"","pricing_plan_id":"cebpf4jnsgd1na2vs0mg"},{"bike_id":"442f765b-8bc7-49e2-a90d-0201d4740c13","system_id":"levelo_inurba_marseille","lat":43.2594,"lon":5.40905,"is_reserved":false,"is_disabled":false,"rental_uris":{"android":"levelo://app?vid=442f765b-8bc7-49e2-a90d-0201d4740c13","ios":"levelo://app?vid=442f765b-8bc7-49e2-a90d-0201d4740c13"},"vehicle_type_id":"4","last_reported":1761044909,"current_range_meters":8800,"station_id":"ce4bhm92rcd13ifvqglg","pricing_plan_id":"cebpf4jnsgd1na2vs0mg"},{"bike_id":"9d449aff-01f0-4b92-9983-749d954577ea","system_id":"levelo_inurba_marseille","lat":43.2723,"lon":5.40065,"is_reserved":false,"is_disabled":false,"rental_uris":{"android":"levelo://app?vid=9d449aff-01f0-4b92-9983-749d954577ea","ios":"levelo://app?vid=9d449aff-01f0-4b92-9983-749d954577ea"},"vehicle_type_id":"4","last_reported":1761044909,"current_range_meters":8800,"station_id":"","pricing_plan_id":"cebpf4jnsgd1na2vs0mg"},{"bike_id":"0c815a2f-0eda-44e7-a52e-3cb12de54b97","system_id":"levelo_inurba_marseille","lat":43.29019,"lon":5.35616,"is_reserved":false,"is_disabled":false,"rental_uris":{"android":"levelo://app?vid=0c815a2f-0eda-44e7-a52e-3cb12de54b97","ios":"levelo://app?vid=0c815a2f-0eda-44e7-a52e-3cb12de54b97"},"vehicle_type_id":"4","last_reported":1761044909,"current_range_meters":8800,"station_id":"ce4bhb92rcd13ifvqen0","pricing_plan_id":"cebpf4jnsgd1na2vs0mg"},{"bike_id":"6c90027f-7697-41ce-b379-9311df6729bd","system_id":"levelo_inurba_marseille","lat":43.29866,"lon":5.39729,"is_reserved":false,"is_disabled":false,"rental_uris":{"android":"levelo://app?vid=6c90027f-7697-41ce-b379-9311df6729bd","ios":"levelo://app?vid=6c90027f-7697-41ce-b379-9311df6729bd"},"vehicle_type_id":"4","last_reported":1761044909,"current_range_meters":8800,"station_id":"ce4bh0h2rcd13ifvqd50","pricing_plan_id":"cebpf4jnsgd1na2vs0mg"},{"bike_id":"a50ec805-f1ef-4193-a176-e8b8825c02e2","system_id":"levelo_inurba_marseille","lat":43.30492,"lon":5.37918,"is_reserved":false,"is_disabled":false,"rental_uris":{"android":"levelo://app?vid=a50ec805-f1ef-4193-a176-e8b8825c02e2","ios":"levelo://app?vid=a50ec805-f1ef-4193-a176-e8b8825c02e2"},"vehicle_type_id":"4","last_reported":1761044909,"current_range_meters":8800,"station_id":"ce4bgup2rcd13ifvqcn0","pricing_plan_id":"cebpf4jnsgd1na2vs0mg"},{"bike_id":"e84cb271-7d37-4057-8a81-02b75fe5b44b","system_id":"levelo_inurba_marseille","lat":43.31062,"lon":5.37558,"is_reserved":false,"is_disabled":false,"rental_uris":{"android":"levelo://app?vid=e84cb271-7d37-4057-8a81-02b75fe5b44b","ios":"levelo://app?vid=e84cb271-7d37-4057-8a81-02b75fe5b44b"},"vehicle_type_id":"4","last_reported":1761044909,"current_range_meters":8800,"station_id":"","pricing_plan_id":"cebpf4jnsgd1na2vs0mg"},{"bike_id":"06c84d1b-6e81-4ab2-ab43-e166647822bc","system_id":"levelo_inurba_marseille","lat":43.28931,"lon":5.36847,"is_reserved":false,"is_disabled":false,"rental_uris":{"android":"levelo://app?vid=06c84d1b-6e81-4ab2-ab43-e166647822bc","ios":"levelo://app?vid=06c84d1b-6e81-4ab2-ab43-e166647822bc"},"vehicle_type_id":"4","last_reported":1761044909,"current_range_meters":9200,"station_id":"","pricing_plan_id":"cebpf4jnsgd1na2vs0mg"},{"bike_id":"86f38c78-876c-43f8-9460-824bda154c5f","system_id":"levelo_inurba_marseille","lat":43.28935,"lon":5.36638,"is_reserved":false,"is_disabled":false,"rental_uris":{"android":"levelo://app?vid=86f38c78-876c-43f8-9460-824bda154c5f","ios":"levelo://app?vid=86f38c78-876c-43f8-9460-824bda154c5f"},"vehicle_type_id":"4","last_reported":1761044909,"current_range_meters":9200,"station_id":"ce4bhap2rcd13ifvqek0","pricing_plan_id":"cebpf4jnsgd1na2vs0mg"},{"bike_id":"6e8ed827-a6f7-46f1-ad28-2f0468b71691","system_id":"levelo_inurba_marseille","lat":43.32103,"lon":5.36722,"is_reserved":false,"is_disabled":true,"rental_uris":{"android":"levelo://app?vid=6e8ed827-a6f7-46f1-ad28-2f0468b71691","ios":"levelo://app?vid=6e8ed827-a6f7-46f1-ad28-2f0468b71691"},"vehicle_type_id":"4","last_reported":1761044909,"current_range_meters":9200,"station_id":"ce4bhrh2rcd13ifvqhug","pricing_plan_id":"cebpf4jnsgd1na2vs0mg"},{"bike_id":"495814e3-0026-4626-9c23-d732b08595f6","system_id":"levelo_inurba_marseille","lat":43.21195,"lon":5.3509,"is_reserved":false,"is_disabled":false,"rental_uris":{"android":"levelo://app?vid=495814e3-0026-4626-9c23-d732b08595f6","ios":"levelo://app?vid=495814e3-0026-4626-9c23-d732b08595f6"},"vehicle_type_id":"4","last_reported":1761044909,"current_range_meters":9200,"station_id":"st_cvj6sg6p6f1abm77japg","pricing_plan_id":"cebpf4jnsgd1na2vs0mg"},{"bike_id":"2c59cc86-a348-4735-8f6f-75bf0e4aac2c","system_id":"levelo_inurba_marseille","lat":43.33143,"lon":5.39044,"is_reserved":false,"is_disabled":false,"rental_uris":{"android":"levelo://app?vid=2c59cc86-a348-4735-8f6f-75bf0e4aac2c","ios":"levelo://app?vid=2c59cc86-a348-4735-8f6f-75bf0e4aac2c"},"vehicle_type_id":"4","last_reported":1761044909,"current_range_meters":9200,"station_id":"","pricing_plan_id":"cebpf4jnsgd1na2vs0mg"},{"bike_id":"c9a6b350-32c3-4fde-b7f8-53b1502df4e0","system_id":"levelo_inurba_marseille","lat":43.28724,"lon":5.379339,"is_reserved":false,"is_disabled":false,"rental_uris":{"android":"levelo://app?vid=c9a6b350-32c3-4fde-b7f8-53b1502df4e0","ios":"levelo://app?vid=c9a6b350-32c3-4fde-b7f8-53b1502df4e0"},"vehicle_type_id":"4","last_reported":1761044909,"current_range_meters":9600,"station_id":"ce4bh9p2rcd13ifvqec0","pricing_plan_id":"cebpf4jnsgd1na2vs0mg"},{"bike_id":"f5409d2b-ac5a-4662-8355-e45128f66129","system_id":"levelo_inurba_marseille","lat":43.29525,"lon":5.37505,"is_reserved":false,"is_disabled":false,"rental_uris":{"android":"levelo://app?vid=f5409d2b-ac5a-4662-8355-e45128f66129","ios":"levelo://app?vid=f5409d2b-ac5a-4662-8355-e45128f66129"},"vehicle_type_id":"4","last_reported":1761044909,"current_range_meters":9600,"station_id":"ce4bgkp2rcd13ifvqbmg","pricing_plan_id":"cebpf4jnsgd1na2vs0mg"},{"bike_id":"44def8bb-fc22-46bb-a308-b8e670ec5dfd","system_id":"levelo_inurba_marseille","lat":43.30131,"lon":5.37428,"is_reserved":false,"is_disabled":true,"rental_uris":{"android":"levelo://app?vid=44def8bb-fc22-46bb-a308-b8e670ec5dfd","ios":"levelo://app?vid=44def8bb-fc22-46bb-a308-b8e670ec5dfd"},"vehicle_type_id":"4","last_reported":1761044909,"current_range_meters":10000,"station_id":"ce4bgs92rcd13ifvqcc0","pricing_plan_id":"cebpf4jnsgd1na2vs0mg"},{"bike_id":"32dbdba0-e039-4c71-9c95-70d7b309a29d","system_id":"levelo_inurba_marseille","lat":43.28225,"lon":5.34981,"is_reserved":false,"is_disabled":false,"rental_uris":{"android":"levelo://app?vid=32dbdba0-e039-4c71-9c95-70d7b309a29d","ios":"levelo://app?vid=32dbdba0-e039-4c71-9c95-70d7b309a29d"},"vehicle_type_id":"4","last_reported":1761044909,"current_range_meters":10000,"station_id":"","pricing_plan_id":"cebpf4jnsgd1na2vs0mg"},{"bike_id":"aff26c85-5d18-4d6c-aefe-ab50409dc055","system_id":"levelo_inurba_marseille","lat":43.288795,"lon":5.425243,"is_reserved":false,"is_disabled":false,"rental_uris":{"android":"levelo://app?vid=aff26c85-5d18-4d6c-aefe-ab50409dc055","ios":"levelo://app?vid=aff26c85-5d18-4d6c-aefe-ab50409dc055"},"vehicle_type_id":"4","last_reported":1761044909,"current_range_meters":10000,"station_id":"st_d3b462108ojc7389ooeg","pricing_plan_id":"cebpf4jnsgd1na2vs0mg"},{"bike_id":"e550ee70-0aea-43a5-9120-fe54ec574bf3","system_id":"levelo_inurba_marseille","lat":43.301483,"lon":5.380839,"is_reserved":false,"is_disabled":false,"rental_uris":{"android":"levelo://app?vid=e550ee70-0aea-43a5-9120-fe54ec574bf3","ios":"levelo://app?vid=e550ee70-0aea-43a5-9120-fe54ec574bf3"},"vehicle_type_id":"4","last_reported":1761044909,"current_range_meters":10000,"station_id":"ce4bgjp2rcd13ifvqbh0","pricing_plan_id":"cebpf4jnsgd1na2vs0mg"},{"bike_id":"4387aa7c-2f7a-40d5-b2d0-e5056fb1700f","system_id":"levelo_inurba_marseille","lat":43.23155,"lon":5.4371,"is_reserved":false,"is_disabled":false,"rental_uris":{"android":"levelo://app?vid=4387aa7c-2f7a-40d5-b2d0-e5056fb1700f","ios":"levelo://app?vid=4387aa7c-2f7a-40d5-b2d0-e5056fb1700f"},"vehicle_type_id":"4","last_reported":1761044909,"current_range_meters":10800,"station_id":"ce4bhmp2rcd13ifvqgog","pricing_plan_id":"cebpf4jnsgd1na2vs0mg"},{"bike_id":"5a35347d-1dbb-434c-8651-0148cd77cd1e","system_id":"levelo_inurba_marseille","lat":43.3175,"lon":5.38585,"is_reserved":false,"is_disabled":false,"rental_uris":{"android":"levelo://app?vid=5a35347d-1dbb-434c-8651-0148cd77cd1e","ios":"levelo://app?vid=5a35347d-1dbb-434c-8651-0148cd77cd1e"},"vehicle_type_id":"4","last_reported":1761044909,"current_range_meters":10800,"station_id":"","pricing_plan_id":"cebpf4jnsgd1na2vs0mg"},{"bike_id":"d6702544-1554-4973-bedb-eb7a3f214c34","system_id":"levelo_inurba_marseille","lat":43.31973,"lon":5.38148,"is_reserved":false,"is_disabled":false,"rental_uris":{"android":"levelo://app?vid=d6702544-1554-4973-bedb-eb7a3f214c34","ios":"levelo://app?vid=d6702544-1554-4973-bedb-eb7a3f214c34"},"vehicle_type_id":"4","last_reported":1761044909,"current_range_meters":10800,"station_id":"ce4bhr12rcd13ifvqhpg","pricing_plan_id":"cebpf4jnsgd1na2vs0mg"},{"bike_id":"fa0a26c1-5f4b-4523-b884-7115bf2a5b0e","system_id":"levelo_inurba_marseille","lat":43.26582,"lon":5.39005,"is_reserved":false,"is_disabled":false,"rental_uris":{"android":"levelo://app?vid=fa0a26c1-5f4b-4523-b884-7115bf2a5b0e","ios":"levelo://app?vid=fa0a26c1-5f4b-4523-b884-7115bf2a5b0e"},"vehicle_type_id":"4","last_reported":1761044909,"current_range_meters":11200,"station_id":"ce4bhe12rcd13ifvqf30","pricing_plan_id":"cebpf4jnsgd1na2vs0mg"},{"bike_id":"0db9ab5d-e4b9-4e8d-8841-4099a10de2ae","system_id":"levelo_inurba_marseille","lat":43.28481,"lon":5.48397,"is_reserved":false,"is_disabled":false,"rental_uris":{"android":"levelo://app?vid=0db9ab5d-e4b9-4e8d-8841-4099a10de2ae","ios":"levelo://app?vid=0db9ab5d-e4b9-4e8d-8841-4099a10de2ae"},"vehicle_type_id":"4","last_reported":1761044909,"current_range_meters":11200,"station_id":"st_d3jp68qikq2c7381ktn0","pricing_plan_id":"cebpf4jnsgd1na2vs0mg"},{"bike_id":"0b75cdf1-c1e5-49ec-9732-3f9e151603c2","system_id":"levelo_inurba_marseille","lat":43.33609,"lon":5.4103,"is_reserved":false,"is_disabled":false,"rental_uris":{"android":"levelo://app?vid=0b75cdf1-c1e5-49ec-9732-3f9e151603c2","ios":"levelo://app?vid=0b75cdf1-c1e5-49ec-9732-3f9e151603c2"},"vehicle_type_id":"4","last_reported":1761044909,"current_range_meters":11200,"station_id":"ce4bhqh2rcd13ifvqhmg","pricing_plan_id":"cebpf4jnsgd1na2vs0mg"},{"bike_id":"9953bb32-6d68-488a-9e42-24a31e2ab81f","system_id":"levelo_inurba_marseille","lat":43.31525,"lon":5.38034,"is_reserved":false,"is_disabled":true,"rental_uris":{"android":"levelo://app?vid=9953bb32-6d68-488a-9e42-24a31e2ab81f","ios":"levelo://app?vid=9953bb32-6d68-488a-9e42-24a31e2ab81f"},"vehicle_type_id":"4","last_reported":1761044909,"current_range_meters":11200,"station_id":"ce4bhsp2rcd13ifvqi50","pricing_plan_id":"cebpf4jnsgd1na2vs0mg"},{"bike_id":"b14fa3f8-aae1-46e3-b682-dad93ba86e32","system_id":"levelo_inurba_marseille","lat":43.25088,"lon":5.395098,"is_reserved":false,"is_disabled":false,"rental_uris":{"android":"levelo://app?vid=b14fa3f8-aae1-46e3-b682-dad93ba86e32","ios":"levelo://app?vid=b14fa3f8-aae1-46e3-b682-dad93ba86e32"},"vehicle_type_id":"4","last_reported":1761044909,"current_range_meters":11200,"station_id":"ce4bhm12rcd13ifvqgkg","pricing_plan_id":"cebpf4jnsgd1na2vs0mg"},{"bike_id":"43a78f94-2cfa-4b60-9568-bf4e19d60a7a","system_id":"levelo_inurba_marseille","lat":43.312257,"lon":5.368618,"is_reserved":false,"is_disabled":true,"rental_uris":{"android":"levelo://app?vid=43a78f94-2cfa-4b60-9568-bf4e19d60a7a","ios":"levelo://app?vid=43a78f94-2cfa-4b60-9568-bf4e19d60a7a"},"vehicle_type_id":"4","last_reported":1761044909,"current_range_meters":11200,"station_id":"ce4bgl92rcd13ifvqbq0","pricing_plan_id":"cebpf4jnsgd1na2vs0mg"},{"bike_id":"0ae5bcde-4534-42c7-8b19-bf9eb4fbfb9a","system_id":"levelo_inurba_marseille","lat":43.21193,"lon":5.35073,"is_reserved":false,"is_disabled":false,"rental_uris":{"android":"levelo://app?vid=0ae5bcde-4534-42c7-8b19-bf9eb4fbfb9a","ios":"levelo://app?vid=0ae5bcde-4534-42c7-8b19-bf9eb4fbfb9a"},"vehicle_type_id":"4","last_reported":1761044909,"current_range_meters":11200,"station_id":"st_cvj6sg6p6f1abm77japg","pricing_plan_id":"cebpf4jnsgd1na2vs0mg"},{"bike_id":"4916f3b7-3e4e-44c2-a9e9-1007c17d7311","system_id":"levelo_inurba_marseille","lat":43.27354,"lon":5.39873,"is_reserved":false,"is_disabled":false,"rental_uris":{"android":"levelo://app?vid=4916f3b7-3e4e-44c2-a9e9-1007c17d7311","ios":"levelo://app?vid=4916f3b7-3e4e-44c2-a9e9-1007c17d7311"},"vehicle_type_id":"4","last_reported":1761044909,"current_range_meters":11200,"station_id":"","pricing_plan_id":"cebpf4jnsgd1na2vs0mg"},{"bike_id":"2e67643b-d341-4102-ab0e-b8ecc435eb92","system_id":"levelo_inurba_marseille","lat":43.31571,"lon":5.38755,"is_reserved":false,"is_disabled":false,"rental_uris":{"android":"levelo://app?vid=2e67643b-d341-4102-ab0e-b8ecc435eb92","ios":"levelo://app?vid=2e67643b-d341-4102-ab0e-b8ecc435eb92"},"vehicle_type_id":"4","last_reported":1761044909,"current_range_meters":11200,"station_id":"","pricing_plan_id":"cebpf4jnsgd1na2vs0mg"},{"bike_id":"d8ce8491-25e7-4f84-8373-cc25897ada4d","system_id":"levelo_inurba_marseille","lat":43.22552,"lon":5.41634,"is_reserved":false,"is_disabled":false,"rental_uris":{"android":"levelo://app?vid=d8ce8491-25e7-4f84-8373-cc25897ada4d","ios":"levelo://app?vid=d8ce8491-25e7-4f84-8373-cc25897ada4d"},"vehicle_type_id":"4","last_reported":1761044909,"current_range_meters":11200,"station_id":"st_d2o4gvlbi1j2169b742g","pricing_plan_id":"cebpf4jnsgd1na2vs0mg"},{"bike_id":"2f09c9be-359a-414b-9339-b6dbcd93427c","system_id":"levelo_inurba_marseille","lat":43.2959,"lon":5.38099,"is_reserved":false,"is_disabled":false,"rental_uris":{"android":"levelo://app?vid=2f09c9be-359a-414b-9339-b6dbcd93427c","ios":"levelo://app?vid=2f09c9be-359a-414b-9339-b6dbcd93427c"},"vehicle_type_id":"4","last_reported":1761044909,"current_range_meters":11200,"station_id":"ce4bgl12rcd13ifvqbo0","pricing_plan_id":"cebpf4jnsgd1na2vs0mg"},{"bike_id":"dcca4f8f-a171-4b23-957a-0314626b96f3","system_id":"levelo_inurba_marseille","lat":43.317133,"lon":5.437088,"is_reserved":false,"is_disabled":false,"rental_uris":{"android":"levelo://app?vid=dcca4f8f-a171-4b23-957a-0314626b96f3","ios":"levelo://app?vid=dcca4f8f-a171-4b23-957a-0314626b96f3"},"vehicle_type_id":"4","last_reported":1761044909,"current_range_meters":11600,"station_id":"","pricing_plan_id":"cebpf4jnsgd1na2vs0mg"},{"bike_id":"a27423e0-ceb0-4a8f-86e7-7b89077ab2b5","system_id":"levelo_inurba_marseille","lat":43.281628,"lon":5.361193,"is_reserved":false,"is_disabled":false,"rental_uris":{"android":"levelo://app?vid=a27423e0-ceb0-4a8f-86e7-7b89077ab2b5","ios":"levelo://app?vid=a27423e0-ceb0-4a8f-86e7-7b89077ab2b5"},"vehicle_type_id":"4","last_reported":1761044909,"current_range_meters":11600,"station_id":"","pricing_plan_id":"cebpf4jnsgd1na2vs0mg"},{"bike_id":"ed800a1b-44bf-4624-b05b-a4b562a830df","system_id":"levelo_inurba_marseille","lat":43.30493,"lon":5.37896,"is_reserved":false,"is_disabled":false,"rental_uris":{"android":"levelo://app?vid=ed800a1b-44bf-4624-b05b-a4b562a830df","ios":"levelo://app?vid=ed800a1b-44bf-4624-b05b-a4b562a830df"},"vehicle_type_id":"4","last_reported":1761044909,"current_range_meters":12000,"station_id":"ce4bgup2rcd13ifvqcn0","pricing_plan_id":"cebpf4jnsgd1na2vs0mg"},{"bike_id":"54ef8cde-34b9-4a2d-a306-06f4eccf4df2","system_id":"levelo_inurba_marseille","lat":43.23152,"lon":5.43709,"is_reserved":false,"is_disabled":false,"rental_uris":{"android":"levelo://app?vid=54ef8cde-34b9-4a2d-a306-06f4eccf4df2","ios":"levelo://app?vid=54ef8cde-34b9-4a2d-a306-06f4eccf4df2"},"vehicle_type_id":"4","last_reported":1761044909,"current_range_meters":12000,"station_id":"ce4bhmp2rcd13ifvqgog","pricing_plan_id":"cebpf4jnsgd1na2vs0mg"},{"bike_id":"b9b348dd-e0e5-4c78-aefd-6d0b86b7fad7","system_id":"levelo_inurba_marseille","lat":43.28482,"lon":5.38418,"is_reserved":false,"is_disabled":false,"rental_uris":{"android":"levelo://app?vid=b9b348dd-e0e5-4c78-aefd-6d0b86b7fad7","ios":"levelo://app?vid=b9b348dd-e0e5-4c78-aefd-6d0b86b7fad7"},"vehicle_type_id":"4","last_reported":1761044909,"current_range_meters":12000,"station_id":"ce4bh512rcd13ifvqe3g","pricing_plan_id":"cebpf4jnsgd1na2vs0mg"},{"bike_id":"c7cac083-b2cb-4e39-b13d-fc19fb6bd2a0","system_id":"levelo_inurba_marseille","lat":43.26058,"lon":5.39394,"is_reserved":false,"is_disabled":false,"rental_uris":{"android":"levelo://app?vid=c7cac083-b2cb-4e39-b13d-fc19fb6bd2a0","ios":"levelo://app?vid=c7cac083-b2cb-4e39-b13d-fc19fb6bd2a0"},"vehicle_type_id":"4","last_reported":1761044909,"current_range_meters":12000,"station_id":"ce4bhh92rcd13ifvqfj0","pricing_plan_id":"cebpf4jnsgd1na2vs0mg"},{"bike_id":"b63f4144-84f6-4ba1-b6df-f6ebabe9ef26","system_id":"levelo_inurba_marseille","lat":43.27919,"lon":5.40423,"is_reserved":false,"is_disabled":false,"rental_uris":{"android":"levelo://app?vid=b63f4144-84f6-4ba1-b6df-f6ebabe9ef26","ios":"levelo://app?vid=b63f4144-84f6-4ba1-b6df-f6ebabe9ef26"},"vehicle_type_id":"4","last_reported":1761044909,"current_range_meters":12000,"station_id":"","pricing_plan_id":"cebpf4jnsgd1na2vs0mg"},{"bike_id":"ecc71f2f-a8c8-48f2-a3d5-7917b274cd85","system_id":"levelo_inurba_marseille","lat":43.28274,"lon":5.39654,"is_reserved":false,"is_disabled":false,"rental_uris":{"android":"levelo://app?vid=ecc71f2f-a8c8-48f2-a3d5-7917b274cd85","ios":"levelo://app?vid=ecc71f2f-a8c8-48f2-a3d5-7917b274cd85"},"vehicle_type_id":"4","last_reported":1761044909,"current_range_meters":12400,"station_id":"","pricing_plan_id":"cebpf4jnsgd1na2vs0mg"},{"bike_id":"e1f4e2e7-e979-4bb5-8ac3-370c17ac4622","system_id":"levelo_inurba_marseille","lat":43.28872,"lon":5.42511,"is_reserved":false,"is_disabled":false,"rental_uris":{"android":"levelo://app?vid=e1f4e2e7-e979-4bb5-8ac3-370c17ac4622","ios":"levelo://app?vid=e1f4e2e7-e979-4bb5-8ac3-370c17ac4622"},"vehicle_type_id":"4","last_reported":1761044909,"current_range_meters":12400,"station_id":"st_d3b462108ojc7389ooeg","pricing_plan_id":"cebpf4jnsgd1na2vs0mg"},{"bike_id":"1c3a62d6-9dc5-4b1d-b145-ff75c0ccb3b4","system_id":"levelo_inurba_marseille","lat":43.2827,"lon":5.35058,"is_reserved":false,"is_disabled":false,"rental_uris":{"android":"levelo://app?vid=1c3a62d6-9dc5-4b1d-b145-ff75c0ccb3b4","ios":"levelo://app?vid=1c3a62d6-9dc5-4b1d-b145-ff75c0ccb3b4"},"vehicle_type_id":"4","last_reported":1761044909,"current_range_meters":12400,"station_id":"","pricing_plan_id":"cebpf4jnsgd1na2vs0mg"},{"bike_id":"bd07bb0a-7914-4975-b9b3-a3b2eaf40169","system_id":"levelo_inurba_marseille","lat":43.31747,"lon":5.37749,"is_reserved":false,"is_disabled":true,"rental_uris":{"android":"levelo://app?vid=bd07bb0a-7914-4975-b9b3-a3b2eaf40169","ios":"levelo://app?vid=bd07bb0a-7914-4975-b9b3-a3b2eaf40169"},"vehicle_type_id":"4","last_reported":1761044909,"current_range_meters":12400,"station_id":"ce4bgth2rcd13ifvqch0","pricing_plan_id":"cebpf4jnsgd1na2vs0mg"},{"bike_id":"d7050252-6a6b-4234-bc83-547a609e2ce0","system_id":"levelo_inurba_marseille","lat":43.30542,"lon":5.36693,"is_reserved":false,"is_disabled":false,"rental_uris":{"android":"levelo://app?vid=d7050252-6a6b-4234-bc83-547a609e2ce0","ios":"levelo://app?vid=d7050252-6a6b-4234-bc83-547a609e2ce0"},"vehicle_type_id":"4","last_reported":1761044909,"current_range_meters":12800,"station_id":"ce4bgrp2rcd13ifvqc9g","pricing_plan_id":"cebpf4jnsgd1na2vs0mg"},{"bike_id":"1c4668f5-3621-4bc2-b47c-7e628ece0ebb","system_id":"levelo_inurba_marseille","lat":43.325983,"lon":5.410402,"is_reserved":false,"is_disabled":false,"rental_uris":{"android":"levelo://app?vid=1c4668f5-3621-4bc2-b47c-7e628ece0ebb","ios":"levelo://app?vid=1c4668f5-3621-4bc2-b47c-7e628ece0ebb"},"vehicle_type_id":"4","last_reported":1761044909,"current_range_meters":12800,"station_id":"ce4bhpp2rcd13ifvqhgg","pricing_plan_id":"cebpf4jnsgd1na2vs0mg"},{"bike_id":"4f330819-fc8c-4fd5-98a0-15ff279681dd","system_id":"levelo_inurba_marseille","lat":43.31878,"lon":5.39989,"is_reserved":false,"is_disabled":false,"rental_uris":{"android":"levelo://app?vid=4f330819-fc8c-4fd5-98a0-15ff279681dd","ios":"levelo://app?vid=4f330819-fc8c-4fd5-98a0-15ff279681dd"},"vehicle_type_id":"4","last_reported":1761044909,"current_range_meters":13600,"station_id":"","pricing_plan_id":"cebpf4jnsgd1na2vs0mg"},{"bike_id":"7aadbf3f-064c-40bd-996c-5e70914e824f","system_id":"levelo_inurba_marseille","lat":43.29911,"lon":5.38155,"is_reserved":false,"is_disabled":false,"rental_uris":{"android":"levelo://app?vid=7aadbf3f-064c-40bd-996c-5e70914e824f","ios":"levelo://app?vid=7aadbf3f-064c-40bd-996c-5e70914e824f"},"vehicle_type_id":"4","last_reported":1761044909,"current_range_meters":13600,"station_id":"ce4bgj12rcd13ifvqbc0","pricing_plan_id":"cebpf4jnsgd1na2vs0mg"},{"bike_id":"fa344610-9bdf-47a1-9d9d-a659d006d2c1","system_id":"levelo_inurba_marseille","lat":43.27614,"lon":5.36104,"is_reserved":false,"is_disabled":false,"rental_uris":{"android":"levelo://app?vid=fa344610-9bdf-47a1-9d9d-a659d006d2c1","ios":"levelo://app?vid=fa344610-9bdf-47a1-9d9d-a659d006d2c1"},"vehicle_type_id":"4","last_reported":1761044909,"current_range_meters":13600,"station_id":"ce4bgj92rcd13ifvqbe0","pricing_plan_id":"cebpf4jnsgd1na2vs0mg"},{"bike_id":"e7611cfa-682f-4ccd-96c5-464cc6f40597","system_id":"levelo_inurba_marseille","lat":43.225683,"lon":5.416223,"is_reserved":false,"is_disabled":false,"rental_uris":{"android":"levelo://app?vid=e7611cfa-682f-4ccd-96c5-464cc6f40597","ios":"levelo://app?vid=e7611cfa-682f-4ccd-96c5-464cc6f40597"},"vehicle_type_id":"4","last_reported":1761044909,"current_range_meters":13600,"station_id":"st_d2o4gvlbi1j2169b742g","pricing_plan_id":"cebpf4jnsgd1na2vs0mg"},{"bike_id":"8fb692f4-0aed-49cc-8723-a59420d78bf1","system_id":"levelo_inurba_marseille","lat":43.250879,"lon":5.395207,"is_reserved":false,"is_disabled":false,"rental_uris":{"android":"levelo://app?vid=8fb692f4-0aed-49cc-8723-a59420d78bf1","ios":"levelo://app?vid=8fb692f4-0aed-49cc-8723-a59420d78bf1"},"vehicle_type_id":"4","last_reported":1761044909,"current_range_meters":14000,"station_id":"ce4bhm12rcd13ifvqgkg","pricing_plan_id":"cebpf4jnsgd1na2vs0mg"},{"bike_id":"c9c1af49-9e6d-4de6-adde-aea85d12b1bb","system_id":"levelo_inurba_marseille","lat":43.32584,"lon":5.42423,"is_reserved":false,"is_disabled":false,"rental_uris":{"android":"levelo://app?vid=c9c1af49-9e6d-4de6-adde-aea85d12b1bb","ios":"levelo://app?vid=c9c1af49-9e6d-4de6-adde-aea85d12b1bb"},"vehicle_type_id":"4","last_reported":1761044909,"current_range_meters":14000,"station_id":"","pricing_plan_id":"cebpf4jnsgd1na2vs0mg"},{"bike_id":"c6267114-b7ad-4e3a-86f8-d6ba7bb6b296","system_id":"levelo_inurba_marseille","lat":43.28485,"lon":5.38415,"is_reserved":false,"is_disabled":false,"rental_uris":{"android":"levelo://app?vid=c6267114-b7ad-4e3a-86f8-d6ba7bb6b296","ios":"levelo://app?vid=c6267114-b7ad-4e3a-86f8-d6ba7bb6b296"},"vehicle_type_id":"4","last_reported":1761044909,"current_range_meters":14000,"station_id":"ce4bh512rcd13ifvqe3g","pricing_plan_id":"cebpf4jnsgd1na2vs0mg"},{"bike_id":"26a47936-248a-4509-9172-73bff6c9fadc","system_id":"levelo_inurba_marseille","lat":43.309998,"lon":5.389321,"is_reserved":false,"is_disabled":false,"rental_uris":{"android":"levelo://app?vid=26a47936-248a-4509-9172-73bff6c9fadc","ios":"levelo://app?vid=26a47936-248a-4509-9172-73bff6c9fadc"},"vehicle_type_id":"4","last_reported":1761044909,"current_range_meters":14400,"station_id":"ce4bgup2rcd13ifvqco0","pricing_plan_id":"cebpf4jnsgd1na2vs0mg"},{"bike_id":"459f496b-2ef4-4949-8ebd-6d673caf94a7","system_id":"levelo_inurba_marseille","lat":43.30285,"lon":5.37689,"is_reserved":false,"is_disabled":false,"rental_uris":{"android":"levelo://app?vid=459f496b-2ef4-4949-8ebd-6d673caf94a7","ios":"levelo://app?vid=459f496b-2ef4-4949-8ebd-6d673caf94a7"},"vehicle_type_id":"4","last_reported":1761044909,"current_range_meters":14400,"station_id":"ce4bguh2rcd13ifvqcj0","pricing_plan_id":"cebpf4jnsgd1na2vs0mg"},{"bike_id":"732a94fd-9a75-4fe2-86b6-6f28d04237f2","system_id":"levelo_inurba_marseille","lat":43.30467,"lon":5.37899,"is_reserved":false,"is_disabled":false,"rental_uris":{"android":"levelo://app?vid=732a94fd-9a75-4fe2-86b6-6f28d04237f2","ios":"levelo://app?vid=732a94fd-9a75-4fe2-86b6-6f28d04237f2"},"vehicle_type_id":"4","last_reported":1761044909,"current_range_meters":14400,"station_id":"ce4bgup2rcd13ifvqcn0","pricing_plan_id":"cebpf4jnsgd1na2vs0mg"},{"bike_id":"d21d91e8-7a75-4548-82c3-1b3109a71ef6","system_id":"levelo_inurba_marseille","lat":43.331589,"lon":5.354938,"is_reserved":false,"is_disabled":false,"rental_uris":{"android":"levelo://app?vid=d21d91e8-7a75-4548-82c3-1b3109a71ef6","ios":"levelo://app?vid=d21d91e8-7a75-4548-82c3-1b3109a71ef6"},"vehicle_type_id":"4","last_reported":1761044909,"current_range_meters":14400,"station_id":"","pricing_plan_id":"cebpf4jnsgd1na2vs0mg"},{"bike_id":"f198dcad-4df6-446c-9460-48df50208239","system_id":"levelo_inurba_marseille","lat":43.267015,"lon":5.412105,"is_reserved":false,"is_disabled":false,"rental_uris":{"android":"levelo://app?vid=f198dcad-4df6-446c-9460-48df50208239","ios":"levelo://app?vid=f198dcad-4df6-446c-9460-48df50208239"},"vehicle_type_id":"4","last_reported":1761044909,"current_range_meters":14400,"station_id":"","pricing_plan_id":"cebpf4jnsgd1na2vs0mg"},{"bike_id":"9e505085-2fa5-4c1c-a1a7-d73026eb30ce","system_id":"levelo_inurba_marseille","lat":43.266793,"lon":5.382719,"is_reserved":false,"is_disabled":true,"rental_uris":{"android":"levelo://app?vid=9e505085-2fa5-4c1c-a1a7-d73026eb30ce","ios":"levelo://app?vid=9e505085-2fa5-4c1c-a1a7-d73026eb30ce"},"vehicle_type_id":"4","last_reported":1761044909,"current_range_meters":14400,"station_id":"","pricing_plan_id":"cebpf4jnsgd1na2vs0mg"},{"bike_id":"21a5301f-ee30-42cf-ab4f-66054e2d3ccf","system_id":"levelo_inurba_marseille","lat":43.28417,"lon":5.375019,"is_reserved":false,"is_disabled":false,"rental_uris":{"android":"levelo://app?vid=21a5301f-ee30-42cf-ab4f-66054e2d3ccf","ios":"levelo://app?vid=21a5301f-ee30-42cf-ab4f-66054e2d3ccf"},"vehicle_type_id":"4","last_reported":1761044909,"current_range_meters":14400,"station_id":"ce4bh412rcd13ifvqds0","pricing_plan_id":"cebpf4jnsgd1na2vs0mg"},{"bike_id":"0ae4ebed-cc48-4ab1-b712-be0b7d8124fd","system_id":"levelo_inurba_marseille","lat":43.29976,"lon":5.37179,"is_reserved":false,"is_disabled":false,"rental_uris":{"android":"levelo://app?vid=0ae4ebed-cc48-4ab1-b712-be0b7d8124fd","ios":"levelo://app?vid=0ae4ebed-cc48-4ab1-b712-be0b7d8124fd"},"vehicle_type_id":"4","last_reported":1761044909,"current_range_meters":14400,"station_id":"ce4bgr92rcd13ifvqc7g","pricing_plan_id":"cebpf4jnsgd1na2vs0mg"},{"bike_id":"26838629-f0c9-4995-aaff-d472e9845a0f","system_id":"levelo_inurba_marseille","lat":43.25111,"lon":5.40318,"is_reserved":false,"is_disabled":false,"rental_uris":{"android":"levelo://app?vid=26838629-f0c9-4995-aaff-d472e9845a0f","ios":"levelo://app?vid=26838629-f0c9-4995-aaff-d472e9845a0f"},"vehicle_type_id":"4","last_reported":1761044909,"current_range_meters":14800,"station_id":"ce4bhlh2rcd13ifvqgig","pricing_plan_id":"cebpf4jnsgd1na2vs0mg"},{"bike_id":"2cd89b69-083c-4d47-b2f1-f72c1fc9c5f9","system_id":"levelo_inurba_marseille","lat":43.28635,"lon":5.38424,"is_reserved":false,"is_disabled":false,"rental_uris":{"android":"levelo://app?vid=2cd89b69-083c-4d47-b2f1-f72c1fc9c5f9","ios":"levelo://app?vid=2cd89b69-083c-4d47-b2f1-f72c1fc9c5f9"},"vehicle_type_id":"4","last_reported":1761044909,"current_range_meters":14800,"station_id":"","pricing_plan_id":"cebpf4jnsgd1na2vs0mg"},{"bike_id":"73e8ee4e-b76c-40f4-90a6-daf84740fee6","system_id":"levelo_inurba_marseille","lat":43.33603,"lon":5.41029,"is_reserved":false,"is_disabled":false,"rental_uris":{"android":"levelo://app?vid=73e8ee4e-b76c-40f4-90a6-daf84740fee6","ios":"levelo://app?vid=73e8ee4e-b76c-40f4-90a6-daf84740fee6"},"vehicle_type_id":"4","last_reported":1761044909,"current_range_meters":14800,"station_id":"ce4bhqh2rcd13ifvqhmg","pricing_plan_id":"cebpf4jnsgd1na2vs0mg"},{"bike_id":"0902f8f5-2693-425a-bff3-5d901bf02c48","system_id":"levelo_inurba_marseille","lat":43.23966,"lon":5.36631,"is_reserved":false,"is_disabled":false,"rental_uris":{"android":"levelo://app?vid=0902f8f5-2693-425a-bff3-5d901bf02c48","ios":"levelo://app?vid=0902f8f5-2693-425a-bff3-5d901bf02c48"},"vehicle_type_id":"4","last_reported":1761044909,"current_range_meters":15200,"station_id":"ce4bhi12rcd13ifvqfp0","pricing_plan_id":"cebpf4jnsgd1na2vs0mg"},{"bike_id":"f23a929f-0d50-46b2-815d-05dd6996cd28","system_id":"levelo_inurba_marseille","lat":43.231954,"lon":5.35553,"is_reserved":false,"is_disabled":false,"rental_uris":{"android":"levelo://app?vid=f23a929f-0d50-46b2-815d-05dd6996cd28","ios":"levelo://app?vid=f23a929f-0d50-46b2-815d-05dd6996cd28"},"vehicle_type_id":"4","last_reported":1761044909,"current_range_meters":15200,"station_id":"ce4bhu92rcd13ifvqi70","pricing_plan_id":"cebpf4jnsgd1na2vs0mg"},{"bike_id":"ab4c3e47-eb7a-4853-b72b-7ca618c635e2","system_id":"levelo_inurba_marseille","lat":43.304674,"lon":5.379058,"is_reserved":false,"is_disabled":false,"rental_uris":{"android":"levelo://app?vid=ab4c3e47-eb7a-4853-b72b-7ca618c635e2","ios":"levelo://app?vid=ab4c3e47-eb7a-4853-b72b-7ca618c635e2"},"vehicle_type_id":"4","last_reported":1761044909,"current_range_meters":15200,"station_id":"ce4bgup2rcd13ifvqcn0","pricing_plan_id":"cebpf4jnsgd1na2vs0mg"},{"bike_id":"2980c37f-0c50-4d06-a495-cf8712eceb4e","system_id":"levelo_inurba_marseille","lat":43.28457,"lon":5.3588,"is_reserved":false,"is_disabled":false,"rental_uris":{"android":"levelo://app?vid=2980c37f-0c50-4d06-a495-cf8712eceb4e","ios":"levelo://app?vid=2980c37f-0c50-4d06-a495-cf8712eceb4e"},"vehicle_type_id":"4","last_reported":1761044909,"current_range_meters":15200,"station_id":"ce4bhah2rcd13ifvqei0","pricing_plan_id":"cebpf4jnsgd1na2vs0mg"},{"bike_id":"7ecf3e6a-97e9-45bc-8a81-0bd20e6f923a","system_id":"levelo_inurba_marseille","lat":43.28663,"lon":5.38672,"is_reserved":false,"is_disabled":false,"rental_uris":{"android":"levelo://app?vid=7ecf3e6a-97e9-45bc-8a81-0bd20e6f923a","ios":"levelo://app?vid=7ecf3e6a-97e9-45bc-8a81-0bd20e6f923a"},"vehicle_type_id":"4","last_reported":1761044909,"current_range_meters":15200,"station_id":"ce4bh492rcd13ifvqdug","pricing_plan_id":"cebpf4jnsgd1na2vs0mg"},{"bike_id":"368e3598-2745-4b18-a327-84ebda87f63b","system_id":"levelo_inurba_marseille","lat":43.28482,"lon":5.38558,"is_reserved":false,"is_disabled":false,"rental_uris":{"android":"levelo://app?vid=368e3598-2745-4b18-a327-84ebda87f63b","ios":"levelo://app?vid=368e3598-2745-4b18-a327-84ebda87f63b"},"vehicle_type_id":"4","last_reported":1761044909,"current_range_meters":15200,"station_id":"ce4bh8p2rcd13ifvqeb0","pricing_plan_id":"cebpf4jnsgd1na2vs0mg"},{"bike_id":"91ab1363-742f-48b4-afbf-c5038ebf28ea","system_id":"levelo_inurba_marseille","lat":43.280951,"lon":5.377941,"is_reserved":false,"is_disabled":false,"rental_uris":{"android":"levelo://app?vid=91ab1363-742f-48b4-afbf-c5038ebf28ea","ios":"levelo://app?vid=91ab1363-742f-48b4-afbf-c5038ebf28ea"},"vehicle_type_id":"4","last_reported":1761044909,"current_range_meters":16000,"station_id":"ce4bha12rcd13ifvqee0","pricing_plan_id":"cebpf4jnsgd1na2vs0mg"},{"bike_id":"59dce20d-0ecc-40df-acdd-c5a0ddd90bbb","system_id":"levelo_inurba_marseille","lat":43.24173,"lon":5.39717,"is_reserved":false,"is_disabled":false,"rental_uris":{"android":"levelo://app?vid=59dce20d-0ecc-40df-acdd-c5a0ddd90bbb","ios":"levelo://app?vid=59dce20d-0ecc-40df-acdd-c5a0ddd90bbb"},"vehicle_type_id":"4","last_reported":1761044909,"current_range_meters":16000,"station_id":"ce4bhn12rcd13ifvqgpg","pricing_plan_id":"cebpf4jnsgd1na2vs0mg"},{"bike_id":"ceedc452-f436-4994-ac01-c6c43898b914","system_id":"levelo_inurba_marseille","lat":43.33796,"lon":5.37434,"is_reserved":false,"is_disabled":false,"rental_uris":{"android":"levelo://app?vid=ceedc452-f436-4994-ac01-c6c43898b914","ios":"levelo://app?vid=ceedc452-f436-4994-ac01-c6c43898b914"},"vehicle_type_id":"4","last_reported":1761044909,"current_range_meters":16000,"station_id":"","pricing_plan_id":"cebpf4jnsgd1na2vs0mg"},{"bike_id":"5c6534e2-36c2-4023-b35d-6364fb858aa9","system_id":"levelo_inurba_marseille","lat":43.29331,"lon":5.3707,"is_reserved":false,"is_disabled":false,"rental_uris":{"android":"levelo://app?vid=5c6534e2-36c2-4023-b35d-6364fb858aa9","ios":"levelo://app?vid=5c6534e2-36c2-4023-b35d-6364fb858aa9"},"vehicle_type_id":"4","last_reported":1761044909,"current_range_meters":16000,"station_id":"","pricing_plan_id":"cebpf4jnsgd1na2vs0mg"},{"bike_id":"68d2630f-e595-4a49-9e7a-858f6fe396a3","system_id":"levelo_inurba_marseille","lat":43.27422,"lon":5.3941,"is_reserved":false,"is_disabled":false,"rental_uris":{"android":"levelo://app?vid=68d2630f-e595-4a49-9e7a-858f6fe396a3","ios":"levelo://app?vid=68d2630f-e595-4a49-9e7a-858f6fe396a3"},"vehicle_type_id":"4","last_reported":1761044909,"current_range_meters":16400,"station_id":"ce4bhdp2rcd13ifvqf20","pricing_plan_id":"cebpf4jnsgd1na2vs0mg"},{"bike_id":"0c3222a0-92ae-4194-9b4c-890d5c011385","system_id":"levelo_inurba_marseille","lat":43.2884,"lon":5.3933,"is_reserved":false,"is_disabled":false,"rental_uris":{"android":"levelo://app?vid=0c3222a0-92ae-4194-9b4c-890d5c011385","ios":"levelo://app?vid=0c3222a0-92ae-4194-9b4c-890d5c011385"},"vehicle_type_id":"4","last_reported":1761044909,"current_range_meters":16400,"station_id":"ce4bh2p2rcd13ifvqdi0","pricing_plan_id":"cebpf4jnsgd1na2vs0mg"},{"bike_id":"cfb1e390-4cb8-4f2c-b24d-487adb565259","system_id":"levelo_inurba_marseille","lat":43.31903,"lon":5.40747,"is_reserved":false,"is_disabled":true,"rental_uris":{"android":"levelo://app?vid=cfb1e390-4cb8-4f2c-b24d-487adb565259","ios":"levelo://app?vid=cfb1e390-4cb8-4f2c-b24d-487adb565259"},"vehicle_type_id":"4","last_reported":1761044909,"current_range_meters":16400,"station_id":"ce4bhq12rcd13ifvqhig","pricing_plan_id":"cebpf4jnsgd1na2vs0mg"},{"bike_id":"8cfdc42a-d2ca-4e9b-8d86-08af829be997","system_id":"levelo_inurba_marseille","lat":43.23971,"lon":5.36611,"is_reserved":false,"is_disabled":false,"rental_uris":{"android":"levelo://app?vid=8cfdc42a-d2ca-4e9b-8d86-08af829be997","ios":"levelo://app?vid=8cfdc42a-d2ca-4e9b-8d86-08af829be997"},"vehicle_type_id":"4","last_reported":1761044909,"current_range_meters":16400,"station_id":"ce4bhi12rcd13ifvqfp0","pricing_plan_id":"cebpf4jnsgd1na2vs0mg"},{"bike_id":"a91134a2-bad0-4795-8b88-a1ce56ea1eb3","system_id":"levelo_inurba_marseille","lat":43.297076,"lon":5.376896,"is_reserved":false,"is_disabled":false,"rental_uris":{"android":"levelo://app?vid=a91134a2-bad0-4795-8b88-a1ce56ea1eb3","ios":"levelo://app?vid=a91134a2-bad0-4795-8b88-a1ce56ea1eb3"},"vehicle_type_id":"4","last_reported":1761044909,"current_range_meters":16400,"station_id":"ce4bgkh2rcd13ifvqbl0","pricing_plan_id":"cebpf4jnsgd1na2vs0mg"},{"bike_id":"aea358a0-5db9-4b01-8d18-b5bed1b18eeb","system_id":"levelo_inurba_marseille","lat":43.21194,"lon":5.35071,"is_reserved":false,"is_disabled":false,"rental_uris":{"android":"levelo://app?vid=aea358a0-5db9-4b01-8d18-b5bed1b18eeb","ios":"levelo://app?vid=aea358a0-5db9-4b01-8d18-b5bed1b18eeb"},"vehicle_type_id":"4","last_reported":1761044909,"current_range_meters":16800,"station_id":"st_cvj6sg6p6f1abm77japg","pricing_plan_id":"cebpf4jnsgd1na2vs0mg"},{"bike_id":"6a48157a-656e-4cdd-821b-12b3ed021457","system_id":"levelo_inurba_marseille","lat":43.31713,"lon":5.437087,"is_reserved":false,"is_disabled":false,"rental_uris":{"android":"levelo://app?vid=6a48157a-656e-4cdd-821b-12b3ed021457","ios":"levelo://app?vid=6a48157a-656e-4cdd-821b-12b3ed021457"},"vehicle_type_id":"4","last_reported":1761044909,"current_range_meters":16800,"station_id":"ce4bhp92rcd13ifvqhcg","pricing_plan_id":"cebpf4jnsgd1na2vs0mg"},{"bike_id":"cd6340a7-924f-4485-a4ee-84ec84bd352a","system_id":"levelo_inurba_marseille","lat":43.3172,"lon":5.42397,"is_reserved":false,"is_disabled":false,"rental_uris":{"android":"levelo://app?vid=cd6340a7-924f-4485-a4ee-84ec84bd352a","ios":"levelo://app?vid=cd6340a7-924f-4485-a4ee-84ec84bd352a"},"vehicle_type_id":"4","last_reported":1761044909,"current_range_meters":16800,"station_id":"ce4bhp92rcd13ifvqhbg","pricing_plan_id":"cebpf4jnsgd1na2vs0mg"},{"bike_id":"ef0e6b81-1ad3-45eb-9c06-6249f69971f5","system_id":"levelo_inurba_marseille","lat":43.31232,"lon":5.36877,"is_reserved":false,"is_disabled":false,"rental_uris":{"android":"levelo://app?vid=ef0e6b81-1ad3-45eb-9c06-6249f69971f5","ios":"levelo://app?vid=ef0e6b81-1ad3-45eb-9c06-6249f69971f5"},"vehicle_type_id":"4","last_reported":1761044909,"current_range_meters":16800,"station_id":"","pricing_plan_id":"cebpf4jnsgd1na2vs0mg"},{"bike_id":"6ef6dcaa-161f-458a-a83d-f30ba346b451","system_id":"levelo_inurba_marseille","lat":43.273828,"lon":5.362484,"is_reserved":false,"is_disabled":true,"rental_uris":{"android":"levelo://app?vid=6ef6dcaa-161f-458a-a83d-f30ba346b451","ios":"levelo://app?vid=6ef6dcaa-161f-458a-a83d-f30ba346b451"},"vehicle_type_id":"4","last_reported":1761044909,"current_range_meters":16800,"station_id":"ce4bhbh2rcd13ifvqeo0","pricing_plan_id":"cebpf4jnsgd1na2vs0mg"},{"bike_id":"eadc19f4-3a47-4e33-b621-4187ff333a3f","system_id":"levelo_inurba_marseille","lat":43.26785,"lon":5.3941,"is_reserved":false,"is_disabled":false,"rental_uris":{"android":"levelo://app?vid=eadc19f4-3a47-4e33-b621-4187ff333a3f","ios":"levelo://app?vid=eadc19f4-3a47-4e33-b621-4187ff333a3f"},"vehicle_type_id":"4","last_reported":1761044909,"current_range_meters":16800,"station_id":"ce4bhh12rcd13ifvqfg0","pricing_plan_id":"cebpf4jnsgd1na2vs0mg"},{"bike_id":"a1b7f577-4460-4025-8363-1a4402fa8eaa","system_id":"levelo_inurba_marseille","lat":43.27848,"lon":5.39224,"is_reserved":false,"is_disabled":false,"rental_uris":{"android":"levelo://app?vid=a1b7f577-4460-4025-8363-1a4402fa8eaa","ios":"levelo://app?vid=a1b7f577-4460-4025-8363-1a4402fa8eaa"},"vehicle_type_id":"4","last_reported":1761044909,"current_range_meters":16800,"station_id":"","pricing_plan_id":"cebpf4jnsgd1na2vs0mg"},{"bike_id":"d5a75342-8a93-4fc3-8db3-1cb312ec3266","system_id":"levelo_inurba_marseille","lat":43.2989,"lon":5.43667,"is_reserved":false,"is_disabled":false,"rental_uris":{"android":"levelo://app?vid=d5a75342-8a93-4fc3-8db3-1cb312ec3266","ios":"levelo://app?vid=d5a75342-8a93-4fc3-8db3-1cb312ec3266"},"vehicle_type_id":"4","last_reported":1761044909,"current_range_meters":16800,"station_id":"ce4bhpp2rcd13ifvqhfg","pricing_plan_id":"cebpf4jnsgd1na2vs0mg"},{"bike_id":"ad8509f5-f2bc-4fee-9f66-3e0134fc5ab6","system_id":"levelo_inurba_marseille","lat":43.27175,"lon":5.40994,"is_reserved":false,"is_disabled":false,"rental_uris":{"android":"levelo://app?vid=ad8509f5-f2bc-4fee-9f66-3e0134fc5ab6","ios":"levelo://app?vid=ad8509f5-f2bc-4fee-9f66-3e0134fc5ab6"},"vehicle_type_id":"4","last_reported":1761044909,"current_range_meters":17200,"station_id":"ce4bhl12rcd13ifvqgf0","pricing_plan_id":"cebpf4jnsgd1na2vs0mg"},{"bike_id":"f2758204-0fe9-4596-b0e1-17fa6724a851","system_id":"levelo_inurba_marseille","lat":43.25106,"lon":5.40321,"is_reserved":false,"is_disabled":false,"rental_uris":{"android":"levelo://app?vid=f2758204-0fe9-4596-b0e1-17fa6724a851","ios":"levelo://app?vid=f2758204-0fe9-4596-b0e1-17fa6724a851"},"vehicle_type_id":"4","last_reported":1761044909,"current_range_meters":17200,"station_id":"ce4bhlh2rcd13ifvqgig","pricing_plan_id":"cebpf4jnsgd1na2vs0mg"},{"bike_id":"db52cc97-4726-4558-94fa-5f7260c2de8b","system_id":"levelo_inurba_marseille","lat":43.241664,"lon":5.363947,"is_reserved":false,"is_disabled":false,"rental_uris":{"android":"levelo://app?vid=db52cc97-4726-4558-94fa-5f7260c2de8b","ios":"levelo://app?vid=db52cc97-4726-4558-94fa-5f7260c2de8b"},"vehicle_type_id":"4","last_reported":1761044909,"current_range_meters":17200,"station_id":"cpo36qri1sfpv3e86is0","pricing_plan_id":"cebpf4jnsgd1na2vs0mg"},{"bike_id":"c6e19019-8dd7-4e6a-a5b6-efd8e7b9674a","system_id":"levelo_inurba_marseille","lat":43.27184,"lon":5.40978,"is_reserved":false,"is_disabled":false,"rental_uris":{"android":"levelo://app?vid=c6e19019-8dd7-4e6a-a5b6-efd8e7b9674a","ios":"levelo://app?vid=c6e19019-8dd7-4e6a-a5b6-efd8e7b9674a"},"vehicle_type_id":"4","last_reported":1761044909,"current_range_meters":17200,"station_id":"ce4bhl12rcd13ifvqgf0","pricing_plan_id":"cebpf4jnsgd1na2vs0mg"},{"bike_id":"ab4d8caa-343d-44e8-a035-8c31f8227a02","system_id":"levelo_inurba_marseille","lat":43.25339,"lon":5.42168,"is_reserved":false,"is_disabled":false,"rental_uris":{"android":"levelo://app?vid=ab4d8caa-343d-44e8-a035-8c31f8227a02","ios":"levelo://app?vid=ab4d8caa-343d-44e8-a035-8c31f8227a02"},"vehicle_type_id":"4","last_reported":1761044909,"current_range_meters":17200,"station_id":"st_d2m65c5bi1j21697t3ng","pricing_plan_id":"cebpf4jnsgd1na2vs0mg"},{"bike_id":"bff713a1-e537-4069-bcc7-cf2ee2738aec","system_id":"levelo_inurba_marseille","lat":43.28221,"lon":5.39044,"is_reserved":false,"is_disabled":false,"rental_uris":{"android":"levelo://app?vid=bff713a1-e537-4069-bcc7-cf2ee2738aec","ios":"levelo://app?vid=bff713a1-e537-4069-bcc7-cf2ee2738aec"},"vehicle_type_id":"4","last_reported":1761044909,"current_range_meters":17200,"station_id":"ce4bhn92rcd13ifvqgsg","pricing_plan_id":"cebpf4jnsgd1na2vs0mg"},{"bike_id":"a4e3e49f-7ab9-4629-8426-dce2cf52bed1","system_id":"levelo_inurba_marseille","lat":43.29093,"lon":5.38158,"is_reserved":false,"is_disabled":false,"rental_uris":{"android":"levelo://app?vid=a4e3e49f-7ab9-4629-8426-dce2cf52bed1","ios":"levelo://app?vid=a4e3e49f-7ab9-4629-8426-dce2cf52bed1"},"vehicle_type_id":"4","last_reported":1761044909,"current_range_meters":17200,"station_id":"ce4bh512rcd13ifvqe2g","pricing_plan_id":"cebpf4jnsgd1na2vs0mg"},{"bike_id":"aa16d245-4dac-4338-a4e4-1ab7567cab0a","system_id":"levelo_inurba_marseille","lat":43.2513,"lon":5.39458,"is_reserved":false,"is_disabled":false,"rental_uris":{"android":"levelo://app?vid=aa16d245-4dac-4338-a4e4-1ab7567cab0a","ios":"levelo://app?vid=aa16d245-4dac-4338-a4e4-1ab7567cab0a"},"vehicle_type_id":"4","last_reported":1761044909,"current_range_meters":17600,"station_id":"ce4bhm12rcd13ifvqgkg","pricing_plan_id":"cebpf4jnsgd1na2vs0mg"},{"bike_id":"2a8b393e-daf3-4e1b-8bfb-bf3aabb3362e","system_id":"levelo_inurba_marseille","lat":43.250056,"lon":5.389466,"is_reserved":false,"is_disabled":false,"rental_uris":{"android":"levelo://app?vid=2a8b393e-daf3-4e1b-8bfb-bf3aabb3362e","ios":"levelo://app?vid=2a8b393e-daf3-4e1b-8bfb-bf3aabb3362e"},"vehicle_type_id":"4","last_reported":1761044909,"current_range_meters":17600,"station_id":"ce4bhgp2rcd13ifvqfd0","pricing_plan_id":"cebpf4jnsgd1na2vs0mg"},{"bike_id":"001b0591-372d-4d84-b8aa-99b4a2886ce6","system_id":"levelo_inurba_marseille","lat":43.27671,"lon":5.38889,"is_reserved":false,"is_disabled":false,"rental_uris":{"android":"levelo://app?vid=001b0591-372d-4d84-b8aa-99b4a2886ce6","ios":"levelo://app?vid=001b0591-372d-4d84-b8aa-99b4a2886ce6"},"vehicle_type_id":"4","last_reported":1761044909,"current_range_meters":17600,"station_id":"ce4bhi12rcd13ifvqfo0","pricing_plan_id":"cebpf4jnsgd1na2vs0mg"},{"bike_id":"517fc2b5-9b1c-4fc1-b999-6c6617f97056","system_id":"levelo_inurba_marseille","lat":43.275724,"lon":5.384105,"is_reserved":false,"is_disabled":false,"rental_uris":{"android":"levelo://app?vid=517fc2b5-9b1c-4fc1-b999-6c6617f97056","ios":"levelo://app?vid=517fc2b5-9b1c-4fc1-b999-6c6617f97056"},"vehicle_type_id":"4","last_reported":1761044909,"current_range_meters":17600,"station_id":"ce4bhh92rcd13ifvqfi0","pricing_plan_id":"cebpf4jnsgd1na2vs0mg"},{"bike_id":"61e6a863-0066-4de8-ae54-8c929ce53728","system_id":"levelo_inurba_marseille","lat":43.280642,"lon":5.352788,"is_reserved":false,"is_disabled":false,"rental_uris":{"android":"levelo://app?vid=61e6a863-0066-4de8-ae54-8c929ce53728","ios":"levelo://app?vid=61e6a863-0066-4de8-ae54-8c929ce53728"},"vehicle_type_id":"4","last_reported":1761044909,"current_range_meters":17600,"station_id":"","pricing_plan_id":"cebpf4jnsgd1na2vs0mg"},{"bike_id":"5cfa14d3-4145-4361-820f-2a5e3cc48054","system_id":"levelo_inurba_marseille","lat":43.23137,"lon":5.43695,"is_reserved":false,"is_disabled":true,"rental_uris":{"android":"levelo://app?vid=5cfa14d3-4145-4361-820f-2a5e3cc48054","ios":"levelo://app?vid=5cfa14d3-4145-4361-820f-2a5e3cc48054"},"vehicle_type_id":"4","last_reported":1761044909,"current_range_meters":17600,"station_id":"ce4bhmp2rcd13ifvqgog","pricing_plan_id":"cebpf4jnsgd1na2vs0mg"},{"bike_id":"4e966834-7ec7-4494-bd46-79436902c148","system_id":"levelo_inurba_marseille","lat":43.27993,"lon":5.41642,"is_reserved":false,"is_disabled":false,"rental_uris":{"android":"levelo://app?vid=4e966834-7ec7-4494-bd46-79436902c148","ios":"levelo://app?vid=4e966834-7ec7-4494-bd46-79436902c148"},"vehicle_type_id":"4","last_reported":1761044909,"current_range_meters":17600,"station_id":"ce4bho12rcd13ifvqh1g","pricing_plan_id":"cebpf4jnsgd1na2vs0mg"},{"bike_id":"f1b8e04f-457e-461e-a0a7-0d512845fe50","system_id":"levelo_inurba_marseille","lat":43.34076,"lon":5.40411,"is_reserved":false,"is_disabled":false,"rental_uris":{"android":"levelo://app?vid=f1b8e04f-457e-461e-a0a7-0d512845fe50","ios":"levelo://app?vid=f1b8e04f-457e-461e-a0a7-0d512845fe50"},"vehicle_type_id":"4","last_reported":1761044909,"current_range_meters":17600,"station_id":"","pricing_plan_id":"cebpf4jnsgd1na2vs0mg"},{"bike_id":"19d161e8-bdb1-48d8-88ff-07693965b158","system_id":"levelo_inurba_marseille","lat":43.31337,"lon":5.39693,"is_reserved":false,"is_disabled":true,"rental_uris":{"android":"levelo://app?vid=19d161e8-bdb1-48d8-88ff-07693965b158","ios":"levelo://app?vid=19d161e8-bdb1-48d8-88ff-07693965b158"},"vehicle_type_id":"4","last_reported":1761044909,"current_range_meters":18000,"station_id":"ce4bgvp2rcd13ifvqcu0","pricing_plan_id":"cebpf4jnsgd1na2vs0mg"},{"bike_id":"acbe5461-0450-4a22-b629-91a1895d2bdc","system_id":"levelo_inurba_marseille","lat":43.31765,"lon":5.3901,"is_reserved":false,"is_disabled":false,"rental_uris":{"android":"levelo://app?vid=acbe5461-0450-4a22-b629-91a1895d2bdc","ios":"levelo://app?vid=acbe5461-0450-4a22-b629-91a1895d2bdc"},"vehicle_type_id":"4","last_reported":1761044909,"current_range_meters":18000,"station_id":"ce4bhqp2rcd13ifvqhng","pricing_plan_id":"cebpf4jnsgd1na2vs0mg"},{"bike_id":"d4420bba-5508-4d29-85ac-a3a7dd19c766","system_id":"levelo_inurba_marseille","lat":43.322954,"lon":5.369123,"is_reserved":false,"is_disabled":false,"rental_uris":{"android":"levelo://app?vid=d4420bba-5508-4d29-85ac-a3a7dd19c766","ios":"levelo://app?vid=d4420bba-5508-4d29-85ac-a3a7dd19c766"},"vehicle_type_id":"4","last_reported":1761044909,"current_range_meters":18000,"station_id":"","pricing_plan_id":"cebpf4jnsgd1na2vs0mg"},{"bike_id":"ab806a52-c594-4887-9a52-0b69665ea08b","system_id":"levelo_inurba_marseille","lat":43.27947,"lon":5.4105,"is_reserved":false,"is_disabled":false,"rental_uris":{"android":"levelo://app?vid=ab806a52-c594-4887-9a52-0b69665ea08b","ios":"levelo://app?vid=ab806a52-c594-4887-9a52-0b69665ea08b"},"vehicle_type_id":"4","last_reported":1761044909,"current_range_meters":18000,"station_id":"ce4bhnp2rcd13ifvqh0g","pricing_plan_id":"cebpf4jnsgd1na2vs0mg"},{"bike_id":"5ed48d4f-acc1-4553-a38a-090ab8945c4b","system_id":"levelo_inurba_marseille","lat":43.23122,"lon":5.43705,"is_reserved":false,"is_disabled":false,"rental_uris":{"android":"levelo://app?vid=5ed48d4f-acc1-4553-a38a-090ab8945c4b","ios":"levelo://app?vid=5ed48d4f-acc1-4553-a38a-090ab8945c4b"},"vehicle_type_id":"4","last_reported":1761044909,"current_range_meters":18800,"station_id":"ce4bhmp2rcd13ifvqgog","pricing_plan_id":"cebpf4jnsgd1na2vs0mg"},{"bike_id":"c71062df-2e0b-4447-9245-37625669e5c2","system_id":"levelo_inurba_marseille","lat":43.2931,"lon":5.40295,"is_reserved":false,"is_disabled":false,"rental_uris":{"android":"levelo://app?vid=c71062df-2e0b-4447-9245-37625669e5c2","ios":"levelo://app?vid=c71062df-2e0b-4447-9245-37625669e5c2"},"vehicle_type_id":"4","last_reported":1761044909,"current_range_meters":18800,"station_id":"","pricing_plan_id":"cebpf4jnsgd1na2vs0mg"},{"bike_id":"01dce118-88d2-410d-8f75-eeca3c181531","system_id":"levelo_inurba_marseille","lat":43.25936,"lon":5.40895,"is_reserved":false,"is_disabled":false,"rental_uris":{"android":"levelo://app?vid=01dce118-88d2-410d-8f75-eeca3c181531","ios":"levelo://app?vid=01dce118-88d2-410d-8f75-eeca3c181531"},"vehicle_type_id":"4","last_reported":1761044909,"current_range_meters":18800,"station_id":"ce4bhm92rcd13ifvqglg","pricing_plan_id":"cebpf4jnsgd1na2vs0mg"},{"bike_id":"ab5c512b-e6b4-4004-8703-635b12bbe448","system_id":"levelo_inurba_marseille","lat":43.28218,"lon":5.39011,"is_reserved":false,"is_disabled":false,"rental_uris":{"android":"levelo://app?vid=ab5c512b-e6b4-4004-8703-635b12bbe448","ios":"levelo://app?vid=ab5c512b-e6b4-4004-8703-635b12bbe448"},"vehicle_type_id":"4","last_reported":1761044909,"current_range_meters":18800,"station_id":"","pricing_plan_id":"cebpf4jnsgd1na2vs0mg"},{"bike_id":"724eb471-361c-4a0d-8b48-9ec833f949bc","system_id":"levelo_inurba_marseille","lat":43.28939,"lon":5.36628,"is_reserved":false,"is_disabled":true,"rental_uris":{"android":"levelo://app?vid=724eb471-361c-4a0d-8b48-9ec833f949bc","ios":"levelo://app?vid=724eb471-361c-4a0d-8b48-9ec833f949bc"},"vehicle_type_id":"4","last_reported":1761044909,"current_range_meters":18800,"station_id":"ce4bhap2rcd13ifvqek0","pricing_plan_id":"cebpf4jnsgd1na2vs0mg"},{"bike_id":"597316d9-5571-4897-913f-94a5515c73f4","system_id":"levelo_inurba_marseille","lat":43.31776,"lon":5.39887,"is_reserved":false,"is_disabled":false,"rental_uris":{"android":"levelo://app?vid=597316d9-5571-4897-913f-94a5515c73f4","ios":"levelo://app?vid=597316d9-5571-4897-913f-94a5515c73f4"},"vehicle_type_id":"4","last_reported":1761044909,"current_range_meters":19200,"station_id":"","pricing_plan_id":"cebpf4jnsgd1na2vs0mg"},{"bike_id":"0de5f5a1-6fda-40ee-aebb-432449440b54","system_id":"levelo_inurba_marseille","lat":43.26566,"lon":5.37296,"is_reserved":false,"is_disabled":false,"rental_uris":{"android":"levelo://app?vid=0de5f5a1-6fda-40ee-aebb-432449440b54","ios":"levelo://app?vid=0de5f5a1-6fda-40ee-aebb-432449440b54"},"vehicle_type_id":"4","last_reported":1761044909,"current_range_meters":19200,"station_id":"ce4bhg12rcd13ifvqf70","pricing_plan_id":"cebpf4jnsgd1na2vs0mg"},{"bike_id":"08c1d8a9-7cc9-4227-936a-f31013c8bbe0","system_id":"levelo_inurba_marseille","lat":43.284718,"lon":5.384204,"is_reserved":false,"is_disabled":false,"rental_uris":{"android":"levelo://app?vid=08c1d8a9-7cc9-4227-936a-f31013c8bbe0","ios":"levelo://app?vid=08c1d8a9-7cc9-4227-936a-f31013c8bbe0"},"vehicle_type_id":"4","last_reported":1761044909,"current_range_meters":19200,"station_id":"ce4bh512rcd13ifvqe3g","pricing_plan_id":"cebpf4jnsgd1na2vs0mg"},{"bike_id":"72ea218e-3d43-479e-82ad-351ede9d549d","system_id":"levelo_inurba_marseille","lat":43.28938,"lon":5.39623,"is_reserved":false,"is_disabled":false,"rental_uris":{"android":"levelo://app?vid=72ea218e-3d43-479e-82ad-351ede9d549d","ios":"levelo://app?vid=72ea218e-3d43-479e-82ad-351ede9d549d"},"vehicle_type_id":"4","last_reported":1761044909,"current_range_meters":19200,"station_id":"ce4bh3h2rcd13ifvqdn0","pricing_plan_id":"cebpf4jnsgd1na2vs0mg"},{"bike_id":"4c14e694-67cf-4925-9ef2-399f92a5fcb2","system_id":"levelo_inurba_marseille","lat":43.25105,"lon":5.39512,"is_reserved":false,"is_disabled":false,"rental_uris":{"android":"levelo://app?vid=4c14e694-67cf-4925-9ef2-399f92a5fcb2","ios":"levelo://app?vid=4c14e694-67cf-4925-9ef2-399f92a5fcb2"},"vehicle_type_id":"4","last_reported":1761044909,"current_range_meters":19200,"station_id":"ce4bhm12rcd13ifvqgkg","pricing_plan_id":"cebpf4jnsgd1na2vs0mg"},{"bike_id":"928b8f9c-99bc-4191-a0ba-008ea7472554","system_id":"levelo_inurba_marseille","lat":43.25865,"lon":5.399,"is_reserved":false,"is_disabled":false,"rental_uris":{"android":"levelo://app?vid=928b8f9c-99bc-4191-a0ba-008ea7472554","ios":"levelo://app?vid=928b8f9c-99bc-4191-a0ba-008ea7472554"},"vehicle_type_id":"4","last_reported":1761044909,"current_range_meters":19600,"station_id":"ce4bhl92rcd13ifvqghg","pricing_plan_id":"cebpf4jnsgd1na2vs0mg"},{"bike_id":"2a9fa546-5bd0-4b60-abb9-aa5fbdec05e6","system_id":"levelo_inurba_marseille","lat":43.28156,"lon":5.42638,"is_reserved":false,"is_disabled":false,"rental_uris":{"android":"levelo://app?vid=2a9fa546-5bd0-4b60-abb9-aa5fbdec05e6","ios":"levelo://app?vid=2a9fa546-5bd0-4b60-abb9-aa5fbdec05e6"},"vehicle_type_id":"4","last_reported":1761044909,"current_range_meters":19600,"station_id":"ce4bhnh2rcd13ifvqgug","pricing_plan_id":"cebpf4jnsgd1na2vs0mg"},{"bike_id":"bbdd935a-4563-4787-8ea0-183157c51e7c","system_id":"levelo_inurba_marseille","lat":43.325334,"lon":5.414625,"is_reserved":false,"is_disabled":false,"rental_uris":{"android":"levelo://app?vid=bbdd935a-4563-4787-8ea0-183157c51e7c","ios":"levelo://app?vid=bbdd935a-4563-4787-8ea0-183157c51e7c"},"vehicle_type_id":"4","last_reported":1761044909,"current_range_meters":19600,"station_id":"ce4bhq12rcd13ifvqhhg","pricing_plan_id":"cebpf4jnsgd1na2vs0mg"},{"bike_id":"377c869a-024a-4525-8622-7f93ccb8bd6c","system_id":"levelo_inurba_marseille","lat":43.24087,"lon":5.37679,"is_reserved":false,"is_disabled":false,"rental_uris":{"android":"levelo://app?vid=377c869a-024a-4525-8622-7f93ccb8bd6c","ios":"levelo://app?vid=377c869a-024a-4525-8622-7f93ccb8bd6c"},"vehicle_type_id":"4","last_reported":1761044909,"current_range_meters":19600,"station_id":"ce4bhnp2rcd13ifvqgvg","pricing_plan_id":"cebpf4jnsgd1na2vs0mg"},{"bike_id":"dbd0a377-713e-447d-a622-ddd050f93149","system_id":"levelo_inurba_marseille","lat":43.27065,"lon":5.42267,"is_reserved":false,"is_disabled":false,"rental_uris":{"android":"levelo://app?vid=dbd0a377-713e-447d-a622-ddd050f93149","ios":"levelo://app?vid=dbd0a377-713e-447d-a622-ddd050f93149"},"vehicle_type_id":"4","last_reported":1761044909,"current_range_meters":19600,"station_id":"ce4bhk92rcd13ifvqgb0","pricing_plan_id":"cebpf4jnsgd1na2vs0mg"},{"bike_id":"7d4a5b64-874b-4d41-a687-78886e393efb","system_id":"levelo_inurba_marseille","lat":43.29793,"lon":5.40405,"is_reserved":false,"is_disabled":false,"rental_uris":{"android":"levelo://app?vid=7d4a5b64-874b-4d41-a687-78886e393efb","ios":"levelo://app?vid=7d4a5b64-874b-4d41-a687-78886e393efb"},"vehicle_type_id":"4","last_reported":1761044909,"current_range_meters":19600,"station_id":"ce4bh112rcd13ifvqd90","pricing_plan_id":"cebpf4jnsgd1na2vs0mg"},{"bike_id":"64634a09-82b9-4097-99ec-1aaa9aa729a2","system_id":"levelo_inurba_marseille","lat":43.31991,"lon":5.41291,"is_reserved":false,"is_disabled":false,"rental_uris":{"android":"levelo://app?vid=64634a09-82b9-4097-99ec-1aaa9aa729a2","ios":"levelo://app?vid=64634a09-82b9-4097-99ec-1aaa9aa729a2"},"vehicle_type_id":"4","last_reported":1761044909,"current_range_meters":19600,"station_id":"","pricing_plan_id":"cebpf4jnsgd1na2vs0mg"},{"bike_id":"3f50d97c-3938-4d20-b271-5f8a926983e1","system_id":"levelo_inurba_marseille","lat":43.28857,"lon":5.3586,"is_reserved":false,"is_disabled":false,"rental_uris":{"android":"levelo://app?vid=3f50d97c-3938-4d20-b271-5f8a926983e1","ios":"levelo://app?vid=3f50d97c-3938-4d20-b271-5f8a926983e1"},"vehicle_type_id":"4","last_reported":1761044909,"current_range_meters":20000,"station_id":"ce4bhb12rcd13ifvqem0","pricing_plan_id":"cebpf4jnsgd1na2vs0mg"},{"bike_id":"800892ae-9bcd-435a-9b2c-2189c5985e4a","system_id":"levelo_inurba_marseille","lat":43.284519,"lon":5.374438,"is_reserved":false,"is_disabled":false,"rental_uris":{"android":"levelo://app?vid=800892ae-9bcd-435a-9b2c-2189c5985e4a","ios":"levelo://app?vid=800892ae-9bcd-435a-9b2c-2189c5985e4a"},"vehicle_type_id":"4","last_reported":1761044909,"current_range_meters":20000,"station_id":"","pricing_plan_id":"cebpf4jnsgd1na2vs0mg"},{"bike_id":"4f3e3c5e-991f-4c9f-8464-64c534d4fa4d","system_id":"levelo_inurba_marseille","lat":43.32097,"lon":5.36761,"is_reserved":false,"is_disabled":false,"rental_uris":{"android":"levelo://app?vid=4f3e3c5e-991f-4c9f-8464-64c534d4fa4d","ios":"levelo://app?vid=4f3e3c5e-991f-4c9f-8464-64c534d4fa4d"},"vehicle_type_id":"4","last_reported":1761044909,"current_range_meters":20000,"station_id":"ce4bhrh2rcd13ifvqhug","pricing_plan_id":"cebpf4jnsgd1na2vs0mg"},{"bike_id":"07d7b6fa-377a-4cc2-9da9-fcb2ba4c5d9c","system_id":"levelo_inurba_marseille","lat":43.2419,"lon":5.39723,"is_reserved":false,"is_disabled":false,"rental_uris":{"android":"levelo://app?vid=07d7b6fa-377a-4cc2-9da9-fcb2ba4c5d9c","ios":"levelo://app?vid=07d7b6fa-377a-4cc2-9da9-fcb2ba4c5d9c"},"vehicle_type_id":"4","last_reported":1761044909,"current_range_meters":20000,"station_id":"ce4bhn12rcd13ifvqgpg","pricing_plan_id":"cebpf4jnsgd1na2vs0mg"},{"bike_id":"344e2329-b153-4072-8c66-358e1c1fe314","system_id":"levelo_inurba_marseille","lat":43.27961,"lon":5.38718,"is_reserved":false,"is_disabled":false,"rental_uris":{"android":"levelo://app?vid=344e2329-b153-4072-8c66-358e1c1fe314","ios":"levelo://app?vid=344e2329-b153-4072-8c66-358e1c1fe314"},"vehicle_type_id":"4","last_reported":1761044909,"current_range_meters":20000,"station_id":"ce4bhg12rcd13ifvqf80","pricing_plan_id":"cebpf4jnsgd1na2vs0mg"},{"bike_id":"831b82e9-8372-4deb-99d0-81b8ed3afc90","system_id":"levelo_inurba_marseille","lat":43.21197,"lon":5.35071,"is_reserved":false,"is_disabled":false,"rental_uris":{"android":"levelo://app?vid=831b82e9-8372-4deb-99d0-81b8ed3afc90","ios":"levelo://app?vid=831b82e9-8372-4deb-99d0-81b8ed3afc90"},"vehicle_type_id":"4","last_reported":1761044909,"current_range_meters":20400,"station_id":"","pricing_plan_id":"cebpf4jnsgd1na2vs0mg"},{"bike_id":"64511302-7ca0-4530-af74-99c4489ccc1f","system_id":"levelo_inurba_marseille","lat":43.293725,"lon":5.37856,"is_reserved":false,"is_disabled":false,"rental_uris":{"android":"levelo://app?vid=64511302-7ca0-4530-af74-99c4489ccc1f","ios":"levelo://app?vid=64511302-7ca0-4530-af74-99c4489ccc1f"},"vehicle_type_id":"4","last_reported":1761044909,"current_range_meters":20400,"station_id":"ce4bgi12rcd13ifvqb70","pricing_plan_id":"cebpf4jnsgd1na2vs0mg"},{"bike_id":"e9f56383-0ef1-464b-9147-ed9dbf931c3b","system_id":"levelo_inurba_marseille","lat":43.26063,"lon":5.39382,"is_reserved":false,"is_disabled":false,"rental_uris":{"android":"levelo://app?vid=e9f56383-0ef1-464b-9147-ed9dbf931c3b","ios":"levelo://app?vid=e9f56383-0ef1-464b-9147-ed9dbf931c3b"},"vehicle_type_id":"4","last_reported":1761044909,"current_range_meters":20400,"station_id":"ce4bhh92rcd13ifvqfj0","pricing_plan_id":"cebpf4jnsgd1na2vs0mg"},{"bike_id":"8de64c60-2918-4063-a50f-59689163db54","system_id":"levelo_inurba_marseille","lat":43.21745,"lon":5.34601,"is_reserved":false,"is_disabled":false,"rental_uris":{"android":"levelo://app?vid=8de64c60-2918-4063-a50f-59689163db54","ios":"levelo://app?vid=8de64c60-2918-4063-a50f-59689163db54"},"vehicle_type_id":"4","last_reported":1761044909,"current_range_meters":20400,"station_id":"st_cvj6r9ubvosntc0bgbag","pricing_plan_id":"cebpf4jnsgd1na2vs0mg"},{"bike_id":"c86e212a-896b-4799-898a-e80fa085457c","system_id":"levelo_inurba_marseille","lat":43.27218,"lon":5.39183,"is_reserved":false,"is_disabled":false,"rental_uris":{"android":"levelo://app?vid=c86e212a-896b-4799-898a-e80fa085457c","ios":"levelo://app?vid=c86e212a-896b-4799-898a-e80fa085457c"},"vehicle_type_id":"4","last_reported":1761044909,"current_range_meters":20400,"station_id":"ce4bhhp2rcd13ifvqfm0","pricing_plan_id":"cebpf4jnsgd1na2vs0mg"},{"bike_id":"63b35b14-0f03-4396-b6a0-e3ef1a957b14","system_id":"levelo_inurba_marseille","lat":43.23068,"lon":5.35482,"is_reserved":false,"is_disabled":false,"rental_uris":{"android":"levelo://app?vid=63b35b14-0f03-4396-b6a0-e3ef1a957b14","ios":"levelo://app?vid=63b35b14-0f03-4396-b6a0-e3ef1a957b14"},"vehicle_type_id":"4","last_reported":1761044909,"current_range_meters":20400,"station_id":"cpo3342slgdg3j2ifvpg","pricing_plan_id":"cebpf4jnsgd1na2vs0mg"},{"bike_id":"4421b8df-65f1-4034-b0b6-467184f8490c","system_id":"levelo_inurba_marseille","lat":43.24155,"lon":5.36397,"is_reserved":false,"is_disabled":false,"rental_uris":{"android":"levelo://app?vid=4421b8df-65f1-4034-b0b6-467184f8490c","ios":"levelo://app?vid=4421b8df-65f1-4034-b0b6-467184f8490c"},"vehicle_type_id":"4","last_reported":1761044909,"current_range_meters":20800,"station_id":"cpo36qri1sfpv3e86is0","pricing_plan_id":"cebpf4jnsgd1na2vs0mg"},{"bike_id":"72192904-2723-476a-b04a-77d5727c7d52","system_id":"levelo_inurba_marseille","lat":43.31256,"lon":5.37815,"is_reserved":false,"is_disabled":false,"rental_uris":{"android":"levelo://app?vid=72192904-2723-476a-b04a-77d5727c7d52","ios":"levelo://app?vid=72192904-2723-476a-b04a-77d5727c7d52"},"vehicle_type_id":"4","last_reported":1761044909,"current_range_meters":20800,"station_id":"","pricing_plan_id":"cebpf4jnsgd1na2vs0mg"},{"bike_id":"db5a7050-19f8-4e8a-9489-956fb282e50f","system_id":"levelo_inurba_marseille","lat":43.29244,"lon":5.40901,"is_reserved":false,"is_disabled":false,"rental_uris":{"android":"levelo://app?vid=db5a7050-19f8-4e8a-9489-956fb282e50f","ios":"levelo://app?vid=db5a7050-19f8-4e8a-9489-956fb282e50f"},"vehicle_type_id":"4","last_reported":1761044909,"current_range_meters":20800,"station_id":"ce4bh192rcd13ifvqdc0","pricing_plan_id":"cebpf4jnsgd1na2vs0mg"},{"bike_id":"b0115702-44cc-45bb-98fe-0fbe4d92bde0","system_id":"levelo_inurba_marseille","lat":43.3149,"lon":5.37307,"is_reserved":false,"is_disabled":false,"rental_uris":{"android":"levelo://app?vid=b0115702-44cc-45bb-98fe-0fbe4d92bde0","ios":"levelo://app?vid=b0115702-44cc-45bb-98fe-0fbe4d92bde0"},"vehicle_type_id":"4","last_reported":1761044909,"current_range_meters":20800,"station_id":"ce4bgt12rcd13ifvqcd0","pricing_plan_id":"cebpf4jnsgd1na2vs0mg"},{"bike_id":"4403d236-7702-498a-98a2-f79c276a9a38","system_id":"levelo_inurba_marseille","lat":43.24609,"lon":5.381032,"is_reserved":false,"is_disabled":false,"rental_uris":{"android":"levelo://app?vid=4403d236-7702-498a-98a2-f79c276a9a38","ios":"levelo://app?vid=4403d236-7702-498a-98a2-f79c276a9a38"},"vehicle_type_id":"4","last_reported":1761044909,"current_range_meters":20800,"station_id":"ce4bhih2rcd13ifvqfr0","pricing_plan_id":"cebpf4jnsgd1na2vs0mg"},{"bike_id":"ff406a65-55f0-48ee-aaec-9769e66a2d56","system_id":"levelo_inurba_marseille","lat":43.30141,"lon":5.38067,"is_reserved":false,"is_disabled":false,"rental_uris":{"android":"levelo://app?vid=ff406a65-55f0-48ee-aaec-9769e66a2d56","ios":"levelo://app?vid=ff406a65-55f0-48ee-aaec-9769e66a2d56"},"vehicle_type_id":"4","last_reported":1761044909,"current_range_meters":20800,"station_id":"ce4bgjp2rcd13ifvqbh0","pricing_plan_id":"cebpf4jnsgd1na2vs0mg"},{"bike_id":"34be6a08-f548-4e80-b94c-930607329b8f","system_id":"levelo_inurba_marseille","lat":43.3237,"lon":5.36787,"is_reserved":false,"is_disabled":false,"rental_uris":{"android":"levelo://app?vid=34be6a08-f548-4e80-b94c-930607329b8f","ios":"levelo://app?vid=34be6a08-f548-4e80-b94c-930607329b8f"},"vehicle_type_id":"4","last_reported":1761044909,"current_range_meters":20800,"station_id":"ce4bhsh2rcd13ifvqi2g","pricing_plan_id":"cebpf4jnsgd1na2vs0mg"},{"bike_id":"8849421d-17fa-40fc-92f0-92d03af0336f","system_id":"levelo_inurba_marseille","lat":43.29037,"lon":5.39961,"is_reserved":false,"is_disabled":false,"rental_uris":{"android":"levelo://app?vid=8849421d-17fa-40fc-92f0-92d03af0336f","ios":"levelo://app?vid=8849421d-17fa-40fc-92f0-92d03af0336f"},"vehicle_type_id":"4","last_reported":1761044909,"current_range_meters":20800,"station_id":"ce4bh392rcd13ifvqdm0","pricing_plan_id":"cebpf4jnsgd1na2vs0mg"},{"bike_id":"bd308c9e-eb18-40ef-9ddd-43abb0839680","system_id":"levelo_inurba_marseille","lat":43.28403,"lon":5.37511,"is_reserved":false,"is_disabled":false,"rental_uris":{"android":"levelo://app?vid=bd308c9e-eb18-40ef-9ddd-43abb0839680","ios":"levelo://app?vid=bd308c9e-eb18-40ef-9ddd-43abb0839680"},"vehicle_type_id":"4","last_reported":1761044909,"current_range_meters":21600,"station_id":"ce4bh412rcd13ifvqds0","pricing_plan_id":"cebpf4jnsgd1na2vs0mg"},{"bike_id":"d6cdf73b-e5aa-444a-97d6-c3f2de5491f9","system_id":"levelo_inurba_marseille","lat":43.3046,"lon":5.37895,"is_reserved":false,"is_disabled":false,"rental_uris":{"android":"levelo://app?vid=d6cdf73b-e5aa-444a-97d6-c3f2de5491f9","ios":"levelo://app?vid=d6cdf73b-e5aa-444a-97d6-c3f2de5491f9"},"vehicle_type_id":"4","last_reported":1761044909,"current_range_meters":21600,"station_id":"ce4bgup2rcd13ifvqcn0","pricing_plan_id":"cebpf4jnsgd1na2vs0mg"},{"bike_id":"4243f498-6e5d-4655-a653-d29d06b99c43","system_id":"levelo_inurba_marseille","lat":43.336087,"lon":5.410346,"is_reserved":false,"is_disabled":false,"rental_uris":{"android":"levelo://app?vid=4243f498-6e5d-4655-a653-d29d06b99c43","ios":"levelo://app?vid=4243f498-6e5d-4655-a653-d29d06b99c43"},"vehicle_type_id":"4","last_reported":1761044909,"current_range_meters":21600,"station_id":"ce4bhqh2rcd13ifvqhmg","pricing_plan_id":"cebpf4jnsgd1na2vs0mg"},{"bike_id":"a04b7c29-9e6f-422a-8556-ec2288cce1df","system_id":"levelo_inurba_marseille","lat":43.24164,"lon":5.36402,"is_reserved":false,"is_disabled":false,"rental_uris":{"android":"levelo://app?vid=a04b7c29-9e6f-422a-8556-ec2288cce1df","ios":"levelo://app?vid=a04b7c29-9e6f-422a-8556-ec2288cce1df"},"vehicle_type_id":"4","last_reported":1761044909,"current_range_meters":21600,"station_id":"cpo36qri1sfpv3e86is0","pricing_plan_id":"cebpf4jnsgd1na2vs0mg"},{"bike_id":"cb89320d-103c-4661-98d3-9782e1c9a64e","system_id":"levelo_inurba_marseille","lat":43.25111,"lon":5.40325,"is_reserved":false,"is_disabled":false,"rental_uris":{"android":"levelo://app?vid=cb89320d-103c-4661-98d3-9782e1c9a64e","ios":"levelo://app?vid=cb89320d-103c-4661-98d3-9782e1c9a64e"},"vehicle_type_id":"4","last_reported":1761044909,"current_range_meters":21600,"station_id":"ce4bhlh2rcd13ifvqgig","pricing_plan_id":"cebpf4jnsgd1na2vs0mg"},{"bike_id":"73f0de86-5536-40cd-a695-cd804e15337b","system_id":"levelo_inurba_marseille","lat":43.32371,"lon":5.38863,"is_reserved":false,"is_disabled":false,"rental_uris":{"android":"levelo://app?vid=73f0de86-5536-40cd-a695-cd804e15337b","ios":"levelo://app?vid=73f0de86-5536-40cd-a695-cd804e15337b"},"vehicle_type_id":"4","last_reported":1761044909,"current_range_meters":21600,"station_id":"ce4bhqp2rcd13ifvqhog","pricing_plan_id":"cebpf4jnsgd1na2vs0mg"},{"bike_id":"e73cb5ef-edbc-4676-b49c-ee6be14af3b0","system_id":"levelo_inurba_marseille","lat":43.33756,"lon":5.37491,"is_reserved":false,"is_disabled":false,"rental_uris":{"android":"levelo://app?vid=e73cb5ef-edbc-4676-b49c-ee6be14af3b0","ios":"levelo://app?vid=e73cb5ef-edbc-4676-b49c-ee6be14af3b0"},"vehicle_type_id":"4","last_reported":1761044909,"current_range_meters":21600,"station_id":"","pricing_plan_id":"cebpf4jnsgd1na2vs0mg"},{"bike_id":"4f8a176e-2642-4449-84cb-7f8daf4015ea","system_id":"levelo_inurba_marseille","lat":43.27752,"lon":5.41027,"is_reserved":false,"is_disabled":false,"rental_uris":{"android":"levelo://app?vid=4f8a176e-2642-4449-84cb-7f8daf4015ea","ios":"levelo://app?vid=4f8a176e-2642-4449-84cb-7f8daf4015ea"},"vehicle_type_id":"4","last_reported":1761044909,"current_range_meters":22000,"station_id":"","pricing_plan_id":"cebpf4jnsgd1na2vs0mg"},{"bike_id":"02973361-6691-4fe3-a272-e5f026dedb21","system_id":"levelo_inurba_marseille","lat":43.28348,"lon":5.38102,"is_reserved":false,"is_disabled":false,"rental_uris":{"android":"levelo://app?vid=02973361-6691-4fe3-a272-e5f026dedb21","ios":"levelo://app?vid=02973361-6691-4fe3-a272-e5f026dedb21"},"vehicle_type_id":"4","last_reported":1761044909,"current_range_meters":22000,"station_id":"ce4bh412rcd13ifvqdr0","pricing_plan_id":"cebpf4jnsgd1na2vs0mg"},{"bike_id":"31b927d4-ec8d-406b-8762-a09687dabbec","system_id":"levelo_inurba_marseille","lat":43.32373,"lon":5.36733,"is_reserved":false,"is_disabled":false,"rental_uris":{"android":"levelo://app?vid=31b927d4-ec8d-406b-8762-a09687dabbec","ios":"levelo://app?vid=31b927d4-ec8d-406b-8762-a09687dabbec"},"vehicle_type_id":"4","last_reported":1761044909,"current_range_meters":22000,"station_id":"ce4bhsh2rcd13ifvqi2g","pricing_plan_id":"cebpf4jnsgd1na2vs0mg"},{"bike_id":"350f2f95-f5a6-4701-bafc-69ea6560a99d","system_id":"levelo_inurba_marseille","lat":43.301422,"lon":5.374146,"is_reserved":false,"is_disabled":false,"rental_uris":{"android":"levelo://app?vid=350f2f95-f5a6-4701-bafc-69ea6560a99d","ios":"levelo://app?vid=350f2f95-f5a6-4701-bafc-69ea6560a99d"},"vehicle_type_id":"4","last_reported":1761044909,"current_range_meters":22000,"station_id":"ce4bgs92rcd13ifvqcc0","pricing_plan_id":"cebpf4jnsgd1na2vs0mg"},{"bike_id":"17f5a9dc-59dd-4200-94f9-e20598e9d30a","system_id":"levelo_inurba_marseille","lat":43.26549,"lon":5.40306,"is_reserved":false,"is_disabled":false,"rental_uris":{"android":"levelo://app?vid=17f5a9dc-59dd-4200-94f9-e20598e9d30a","ios":"levelo://app?vid=17f5a9dc-59dd-4200-94f9-e20598e9d30a"},"vehicle_type_id":"4","last_reported":1761044909,"current_range_meters":22000,"station_id":"ce4bhmp2rcd13ifvqgng","pricing_plan_id":"cebpf4jnsgd1na2vs0mg"},{"bike_id":"1910fa49-20e3-4f32-9fd9-d8a01382bf0f","system_id":"levelo_inurba_marseille","lat":43.29447,"lon":5.39746,"is_reserved":false,"is_disabled":false,"rental_uris":{"android":"levelo://app?vid=1910fa49-20e3-4f32-9fd9-d8a01382bf0f","ios":"levelo://app?vid=1910fa49-20e3-4f32-9fd9-d8a01382bf0f"},"vehicle_type_id":"4","last_reported":1761044909,"current_range_meters":22000,"station_id":"ce4bh3h2rcd13ifvqdo0","pricing_plan_id":"cebpf4jnsgd1na2vs0mg"},{"bike_id":"49cc0279-ce8d-4d63-bb57-c2b6bdfc4aa3","system_id":"levelo_inurba_marseille","lat":43.298023,"lon":5.381016,"is_reserved":false,"is_disabled":false,"rental_uris":{"android":"levelo://app?vid=49cc0279-ce8d-4d63-bb57-c2b6bdfc4aa3","ios":"levelo://app?vid=49cc0279-ce8d-4d63-bb57-c2b6bdfc4aa3"},"vehicle_type_id":"4","last_reported":1761044909,"current_range_meters":22400,"station_id":"ce4bgip2rcd13ifvqbb0","pricing_plan_id":"cebpf4jnsgd1na2vs0mg"},{"bike_id":"39d3f438-1719-4364-8e3b-2bb8dc5b67e1","system_id":"levelo_inurba_marseille","lat":43.27405,"lon":5.394,"is_reserved":false,"is_disabled":false,"rental_uris":{"android":"levelo://app?vid=39d3f438-1719-4364-8e3b-2bb8dc5b67e1","ios":"levelo://app?vid=39d3f438-1719-4364-8e3b-2bb8dc5b67e1"},"vehicle_type_id":"4","last_reported":1761044909,"current_range_meters":22400,"station_id":"ce4bhdp2rcd13ifvqf20","pricing_plan_id":"cebpf4jnsgd1na2vs0mg"},{"bike_id":"3ec490ba-97a7-4454-a92a-df06a4cd42f6","system_id":"levelo_inurba_marseille","lat":43.24626,"lon":5.38928,"is_reserved":false,"is_disabled":false,"rental_uris":{"android":"levelo://app?vid=3ec490ba-97a7-4454-a92a-df06a4cd42f6","ios":"levelo://app?vid=3ec490ba-97a7-4454-a92a-df06a4cd42f6"},"vehicle_type_id":"4","last_reported":1761044909,"current_range_meters":22400,"station_id":"ce4bhg12rcd13ifvqf60","pricing_plan_id":"cebpf4jnsgd1na2vs0mg"},{"bike_id":"e1102595-445e-4fb1-baf2-563dbadc3d54","system_id":"levelo_inurba_marseille","lat":43.288846,"lon":5.425175,"is_reserved":false,"is_disabled":false,"rental_uris":{"android":"levelo://app?vid=e1102595-445e-4fb1-baf2-563dbadc3d54","ios":"levelo://app?vid=e1102595-445e-4fb1-baf2-563dbadc3d54"},"vehicle_type_id":"4","last_reported":1761044909,"current_range_meters":22400,"station_id":"st_d3b462108ojc7389ooeg","pricing_plan_id":"cebpf4jnsgd1na2vs0mg"},{"bike_id":"6dd5f6be-9c94-4561-a85f-3b9d4a0bb161","system_id":"levelo_inurba_marseille","lat":43.29678,"lon":5.37289,"is_reserved":false,"is_disabled":false,"rental_uris":{"android":"levelo://app?vid=6dd5f6be-9c94-4561-a85f-3b9d4a0bb161","ios":"levelo://app?vid=6dd5f6be-9c94-4561-a85f-3b9d4a0bb161"},"vehicle_type_id":"4","last_reported":1761044909,"current_range_meters":22400,"station_id":"ce4bgk12rcd13ifvqbj0","pricing_plan_id":"cebpf4jnsgd1na2vs0mg"},{"bike_id":"9ef37ba6-e5da-40ea-b196-f8fb0792642b","system_id":"levelo_inurba_marseille","lat":43.321073,"lon":5.36789,"is_reserved":false,"is_disabled":false,"rental_uris":{"android":"levelo://app?vid=9ef37ba6-e5da-40ea-b196-f8fb0792642b","ios":"levelo://app?vid=9ef37ba6-e5da-40ea-b196-f8fb0792642b"},"vehicle_type_id":"4","last_reported":1761044909,"current_range_meters":22400,"station_id":"ce4bhrh2rcd13ifvqhug","pricing_plan_id":"cebpf4jnsgd1na2vs0mg"},{"bike_id":"c18fb3c9-7d11-4248-8f56-4f4e5f3f877e","system_id":"levelo_inurba_marseille","lat":43.24167,"lon":5.36399,"is_reserved":false,"is_disabled":false,"rental_uris":{"android":"levelo://app?vid=c18fb3c9-7d11-4248-8f56-4f4e5f3f877e","ios":"levelo://app?vid=c18fb3c9-7d11-4248-8f56-4f4e5f3f877e"},"vehicle_type_id":"4","last_reported":1761044909,"current_range_meters":22400,"station_id":"cpo36qri1sfpv3e86is0","pricing_plan_id":"cebpf4jnsgd1na2vs0mg"},{"bike_id":"b0c18076-070a-45cd-8127-391602439574","system_id":"levelo_inurba_marseille","lat":43.241609,"lon":5.364049,"is_reserved":false,"is_disabled":false,"rental_uris":{"android":"levelo://app?vid=b0c18076-070a-45cd-8127-391602439574","ios":"levelo://app?vid=b0c18076-070a-45cd-8127-391602439574"},"vehicle_type_id":"4","last_reported":1761044909,"current_range_meters":22400,"station_id":"cpo36qri1sfpv3e86is0","pricing_plan_id":"cebpf4jnsgd1na2vs0mg"},{"bike_id":"2af78622-6272-41e7-bc57-824919f08300","system_id":"levelo_inurba_marseille","lat":43.30527,"lon":5.36558,"is_reserved":false,"is_disabled":false,"rental_uris":{"android":"levelo://app?vid=2af78622-6272-41e7-bc57-824919f08300","ios":"levelo://app?vid=2af78622-6272-41e7-bc57-824919f08300"},"vehicle_type_id":"4","last_reported":1761044909,"current_range_meters":22400,"station_id":"","pricing_plan_id":"cebpf4jnsgd1na2vs0mg"},{"bike_id":"dc0efca8-8642-42b3-b8f3-c21469c7380a","system_id":"levelo_inurba_marseille","lat":43.29786,"lon":5.37097,"is_reserved":false,"is_disabled":false,"rental_uris":{"android":"levelo://app?vid=dc0efca8-8642-42b3-b8f3-c21469c7380a","ios":"levelo://app?vid=dc0efca8-8642-42b3-b8f3-c21469c7380a"},"vehicle_type_id":"4","last_reported":1761044909,"current_range_meters":22400,"station_id":"ce4bgop2rcd13ifvqc1g","pricing_plan_id":"cebpf4jnsgd1na2vs0mg"},{"bike_id":"9ef8ba94-f061-4fc1-a3a1-d27e975da50d","system_id":"levelo_inurba_marseille","lat":43.24103,"lon":5.41357,"is_reserved":false,"is_disabled":false,"rental_uris":{"android":"levelo://app?vid=9ef8ba94-f061-4fc1-a3a1-d27e975da50d","ios":"levelo://app?vid=9ef8ba94-f061-4fc1-a3a1-d27e975da50d"},"vehicle_type_id":"4","last_reported":1761044909,"current_range_meters":22800,"station_id":"","pricing_plan_id":"cebpf4jnsgd1na2vs0mg"},{"bike_id":"837cc41b-bdde-42ff-95ef-55337bc14686","system_id":"levelo_inurba_marseille","lat":43.296143,"lon":5.37154,"is_reserved":false,"is_disabled":false,"rental_uris":{"android":"levelo://app?vid=837cc41b-bdde-42ff-95ef-55337bc14686","ios":"levelo://app?vid=837cc41b-bdde-42ff-95ef-55337bc14686"},"vehicle_type_id":"4","last_reported":1761044909,"current_range_meters":22800,"station_id":"ce4bgnh2rcd13ifvqc0g","pricing_plan_id":"cebpf4jnsgd1na2vs0mg"},{"bike_id":"5659394c-3ca4-4ab2-8d05-d1853e265c52","system_id":"levelo_inurba_marseille","lat":43.314415,"lon":5.392964,"is_reserved":false,"is_disabled":false,"rental_uris":{"android":"levelo://app?vid=5659394c-3ca4-4ab2-8d05-d1853e265c52","ios":"levelo://app?vid=5659394c-3ca4-4ab2-8d05-d1853e265c52"},"vehicle_type_id":"4","last_reported":1761044909,"current_range_meters":22800,"station_id":"","pricing_plan_id":"cebpf4jnsgd1na2vs0mg"},{"bike_id":"9737799a-3356-4def-b1bd-5f56456d1e26","system_id":"levelo_inurba_marseille","lat":43.3163,"lon":5.37876,"is_reserved":false,"is_disabled":false,"rental_uris":{"android":"levelo://app?vid=9737799a-3356-4def-b1bd-5f56456d1e26","ios":"levelo://app?vid=9737799a-3356-4def-b1bd-5f56456d1e26"},"vehicle_type_id":"4","last_reported":1761044909,"current_range_meters":22800,"station_id":"","pricing_plan_id":"cebpf4jnsgd1na2vs0mg"},{"bike_id":"b6beb308-c256-4659-b7f9-4b06c54edbe8","system_id":"levelo_inurba_marseille","lat":43.2904,"lon":5.37577,"is_reserved":false,"is_disabled":false,"rental_uris":{"android":"levelo://app?vid=b6beb308-c256-4659-b7f9-4b06c54edbe8","ios":"levelo://app?vid=b6beb308-c256-4659-b7f9-4b06c54edbe8"},"vehicle_type_id":"4","last_reported":1761044909,"current_range_meters":22800,"station_id":"ce4bh692rcd13ifvqe90","pricing_plan_id":"cebpf4jnsgd1na2vs0mg"},{"bike_id":"e9520ce9-030f-469a-affe-862353a3b015","system_id":"levelo_inurba_marseille","lat":43.24638,"lon":5.431466,"is_reserved":false,"is_disabled":false,"rental_uris":{"android":"levelo://app?vid=e9520ce9-030f-469a-affe-862353a3b015","ios":"levelo://app?vid=e9520ce9-030f-469a-affe-862353a3b015"},"vehicle_type_id":"4","last_reported":1761044909,"current_range_meters":22800,"station_id":"st_d2m6c4gdas8pm72e190g","pricing_plan_id":"cebpf4jnsgd1na2vs0mg"},{"bike_id":"fb894fcb-2e1c-49f3-b982-99119835cb26","system_id":"levelo_inurba_marseille","lat":43.33763,"lon":5.3744,"is_reserved":false,"is_disabled":false,"rental_uris":{"android":"levelo://app?vid=fb894fcb-2e1c-49f3-b982-99119835cb26","ios":"levelo://app?vid=fb894fcb-2e1c-49f3-b982-99119835cb26"},"vehicle_type_id":"4","last_reported":1761044909,"current_range_meters":23200,"station_id":"","pricing_plan_id":"cebpf4jnsgd1na2vs0mg"},{"bike_id":"b1e68a75-8d87-4382-be5e-d197445bf6e9","system_id":"levelo_inurba_marseille","lat":43.24627,"lon":5.43122,"is_reserved":false,"is_disabled":false,"rental_uris":{"android":"levelo://app?vid=b1e68a75-8d87-4382-be5e-d197445bf6e9","ios":"levelo://app?vid=b1e68a75-8d87-4382-be5e-d197445bf6e9"},"vehicle_type_id":"4","last_reported":1761044909,"current_range_meters":23200,"station_id":"st_d2m6c4gdas8pm72e190g","pricing_plan_id":"cebpf4jnsgd1na2vs0mg"},{"bike_id":"41f6f612-44a2-47e3-b858-2d74f6da21f5","system_id":"levelo_inurba_marseille","lat":43.295288,"lon":5.390399,"is_reserved":false,"is_disabled":false,"rental_uris":{"android":"levelo://app?vid=41f6f612-44a2-47e3-b858-2d74f6da21f5","ios":"levelo://app?vid=41f6f612-44a2-47e3-b858-2d74f6da21f5"},"vehicle_type_id":"4","last_reported":1761044909,"current_range_meters":23200,"station_id":"ce4bh3p2rcd13ifvqdp0","pricing_plan_id":"cebpf4jnsgd1na2vs0mg"},{"bike_id":"119909ae-929f-4d82-a8fb-9727ef0a3e17","system_id":"levelo_inurba_marseille","lat":43.31692,"lon":5.4047,"is_reserved":false,"is_disabled":false,"rental_uris":{"android":"levelo://app?vid=119909ae-929f-4d82-a8fb-9727ef0a3e17","ios":"levelo://app?vid=119909ae-929f-4d82-a8fb-9727ef0a3e17"},"vehicle_type_id":"4","last_reported":1761044909,"current_range_meters":23200,"station_id":"ce4bh012rcd13ifvqd00","pricing_plan_id":"cebpf4jnsgd1na2vs0mg"},{"bike_id":"69f9650c-3f5c-48b3-a994-4ea11453d576","system_id":"levelo_inurba_marseille","lat":43.290611,"lon":5.371568,"is_reserved":false,"is_disabled":false,"rental_uris":{"android":"levelo://app?vid=69f9650c-3f5c-48b3-a994-4ea11453d576","ios":"levelo://app?vid=69f9650c-3f5c-48b3-a994-4ea11453d576"},"vehicle_type_id":"4","last_reported":1761044909,"current_range_meters":23200,"station_id":"ce4bh5p2rcd13ifvqe4g","pricing_plan_id":"cebpf4jnsgd1na2vs0mg"},{"bike_id":"b519d4fd-e48f-433c-a87e-90cb6944a345","system_id":"levelo_inurba_marseille","lat":43.32105,"lon":5.36761,"is_reserved":false,"is_disabled":false,"rental_uris":{"android":"levelo://app?vid=b519d4fd-e48f-433c-a87e-90cb6944a345","ios":"levelo://app?vid=b519d4fd-e48f-433c-a87e-90cb6944a345"},"vehicle_type_id":"4","last_reported":1761044909,"current_range_meters":23200,"station_id":"ce4bhrh2rcd13ifvqhug","pricing_plan_id":"cebpf4jnsgd1na2vs0mg"},{"bike_id":"3ac1bd69-1b35-4154-ab28-9e99488b507f","system_id":"levelo_inurba_marseille","lat":43.30541,"lon":5.36556,"is_reserved":false,"is_disabled":false,"rental_uris":{"android":"levelo://app?vid=3ac1bd69-1b35-4154-ab28-9e99488b507f","ios":"levelo://app?vid=3ac1bd69-1b35-4154-ab28-9e99488b507f"},"vehicle_type_id":"4","last_reported":1761044909,"current_range_meters":24000,"station_id":"ce4bgs12rcd13ifvqcag","pricing_plan_id":"cebpf4jnsgd1na2vs0mg"},