{"last_updated":1711206521,"ttl":30,"version":"2.2","data":{"bikes":[{"bike_id":"2a5a68b6-655b-48eb-9c75-c9224bfa73cf","system_id":"levelo_inurba_marseille","lat":43.312239,"lon":5.368562,"is_reserved":false,"is_disabled":false,"rental_uris":{"android":"levelo://app?vid=2a5a68b6-655b-48eb-9c75-c9224bfa73cf","ios":"levelo://app?vid=2a5a68b6-655b-48eb-9c75-c9224bfa73cf"},"vehicle_type_id":"4","last_reported":1711206521,"current_range_meters":21600,"station_id":"ce4bgl92rcd13ifvqbq0","pricing_plan_id":"cebpf4jnsgd1na2vs0mg"},{"bike_id":"f27a7e68-eb72-4787-b46a-876d20febca1","system_id":"levelo_inurba_marseille","lat":43.312239,"lon":5.368562,"is_reserved":false,"is_disabled":false,"rental_uris":{"android":"levelo://app?vid=f27a7e68-eb72-4787-b46a-876d20febca1","ios":"levelo://app?vid=f27a7e68-eb72-4787-b46a-876d20febca1"},"vehicle_type_id":"4","last_reported":1711206521,"current_range_meters":18400,"station_id":"ce4bgl92rcd13ifvqbq0","pricing_plan_id":"cebpf4jnsgd1na2vs0mg"},{"bike_id":"92e525f9-bc6a-458d-9b1b-c30aa3606525","system_id":"levelo_inurba_marseille","lat":43.312255,"lon":5.368515,"is_reserved":false,"is_disabled":false,"rental_uris":{"android":"levelo://app?vid=92e525f9-bc6a-458d-9b1b-c30aa3606525","ios":"levelo://app?vid=92e525f9-bc6a-458d-9b1b-c30aa3606525"},"vehicle_type_id":"4","last_reported":1711206521,"current_range_meters":8800,"station_id":"ce4bgl92rcd13ifvqbq0","pricing_plan_id":"cebpf4jnsgd1na2vs0mg"},{"bike_id":"c4f775a7-fdf0-4f03-a895-e51d5ee7cabc","system_id":"levelo_inurba_marseille","lat":43.312239,"lon":5.368562,"is_reserved":false,"is_disabled":false,"rental_uris":{"android":"levelo://app?vid=c4f775a7-fdf0-4f03-a895-e51d5ee7cabc","ios":"levelo://app?vid=c4f775a7-fdf0-4f03-a895-e51d5ee7cabc"},"vehicle_type_id":"4","last_reported":1711206521,"current_range_meters":23200,"station_id":"ce4bgl92rcd13ifvqbq0","pricing_plan_id":"cebpf4jnsgd1na2vs0mg"},{"bike_id":"4b3f7edb-ac90-4b83-8f2c-7ae307fdcc61","system_id":"levelo_inurba_marseille","lat":43.312239,"lon":5.368562,"is_reserved":false,"is_disabled":false,"rental_uris":{"android":"levelo://app?vid=4b3f7edb-ac90-4b83-8f2c-7ae307fdcc61","ios":"levelo://app?vid=4b3f7edb-ac90-4b83-8f2c-7ae307fdcc61"},"vehicle_type_id":"4","last_reported":1711206521,"current_range_meters":26000,"station_id":"ce4bgl92rcd13ifvqbq0","pricing_plan_id":"cebpf4jnsgd1na2vs0mg"},{"bike_id":"d2578853-0b7e-4036-81c1-0449a9089560","system_id":"levelo_inurba_marseille","lat":43.312394,"lon":5.368743,"is_reserved":false,"is_disabled":false,"rental_uris":{"android":"levelo://app?vid=d2578853-0b7e-4036-81c1-0449a9089560","ios":"levelo://app?vid=d2578853-0b7e-4036-81c1-0449a9089560"},"vehicle_type_id":"4","last_reported":1711206521,"current_range_meters":800,"station_id":"ce4bgl92rcd13ifvqbq0","pricing_plan_id":"cebpf4jnsgd1na2vs0mg"},{"bike_id":"a51f31bb-3156-4831-9753-3aa7cad46436","system_id":"levelo_inurba_marseille","lat":43.309076,"lon":5.368465,"is_reserved":false,"is_disabled":false,"rental_uris":{"android":"levelo://app?vid=a51f31bb-3156-4831-9753-3aa7cad46436","ios":"levelo://app?vid=a51f31bb-3156-4831-9753-3aa7cad46436"},"vehicle_type_id":"4","last_reported":1711206521,"current_range_meters":15200,"station_id":"ce4bgn92rcd13ifvqbvg","pricing_plan_id":"cebpf4jnsgd1na2vs0mg"},{"bike_id":"135a4898-129c-44c5-b995-c26522edd983","system_id":"levelo_inurba_marseille","lat":43.309076,"lon":5.368465,"is_reserved":false,"is_disabled":false,"rental_uris":{"android":"levelo://app?vid=135a4898-129c-44c5-b995-c26522edd983","ios":"levelo://app?vid=135a4898-129c-44c5-b995-c26522edd983"},"vehicle_type_id":"4","last_reported":1711206521,"current_range_meters":22800,"station_id":"ce4bgn92rcd13ifvqbvg","pricing_plan_id":"cebpf4jnsgd1na2vs0mg"},{"bike_id":"de18bbee-90ff-4483-a303-8d3ef3ba60da","system_id":"levelo_inurba_marseille","lat":43.309076,"lon":5.368465,"is_reserved":false,"is_disabled":false,"rental_uris":{"android":"levelo://app?vid=de18bbee-90ff-4483-a303-8d3ef3ba60da","ios":"levelo://app?vid=de18bbee-90ff-4483-a303-8d3ef3ba60da"},"vehicle_type_id":"4","last_reported":1711206521,"current_range_meters":24800,"station_id":"ce4bgn92rcd13ifvqbvg","pricing_plan_id":"cebpf4jnsgd1na2vs0mg"},{"bike_id":"e5278272-a090-4c66-8f7d-8b29cb930f09","system_id":"levelo_inurba_marseille","lat":43.309076,"lon":5.368465,"is_reserved":false,"is_disabled":false,"rental_uris":{"android":"levelo://app?vid=e5278272-a090-4c66-8f7d-8b29cb930f09","ios":"levelo://app?vid=e5278272-a090-4c66-8f7d-8b29cb930f09"},"vehicle_type_id":"4","last_reported":1711206521,"current_range_meters":30400,"station_id":"ce4bgn92rcd13ifvqbvg","pricing_plan_id":"cebpf4jnsgd1na2vs0mg"},{"bike_id":"e96e7e97-8427-47ed-8a9c-c4eea623ac22","system_id":"levelo_inurba_marseille","lat":43.309076,"lon":5.368465,"is_reserved":false,"is_disabled":false,"rental_uris":{"android":"levelo://app?vid=e96e7e97-8427-47ed-8a9c-c4eea623ac22","ios":"levelo://app?vid=e96e7e97-8427-47ed-8a9c-c4eea623ac22"},"vehicle_type_id":"4","last_reported":1711206521,"current_range_meters":20400,"station_id":"ce4bgn92rcd13ifvqbvg","pricing_plan_id":"cebpf4jnsgd1na2vs0mg"},{"bike_id":"3b967643-53b1-4a9b-b2b0-bf7181e954b0","system_id":"levelo_inurba_marseille","lat":43.314811,"lon":5.373104,"is_reserved":false,"is_disabled":false,"rental_uris":{"android":"levelo://app?vid=3b967643-53b1-4a9b-b2b0-bf7181e954b0","ios":"levelo://app?vid=3b967643-53b1-4a9b-b2b0-bf7181e954b0"},"vehicle_type_id":"4","last_reported":1711206521,"current_range_meters":11600,"station_id":"ce4bgt12rcd13ifvqcd0","pricing_plan_id":"cebpf4jnsgd1na2vs0mg"},{"bike_id":"0b3588ff-ed10-44b5-b708-a99e49a1c8d6","system_id":"levelo_inurba_marseille","lat":43.309039,"lon":5.371797,"is_reserved":false,"is_disabled":false,"rental_uris":{"android":"levelo://app?vid=0b3588ff-ed10-44b5-b708-a99e49a1c8d6","ios":"levelo://app?vid=0b3588ff-ed10-44b5-b708-a99e49a1c8d6"},"vehicle_type_id":"4","last_reported":1711206521,"current_range_meters":31200,"station_id":"ce4bguh2rcd13ifvqckg","pricing_plan_id":"cebpf4jnsgd1na2vs0mg"},{"bike_id":"b4c27e32-a970-4da1-b91f-bb4b89a6cfaf","system_id":"levelo_inurba_marseille","lat":43.309039,"lon":5.371797,"is_reserved":false,"is_disabled":false,"rental_uris":{"android":"levelo://app?vid=b4c27e32-a970-4da1-b91f-bb4b89a6cfaf","ios":"levelo://app?vid=b4c27e32-a970-4da1-b91f-bb4b89a6cfaf"},"vehicle_type_id":"4","last_reported":1711206521,"current_range_meters":16000,"station_id":"ce4bguh2rcd13ifvqckg","pricing_plan_id":"cebpf4jnsgd1na2vs0mg"},{"bike_id":"b0c8c245-f94c-48c6-897b-9e25ad655894","system_id":"levelo_inurba_marseille","lat":43.314811,"lon":5.373104,"is_reserved":false,"is_disabled":false,"rental_uris":{"android":"levelo://app?vid=b0c8c245-f94c-48c6-897b-9e25ad655894","ios":"levelo://app?vid=b0c8c245-f94c-48c6-897b-9e25ad655894"},"vehicle_type_id":"4","last_reported":1711206521,"current_range_meters":7200,"station_id":"ce4bgt12rcd13ifvqcd0","pricing_plan_id":"cebpf4jnsgd1na2vs0mg"},{"bike_id":"0395515e-6a47-4e1d-bf95-81a1ba017a6c","system_id":"levelo_inurba_marseille","lat":43.309034,"lon":5.371783,"is_reserved":false,"is_disabled":false,"rental_uris":{"android":"levelo://app?vid=0395515e-6a47-4e1d-bf95-81a1ba017a6c","ios":"levelo://app?vid=0395515e-6a47-4e1d-bf95-81a1ba017a6c"},"vehicle_type_id":"4","last_reported":1711206521,"current_range_meters":27600,"station_id":"ce4bguh2rcd13ifvqckg","pricing_plan_id":"cebpf4jnsgd1na2vs0mg"},{"bike_id":"e4081131-2378-49af-a0de-de970f3d2fbe","system_id":"levelo_inurba_marseille","lat":43.309039,"lon":5.371797,"is_reserved":false,"is_disabled":false,"rental_uris":{"android":"levelo://app?vid=e4081131-2378-49af-a0de-de970f3d2fbe","ios":"levelo://app?vid=e4081131-2378-49af-a0de-de970f3d2fbe"},"vehicle_type_id":"4","last_reported":1711206521,"current_range_meters":22400,"station_id":"ce4bguh2rcd13ifvqckg","pricing_plan_id":"cebpf4jnsgd1na2vs0mg"},{"bike_id":"f0e4183a-a3ca-4631-9b11-f39d3b7aff3e","system_id":"levelo_inurba_marseille","lat":43.292644,"lon":5.384257,"is_reserved":false,"is_disabled":false,"rental_uris":{"android":"levelo://app?vid=f0e4183a-a3ca-4631-9b11-f39d3b7aff3e","ios":"levelo://app?vid=f0e4183a-a3ca-4631-9b11-f39d3b7aff3e"},"vehicle_type_id":"4","last_reported":1711206521,"current_range_meters":3600,"station_id":"ce4bh692rcd13ifvqea0","pricing_plan_id":"cebpf4jnsgd1na2vs0mg"},{"bike_id":"0c0df930-fc91-4057-833f-021a9693e660","system_id":"levelo_inurba_marseille","lat":43.30537,"lon":5.367345,"is_reserved":false,"is_disabled":false,"rental_uris":{"android":"levelo://app?vid=0c0df930-fc91-4057-833f-021a9693e660","ios":"levelo://app?vid=0c0df930-fc91-4057-833f-021a9693e660"},"vehicle_type_id":"4","last_reported":1711206521,"current_range_meters":0,"station_id":"ce4bgrp2rcd13ifvqc9g","pricing_plan_id":"cebpf4jnsgd1na2vs0mg"},{"bike_id":"c9508a2d-fc08-4766-9bd2-b2e5d30f5509","system_id":"levelo_inurba_marseille","lat":43.3056,"lon":5.36545,"is_reserved":false,"is_disabled":false,"rental_uris":{"android":"levelo://app?vid=c9508a2d-fc08-4766-9bd2-b2e5d30f5509","ios":"levelo://app?vid=c9508a2d-fc08-4766-9bd2-b2e5d30f5509"},"vehicle_type_id":"4","last_reported":1711206521,"current_range_meters":30000,"station_id":"ce4bgs12rcd13ifvqcag","pricing_plan_id":"cebpf4jnsgd1na2vs0mg"},{"bike_id":"67d6d5ca-18ac-41ba-abab-61637d3c7771","system_id":"levelo_inurba_marseille","lat":43.30551,"lon":5.36537,"is_reserved":false,"is_disabled":false,"rental_uris":{"android":"levelo://app?vid=67d6d5ca-18ac-41ba-abab-61637d3c7771","ios":"levelo://app?vid=67d6d5ca-18ac-41ba-abab-61637d3c7771"},"vehicle_type_id":"4","last_reported":1711206521,"current_range_meters":0,"station_id":"ce4bgs12rcd13ifvqcag","pricing_plan_id":"cebpf4jnsgd1na2vs0mg"},{"bike_id":"0b380fc4-e3e4-4e93-b2fc-a362b1c32813","system_id":"levelo_inurba_marseille","lat":43.30549,"lon":5.36547,"is_reserved":false,"is_disabled":false,"rental_uris":{"android":"levelo://app?vid=0b380fc4-e3e4-4e93-b2fc-a362b1c32813","ios":"levelo://app?vid=0b380fc4-e3e4-4e93-b2fc-a362b1c32813"},"vehicle_type_id":"4","last_reported":1711206521,"current_range_meters":19600,"station_id":"ce4bgs12rcd13ifvqcag","pricing_plan_id":"cebpf4jnsgd1na2vs0mg"},{"bike_id":"70fb891d-bcc2-4fc6-84e0-3beaa715fa53","system_id":"levelo_inurba_marseille","lat":43.305706,"lon":5.365654,"is_reserved":false,"is_disabled":false,"rental_uris":{"android":"levelo://app?vid=70fb891d-bcc2-4fc6-84e0-3beaa715fa53","ios":"levelo://app?vid=70fb891d-bcc2-4fc6-84e0-3beaa715fa53"},"vehicle_type_id":"4","last_reported":1711206521,"current_range_meters":14800,"station_id":"ce4bgs12rcd13ifvqcag","pricing_plan_id":"cebpf4jnsgd1na2vs0mg"},{"bike_id":"581d37ef-fb18-45e7-a11c-c6dddc06a91f","system_id":"levelo_inurba_marseille","lat":43.30542,"lon":5.3653,"is_reserved":false,"is_disabled":false,"rental_uris":{"android":"levelo://app?vid=581d37ef-fb18-45e7-a11c-c6dddc06a91f","ios":"levelo://app?vid=581d37ef-fb18-45e7-a11c-c6dddc06a91f"},"vehicle_type_id":"4","last_reported":1711206521,"current_range_meters":12000,"station_id":"ce4bgs12rcd13ifvqcag","pricing_plan_id":"cebpf4jnsgd1na2vs0mg"},{"bike_id":"9ef0396f-5d8a-4aec-a167-fcac91c5e366","system_id":"levelo_inurba_marseille","lat":43.305989,"lon":5.37225,"is_reserved":false,"is_disabled":false,"rental_uris":{"android":"levelo://app?vid=9ef0396f-5d8a-4aec-a167-fcac91c5e366","ios":"levelo://app?vid=9ef0396f-5d8a-4aec-a167-fcac91c5e366"},"vehicle_type_id":"4","last_reported":1711206521,"current_range_meters":1200,"station_id":"ce4bgqh2rcd13ifvqc4g","pricing_plan_id":"cebpf4jnsgd1na2vs0mg"},{"bike_id":"1e824f40-c93c-42ad-aee3-c4e0f27d7a70","system_id":"levelo_inurba_marseille","lat":43.30525,"lon":5.3654,"is_reserved":false,"is_disabled":false,"rental_uris":{"android":"levelo://app?vid=1e824f40-c93c-42ad-aee3-c4e0f27d7a70","ios":"levelo://app?vid=1e824f40-c93c-42ad-aee3-c4e0f27d7a70"},"vehicle_type_id":"4","last_reported":1711206521,"current_range_meters":0,"station_id":"ce4bgs12rcd13ifvqcag","pricing_plan_id":"cebpf4jnsgd1na2vs0mg"},{"bike_id":"df39ee25-5646-4017-99a3-8417f65c789a","system_id":"levelo_inurba_marseille","lat":43.311131,"lon":5.377651,"is_reserved":false,"is_disabled":false,"rental_uris":{"android":"levelo://app?vid=df39ee25-5646-4017-99a3-8417f65c789a","ios":"levelo://app?vid=df39ee25-5646-4017-99a3-8417f65c789a"},"vehicle_type_id":"4","last_reported":1711206521,"current_range_meters":26000,"station_id":"ce4bgt92rcd13ifvqcg0","pricing_plan_id":"cebpf4jnsgd1na2vs0mg"},{"bike_id":"b916e65d-9470-4670-a63f-7acc05595928","system_id":"levelo_inurba_marseille","lat":43.319332,"lon":5.373994,"is_reserved":false,"is_disabled":false,"rental_uris":{"android":"levelo://app?vid=b916e65d-9470-4670-a63f-7acc05595928","ios":"levelo://app?vid=b916e65d-9470-4670-a63f-7acc05595928"},"vehicle_type_id":"4","last_reported":1711206521,"current_range_meters":25200,"station_id":"","pricing_plan_id":"cebpf4jnsgd1na2vs0mg"},{"bike_id":"89baa0f5-2ecc-45af-9da0-af6342318521","system_id":"levelo_inurba_marseille","lat":43.307945,"lon":5.376487,"is_reserved":false,"is_disabled":false,"rental_uris":{"android":"levelo://app?vid=89baa0f5-2ecc-45af-9da0-af6342318521","ios":"levelo://app?vid=89baa0f5-2ecc-45af-9da0-af6342318521"},"vehicle_type_id":"4","last_reported":1711206521,"current_range_meters":18000,"station_id":"ce4bgv92rcd13ifvqcq0","pricing_plan_id":"cebpf4jnsgd1na2vs0mg"},{"bike_id":"5d42763c-bc47-4efd-be92-cfc178b53479","system_id":"levelo_inurba_marseille","lat":43.303046,"lon":5.368981,"is_reserved":false,"is_disabled":false,"rental_uris":{"android":"levelo://app?vid=5d42763c-bc47-4efd-be92-cfc178b53479","ios":"levelo://app?vid=5d42763c-bc47-4efd-be92-cfc178b53479"},"vehicle_type_id":"4","last_reported":1711206521,"current_range_meters":4400,"station_id":"ce4bgqh2rcd13ifvqc5g","pricing_plan_id":"cebpf4jnsgd1na2vs0mg"},{"bike_id":"9814bf8f-dbdb-4420-9e01-eaa7b694cccc","system_id":"levelo_inurba_marseille","lat":43.315293,"lon":5.380349,"is_reserved":false,"is_disabled":false,"rental_uris":{"android":"levelo://app?vid=9814bf8f-dbdb-4420-9e01-eaa7b694cccc","ios":"levelo://app?vid=9814bf8f-dbdb-4420-9e01-eaa7b694cccc"},"vehicle_type_id":"4","last_reported":1711206521,"current_range_meters":20800,"station_id":"ce4bhsp2rcd13ifvqi50","pricing_plan_id":"cebpf4jnsgd1na2vs0mg"},{"bike_id":"e3383ab1-7d02-4f72-a3df-5c2cc4407be4","system_id":"levelo_inurba_marseille","lat":43.319996,"lon":5.376206,"is_reserved":false,"is_disabled":false,"rental_uris":{"android":"levelo://app?vid=e3383ab1-7d02-4f72-a3df-5c2cc4407be4","ios":"levelo://app?vid=e3383ab1-7d02-4f72-a3df-5c2cc4407be4"},"vehicle_type_id":"4","last_reported":1711206521,"current_range_meters":22000,"station_id":"","pricing_plan_id":"cebpf4jnsgd1na2vs0mg"},{"bike_id":"d2871816-2b21-48c9-af59-e8ce27dfd19b","system_id":"levelo_inurba_marseille","lat":43.315293,"lon":5.380349,"is_reserved":false,"is_disabled":false,"rental_uris":{"android":"levelo://app?vid=d2871816-2b21-48c9-af59-e8ce27dfd19b","ios":"levelo://app?vid=d2871816-2b21-48c9-af59-e8ce27dfd19b"},"vehicle_type_id":"4","last_reported":1711206521,"current_range_meters":4800,"station_id":"ce4bhsp2rcd13ifvqi50","pricing_plan_id":"cebpf4jnsgd1na2vs0mg"},{"bike_id":"59ae43c6-c3cc-45d8-ad2f-e5d809b60963","system_id":"levelo_inurba_marseille","lat":43.301939,"lon":5.366286,"is_reserved":false,"is_disabled":false,"rental_uris":{"android":"levelo://app?vid=59ae43c6-c3cc-45d8-ad2f-e5d809b60963","ios":"levelo://app?vid=59ae43c6-c3cc-45d8-ad2f-e5d809b60963"},"vehicle_type_id":"4","last_reported":1711206521,"current_range_meters":13600,"station_id":"ce4bgrh2rcd13ifvqc8g","pricing_plan_id":"cebpf4jnsgd1na2vs0mg"},{"bike_id":"4f006df7-4021-4894-a978-e7fbd68140e6","system_id":"levelo_inurba_marseille","lat":43.316094,"lon":5.381797,"is_reserved":false,"is_disabled":false,"rental_uris":{"android":"levelo://app?vid=4f006df7-4021-4894-a978-e7fbd68140e6","ios":"levelo://app?vid=4f006df7-4021-4894-a978-e7fbd68140e6"},"vehicle_type_id":"4","last_reported":1711206521,"current_range_meters":12800,"station_id":"","pricing_plan_id":"cebpf4jnsgd1na2vs0mg"},{"bike_id":"9e31e4df-210a-4c37-be53-ab1a0ebbfeb7","system_id":"levelo_inurba_marseille","lat":43.308012,"lon":5.381511,"is_reserved":false,"is_disabled":false,"rental_uris":{"android":"levelo://app?vid=9e31e4df-210a-4c37-be53-ab1a0ebbfeb7","ios":"levelo://app?vid=9e31e4df-210a-4c37-be53-ab1a0ebbfeb7"},"vehicle_type_id":"4","last_reported":1711206521,"current_range_meters":19600,"station_id":"ce4bgt12rcd13ifvqce0","pricing_plan_id":"cebpf4jnsgd1na2vs0mg"},{"bike_id":"25534609-5e38-4d95-a691-d5c571501aae","system_id":"levelo_inurba_marseille","lat":43.308012,"lon":5.381511,"is_reserved":false,"is_disabled":false,"rental_uris":{"android":"levelo://app?vid=25534609-5e38-4d95-a691-d5c571501aae","ios":"levelo://app?vid=25534609-5e38-4d95-a691-d5c571501aae"},"vehicle_type_id":"4","last_reported":1711206521,"current_range_meters":15200,"station_id":"ce4bgt12rcd13ifvqce0","pricing_plan_id":"cebpf4jnsgd1na2vs0mg"},{"bike_id":"b04f0eac-73f1-4ee1-b34e-bcdea45d25ea","system_id":"levelo_inurba_marseille","lat":43.301247,"lon":5.369397,"is_reserved":false,"is_disabled":false,"rental_uris":{"android":"levelo://app?vid=b04f0eac-73f1-4ee1-b34e-bcdea45d25ea","ios":"levelo://app?vid=b04f0eac-73f1-4ee1-b34e-bcdea45d25ea"},"vehicle_type_id":"4","last_reported":1711206521,"current_range_meters":9600,"station_id":"","pricing_plan_id":"cebpf4jnsgd1na2vs0mg"},{"bike_id":"08b3f346-3da5-4451-b60d-b58f492b2c92","system_id":"levelo_inurba_marseille","lat":43.304606,"lon":5.379026,"is_reserved":false,"is_disabled":false,"rental_uris":{"android":"levelo://app?vid=08b3f346-3da5-4451-b60d-b58f492b2c92","ios":"levelo://app?vid=08b3f346-3da5-4451-b60d-b58f492b2c92"},"vehicle_type_id":"4","last_reported":1711206521,"current_range_meters":23600,"station_id":"ce4bgup2rcd13ifvqcn0","pricing_plan_id":"cebpf4jnsgd1na2vs0mg"},{"bike_id":"9802ff54-a98c-4976-b0fc-3ace9aa7d25d","system_id":"levelo_inurba_marseille","lat":43.304606,"lon":5.379026,"is_reserved":false,"is_disabled":false,"rental_uris":{"android":"levelo://app?vid=9802ff54-a98c-4976-b0fc-3ace9aa7d25d","ios":"levelo://app?vid=9802ff54-a98c-4976-b0fc-3ace9aa7d25d"},"vehicle_type_id":"4","last_reported":1711206521,"current_range_meters":23600,"station_id":"ce4bgup2rcd13ifvqcn0","pricing_plan_id":"cebpf4jnsgd1na2vs0mg"},{"bike_id":"25644773-4c74-46c0-82c2-a7f44d97c39c","system_id":"levelo_inurba_marseille","lat":43.304606,"lon":5.379026,"is_reserved":false,"is_disabled":false,"rental_uris":{"android":"levelo://app?vid=25644773-4c74-46c0-82c2-a7f44d97c39c","ios":"levelo://app?vid=25644773-4c74-46c0-82c2-a7f44d97c39c"},"vehicle_type_id":"4","last_reported":1711206521,"current_range_meters":28000,"station_id":"ce4bgup2rcd13ifvqcn0","pricing_plan_id":"cebpf4jnsgd1na2vs0mg"},{"bike_id":"17ac63eb-fd64-4bd8-acea-a4e28ab873d6","system_id":"levelo_inurba_marseille","lat":43.304606,"lon":5.379026,"is_reserved":false,"is_disabled":false,"rental_uris":{"android":"levelo://app?vid=17ac63eb-fd64-4bd8-acea-a4e28ab873d6","ios":"levelo://app?vid=17ac63eb-fd64-4bd8-acea-a4e28ab873d6"},"vehicle_type_id":"4","last_reported":1711206521,"current_range_meters":4400,"station_id":"ce4bgup2rcd13ifvqcn0","pricing_plan_id":"cebpf4jnsgd1na2vs0mg"},{"bike_id":"df64d75a-c0e0-4c1d-87e8-50b85fddb7a0","system_id":"levelo_inurba_marseille","lat":43.304606,"lon":5.379026,"is_reserved":false,"is_disabled":false,"rental_uris":{"android":"levelo://app?vid=df64d75a-c0e0-4c1d-87e8-50b85fddb7a0","ios":"levelo://app?vid=df64d75a-c0e0-4c1d-87e8-50b85fddb7a0"},"vehicle_type_id":"4","last_reported":1711206521,"current_range_meters":21600,"station_id":"ce4bgup2rcd13ifvqcn0","pricing_plan_id":"cebpf4jnsgd1na2vs0mg"},{"bike_id":"113d1b61-bbca-4100-975d-9a6ac6cf7bd1","system_id":"levelo_inurba_marseille","lat":43.304606,"lon":5.379026,"is_reserved":false,"is_disabled":false,"rental_uris":{"android":"levelo://app?vid=113d1b61-bbca-4100-975d-9a6ac6cf7bd1","ios":"levelo://app?vid=113d1b61-bbca-4100-975d-9a6ac6cf7bd1"},"vehicle_type_id":"4","last_reported":1711206521,"current_range_meters":16800,"station_id":"ce4bgup2rcd13ifvqcn0","pricing_plan_id":"cebpf4jnsgd1na2vs0mg"},{"bike_id":"126ecf2d-772f-45b0-b112-c1a1dd315e7f","system_id":"levelo_inurba_marseille","lat":43.304606,"lon":5.379026,"is_reserved":false,"is_disabled":false,"rental_uris":{"android":"levelo://app?vid=126ecf2d-772f-45b0-b112-c1a1dd315e7f","ios":"levelo://app?vid=126ecf2d-772f-45b0-b112-c1a1dd315e7f"},"vehicle_type_id":"4","last_reported":1711206521,"current_range_meters":30000,"station_id":"ce4bgup2rcd13ifvqcn0","pricing_plan_id":"cebpf4jnsgd1na2vs0mg"},{"bike_id":"209c7e3d-d036-4adf-b383-b81a1bf5df9e","system_id":"levelo_inurba_marseille","lat":43.304606,"lon":5.379026,"is_reserved":false,"is_disabled":false,"rental_uris":{"android":"levelo://app?vid=209c7e3d-d036-4adf-b383-b81a1bf5df9e","ios":"levelo://app?vid=209c7e3d-d036-4adf-b383-b81a1bf5df9e"},"vehicle_type_id":"4","last_reported":1711206521,"current_range_meters":30800,"station_id":"ce4bgup2rcd13ifvqcn0","pricing_plan_id":"cebpf4jnsgd1na2vs0mg"},{"bike_id":"4887b6f2-bb57-4dca-8ecd-0c080ce17f2d","system_id":"levelo_inurba_marseille","lat":43.304606,"lon":5.379026,"is_reserved":false,"is_disabled":false,"rental_uris":{"android":"levelo://app?vid=4887b6f2-bb57-4dca-8ecd-0c080ce17f2d","ios":"levelo://app?vid=4887b6f2-bb57-4dca-8ecd-0c080ce17f2d"},"vehicle_type_id":"4","last_reported":1711206521,"current_range_meters":23600,"station_id":"ce4bgup2rcd13ifvqcn0","pricing_plan_id":"cebpf4jnsgd1na2vs0mg"},{"bike_id":"d7bbf469-0702-482a-9065-81a731bc5d18","system_id":"levelo_inurba_marseille","lat":43.324771,"lon":5.36557,"is_reserved":false,"is_disabled":false,"rental_uris":{"android":"levelo://app?vid=d7bbf469-0702-482a-9065-81a731bc5d18","ios":"levelo://app?vid=d7bbf469-0702-482a-9065-81a731bc5d18"},"vehicle_type_id":"4","last_reported":1711206521,"current_range_meters":2400,"station_id":"ce4bhs12rcd13ifvqhvg","pricing_plan_id":"cebpf4jnsgd1na2vs0mg"},{"bike_id":"b88553c7-39de-4a84-8d1f-6c11f9d43ddb","system_id":"levelo_inurba_marseille","lat":43.324771,"lon":5.36557,"is_reserved":false,"is_disabled":false,"rental_uris":{"android":"levelo://app?vid=b88553c7-39de-4a84-8d1f-6c11f9d43ddb","ios":"levelo://app?vid=b88553c7-39de-4a84-8d1f-6c11f9d43ddb"},"vehicle_type_id":"4","last_reported":1711206521,"current_range_meters":3200,"station_id":"ce4bhs12rcd13ifvqhvg","pricing_plan_id":"cebpf4jnsgd1na2vs0mg"},{"bike_id":"141e5bda-086e-40c8-a419-d68f520b4d36","system_id":"levelo_inurba_marseille","lat":43.304606,"lon":5.379026,"is_reserved":false,"is_disabled":false,"rental_uris":{"android":"levelo://app?vid=141e5bda-086e-40c8-a419-d68f520b4d36","ios":"levelo://app?vid=141e5bda-086e-40c8-a419-d68f520b4d36"},"vehicle_type_id":"4","last_reported":1711206521,"current_range_meters":27600,"station_id":"ce4bgup2rcd13ifvqcn0","pricing_plan_id":"cebpf4jnsgd1na2vs0mg"},{"bike_id":"dfe9e6dd-4c06-4ebf-ae19-930dc06bd06d","system_id":"levelo_inurba_marseille","lat":43.32476,"lon":5.36562,"is_reserved":false,"is_disabled":false,"rental_uris":{"android":"levelo://app?vid=dfe9e6dd-4c06-4ebf-ae19-930dc06bd06d","ios":"levelo://app?vid=dfe9e6dd-4c06-4ebf-ae19-930dc06bd06d"},"vehicle_type_id":"4","last_reported":1711206521,"current_range_meters":26400,"station_id":"ce4bhs12rcd13ifvqhvg","pricing_plan_id":"cebpf4jnsgd1na2vs0mg"},{"bike_id":"6cc20f86-eab6-4635-8f90-6882d139dbf5","system_id":"levelo_inurba_marseille","lat":43.324771,"lon":5.36557,"is_reserved":false,"is_disabled":false,"rental_uris":{"android":"levelo://app?vid=6cc20f86-eab6-4635-8f90-6882d139dbf5","ios":"levelo://app?vid=6cc20f86-eab6-4635-8f90-6882d139dbf5"},"vehicle_type_id":"4","last_reported":1711206521,"current_range_meters":28400,"station_id":"ce4bhs12rcd13ifvqhvg","pricing_plan_id":"cebpf4jnsgd1na2vs0mg"},{"bike_id":"fa05d3e5-f409-4e05-ace7-f6f819e528e8","system_id":"levelo_inurba_marseille","lat":43.324771,"lon":5.36557,"is_reserved":false,"is_disabled":false,"rental_uris":{"android":"levelo://app?vid=fa05d3e5-f409-4e05-ace7-f6f819e528e8","ios":"levelo://app?vid=fa05d3e5-f409-4e05-ace7-f6f819e528e8"},"vehicle_type_id":"4","last_reported":1711206521,"current_range_meters":4800,"station_id":"ce4bhs12rcd13ifvqhvg","pricing_plan_id":"cebpf4jnsgd1na2vs0mg"},{"bike_id":"4dd5e982-99eb-402b-9e42-7f84f6fe1ae1","system_id":"levelo_inurba_marseille","lat":43.324771,"lon":5.365621,"is_reserved":false,"is_disabled":false,"rental_uris":{"android":"levelo://app?vid=4dd5e982-99eb-402b-9e42-7f84f6fe1ae1","ios":"levelo://app?vid=4dd5e982-99eb-402b-9e42-7f84f6fe1ae1"},"vehicle_type_id":"4","last_reported":1711206521,"current_range_meters":11200,"station_id":"ce4bhs12rcd13ifvqhvg","pricing_plan_id":"cebpf4jnsgd1na2vs0mg"},{"bike_id":"49b4b39e-d044-4993-8f63-d33a7cae5419","system_id":"levelo_inurba_marseille","lat":43.324771,"lon":5.36557,"is_reserved":false,"is_disabled":false,"rental_uris":{"android":"levelo://app?vid=49b4b39e-d044-4993-8f63-d33a7cae5419","ios":"levelo://app?vid=49b4b39e-d044-4993-8f63-d33a7cae5419"},"vehicle_type_id":"4","last_reported":1711206521,"current_range_meters":12400,"station_id":"ce4bhs12rcd13ifvqhvg","pricing_plan_id":"cebpf4jnsgd1na2vs0mg"},{"bike_id":"28626ba8-215b-429a-9071-7af6dae9d600","system_id":"levelo_inurba_marseille","lat":43.324771,"lon":5.36557,"is_reserved":false,"is_disabled":false,"rental_uris":{"android":"levelo://app?vid=28626ba8-215b-429a-9071-7af6dae9d600","ios":"levelo://app?vid=28626ba8-215b-429a-9071-7af6dae9d600"},"vehicle_type_id":"4","last_reported":1711206521,"current_range_meters":4000,"station_id":"ce4bhs12rcd13ifvqhvg","pricing_plan_id":"cebpf4jnsgd1na2vs0mg"},{"bike_id":"ca7e6977-44ec-4b1f-8fe2-f0a04aa8303f","system_id":"levelo_inurba_marseille","lat":43.324771,"lon":5.36557,"is_reserved":false,"is_disabled":false,"rental_uris":{"android":"levelo://app?vid=ca7e6977-44ec-4b1f-8fe2-f0a04aa8303f","ios":"levelo://app?vid=ca7e6977-44ec-4b1f-8fe2-f0a04aa8303f"},"vehicle_type_id":"4","last_reported":1711206521,"current_range_meters":29200,"station_id":"ce4bhs12rcd13ifvqhvg","pricing_plan_id":"cebpf4jnsgd1na2vs0mg"},{"bike_id":"f0f9d843-f0d1-4631-9f89-0c035e6d9fd5","system_id":"levelo_inurba_marseille","lat":43.32483,"lon":5.36566,"is_reserved":false,"is_disabled":false,"rental_uris":{"android":"levelo://app?vid=f0f9d843-f0d1-4631-9f89-0c035e6d9fd5","ios":"levelo://app?vid=f0f9d843-f0d1-4631-9f89-0c035e6d9fd5"},"vehicle_type_id":"4","last_reported":1711206521,"current_range_meters":30400,"station_id":"ce4bhs12rcd13ifvqhvg","pricing_plan_id":"cebpf4jnsgd1na2vs0mg"},{"bike_id":"ca78449d-39d0-4d4b-be2e-9e933e31ee7c","system_id":"levelo_inurba_marseille","lat":43.324771,"lon":5.36557,"is_reserved":false,"is_disabled":false,"rental_uris":{"android":"levelo://app?vid=ca78449d-39d0-4d4b-be2e-9e933e31ee7c","ios":"levelo://app?vid=ca78449d-39d0-4d4b-be2e-9e933e31ee7c"},"vehicle_type_id":"4","last_reported":1711206521,"current_range_meters":7600,"station_id":"ce4bhs12rcd13ifvqhvg","pricing_plan_id":"cebpf4jnsgd1na2vs0mg"},{"bike_id":"382b6968-0dab-4dbd-98a6-21d242a4208c","system_id":"levelo_inurba_marseille","lat":43.32487,"lon":5.36566,"is_reserved":false,"is_disabled":false,"rental_uris":{"android":"levelo://app?vid=382b6968-0dab-4dbd-98a6-21d242a4208c","ios":"levelo://app?vid=382b6968-0dab-4dbd-98a6-21d242a4208c"},"vehicle_type_id":"4","last_reported":1711206521,"current_range_meters":2400,"station_id":"ce4bhs12rcd13ifvqhvg","pricing_plan_id":"cebpf4jnsgd1na2vs0mg"},{"bike_id":"1b529240-6960-439c-b147-5fe3c907faae","system_id":"levelo_inurba_marseille","lat":43.310804,"lon":5.38359,"is_reserved":false,"is_disabled":false,"rental_uris":{"android":"levelo://app?vid=1b529240-6960-439c-b147-5fe3c907faae","ios":"levelo://app?vid=1b529240-6960-439c-b147-5fe3c907faae"},"vehicle_type_id":"4","last_reported":1711206521,"current_range_meters":11200,"station_id":"ce4bgv92rcd13ifvqcr0","pricing_plan_id":"cebpf4jnsgd1na2vs0mg"},{"bike_id":"f11821b3-df31-46ff-a400-b53a6d548cf9","system_id":"levelo_inurba_marseille","lat":43.310804,"lon":5.38359,"is_reserved":false,"is_disabled":false,"rental_uris":{"android":"levelo://app?vid=f11821b3-df31-46ff-a400-b53a6d548cf9","ios":"levelo://app?vid=f11821b3-df31-46ff-a400-b53a6d548cf9"},"vehicle_type_id":"4","last_reported":1711206521,"current_range_meters":11200,"station_id":"ce4bgv92rcd13ifvqcr0","pricing_plan_id":"cebpf4jnsgd1na2vs0mg"},{"bike_id":"d74b317f-94f2-496b-87df-8dcc9e51dc12","system_id":"levelo_inurba_marseille","lat":43.310804,"lon":5.38359,"is_reserved":false,"is_disabled":false,"rental_uris":{"android":"levelo://app?vid=d74b317f-94f2-496b-87df-8dcc9e51dc12","ios":"levelo://app?vid=d74b317f-94f2-496b-87df-8dcc9e51dc12"},"vehicle_type_id":"4","last_reported":1711206521,"current_range_meters":22400,"station_id":"ce4bgv92rcd13ifvqcr0","pricing_plan_id":"cebpf4jnsgd1na2vs0mg"},{"bike_id":"fa83aaa2-9974-44d9-9611-1824112d958e","system_id":"levelo_inurba_marseille","lat":43.310804,"lon":5.38359,"is_reserved":false,"is_disabled":false,"rental_uris":{"android":"levelo://app?vid=fa83aaa2-9974-44d9-9611-1824112d958e","ios":"levelo://app?vid=fa83aaa2-9974-44d9-9611-1824112d958e"},"vehicle_type_id":"4","last_reported":1711206521,"current_range_meters":19600,"station_id":"ce4bgv92rcd13ifvqcr0","pricing_plan_id":"cebpf4jnsgd1na2vs0mg"},{"bike_id":"7ec9330a-d424-4387-9d75-66fd63337dbd","system_id":"levelo_inurba_marseille","lat":43.302784,"lon":5.377158,"is_reserved":false,"is_disabled":false,"rental_uris":{"android":"levelo://app?vid=7ec9330a-d424-4387-9d75-66fd63337dbd","ios":"levelo://app?vid=7ec9330a-d424-4387-9d75-66fd63337dbd"},"vehicle_type_id":"4","last_reported":1711206521,"current_range_meters":24400,"station_id":"ce4bguh2rcd13ifvqcj0","pricing_plan_id":"cebpf4jnsgd1na2vs0mg"},{"bike_id":"cf09ea9c-f38f-4727-b00f-76b3fd7956d7","system_id":"levelo_inurba_marseille","lat":43.302784,"lon":5.377158,"is_reserved":false,"is_disabled":false,"rental_uris":{"android":"levelo://app?vid=cf09ea9c-f38f-4727-b00f-76b3fd7956d7","ios":"levelo://app?vid=cf09ea9c-f38f-4727-b00f-76b3fd7956d7"},"vehicle_type_id":"4","last_reported":1711206521,"current_range_meters":12000,"station_id":"ce4bguh2rcd13ifvqcj0","pricing_plan_id":"cebpf4jnsgd1na2vs0mg"},{"bike_id":"efb53d63-8279-44ee-bdda-dd538e60645b","system_id":"levelo_inurba_marseille","lat":43.31077,"lon":5.38371,"is_reserved":false,"is_disabled":false,"rental_uris":{"android":"levelo://app?vid=efb53d63-8279-44ee-bdda-dd538e60645b","ios":"levelo://app?vid=efb53d63-8279-44ee-bdda-dd538e60645b"},"vehicle_type_id":"4","last_reported":1711206521,"current_range_meters":0,"station_id":"ce4bgv92rcd13ifvqcr0","pricing_plan_id":"cebpf4jnsgd1na2vs0mg"},{"bike_id":"1d0d1165-aea3-4cd4-8853-fd26eff6aceb","system_id":"levelo_inurba_marseille","lat":43.302784,"lon":5.377158,"is_reserved":false,"is_disabled":false,"rental_uris":{"android":"levelo://app?vid=1d0d1165-aea3-4cd4-8853-fd26eff6aceb","ios":"levelo://app?vid=1d0d1165-aea3-4cd4-8853-fd26eff6aceb"},"vehicle_type_id":"4","last_reported":1711206521,"current_range_meters":12800,"station_id":"ce4bguh2rcd13ifvqcj0","pricing_plan_id":"cebpf4jnsgd1na2vs0mg"},{"bike_id":"b7b67f5c-3a0b-4ce4-8b8f-58a3a42022ec","system_id":"levelo_inurba_marseille","lat":43.302784,"lon":5.377158,"is_reserved":false,"is_disabled":false,"rental_uris":{"android":"levelo://app?vid=b7b67f5c-3a0b-4ce4-8b8f-58a3a42022ec","ios":"levelo://app?vid=b7b67f5c-3a0b-4ce4-8b8f-58a3a42022ec"},"vehicle_type_id":"4","last_reported":1711206521,"current_range_meters":25200,"station_id":"ce4bguh2rcd13ifvqcj0","pricing_plan_id":"cebpf4jnsgd1na2vs0mg"},{"bike_id":"957e8652-851c-4f0c-bf05-111c6ee56873","system_id":"levelo_inurba_marseille","lat":43.301429,"lon":5.37413,"is_reserved":false,"is_disabled":false,"rental_uris":{"android":"levelo://app?vid=957e8652-851c-4f0c-bf05-111c6ee56873","ios":"levelo://app?vid=957e8652-851c-4f0c-bf05-111c6ee56873"},"vehicle_type_id":"4","last_reported":1711206521,"current_range_meters":14400,"station_id":"ce4bgs92rcd13ifvqcc0","pricing_plan_id":"cebpf4jnsgd1na2vs0mg"},{"bike_id":"63ccf56a-92c7-4ae6-a5db-810adac86deb","system_id":"levelo_inurba_marseille","lat":43.30143,"lon":5.37413,"is_reserved":false,"is_disabled":false,"rental_uris":{"android":"levelo://app?vid=63ccf56a-92c7-4ae6-a5db-810adac86deb","ios":"levelo://app?vid=63ccf56a-92c7-4ae6-a5db-810adac86deb"},"vehicle_type_id":"4","last_reported":1711206521,"current_range_meters":400,"station_id":"ce4bgs92rcd13ifvqcc0","pricing_plan_id":"cebpf4jnsgd1na2vs0mg"},{"bike_id":"cd1149ec-2a08-4306-bbae-237141f83fd0","system_id":"levelo_inurba_marseille","lat":43.30143,"lon":5.37413,"is_reserved":false,"is_disabled":false,"rental_uris":{"android":"levelo://app?vid=cd1149ec-2a08-4306-bbae-237141f83fd0","ios":"levelo://app?vid=cd1149ec-2a08-4306-bbae-237141f83fd0"},"vehicle_type_id":"4","last_reported":1711206521,"current_range_meters":4800,"station_id":"ce4bgs92rcd13ifvqcc0","pricing_plan_id":"cebpf4jnsgd1na2vs0mg"},{"bike_id":"bf1c826d-d8fe-496e-8eab-ee200fc93c13","system_id":"levelo_inurba_marseille","lat":43.30141,"lon":5.37426,"is_reserved":false,"is_disabled":false,"rental_uris":{"android":"levelo://app?vid=bf1c826d-d8fe-496e-8eab-ee200fc93c13","ios":"levelo://app?vid=bf1c826d-d8fe-496e-8eab-ee200fc93c13"},"vehicle_type_id":"4","last_reported":1711206521,"current_range_meters":1600,"station_id":"ce4bgs92rcd13ifvqcc0","pricing_plan_id":"cebpf4jnsgd1na2vs0mg"},{"bike_id":"c2d0db6c-a1e2-4ac0-b236-0202eacb17d6","system_id":"levelo_inurba_marseille","lat":43.313571,"lon":5.384829,"is_reserved":false,"is_disabled":false,"rental_uris":{"android":"levelo://app?vid=c2d0db6c-a1e2-4ac0-b236-0202eacb17d6","ios":"levelo://app?vid=c2d0db6c-a1e2-4ac0-b236-0202eacb17d6"},"vehicle_type_id":"4","last_reported":1711206521,"current_range_meters":7200,"station_id":"ce4bgt92rcd13ifvqcf0","pricing_plan_id":"cebpf4jnsgd1na2vs0mg"},{"bike_id":"cfd58aca-f1c6-43b5-bdb2-c2a219b3a278","system_id":"levelo_inurba_marseille","lat":43.313571,"lon":5.384829,"is_reserved":false,"is_disabled":false,"rental_uris":{"android":"levelo://app?vid=cfd58aca-f1c6-43b5-bdb2-c2a219b3a278","ios":"levelo://app?vid=cfd58aca-f1c6-43b5-bdb2-c2a219b3a278"},"vehicle_type_id":"4","last_reported":1711206521,"current_range_meters":14000,"station_id":"ce4bgt92rcd13ifvqcf0","pricing_plan_id":"cebpf4jnsgd1na2vs0mg"},{"bike_id":"14d8b33b-eff4-4f2c-9ed0-2f0dd841bffe","system_id":"levelo_inurba_marseille","lat":43.313571,"lon":5.384829,"is_reserved":false,"is_disabled":false,"rental_uris":{"android":"levelo://app?vid=14d8b33b-eff4-4f2c-9ed0-2f0dd841bffe","ios":"levelo://app?vid=14d8b33b-eff4-4f2c-9ed0-2f0dd841bffe"},"vehicle_type_id":"4","last_reported":1711206521,"current_range_meters":7600,"station_id":"ce4bgt92rcd13ifvqcf0","pricing_plan_id":"cebpf4jnsgd1na2vs0mg"},{"bike_id":"d1b25635-a54a-43f6-a635-5d1e9975d46a","system_id":"levelo_inurba_marseille","lat":43.299209,"lon":5.365547,"is_reserved":false,"is_disabled":false,"rental_uris":{"android":"levelo://app?vid=d1b25635-a54a-43f6-a635-5d1e9975d46a","ios":"levelo://app?vid=d1b25635-a54a-43f6-a635-5d1e9975d46a"},"vehicle_type_id":"4","last_reported":1711206521,"current_range_meters":2400,"station_id":"ce4bgm92rcd13ifvqbr0","pricing_plan_id":"cebpf4jnsgd1na2vs0mg"},{"bike_id":"d3d3ecf6-c2e9-4877-8f7f-9e118ba93da5","system_id":"levelo_inurba_marseille","lat":43.29986,"lon":5.3718,"is_reserved":false,"is_disabled":false,"rental_uris":{"android":"levelo://app?vid=d3d3ecf6-c2e9-4877-8f7f-9e118ba93da5","ios":"levelo://app?vid=d3d3ecf6-c2e9-4877-8f7f-9e118ba93da5"},"vehicle_type_id":"4","last_reported":1711206521,"current_range_meters":0,"station_id":"ce4bgr92rcd13ifvqc7g","pricing_plan_id":"cebpf4jnsgd1na2vs0mg"},{"bike_id":"daf570e5-b570-4475-b5c9-035db311ffcb","system_id":"levelo_inurba_marseille","lat":43.299222,"lon":5.365554,"is_reserved":false,"is_disabled":false,"rental_uris":{"android":"levelo://app?vid=daf570e5-b570-4475-b5c9-035db311ffcb","ios":"levelo://app?vid=daf570e5-b570-4475-b5c9-035db311ffcb"},"vehicle_type_id":"4","last_reported":1711206521,"current_range_meters":13600,"station_id":"ce4bgm92rcd13ifvqbr0","pricing_plan_id":"cebpf4jnsgd1na2vs0mg"},{"bike_id":"06792cc8-b131-47b9-8f48-4949e965de54","system_id":"levelo_inurba_marseille","lat":43.299209,"lon":5.365547,"is_reserved":false,"is_disabled":false,"rental_uris":{"android":"levelo://app?vid=06792cc8-b131-47b9-8f48-4949e965de54","ios":"levelo://app?vid=06792cc8-b131-47b9-8f48-4949e965de54"},"vehicle_type_id":"4","last_reported":1711206521,"current_range_meters":2000,"station_id":"ce4bgm92rcd13ifvqbr0","pricing_plan_id":"cebpf4jnsgd1na2vs0mg"},{"bike_id":"2ea63adf-806c-484b-bad9-b6e4239bc3d8","system_id":"levelo_inurba_marseille","lat":43.299222,"lon":5.365554,"is_reserved":false,"is_disabled":false,"rental_uris":{"android":"levelo://app?vid=2ea63adf-806c-484b-bad9-b6e4239bc3d8","ios":"levelo://app?vid=2ea63adf-806c-484b-bad9-b6e4239bc3d8"},"vehicle_type_id":"4","last_reported":1711206521,"current_range_meters":5200,"station_id":"ce4bgm92rcd13ifvqbr0","pricing_plan_id":"cebpf4jnsgd1na2vs0mg"},{"bike_id":"3d6280a4-d9a7-4a00-a465-4762961f519e","system_id":"levelo_inurba_marseille","lat":43.299209,"lon":5.365547,"is_reserved":false,"is_disabled":false,"rental_uris":{"android":"levelo://app?vid=3d6280a4-d9a7-4a00-a465-4762961f519e","ios":"levelo://app?vid=3d6280a4-d9a7-4a00-a465-4762961f519e"},"vehicle_type_id":"4","last_reported":1711206521,"current_range_meters":23200,"station_id":"ce4bgm92rcd13ifvqbr0","pricing_plan_id":"cebpf4jnsgd1na2vs0mg"},{"bike_id":"623894a1-5ddd-408a-9fb2-fbfb11db3370","system_id":"levelo_inurba_marseille","lat":43.299724,"lon":5.371829,"is_reserved":false,"is_disabled":false,"rental_uris":{"android":"levelo://app?vid=623894a1-5ddd-408a-9fb2-fbfb11db3370","ios":"levelo://app?vid=623894a1-5ddd-408a-9fb2-fbfb11db3370"},"vehicle_type_id":"4","last_reported":1711206521,"current_range_meters":20400,"station_id":"ce4bgr92rcd13ifvqc7g","pricing_plan_id":"cebpf4jnsgd1na2vs0mg"},{"bike_id":"a98ed8b5-4dad-4324-a14c-4e8f37b53134","system_id":"levelo_inurba_marseille","lat":43.299222,"lon":5.365554,"is_reserved":false,"is_disabled":false,"rental_uris":{"android":"levelo://app?vid=a98ed8b5-4dad-4324-a14c-4e8f37b53134","ios":"levelo://app?vid=a98ed8b5-4dad-4324-a14c-4e8f37b53134"},"vehicle_type_id":"4","last_reported":1711206521,"current_range_meters":0,"station_id":"ce4bgm92rcd13ifvqbr0","pricing_plan_id":"cebpf4jnsgd1na2vs0mg"},{"bike_id":"ab0b29b6-ebfb-4218-afa4-307a307b596a","system_id":"levelo_inurba_marseille","lat":43.298433,"lon":5.362774,"is_reserved":false,"is_disabled":false,"rental_uris":{"android":"levelo://app?vid=ab0b29b6-ebfb-4218-afa4-307a307b596a","ios":"levelo://app?vid=ab0b29b6-ebfb-4218-afa4-307a307b596a"},"vehicle_type_id":"4","last_reported":1711206521,"current_range_meters":19600,"station_id":"ce4bgpp2rcd13ifvqc3g","pricing_plan_id":"cebpf4jnsgd1na2vs0mg"},{"bike_id":"1759600d-e7dd-475d-ad46-1bd0578c2382","system_id":"levelo_inurba_marseille","lat":43.298433,"lon":5.362774,"is_reserved":false,"is_disabled":false,"rental_uris":{"android":"levelo://app?vid=1759600d-e7dd-475d-ad46-1bd0578c2382","ios":"levelo://app?vid=1759600d-e7dd-475d-ad46-1bd0578c2382"},"vehicle_type_id":"4","last_reported":1711206521,"current_range_meters":1200,"station_id":"ce4bgpp2rcd13ifvqc3g","pricing_plan_id":"cebpf4jnsgd1na2vs0mg"},{"bike_id":"e9b6b42f-9f9b-44df-9a85-caa1937847f2","system_id":"levelo_inurba_marseille","lat":43.298433,"lon":5.362774,"is_reserved":false,"is_disabled":false,"rental_uris":{"android":"levelo://app?vid=e9b6b42f-9f9b-44df-9a85-caa1937847f2","ios":"levelo://app?vid=e9b6b42f-9f9b-44df-9a85-caa1937847f2"},"vehicle_type_id":"4","last_reported":1711206521,"current_range_meters":28800,"station_id":"ce4bgpp2rcd13ifvqc3g","pricing_plan_id":"cebpf4jnsgd1na2vs0mg"},{"bike_id":"15676406-9041-4255-b998-504048c28442","system_id":"levelo_inurba_marseille","lat":43.29852,"lon":5.36287,"is_reserved":false,"is_disabled":false,"rental_uris":{"android":"levelo://app?vid=15676406-9041-4255-b998-504048c28442","ios":"levelo://app?vid=15676406-9041-4255-b998-504048c28442"},"vehicle_type_id":"4","last_reported":1711206521,"current_range_meters":25200,"station_id":"ce4bgpp2rcd13ifvqc3g","pricing_plan_id":"cebpf4jnsgd1na2vs0mg"},{"bike_id":"2dd5b0f7-5ab5-4ce5-ae6d-2a1d97387440","system_id":"levelo_inurba_marseille","lat":43.298433,"lon":5.362774,"is_reserved":false,"is_disabled":false,"rental_uris":{"android":"levelo://app?vid=2dd5b0f7-5ab5-4ce5-ae6d-2a1d97387440","ios":"levelo://app?vid=2dd5b0f7-5ab5-4ce5-ae6d-2a1d97387440"},"vehicle_type_id":"4","last_reported":1711206521,"current_range_meters":12400,"station_id":"ce4bgpp2rcd13ifvqc3g","pricing_plan_id":"cebpf4jnsgd1na2vs0mg"},{"bike_id":"17ca3cab-781f-489c-aaa5-f73fd498f93a","system_id":"levelo_inurba_marseille","lat":43.29851,"lon":5.36286,"is_reserved":false,"is_disabled":false,"rental_uris":{"android":"levelo://app?vid=17ca3cab-781f-489c-aaa5-f73fd498f93a","ios":"levelo://app?vid=17ca3cab-781f-489c-aaa5-f73fd498f93a"},"vehicle_type_id":"4","last_reported":1711206521,"current_range_meters":13200,"station_id":"ce4bgpp2rcd13ifvqc3g","pricing_plan_id":"cebpf4jnsgd1na2vs0mg"},{"bike_id":"a8900c9a-1c22-4e11-8ae8-99baff757076","system_id":"levelo_inurba_marseille","lat":43.298433,"lon":5.362774,"is_reserved":false,"is_disabled":false,"rental_uris":{"android":"levelo://app?vid=a8900c9a-1c22-4e11-8ae8-99baff757076","ios":"levelo://app?vid=a8900c9a-1c22-4e11-8ae8-99baff757076"},"vehicle_type_id":"4","last_reported":1711206521,"current_range_meters":3200,"station_id":"ce4bgpp2rcd13ifvqc3g","pricing_plan_id":"cebpf4jnsgd1na2vs0mg"},{"bike_id":"23014381-2ad4-422c-b2f5-beca86e76c11","system_id":"levelo_inurba_marseille","lat":43.298433,"lon":5.362774,"is_reserved":false,"is_disabled":false,"rental_uris":{"android":"levelo://app?vid=23014381-2ad4-422c-b2f5-beca86e76c11","ios":"levelo://app?vid=23014381-2ad4-422c-b2f5-beca86e76c11"},"vehicle_type_id":"4","last_reported":1711206521,"current_range_meters":30000,"station_id":"ce4bgpp2rcd13ifvqc3g","pricing_plan_id":"cebpf4jnsgd1na2vs0mg"},{"bike_id":"ad08ab7c-c77e-4d05-8dea-405979507dcb","system_id":"levelo_inurba_marseille","lat":43.298433,"lon":5.362774,"is_reserved":false,"is_disabled":false,"rental_uris":{"android":"levelo://app?vid=ad08ab7c-c77e-4d05-8dea-405979507dcb","ios":"levelo://app?vid=ad08ab7c-c77e-4d05-8dea-405979507dcb"},"vehicle_type_id":"4","last_reported":1711206521,"current_range_meters":25200,"station_id":"ce4bgpp2rcd13ifvqc3g","pricing_plan_id":"cebpf4jnsgd1na2vs0mg"},{"bike_id":"022a6e92-dd9e-4dc7-a803-02149b41f7ca","system_id":"levelo_inurba_marseille","lat":43.298433,"lon":5.362774,"is_reserved":false,"is_disabled":false,"rental_uris":{"android":"levelo://app?vid=022a6e92-dd9e-4dc7-a803-02149b41f7ca","ios":"levelo://app?vid=022a6e92-dd9e-4dc7-a803-02149b41f7ca"},"vehicle_type_id":"4","last_reported":1711206521,"current_range_meters":18400,"station_id":"ce4bgpp2rcd13ifvqc3g","pricing_plan_id":"cebpf4jnsgd1na2vs0mg"},{"bike_id":"60e53e91-c1e5-4921-88ef-d9fc25e17df1","system_id":"levelo_inurba_marseille","lat":43.298433,"lon":5.362774,"is_reserved":false,"is_disabled":false,"rental_uris":{"android":"levelo://app?vid=60e53e91-c1e5-4921-88ef-d9fc25e17df1","ios":"levelo://app?vid=60e53e91-c1e5-4921-88ef-d9fc25e17df1"},"vehicle_type_id":"4","last_reported":1711206521,"current_range_meters":12400,"station_id":"ce4bgpp2rcd13ifvqc3g","pricing_plan_id":"cebpf4jnsgd1na2vs0mg"},{"bike_id":"0234ff43-b9be-4bef-a59c-ef32b42480aa","system_id":"levelo_inurba_marseille","lat":43.298433,"lon":5.362774,"is_reserved":false,"is_disabled":false,"rental_uris":{"android":"levelo://app?vid=0234ff43-b9be-4bef-a59c-ef32b42480aa","ios":"levelo://app?vid=0234ff43-b9be-4bef-a59c-ef32b42480aa"},"vehicle_type_id":"4","last_reported":1711206521,"current_range_meters":13600,"station_id":"ce4bgpp2rcd13ifvqc3g","pricing_plan_id":"cebpf4jnsgd1na2vs0mg"},{"bike_id":"3686f517-e547-42d3-aec6-b9d8b7500c8c","system_id":"levelo_inurba_marseille","lat":43.298433,"lon":5.362774,"is_reserved":false,"is_disabled":false,"rental_uris":{"android":"levelo://app?vid=3686f517-e547-42d3-aec6-b9d8b7500c8c","ios":"levelo://app?vid=3686f517-e547-42d3-aec6-b9d8b7500c8c"},"vehicle_type_id":"4","last_reported":1711206521,"current_range_meters":11200,"station_id":"ce4bgpp2rcd13ifvqc3g","pricing_plan_id":"cebpf4jnsgd1na2vs0mg"},{"bike_id":"c1e9aff5-5edc-4f5c-b336-3003aff2118e","system_id":"levelo_inurba_marseille","lat":43.298433,"lon":5.362774,"is_reserved":false,"is_disabled":false,"rental_uris":{"android":"levelo://app?vid=c1e9aff5-5edc-4f5c-b336-3003aff2118e","ios":"levelo://app?vid=c1e9aff5-5edc-4f5c-b336-3003aff2118e"},"vehicle_type_id":"4","last_reported":1711206521,"current_range_meters":20800,"station_id":"ce4bgpp2rcd13ifvqc3g","pricing_plan_id":"cebpf4jnsgd1na2vs0mg"},{"bike_id":"ce115914-0e4b-44de-a3ec-8f6666c5c347","system_id":"levelo_inurba_marseille","lat":43.298433,"lon":5.362774,"is_reserved":false,"is_disabled":false,"rental_uris":{"android":"levelo://app?vid=ce115914-0e4b-44de-a3ec-8f6666c5c347","ios":"levelo://app?vid=ce115914-0e4b-44de-a3ec-8f6666c5c347"},"vehicle_type_id":"4","last_reported":1711206521,"current_range_meters":13600,"station_id":"ce4bgpp2rcd13ifvqc3g","pricing_plan_id":"cebpf4jnsgd1na2vs0mg"},{"bike_id":"431c4f39-aeab-4e4a-af86-1c40870827ae","system_id":"levelo_inurba_marseille","lat":43.298433,"lon":5.362774,"is_reserved":false,"is_disabled":false,"rental_uris":{"android":"levelo://app?vid=431c4f39-aeab-4e4a-af86-1c40870827ae","ios":"levelo://app?vid=431c4f39-aeab-4e4a-af86-1c40870827ae"},"vehicle_type_id":"4","last_reported":1711206521,"current_range_meters":22000,"station_id":"ce4bgpp2rcd13ifvqc3g","pricing_plan_id":"cebpf4jnsgd1na2vs0mg"},{"bike_id":"bee4e19d-7aef-4c8e-b1e5-ec519534ec49","system_id":"levelo_inurba_marseille","lat":43.298433,"lon":5.362774,"is_reserved":false,"is_disabled":false,"rental_uris":{"android":"levelo://app?vid=bee4e19d-7aef-4c8e-b1e5-ec519534ec49","ios":"levelo://app?vid=bee4e19d-7aef-4c8e-b1e5-ec519534ec49"},"vehicle_type_id":"4","last_reported":1711206521,"current_range_meters":28400,"station_id":"ce4bgpp2rcd13ifvqc3g","pricing_plan_id":"cebpf4jnsgd1na2vs0mg"},{"bike_id":"b142cf73-4906-42f7-a93e-b436539f5130","system_id":"levelo_inurba_marseille","lat":43.29847,"lon":5.36272,"is_reserved":false,"is_disabled":false,"rental_uris":{"android":"levelo://app?vid=b142cf73-4906-42f7-a93e-b436539f5130","ios":"levelo://app?vid=b142cf73-4906-42f7-a93e-b436539f5130"},"vehicle_type_id":"4","last_reported":1711206521,"current_range_meters":5600,"station_id":"ce4bgpp2rcd13ifvqc3g","pricing_plan_id":"cebpf4jnsgd1na2vs0mg"},{"bike_id":"c661fc30-ab5d-42fd-a61b-16717f0d7f03","system_id":"levelo_inurba_marseille","lat":43.298433,"lon":5.362774,"is_reserved":false,"is_disabled":false,"rental_uris":{"android":"levelo://app?vid=c661fc30-ab5d-42fd-a61b-16717f0d7f03","ios":"levelo://app?vid=c661fc30-ab5d-42fd-a61b-16717f0d7f03"},"vehicle_type_id":"4","last_reported":1711206521,"current_range_meters":16000,"station_id":"ce4bgpp2rcd13ifvqc3g","pricing_plan_id":"cebpf4jnsgd1na2vs0mg"},{"bike_id":"d29faf2f-ea5a-4925-9cf3-1a48398e7cde","system_id":"levelo_inurba_marseille","lat":43.29847,"lon":5.36267,"is_reserved":false,"is_disabled":false,"rental_uris":{"android":"levelo://app?vid=d29faf2f-ea5a-4925-9cf3-1a48398e7cde","ios":"levelo://app?vid=d29faf2f-ea5a-4925-9cf3-1a48398e7cde"},"vehicle_type_id":"4","last_reported":1711206521,"current_range_meters":30400,"station_id":"ce4bgpp2rcd13ifvqc3g","pricing_plan_id":"cebpf4jnsgd1na2vs0mg"},{"bike_id":"40dfd61c-4a10-454c-becf-7598a0c32bff","system_id":"levelo_inurba_marseille","lat":43.29845,"lon":5.36273,"is_reserved":false,"is_disabled":false,"rental_uris":{"android":"levelo://app?vid=40dfd61c-4a10-454c-becf-7598a0c32bff","ios":"levelo://app?vid=40dfd61c-4a10-454c-becf-7598a0c32bff"},"vehicle_type_id":"4","last_reported":1711206521,"current_range_meters":1200,"station_id":"ce4bgpp2rcd13ifvqc3g","pricing_plan_id":"cebpf4jnsgd1na2vs0mg"},{"bike_id":"ad497186-9533-4950-9859-79493ab3b1d6","system_id":"levelo_inurba_marseille","lat":43.298433,"lon":5.362774,"is_reserved":false,"is_disabled":false,"rental_uris":{"android":"levelo://app?vid=ad497186-9533-4950-9859-79493ab3b1d6","ios":"levelo://app?vid=ad497186-9533-4950-9859-79493ab3b1d6"},"vehicle_type_id":"4","last_reported":1711206521,"current_range_meters":15600,"station_id":"ce4bgpp2rcd13ifvqc3g","pricing_plan_id":"cebpf4jnsgd1na2vs0mg"},{"bike_id":"ca6b1632-6092-4520-bceb-6389317a0382","system_id":"levelo_inurba_marseille","lat":43.29846,"lon":5.36264,"is_reserved":false,"is_disabled":false,"rental_uris":{"android":"levelo://app?vid=ca6b1632-6092-4520-bceb-6389317a0382","ios":"levelo://app?vid=ca6b1632-6092-4520-bceb-6389317a0382"},"vehicle_type_id":"4","last_reported":1711206521,"current_range_meters":22000,"station_id":"ce4bgpp2rcd13ifvqc3g","pricing_plan_id":"cebpf4jnsgd1na2vs0mg"},{"bike_id":"c2d62f00-7f28-4a37-8a63-b6e6a997aeef","system_id":"levelo_inurba_marseille","lat":43.298433,"lon":5.362774,"is_reserved":false,"is_disabled":false,"rental_uris":{"android":"levelo://app?vid=c2d62f00-7f28-4a37-8a63-b6e6a997aeef","ios":"levelo://app?vid=c2d62f00-7f28-4a37-8a63-b6e6a997aeef"},"vehicle_type_id":"4","last_reported":1711206521,"current_range_meters":17600,"station_id":"ce4bgpp2rcd13ifvqc3g","pricing_plan_id":"cebpf4jnsgd1na2vs0mg"},{"bike_id":"023f1fa8-e31f-4dfd-b9e2-db2ca0d51ac5","system_id":"levelo_inurba_marseille","lat":43.298433,"lon":5.362774,"is_reserved":false,"is_disabled":false,"rental_uris":{"android":"levelo://app?vid=023f1fa8-e31f-4dfd-b9e2-db2ca0d51ac5","ios":"levelo://app?vid=023f1fa8-e31f-4dfd-b9e2-db2ca0d51ac5"},"vehicle_type_id":"4","last_reported":1711206521,"current_range_meters":16000,"station_id":"ce4bgpp2rcd13ifvqc3g","pricing_plan_id":"cebpf4jnsgd1na2vs0mg"},{"bike_id":"274895ac-ddaa-4b97-8e95-9fe42ca35cc2","system_id":"levelo_inurba_marseille","lat":43.298433,"lon":5.362774,"is_reserved":false,"is_disabled":false,"rental_uris":{"android":"levelo://app?vid=274895ac-ddaa-4b97-8e95-9fe42ca35cc2","ios":"levelo://app?vid=274895ac-ddaa-4b97-8e95-9fe42ca35cc2"},"vehicle_type_id":"4","last_reported":1711206521,"current_range_meters":1200,"station_id":"ce4bgpp2rcd13ifvqc3g","pricing_plan_id":"cebpf4jnsgd1na2vs0mg"},{"bike_id":"cb1b18c6-1441-4562-b9bf-99bb192e8aec","system_id":"levelo_inurba_marseille","lat":43.298433,"lon":5.362645,"is_reserved":false,"is_disabled":false,"rental_uris":{"android":"levelo://app?vid=cb1b18c6-1441-4562-b9bf-99bb192e8aec","ios":"levelo://app?vid=cb1b18c6-1441-4562-b9bf-99bb192e8aec"},"vehicle_type_id":"4","last_reported":1711206521,"current_range_meters":10000,"station_id":"ce4bgpp2rcd13ifvqc3g","pricing_plan_id":"cebpf4jnsgd1na2vs0mg"},{"bike_id":"6b0c4294-61c0-4a2c-be76-c40ff338c955","system_id":"levelo_inurba_marseille","lat":43.29841,"lon":5.36266,"is_reserved":false,"is_disabled":false,"rental_uris":{"android":"levelo://app?vid=6b0c4294-61c0-4a2c-be76-c40ff338c955","ios":"levelo://app?vid=6b0c4294-61c0-4a2c-be76-c40ff338c955"},"vehicle_type_id":"4","last_reported":1711206521,"current_range_meters":17600,"station_id":"ce4bgpp2rcd13ifvqc3g","pricing_plan_id":"cebpf4jnsgd1na2vs0mg"},{"bike_id":"15ec6540-cddc-4d96-abb4-5a8ad745c05f","system_id":"levelo_inurba_marseille","lat":43.311722,"lon":5.387247,"is_reserved":false,"is_disabled":false,"rental_uris":{"android":"levelo://app?vid=15ec6540-cddc-4d96-abb4-5a8ad745c05f","ios":"levelo://app?vid=15ec6540-cddc-4d96-abb4-5a8ad745c05f"},"vehicle_type_id":"4","last_reported":1711206521,"current_range_meters":2800,"station_id":"ce4bgv12rcd13ifvqcp0","pricing_plan_id":"cebpf4jnsgd1na2vs0mg"},{"bike_id":"6681505b-8d9d-4775-b83b-312e30f961d1","system_id":"levelo_inurba_marseille","lat":43.298433,"lon":5.362774,"is_reserved":false,"is_disabled":false,"rental_uris":{"android":"levelo://app?vid=6681505b-8d9d-4775-b83b-312e30f961d1","ios":"levelo://app?vid=6681505b-8d9d-4775-b83b-312e30f961d1"},"vehicle_type_id":"4","last_reported":1711206521,"current_range_meters":8400,"station_id":"ce4bgpp2rcd13ifvqc3g","pricing_plan_id":"cebpf4jnsgd1na2vs0mg"},{"bike_id":"f90f2413-4691-433c-96ec-c482c33df168","system_id":"levelo_inurba_marseille","lat":43.299243,"lon":5.37481,"is_reserved":false,"is_disabled":false,"rental_uris":{"android":"levelo://app?vid=f90f2413-4691-433c-96ec-c482c33df168","ios":"levelo://app?vid=f90f2413-4691-433c-96ec-c482c33df168"},"vehicle_type_id":"4","last_reported":1711206521,"current_range_meters":23200,"station_id":"ce4bgjh2rcd13ifvqbg0","pricing_plan_id":"cebpf4jnsgd1na2vs0mg"},{"bike_id":"d820384a-5286-4e69-ab57-8ab0e189ea2b","system_id":"levelo_inurba_marseille","lat":43.29837,"lon":5.36266,"is_reserved":false,"is_disabled":false,"rental_uris":{"android":"levelo://app?vid=d820384a-5286-4e69-ab57-8ab0e189ea2b","ios":"levelo://app?vid=d820384a-5286-4e69-ab57-8ab0e189ea2b"},"vehicle_type_id":"4","last_reported":1711206521,"current_range_meters":10800,"station_id":"ce4bgpp2rcd13ifvqc3g","pricing_plan_id":"cebpf4jnsgd1na2vs0mg"},{"bike_id":"aa96d42b-2498-424a-bff9-2dbbbeb67b76","system_id":"levelo_inurba_marseille","lat":43.297794,"lon":5.370888,"is_reserved":false,"is_disabled":false,"rental_uris":{"android":"levelo://app?vid=aa96d42b-2498-424a-bff9-2dbbbeb67b76","ios":"levelo://app?vid=aa96d42b-2498-424a-bff9-2dbbbeb67b76"},"vehicle_type_id":"4","last_reported":1711206521,"current_range_meters":30000,"station_id":"ce4bgop2rcd13ifvqc1g","pricing_plan_id":"cebpf4jnsgd1na2vs0mg"},{"bike_id":"feead7e7-9cee-4c57-94a6-da647512767c","system_id":"levelo_inurba_marseille","lat":43.322896,"lon":5.382515,"is_reserved":false,"is_disabled":false,"rental_uris":{"android":"levelo://app?vid=feead7e7-9cee-4c57-94a6-da647512767c","ios":"levelo://app?vid=feead7e7-9cee-4c57-94a6-da647512767c"},"vehicle_type_id":"4","last_reported":1711206521,"current_range_meters":6800,"station_id":"ce4bhr12rcd13ifvqhqg","pricing_plan_id":"cebpf4jnsgd1na2vs0mg"},{"bike_id":"8b004ee8-7400-4db7-97a8-7a3b78ef5c51","system_id":"levelo_inurba_marseille","lat":43.32285,"lon":5.38258,"is_reserved":false,"is_disabled":false,"rental_uris":{"android":"levelo://app?vid=8b004ee8-7400-4db7-97a8-7a3b78ef5c51","ios":"levelo://app?vid=8b004ee8-7400-4db7-97a8-7a3b78ef5c51"},"vehicle_type_id":"4","last_reported":1711206521,"current_range_meters":28800,"station_id":"ce4bhr12rcd13ifvqhqg","pricing_plan_id":"cebpf4jnsgd1na2vs0mg"},{"bike_id":"f7cdb917-7c69-4b82-9b7d-1c0276628a1d","system_id":"levelo_inurba_marseille","lat":43.297794,"lon":5.370888,"is_reserved":false,"is_disabled":false,"rental_uris":{"android":"levelo://app?vid=f7cdb917-7c69-4b82-9b7d-1c0276628a1d","ios":"levelo://app?vid=f7cdb917-7c69-4b82-9b7d-1c0276628a1d"},"vehicle_type_id":"4","last_reported":1711206521,"current_range_meters":25600,"station_id":"ce4bgop2rcd13ifvqc1g","pricing_plan_id":"cebpf4jnsgd1na2vs0mg"},{"bike_id":"3ff125a5-dff1-4591-b6cc-449dc2424878","system_id":"levelo_inurba_marseille","lat":43.32285,"lon":5.38268,"is_reserved":false,"is_disabled":false,"rental_uris":{"android":"levelo://app?vid=3ff125a5-dff1-4591-b6cc-449dc2424878","ios":"levelo://app?vid=3ff125a5-dff1-4591-b6cc-449dc2424878"},"vehicle_type_id":"4","last_reported":1711206521,"current_range_meters":6000,"station_id":"ce4bhr12rcd13ifvqhqg","pricing_plan_id":"cebpf4jnsgd1na2vs0mg"},{"bike_id":"4f4a75fa-11e1-4b9c-9fc5-7e2938322638","system_id":"levelo_inurba_marseille","lat":43.32287,"lon":5.3827,"is_reserved":false,"is_disabled":false,"rental_uris":{"android":"levelo://app?vid=4f4a75fa-11e1-4b9c-9fc5-7e2938322638","ios":"levelo://app?vid=4f4a75fa-11e1-4b9c-9fc5-7e2938322638"},"vehicle_type_id":"4","last_reported":1711206521,"current_range_meters":11600,"station_id":"ce4bhr12rcd13ifvqhqg","pricing_plan_id":"cebpf4jnsgd1na2vs0mg"},{"bike_id":"6778861f-913f-46d7-9610-423069fb6471","system_id":"levelo_inurba_marseille","lat":43.322906,"lon":5.382668,"is_reserved":false,"is_disabled":false,"rental_uris":{"android":"levelo://app?vid=6778861f-913f-46d7-9610-423069fb6471","ios":"levelo://app?vid=6778861f-913f-46d7-9610-423069fb6471"},"vehicle_type_id":"4","last_reported":1711206521,"current_range_meters":8800,"station_id":"ce4bhr12rcd13ifvqhqg","pricing_plan_id":"cebpf4jnsgd1na2vs0mg"},{"bike_id":"85d4d71c-b2c1-426a-b0b8-be8461195f7e","system_id":"levelo_inurba_marseille","lat":43.322872,"lon":5.382756,"is_reserved":false,"is_disabled":false,"rental_uris":{"android":"levelo://app?vid=85d4d71c-b2c1-426a-b0b8-be8461195f7e","ios":"levelo://app?vid=85d4d71c-b2c1-426a-b0b8-be8461195f7e"},"vehicle_type_id":"4","last_reported":1711206521,"current_range_meters":30800,"station_id":"ce4bhr12rcd13ifvqhqg","pricing_plan_id":"cebpf4jnsgd1na2vs0mg"},{"bike_id":"9607cebd-f2b1-4cda-94e6-b812c1eeae5d","system_id":"levelo_inurba_marseille","lat":43.322872,"lon":5.382756,"is_reserved":false,"is_disabled":false,"rental_uris":{"android":"levelo://app?vid=9607cebd-f2b1-4cda-94e6-b812c1eeae5d","ios":"levelo://app?vid=9607cebd-f2b1-4cda-94e6-b812c1eeae5d"},"vehicle_type_id":"4","last_reported":1711206521,"current_range_meters":17200,"station_id":"ce4bhr12rcd13ifvqhqg","pricing_plan_id":"cebpf4jnsgd1na2vs0mg"},{"bike_id":"36727d06-0af4-4c64-88de-4193d3d2494b","system_id":"levelo_inurba_marseille","lat":43.32296,"lon":5.38266,"is_reserved":false,"is_disabled":false,"rental_uris":{"android":"levelo://app?vid=36727d06-0af4-4c64-88de-4193d3d2494b","ios":"levelo://app?vid=36727d06-0af4-4c64-88de-4193d3d2494b"},"vehicle_type_id":"4","last_reported":1711206521,"current_range_meters":0,"station_id":"ce4bhr12rcd13ifvqhqg","pricing_plan_id":"cebpf4jnsgd1na2vs0mg"},{"bike_id":"d2132f33-8d37-458a-9c43-c14da6405c03","system_id":"levelo_inurba_marseille","lat":43.322872,"lon":5.382756,"is_reserved":false,"is_disabled":false,"rental_uris":{"android":"levelo://app?vid=d2132f33-8d37-458a-9c43-c14da6405c03","ios":"levelo://app?vid=d2132f33-8d37-458a-9c43-c14da6405c03"},"vehicle_type_id":"4","last_reported":1711206521,"current_range_meters":23200,"station_id":"ce4bhr12rcd13ifvqhqg","pricing_plan_id":"cebpf4jnsgd1na2vs0mg"},{"bike_id":"e1311c4d-72c7-47d1-bcc6-6599c0a99071","system_id":"levelo_inurba_marseille","lat":43.297163,"lon":5.365866,"is_reserved":false,"is_disabled":false,"rental_uris":{"android":"levelo://app?vid=e1311c4d-72c7-47d1-bcc6-6599c0a99071","ios":"levelo://app?vid=e1311c4d-72c7-47d1-bcc6-6599c0a99071"},"vehicle_type_id":"4","last_reported":1711206521,"current_range_meters":24000,"station_id":"ce4bgn12rcd13ifvqbt0","pricing_plan_id":"cebpf4jnsgd1na2vs0mg"},{"bike_id":"b01ccec0-ffe8-46b0-8356-dbc297687867","system_id":"levelo_inurba_marseille","lat":43.297163,"lon":5.365866,"is_reserved":false,"is_disabled":false,"rental_uris":{"android":"levelo://app?vid=b01ccec0-ffe8-46b0-8356-dbc297687867","ios":"levelo://app?vid=b01ccec0-ffe8-46b0-8356-dbc297687867"},"vehicle_type_id":"4","last_reported":1711206521,"current_range_meters":26400,"station_id":"ce4bgn12rcd13ifvqbt0","pricing_plan_id":"cebpf4jnsgd1na2vs0mg"},{"bike_id":"83661cd0-997f-4766-ac84-015b9cc5ae82","system_id":"levelo_inurba_marseille","lat":43.297163,"lon":5.365866,"is_reserved":false,"is_disabled":false,"rental_uris":{"android":"levelo://app?vid=83661cd0-997f-4766-ac84-015b9cc5ae82","ios":"levelo://app?vid=83661cd0-997f-4766-ac84-015b9cc5ae82"},"vehicle_type_id":"4","last_reported":1711206521,"current_range_meters":14000,"station_id":"ce4bgn12rcd13ifvqbt0","pricing_plan_id":"cebpf4jnsgd1na2vs0mg"},{"bike_id":"4c8dafd6-69f3-4db5-8280-efb2fec32e7c","system_id":"levelo_inurba_marseille","lat":43.297163,"lon":5.365866,"is_reserved":false,"is_disabled":false,"rental_uris":{"android":"levelo://app?vid=4c8dafd6-69f3-4db5-8280-efb2fec32e7c","ios":"levelo://app?vid=4c8dafd6-69f3-4db5-8280-efb2fec32e7c"},"vehicle_type_id":"4","last_reported":1711206521,"current_range_meters":30000,"station_id":"ce4bgn12rcd13ifvqbt0","pricing_plan_id":"cebpf4jnsgd1na2vs0mg"},{"bike_id":"27f18382-1b4b-4835-837f-8640339cb8e6","system_id":"levelo_inurba_marseille","lat":43.297163,"lon":5.365866,"is_reserved":false,"is_disabled":false,"rental_uris":{"android":"levelo://app?vid=27f18382-1b4b-4835-837f-8640339cb8e6","ios":"levelo://app?vid=27f18382-1b4b-4835-837f-8640339cb8e6"},"vehicle_type_id":"4","last_reported":1711206521,"current_range_meters":31200,"station_id":"ce4bgn12rcd13ifvqbt0","pricing_plan_id":"cebpf4jnsgd1na2vs0mg"},{"bike_id":"1abc23ef-5db2-44e6-96ec-c92667e76865","system_id":"levelo_inurba_marseille","lat":43.29573,"lon":5.367355,"is_reserved":false,"is_disabled":false,"rental_uris":{"android":"levelo://app?vid=1abc23ef-5db2-44e6-96ec-c92667e76865","ios":"levelo://app?vid=1abc23ef-5db2-44e6-96ec-c92667e76865"},"vehicle_type_id":"4","last_reported":1711206521,"current_range_meters":11200,"station_id":"ce4bgph2rcd13ifvqc2g","pricing_plan_id":"cebpf4jnsgd1na2vs0mg"},{"bike_id":"a469fd01-0d24-4bae-85d7-9a0dadc9478c","system_id":"levelo_inurba_marseille","lat":43.29573,"lon":5.367355,"is_reserved":false,"is_disabled":false,"rental_uris":{"android":"levelo://app?vid=a469fd01-0d24-4bae-85d7-9a0dadc9478c","ios":"levelo://app?vid=a469fd01-0d24-4bae-85d7-9a0dadc9478c"},"vehicle_type_id":"4","last_reported":1711206521,"current_range_meters":0,"station_id":"ce4bgph2rcd13ifvqc2g","pricing_plan_id":"cebpf4jnsgd1na2vs0mg"},{"bike_id":"1794a714-09e9-4082-8249-ecbfb746cea8","system_id":"levelo_inurba_marseille","lat":43.29916,"lon":5.38141,"is_reserved":false,"is_disabled":false,"rental_uris":{"android":"levelo://app?vid=1794a714-09e9-4082-8249-ecbfb746cea8","ios":"levelo://app?vid=1794a714-09e9-4082-8249-ecbfb746cea8"},"vehicle_type_id":"4","last_reported":1711206521,"current_range_meters":0,"station_id":"ce4bgj12rcd13ifvqbc0","pricing_plan_id":"cebpf4jnsgd1na2vs0mg"},{"bike_id":"ab57cbf1-8b04-4cce-8419-32c8758682ce","system_id":"levelo_inurba_marseille","lat":43.296921,"lon":5.376579,"is_reserved":false,"is_disabled":false,"rental_uris":{"android":"levelo://app?vid=ab57cbf1-8b04-4cce-8419-32c8758682ce","ios":"levelo://app?vid=ab57cbf1-8b04-4cce-8419-32c8758682ce"},"vehicle_type_id":"4","last_reported":1711206521,"current_range_meters":0,"station_id":"ce4bgkh2rcd13ifvqbl0","pricing_plan_id":"cebpf4jnsgd1na2vs0mg"},{"bike_id":"ed93a4b6-ae02-4baf-94ef-fad7d3e583d5","system_id":"levelo_inurba_marseille","lat":43.309589,"lon":5.390258,"is_reserved":false,"is_disabled":false,"rental_uris":{"android":"levelo://app?vid=ed93a4b6-ae02-4baf-94ef-fad7d3e583d5","ios":"levelo://app?vid=ed93a4b6-ae02-4baf-94ef-fad7d3e583d5"},"vehicle_type_id":"4","last_reported":1711206521,"current_range_meters":11600,"station_id":"ce4bgup2rcd13ifvqco0","pricing_plan_id":"cebpf4jnsgd1na2vs0mg"},{"bike_id":"8038916e-1d0c-4aef-9319-ddb1489fca3e","system_id":"levelo_inurba_marseille","lat":43.317497,"lon":5.390148,"is_reserved":false,"is_disabled":false,"rental_uris":{"android":"levelo://app?vid=8038916e-1d0c-4aef-9319-ddb1489fca3e","ios":"levelo://app?vid=8038916e-1d0c-4aef-9319-ddb1489fca3e"},"vehicle_type_id":"4","last_reported":1711206521,"current_range_meters":2400,"station_id":"ce4bhqp2rcd13ifvqhng","pricing_plan_id":"cebpf4jnsgd1na2vs0mg"},{"bike_id":"ae099169-3dcc-4af0-ab78-7bd2e2a2ee9e","system_id":"levelo_inurba_marseille","lat":43.317557,"lon":5.390173,"is_reserved":false,"is_disabled":false,"rental_uris":{"android":"levelo://app?vid=ae099169-3dcc-4af0-ab78-7bd2e2a2ee9e","ios":"levelo://app?vid=ae099169-3dcc-4af0-ab78-7bd2e2a2ee9e"},"vehicle_type_id":"4","last_reported":1711206521,"current_range_meters":6000,"station_id":"ce4bhqp2rcd13ifvqhng","pricing_plan_id":"cebpf4jnsgd1na2vs0mg"},{"bike_id":"64faaf0e-8299-47ab-9335-1274f7d2f7f6","system_id":"levelo_inurba_marseille","lat":43.317501,"lon":5.390183,"is_reserved":false,"is_disabled":false,"rental_uris":{"android":"levelo://app?vid=64faaf0e-8299-47ab-9335-1274f7d2f7f6","ios":"levelo://app?vid=64faaf0e-8299-47ab-9335-1274f7d2f7f6"},"vehicle_type_id":"4","last_reported":1711206521,"current_range_meters":12000,"station_id":"ce4bhqp2rcd13ifvqhng","pricing_plan_id":"cebpf4jnsgd1na2vs0mg"},{"bike_id":"8613e140-9742-4900-beb7-bb86bd73b07a","system_id":"levelo_inurba_marseille","lat":43.317557,"lon":5.390173,"is_reserved":false,"is_disabled":false,"rental_uris":{"android":"levelo://app?vid=8613e140-9742-4900-beb7-bb86bd73b07a","ios":"levelo://app?vid=8613e140-9742-4900-beb7-bb86bd73b07a"},"vehicle_type_id":"4","last_reported":1711206521,"current_range_meters":2800,"station_id":"ce4bhqp2rcd13ifvqhng","pricing_plan_id":"cebpf4jnsgd1na2vs0mg"},{"bike_id":"a84494ff-e488-44c6-9347-0b89aeb12141","system_id":"levelo_inurba_marseille","lat":43.317557,"lon":5.390173,"is_reserved":false,"is_disabled":false,"rental_uris":{"android":"levelo://app?vid=a84494ff-e488-44c6-9347-0b89aeb12141","ios":"levelo://app?vid=a84494ff-e488-44c6-9347-0b89aeb12141"},"vehicle_type_id":"4","last_reported":1711206521,"current_range_meters":9600,"station_id":"ce4bhqp2rcd13ifvqhng","pricing_plan_id":"cebpf4jnsgd1na2vs0mg"},{"bike_id":"927cb6c2-5637-4339-8f09-0f7a93727d8c","system_id":"levelo_inurba_marseille","lat":43.295748,"lon":5.37522,"is_reserved":false,"is_disabled":false,"rental_uris":{"android":"levelo://app?vid=927cb6c2-5637-4339-8f09-0f7a93727d8c","ios":"levelo://app?vid=927cb6c2-5637-4339-8f09-0f7a93727d8c"},"vehicle_type_id":"4","last_reported":1711206521,"current_range_meters":23200,"station_id":"ce4bgh92rcd13ifvqb50","pricing_plan_id":"cebpf4jnsgd1na2vs0mg"},{"bike_id":"6636046c-56a8-463e-a542-49bb04833d77","system_id":"levelo_inurba_marseille","lat":43.297919,"lon":5.380983,"is_reserved":false,"is_disabled":false,"rental_uris":{"android":"levelo://app?vid=6636046c-56a8-463e-a542-49bb04833d77","ios":"levelo://app?vid=6636046c-56a8-463e-a542-49bb04833d77"},"vehicle_type_id":"4","last_reported":1711206521,"current_range_meters":0,"station_id":"ce4bgip2rcd13ifvqbb0","pricing_plan_id":"cebpf4jnsgd1na2vs0mg"},{"bike_id":"a996181a-c230-4fb5-a3ce-278f9ce0bd59","system_id":"levelo_inurba_marseille","lat":43.29572,"lon":5.37522,"is_reserved":false,"is_disabled":false,"rental_uris":{"android":"levelo://app?vid=a996181a-c230-4fb5-a3ce-278f9ce0bd59","ios":"levelo://app?vid=a996181a-c230-4fb5-a3ce-278f9ce0bd59"},"vehicle_type_id":"4","last_reported":1711206521,"current_range_meters":0,"station_id":"ce4bgh92rcd13ifvqb50","pricing_plan_id":"cebpf4jnsgd1na2vs0mg"},{"bike_id":"4b7f0a27-c8dc-4b45-bf89-89e4d066ecc5","system_id":"levelo_inurba_marseille","lat":43.304278,"lon":5.388868,"is_reserved":false,"is_disabled":false,"rental_uris":{"android":"levelo://app?vid=4b7f0a27-c8dc-4b45-bf89-89e4d066ecc5","ios":"levelo://app?vid=4b7f0a27-c8dc-4b45-bf89-89e4d066ecc5"},"vehicle_type_id":"4","last_reported":1711206521,"current_range_meters":1200,"station_id":"ce4bgk12rcd13ifvqbi0","pricing_plan_id":"cebpf4jnsgd1na2vs0mg"},{"bike_id":"ae3be9be-f4c9-478a-aa90-7930485bb63a","system_id":"levelo_inurba_marseille","lat":43.29619,"lon":5.37723,"is_reserved":false,"is_disabled":false,"rental_uris":{"android":"levelo://app?vid=ae3be9be-f4c9-478a-aa90-7930485bb63a","ios":"levelo://app?vid=ae3be9be-f4c9-478a-aa90-7930485bb63a"},"vehicle_type_id":"4","last_reported":1711206521,"current_range_meters":0,"station_id":"ce4bgi92rcd13ifvqb90","pricing_plan_id":"cebpf4jnsgd1na2vs0mg"},{"bike_id":"945f74cc-ee55-4e1c-a723-39f7052c7d81","system_id":"levelo_inurba_marseille","lat":43.29614,"lon":5.377243,"is_reserved":false,"is_disabled":false,"rental_uris":{"android":"levelo://app?vid=945f74cc-ee55-4e1c-a723-39f7052c7d81","ios":"levelo://app?vid=945f74cc-ee55-4e1c-a723-39f7052c7d81"},"vehicle_type_id":"4","last_reported":1711206521,"current_range_meters":0,"station_id":"ce4bgi92rcd13ifvqb90","pricing_plan_id":"cebpf4jnsgd1na2vs0mg"},{"bike_id":"617b0e6f-676e-40f0-bbaf-c9395e5b4dcd","system_id":"levelo_inurba_marseille","lat":43.314626,"lon":5.392136,"is_reserved":false,"is_disabled":false,"rental_uris":{"android":"levelo://app?vid=617b0e6f-676e-40f0-bbaf-c9395e5b4dcd","ios":"levelo://app?vid=617b0e6f-676e-40f0-bbaf-c9395e5b4dcd"},"vehicle_type_id":"4","last_reported":1711206521,"current_range_meters":11200,"station_id":"","pricing_plan_id":"cebpf4jnsgd1na2vs0mg"},{"bike_id":"b90736ca-310e-45bd-80d2-c99216a55662","system_id":"levelo_inurba_marseille","lat":43.295147,"lon":5.37507,"is_reserved":false,"is_disabled":false,"rental_uris":{"android":"levelo://app?vid=b90736ca-310e-45bd-80d2-c99216a55662","ios":"levelo://app?vid=b90736ca-310e-45bd-80d2-c99216a55662"},"vehicle_type_id":"4","last_reported":1711206521,"current_range_meters":0,"station_id":"ce4bgkp2rcd13ifvqbmg","pricing_plan_id":"cebpf4jnsgd1na2vs0mg"},{"bike_id":"5dd7c912-a4be-4129-b8da-2dd1c28b5631","system_id":"levelo_inurba_marseille","lat":43.2951,"lon":5.37505,"is_reserved":false,"is_disabled":false,"rental_uris":{"android":"levelo://app?vid=5dd7c912-a4be-4129-b8da-2dd1c28b5631","ios":"levelo://app?vid=5dd7c912-a4be-4129-b8da-2dd1c28b5631"},"vehicle_type_id":"4","last_reported":1711206521,"current_range_meters":14400,"station_id":"ce4bgkp2rcd13ifvqbmg","pricing_plan_id":"cebpf4jnsgd1na2vs0mg"},{"bike_id":"b35a3a5e-3c64-48c4-bac6-d9a047955913","system_id":"levelo_inurba_marseille","lat":43.300852,"lon":5.390859,"is_reserved":false,"is_disabled":false,"rental_uris":{"android":"levelo://app?vid=b35a3a5e-3c64-48c4-bac6-d9a047955913","ios":"levelo://app?vid=b35a3a5e-3c64-48c4-bac6-d9a047955913"},"vehicle_type_id":"4","last_reported":1711206521,"current_range_meters":3600,"station_id":"ce4bh192rcd13ifvqdb0","pricing_plan_id":"cebpf4jnsgd1na2vs0mg"},{"bike_id":"cd3ad0dd-115f-4e17-bc69-39e1287d5727","system_id":"levelo_inurba_marseille","lat":43.32365,"lon":5.38881,"is_reserved":false,"is_disabled":false,"rental_uris":{"android":"levelo://app?vid=cd3ad0dd-115f-4e17-bc69-39e1287d5727","ios":"levelo://app?vid=cd3ad0dd-115f-4e17-bc69-39e1287d5727"},"vehicle_type_id":"4","last_reported":1711206521,"current_range_meters":6400,"station_id":"ce4bhqp2rcd13ifvqhog","pricing_plan_id":"cebpf4jnsgd1na2vs0mg"},{"bike_id":"f9f23bf2-f39b-48ab-bde5-deddb20735fe","system_id":"levelo_inurba_marseille","lat":43.3237,"lon":5.38877,"is_reserved":false,"is_disabled":false,"rental_uris":{"android":"levelo://app?vid=f9f23bf2-f39b-48ab-bde5-deddb20735fe","ios":"levelo://app?vid=f9f23bf2-f39b-48ab-bde5-deddb20735fe"},"vehicle_type_id":"4","last_reported":1711206521,"current_range_meters":800,"station_id":"ce4bhqp2rcd13ifvqhog","pricing_plan_id":"cebpf4jnsgd1na2vs0mg"},{"bike_id":"75d91af0-49c2-4820-8af8-bf7eb3f14b71","system_id":"levelo_inurba_marseille","lat":43.32367,"lon":5.388836,"is_reserved":false,"is_disabled":false,"rental_uris":{"android":"levelo://app?vid=75d91af0-49c2-4820-8af8-bf7eb3f14b71","ios":"levelo://app?vid=75d91af0-49c2-4820-8af8-bf7eb3f14b71"},"vehicle_type_id":"4","last_reported":1711206521,"current_range_meters":25200,"station_id":"ce4bhqp2rcd13ifvqhog","pricing_plan_id":"cebpf4jnsgd1na2vs0mg"},{"bike_id":"ef1d31b1-3dc0-4d58-9fc8-8b3b4b5ac178","system_id":"levelo_inurba_marseille","lat":43.323633,"lon":5.388857,"is_reserved":false,"is_disabled":false,"rental_uris":{"android":"levelo://app?vid=ef1d31b1-3dc0-4d58-9fc8-8b3b4b5ac178","ios":"levelo://app?vid=ef1d31b1-3dc0-4d58-9fc8-8b3b4b5ac178"},"vehicle_type_id":"4","last_reported":1711206521,"current_range_meters":16400,"station_id":"ce4bhqp2rcd13ifvqhog","pricing_plan_id":"cebpf4jnsgd1na2vs0mg"},{"bike_id":"69738a8d-1063-40c1-9fbe-d87a7e8c839f","system_id":"levelo_inurba_marseille","lat":43.32367,"lon":5.388836,"is_reserved":false,"is_disabled":false,"rental_uris":{"android":"levelo://app?vid=69738a8d-1063-40c1-9fbe-d87a7e8c839f","ios":"levelo://app?vid=69738a8d-1063-40c1-9fbe-d87a7e8c839f"},"vehicle_type_id":"4","last_reported":1711206521,"current_range_meters":10800,"station_id":"ce4bhqp2rcd13ifvqhog","pricing_plan_id":"cebpf4jnsgd1na2vs0mg"},{"bike_id":"5e8def41-23ad-4c54-bd0b-9f45994ee094","system_id":"levelo_inurba_marseille","lat":43.32368,"lon":5.38886,"is_reserved":false,"is_disabled":false,"rental_uris":{"android":"levelo://app?vid=5e8def41-23ad-4c54-bd0b-9f45994ee094","ios":"levelo://app?vid=5e8def41-23ad-4c54-bd0b-9f45994ee094"},"vehicle_type_id":"4","last_reported":1711206521,"current_range_meters":8000,"station_id":"ce4bhqp2rcd13ifvqhog","pricing_plan_id":"cebpf4jnsgd1na2vs0mg"},{"bike_id":"0500c984-8691-4f91-aa92-4987c51da754","system_id":"levelo_inurba_marseille","lat":43.32374,"lon":5.38885,"is_reserved":false,"is_disabled":false,"rental_uris":{"android":"levelo://app?vid=0500c984-8691-4f91-aa92-4987c51da754","ios":"levelo://app?vid=0500c984-8691-4f91-aa92-4987c51da754"},"vehicle_type_id":"4","last_reported":1711206521,"current_range_meters":25200,"station_id":"ce4bhqp2rcd13ifvqhog","pricing_plan_id":"cebpf4jnsgd1na2vs0mg"},{"bike_id":"0283b869-4093-47cb-b34f-d5e4a958e8e6","system_id":"levelo_inurba_marseille","lat":43.323716,"lon":5.388886,"is_reserved":false,"is_disabled":false,"rental_uris":{"android":"levelo://app?vid=0283b869-4093-47cb-b34f-d5e4a958e8e6","ios":"levelo://app?vid=0283b869-4093-47cb-b34f-d5e4a958e8e6"},"vehicle_type_id":"4","last_reported":1711206521,"current_range_meters":10000,"station_id":"ce4bhqp2rcd13ifvqhog","pricing_plan_id":"cebpf4jnsgd1na2vs0mg"},{"bike_id":"fc699a30-a310-4174-b539-6225451d5dff","system_id":"levelo_inurba_marseille","lat":43.29602,"lon":5.381084,"is_reserved":false,"is_disabled":false,"rental_uris":{"android":"levelo://app?vid=fc699a30-a310-4174-b539-6225451d5dff","ios":"levelo://app?vid=fc699a30-a310-4174-b539-6225451d5dff"},"vehicle_type_id":"4","last_reported":1711206521,"current_range_meters":15200,"station_id":"ce4bgl12rcd13ifvqbo0","pricing_plan_id":"cebpf4jnsgd1na2vs0mg"},{"bike_id":"553be6ba-c65d-4cef-80a9-9bd5e9dea82e","system_id":"levelo_inurba_marseille","lat":43.32348,"lon":5.38969,"is_reserved":false,"is_disabled":false,"rental_uris":{"android":"levelo://app?vid=553be6ba-c65d-4cef-80a9-9bd5e9dea82e","ios":"levelo://app?vid=553be6ba-c65d-4cef-80a9-9bd5e9dea82e"},"vehicle_type_id":"4","last_reported":1711206521,"current_range_meters":28800,"station_id":"","pricing_plan_id":"cebpf4jnsgd1na2vs0mg"},{"bike_id":"c3bcfd6f-8173-4c32-a631-f20ff5aa03d1","system_id":"levelo_inurba_marseille","lat":43.292749,"lon":5.368402,"is_reserved":false,"is_disabled":false,"rental_uris":{"android":"levelo://app?vid=c3bcfd6f-8173-4c32-a631-f20ff5aa03d1","ios":"levelo://app?vid=c3bcfd6f-8173-4c32-a631-f20ff5aa03d1"},"vehicle_type_id":"4","last_reported":1711206521,"current_range_meters":10400,"station_id":"ce4bhbp2rcd13ifvqesg","pricing_plan_id":"cebpf4jnsgd1na2vs0mg"},{"bike_id":"2185de24-c8dd-40bc-97a4-180c7f0c4a97","system_id":"levelo_inurba_marseille","lat":43.292749,"lon":5.368402,"is_reserved":false,"is_disabled":false,"rental_uris":{"android":"levelo://app?vid=2185de24-c8dd-40bc-97a4-180c7f0c4a97","ios":"levelo://app?vid=2185de24-c8dd-40bc-97a4-180c7f0c4a97"},"vehicle_type_id":"4","last_reported":1711206521,"current_range_meters":2400,"station_id":"ce4bhbp2rcd13ifvqesg","pricing_plan_id":"cebpf4jnsgd1na2vs0mg"},{"bike_id":"d7301ef2-00a8-4457-8a2e-d39fd9c01ff9","system_id":"levelo_inurba_marseille","lat":43.29303,"lon":5.37461,"is_reserved":false,"is_disabled":false,"rental_uris":{"android":"levelo://app?vid=d7301ef2-00a8-4457-8a2e-d39fd9c01ff9","ios":"levelo://app?vid=d7301ef2-00a8-4457-8a2e-d39fd9c01ff9"},"vehicle_type_id":"4","last_reported":1711206521,"current_range_meters":0,"station_id":"ce4bgi12rcd13ifvqb70","pricing_plan_id":"cebpf4jnsgd1na2vs0mg"},{"bike_id":"67ff233c-00bf-483c-8ccd-a73576a092c0","system_id":"levelo_inurba_marseille","lat":43.305994,"lon":5.393687,"is_reserved":false,"is_disabled":false,"rental_uris":{"android":"levelo://app?vid=67ff233c-00bf-483c-8ccd-a73576a092c0","ios":"levelo://app?vid=67ff233c-00bf-483c-8ccd-a73576a092c0"},"vehicle_type_id":"4","last_reported":1711206521,"current_range_meters":14400,"station_id":"ce4bh0p2rcd13ifvqd80","pricing_plan_id":"cebpf4jnsgd1na2vs0mg"},{"bike_id":"8cd81ec1-7e5a-48d6-bde6-4357fe8a92f5","system_id":"levelo_inurba_marseille","lat":43.31809,"lon":5.39429,"is_reserved":false,"is_disabled":false,"rental_uris":{"android":"levelo://app?vid=8cd81ec1-7e5a-48d6-bde6-4357fe8a92f5","ios":"levelo://app?vid=8cd81ec1-7e5a-48d6-bde6-4357fe8a92f5"},"vehicle_type_id":"4","last_reported":1711206521,"current_range_meters":0,"station_id":"","pricing_plan_id":"cebpf4jnsgd1na2vs0mg"},{"bike_id":"4ece8118-9c70-4623-95a1-ba0d3727cfae","system_id":"levelo_inurba_marseille","lat":43.303002,"lon":5.392142,"is_reserved":false,"is_disabled":false,"rental_uris":{"android":"levelo://app?vid=4ece8118-9c70-4623-95a1-ba0d3727cfae","ios":"levelo://app?vid=4ece8118-9c70-4623-95a1-ba0d3727cfae"},"vehicle_type_id":"4","last_reported":1711206521,"current_range_meters":26800,"station_id":"ce4bgkh2rcd13ifvqbk0","pricing_plan_id":"cebpf4jnsgd1na2vs0mg"},{"bike_id":"4b8ae2a4-5846-48d5-a473-ee3c0b4710c8","system_id":"levelo_inurba_marseille","lat":43.29232,"lon":5.36169,"is_reserved":false,"is_disabled":false,"rental_uris":{"android":"levelo://app?vid=4b8ae2a4-5846-48d5-a473-ee3c0b4710c8","ios":"levelo://app?vid=4b8ae2a4-5846-48d5-a473-ee3c0b4710c8"},"vehicle_type_id":"4","last_reported":1711206521,"current_range_meters":24400,"station_id":"","pricing_plan_id":"cebpf4jnsgd1na2vs0mg"},{"bike_id":"1d32faa0-0ef4-4315-8014-7dcdf9123f21","system_id":"levelo_inurba_marseille","lat":43.2936,"lon":5.37835,"is_reserved":false,"is_disabled":false,"rental_uris":{"android":"levelo://app?vid=1d32faa0-0ef4-4315-8014-7dcdf9123f21","ios":"levelo://app?vid=1d32faa0-0ef4-4315-8014-7dcdf9123f21"},"vehicle_type_id":"4","last_reported":1711206521,"current_range_meters":6000,"station_id":"ce4bgjh2rcd13ifvqbf0","pricing_plan_id":"cebpf4jnsgd1na2vs0mg"},{"bike_id":"2c7af3c9-9d95-4d46-937a-9f837e556210","system_id":"levelo_inurba_marseille","lat":43.2936,"lon":5.37835,"is_reserved":false,"is_disabled":false,"rental_uris":{"android":"levelo://app?vid=2c7af3c9-9d95-4d46-937a-9f837e556210","ios":"levelo://app?vid=2c7af3c9-9d95-4d46-937a-9f837e556210"},"vehicle_type_id":"4","last_reported":1711206521,"current_range_meters":11200,"station_id":"ce4bgjh2rcd13ifvqbf0","pricing_plan_id":"cebpf4jnsgd1na2vs0mg"},{"bike_id":"7cb958c3-bc42-4c81-8dc1-e5852fa7d11e","system_id":"levelo_inurba_marseille","lat":43.2936,"lon":5.37835,"is_reserved":false,"is_disabled":false,"rental_uris":{"android":"levelo://app?vid=7cb958c3-bc42-4c81-8dc1-e5852fa7d11e","ios":"levelo://app?vid=7cb958c3-bc42-4c81-8dc1-e5852fa7d11e"},"vehicle_type_id":"4","last_reported":1711206521,"current_range_meters":14800,"station_id":"ce4bgjh2rcd13ifvqbf0","pricing_plan_id":"cebpf4jnsgd1na2vs0mg"},{"bike_id":"22cd5951-d702-4e14-bb49-d8c7bdc66b11","system_id":"levelo_inurba_marseille","lat":43.2936,"lon":5.37835,"is_reserved":false,"is_disabled":false,"rental_uris":{"android":"levelo://app?vid=22cd5951-d702-4e14-bb49-d8c7bdc66b11","ios":"levelo://app?vid=22cd5951-d702-4e14-bb49-d8c7bdc66b11"},"vehicle_type_id":"4","last_reported":1711206521,"current_range_meters":8800,"station_id":"ce4bgjh2rcd13ifvqbf0","pricing_plan_id":"cebpf4jnsgd1na2vs0mg"},{"bike_id":"1a278ed1-e827-4628-afe3-c05b5574c3af","system_id":"levelo_inurba_marseille","lat":43.2936,"lon":5.37835,"is_reserved":false,"is_disabled":false,"rental_uris":{"android":"levelo://app?vid=1a278ed1-e827-4628-afe3-c05b5574c3af","ios":"levelo://app?vid=1a278ed1-e827-4628-afe3-c05b5574c3af"},"vehicle_type_id":"4","last_reported":1711206521,"current_range_meters":10800,"station_id":"ce4bgjh2rcd13ifvqbf0","pricing_plan_id":"cebpf4jnsgd1na2vs0mg"},{"bike_id":"073947cd-ca0d-40cb-b0a0-2608f650ed23","system_id":"levelo_inurba_marseille","lat":43.29236,"lon":5.36069,"is_reserved":false,"is_disabled":false,"rental_uris":{"android":"levelo://app?vid=073947cd-ca0d-40cb-b0a0-2608f650ed23","ios":"levelo://app?vid=073947cd-ca0d-40cb-b0a0-2608f650ed23"},"vehicle_type_id":"4","last_reported":1711206521,"current_range_meters":3200,"station_id":"ce4bhbh2rcd13ifvqeqg","pricing_plan_id":"cebpf4jnsgd1na2vs0mg"},{"bike_id":"dcff49cd-9142-4193-81a5-dc16391d1831","system_id":"levelo_inurba_marseille","lat":43.29236,"lon":5.36063,"is_reserved":false,"is_disabled":false,"rental_uris":{"android":"levelo://app?vid=dcff49cd-9142-4193-81a5-dc16391d1831","ios":"levelo://app?vid=dcff49cd-9142-4193-81a5-dc16391d1831"},"vehicle_type_id":"4","last_reported":1711206521,"current_range_meters":19600,"station_id":"ce4bhbh2rcd13ifvqeqg","pricing_plan_id":"cebpf4jnsgd1na2vs0mg"},{"bike_id":"7b8d060e-6f54-4e39-bcf6-d0cf2eb4c765","system_id":"levelo_inurba_marseille","lat":43.292311,"lon":5.360731,"is_reserved":false,"is_disabled":false,"rental_uris":{"android":"levelo://app?vid=7b8d060e-6f54-4e39-bcf6-d0cf2eb4c765","ios":"levelo://app?vid=7b8d060e-6f54-4e39-bcf6-d0cf2eb4c765"},"vehicle_type_id":"4","last_reported":1711206521,"current_range_meters":31600,"station_id":"ce4bhbh2rcd13ifvqeqg","pricing_plan_id":"cebpf4jnsgd1na2vs0mg"},{"bike_id":"2ab361c8-31a1-4e6b-9547-aa7f127dc42c","system_id":"levelo_inurba_marseille","lat":43.292311,"lon":5.360731,"is_reserved":false,"is_disabled":false,"rental_uris":{"android":"levelo://app?vid=2ab361c8-31a1-4e6b-9547-aa7f127dc42c","ios":"levelo://app?vid=2ab361c8-31a1-4e6b-9547-aa7f127dc42c"},"vehicle_type_id":"4","last_reported":1711206521,"current_range_meters":800,"station_id":"ce4bhbh2rcd13ifvqeqg","pricing_plan_id":"cebpf4jnsgd1na2vs0mg"},{"bike_id":"45e3eb52-da4e-4713-90fb-d6dd47f4cd6a","system_id":"levelo_inurba_marseille","lat":43.292311,"lon":5.360731,"is_reserved":false,"is_disabled":false,"rental_uris":{"android":"levelo://app?vid=45e3eb52-da4e-4713-90fb-d6dd47f4cd6a","ios":"levelo://app?vid=45e3eb52-da4e-4713-90fb-d6dd47f4cd6a"},"vehicle_type_id":"4","last_reported":1711206521,"current_range_meters":25600,"station_id":"ce4bhbh2rcd13ifvqeqg","pricing_plan_id":"cebpf4jnsgd1na2vs0mg"},{"bike_id":"93ed5d95-81e8-47ca-8930-19f928552096","system_id":"levelo_inurba_marseille","lat":43.292311,"lon":5.360731,"is_reserved":false,"is_disabled":false,"rental_uris":{"android":"levelo://app?vid=93ed5d95-81e8-47ca-8930-19f928552096","ios":"levelo://app?vid=93ed5d95-81e8-47ca-8930-19f928552096"},"vehicle_type_id":"4","last_reported":1711206521,"current_range_meters":4800,"station_id":"ce4bhbh2rcd13ifvqeqg","pricing_plan_id":"cebpf4jnsgd1na2vs0mg"},{"bike_id":"18304991-314e-4adc-9231-5f2e86ef98af","system_id":"levelo_inurba_marseille","lat":43.2923,"lon":5.36064,"is_reserved":false,"is_disabled":false,"rental_uris":{"android":"levelo://app?vid=18304991-314e-4adc-9231-5f2e86ef98af","ios":"levelo://app?vid=18304991-314e-4adc-9231-5f2e86ef98af"},"vehicle_type_id":"4","last_reported":1711206521,"current_range_meters":25200,"station_id":"","pricing_plan_id":"cebpf4jnsgd1na2vs0mg"},{"bike_id":"f594b369-daff-4639-9bea-2a727e3af498","system_id":"levelo_inurba_marseille","lat":43.292311,"lon":5.360731,"is_reserved":false,"is_disabled":false,"rental_uris":{"android":"levelo://app?vid=f594b369-daff-4639-9bea-2a727e3af498","ios":"levelo://app?vid=f594b369-daff-4639-9bea-2a727e3af498"},"vehicle_type_id":"4","last_reported":1711206521,"current_range_meters":1200,"station_id":"ce4bhbh2rcd13ifvqeqg","pricing_plan_id":"cebpf4jnsgd1na2vs0mg"},{"bike_id":"25663753-57ff-47be-879d-ed7b8d5685fe","system_id":"levelo_inurba_marseille","lat":43.2923,"lon":5.36058,"is_reserved":false,"is_disabled":false,"rental_uris":{"android":"levelo://app?vid=25663753-57ff-47be-879d-ed7b8d5685fe","ios":"levelo://app?vid=25663753-57ff-47be-879d-ed7b8d5685fe"},"vehicle_type_id":"4","last_reported":1711206521,"current_range_meters":0,"station_id":"ce4bhbh2rcd13ifvqeqg","pricing_plan_id":"cebpf4jnsgd1na2vs0mg"},{"bike_id":"59befa03-e9e6-4774-be5a-28e0a07d2a7d","system_id":"levelo_inurba_marseille","lat":43.292311,"lon":5.360731,"is_reserved":false,"is_disabled":false,"rental_uris":{"android":"levelo://app?vid=59befa03-e9e6-4774-be5a-28e0a07d2a7d","ios":"levelo://app?vid=59befa03-e9e6-4774-be5a-28e0a07d2a7d"},"vehicle_type_id":"4","last_reported":1711206521,"current_range_meters":6000,"station_id":"ce4bhbh2rcd13ifvqeqg","pricing_plan_id":"cebpf4jnsgd1na2vs0mg"},{"bike_id":"9009d932-e7a9-44b1-aaed-9324c3875b27","system_id":"levelo_inurba_marseille","lat":43.292311,"lon":5.360731,"is_reserved":false,"is_disabled":false,"rental_uris":{"android":"levelo://app?vid=9009d932-e7a9-44b1-aaed-9324c3875b27","ios":"levelo://app?vid=9009d932-e7a9-44b1-aaed-9324c3875b27"},"vehicle_type_id":"4","last_reported":1711206521,"current_range_meters":11600,"station_id":"ce4bhbh2rcd13ifvqeqg","pricing_plan_id":"cebpf4jnsgd1na2vs0mg"},{"bike_id":"021212f6-c105-4ce5-9f36-e5b2c48ace83","system_id":"levelo_inurba_marseille","lat":43.29229,"lon":5.36051,"is_reserved":false,"is_disabled":false,"rental_uris":{"android":"levelo://app?vid=021212f6-c105-4ce5-9f36-e5b2c48ace83","ios":"levelo://app?vid=021212f6-c105-4ce5-9f36-e5b2c48ace83"},"vehicle_type_id":"4","last_reported":1711206521,"current_range_meters":0,"station_id":"ce4bhbh2rcd13ifvqeqg","pricing_plan_id":"cebpf4jnsgd1na2vs0mg"},{"bike_id":"0e492eea-c896-46c4-9abd-4406e32d6a83","system_id":"levelo_inurba_marseille","lat":43.300852,"lon":5.390859,"is_reserved":false,"is_disabled":false,"rental_uris":{"android":"levelo://app?vid=0e492eea-c896-46c4-9abd-4406e32d6a83","ios":"levelo://app?vid=0e492eea-c896-46c4-9abd-4406e32d6a83"},"vehicle_type_id":"4","last_reported":1711206521,"current_range_meters":12800,"station_id":"ce4bh192rcd13ifvqdb0","pricing_plan_id":"cebpf4jnsgd1na2vs0mg"},{"bike_id":"0ee254e4-9834-4334-a30d-9d2a3e49e857","system_id":"levelo_inurba_marseille","lat":43.292311,"lon":5.360731,"is_reserved":false,"is_disabled":false,"rental_uris":{"android":"levelo://app?vid=0ee254e4-9834-4334-a30d-9d2a3e49e857","ios":"levelo://app?vid=0ee254e4-9834-4334-a30d-9d2a3e49e857"},"vehicle_type_id":"4","last_reported":1711206521,"current_range_meters":28000,"station_id":"ce4bhbh2rcd13ifvqeqg","pricing_plan_id":"cebpf4jnsgd1na2vs0mg"},{"bike_id":"1136a1c2-1944-494d-8a4a-d04c4d3c4e60","system_id":"levelo_inurba_marseille","lat":43.30085,"lon":5.390856,"is_reserved":false,"is_disabled":false,"rental_uris":{"android":"levelo://app?vid=1136a1c2-1944-494d-8a4a-d04c4d3c4e60","ios":"levelo://app?vid=1136a1c2-1944-494d-8a4a-d04c4d3c4e60"},"vehicle_type_id":"4","last_reported":1711206521,"current_range_meters":0,"station_id":"ce4bh192rcd13ifvqdb0","pricing_plan_id":"cebpf4jnsgd1na2vs0mg"},{"bike_id":"ec917110-49a7-4104-8acb-e9785dfb2be1","system_id":"levelo_inurba_marseille","lat":43.292311,"lon":5.360731,"is_reserved":false,"is_disabled":false,"rental_uris":{"android":"levelo://app?vid=ec917110-49a7-4104-8acb-e9785dfb2be1","ios":"levelo://app?vid=ec917110-49a7-4104-8acb-e9785dfb2be1"},"vehicle_type_id":"4","last_reported":1711206521,"current_range_meters":22000,"station_id":"ce4bhbh2rcd13ifvqeqg","pricing_plan_id":"cebpf4jnsgd1na2vs0mg"},{"bike_id":"0d5e6547-b8c5-4de5-8960-f288fb74c60b","system_id":"levelo_inurba_marseille","lat":43.291675,"lon":5.371583,"is_reserved":false,"is_disabled":false,"rental_uris":{"android":"levelo://app?vid=0d5e6547-b8c5-4de5-8960-f288fb74c60b","ios":"levelo://app?vid=0d5e6547-b8c5-4de5-8960-f288fb74c60b"},"vehicle_type_id":"4","last_reported":1711206521,"current_range_meters":4400,"station_id":"ce4bha92rcd13ifvqeh0","pricing_plan_id":"cebpf4jnsgd1na2vs0mg"},{"bike_id":"bd31ae2f-9e5f-48e1-a986-0125a87db6a0","system_id":"levelo_inurba_marseille","lat":43.291675,"lon":5.371583,"is_reserved":false,"is_disabled":false,"rental_uris":{"android":"levelo://app?vid=bd31ae2f-9e5f-48e1-a986-0125a87db6a0","ios":"levelo://app?vid=bd31ae2f-9e5f-48e1-a986-0125a87db6a0"},"vehicle_type_id":"4","last_reported":1711206521,"current_range_meters":26400,"station_id":"ce4bha92rcd13ifvqeh0","pricing_plan_id":"cebpf4jnsgd1na2vs0mg"},{"bike_id":"1c4ef399-5cf5-4fd9-964c-987df29e6232","system_id":"levelo_inurba_marseille","lat":43.292029,"lon":5.358303,"is_reserved":false,"is_disabled":false,"rental_uris":{"android":"levelo://app?vid=1c4ef399-5cf5-4fd9-964c-987df29e6232","ios":"levelo://app?vid=1c4ef399-5cf5-4fd9-964c-987df29e6232"},"vehicle_type_id":"4","last_reported":1711206521,"current_range_meters":18000,"station_id":"ce4bhb12rcd13ifvqel0","pricing_plan_id":"cebpf4jnsgd1na2vs0mg"},{"bike_id":"7c28b0b3-997e-4f21-8487-e19865bbb951","system_id":"levelo_inurba_marseille","lat":43.29202,"lon":5.358,"is_reserved":false,"is_disabled":false,"rental_uris":{"android":"levelo://app?vid=7c28b0b3-997e-4f21-8487-e19865bbb951","ios":"levelo://app?vid=7c28b0b3-997e-4f21-8487-e19865bbb951"},"vehicle_type_id":"4","last_reported":1711206521,"current_range_meters":20800,"station_id":"ce4bhb12rcd13ifvqel0","pricing_plan_id":"cebpf4jnsgd1na2vs0mg"},{"bike_id":"2c5a9121-8540-4a93-8c9b-21659fe2c09b","system_id":"levelo_inurba_marseille","lat":43.290779,"lon":5.371482,"is_reserved":false,"is_disabled":false,"rental_uris":{"android":"levelo://app?vid=2c5a9121-8540-4a93-8c9b-21659fe2c09b","ios":"levelo://app?vid=2c5a9121-8540-4a93-8c9b-21659fe2c09b"},"vehicle_type_id":"4","last_reported":1711206521,"current_range_meters":19600,"station_id":"ce4bh5p2rcd13ifvqe4g","pricing_plan_id":"cebpf4jnsgd1na2vs0mg"},{"bike_id":"a152c30b-1fac-466f-9809-8ac7acc5f76a","system_id":"levelo_inurba_marseille","lat":43.29198,"lon":5.35796,"is_reserved":false,"is_disabled":false,"rental_uris":{"android":"levelo://app?vid=a152c30b-1fac-466f-9809-8ac7acc5f76a","ios":"levelo://app?vid=a152c30b-1fac-466f-9809-8ac7acc5f76a"},"vehicle_type_id":"4","last_reported":1711206521,"current_range_meters":11200,"station_id":"ce4bhb12rcd13ifvqel0","pricing_plan_id":"cebpf4jnsgd1na2vs0mg"},{"bike_id":"69962814-5d93-4118-a534-fd7ff3aeca26","system_id":"levelo_inurba_marseille","lat":43.291994,"lon":5.357886,"is_reserved":false,"is_disabled":false,"rental_uris":{"android":"levelo://app?vid=69962814-5d93-4118-a534-fd7ff3aeca26","ios":"levelo://app?vid=69962814-5d93-4118-a534-fd7ff3aeca26"},"vehicle_type_id":"4","last_reported":1711206521,"current_range_meters":14400,"station_id":"ce4bhb12rcd13ifvqel0","pricing_plan_id":"cebpf4jnsgd1na2vs0mg"},{"bike_id":"353bfac3-3ceb-4301-bedc-7d9953000090","system_id":"levelo_inurba_marseille","lat":43.29197,"lon":5.35799,"is_reserved":false,"is_disabled":false,"rental_uris":{"android":"levelo://app?vid=353bfac3-3ceb-4301-bedc-7d9953000090","ios":"levelo://app?vid=353bfac3-3ceb-4301-bedc-7d9953000090"},"vehicle_type_id":"4","last_reported":1711206521,"current_range_meters":9200,"station_id":"ce4bhb12rcd13ifvqel0","pricing_plan_id":"cebpf4jnsgd1na2vs0mg"},{"bike_id":"f4dd0f43-2bd0-4544-90a6-f82eb254476e","system_id":"levelo_inurba_marseille","lat":43.291994,"lon":5.357886,"is_reserved":false,"is_disabled":false,"rental_uris":{"android":"levelo://app?vid=f4dd0f43-2bd0-4544-90a6-f82eb254476e","ios":"levelo://app?vid=f4dd0f43-2bd0-4544-90a6-f82eb254476e"},"vehicle_type_id":"4","last_reported":1711206521,"current_range_meters":10400,"station_id":"ce4bhb12rcd13ifvqel0","pricing_plan_id":"cebpf4jnsgd1na2vs0mg"},{"bike_id":"189681d6-dd02-4f83-9fa3-a6cc7f38ffa3","system_id":"levelo_inurba_marseille","lat":43.291994,"lon":5.357886,"is_reserved":false,"is_disabled":false,"rental_uris":{"android":"levelo://app?vid=189681d6-dd02-4f83-9fa3-a6cc7f38ffa3","ios":"levelo://app?vid=189681d6-dd02-4f83-9fa3-a6cc7f38ffa3"},"vehicle_type_id":"4","last_reported":1711206521,"current_range_meters":29600,"station_id":"ce4bhb12rcd13ifvqel0","pricing_plan_id":"cebpf4jnsgd1na2vs0mg"},{"bike_id":"33678ac8-efb4-42f5-9145-a72dd2092444","system_id":"levelo_inurba_marseille","lat":43.29196,"lon":5.35794,"is_reserved":false,"is_disabled":false,"rental_uris":{"android":"levelo://app?vid=33678ac8-efb4-42f5-9145-a72dd2092444","ios":"levelo://app?vid=33678ac8-efb4-42f5-9145-a72dd2092444"},"vehicle_type_id":"4","last_reported":1711206521,"current_range_meters":2400,"station_id":"ce4bhb12rcd13ifvqel0","pricing_plan_id":"cebpf4jnsgd1na2vs0mg"},{"bike_id":"bd33fd01-9571-40ee-afeb-20b2315862d5","system_id":"levelo_inurba_marseille","lat":43.313291,"lon":5.396838,"is_reserved":false,"is_disabled":false,"rental_uris":{"android":"levelo://app?vid=bd33fd01-9571-40ee-afeb-20b2315862d5","ios":"levelo://app?vid=bd33fd01-9571-40ee-afeb-20b2315862d5"},"vehicle_type_id":"4","last_reported":1711206521,"current_range_meters":19600,"station_id":"ce4bgvp2rcd13ifvqcu0","pricing_plan_id":"cebpf4jnsgd1na2vs0mg"},{"bike_id":"236fa7b6-3b67-4672-a120-c09e195cc5e7","system_id":"levelo_inurba_marseille","lat":43.291994,"lon":5.357886,"is_reserved":false,"is_disabled":false,"rental_uris":{"android":"levelo://app?vid=236fa7b6-3b67-4672-a120-c09e195cc5e7","ios":"levelo://app?vid=236fa7b6-3b67-4672-a120-c09e195cc5e7"},"vehicle_type_id":"4","last_reported":1711206521,"current_range_meters":8400,"station_id":"ce4bhb12rcd13ifvqel0","pricing_plan_id":"cebpf4jnsgd1na2vs0mg"},{"bike_id":"cb91142f-a36c-4dde-a882-0f0de4288765","system_id":"levelo_inurba_marseille","lat":43.296375,"lon":5.387806,"is_reserved":false,"is_disabled":false,"rental_uris":{"android":"levelo://app?vid=cb91142f-a36c-4dde-a882-0f0de4288765","ios":"levelo://app?vid=cb91142f-a36c-4dde-a882-0f0de4288765"},"vehicle_type_id":"4","last_reported":1711206521,"current_range_meters":23200,"station_id":"","pricing_plan_id":"cebpf4jnsgd1na2vs0mg"},{"bike_id":"4d0c203d-b528-4b44-9b47-6d38acdc457c","system_id":"levelo_inurba_marseille","lat":43.290624,"lon":5.359245,"is_reserved":false,"is_disabled":false,"rental_uris":{"android":"levelo://app?vid=4d0c203d-b528-4b44-9b47-6d38acdc457c","ios":"levelo://app?vid=4d0c203d-b528-4b44-9b47-6d38acdc457c"},"vehicle_type_id":"4","last_reported":1711206521,"current_range_meters":10800,"station_id":"ce4bha92rcd13ifvqeg0","pricing_plan_id":"cebpf4jnsgd1na2vs0mg"},{"bike_id":"68838be1-0fa4-4075-aa96-3f517fef3e3d","system_id":"levelo_inurba_marseille","lat":43.290631,"lon":5.359244,"is_reserved":false,"is_disabled":false,"rental_uris":{"android":"levelo://app?vid=68838be1-0fa4-4075-aa96-3f517fef3e3d","ios":"levelo://app?vid=68838be1-0fa4-4075-aa96-3f517fef3e3d"},"vehicle_type_id":"4","last_reported":1711206521,"current_range_meters":800,"station_id":"ce4bha92rcd13ifvqeg0","pricing_plan_id":"cebpf4jnsgd1na2vs0mg"},{"bike_id":"d50c4147-e5b8-4567-8c93-f0e6770e8888","system_id":"levelo_inurba_marseille","lat":43.290319,"lon":5.375732,"is_reserved":false,"is_disabled":false,"rental_uris":{"android":"levelo://app?vid=d50c4147-e5b8-4567-8c93-f0e6770e8888","ios":"levelo://app?vid=d50c4147-e5b8-4567-8c93-f0e6770e8888"},"vehicle_type_id":"4","last_reported":1711206521,"current_range_meters":11200,"station_id":"ce4bh692rcd13ifvqe90","pricing_plan_id":"cebpf4jnsgd1na2vs0mg"},{"bike_id":"63e299a9-b369-49a8-b90c-fb6deadc3b3c","system_id":"levelo_inurba_marseille","lat":43.294162,"lon":5.386292,"is_reserved":false,"is_disabled":false,"rental_uris":{"android":"levelo://app?vid=63e299a9-b369-49a8-b90c-fb6deadc3b3c","ios":"levelo://app?vid=63e299a9-b369-49a8-b90c-fb6deadc3b3c"},"vehicle_type_id":"4","last_reported":1711206521,"current_range_meters":0,"station_id":"ce4bh2h2rcd13ifvqdh0","pricing_plan_id":"cebpf4jnsgd1na2vs0mg"},{"bike_id":"00a7e42d-6ee3-4271-a49f-859e260c0e05","system_id":"levelo_inurba_marseille","lat":43.294153,"lon":5.386305,"is_reserved":false,"is_disabled":false,"rental_uris":{"android":"levelo://app?vid=00a7e42d-6ee3-4271-a49f-859e260c0e05","ios":"levelo://app?vid=00a7e42d-6ee3-4271-a49f-859e260c0e05"},"vehicle_type_id":"4","last_reported":1711206521,"current_range_meters":0,"station_id":"ce4bh2h2rcd13ifvqdh0","pricing_plan_id":"cebpf4jnsgd1na2vs0mg"},{"bike_id":"eff83898-08c3-44c9-a826-fcf9ce294715","system_id":"levelo_inurba_marseille","lat":43.29419,"lon":5.38631,"is_reserved":false,"is_disabled":false,"rental_uris":{"android":"levelo://app?vid=eff83898-08c3-44c9-a826-fcf9ce294715","ios":"levelo://app?vid=eff83898-08c3-44c9-a826-fcf9ce294715"},"vehicle_type_id":"4","last_reported":1711206521,"current_range_meters":20000,"station_id":"ce4bh2h2rcd13ifvqdh0","pricing_plan_id":"cebpf4jnsgd1na2vs0mg"},{"bike_id":"c02a0846-ac6a-404d-93c4-9eb858475182","system_id":"levelo_inurba_marseille","lat":43.289184,"lon":5.366408,"is_reserved":false,"is_disabled":false,"rental_uris":{"android":"levelo://app?vid=c02a0846-ac6a-404d-93c4-9eb858475182","ios":"levelo://app?vid=c02a0846-ac6a-404d-93c4-9eb858475182"},"vehicle_type_id":"4","last_reported":1711206521,"current_range_meters":1200,"station_id":"ce4bhap2rcd13ifvqek0","pricing_plan_id":"cebpf4jnsgd1na2vs0mg"},{"bike_id":"dd839b89-94c5-40f4-94ab-8a90249b60b8","system_id":"levelo_inurba_marseille","lat":43.290104,"lon":5.356111,"is_reserved":false,"is_disabled":false,"rental_uris":{"android":"levelo://app?vid=dd839b89-94c5-40f4-94ab-8a90249b60b8","ios":"levelo://app?vid=dd839b89-94c5-40f4-94ab-8a90249b60b8"},"vehicle_type_id":"4","last_reported":1711206521,"current_range_meters":19600,"station_id":"ce4bhb92rcd13ifvqen0","pricing_plan_id":"cebpf4jnsgd1na2vs0mg"},{"bike_id":"32932a73-5d6a-4b0f-b5b6-689609fb85dc","system_id":"levelo_inurba_marseille","lat":43.290624,"lon":5.359245,"is_reserved":false,"is_disabled":false,"rental_uris":{"android":"levelo://app?vid=32932a73-5d6a-4b0f-b5b6-689609fb85dc","ios":"levelo://app?vid=32932a73-5d6a-4b0f-b5b6-689609fb85dc"},"vehicle_type_id":"4","last_reported":1711206521,"current_range_meters":4800,"station_id":"ce4bha92rcd13ifvqeg0","pricing_plan_id":"cebpf4jnsgd1na2vs0mg"},{"bike_id":"2259c12a-0810-4895-86d8-68e97691aa68","system_id":"levelo_inurba_marseille","lat":43.304296,"lon":5.397513,"is_reserved":false,"is_disabled":false,"rental_uris":{"android":"levelo://app?vid=2259c12a-0810-4895-86d8-68e97691aa68","ios":"levelo://app?vid=2259c12a-0810-4895-86d8-68e97691aa68"},"vehicle_type_id":"4","last_reported":1711206521,"current_range_meters":19200,"station_id":"ce4bh092rcd13ifvqd20","pricing_plan_id":"cebpf4jnsgd1na2vs0mg"},{"bike_id":"29c54b21-e647-46ff-aa41-7237076302ae","system_id":"levelo_inurba_marseille","lat":43.290139,"lon":5.356216,"is_reserved":false,"is_disabled":false,"rental_uris":{"android":"levelo://app?vid=29c54b21-e647-46ff-aa41-7237076302ae","ios":"levelo://app?vid=29c54b21-e647-46ff-aa41-7237076302ae"},"vehicle_type_id":"4","last_reported":1711206521,"current_range_meters":31200,"station_id":"ce4bhb92rcd13ifvqen0","pricing_plan_id":"cebpf4jnsgd1na2vs0mg"},{"bike_id":"9d62c2b9-17cf-49ef-af63-056f307c4dce","system_id":"levelo_inurba_marseille","lat":43.290104,"lon":5.356111,"is_reserved":false,"is_disabled":false,"rental_uris":{"android":"levelo://app?vid=9d62c2b9-17cf-49ef-af63-056f307c4dce","ios":"levelo://app?vid=9d62c2b9-17cf-49ef-af63-056f307c4dce"},"vehicle_type_id":"4","last_reported":1711206521,"current_range_meters":19600,"station_id":"ce4bhb92rcd13ifvqen0","pricing_plan_id":"cebpf4jnsgd1na2vs0mg"},{"bike_id":"8ae8165e-66c1-4eda-8737-9ce2793355b6","system_id":"levelo_inurba_marseille","lat":43.290103,"lon":5.356114,"is_reserved":false,"is_disabled":false,"rental_uris":{"android":"levelo://app?vid=8ae8165e-66c1-4eda-8737-9ce2793355b6","ios":"levelo://app?vid=8ae8165e-66c1-4eda-8737-9ce2793355b6"},"vehicle_type_id":"4","last_reported":1711206521,"current_range_meters":17200,"station_id":"ce4bhb92rcd13ifvqen0","pricing_plan_id":"cebpf4jnsgd1na2vs0mg"},{"bike_id":"0961ce5b-b0a6-4a68-997a-0f61363ca228","system_id":"levelo_inurba_marseille","lat":43.290104,"lon":5.356111,"is_reserved":false,"is_disabled":false,"rental_uris":{"android":"levelo://app?vid=0961ce5b-b0a6-4a68-997a-0f61363ca228","ios":"levelo://app?vid=0961ce5b-b0a6-4a68-997a-0f61363ca228"},"vehicle_type_id":"4","last_reported":1711206521,"current_range_meters":8000,"station_id":"ce4bhb92rcd13ifvqen0","pricing_plan_id":"cebpf4jnsgd1na2vs0mg"},{"bike_id":"0b0e5363-23ac-43cf-9340-09d07387af05","system_id":"levelo_inurba_marseille","lat":43.290104,"lon":5.356111,"is_reserved":false,"is_disabled":false,"rental_uris":{"android":"levelo://app?vid=0b0e5363-23ac-43cf-9340-09d07387af05","ios":"levelo://app?vid=0b0e5363-23ac-43cf-9340-09d07387af05"},