{"last_updated":1771317162,"ttl":60,"version":"2.2","data":{"bikes":[{"bike_id":"83f388b8-5fd2-4b9d-b4e0-e759702026f7","system_id":"levelo_inurba_marseille","lat":43.30832,"lon":5.388426,"is_reserved":false,"is_disabled":false,"rental_uris":{"android":"levelo://app?vid=83f388b8-5fd2-4b9d-b4e0-e759702026f7","ios":"levelo://app?vid=83f388b8-5fd2-4b9d-b4e0-e759702026f7"},"vehicle_type_id":"4","last_reported":1771317163,"current_range_meters":3200,"station_id":"ce4bgup2rcd13ifvqco0","pricing_plan_id":"cebpf4jnsgd1na2vs0mg"},{"bike_id":"d7118046-cefa-4587-89ed-6c45cd917a4f","system_id":"levelo_inurba_marseille","lat":43.23964,"lon":5.36627,"is_reserved":false,"is_disabled":false,"rental_uris":{"android":"levelo://app?vid=d7118046-cefa-4587-89ed-6c45cd917a4f","ios":"levelo://app?vid=d7118046-cefa-4587-89ed-6c45cd917a4f"},"vehicle_type_id":"4","last_reported":1771317163,"current_range_meters":38800,"station_id":"ce4bhi12rcd13ifvqfp0","pricing_plan_id":"cebpf4jnsgd1na2vs0mg"},{"bike_id":"9aa30411-4109-4d71-8b85-65127a6483db","system_id":"levelo_inurba_marseille","lat":43.2795,"lon":5.41068,"is_reserved":false,"is_disabled":true,"rental_uris":{"android":"levelo://app?vid=9aa30411-4109-4d71-8b85-65127a6483db","ios":"levelo://app?vid=9aa30411-4109-4d71-8b85-65127a6483db"},"vehicle_type_id":"4","last_reported":1771317163,"current_range_meters":28000,"station_id":"ce4bhnp2rcd13ifvqh0g","pricing_plan_id":"cebpf4jnsgd1na2vs0mg"},{"bike_id":"9fdfd435-ee1a-4566-9fad-8b87ca04be7e","system_id":"levelo_inurba_marseille","lat":43.3129,"lon":5.3686,"is_reserved":false,"is_disabled":false,"rental_uris":{"android":"levelo://app?vid=9fdfd435-ee1a-4566-9fad-8b87ca04be7e","ios":"levelo://app?vid=9fdfd435-ee1a-4566-9fad-8b87ca04be7e"},"vehicle_type_id":"4","last_reported":1771317163,"current_range_meters":16400,"station_id":"","pricing_plan_id":"cebpf4jnsgd1na2vs0mg"},{"bike_id":"6e07964d-6fe0-4880-a3fa-e2373dfa83a6","system_id":"levelo_inurba_marseille","lat":43.33173,"lon":5.37676,"is_reserved":false,"is_disabled":false,"rental_uris":{"android":"levelo://app?vid=6e07964d-6fe0-4880-a3fa-e2373dfa83a6","ios":"levelo://app?vid=6e07964d-6fe0-4880-a3fa-e2373dfa83a6"},"vehicle_type_id":"4","last_reported":1771317163,"current_range_meters":28800,"station_id":"st_d46cu089ee8s73dldbu0","pricing_plan_id":"cebpf4jnsgd1na2vs0mg"},{"bike_id":"e57f119f-8a24-4ef5-97d1-e242618f91a0","system_id":"levelo_inurba_marseille","lat":43.26229,"lon":5.40453,"is_reserved":false,"is_disabled":false,"rental_uris":{"android":"levelo://app?vid=e57f119f-8a24-4ef5-97d1-e242618f91a0","ios":"levelo://app?vid=e57f119f-8a24-4ef5-97d1-e242618f91a0"},"vehicle_type_id":"4","last_reported":1771317163,"current_range_meters":22000,"station_id":"ce4bhmh2rcd13ifvqgmg","pricing_plan_id":"cebpf4jnsgd1na2vs0mg"},{"bike_id":"33e04ab4-8566-4c76-a0fd-aad45455c18f","system_id":"levelo_inurba_marseille","lat":43.24804,"lon":5.37457,"is_reserved":false,"is_disabled":false,"rental_uris":{"android":"levelo://app?vid=33e04ab4-8566-4c76-a0fd-aad45455c18f","ios":"levelo://app?vid=33e04ab4-8566-4c76-a0fd-aad45455c18f"},"vehicle_type_id":"4","last_reported":1771317163,"current_range_meters":36800,"station_id":"ce4bhgh2rcd13ifvqfb0","pricing_plan_id":"cebpf4jnsgd1na2vs0mg"},{"bike_id":"3975a841-e136-4ffc-9340-b611eb80ecaa","system_id":"levelo_inurba_marseille","lat":43.24549,"lon":5.39515,"is_reserved":false,"is_disabled":false,"rental_uris":{"android":"levelo://app?vid=3975a841-e136-4ffc-9340-b611eb80ecaa","ios":"levelo://app?vid=3975a841-e136-4ffc-9340-b611eb80ecaa"},"vehicle_type_id":"4","last_reported":1771317163,"current_range_meters":32800,"station_id":"ce4bhlp2rcd13ifvqgjg","pricing_plan_id":"cebpf4jnsgd1na2vs0mg"},{"bike_id":"b5d21b34-ba85-49a4-b964-e2def336368b","system_id":"levelo_inurba_marseille","lat":43.26548,"lon":5.37307,"is_reserved":false,"is_disabled":true,"rental_uris":{"android":"levelo://app?vid=b5d21b34-ba85-49a4-b964-e2def336368b","ios":"levelo://app?vid=b5d21b34-ba85-49a4-b964-e2def336368b"},"vehicle_type_id":"4","last_reported":1771317163,"current_range_meters":38000,"station_id":"ce4bhg12rcd13ifvqf70","pricing_plan_id":"cebpf4jnsgd1na2vs0mg"},{"bike_id":"3e966140-e94e-43e6-a5a5-d2e8198d6f0d","system_id":"levelo_inurba_marseille","lat":43.2608,"lon":5.39391,"is_reserved":false,"is_disabled":false,"rental_uris":{"android":"levelo://app?vid=3e966140-e94e-43e6-a5a5-d2e8198d6f0d","ios":"levelo://app?vid=3e966140-e94e-43e6-a5a5-d2e8198d6f0d"},"vehicle_type_id":"4","last_reported":1771317163,"current_range_meters":11200,"station_id":"ce4bhh92rcd13ifvqfj0","pricing_plan_id":"cebpf4jnsgd1na2vs0mg"},{"bike_id":"74515861-cbb7-4ce1-8e3a-ac2705263ef3","system_id":"levelo_inurba_marseille","lat":43.304207,"lon":5.412811,"is_reserved":false,"is_disabled":false,"rental_uris":{"android":"levelo://app?vid=74515861-cbb7-4ce1-8e3a-ac2705263ef3","ios":"levelo://app?vid=74515861-cbb7-4ce1-8e3a-ac2705263ef3"},"vehicle_type_id":"4","last_reported":1771317163,"current_range_meters":9200,"station_id":"ce4bhop2rcd13ifvqh8g","pricing_plan_id":"cebpf4jnsgd1na2vs0mg"},{"bike_id":"f5ff8aa9-673d-4e9f-b19d-9737360b0355","system_id":"levelo_inurba_marseille","lat":43.30353,"lon":5.41892,"is_reserved":false,"is_disabled":false,"rental_uris":{"android":"levelo://app?vid=f5ff8aa9-673d-4e9f-b19d-9737360b0355","ios":"levelo://app?vid=f5ff8aa9-673d-4e9f-b19d-9737360b0355"},"vehicle_type_id":"4","last_reported":1771317163,"current_range_meters":38400,"station_id":"ce4bhop2rcd13ifvqh7g","pricing_plan_id":"cebpf4jnsgd1na2vs0mg"},{"bike_id":"d5aab202-4fee-442e-964c-18959565e183","system_id":"levelo_inurba_marseille","lat":43.26034,"lon":5.37544,"is_reserved":false,"is_disabled":false,"rental_uris":{"android":"levelo://app?vid=d5aab202-4fee-442e-964c-18959565e183","ios":"levelo://app?vid=d5aab202-4fee-442e-964c-18959565e183"},"vehicle_type_id":"4","last_reported":1771317163,"current_range_meters":23200,"station_id":"ce4bhgh2rcd13ifvqfa0","pricing_plan_id":"cebpf4jnsgd1na2vs0mg"},{"bike_id":"f2f05234-5926-4d0a-9c36-64e06f4aa31d","system_id":"levelo_inurba_marseille","lat":43.24413,"lon":5.37076,"is_reserved":false,"is_disabled":false,"rental_uris":{"android":"levelo://app?vid=f2f05234-5926-4d0a-9c36-64e06f4aa31d","ios":"levelo://app?vid=f2f05234-5926-4d0a-9c36-64e06f4aa31d"},"vehicle_type_id":"4","last_reported":1771317163,"current_range_meters":11600,"station_id":"ce4bhhh2rcd13ifvqfk0","pricing_plan_id":"cebpf4jnsgd1na2vs0mg"},{"bike_id":"87aa3eb4-ccb8-4899-acc1-f841f254b498","system_id":"levelo_inurba_marseille","lat":43.26222,"lon":5.37917,"is_reserved":false,"is_disabled":true,"rental_uris":{"android":"levelo://app?vid=87aa3eb4-ccb8-4899-acc1-f841f254b498","ios":"levelo://app?vid=87aa3eb4-ccb8-4899-acc1-f841f254b498"},"vehicle_type_id":"4","last_reported":1771317163,"current_range_meters":24400,"station_id":"ce4bhjp2rcd13ifvqg90","pricing_plan_id":"cebpf4jnsgd1na2vs0mg"},{"bike_id":"5c3657bf-535c-4a6f-9500-3222d82ad372","system_id":"levelo_inurba_marseille","lat":43.3045,"lon":5.37918,"is_reserved":false,"is_disabled":false,"rental_uris":{"android":"levelo://app?vid=5c3657bf-535c-4a6f-9500-3222d82ad372","ios":"levelo://app?vid=5c3657bf-535c-4a6f-9500-3222d82ad372"},"vehicle_type_id":"4","last_reported":1771317163,"current_range_meters":8800,"station_id":"ce4bgup2rcd13ifvqcn0","pricing_plan_id":"cebpf4jnsgd1na2vs0mg"},{"bike_id":"40da490a-089f-4374-aadd-323c04df363f","system_id":"levelo_inurba_marseille","lat":43.29323,"lon":5.37177,"is_reserved":false,"is_disabled":false,"rental_uris":{"android":"levelo://app?vid=40da490a-089f-4374-aadd-323c04df363f","ios":"levelo://app?vid=40da490a-089f-4374-aadd-323c04df363f"},"vehicle_type_id":"4","last_reported":1771317163,"current_range_meters":38000,"station_id":"ce4bgh92rcd13ifvqb40","pricing_plan_id":"cebpf4jnsgd1na2vs0mg"},{"bike_id":"363646dd-9ba9-4622-bf00-323139a4ce95","system_id":"levelo_inurba_marseille","lat":43.30962,"lon":5.39048,"is_reserved":false,"is_disabled":false,"rental_uris":{"android":"levelo://app?vid=363646dd-9ba9-4622-bf00-323139a4ce95","ios":"levelo://app?vid=363646dd-9ba9-4622-bf00-323139a4ce95"},"vehicle_type_id":"4","last_reported":1771317163,"current_range_meters":39200,"station_id":"ce4bgup2rcd13ifvqco0","pricing_plan_id":"cebpf4jnsgd1na2vs0mg"},{"bike_id":"57b0d595-629f-4ebf-9a5d-5ba9a820aae3","system_id":"levelo_inurba_marseille","lat":43.31534,"lon":5.37292,"is_reserved":false,"is_disabled":false,"rental_uris":{"android":"levelo://app?vid=57b0d595-629f-4ebf-9a5d-5ba9a820aae3","ios":"levelo://app?vid=57b0d595-629f-4ebf-9a5d-5ba9a820aae3"},"vehicle_type_id":"4","last_reported":1771317163,"current_range_meters":32000,"station_id":"","pricing_plan_id":"cebpf4jnsgd1na2vs0mg"},{"bike_id":"96ba3f4f-0e70-4352-8e6b-4135d6897805","system_id":"levelo_inurba_marseille","lat":43.25507,"lon":5.37654,"is_reserved":false,"is_disabled":false,"rental_uris":{"android":"levelo://app?vid=96ba3f4f-0e70-4352-8e6b-4135d6897805","ios":"levelo://app?vid=96ba3f4f-0e70-4352-8e6b-4135d6897805"},"vehicle_type_id":"4","last_reported":1771317163,"current_range_meters":35200,"station_id":"ce4bhh12rcd13ifvqff0","pricing_plan_id":"cebpf4jnsgd1na2vs0mg"},{"bike_id":"36c72a3b-1570-442e-9c9f-46e9334ca723","system_id":"levelo_inurba_marseille","lat":43.27849,"lon":5.40645,"is_reserved":false,"is_disabled":false,"rental_uris":{"android":"levelo://app?vid=36c72a3b-1570-442e-9c9f-46e9334ca723","ios":"levelo://app?vid=36c72a3b-1570-442e-9c9f-46e9334ca723"},"vehicle_type_id":"4","last_reported":1771317163,"current_range_meters":30800,"station_id":"","pricing_plan_id":"cebpf4jnsgd1na2vs0mg"},{"bike_id":"ece2f2de-f0fd-47e6-ac9b-2ed0aee91b45","system_id":"levelo_inurba_marseille","lat":43.29184,"lon":5.401,"is_reserved":false,"is_disabled":false,"rental_uris":{"android":"levelo://app?vid=ece2f2de-f0fd-47e6-ac9b-2ed0aee91b45","ios":"levelo://app?vid=ece2f2de-f0fd-47e6-ac9b-2ed0aee91b45"},"vehicle_type_id":"4","last_reported":1771317163,"current_range_meters":40000,"station_id":"ce4bh392rcd13ifvqdm0","pricing_plan_id":"cebpf4jnsgd1na2vs0mg"},{"bike_id":"71c8577a-ea5e-4c4a-931f-34c6a235fc56","system_id":"levelo_inurba_marseille","lat":43.31901,"lon":5.40745,"is_reserved":false,"is_disabled":false,"rental_uris":{"android":"levelo://app?vid=71c8577a-ea5e-4c4a-931f-34c6a235fc56","ios":"levelo://app?vid=71c8577a-ea5e-4c4a-931f-34c6a235fc56"},"vehicle_type_id":"4","last_reported":1771317163,"current_range_meters":40000,"station_id":"ce4bhq12rcd13ifvqhig","pricing_plan_id":"cebpf4jnsgd1na2vs0mg"},{"bike_id":"29127fb8-f523-47cc-86a6-886390860523","system_id":"levelo_inurba_marseille","lat":43.30602,"lon":5.37218,"is_reserved":false,"is_disabled":false,"rental_uris":{"android":"levelo://app?vid=29127fb8-f523-47cc-86a6-886390860523","ios":"levelo://app?vid=29127fb8-f523-47cc-86a6-886390860523"},"vehicle_type_id":"4","last_reported":1771317163,"current_range_meters":39200,"station_id":"ce4bgqh2rcd13ifvqc4g","pricing_plan_id":"cebpf4jnsgd1na2vs0mg"},{"bike_id":"3b6a304c-f8a3-4942-805d-a3b79cb2b45e","system_id":"levelo_inurba_marseille","lat":43.3356,"lon":5.3751,"is_reserved":false,"is_disabled":false,"rental_uris":{"android":"levelo://app?vid=3b6a304c-f8a3-4942-805d-a3b79cb2b45e","ios":"levelo://app?vid=3b6a304c-f8a3-4942-805d-a3b79cb2b45e"},"vehicle_type_id":"4","last_reported":1771317163,"current_range_meters":6000,"station_id":"st_d46tts09ee8s73dlu43g","pricing_plan_id":"cebpf4jnsgd1na2vs0mg"},{"bike_id":"f97999d0-fabb-4d7c-bf78-f69b2a00a489","system_id":"levelo_inurba_marseille","lat":43.31891,"lon":5.40737,"is_reserved":false,"is_disabled":false,"rental_uris":{"android":"levelo://app?vid=f97999d0-fabb-4d7c-bf78-f69b2a00a489","ios":"levelo://app?vid=f97999d0-fabb-4d7c-bf78-f69b2a00a489"},"vehicle_type_id":"4","last_reported":1771317163,"current_range_meters":38000,"station_id":"ce4bhq12rcd13ifvqhig","pricing_plan_id":"cebpf4jnsgd1na2vs0mg"},{"bike_id":"7f940f1e-9ea5-4e15-b1d2-09186f8fa407","system_id":"levelo_inurba_marseille","lat":43.24153,"lon":5.39724,"is_reserved":false,"is_disabled":false,"rental_uris":{"android":"levelo://app?vid=7f940f1e-9ea5-4e15-b1d2-09186f8fa407","ios":"levelo://app?vid=7f940f1e-9ea5-4e15-b1d2-09186f8fa407"},"vehicle_type_id":"4","last_reported":1771317163,"current_range_meters":33600,"station_id":"ce4bhn12rcd13ifvqgpg","pricing_plan_id":"cebpf4jnsgd1na2vs0mg"},{"bike_id":"0f2435a9-1453-42d3-ab43-655707c2179b","system_id":"levelo_inurba_marseille","lat":43.30941,"lon":5.36852,"is_reserved":false,"is_disabled":false,"rental_uris":{"android":"levelo://app?vid=0f2435a9-1453-42d3-ab43-655707c2179b","ios":"levelo://app?vid=0f2435a9-1453-42d3-ab43-655707c2179b"},"vehicle_type_id":"4","last_reported":1771317163,"current_range_meters":5600,"station_id":"ce4bgn92rcd13ifvqbvg","pricing_plan_id":"cebpf4jnsgd1na2vs0mg"},{"bike_id":"34318526-de44-41d1-a818-6be71af9e336","system_id":"levelo_inurba_marseille","lat":43.31367,"lon":5.3673,"is_reserved":false,"is_disabled":false,"rental_uris":{"android":"levelo://app?vid=34318526-de44-41d1-a818-6be71af9e336","ios":"levelo://app?vid=34318526-de44-41d1-a818-6be71af9e336"},"vehicle_type_id":"4","last_reported":1771317163,"current_range_meters":12800,"station_id":"ce4bgr92rcd13ifvqc6g","pricing_plan_id":"cebpf4jnsgd1na2vs0mg"},{"bike_id":"2162587b-0cb7-4c3a-9139-abfd5af13e34","system_id":"levelo_inurba_marseille","lat":43.24088,"lon":5.37733,"is_reserved":false,"is_disabled":false,"rental_uris":{"android":"levelo://app?vid=2162587b-0cb7-4c3a-9139-abfd5af13e34","ios":"levelo://app?vid=2162587b-0cb7-4c3a-9139-abfd5af13e34"},"vehicle_type_id":"4","last_reported":1771317163,"current_range_meters":20000,"station_id":"ce4bhnp2rcd13ifvqgvg","pricing_plan_id":"cebpf4jnsgd1na2vs0mg"},{"bike_id":"1b915f12-816d-404d-bdec-8ac4ab2fc7b2","system_id":"levelo_inurba_marseille","lat":43.27232,"lon":5.39237,"is_reserved":false,"is_disabled":false,"rental_uris":{"android":"levelo://app?vid=1b915f12-816d-404d-bdec-8ac4ab2fc7b2","ios":"levelo://app?vid=1b915f12-816d-404d-bdec-8ac4ab2fc7b2"},"vehicle_type_id":"4","last_reported":1771317163,"current_range_meters":38000,"station_id":"","pricing_plan_id":"cebpf4jnsgd1na2vs0mg"},{"bike_id":"76e9104b-6965-4f20-b33b-90cf3f90eca6","system_id":"levelo_inurba_marseille","lat":43.231438,"lon":5.437221,"is_reserved":false,"is_disabled":false,"rental_uris":{"android":"levelo://app?vid=76e9104b-6965-4f20-b33b-90cf3f90eca6","ios":"levelo://app?vid=76e9104b-6965-4f20-b33b-90cf3f90eca6"},"vehicle_type_id":"4","last_reported":1771317163,"current_range_meters":39200,"station_id":"ce4bhmp2rcd13ifvqgog","pricing_plan_id":"cebpf4jnsgd1na2vs0mg"},{"bike_id":"3db9b689-5916-47f9-aaf5-b4714cd5e511","system_id":"levelo_inurba_marseille","lat":43.28237,"lon":5.39034,"is_reserved":false,"is_disabled":false,"rental_uris":{"android":"levelo://app?vid=3db9b689-5916-47f9-aaf5-b4714cd5e511","ios":"levelo://app?vid=3db9b689-5916-47f9-aaf5-b4714cd5e511"},"vehicle_type_id":"4","last_reported":1771317163,"current_range_meters":19200,"station_id":"ce4bhn92rcd13ifvqgsg","pricing_plan_id":"cebpf4jnsgd1na2vs0mg"},{"bike_id":"4257ce27-d4f9-4a49-a222-c5a5ef7fd7bc","system_id":"levelo_inurba_marseille","lat":43.28005,"lon":5.40005,"is_reserved":false,"is_disabled":false,"rental_uris":{"android":"levelo://app?vid=4257ce27-d4f9-4a49-a222-c5a5ef7fd7bc","ios":"levelo://app?vid=4257ce27-d4f9-4a49-a222-c5a5ef7fd7bc"},"vehicle_type_id":"4","last_reported":1771317163,"current_range_meters":20800,"station_id":"ce4bho92rcd13ifvqh4g","pricing_plan_id":"cebpf4jnsgd1na2vs0mg"},{"bike_id":"504d0a5c-6d34-4e6e-b049-b85598e8a815","system_id":"levelo_inurba_marseille","lat":43.29259,"lon":5.36041,"is_reserved":false,"is_disabled":false,"rental_uris":{"android":"levelo://app?vid=504d0a5c-6d34-4e6e-b049-b85598e8a815","ios":"levelo://app?vid=504d0a5c-6d34-4e6e-b049-b85598e8a815"},"vehicle_type_id":"4","last_reported":1771317163,"current_range_meters":32800,"station_id":"ce4bhbh2rcd13ifvqeqg","pricing_plan_id":"cebpf4jnsgd1na2vs0mg"},{"bike_id":"8d6535f0-b219-41a9-a5bf-28d07bb13e74","system_id":"levelo_inurba_marseille","lat":43.31173,"lon":5.36879,"is_reserved":false,"is_disabled":false,"rental_uris":{"android":"levelo://app?vid=8d6535f0-b219-41a9-a5bf-28d07bb13e74","ios":"levelo://app?vid=8d6535f0-b219-41a9-a5bf-28d07bb13e74"},"vehicle_type_id":"4","last_reported":1771317163,"current_range_meters":18000,"station_id":"ce4bgl92rcd13ifvqbq0","pricing_plan_id":"cebpf4jnsgd1na2vs0mg"},{"bike_id":"f56b6e75-070e-4148-9d41-956869c01c1e","system_id":"levelo_inurba_marseille","lat":43.29231,"lon":5.36072,"is_reserved":false,"is_disabled":false,"rental_uris":{"android":"levelo://app?vid=f56b6e75-070e-4148-9d41-956869c01c1e","ios":"levelo://app?vid=f56b6e75-070e-4148-9d41-956869c01c1e"},"vehicle_type_id":"4","last_reported":1771317163,"current_range_meters":39200,"station_id":"ce4bhbh2rcd13ifvqeqg","pricing_plan_id":"cebpf4jnsgd1na2vs0mg"},{"bike_id":"ef43f5b3-0267-470e-a7be-73b400aa2eff","system_id":"levelo_inurba_marseille","lat":43.2511,"lon":5.40332,"is_reserved":false,"is_disabled":false,"rental_uris":{"android":"levelo://app?vid=ef43f5b3-0267-470e-a7be-73b400aa2eff","ios":"levelo://app?vid=ef43f5b3-0267-470e-a7be-73b400aa2eff"},"vehicle_type_id":"4","last_reported":1771317163,"current_range_meters":31200,"station_id":"ce4bhlh2rcd13ifvqgig","pricing_plan_id":"cebpf4jnsgd1na2vs0mg"},{"bike_id":"b0b27d44-1805-4226-9f29-7db67902ed5c","system_id":"levelo_inurba_marseille","lat":43.26607,"lon":5.39041,"is_reserved":false,"is_disabled":false,"rental_uris":{"android":"levelo://app?vid=b0b27d44-1805-4226-9f29-7db67902ed5c","ios":"levelo://app?vid=b0b27d44-1805-4226-9f29-7db67902ed5c"},"vehicle_type_id":"4","last_reported":1771317163,"current_range_meters":17200,"station_id":"","pricing_plan_id":"cebpf4jnsgd1na2vs0mg"},{"bike_id":"eec2b693-13ce-4375-854a-cf1c0218edcf","system_id":"levelo_inurba_marseille","lat":43.32063,"lon":5.41526,"is_reserved":false,"is_disabled":false,"rental_uris":{"android":"levelo://app?vid=eec2b693-13ce-4375-854a-cf1c0218edcf","ios":"levelo://app?vid=eec2b693-13ce-4375-854a-cf1c0218edcf"},"vehicle_type_id":"4","last_reported":1771317163,"current_range_meters":39200,"station_id":"ce4bhq92rcd13ifvqhkg","pricing_plan_id":"cebpf4jnsgd1na2vs0mg"},{"bike_id":"096a2b4f-649a-4b05-9407-12049c74912c","system_id":"levelo_inurba_marseille","lat":43.29553,"lon":5.37483,"is_reserved":false,"is_disabled":false,"rental_uris":{"android":"levelo://app?vid=096a2b4f-649a-4b05-9407-12049c74912c","ios":"levelo://app?vid=096a2b4f-649a-4b05-9407-12049c74912c"},"vehicle_type_id":"4","last_reported":1771317163,"current_range_meters":38000,"station_id":"ce4bgkp2rcd13ifvqbmg","pricing_plan_id":"cebpf4jnsgd1na2vs0mg"},{"bike_id":"bdf44c1c-05c7-431c-b042-833d1b922014","system_id":"levelo_inurba_marseille","lat":43.31501,"lon":5.37305,"is_reserved":false,"is_disabled":false,"rental_uris":{"android":"levelo://app?vid=bdf44c1c-05c7-431c-b042-833d1b922014","ios":"levelo://app?vid=bdf44c1c-05c7-431c-b042-833d1b922014"},"vehicle_type_id":"4","last_reported":1771317163,"current_range_meters":36800,"station_id":"ce4bgt12rcd13ifvqcd0","pricing_plan_id":"cebpf4jnsgd1na2vs0mg"},{"bike_id":"8ea4ca7b-6594-418d-9806-5e7e471eb99e","system_id":"levelo_inurba_marseille","lat":43.28926,"lon":5.38402,"is_reserved":false,"is_disabled":true,"rental_uris":{"android":"levelo://app?vid=8ea4ca7b-6594-418d-9806-5e7e471eb99e","ios":"levelo://app?vid=8ea4ca7b-6594-418d-9806-5e7e471eb99e"},"vehicle_type_id":"4","last_reported":1771317163,"current_range_meters":32800,"station_id":"ce4bh612rcd13ifvqe6g","pricing_plan_id":"cebpf4jnsgd1na2vs0mg"},{"bike_id":"3b4377ca-fc09-4041-8519-6fa3dd2f3815","system_id":"levelo_inurba_marseille","lat":43.26066,"lon":5.39398,"is_reserved":false,"is_disabled":false,"rental_uris":{"android":"levelo://app?vid=3b4377ca-fc09-4041-8519-6fa3dd2f3815","ios":"levelo://app?vid=3b4377ca-fc09-4041-8519-6fa3dd2f3815"},"vehicle_type_id":"4","last_reported":1771317163,"current_range_meters":9200,"station_id":"ce4bhh92rcd13ifvqfj0","pricing_plan_id":"cebpf4jnsgd1na2vs0mg"},{"bike_id":"26193086-708b-421d-a246-aee2951670ce","system_id":"levelo_inurba_marseille","lat":43.26705,"lon":5.38245,"is_reserved":false,"is_disabled":false,"rental_uris":{"android":"levelo://app?vid=26193086-708b-421d-a246-aee2951670ce","ios":"levelo://app?vid=26193086-708b-421d-a246-aee2951670ce"},"vehicle_type_id":"4","last_reported":1771317163,"current_range_meters":35200,"station_id":"ce4bhg92rcd13ifvqf90","pricing_plan_id":"cebpf4jnsgd1na2vs0mg"},{"bike_id":"b3fb45fb-0bd1-4ca9-a30a-9d2de317269a","system_id":"levelo_inurba_marseille","lat":43.28931,"lon":5.36638,"is_reserved":false,"is_disabled":false,"rental_uris":{"android":"levelo://app?vid=b3fb45fb-0bd1-4ca9-a30a-9d2de317269a","ios":"levelo://app?vid=b3fb45fb-0bd1-4ca9-a30a-9d2de317269a"},"vehicle_type_id":"4","last_reported":1771317163,"current_range_meters":23200,"station_id":"ce4bhap2rcd13ifvqek0","pricing_plan_id":"cebpf4jnsgd1na2vs0mg"},{"bike_id":"a668fec0-b263-47f7-a56a-54b7e869739f","system_id":"levelo_inurba_marseille","lat":43.29573,"lon":5.37522,"is_reserved":false,"is_disabled":false,"rental_uris":{"android":"levelo://app?vid=a668fec0-b263-47f7-a56a-54b7e869739f","ios":"levelo://app?vid=a668fec0-b263-47f7-a56a-54b7e869739f"},"vehicle_type_id":"4","last_reported":1771317163,"current_range_meters":39200,"station_id":"ce4bgh92rcd13ifvqb50","pricing_plan_id":"cebpf4jnsgd1na2vs0mg"},{"bike_id":"f6a3a1d8-734a-46cb-a4a6-0106803d882f","system_id":"levelo_inurba_marseille","lat":43.28935,"lon":5.3963,"is_reserved":false,"is_disabled":false,"rental_uris":{"android":"levelo://app?vid=f6a3a1d8-734a-46cb-a4a6-0106803d882f","ios":"levelo://app?vid=f6a3a1d8-734a-46cb-a4a6-0106803d882f"},"vehicle_type_id":"4","last_reported":1771317163,"current_range_meters":38400,"station_id":"ce4bh3h2rcd13ifvqdn0","pricing_plan_id":"cebpf4jnsgd1na2vs0mg"},{"bike_id":"edefbba7-a2c1-4dbd-9a2e-24f7c844bd9c","system_id":"levelo_inurba_marseille","lat":43.31524,"lon":5.37278,"is_reserved":false,"is_disabled":false,"rental_uris":{"android":"levelo://app?vid=edefbba7-a2c1-4dbd-9a2e-24f7c844bd9c","ios":"levelo://app?vid=edefbba7-a2c1-4dbd-9a2e-24f7c844bd9c"},"vehicle_type_id":"4","last_reported":1771317163,"current_range_meters":39200,"station_id":"ce4bgt12rcd13ifvqcd0","pricing_plan_id":"cebpf4jnsgd1na2vs0mg"},{"bike_id":"80e19425-1557-472d-a368-fcf158873d8f","system_id":"levelo_inurba_marseille","lat":43.276081,"lon":5.361283,"is_reserved":false,"is_disabled":false,"rental_uris":{"android":"levelo://app?vid=80e19425-1557-472d-a368-fcf158873d8f","ios":"levelo://app?vid=80e19425-1557-472d-a368-fcf158873d8f"},"vehicle_type_id":"4","last_reported":1771317163,"current_range_meters":38400,"station_id":"ce4bgj92rcd13ifvqbe0","pricing_plan_id":"cebpf4jnsgd1na2vs0mg"},{"bike_id":"07a2b976-43ae-44b8-97af-030f6a8e146d","system_id":"levelo_inurba_marseille","lat":43.33784,"lon":5.37462,"is_reserved":false,"is_disabled":false,"rental_uris":{"android":"levelo://app?vid=07a2b976-43ae-44b8-97af-030f6a8e146d","ios":"levelo://app?vid=07a2b976-43ae-44b8-97af-030f6a8e146d"},"vehicle_type_id":"4","last_reported":1771317163,"current_range_meters":39200,"station_id":"","pricing_plan_id":"cebpf4jnsgd1na2vs0mg"},{"bike_id":"4dcbf679-cdd4-4ee9-878d-44ab492dd40a","system_id":"levelo_inurba_marseille","lat":43.29243,"lon":5.36078,"is_reserved":false,"is_disabled":false,"rental_uris":{"android":"levelo://app?vid=4dcbf679-cdd4-4ee9-878d-44ab492dd40a","ios":"levelo://app?vid=4dcbf679-cdd4-4ee9-878d-44ab492dd40a"},"vehicle_type_id":"4","last_reported":1771317163,"current_range_meters":39200,"station_id":"ce4bhbh2rcd13ifvqeqg","pricing_plan_id":"cebpf4jnsgd1na2vs0mg"},{"bike_id":"b588c612-66a2-412a-bcfa-615a774bd491","system_id":"levelo_inurba_marseille","lat":43.25009,"lon":5.38945,"is_reserved":false,"is_disabled":false,"rental_uris":{"android":"levelo://app?vid=b588c612-66a2-412a-bcfa-615a774bd491","ios":"levelo://app?vid=b588c612-66a2-412a-bcfa-615a774bd491"},"vehicle_type_id":"4","last_reported":1771317163,"current_range_meters":40000,"station_id":"ce4bhgp2rcd13ifvqfd0","pricing_plan_id":"cebpf4jnsgd1na2vs0mg"},{"bike_id":"9a71aafb-3414-42bb-a93e-c329b1fce7db","system_id":"levelo_inurba_marseille","lat":43.25833,"lon":5.39434,"is_reserved":false,"is_disabled":false,"rental_uris":{"android":"levelo://app?vid=9a71aafb-3414-42bb-a93e-c329b1fce7db","ios":"levelo://app?vid=9a71aafb-3414-42bb-a93e-c329b1fce7db"},"vehicle_type_id":"4","last_reported":1771317163,"current_range_meters":29600,"station_id":"ce4bhip2rcd13ifvqft0","pricing_plan_id":"cebpf4jnsgd1na2vs0mg"},{"bike_id":"c5112cbf-4cbb-46c2-986f-3e291959c697","system_id":"levelo_inurba_marseille","lat":43.29037,"lon":5.37568,"is_reserved":false,"is_disabled":false,"rental_uris":{"android":"levelo://app?vid=c5112cbf-4cbb-46c2-986f-3e291959c697","ios":"levelo://app?vid=c5112cbf-4cbb-46c2-986f-3e291959c697"},"vehicle_type_id":"4","last_reported":1771317163,"current_range_meters":30400,"station_id":"ce4bh692rcd13ifvqe90","pricing_plan_id":"cebpf4jnsgd1na2vs0mg"},{"bike_id":"67c28a86-bb36-4b32-af54-143677bf63e8","system_id":"levelo_inurba_marseille","lat":43.27357,"lon":5.39086,"is_reserved":false,"is_disabled":false,"rental_uris":{"android":"levelo://app?vid=67c28a86-bb36-4b32-af54-143677bf63e8","ios":"levelo://app?vid=67c28a86-bb36-4b32-af54-143677bf63e8"},"vehicle_type_id":"4","last_reported":1771317163,"current_range_meters":27600,"station_id":"","pricing_plan_id":"cebpf4jnsgd1na2vs0mg"},{"bike_id":"40a2d767-9a8e-4aa3-bded-343bcd3a8041","system_id":"levelo_inurba_marseille","lat":43.24204,"lon":5.36394,"is_reserved":false,"is_disabled":false,"rental_uris":{"android":"levelo://app?vid=40a2d767-9a8e-4aa3-bded-343bcd3a8041","ios":"levelo://app?vid=40a2d767-9a8e-4aa3-bded-343bcd3a8041"},"vehicle_type_id":"4","last_reported":1771317163,"current_range_meters":4800,"station_id":"cpo36qri1sfpv3e86is0","pricing_plan_id":"cebpf4jnsgd1na2vs0mg"},{"bike_id":"344ab77a-fc63-4fbe-bd21-8658b565d899","system_id":"levelo_inurba_marseille","lat":43.26373,"lon":5.41086,"is_reserved":false,"is_disabled":false,"rental_uris":{"android":"levelo://app?vid=344ab77a-fc63-4fbe-bd21-8658b565d899","ios":"levelo://app?vid=344ab77a-fc63-4fbe-bd21-8658b565d899"},"vehicle_type_id":"4","last_reported":1771317163,"current_range_meters":9200,"station_id":"st_d4e5ca6na9uc73bfl5fg","pricing_plan_id":"cebpf4jnsgd1na2vs0mg"},{"bike_id":"291fd895-74ca-4810-9b4d-355f11692100","system_id":"levelo_inurba_marseille","lat":43.27894,"lon":5.38739,"is_reserved":false,"is_disabled":false,"rental_uris":{"android":"levelo://app?vid=291fd895-74ca-4810-9b4d-355f11692100","ios":"levelo://app?vid=291fd895-74ca-4810-9b4d-355f11692100"},"vehicle_type_id":"4","last_reported":1771317163,"current_range_meters":36400,"station_id":"ce4bhg12rcd13ifvqf80","pricing_plan_id":"cebpf4jnsgd1na2vs0mg"},{"bike_id":"53022a12-fe7d-4e6a-8699-1199ba146b98","system_id":"levelo_inurba_marseille","lat":43.29179,"lon":5.35833,"is_reserved":false,"is_disabled":false,"rental_uris":{"android":"levelo://app?vid=53022a12-fe7d-4e6a-8699-1199ba146b98","ios":"levelo://app?vid=53022a12-fe7d-4e6a-8699-1199ba146b98"},"vehicle_type_id":"4","last_reported":1771317163,"current_range_meters":16400,"station_id":"ce4bhb12rcd13ifvqel0","pricing_plan_id":"cebpf4jnsgd1na2vs0mg"},{"bike_id":"55d2f36a-9a72-4961-bbdb-5937e41fb5f7","system_id":"levelo_inurba_marseille","lat":43.31046,"lon":5.37171,"is_reserved":false,"is_disabled":false,"rental_uris":{"android":"levelo://app?vid=55d2f36a-9a72-4961-bbdb-5937e41fb5f7","ios":"levelo://app?vid=55d2f36a-9a72-4961-bbdb-5937e41fb5f7"},"vehicle_type_id":"4","last_reported":1771317163,"current_range_meters":29600,"station_id":"st_d4kl2rp97mjs73e7tdfg","pricing_plan_id":"cebpf4jnsgd1na2vs0mg"},{"bike_id":"201fb896-ea03-4c78-ad0f-3d18183e4ae3","system_id":"levelo_inurba_marseille","lat":43.29938,"lon":5.37466,"is_reserved":false,"is_disabled":false,"rental_uris":{"android":"levelo://app?vid=201fb896-ea03-4c78-ad0f-3d18183e4ae3","ios":"levelo://app?vid=201fb896-ea03-4c78-ad0f-3d18183e4ae3"},"vehicle_type_id":"4","last_reported":1771317163,"current_range_meters":36000,"station_id":"ce4bgjh2rcd13ifvqbg0","pricing_plan_id":"cebpf4jnsgd1na2vs0mg"},{"bike_id":"8e4d0fb2-0b0a-434c-902e-d3ab3497cc31","system_id":"levelo_inurba_marseille","lat":43.28183,"lon":5.42641,"is_reserved":false,"is_disabled":false,"rental_uris":{"android":"levelo://app?vid=8e4d0fb2-0b0a-434c-902e-d3ab3497cc31","ios":"levelo://app?vid=8e4d0fb2-0b0a-434c-902e-d3ab3497cc31"},"vehicle_type_id":"4","last_reported":1771317163,"current_range_meters":39200,"station_id":"ce4bhnh2rcd13ifvqgug","pricing_plan_id":"cebpf4jnsgd1na2vs0mg"},{"bike_id":"9c9302ed-c2af-40cd-9047-f491de3d893a","system_id":"levelo_inurba_marseille","lat":43.24656,"lon":5.43139,"is_reserved":false,"is_disabled":false,"rental_uris":{"android":"levelo://app?vid=9c9302ed-c2af-40cd-9047-f491de3d893a","ios":"levelo://app?vid=9c9302ed-c2af-40cd-9047-f491de3d893a"},"vehicle_type_id":"4","last_reported":1771317163,"current_range_meters":13600,"station_id":"st_d2m6c4gdas8pm72e190g","pricing_plan_id":"cebpf4jnsgd1na2vs0mg"},{"bike_id":"5bd5d47a-a4a1-4974-98ff-7c2a250f99a6","system_id":"levelo_inurba_marseille","lat":43.30535,"lon":5.36537,"is_reserved":false,"is_disabled":false,"rental_uris":{"android":"levelo://app?vid=5bd5d47a-a4a1-4974-98ff-7c2a250f99a6","ios":"levelo://app?vid=5bd5d47a-a4a1-4974-98ff-7c2a250f99a6"},"vehicle_type_id":"4","last_reported":1771317163,"current_range_meters":12800,"station_id":"ce4bgs12rcd13ifvqcag","pricing_plan_id":"cebpf4jnsgd1na2vs0mg"},{"bike_id":"addd33a1-5186-4324-b702-4ac89f3f7ce6","system_id":"levelo_inurba_marseille","lat":43.26067,"lon":5.39394,"is_reserved":false,"is_disabled":false,"rental_uris":{"android":"levelo://app?vid=addd33a1-5186-4324-b702-4ac89f3f7ce6","ios":"levelo://app?vid=addd33a1-5186-4324-b702-4ac89f3f7ce6"},"vehicle_type_id":"4","last_reported":1771317163,"current_range_meters":30000,"station_id":"ce4bhh92rcd13ifvqfj0","pricing_plan_id":"cebpf4jnsgd1na2vs0mg"},{"bike_id":"ba92b8d4-a5c2-4544-b864-7d7e1907e78d","system_id":"levelo_inurba_marseille","lat":43.31249,"lon":5.36871,"is_reserved":false,"is_disabled":false,"rental_uris":{"android":"levelo://app?vid=ba92b8d4-a5c2-4544-b864-7d7e1907e78d","ios":"levelo://app?vid=ba92b8d4-a5c2-4544-b864-7d7e1907e78d"},"vehicle_type_id":"4","last_reported":1771317163,"current_range_meters":19600,"station_id":"ce4bgl92rcd13ifvqbq0","pricing_plan_id":"cebpf4jnsgd1na2vs0mg"},{"bike_id":"9b5505e5-e9dc-4184-902c-d7980dbe091f","system_id":"levelo_inurba_marseille","lat":43.25574,"lon":5.382444,"is_reserved":false,"is_disabled":false,"rental_uris":{"android":"levelo://app?vid=9b5505e5-e9dc-4184-902c-d7980dbe091f","ios":"levelo://app?vid=9b5505e5-e9dc-4184-902c-d7980dbe091f"},"vehicle_type_id":"4","last_reported":1771317163,"current_range_meters":20800,"station_id":"ce4bhih2rcd13ifvqfs0","pricing_plan_id":"cebpf4jnsgd1na2vs0mg"},{"bike_id":"1c450736-75d4-445e-bc81-24d71b2f8367","system_id":"levelo_inurba_marseille","lat":43.29039,"lon":5.38141,"is_reserved":false,"is_disabled":false,"rental_uris":{"android":"levelo://app?vid=1c450736-75d4-445e-bc81-24d71b2f8367","ios":"levelo://app?vid=1c450736-75d4-445e-bc81-24d71b2f8367"},"vehicle_type_id":"4","last_reported":1771317163,"current_range_meters":38000,"station_id":"ce4bh4p2rcd13ifvqe1g","pricing_plan_id":"cebpf4jnsgd1na2vs0mg"},{"bike_id":"88353c84-bf04-4df4-ba4f-667293e40e11","system_id":"levelo_inurba_marseille","lat":43.27984,"lon":5.38766,"is_reserved":false,"is_disabled":false,"rental_uris":{"android":"levelo://app?vid=88353c84-bf04-4df4-ba4f-667293e40e11","ios":"levelo://app?vid=88353c84-bf04-4df4-ba4f-667293e40e11"},"vehicle_type_id":"4","last_reported":1771317163,"current_range_meters":38400,"station_id":"ce4bhg12rcd13ifvqf80","pricing_plan_id":"cebpf4jnsgd1na2vs0mg"},{"bike_id":"f534b28d-e192-4bf7-a558-85c8707f4595","system_id":"levelo_inurba_marseille","lat":43.31266,"lon":5.36857,"is_reserved":false,"is_disabled":false,"rental_uris":{"android":"levelo://app?vid=f534b28d-e192-4bf7-a558-85c8707f4595","ios":"levelo://app?vid=f534b28d-e192-4bf7-a558-85c8707f4595"},"vehicle_type_id":"4","last_reported":1771317163,"current_range_meters":31200,"station_id":"ce4bgl92rcd13ifvqbq0","pricing_plan_id":"cebpf4jnsgd1na2vs0mg"},{"bike_id":"099ae8cc-79c3-4957-b851-779e2c6abde9","system_id":"levelo_inurba_marseille","lat":43.32367,"lon":5.38896,"is_reserved":false,"is_disabled":true,"rental_uris":{"android":"levelo://app?vid=099ae8cc-79c3-4957-b851-779e2c6abde9","ios":"levelo://app?vid=099ae8cc-79c3-4957-b851-779e2c6abde9"},"vehicle_type_id":"4","last_reported":1771317163,"current_range_meters":25600,"station_id":"","pricing_plan_id":"cebpf4jnsgd1na2vs0mg"},{"bike_id":"dcb46e53-479a-4eb4-80ee-4c4b8b773271","system_id":"levelo_inurba_marseille","lat":43.28689,"lon":5.35507,"is_reserved":false,"is_disabled":true,"rental_uris":{"android":"levelo://app?vid=dcb46e53-479a-4eb4-80ee-4c4b8b773271","ios":"levelo://app?vid=dcb46e53-479a-4eb4-80ee-4c4b8b773271"},"vehicle_type_id":"4","last_reported":1771317163,"current_range_meters":38400,"station_id":"","pricing_plan_id":"cebpf4jnsgd1na2vs0mg"},{"bike_id":"6d3a826c-88c9-4a8c-9c43-415d2b4390c4","system_id":"levelo_inurba_marseille","lat":43.26023,"lon":5.37584,"is_reserved":false,"is_disabled":true,"rental_uris":{"android":"levelo://app?vid=6d3a826c-88c9-4a8c-9c43-415d2b4390c4","ios":"levelo://app?vid=6d3a826c-88c9-4a8c-9c43-415d2b4390c4"},"vehicle_type_id":"4","last_reported":1771317163,"current_range_meters":38000,"station_id":"ce4bhgh2rcd13ifvqfa0","pricing_plan_id":"cebpf4jnsgd1na2vs0mg"},{"bike_id":"39c0bb6d-c266-41ba-b23c-298cf81c4a32","system_id":"levelo_inurba_marseille","lat":43.28275,"lon":5.35055,"is_reserved":false,"is_disabled":false,"rental_uris":{"android":"levelo://app?vid=39c0bb6d-c266-41ba-b23c-298cf81c4a32","ios":"levelo://app?vid=39c0bb6d-c266-41ba-b23c-298cf81c4a32"},"vehicle_type_id":"4","last_reported":1771317163,"current_range_meters":19600,"station_id":"ce4bhbp2rcd13ifvqerg","pricing_plan_id":"cebpf4jnsgd1na2vs0mg"},{"bike_id":"5b996b3e-6b21-469b-bb23-e8a6260650d3","system_id":"levelo_inurba_marseille","lat":43.28154,"lon":5.42652,"is_reserved":false,"is_disabled":false,"rental_uris":{"android":"levelo://app?vid=5b996b3e-6b21-469b-bb23-e8a6260650d3","ios":"levelo://app?vid=5b996b3e-6b21-469b-bb23-e8a6260650d3"},"vehicle_type_id":"4","last_reported":1771317163,"current_range_meters":19600,"station_id":"ce4bhnh2rcd13ifvqgug","pricing_plan_id":"cebpf4jnsgd1na2vs0mg"},{"bike_id":"e8c782a2-38e1-49b2-9d0c-e0d2448ef51c","system_id":"levelo_inurba_marseille","lat":43.29172,"lon":5.37198,"is_reserved":false,"is_disabled":false,"rental_uris":{"android":"levelo://app?vid=e8c782a2-38e1-49b2-9d0c-e0d2448ef51c","ios":"levelo://app?vid=e8c782a2-38e1-49b2-9d0c-e0d2448ef51c"},"vehicle_type_id":"4","last_reported":1771317163,"current_range_meters":36800,"station_id":"ce4bha92rcd13ifvqeh0","pricing_plan_id":"cebpf4jnsgd1na2vs0mg"},{"bike_id":"ee520404-8764-4e6d-9db7-583906d777d1","system_id":"levelo_inurba_marseille","lat":43.28621,"lon":5.35098,"is_reserved":false,"is_disabled":false,"rental_uris":{"android":"levelo://app?vid=ee520404-8764-4e6d-9db7-583906d777d1","ios":"levelo://app?vid=ee520404-8764-4e6d-9db7-583906d777d1"},"vehicle_type_id":"4","last_reported":1771317163,"current_range_meters":22000,"station_id":"ce4bhch2rcd13ifvqeug","pricing_plan_id":"cebpf4jnsgd1na2vs0mg"},{"bike_id":"d7b9bab2-8c15-4f04-b30d-9182fb77c28b","system_id":"levelo_inurba_marseille","lat":43.27463,"lon":5.42443,"is_reserved":false,"is_disabled":false,"rental_uris":{"android":"levelo://app?vid=d7b9bab2-8c15-4f04-b30d-9182fb77c28b","ios":"levelo://app?vid=d7b9bab2-8c15-4f04-b30d-9182fb77c28b"},"vehicle_type_id":"4","last_reported":1771317163,"current_range_meters":11600,"station_id":"ce4bhn92rcd13ifvqgrg","pricing_plan_id":"cebpf4jnsgd1na2vs0mg"},{"bike_id":"68490eec-f391-49c4-8b88-230750992a04","system_id":"levelo_inurba_marseille","lat":43.30866,"lon":5.37192,"is_reserved":false,"is_disabled":false,"rental_uris":{"android":"levelo://app?vid=68490eec-f391-49c4-8b88-230750992a04","ios":"levelo://app?vid=68490eec-f391-49c4-8b88-230750992a04"},"vehicle_type_id":"4","last_reported":1771317163,"current_range_meters":36800,"station_id":"ce4bguh2rcd13ifvqckg","pricing_plan_id":"cebpf4jnsgd1na2vs0mg"},{"bike_id":"ff63a14e-a8dd-4dbf-a591-a3dee9c10966","system_id":"levelo_inurba_marseille","lat":43.30932,"lon":5.36848,"is_reserved":false,"is_disabled":false,"rental_uris":{"android":"levelo://app?vid=ff63a14e-a8dd-4dbf-a591-a3dee9c10966","ios":"levelo://app?vid=ff63a14e-a8dd-4dbf-a591-a3dee9c10966"},"vehicle_type_id":"4","last_reported":1771317163,"current_range_meters":28000,"station_id":"ce4bgn92rcd13ifvqbvg","pricing_plan_id":"cebpf4jnsgd1na2vs0mg"},{"bike_id":"cb394af1-e3d3-41f3-a3b2-1c00a23f8961","system_id":"levelo_inurba_marseille","lat":43.29298,"lon":5.37447,"is_reserved":false,"is_disabled":false,"rental_uris":{"android":"levelo://app?vid=cb394af1-e3d3-41f3-a3b2-1c00a23f8961","ios":"levelo://app?vid=cb394af1-e3d3-41f3-a3b2-1c00a23f8961"},"vehicle_type_id":"4","last_reported":1771317163,"current_range_meters":34000,"station_id":"ce4bgi12rcd13ifvqb70","pricing_plan_id":"cebpf4jnsgd1na2vs0mg"},{"bike_id":"e7c8efd4-9e0a-418a-992f-820d37a4bd29","system_id":"levelo_inurba_marseille","lat":43.30339,"lon":5.40275,"is_reserved":false,"is_disabled":false,"rental_uris":{"android":"levelo://app?vid=e7c8efd4-9e0a-418a-992f-820d37a4bd29","ios":"levelo://app?vid=e7c8efd4-9e0a-418a-992f-820d37a4bd29"},"vehicle_type_id":"4","last_reported":1771317163,"current_range_meters":12400,"station_id":"","pricing_plan_id":"cebpf4jnsgd1na2vs0mg"},{"bike_id":"279a69f9-1457-40fd-894b-68248c11b6e7","system_id":"levelo_inurba_marseille","lat":43.2637,"lon":5.41053,"is_reserved":false,"is_disabled":false,"rental_uris":{"android":"levelo://app?vid=279a69f9-1457-40fd-894b-68248c11b6e7","ios":"levelo://app?vid=279a69f9-1457-40fd-894b-68248c11b6e7"},"vehicle_type_id":"4","last_reported":1771317163,"current_range_meters":27200,"station_id":"st_d4e5ca6na9uc73bfl5fg","pricing_plan_id":"cebpf4jnsgd1na2vs0mg"},{"bike_id":"aabd40cd-54bd-4dba-afe3-b43fa7a6fb33","system_id":"levelo_inurba_marseille","lat":43.21189,"lon":5.35081,"is_reserved":false,"is_disabled":true,"rental_uris":{"android":"levelo://app?vid=aabd40cd-54bd-4dba-afe3-b43fa7a6fb33","ios":"levelo://app?vid=aabd40cd-54bd-4dba-afe3-b43fa7a6fb33"},"vehicle_type_id":"4","last_reported":1771317163,"current_range_meters":0,"station_id":"","pricing_plan_id":"cebpf4jnsgd1na2vs0mg"},{"bike_id":"6e14feb7-753c-4804-bdc9-e912ef41a703","system_id":"levelo_inurba_marseille","lat":43.243803,"lon":5.370532,"is_reserved":false,"is_disabled":false,"rental_uris":{"android":"levelo://app?vid=6e14feb7-753c-4804-bdc9-e912ef41a703","ios":"levelo://app?vid=6e14feb7-753c-4804-bdc9-e912ef41a703"},"vehicle_type_id":"4","last_reported":1771317163,"current_range_meters":28800,"station_id":"ce4bhhh2rcd13ifvqfk0","pricing_plan_id":"cebpf4jnsgd1na2vs0mg"},{"bike_id":"2dd47143-fcce-4d1c-b676-78c1b5bba6e2","system_id":"levelo_inurba_marseille","lat":43.24808,"lon":5.37466,"is_reserved":false,"is_disabled":false,"rental_uris":{"android":"levelo://app?vid=2dd47143-fcce-4d1c-b676-78c1b5bba6e2","ios":"levelo://app?vid=2dd47143-fcce-4d1c-b676-78c1b5bba6e2"},"vehicle_type_id":"4","last_reported":1771317163,"current_range_meters":2800,"station_id":"ce4bhgh2rcd13ifvqfb0","pricing_plan_id":"cebpf4jnsgd1na2vs0mg"},{"bike_id":"a2989192-8d09-4174-ab11-6beee2d42145","system_id":"levelo_inurba_marseille","lat":43.313652,"lon":5.36703,"is_reserved":false,"is_disabled":false,"rental_uris":{"android":"levelo://app?vid=a2989192-8d09-4174-ab11-6beee2d42145","ios":"levelo://app?vid=a2989192-8d09-4174-ab11-6beee2d42145"},"vehicle_type_id":"4","last_reported":1771317163,"current_range_meters":32000,"station_id":"ce4bgrh2rcd13ifvqc8g","pricing_plan_id":"cebpf4jnsgd1na2vs0mg"},{"bike_id":"937f3d25-b848-495b-a330-e41b28ba6403","system_id":"levelo_inurba_marseille","lat":43.24084,"lon":5.37743,"is_reserved":false,"is_disabled":false,"rental_uris":{"android":"levelo://app?vid=937f3d25-b848-495b-a330-e41b28ba6403","ios":"levelo://app?vid=937f3d25-b848-495b-a330-e41b28ba6403"},"vehicle_type_id":"4","last_reported":1771317163,"current_range_meters":40000,"station_id":"ce4bhnp2rcd13ifvqgvg","pricing_plan_id":"cebpf4jnsgd1na2vs0mg"},{"bike_id":"615e0dc3-a86b-4d0c-978d-95bdcb24945d","system_id":"levelo_inurba_marseille","lat":43.27853,"lon":5.3921,"is_reserved":false,"is_disabled":false,"rental_uris":{"android":"levelo://app?vid=615e0dc3-a86b-4d0c-978d-95bdcb24945d","ios":"levelo://app?vid=615e0dc3-a86b-4d0c-978d-95bdcb24945d"},"vehicle_type_id":"4","last_reported":1771317163,"current_range_meters":34800,"station_id":"ce4bhjp2rcd13ifvqga0","pricing_plan_id":"cebpf4jnsgd1na2vs0mg"},{"bike_id":"6b9694b3-51f3-4a5e-a18f-3a0341ea4e2d","system_id":"levelo_inurba_marseille","lat":43.29843,"lon":5.36284,"is_reserved":false,"is_disabled":false,"rental_uris":{"android":"levelo://app?vid=6b9694b3-51f3-4a5e-a18f-3a0341ea4e2d","ios":"levelo://app?vid=6b9694b3-51f3-4a5e-a18f-3a0341ea4e2d"},"vehicle_type_id":"4","last_reported":1771317163,"current_range_meters":38800,"station_id":"ce4bgpp2rcd13ifvqc3g","pricing_plan_id":"cebpf4jnsgd1na2vs0mg"},{"bike_id":"7cdcc1b2-92de-42b2-a7cd-06b9eab80f75","system_id":"levelo_inurba_marseille","lat":43.2957,"lon":5.39971,"is_reserved":false,"is_disabled":false,"rental_uris":{"android":"levelo://app?vid=7cdcc1b2-92de-42b2-a7cd-06b9eab80f75","ios":"levelo://app?vid=7cdcc1b2-92de-42b2-a7cd-06b9eab80f75"},"vehicle_type_id":"4","last_reported":1771317163,"current_range_meters":6400,"station_id":"ce4bh312rcd13ifvqdj0","pricing_plan_id":"cebpf4jnsgd1na2vs0mg"},{"bike_id":"834013b6-24d6-4cde-b39c-d15c054425ae","system_id":"levelo_inurba_marseille","lat":43.2959,"lon":5.37502,"is_reserved":false,"is_disabled":true,"rental_uris":{"android":"levelo://app?vid=834013b6-24d6-4cde-b39c-d15c054425ae","ios":"levelo://app?vid=834013b6-24d6-4cde-b39c-d15c054425ae"},"vehicle_type_id":"4","last_reported":1771317163,"current_range_meters":39200,"station_id":"ce4bgh92rcd13ifvqb50","pricing_plan_id":"cebpf4jnsgd1na2vs0mg"},{"bike_id":"21fd07e1-caf4-4951-a83f-0bb4c9d8a5cf","system_id":"levelo_inurba_marseille","lat":43.26549,"lon":5.372944,"is_reserved":false,"is_disabled":false,"rental_uris":{"android":"levelo://app?vid=21fd07e1-caf4-4951-a83f-0bb4c9d8a5cf","ios":"levelo://app?vid=21fd07e1-caf4-4951-a83f-0bb4c9d8a5cf"},"vehicle_type_id":"4","last_reported":1771317163,"current_range_meters":20800,"station_id":"ce4bhg12rcd13ifvqf70","pricing_plan_id":"cebpf4jnsgd1na2vs0mg"},{"bike_id":"8e71ac91-0568-45e8-9b6a-a8c9ae9c07db","system_id":"levelo_inurba_marseille","lat":43.31211,"lon":5.36891,"is_reserved":false,"is_disabled":false,"rental_uris":{"android":"levelo://app?vid=8e71ac91-0568-45e8-9b6a-a8c9ae9c07db","ios":"levelo://app?vid=8e71ac91-0568-45e8-9b6a-a8c9ae9c07db"},"vehicle_type_id":"4","last_reported":1771317163,"current_range_meters":38000,"station_id":"ce4bgl92rcd13ifvqbq0","pricing_plan_id":"cebpf4jnsgd1na2vs0mg"},{"bike_id":"6e162cf7-1f7d-4120-9d73-84a7a23edeec","system_id":"levelo_inurba_marseille","lat":43.33715,"lon":5.39197,"is_reserved":false,"is_disabled":false,"rental_uris":{"android":"levelo://app?vid=6e162cf7-1f7d-4120-9d73-84a7a23edeec","ios":"levelo://app?vid=6e162cf7-1f7d-4120-9d73-84a7a23edeec"},"vehicle_type_id":"4","last_reported":1771317163,"current_range_meters":40000,"station_id":"ce4bhr92rcd13ifvqhsg","pricing_plan_id":"cebpf4jnsgd1na2vs0mg"},{"bike_id":"307115b0-5e6a-4558-8a7c-a8e1a85a8c63","system_id":"levelo_inurba_marseille","lat":43.28731,"lon":5.39985,"is_reserved":false,"is_disabled":false,"rental_uris":{"android":"levelo://app?vid=307115b0-5e6a-4558-8a7c-a8e1a85a8c63","ios":"levelo://app?vid=307115b0-5e6a-4558-8a7c-a8e1a85a8c63"},"vehicle_type_id":"4","last_reported":1771317163,"current_range_meters":32400,"station_id":"ce4bho92rcd13ifvqh3g","pricing_plan_id":"cebpf4jnsgd1na2vs0mg"},{"bike_id":"849004ff-453e-4a0c-bf07-5f9fb058a404","system_id":"levelo_inurba_marseille","lat":43.24402,"lon":5.37069,"is_reserved":false,"is_disabled":false,"rental_uris":{"android":"levelo://app?vid=849004ff-453e-4a0c-bf07-5f9fb058a404","ios":"levelo://app?vid=849004ff-453e-4a0c-bf07-5f9fb058a404"},"vehicle_type_id":"4","last_reported":1771317163,"current_range_meters":26000,"station_id":"ce4bhhh2rcd13ifvqfk0","pricing_plan_id":"cebpf4jnsgd1na2vs0mg"},{"bike_id":"ac544239-21c1-43e5-9ea4-9cfa3ff8f4db","system_id":"levelo_inurba_marseille","lat":43.2594,"lon":5.40917,"is_reserved":false,"is_disabled":false,"rental_uris":{"android":"levelo://app?vid=ac544239-21c1-43e5-9ea4-9cfa3ff8f4db","ios":"levelo://app?vid=ac544239-21c1-43e5-9ea4-9cfa3ff8f4db"},"vehicle_type_id":"4","last_reported":1771317163,"current_range_meters":28400,"station_id":"ce4bhm92rcd13ifvqglg","pricing_plan_id":"cebpf4jnsgd1na2vs0mg"},{"bike_id":"e7e7af6f-3951-4e91-981a-e2f090511a53","system_id":"levelo_inurba_marseille","lat":43.262,"lon":5.37938,"is_reserved":false,"is_disabled":false,"rental_uris":{"android":"levelo://app?vid=e7e7af6f-3951-4e91-981a-e2f090511a53","ios":"levelo://app?vid=e7e7af6f-3951-4e91-981a-e2f090511a53"},"vehicle_type_id":"4","last_reported":1771317163,"current_range_meters":20000,"station_id":"ce4bhjp2rcd13ifvqg90","pricing_plan_id":"cebpf4jnsgd1na2vs0mg"},{"bike_id":"d639211d-aaf1-4624-82a8-69cd6e860d35","system_id":"levelo_inurba_marseille","lat":43.2849,"lon":5.48394,"is_reserved":false,"is_disabled":false,"rental_uris":{"android":"levelo://app?vid=d639211d-aaf1-4624-82a8-69cd6e860d35","ios":"levelo://app?vid=d639211d-aaf1-4624-82a8-69cd6e860d35"},"vehicle_type_id":"4","last_reported":1771317163,"current_range_meters":31200,"station_id":"st_d3svhcjqgbts73a3dn0g","pricing_plan_id":"cebpf4jnsgd1na2vs0mg"},{"bike_id":"77667d7f-d2a6-4e03-b66a-d643ae734f5b","system_id":"levelo_inurba_marseille","lat":43.26543,"lon":5.39088,"is_reserved":false,"is_disabled":false,"rental_uris":{"android":"levelo://app?vid=77667d7f-d2a6-4e03-b66a-d643ae734f5b","ios":"levelo://app?vid=77667d7f-d2a6-4e03-b66a-d643ae734f5b"},"vehicle_type_id":"4","last_reported":1771317163,"current_range_meters":23200,"station_id":"","pricing_plan_id":"cebpf4jnsgd1na2vs0mg"},{"bike_id":"d49f1f1b-9a89-4fee-8041-ef2d20d063c1","system_id":"levelo_inurba_marseille","lat":43.30487,"lon":5.37905,"is_reserved":false,"is_disabled":false,"rental_uris":{"android":"levelo://app?vid=d49f1f1b-9a89-4fee-8041-ef2d20d063c1","ios":"levelo://app?vid=d49f1f1b-9a89-4fee-8041-ef2d20d063c1"},"vehicle_type_id":"4","last_reported":1771317163,"current_range_meters":36800,"station_id":"ce4bgup2rcd13ifvqcn0","pricing_plan_id":"cebpf4jnsgd1na2vs0mg"},{"bike_id":"c7f2ec22-a521-426d-8fc1-fe462d2718e7","system_id":"levelo_inurba_marseille","lat":43.22554,"lon":5.41622,"is_reserved":false,"is_disabled":false,"rental_uris":{"android":"levelo://app?vid=c7f2ec22-a521-426d-8fc1-fe462d2718e7","ios":"levelo://app?vid=c7f2ec22-a521-426d-8fc1-fe462d2718e7"},"vehicle_type_id":"4","last_reported":1771317163,"current_range_meters":7200,"station_id":"st_d2o4gvlbi1j2169b742g","pricing_plan_id":"cebpf4jnsgd1na2vs0mg"},{"bike_id":"5ad71fee-cbc4-4f2c-8613-06e2318aa2ae","system_id":"levelo_inurba_marseille","lat":43.2971,"lon":5.37301,"is_reserved":false,"is_disabled":false,"rental_uris":{"android":"levelo://app?vid=5ad71fee-cbc4-4f2c-8613-06e2318aa2ae","ios":"levelo://app?vid=5ad71fee-cbc4-4f2c-8613-06e2318aa2ae"},"vehicle_type_id":"4","last_reported":1771317163,"current_range_meters":38000,"station_id":"ce4bgk12rcd13ifvqbj0","pricing_plan_id":"cebpf4jnsgd1na2vs0mg"},{"bike_id":"ebd65f2c-5446-48c1-b522-f6786e52045f","system_id":"levelo_inurba_marseille","lat":43.30938,"lon":5.39031,"is_reserved":false,"is_disabled":false,"rental_uris":{"android":"levelo://app?vid=ebd65f2c-5446-48c1-b522-f6786e52045f","ios":"levelo://app?vid=ebd65f2c-5446-48c1-b522-f6786e52045f"},"vehicle_type_id":"4","last_reported":1771317163,"current_range_meters":27200,"station_id":"ce4bgup2rcd13ifvqco0","pricing_plan_id":"cebpf4jnsgd1na2vs0mg"},{"bike_id":"5028f32d-1a47-475c-b119-ed923035051c","system_id":"levelo_inurba_marseille","lat":43.30306,"lon":5.36886,"is_reserved":false,"is_disabled":false,"rental_uris":{"android":"levelo://app?vid=5028f32d-1a47-475c-b119-ed923035051c","ios":"levelo://app?vid=5028f32d-1a47-475c-b119-ed923035051c"},"vehicle_type_id":"4","last_reported":1771317163,"current_range_meters":24800,"station_id":"ce4bgqh2rcd13ifvqc5g","pricing_plan_id":"cebpf4jnsgd1na2vs0mg"},{"bike_id":"9b0a92cd-842e-4c30-b88c-5f6bb165b3b1","system_id":"levelo_inurba_marseille","lat":43.29186,"lon":5.35811,"is_reserved":false,"is_disabled":false,"rental_uris":{"android":"levelo://app?vid=9b0a92cd-842e-4c30-b88c-5f6bb165b3b1","ios":"levelo://app?vid=9b0a92cd-842e-4c30-b88c-5f6bb165b3b1"},"vehicle_type_id":"4","last_reported":1771317163,"current_range_meters":37600,"station_id":"ce4bhb12rcd13ifvqel0","pricing_plan_id":"cebpf4jnsgd1na2vs0mg"},{"bike_id":"be7b106a-7b58-4a98-9638-77543a51361f","system_id":"levelo_inurba_marseille","lat":43.297185,"lon":5.377046,"is_reserved":false,"is_disabled":false,"rental_uris":{"android":"levelo://app?vid=be7b106a-7b58-4a98-9638-77543a51361f","ios":"levelo://app?vid=be7b106a-7b58-4a98-9638-77543a51361f"},"vehicle_type_id":"4","last_reported":1771317163,"current_range_meters":21600,"station_id":"ce4bgkh2rcd13ifvqbl0","pricing_plan_id":"cebpf4jnsgd1na2vs0mg"},{"bike_id":"d088f002-038a-488a-86d6-476dce6642d8","system_id":"levelo_inurba_marseille","lat":43.25943,"lon":5.40899,"is_reserved":false,"is_disabled":false,"rental_uris":{"android":"levelo://app?vid=d088f002-038a-488a-86d6-476dce6642d8","ios":"levelo://app?vid=d088f002-038a-488a-86d6-476dce6642d8"},"vehicle_type_id":"4","last_reported":1771317163,"current_range_meters":17200,"station_id":"ce4bhm92rcd13ifvqglg","pricing_plan_id":"cebpf4jnsgd1na2vs0mg"},{"bike_id":"829fd674-fb3e-4ee4-9543-80e64d68ca45","system_id":"levelo_inurba_marseille","lat":43.29311,"lon":5.37176,"is_reserved":false,"is_disabled":false,"rental_uris":{"android":"levelo://app?vid=829fd674-fb3e-4ee4-9543-80e64d68ca45","ios":"levelo://app?vid=829fd674-fb3e-4ee4-9543-80e64d68ca45"},"vehicle_type_id":"4","last_reported":1771317163,"current_range_meters":17200,"station_id":"ce4bgh92rcd13ifvqb40","pricing_plan_id":"cebpf4jnsgd1na2vs0mg"},{"bike_id":"72ab149f-0aac-4a82-8892-5126bebf5df6","system_id":"levelo_inurba_marseille","lat":43.22933,"lon":5.35378,"is_reserved":false,"is_disabled":false,"rental_uris":{"android":"levelo://app?vid=72ab149f-0aac-4a82-8892-5126bebf5df6","ios":"levelo://app?vid=72ab149f-0aac-4a82-8892-5126bebf5df6"},"vehicle_type_id":"4","last_reported":1771317163,"current_range_meters":37600,"station_id":"cpo3532slgdg3j2ikp40","pricing_plan_id":"cebpf4jnsgd1na2vs0mg"},{"bike_id":"fdc71d43-affe-42f2-92b7-e116676bde9d","system_id":"levelo_inurba_marseille","lat":43.25342,"lon":5.42174,"is_reserved":false,"is_disabled":false,"rental_uris":{"android":"levelo://app?vid=fdc71d43-affe-42f2-92b7-e116676bde9d","ios":"levelo://app?vid=fdc71d43-affe-42f2-92b7-e116676bde9d"},"vehicle_type_id":"4","last_reported":1771317163,"current_range_meters":30400,"station_id":"st_d2m65c5bi1j21697t3ng","pricing_plan_id":"cebpf4jnsgd1na2vs0mg"},{"bike_id":"554f442d-a50d-41a2-a071-a108dde862d6","system_id":"levelo_inurba_marseille","lat":43.30935,"lon":5.36845,"is_reserved":false,"is_disabled":false,"rental_uris":{"android":"levelo://app?vid=554f442d-a50d-41a2-a071-a108dde862d6","ios":"levelo://app?vid=554f442d-a50d-41a2-a071-a108dde862d6"},"vehicle_type_id":"4","last_reported":1771317163,"current_range_meters":11200,"station_id":"ce4bgn92rcd13ifvqbvg","pricing_plan_id":"cebpf4jnsgd1na2vs0mg"},{"bike_id":"ab099b5d-a36c-4b39-b54f-8fdad1227588","system_id":"levelo_inurba_marseille","lat":43.31051,"lon":5.37159,"is_reserved":false,"is_disabled":false,"rental_uris":{"android":"levelo://app?vid=ab099b5d-a36c-4b39-b54f-8fdad1227588","ios":"levelo://app?vid=ab099b5d-a36c-4b39-b54f-8fdad1227588"},"vehicle_type_id":"4","last_reported":1771317163,"current_range_meters":4800,"station_id":"st_d4kl2rp97mjs73e7tdfg","pricing_plan_id":"cebpf4jnsgd1na2vs0mg"},{"bike_id":"bd6611ce-f7cd-494c-a774-4a5ac620e401","system_id":"levelo_inurba_marseille","lat":43.28299,"lon":5.35107,"is_reserved":false,"is_disabled":true,"rental_uris":{"android":"levelo://app?vid=bd6611ce-f7cd-494c-a774-4a5ac620e401","ios":"levelo://app?vid=bd6611ce-f7cd-494c-a774-4a5ac620e401"},"vehicle_type_id":"4","last_reported":1771317163,"current_range_meters":29600,"station_id":"","pricing_plan_id":"cebpf4jnsgd1na2vs0mg"},{"bike_id":"05d7598d-6c5f-4ee6-8452-f0524fc2aa8e","system_id":"levelo_inurba_marseille","lat":43.26219,"lon":5.37444,"is_reserved":false,"is_disabled":false,"rental_uris":{"android":"levelo://app?vid=05d7598d-6c5f-4ee6-8452-f0524fc2aa8e","ios":"levelo://app?vid=05d7598d-6c5f-4ee6-8452-f0524fc2aa8e"},"vehicle_type_id":"4","last_reported":1771317163,"current_range_meters":4400,"station_id":"ce4bhgp2rcd13ifvqfc0","pricing_plan_id":"cebpf4jnsgd1na2vs0mg"},{"bike_id":"39c2e4d8-0e90-4be6-ab97-2ece3274bfd3","system_id":"levelo_inurba_marseille","lat":43.295285,"lon":5.390422,"is_reserved":false,"is_disabled":false,"rental_uris":{"android":"levelo://app?vid=39c2e4d8-0e90-4be6-ab97-2ece3274bfd3","ios":"levelo://app?vid=39c2e4d8-0e90-4be6-ab97-2ece3274bfd3"},"vehicle_type_id":"4","last_reported":1771317163,"current_range_meters":33600,"station_id":"ce4bh3p2rcd13ifvqdp0","pricing_plan_id":"cebpf4jnsgd1na2vs0mg"},{"bike_id":"b848b13f-a5a8-497c-bf73-42ffb911f77e","system_id":"levelo_inurba_marseille","lat":43.28487,"lon":5.48408,"is_reserved":false,"is_disabled":false,"rental_uris":{"android":"levelo://app?vid=b848b13f-a5a8-497c-bf73-42ffb911f77e","ios":"levelo://app?vid=b848b13f-a5a8-497c-bf73-42ffb911f77e"},"vehicle_type_id":"4","last_reported":1771317163,"current_range_meters":19200,"station_id":"st_d3svhcjqgbts73a3dn0g","pricing_plan_id":"cebpf4jnsgd1na2vs0mg"},{"bike_id":"7398e319-cd15-467e-b110-1c6301719155","system_id":"levelo_inurba_marseille","lat":43.30307,"lon":5.36904,"is_reserved":false,"is_disabled":false,"rental_uris":{"android":"levelo://app?vid=7398e319-cd15-467e-b110-1c6301719155","ios":"levelo://app?vid=7398e319-cd15-467e-b110-1c6301719155"},"vehicle_type_id":"4","last_reported":1771317163,"current_range_meters":36400,"station_id":"ce4bgqh2rcd13ifvqc5g","pricing_plan_id":"cebpf4jnsgd1na2vs0mg"},{"bike_id":"593a9707-a425-411a-80c5-43e444053798","system_id":"levelo_inurba_marseille","lat":43.29096,"lon":5.40048,"is_reserved":false,"is_disabled":false,"rental_uris":{"android":"levelo://app?vid=593a9707-a425-411a-80c5-43e444053798","ios":"levelo://app?vid=593a9707-a425-411a-80c5-43e444053798"},"vehicle_type_id":"4","last_reported":1771317163,"current_range_meters":35600,"station_id":"","pricing_plan_id":"cebpf4jnsgd1na2vs0mg"},{"bike_id":"c536d0cd-09a1-42ad-9b88-af87bba6228e","system_id":"levelo_inurba_marseille","lat":43.31247,"lon":5.36896,"is_reserved":false,"is_disabled":false,"rental_uris":{"android":"levelo://app?vid=c536d0cd-09a1-42ad-9b88-af87bba6228e","ios":"levelo://app?vid=c536d0cd-09a1-42ad-9b88-af87bba6228e"},"vehicle_type_id":"4","last_reported":1771317163,"current_range_meters":7200,"station_id":"ce4bgl92rcd13ifvqbq0","pricing_plan_id":"cebpf4jnsgd1na2vs0mg"},{"bike_id":"dccf4276-e4c4-42dc-8c9c-08228358396d","system_id":"levelo_inurba_marseille","lat":43.26571,"lon":5.39,"is_reserved":false,"is_disabled":false,"rental_uris":{"android":"levelo://app?vid=dccf4276-e4c4-42dc-8c9c-08228358396d","ios":"levelo://app?vid=dccf4276-e4c4-42dc-8c9c-08228358396d"},"vehicle_type_id":"4","last_reported":1771317163,"current_range_meters":19600,"station_id":"ce4bhe12rcd13ifvqf30","pricing_plan_id":"cebpf4jnsgd1na2vs0mg"},{"bike_id":"b2a02418-a742-4f1b-8066-b19250c93a85","system_id":"levelo_inurba_marseille","lat":43.28611,"lon":5.35113,"is_reserved":false,"is_disabled":false,"rental_uris":{"android":"levelo://app?vid=b2a02418-a742-4f1b-8066-b19250c93a85","ios":"levelo://app?vid=b2a02418-a742-4f1b-8066-b19250c93a85"},"vehicle_type_id":"4","last_reported":1771317163,"current_range_meters":24400,"station_id":"ce4bhch2rcd13ifvqeug","pricing_plan_id":"cebpf4jnsgd1na2vs0mg"},{"bike_id":"16712afb-3083-42b8-bec8-6d41ed17b3ae","system_id":"levelo_inurba_marseille","lat":43.26941,"lon":5.40258,"is_reserved":false,"is_disabled":false,"rental_uris":{"android":"levelo://app?vid=16712afb-3083-42b8-bec8-6d41ed17b3ae","ios":"levelo://app?vid=16712afb-3083-42b8-bec8-6d41ed17b3ae"},"vehicle_type_id":"4","last_reported":1771317163,"current_range_meters":22400,"station_id":"cjm6bp8fraef2m0cb0m0","pricing_plan_id":"cebpf4jnsgd1na2vs0mg"},{"bike_id":"a066de93-0d65-47f8-901e-b55356275f44","system_id":"levelo_inurba_marseille","lat":43.26686,"lon":5.3826,"is_reserved":false,"is_disabled":false,"rental_uris":{"android":"levelo://app?vid=a066de93-0d65-47f8-901e-b55356275f44","ios":"levelo://app?vid=a066de93-0d65-47f8-901e-b55356275f44"},"vehicle_type_id":"4","last_reported":1771317163,"current_range_meters":39200,"station_id":"ce4bhg92rcd13ifvqf90","pricing_plan_id":"cebpf4jnsgd1na2vs0mg"},{"bike_id":"aee18f1d-86e8-48b5-a43d-7c5d0fe72d46","system_id":"levelo_inurba_marseille","lat":43.2706,"lon":5.40274,"is_reserved":false,"is_disabled":false,"rental_uris":{"android":"levelo://app?vid=aee18f1d-86e8-48b5-a43d-7c5d0fe72d46","ios":"levelo://app?vid=aee18f1d-86e8-48b5-a43d-7c5d0fe72d46"},"vehicle_type_id":"4","last_reported":1771317163,"current_range_meters":18800,"station_id":"ce4bhk92rcd13ifvqgc0","pricing_plan_id":"cebpf4jnsgd1na2vs0mg"},{"bike_id":"14096945-3ed2-4921-943f-a03af03f353e","system_id":"levelo_inurba_marseille","lat":43.25586,"lon":5.38221,"is_reserved":false,"is_disabled":false,"rental_uris":{"android":"levelo://app?vid=14096945-3ed2-4921-943f-a03af03f353e","ios":"levelo://app?vid=14096945-3ed2-4921-943f-a03af03f353e"},"vehicle_type_id":"4","last_reported":1771317163,"current_range_meters":30400,"station_id":"ce4bhih2rcd13ifvqfs0","pricing_plan_id":"cebpf4jnsgd1na2vs0mg"},{"bike_id":"484e108a-d5e5-4238-92ad-9e453b1790ff","system_id":"levelo_inurba_marseille","lat":43.27191,"lon":5.41001,"is_reserved":false,"is_disabled":true,"rental_uris":{"android":"levelo://app?vid=484e108a-d5e5-4238-92ad-9e453b1790ff","ios":"levelo://app?vid=484e108a-d5e5-4238-92ad-9e453b1790ff"},"vehicle_type_id":"4","last_reported":1771317163,"current_range_meters":36000,"station_id":"ce4bhl12rcd13ifvqgf0","pricing_plan_id":"cebpf4jnsgd1na2vs0mg"},{"bike_id":"24a42244-ae18-4c99-9d28-040f1dfe373f","system_id":"levelo_inurba_marseille","lat":43.30202,"lon":5.38059,"is_reserved":false,"is_disabled":false,"rental_uris":{"android":"levelo://app?vid=24a42244-ae18-4c99-9d28-040f1dfe373f","ios":"levelo://app?vid=24a42244-ae18-4c99-9d28-040f1dfe373f"},"vehicle_type_id":"4","last_reported":1771317163,"current_range_meters":26800,"station_id":"ce4bgjp2rcd13ifvqbh0","pricing_plan_id":"cebpf4jnsgd1na2vs0mg"},{"bike_id":"c676de18-94cf-47fc-87a2-53b127f6691e","system_id":"levelo_inurba_marseille","lat":43.25939,"lon":5.40911,"is_reserved":false,"is_disabled":false,"rental_uris":{"android":"levelo://app?vid=c676de18-94cf-47fc-87a2-53b127f6691e","ios":"levelo://app?vid=c676de18-94cf-47fc-87a2-53b127f6691e"},"vehicle_type_id":"4","last_reported":1771317163,"current_range_meters":29600,"station_id":"ce4bhm92rcd13ifvqglg","pricing_plan_id":"cebpf4jnsgd1na2vs0mg"},{"bike_id":"c284f9ab-494b-403f-9686-10525288541d","system_id":"levelo_inurba_marseille","lat":43.26062,"lon":5.39383,"is_reserved":false,"is_disabled":false,"rental_uris":{"android":"levelo://app?vid=c284f9ab-494b-403f-9686-10525288541d","ios":"levelo://app?vid=c284f9ab-494b-403f-9686-10525288541d"},"vehicle_type_id":"4","last_reported":1771317163,"current_range_meters":36000,"station_id":"ce4bhh92rcd13ifvqfj0","pricing_plan_id":"cebpf4jnsgd1na2vs0mg"},{"bike_id":"35cc6573-5843-4d1f-aaff-19eea131fbdf","system_id":"levelo_inurba_marseille","lat":43.26219,"lon":5.37909,"is_reserved":false,"is_disabled":false,"rental_uris":{"android":"levelo://app?vid=35cc6573-5843-4d1f-aaff-19eea131fbdf","ios":"levelo://app?vid=35cc6573-5843-4d1f-aaff-19eea131fbdf"},"vehicle_type_id":"4","last_reported":1771317163,"current_range_meters":35600,"station_id":"ce4bhjp2rcd13ifvqg90","pricing_plan_id":"cebpf4jnsgd1na2vs0mg"},{"bike_id":"60f8c0fb-0bd6-4b8d-a185-9cb6f5dba25f","system_id":"levelo_inurba_marseille","lat":43.29937,"lon":5.37466,"is_reserved":false,"is_disabled":false,"rental_uris":{"android":"levelo://app?vid=60f8c0fb-0bd6-4b8d-a185-9cb6f5dba25f","ios":"levelo://app?vid=60f8c0fb-0bd6-4b8d-a185-9cb6f5dba25f"},"vehicle_type_id":"4","last_reported":1771317163,"current_range_meters":32800,"station_id":"ce4bgjh2rcd13ifvqbg0","pricing_plan_id":"cebpf4jnsgd1na2vs0mg"},{"bike_id":"3de1318d-bb99-4025-844d-0123b4357900","system_id":"levelo_inurba_marseille","lat":43.29921,"lon":5.37484,"is_reserved":false,"is_disabled":false,"rental_uris":{"android":"levelo://app?vid=3de1318d-bb99-4025-844d-0123b4357900","ios":"levelo://app?vid=3de1318d-bb99-4025-844d-0123b4357900"},"vehicle_type_id":"4","last_reported":1771317163,"current_range_meters":39200,"station_id":"ce4bgjh2rcd13ifvqbg0","pricing_plan_id":"cebpf4jnsgd1na2vs0mg"},{"bike_id":"c9b76f97-4777-40f7-8438-ab341a9656e1","system_id":"levelo_inurba_marseille","lat":43.2984,"lon":5.36278,"is_reserved":false,"is_disabled":false,"rental_uris":{"android":"levelo://app?vid=c9b76f97-4777-40f7-8438-ab341a9656e1","ios":"levelo://app?vid=c9b76f97-4777-40f7-8438-ab341a9656e1"},"vehicle_type_id":"4","last_reported":1771317163,"current_range_meters":39200,"station_id":"ce4bgpp2rcd13ifvqc3g","pricing_plan_id":"cebpf4jnsgd1na2vs0mg"},{"bike_id":"8de72905-9cd1-43a5-b42e-38b92fe08e53","system_id":"levelo_inurba_marseille","lat":43.2706,"lon":5.422823,"is_reserved":false,"is_disabled":false,"rental_uris":{"android":"levelo://app?vid=8de72905-9cd1-43a5-b42e-38b92fe08e53","ios":"levelo://app?vid=8de72905-9cd1-43a5-b42e-38b92fe08e53"},"vehicle_type_id":"4","last_reported":1771317163,"current_range_meters":36800,"station_id":"ce4bhk92rcd13ifvqgb0","pricing_plan_id":"cebpf4jnsgd1na2vs0mg"},{"bike_id":"134a7d23-f0f4-488c-a3d0-c5fc7f3d3eb3","system_id":"levelo_inurba_marseille","lat":43.28237,"lon":5.3905,"is_reserved":false,"is_disabled":false,"rental_uris":{"android":"levelo://app?vid=134a7d23-f0f4-488c-a3d0-c5fc7f3d3eb3","ios":"levelo://app?vid=134a7d23-f0f4-488c-a3d0-c5fc7f3d3eb3"},"vehicle_type_id":"4","last_reported":1771317163,"current_range_meters":30000,"station_id":"ce4bhn92rcd13ifvqgsg","pricing_plan_id":"cebpf4jnsgd1na2vs0mg"},{"bike_id":"6b63b009-f7da-4d4b-a414-01d08a281042","system_id":"levelo_inurba_marseille","lat":43.30471,"lon":5.36578,"is_reserved":false,"is_disabled":false,"rental_uris":{"android":"levelo://app?vid=6b63b009-f7da-4d4b-a414-01d08a281042","ios":"levelo://app?vid=6b63b009-f7da-4d4b-a414-01d08a281042"},"vehicle_type_id":"4","last_reported":1771317163,"current_range_meters":4400,"station_id":"ce4bgs12rcd13ifvqcag","pricing_plan_id":"cebpf4jnsgd1na2vs0mg"},{"bike_id":"8e203c0c-61c2-4c2a-9044-414c93a22047","system_id":"levelo_inurba_marseille","lat":43.30284,"lon":5.37255,"is_reserved":false,"is_disabled":false,"rental_uris":{"android":"levelo://app?vid=8e203c0c-61c2-4c2a-9044-414c93a22047","ios":"levelo://app?vid=8e203c0c-61c2-4c2a-9044-414c93a22047"},"vehicle_type_id":"4","last_reported":1771317163,"current_range_meters":18800,"station_id":"","pricing_plan_id":"cebpf4jnsgd1na2vs0mg"},{"bike_id":"29aaeded-6fbf-4914-8e01-d1b40b6726f9","system_id":"levelo_inurba_marseille","lat":43.26188,"lon":5.37446,"is_reserved":false,"is_disabled":false,"rental_uris":{"android":"levelo://app?vid=29aaeded-6fbf-4914-8e01-d1b40b6726f9","ios":"levelo://app?vid=29aaeded-6fbf-4914-8e01-d1b40b6726f9"},"vehicle_type_id":"4","last_reported":1771317163,"current_range_meters":6400,"station_id":"ce4bhgp2rcd13ifvqfc0","pricing_plan_id":"cebpf4jnsgd1na2vs0mg"},{"bike_id":"3b29be64-a38e-4f9c-905b-d31f6a8f4e3e","system_id":"levelo_inurba_marseille","lat":43.30181,"lon":5.38071,"is_reserved":false,"is_disabled":false,"rental_uris":{"android":"levelo://app?vid=3b29be64-a38e-4f9c-905b-d31f6a8f4e3e","ios":"levelo://app?vid=3b29be64-a38e-4f9c-905b-d31f6a8f4e3e"},"vehicle_type_id":"4","last_reported":1771317163,"current_range_meters":33600,"station_id":"ce4bgjp2rcd13ifvqbh0","pricing_plan_id":"cebpf4jnsgd1na2vs0mg"},{"bike_id":"f5039416-93fa-4b18-81c3-b8464d4e469e","system_id":"levelo_inurba_marseille","lat":43.28709,"lon":5.39981,"is_reserved":false,"is_disabled":false,"rental_uris":{"android":"levelo://app?vid=f5039416-93fa-4b18-81c3-b8464d4e469e","ios":"levelo://app?vid=f5039416-93fa-4b18-81c3-b8464d4e469e"},"vehicle_type_id":"4","last_reported":1771317163,"current_range_meters":29600,"station_id":"ce4bho92rcd13ifvqh3g","pricing_plan_id":"cebpf4jnsgd1na2vs0mg"},{"bike_id":"cdb31bb4-370c-491d-8d68-0dceed9d9223","system_id":"levelo_inurba_marseille","lat":43.33546,"lon":5.37429,"is_reserved":false,"is_disabled":false,"rental_uris":{"android":"levelo://app?vid=cdb31bb4-370c-491d-8d68-0dceed9d9223","ios":"levelo://app?vid=cdb31bb4-370c-491d-8d68-0dceed9d9223"},"vehicle_type_id":"4","last_reported":1771317163,"current_range_meters":28800,"station_id":"st_d46tts09ee8s73dlu43g","pricing_plan_id":"cebpf4jnsgd1na2vs0mg"},{"bike_id":"dd586490-4a9f-45a8-922f-a3511ec5549d","system_id":"levelo_inurba_marseille","lat":43.27077,"lon":5.42261,"is_reserved":false,"is_disabled":false,"rental_uris":{"android":"levelo://app?vid=dd586490-4a9f-45a8-922f-a3511ec5549d","ios":"levelo://app?vid=dd586490-4a9f-45a8-922f-a3511ec5549d"},"vehicle_type_id":"4","last_reported":1771317163,"current_range_meters":39200,"station_id":"ce4bhk92rcd13ifvqgb0","pricing_plan_id":"cebpf4jnsgd1na2vs0mg"},{"bike_id":"ee4f8742-0617-46e3-9fa2-031983a52dc9","system_id":"levelo_inurba_marseille","lat":43.29755,"lon":5.4277,"is_reserved":false,"is_disabled":false,"rental_uris":{"android":"levelo://app?vid=ee4f8742-0617-46e3-9fa2-031983a52dc9","ios":"levelo://app?vid=ee4f8742-0617-46e3-9fa2-031983a52dc9"},"vehicle_type_id":"4","last_reported":1771317163,"current_range_meters":36800,"station_id":"st_d3md5207bmas73dh9klg","pricing_plan_id":"cebpf4jnsgd1na2vs0mg"},{"bike_id":"1ae9bc1d-b840-42f7-a16c-1b20e0f7a83e","system_id":"levelo_inurba_marseille","lat":43.24806,"lon":5.37461,"is_reserved":false,"is_disabled":false,"rental_uris":{"android":"levelo://app?vid=1ae9bc1d-b840-42f7-a16c-1b20e0f7a83e","ios":"levelo://app?vid=1ae9bc1d-b840-42f7-a16c-1b20e0f7a83e"},"vehicle_type_id":"4","last_reported":1771317163,"current_range_meters":24400,"station_id":"ce4bhgh2rcd13ifvqfb0","pricing_plan_id":"cebpf4jnsgd1na2vs0mg"},{"bike_id":"5d94cbe6-77f3-4549-b0a3-cb863e1eea78","system_id":"levelo_inurba_marseille","lat":43.29605,"lon":5.37718,"is_reserved":false,"is_disabled":true,"rental_uris":{"android":"levelo://app?vid=5d94cbe6-77f3-4549-b0a3-cb863e1eea78","ios":"levelo://app?vid=5d94cbe6-77f3-4549-b0a3-cb863e1eea78"},"vehicle_type_id":"4","last_reported":1771317163,"current_range_meters":24800,"station_id":"ce4bgi92rcd13ifvqb90","pricing_plan_id":"cebpf4jnsgd1na2vs0mg"},{"bike_id":"75e25790-422a-481a-9d70-48b778c88816","system_id":"levelo_inurba_marseille","lat":43.30146,"lon":5.37412,"is_reserved":false,"is_disabled":false,"rental_uris":{"android":"levelo://app?vid=75e25790-422a-481a-9d70-48b778c88816","ios":"levelo://app?vid=75e25790-422a-481a-9d70-48b778c88816"},"vehicle_type_id":"4","last_reported":1771317163,"current_range_meters":39200,"station_id":"ce4bgs92rcd13ifvqcc0","pricing_plan_id":"cebpf4jnsgd1na2vs0mg"},{"bike_id":"8a8fa0fa-9b9a-4667-a36a-f2215b14299e","system_id":"levelo_inurba_marseille","lat":43.24815,"lon":5.37458,"is_reserved":false,"is_disabled":false,"rental_uris":{"android":"levelo://app?vid=8a8fa0fa-9b9a-4667-a36a-f2215b14299e","ios":"levelo://app?vid=8a8fa0fa-9b9a-4667-a36a-f2215b14299e"},"vehicle_type_id":"4","last_reported":1771317163,"current_range_meters":36400,"station_id":"ce4bhgh2rcd13ifvqfb0","pricing_plan_id":"cebpf4jnsgd1na2vs0mg"},{"bike_id":"3b23e696-0f10-4258-80d6-a9732718d5da","system_id":"levelo_inurba_marseille","lat":43.33567,"lon":5.37469,"is_reserved":false,"is_disabled":false,"rental_uris":{"android":"levelo://app?vid=3b23e696-0f10-4258-80d6-a9732718d5da","ios":"levelo://app?vid=3b23e696-0f10-4258-80d6-a9732718d5da"},"vehicle_type_id":"4","last_reported":1771317163,"current_range_meters":28800,"station_id":"st_d46tts09ee8s73dlu43g","pricing_plan_id":"cebpf4jnsgd1na2vs0mg"},{"bike_id":"dfa36d27-6e60-4833-b7ff-9ec90b759d28","system_id":"levelo_inurba_marseille","lat":43.25662,"lon":5.38294,"is_reserved":false,"is_disabled":false,"rental_uris":{"android":"levelo://app?vid=dfa36d27-6e60-4833-b7ff-9ec90b759d28","ios":"levelo://app?vid=dfa36d27-6e60-4833-b7ff-9ec90b759d28"},"vehicle_type_id":"4","last_reported":1771317163,"current_range_meters":25600,"station_id":"","pricing_plan_id":"cebpf4jnsgd1na2vs0mg"},{"bike_id":"25338db7-0e87-4326-a090-4dfd8c59aae2","system_id":"levelo_inurba_marseille","lat":43.29534,"lon":5.3855,"is_reserved":false,"is_disabled":false,"rental_uris":{"android":"levelo://app?vid=25338db7-0e87-4326-a090-4dfd8c59aae2","ios":"levelo://app?vid=25338db7-0e87-4326-a090-4dfd8c59aae2"},"vehicle_type_id":"4","last_reported":1771317163,"current_range_meters":30400,"station_id":"ce4bgih2rcd13ifvqba0","pricing_plan_id":"cebpf4jnsgd1na2vs0mg"},{"bike_id":"d0af0967-4f64-45d2-aeab-b15286d65704","system_id":"levelo_inurba_marseille","lat":43.33125,"lon":5.39271,"is_reserved":false,"is_disabled":false,"rental_uris":{"android":"levelo://app?vid=d0af0967-4f64-45d2-aeab-b15286d65704","ios":"levelo://app?vid=d0af0967-4f64-45d2-aeab-b15286d65704"},"vehicle_type_id":"4","last_reported":1771317163,"current_range_meters":21600,"station_id":"","pricing_plan_id":"cebpf4jnsgd1na2vs0mg"},{"bike_id":"7c11e683-0ef8-4bac-8048-16f7653ced54","system_id":"levelo_inurba_marseille","lat":43.28631,"lon":5.351,"is_reserved":false,"is_disabled":false,"rental_uris":{"android":"levelo://app?vid=7c11e683-0ef8-4bac-8048-16f7653ced54","ios":"levelo://app?vid=7c11e683-0ef8-4bac-8048-16f7653ced54"},"vehicle_type_id":"4","last_reported":1771317163,"current_range_meters":12800,"station_id":"ce4bhch2rcd13ifvqeug","pricing_plan_id":"cebpf4jnsgd1na2vs0mg"},{"bike_id":"4932e24b-f2ef-4e1d-8d26-86e9c422ae44","system_id":"levelo_inurba_marseille","lat":43.32059,"lon":5.36908,"is_reserved":false,"is_disabled":false,"rental_uris":{"android":"levelo://app?vid=4932e24b-f2ef-4e1d-8d26-86e9c422ae44","ios":"levelo://app?vid=4932e24b-f2ef-4e1d-8d26-86e9c422ae44"},"vehicle_type_id":"4","last_reported":1771317163,"current_range_meters":24400,"station_id":"","pricing_plan_id":"cebpf4jnsgd1na2vs0mg"},{"bike_id":"c05b7da1-db4e-49e2-8743-3e9920251ffb","system_id":"levelo_inurba_marseille","lat":43.26537,"lon":5.39052,"is_reserved":false,"is_disabled":false,"rental_uris":{"android":"levelo://app?vid=c05b7da1-db4e-49e2-8743-3e9920251ffb","ios":"levelo://app?vid=c05b7da1-db4e-49e2-8743-3e9920251ffb"},"vehicle_type_id":"4","last_reported":1771317163,"current_range_meters":17600,"station_id":"ce4bhe12rcd13ifvqf30","pricing_plan_id":"cebpf4jnsgd1na2vs0mg"},{"bike_id":"e028ff77-7972-4eb3-8d67-01ae7a0544d0","system_id":"levelo_inurba_marseille","lat":43.30967,"lon":5.39032,"is_reserved":false,"is_disabled":false,"rental_uris":{"android":"levelo://app?vid=e028ff77-7972-4eb3-8d67-01ae7a0544d0","ios":"levelo://app?vid=e028ff77-7972-4eb3-8d67-01ae7a0544d0"},"vehicle_type_id":"4","last_reported":1771317163,"current_range_meters":30800,"station_id":"ce4bgup2rcd13ifvqco0","pricing_plan_id":"cebpf4jnsgd1na2vs0mg"},{"bike_id":"06b0e8ea-5721-4b06-a488-b9703e22c1ac","system_id":"levelo_inurba_marseille","lat":43.28618,"lon":5.35104,"is_reserved":false,"is_disabled":false,"rental_uris":{"android":"levelo://app?vid=06b0e8ea-5721-4b06-a488-b9703e22c1ac","ios":"levelo://app?vid=06b0e8ea-5721-4b06-a488-b9703e22c1ac"},"vehicle_type_id":"4","last_reported":1771317163,"current_range_meters":37600,"station_id":"ce4bhch2rcd13ifvqeug","pricing_plan_id":"cebpf4jnsgd1na2vs0mg"},{"bike_id":"481890bc-edbb-4b6a-af55-41a69db89f14","system_id":"levelo_inurba_marseille","lat":43.23192,"lon":5.39986,"is_reserved":false,"is_disabled":false,"rental_uris":{"android":"levelo://app?vid=481890bc-edbb-4b6a-af55-41a69db89f14","ios":"levelo://app?vid=481890bc-edbb-4b6a-af55-41a69db89f14"},"vehicle_type_id":"4","last_reported":1771317163,"current_range_meters":39200,"station_id":"ce4bhn12rcd13ifvqgqg","pricing_plan_id":"cebpf4jnsgd1na2vs0mg"},{"bike_id":"efe750db-9975-43cb-ada6-064cf243e55f","system_id":"levelo_inurba_marseille","lat":43.25006,"lon":5.38937,"is_reserved":false,"is_disabled":false,"rental_uris":{"android":"levelo://app?vid=efe750db-9975-43cb-ada6-064cf243e55f","ios":"levelo://app?vid=efe750db-9975-43cb-ada6-064cf243e55f"},"vehicle_type_id":"4","last_reported":1771317163,"current_range_meters":18000,"station_id":"ce4bhgp2rcd13ifvqfd0","pricing_plan_id":"cebpf4jnsgd1na2vs0mg"},{"bike_id":"bd0e99a1-4162-41ae-b356-8cc729f7fd82","system_id":"levelo_inurba_marseille","lat":43.23978,"lon":5.36632,"is_reserved":false,"is_disabled":false,"rental_uris":{"android":"levelo://app?vid=bd0e99a1-4162-41ae-b356-8cc729f7fd82","ios":"levelo://app?vid=bd0e99a1-4162-41ae-b356-8cc729f7fd82"},"vehicle_type_id":"4","last_reported":1771317163,"current_range_meters":5600,"station_id":"ce4bhi12rcd13ifvqfp0","pricing_plan_id":"cebpf4jnsgd1na2vs0mg"},{"bike_id":"3d69156c-572f-4b50-bfc8-dd5d9f6e75cc","system_id":"levelo_inurba_marseille","lat":43.25092,"lon":5.39507,"is_reserved":false,"is_disabled":false,"rental_uris":{"android":"levelo://app?vid=3d69156c-572f-4b50-bfc8-dd5d9f6e75cc","ios":"levelo://app?vid=3d69156c-572f-4b50-bfc8-dd5d9f6e75cc"},"vehicle_type_id":"4","last_reported":1771317163,"current_range_meters":6400,"station_id":"ce4bhm12rcd13ifvqgkg","pricing_plan_id":"cebpf4jnsgd1na2vs0mg"},{"bike_id":"b4fb0b98-42c1-438a-9d0d-e390e825b39e","system_id":"levelo_inurba_marseille","lat":43.31707,"lon":5.39587,"is_reserved":false,"is_disabled":false,"rental_uris":{"android":"levelo://app?vid=b4fb0b98-42c1-438a-9d0d-e390e825b39e","ios":"levelo://app?vid=b4fb0b98-42c1-438a-9d0d-e390e825b39e"},"vehicle_type_id":"4","last_reported":1771317163,"current_range_meters":18800,"station_id":"","pricing_plan_id":"cebpf4jnsgd1na2vs0mg"},{"bike_id":"37788f76-dc23-4b3b-af83-53337e6b4bad","system_id":"levelo_inurba_marseille","lat":43.22959,"lon":5.35393,"is_reserved":false,"is_disabled":false,"rental_uris":{"android":"levelo://app?vid=37788f76-dc23-4b3b-af83-53337e6b4bad","ios":"levelo://app?vid=37788f76-dc23-4b3b-af83-53337e6b4bad"},"vehicle_type_id":"4","last_reported":1771317163,"current_range_meters":15200,"station_id":"cpo3532slgdg3j2ikp40","pricing_plan_id":"cebpf4jnsgd1na2vs0mg"},{"bike_id":"a781d4b5-dac2-4ae2-97e5-23423fba9334","system_id":"levelo_inurba_marseille","lat":43.26924,"lon":5.39322,"is_reserved":false,"is_disabled":false,"rental_uris":{"android":"levelo://app?vid=a781d4b5-dac2-4ae2-97e5-23423fba9334","ios":"levelo://app?vid=a781d4b5-dac2-4ae2-97e5-23423fba9334"},"vehicle_type_id":"4","last_reported":1771317163,"current_range_meters":31200,"station_id":"ce4bhh12rcd13ifvqfg0","pricing_plan_id":"cebpf4jnsgd1na2vs0mg"},{"bike_id":"b46161f1-e7ec-4cb9-92f2-dc2b4e46716b","system_id":"levelo_inurba_marseille","lat":43.305502,"lon":5.365259,"is_reserved":false,"is_disabled":false,"rental_uris":{"android":"levelo://app?vid=b46161f1-e7ec-4cb9-92f2-dc2b4e46716b","ios":"levelo://app?vid=b46161f1-e7ec-4cb9-92f2-dc2b4e46716b"},"vehicle_type_id":"4","last_reported":1771317163,"current_range_meters":13600,"station_id":"ce4bgs12rcd13ifvqcag","pricing_plan_id":"cebpf4jnsgd1na2vs0mg"},{"bike_id":"cd84936c-1907-4536-97a6-496f401c2f7b","system_id":"levelo_inurba_marseille","lat":43.26969,"lon":5.38633,"is_reserved":false,"is_disabled":true,"rental_uris":{"android":"levelo://app?vid=cd84936c-1907-4536-97a6-496f401c2f7b","ios":"levelo://app?vid=cd84936c-1907-4536-97a6-496f401c2f7b"},"vehicle_type_id":"4","last_reported":1771317163,"current_range_meters":26800,"station_id":"","pricing_plan_id":"cebpf4jnsgd1na2vs0mg"},{"bike_id":"ca539c7e-5f3f-45e9-80eb-b91762400150","system_id":"levelo_inurba_marseille","lat":43.25732,"lon":5.41117,"is_reserved":false,"is_disabled":false,"rental_uris":{"android":"levelo://app?vid=ca539c7e-5f3f-45e9-80eb-b91762400150","ios":"levelo://app?vid=ca539c7e-5f3f-45e9-80eb-b91762400150"},"vehicle_type_id":"4","last_reported":1771317163,"current_range_meters":32000,"station_id":"ce4bhkp2rcd13ifvqgd0","pricing_plan_id":"cebpf4jnsgd1na2vs0mg"},{"bike_id":"c62c70ed-1707-4eca-8a83-189945aa0554","system_id":"levelo_inurba_marseille","lat":43.30316,"lon":5.36887,"is_reserved":false,"is_disabled":false,"rental_uris":{"android":"levelo://app?vid=c62c70ed-1707-4eca-8a83-189945aa0554","ios":"levelo://app?vid=c62c70ed-1707-4eca-8a83-189945aa0554"},"vehicle_type_id":"4","last_reported":1771317163,"current_range_meters":35200,"station_id":"ce4bgqh2rcd13ifvqc5g","pricing_plan_id":"cebpf4jnsgd1na2vs0mg"},{"bike_id":"33da8187-3eb8-4f3e-970f-0ece9caa0bce","system_id":"levelo_inurba_marseille","lat":43.24945,"lon":5.40495,"is_reserved":false,"is_disabled":false,"rental_uris":{"android":"levelo://app?vid=33da8187-3eb8-4f3e-970f-0ece9caa0bce","ios":"levelo://app?vid=33da8187-3eb8-4f3e-970f-0ece9caa0bce"},"vehicle_type_id":"4","last_reported":1771317163,"current_range_meters":29600,"station_id":"st_d2ngiaodas8pm72gd1h0","pricing_plan_id":"cebpf4jnsgd1na2vs0mg"},{"bike_id":"e6b90d0a-ba0a-47bc-835a-acfd80dea2f4","system_id":"levelo_inurba_marseille","lat":43.298128,"lon":5.440648,"is_reserved":false,"is_disabled":false,"rental_uris":{"android":"levelo://app?vid=e6b90d0a-ba0a-47bc-835a-acfd80dea2f4","ios":"levelo://app?vid=e6b90d0a-ba0a-47bc-835a-acfd80dea2f4"},"vehicle_type_id":"4","last_reported":1771317163,"current_range_meters":27600,"station_id":"st_d3jp68qikq2c7381ktn0","pricing_plan_id":"cebpf4jnsgd1na2vs0mg"},{"bike_id":"5a201186-157d-457b-9ed5-58ebe499224e","system_id":"levelo_inurba_marseille","lat":43.27999,"lon":5.4002,"is_reserved":false,"is_disabled":false,"rental_uris":{"android":"levelo://app?vid=5a201186-157d-457b-9ed5-58ebe499224e","ios":"levelo://app?vid=5a201186-157d-457b-9ed5-58ebe499224e"},"vehicle_type_id":"4","last_reported":1771317163,"current_range_meters":38000,"station_id":"ce4bho92rcd13ifvqh4g","pricing_plan_id":"cebpf4jnsgd1na2vs0mg"},{"bike_id":"d420dded-2198-4fdc-a671-3fbb3ccc501e","system_id":"levelo_inurba_marseille","lat":43.29564,"lon":5.37504,"is_reserved":false,"is_disabled":false,"rental_uris":{"android":"levelo://app?vid=d420dded-2198-4fdc-a671-3fbb3ccc501e","ios":"levelo://app?vid=d420dded-2198-4fdc-a671-3fbb3ccc501e"},"vehicle_type_id":"4","last_reported":1771317163,"current_range_meters":21600,"station_id":"ce4bgh92rcd13ifvqb50","pricing_plan_id":"cebpf4jnsgd1na2vs0mg"},{"bike_id":"62e690f0-63f6-474d-98ba-c3ee77f6bd18","system_id":"levelo_inurba_marseille","lat":43.29551,"lon":5.4393,"is_reserved":false,"is_disabled":false,"rental_uris":{"android":"levelo://app?vid=62e690f0-63f6-474d-98ba-c3ee77f6bd18","ios":"levelo://app?vid=62e690f0-63f6-474d-98ba-c3ee77f6bd18"},"vehicle_type_id":"4","last_reported":1771317163,"current_range_meters":24000,"station_id":"","pricing_plan_id":"cebpf4jnsgd1na2vs0mg"},{"bike_id":"bb44b05d-a420-4561-bfe1-1b6a5cd0cc7b","system_id":"levelo_inurba_marseille","lat":43.29174,"lon":5.37156,"is_reserved":false,"is_disabled":false,"rental_uris":{"android":"levelo://app?vid=bb44b05d-a420-4561-bfe1-1b6a5cd0cc7b","ios":"levelo://app?vid=bb44b05d-a420-4561-bfe1-1b6a5cd0cc7b"},"vehicle_type_id":"4","last_reported":1771317163,"current_range_meters":32400,"station_id":"ce4bha92rcd13ifvqeh0","pricing_plan_id":"cebpf4jnsgd1na2vs0mg"},{"bike_id":"5405b038-6a45-4914-846b-377786836485","system_id":"levelo_inurba_marseille","lat":43.28714,"lon":5.40007,"is_reserved":false,"is_disabled":true,"rental_uris":{"android":"levelo://app?vid=5405b038-6a45-4914-846b-377786836485","ios":"levelo://app?vid=5405b038-6a45-4914-846b-377786836485"},"vehicle_type_id":"4","last_reported":1771317163,"current_range_meters":20400,"station_id":"ce4bho92rcd13ifvqh3g","pricing_plan_id":"cebpf4jnsgd1na2vs0mg"},{"bike_id":"11b2b510-bda2-408a-9716-7290d12afa3a","system_id":"levelo_inurba_marseille","lat":43.27829,"lon":5.39199,"is_reserved":false,"is_disabled":false,"rental_uris":{"android":"levelo://app?vid=11b2b510-bda2-408a-9716-7290d12afa3a","ios":"levelo://app?vid=11b2b510-bda2-408a-9716-7290d12afa3a"},"vehicle_type_id":"4","last_reported":1771317163,"current_range_meters":30000,"station_id":"ce4bhjp2rcd13ifvqga0","pricing_plan_id":"cebpf4jnsgd1na2vs0mg"},{"bike_id":"4ee2623f-1a6f-47ea-96d4-75fb7223a253","system_id":"levelo_inurba_marseille","lat":43.272,"lon":5.39189,"is_reserved":false,"is_disabled":false,"rental_uris":{"android":"levelo://app?vid=4ee2623f-1a6f-47ea-96d4-75fb7223a253","ios":"levelo://app?vid=4ee2623f-1a6f-47ea-96d4-75fb7223a253"},"vehicle_type_id":"4","last_reported":1771317163,"current_range_meters":39200,"station_id":"ce4bhhp2rcd13ifvqfm0","pricing_plan_id":"cebpf4jnsgd1na2vs0mg"},{"bike_id":"45b209b0-f7ec-4530-b801-53212625f98e","system_id":"levelo_inurba_marseille","lat":43.260578,"lon":5.393955,"is_reserved":false,"is_disabled":false,"rental_uris":{"android":"levelo://app?vid=45b209b0-f7ec-4530-b801-53212625f98e","ios":"levelo://app?vid=45b209b0-f7ec-4530-b801-53212625f98e"},"vehicle_type_id":"4","last_reported":1771317163,"current_range_meters":38400,"station_id":"ce4bhh92rcd13ifvqfj0","pricing_plan_id":"cebpf4jnsgd1na2vs0mg"},{"bike_id":"40fd0452-0ae6-42bf-907f-bb1c4484b081","system_id":"levelo_inurba_marseille","lat":43.27998,"lon":5.38659,"is_reserved":false,"is_disabled":false,"rental_uris":{"android":"levelo://app?vid=40fd0452-0ae6-42bf-907f-bb1c4484b081","ios":"levelo://app?vid=40fd0452-0ae6-42bf-907f-bb1c4484b081"},"vehicle_type_id":"4","last_reported":1771317163,"current_range_meters":21600,"station_id":"ce4bhg12rcd13ifvqf80","pricing_plan_id":"cebpf4jnsgd1na2vs0mg"},{"bike_id":"d1d21e5e-5cb2-4e52-a7df-8790ee684f76","system_id":"levelo_inurba_marseille","lat":43.29371,"lon":5.37864,"is_reserved":false,"is_disabled":false,"rental_uris":{"android":"levelo://app?vid=d1d21e5e-5cb2-4e52-a7df-8790ee684f76","ios":"levelo://app?vid=d1d21e5e-5cb2-4e52-a7df-8790ee684f76"},"vehicle_type_id":"4","last_reported":1771317163,"current_range_meters":35200,"station_id":"ce4bgjh2rcd13ifvqbf0","pricing_plan_id":"cebpf4jnsgd1na2vs0mg"},{"bike_id":"99a48500-7e84-4fa4-a96e-b83b80df3c14","system_id":"levelo_inurba_marseille","lat":43.25341,"lon":5.4214,"is_reserved":false,"is_disabled":false,"rental_uris":{"android":"levelo://app?vid=99a48500-7e84-4fa4-a96e-b83b80df3c14","ios":"levelo://app?vid=99a48500-7e84-4fa4-a96e-b83b80df3c14"},"vehicle_type_id":"4","last_reported":1771317163,"current_range_meters":9600,"station_id":"st_d2m65c5bi1j21697t3ng","pricing_plan_id":"cebpf4jnsgd1na2vs0mg"},{"bike_id":"8c6d78c8-ce5b-42c2-93e9-db4f2ccde563","system_id":"levelo_inurba_marseille","lat":43.290391,"lon":5.375902,"is_reserved":false,"is_disabled":false,"rental_uris":{"android":"levelo://app?vid=8c6d78c8-ce5b-42c2-93e9-db4f2ccde563","ios":"levelo://app?vid=8c6d78c8-ce5b-42c2-93e9-db4f2ccde563"},"vehicle_type_id":"4","last_reported":1771317163,"current_range_meters":21600,"station_id":"ce4bh692rcd13ifvqe90","pricing_plan_id":"cebpf4jnsgd1na2vs0mg"},{"bike_id":"960ad6b5-06c8-4b04-b964-56217da919ed","system_id":"levelo_inurba_marseille","lat":43.24771,"lon":5.37512,"is_reserved":false,"is_disabled":false,"rental_uris":{"android":"levelo://app?vid=960ad6b5-06c8-4b04-b964-56217da919ed","ios":"levelo://app?vid=960ad6b5-06c8-4b04-b964-56217da919ed"},"vehicle_type_id":"4","last_reported":1771317163,"current_range_meters":24400,"station_id":"","pricing_plan_id":"cebpf4jnsgd1na2vs0mg"},{"bike_id":"20ebda99-eb20-4c39-aad6-ed24c603938b","system_id":"levelo_inurba_marseille","lat":43.26536,"lon":5.37317,"is_reserved":false,"is_disabled":true,"rental_uris":{"android":"levelo://app?vid=20ebda99-eb20-4c39-aad6-ed24c603938b","ios":"levelo://app?vid=20ebda99-eb20-4c39-aad6-ed24c603938b"},"vehicle_type_id":"4","last_reported":1771317163,"current_range_meters":0,"station_id":"ce4bhg12rcd13ifvqf70","pricing_plan_id":"cebpf4jnsgd1na2vs0mg"},{"bike_id":"c7fbcb26-f0c5-485b-bedf-94d07ace569a","system_id":"levelo_inurba_marseille","lat":43.26215,"lon":5.40452,"is_reserved":false,"is_disabled":false,"rental_uris":{"android":"levelo://app?vid=c7fbcb26-f0c5-485b-bedf-94d07ace569a","ios":"levelo://app?vid=c7fbcb26-f0c5-485b-bedf-94d07ace569a"},"vehicle_type_id":"4","last_reported":1771317163,"current_range_meters":32400,"station_id":"ce4bhmh2rcd13ifvqgmg","pricing_plan_id":"cebpf4jnsgd1na2vs0mg"},{"bike_id":"88f1f13a-b9f4-42bb-928f-bb3ba59d1110","system_id":"levelo_inurba_marseille","lat":43.2918,"lon":5.37149,"is_reserved":false,"is_disabled":false,"rental_uris":{"android":"levelo://app?vid=88f1f13a-b9f4-42bb-928f-bb3ba59d1110","ios":"levelo://app?vid=88f1f13a-b9f4-42bb-928f-bb3ba59d1110"},"vehicle_type_id":"4","last_reported":1771317163,"current_range_meters":28400,"station_id":"ce4bha92rcd13ifvqeh0","pricing_plan_id":"cebpf4jnsgd1na2vs0mg"},{"bike_id":"74f62393-4bd9-47e9-8d53-461792093662","system_id":"levelo_inurba_marseille","lat":43.29811,"lon":5.4407,"is_reserved":false,"is_disabled":false,"rental_uris":{"android":"levelo://app?vid=74f62393-4bd9-47e9-8d53-461792093662","ios":"levelo://app?vid=74f62393-4bd9-47e9-8d53-461792093662"},"vehicle_type_id":"4","last_reported":1771317163,"current_range_meters":9200,"station_id":"st_d3jp68qikq2c7381ktn0","pricing_plan_id":"cebpf4jnsgd1na2vs0mg"},{"bike_id":"2dda05e1-36b3-4782-b169-f1e392056b70","system_id":"levelo_inurba_marseille","lat":43.25001,"lon":5.38933,"is_reserved":false,"is_disabled":false,"rental_uris":{"android":"levelo://app?vid=2dda05e1-36b3-4782-b169-f1e392056b70","ios":"levelo://app?vid=2dda05e1-36b3-4782-b169-f1e392056b70"},"vehicle_type_id":"4","last_reported":1771317163,"current_range_meters":39200,"station_id":"ce4bhgp2rcd13ifvqfd0","pricing_plan_id":"cebpf4jnsgd1na2vs0mg"},{"bike_id":"fb4f2341-17da-41d8-a946-91d867026601","system_id":"levelo_inurba_marseille","lat":43.25349,"lon":5.4216,"is_reserved":false,"is_disabled":false,"rental_uris":{"android":"levelo://app?vid=fb4f2341-17da-41d8-a946-91d867026601","ios":"levelo://app?vid=fb4f2341-17da-41d8-a946-91d867026601"},"vehicle_type_id":"4","last_reported":1771317163,"current_range_meters":8800,"station_id":"st_d2m65c5bi1j21697t3ng","pricing_plan_id":"cebpf4jnsgd1na2vs0mg"},{"bike_id":"26594335-e99b-4bd3-b082-75130e22695e","system_id":"levelo_inurba_marseille","lat":43.30155,"lon":5.38096,"is_reserved":false,"is_disabled":false,"rental_uris":{"android":"levelo://app?vid=26594335-e99b-4bd3-b082-75130e22695e","ios":"levelo://app?vid=26594335-e99b-4bd3-b082-75130e22695e"},"vehicle_type_id":"4","last_reported":1771317163,"current_range_meters":10000,"station_id":"ce4bgjp2rcd13ifvqbh0","pricing_plan_id":"cebpf4jnsgd1na2vs0mg"},{"bike_id":"cef7774b-878b-416b-b1d6-eb1f955ce887","system_id":"levelo_inurba_marseille","lat":43.23218,"lon":5.35562,"is_reserved":false,"is_disabled":false,"rental_uris":{"android":"levelo://app?vid=cef7774b-878b-416b-b1d6-eb1f955ce887","ios":"levelo://app?vid=cef7774b-878b-416b-b1d6-eb1f955ce887"},"vehicle_type_id":"4","last_reported":1771317163,"current_range_meters":24800,"station_id":"ce4bhu92rcd13ifvqi70","pricing_plan_id":"cebpf4jnsgd1na2vs0mg"},{"bike_id":"fe2fab5a-d871-47b1-ab37-071a0b8349f9","system_id":"levelo_inurba_marseille","lat":43.27911,"lon":5.38019,"is_reserved":false,"is_disabled":false,"rental_uris":{"android":"levelo://app?vid=fe2fab5a-d871-47b1-ab37-071a0b8349f9","ios":"levelo://app?vid=fe2fab5a-d871-47b1-ab37-071a0b8349f9"},"vehicle_type_id":"4","last_reported":1771317163,"current_range_meters":6800,"station_id":"ce4bhf92rcd13ifvqf50","pricing_plan_id":"cebpf4jnsgd1na2vs0mg"},{"bike_id":"cd88b8a2-4e6c-48d3-8c6b-4664b5faba1a","system_id":"levelo_inurba_marseille","lat":43.25862,"lon":5.39909,"is_reserved":false,"is_disabled":false,"rental_uris":{"android":"levelo://app?vid=cd88b8a2-4e6c-48d3-8c6b-4664b5faba1a","ios":"levelo://app?vid=cd88b8a2-4e6c-48d3-8c6b-4664b5faba1a"},"vehicle_type_id":"4","last_reported":1771317163,"current_range_meters":14400,"station_id":"ce4bhl92rcd13ifvqghg","pricing_plan_id":"cebpf4jnsgd1na2vs0mg"},{"bike_id":"cf4caab7-a095-4935-9e73-91d5d9a530cc","system_id":"levelo_inurba_marseille","lat":43.30914,"lon":5.36844,"is_reserved":false,"is_disabled":false,"rental_uris":{"android":"levelo://app?vid=cf4caab7-a095-4935-9e73-91d5d9a530cc","ios":"levelo://app?vid=cf4caab7-a095-4935-9e73-91d5d9a530cc"},"vehicle_type_id":"4","last_reported":1771317163,"current_range_meters":34000,"station_id":"ce4bgn92rcd13ifvqbvg","pricing_plan_id":"cebpf4jnsgd1na2vs0mg"},{"bike_id":"acd7f173-3289-4aa6-a2f5-2a7a09f206d9","system_id":"levelo_inurba_marseille","lat":43.285694,"lon":5.395038,"is_reserved":false,"is_disabled":false,"rental_uris":{"android":"levelo://app?vid=acd7f173-3289-4aa6-a2f5-2a7a09f206d9","ios":"levelo://app?vid=acd7f173-3289-4aa6-a2f5-2a7a09f206d9"},"vehicle_type_id":"4","last_reported":1771317163,"current_range_meters":28000,"station_id":"ce4bh292rcd13ifvqdg0","pricing_plan_id":"cebpf4jnsgd1na2vs0mg"},{"bike_id":"50bc4281-4f9f-4d4b-b5aa-514b80141d5a","system_id":"levelo_inurba_marseille","lat":43.29692,"lon":5.37687,"is_reserved":false,"is_disabled":false,"rental_uris":{"android":"levelo://app?vid=50bc4281-4f9f-4d4b-b5aa-514b80141d5a","ios":"levelo://app?vid=50bc4281-4f9f-4d4b-b5aa-514b80141d5a"},"vehicle_type_id":"4","last_reported":1771317163,"current_range_meters":35600,"station_id":"ce4bgkh2rcd13ifvqbl0","pricing_plan_id":"cebpf4jnsgd1na2vs0mg"},{"bike_id":"9ea77a39-ead2-42d7-8c67-77053452ad6d","system_id":"levelo_inurba_marseille","lat":43.25724,"lon":5.41101,"is_reserved":false,"is_disabled":false,"rental_uris":{"android":"levelo://app?vid=9ea77a39-ead2-42d7-8c67-77053452ad6d","ios":"levelo://app?vid=9ea77a39-ead2-42d7-8c67-77053452ad6d"},"vehicle_type_id":"4","last_reported":1771317163,"current_range_meters":35200,"station_id":"ce4bhkp2rcd13ifvqgd0","pricing_plan_id":"cebpf4jnsgd1na2vs0mg"},{"bike_id":"935f47f8-13e9-4a20-8821-b15e7f82cbca","system_id":"levelo_inurba_marseille","lat":43.240691,"lon":5.377559,"is_reserved":false,"is_disabled":false,"rental_uris":{"android":"levelo://app?vid=935f47f8-13e9-4a20-8821-b15e7f82cbca","ios":"levelo://app?vid=935f47f8-13e9-4a20-8821-b15e7f82cbca"},"vehicle_type_id":"4","last_reported":1771317163,"current_range_meters":31200,"station_id":"ce4bhnp2rcd13ifvqgvg","pricing_plan_id":"cebpf4jnsgd1na2vs0mg"},{"bike_id":"b66e0ad4-8ae9-49f3-9245-06bfaa860ce3","system_id":"levelo_inurba_marseille","lat":43.30918,"lon":5.3687,"is_reserved":false,"is_disabled":false,"rental_uris":{"android":"levelo://app?vid=b66e0ad4-8ae9-49f3-9245-06bfaa860ce3","ios":"levelo://app?vid=b66e0ad4-8ae9-49f3-9245-06bfaa860ce3"},"vehicle_type_id":"4","last_reported":1771317163,"current_range_meters":36000,"station_id":"ce4bgn92rcd13ifvqbvg","pricing_plan_id":"cebpf4jnsgd1na2vs0mg"},{"bike_id":"fff20921-d67f-4c3d-8da5-5370d4f6087b","system_id":"levelo_inurba_marseille","lat":43.26692,"lon":5.38249,"is_reserved":false,"is_disabled":false,"rental_uris":{"android":"levelo://app?vid=fff20921-d67f-4c3d-8da5-5370d4f6087b","ios":"levelo://app?vid=fff20921-d67f-4c3d-8da5-5370d4f6087b"},"vehicle_type_id":"4","last_reported":1771317163,"current_range_meters":32800,"station_id":"ce4bhg92rcd13ifvqf90","pricing_plan_id":"cebpf4jnsgd1na2vs0mg"},{"bike_id":"d7bde0f9-1e34-4064-9fcd-20ad812f4669","system_id":"levelo_inurba_marseille","lat":43.30324,"lon":5.36884,"is_reserved":false,"is_disabled":false,"rental_uris":{"android":"levelo://app?vid=d7bde0f9-1e34-4064-9fcd-20ad812f4669","ios":"levelo://app?vid=d7bde0f9-1e34-4064-9fcd-20ad812f4669"},"vehicle_type_id":"4","last_reported":1771317163,"current_range_meters":13600,"station_id":"ce4bgqh2rcd13ifvqc5g","pricing_plan_id":"cebpf4jnsgd1na2vs0mg"},{"bike_id":"45e7da87-8c29-42a6-adb7-68dd35befa2a","system_id":"levelo_inurba_marseille","lat":43.32979,"lon":5.38998,"is_reserved":false,"is_disabled":false,"rental_uris":{"android":"levelo://app?vid=45e7da87-8c29-42a6-adb7-68dd35befa2a","ios":"levelo://app?vid=45e7da87-8c29-42a6-adb7-68dd35befa2a"},"vehicle_type_id":"4","last_reported":1771317163,"current_range_meters":26000,"station_id":"","pricing_plan_id":"cebpf4jnsgd1na2vs0mg"},{"bike_id":"d6b02d18-5eb8-413d-b10c-4d31b60dda3d","system_id":"levelo_inurba_marseille","lat":43.26496,"lon":5.39548,"is_reserved":false,"is_disabled":false,"rental_uris":{"android":"levelo://app?vid=d6b02d18-5eb8-413d-b10c-4d31b60dda3d","ios":"levelo://app?vid=d6b02d18-5eb8-413d-b10c-4d31b60dda3d"},"vehicle_type_id":"4","last_reported":1771317163,"current_range_meters":34800,"station_id":"ce4bhi12rcd13ifvqfq0","pricing_plan_id":"cebpf4jnsgd1na2vs0mg"},{"bike_id":"6eea4831-9cfc-465c-b3f5-f9a7ef7d7889","system_id":"levelo_inurba_marseille","lat":43.2926,"lon":5.36847,"is_reserved":false,"is_disabled":false,"rental_uris":{"android":"levelo://app?vid=6eea4831-9cfc-465c-b3f5-f9a7ef7d7889","ios":"levelo://app?vid=6eea4831-9cfc-465c-b3f5-f9a7ef7d7889"},"vehicle_type_id":"4","last_reported":1771317163,"current_range_meters":26800,"station_id":"ce4bhbp2rcd13ifvqesg","pricing_plan_id":"cebpf4jnsgd1na2vs0mg"},{"bike_id":"97ccd086-36d4-4005-b689-fdea1c796e9d","system_id":"levelo_inurba_marseille","lat":43.30377,"lon":5.42486,"is_reserved":false,"is_disabled":false,"rental_uris":{"android":"levelo://app?vid=97ccd086-36d4-4005-b689-fdea1c796e9d","ios":"levelo://app?vid=97ccd086-36d4-4005-b689-fdea1c796e9d"},"vehicle_type_id":"4","last_reported":1771317163,"current_range_meters":19600,"station_id":"ce4bhoh2rcd13ifvqh6g","pricing_plan_id":"cebpf4jnsgd1na2vs0mg"},{"bike_id":"c52c81c1-4244-477b-9190-a68ed89e994a","system_id":"levelo_inurba_marseille","lat":43.3258,"lon":5.41469,"is_reserved":false,"is_disabled":false,"rental_uris":{"android":"levelo://app?vid=c52c81c1-4244-477b-9190-a68ed89e994a","ios":"levelo://app?vid=c52c81c1-4244-477b-9190-a68ed89e994a"},"vehicle_type_id":"4","last_reported":1771317163,"current_range_meters":38000,"station_id":"","pricing_plan_id":"cebpf4jnsgd1na2vs0mg"},{"bike_id":"21a31800-85ef-4bb0-86fe-a24cfc337aea","system_id":"levelo_inurba_marseille","lat":43.27987,"lon":5.3869,"is_reserved":false,"is_disabled":false,"rental_uris":{"android":"levelo://app?vid=21a31800-85ef-4bb0-86fe-a24cfc337aea","ios":"levelo://app?vid=21a31800-85ef-4bb0-86fe-a24cfc337aea"},"vehicle_type_id":"4","last_reported":1771317163,"current_range_meters":19200,"station_id":"ce4bhg12rcd13ifvqf80","pricing_plan_id":"cebpf4jnsgd1na2vs0mg"},{"bike_id":"dfe0e9ca-8d49-4db0-8c33-9cb6c3befb32","system_id":"levelo_inurba_marseille","lat":43.28237,"lon":5.39048,"is_reserved":false,"is_disabled":false,"rental_uris":{"android":"levelo://app?vid=dfe0e9ca-8d49-4db0-8c33-9cb6c3befb32","ios":"levelo://app?vid=dfe0e9ca-8d49-4db0-8c33-9cb6c3befb32"},"vehicle_type_id":"4","last_reported":1771317163,"current_range_meters":8400,"station_id":"ce4bhn92rcd13ifvqgsg","pricing_plan_id":"cebpf4jnsgd1na2vs0mg"},{"bike_id":"c87ef617-f108-4901-bbd7-4b031ba4350e","system_id":"levelo_inurba_marseille","lat":43.30572,"lon":5.36713,"is_reserved":false,"is_disabled":false,"rental_uris":{"android":"levelo://app?vid=c87ef617-f108-4901-bbd7-4b031ba4350e","ios":"levelo://app?vid=c87ef617-f108-4901-bbd7-4b031ba4350e"},"vehicle_type_id":"4","last_reported":1771317163,"current_range_meters":14400,"station_id":"ce4bgrp2rcd13ifvqc9g","pricing_plan_id":"cebpf4jnsgd1na2vs0mg"},{"bike_id":"9d543250-2181-42e5-9c5e-62dc8d295fe7","system_id":"levelo_inurba_marseille","lat":43.31239,"lon":5.36813,"is_reserved":false,"is_disabled":false,"rental_uris":{"android":"levelo://app?vid=9d543250-2181-42e5-9c5e-62dc8d295fe7","ios":"levelo://app?vid=9d543250-2181-42e5-9c5e-62dc8d295fe7"},"vehicle_type_id":"4","last_reported":1771317163,"current_range_meters":31200,"station_id":"ce4bgl92rcd13ifvqbq0","pricing_plan_id":"cebpf4jnsgd1na2vs0mg"},{"bike_id":"6e6ac6b7-3a1f-48b9-91bf-665f68583850","system_id":"levelo_inurba_marseille","lat":43.302543,"lon":5.377374,"is_reserved":false,"is_disabled":false,"rental_uris":{"android":"levelo://app?vid=6e6ac6b7-3a1f-48b9-91bf-665f68583850","ios":"levelo://app?vid=6e6ac6b7-3a1f-48b9-91bf-665f68583850"},"vehicle_type_id":"4","last_reported":1771317163,"current_range_meters":38800,"station_id":"ce4bguh2rcd13ifvqcj0","pricing_plan_id":"cebpf4jnsgd1na2vs0mg"},{"bike_id":"6a0a6d37-cb9f-436c-89d3-a351042618e3","system_id":"levelo_inurba_marseille","lat":43.29276,"lon":5.40134,"is_reserved":false,"is_disabled":false,"rental_uris":{"android":"levelo://app?vid=6a0a6d37-cb9f-436c-89d3-a351042618e3","ios":"levelo://app?vid=6a0a6d37-cb9f-436c-89d3-a351042618e3"},"vehicle_type_id":"4","last_reported":1771317163,"current_range_meters":39200,"station_id":"ce4bh312rcd13ifvqdk0","pricing_plan_id":"cebpf4jnsgd1na2vs0mg"},{"bike_id":"0b0d2c04-a40d-44fd-b9fb-064aff570702","system_id":"levelo_inurba_marseille","lat":43.305529,"lon":5.365116,"is_reserved":false,"is_disabled":false,"rental_uris":{"android":"levelo://app?vid=0b0d2c04-a40d-44fd-b9fb-064aff570702","ios":"levelo://app?vid=0b0d2c04-a40d-44fd-b9fb-064aff570702"},"vehicle_type_id":"4","last_reported":1771317163,"current_range_meters":39200,"station_id":"ce4bgs12rcd13ifvqcag","pricing_plan_id":"cebpf4jnsgd1na2vs0mg"},{"bike_id":"410511c2-da53-4c39-b16e-3a3edf88cf23","system_id":"levelo_inurba_marseille","lat":43.31898,"lon":5.40725,"is_reserved":false,"is_disabled":false,"rental_uris":{"android":"levelo://app?vid=410511c2-da53-4c39-b16e-3a3edf88cf23","ios":"levelo://app?vid=410511c2-da53-4c39-b16e-3a3edf88cf23"},"vehicle_type_id":"4","last_reported":1771317163,"current_range_meters":38000,"station_id":"ce4bhq12rcd13ifvqhig","pricing_plan_id":"cebpf4jnsgd1na2vs0mg"},{"bike_id":"b583830b-ee3c-42a4-b476-f007d7fc145d","system_id":"levelo_inurba_marseille","lat":43.30549,"lon":5.36707,"is_reserved":false,"is_disabled":false,"rental_uris":{"android":"levelo://app?vid=b583830b-ee3c-42a4-b476-f007d7fc145d","ios":"levelo://app?vid=b583830b-ee3c-42a4-b476-f007d7fc145d"},"vehicle_type_id":"4","last_reported":1771317163,"current_range_meters":37600,"station_id":"ce4bgrp2rcd13ifvqc9g","pricing_plan_id":"cebpf4jnsgd1na2vs0mg"},{"bike_id":"c9808f2e-cf2b-4dff-a3cb-72e13b47ee3f","system_id":"levelo_inurba_marseille","lat":43.27068,"lon":5.42285,"is_reserved":false,"is_disabled":false,"rental_uris":{"android":"levelo://app?vid=c9808f2e-cf2b-4dff-a3cb-72e13b47ee3f","ios":"levelo://app?vid=c9808f2e-cf2b-4dff-a3cb-72e13b47ee3f"},"vehicle_type_id":"4","last_reported":1771317163,"current_range_meters":32000,"station_id":"ce4bhk92rcd13ifvqgb0","pricing_plan_id":"cebpf4jnsgd1na2vs0mg"},{"bike_id":"3ef40bbd-fa01-43cc-b528-7d4a935d8056","system_id":"levelo_inurba_marseille","lat":43.229264,"lon":5.353779,"is_reserved":false,"is_disabled":false,"rental_uris":{"android":"levelo://app?vid=3ef40bbd-fa01-43cc-b528-7d4a935d8056","ios":"levelo://app?vid=3ef40bbd-fa01-43cc-b528-7d4a935d8056"},"vehicle_type_id":"4","last_reported":1771317163,"current_range_meters":35600,"station_id":"cpo3532slgdg3j2ikp40","pricing_plan_id":"cebpf4jnsgd1na2vs0mg"},{"bike_id":"a0354078-55a1-4858-b178-b599deaa1620","system_id":"levelo_inurba_marseille","lat":43.30391,"lon":5.42495,"is_reserved":false,"is_disabled":false,"rental_uris":{"android":"levelo://app?vid=a0354078-55a1-4858-b178-b599deaa1620","ios":"levelo://app?vid=a0354078-55a1-4858-b178-b599deaa1620"},