{"last_updated":1766823291,"ttl":60,"version":"2.2","data":{"bikes":[{"bike_id":"687c1be0-d952-4671-a832-8ad6803751f6","system_id":"levelo_inurba_marseille","lat":43.24609,"lon":5.43149,"is_reserved":false,"is_disabled":false,"rental_uris":{"android":"levelo://app?vid=687c1be0-d952-4671-a832-8ad6803751f6","ios":"levelo://app?vid=687c1be0-d952-4671-a832-8ad6803751f6"},"vehicle_type_id":"4","last_reported":1766823291,"current_range_meters":3200,"station_id":"st_d2m6c4gdas8pm72e190g","pricing_plan_id":"cebpf4jnsgd1na2vs0mg"},{"bike_id":"6f583bc9-1bce-40c2-80e9-a9f698049b1e","system_id":"levelo_inurba_marseille","lat":43.30124,"lon":5.43104,"is_reserved":false,"is_disabled":false,"rental_uris":{"android":"levelo://app?vid=6f583bc9-1bce-40c2-80e9-a9f698049b1e","ios":"levelo://app?vid=6f583bc9-1bce-40c2-80e9-a9f698049b1e"},"vehicle_type_id":"4","last_reported":1766823291,"current_range_meters":3200,"station_id":"st_d3js3co5814s73ftftug","pricing_plan_id":"cebpf4jnsgd1na2vs0mg"},{"bike_id":"bed00df6-d661-4640-b4e5-5c4df1e0ced4","system_id":"levelo_inurba_marseille","lat":43.302483,"lon":5.400857,"is_reserved":false,"is_disabled":false,"rental_uris":{"android":"levelo://app?vid=bed00df6-d661-4640-b4e5-5c4df1e0ced4","ios":"levelo://app?vid=bed00df6-d661-4640-b4e5-5c4df1e0ced4"},"vehicle_type_id":"4","last_reported":1766823291,"current_range_meters":3600,"station_id":"","pricing_plan_id":"cebpf4jnsgd1na2vs0mg"},{"bike_id":"ef0cb0e0-97fe-4207-9cc5-93ef3bf8bba5","system_id":"levelo_inurba_marseille","lat":43.25797,"lon":5.39431,"is_reserved":false,"is_disabled":false,"rental_uris":{"android":"levelo://app?vid=ef0cb0e0-97fe-4207-9cc5-93ef3bf8bba5","ios":"levelo://app?vid=ef0cb0e0-97fe-4207-9cc5-93ef3bf8bba5"},"vehicle_type_id":"4","last_reported":1766823291,"current_range_meters":3600,"station_id":"ce4bhip2rcd13ifvqft0","pricing_plan_id":"cebpf4jnsgd1na2vs0mg"},{"bike_id":"9fd79016-67c5-4abf-ab06-d6e5f920a205","system_id":"levelo_inurba_marseille","lat":43.26558,"lon":5.39001,"is_reserved":false,"is_disabled":true,"rental_uris":{"android":"levelo://app?vid=9fd79016-67c5-4abf-ab06-d6e5f920a205","ios":"levelo://app?vid=9fd79016-67c5-4abf-ab06-d6e5f920a205"},"vehicle_type_id":"4","last_reported":1766823291,"current_range_meters":4000,"station_id":"ce4bhe12rcd13ifvqf30","pricing_plan_id":"cebpf4jnsgd1na2vs0mg"},{"bike_id":"16972b46-16f7-4636-ba99-c8cf896c9f73","system_id":"levelo_inurba_marseille","lat":43.34704,"lon":5.34553,"is_reserved":false,"is_disabled":false,"rental_uris":{"android":"levelo://app?vid=16972b46-16f7-4636-ba99-c8cf896c9f73","ios":"levelo://app?vid=16972b46-16f7-4636-ba99-c8cf896c9f73"},"vehicle_type_id":"4","last_reported":1766823291,"current_range_meters":4000,"station_id":"","pricing_plan_id":"cebpf4jnsgd1na2vs0mg"},{"bike_id":"8fcf17e9-6f12-40c5-b477-90499f0bb83c","system_id":"levelo_inurba_marseille","lat":43.337563,"lon":5.374336,"is_reserved":false,"is_disabled":false,"rental_uris":{"android":"levelo://app?vid=8fcf17e9-6f12-40c5-b477-90499f0bb83c","ios":"levelo://app?vid=8fcf17e9-6f12-40c5-b477-90499f0bb83c"},"vehicle_type_id":"4","last_reported":1766823291,"current_range_meters":4400,"station_id":"","pricing_plan_id":"cebpf4jnsgd1na2vs0mg"},{"bike_id":"e63d9a65-4cde-4906-9735-3200b2d7a155","system_id":"levelo_inurba_marseille","lat":43.29649,"lon":5.38007,"is_reserved":false,"is_disabled":false,"rental_uris":{"android":"levelo://app?vid=e63d9a65-4cde-4906-9735-3200b2d7a155","ios":"levelo://app?vid=e63d9a65-4cde-4906-9735-3200b2d7a155"},"vehicle_type_id":"4","last_reported":1766823291,"current_range_meters":4400,"station_id":"","pricing_plan_id":"cebpf4jnsgd1na2vs0mg"},{"bike_id":"54c97054-5ef5-440e-a34d-67835ffdea05","system_id":"levelo_inurba_marseille","lat":43.24056,"lon":5.3778,"is_reserved":false,"is_disabled":false,"rental_uris":{"android":"levelo://app?vid=54c97054-5ef5-440e-a34d-67835ffdea05","ios":"levelo://app?vid=54c97054-5ef5-440e-a34d-67835ffdea05"},"vehicle_type_id":"4","last_reported":1766823291,"current_range_meters":4400,"station_id":"ce4bhnp2rcd13ifvqgvg","pricing_plan_id":"cebpf4jnsgd1na2vs0mg"},{"bike_id":"5486d9dd-2080-4c45-96bd-522ddc11da52","system_id":"levelo_inurba_marseille","lat":43.26941,"lon":5.38934,"is_reserved":false,"is_disabled":false,"rental_uris":{"android":"levelo://app?vid=5486d9dd-2080-4c45-96bd-522ddc11da52","ios":"levelo://app?vid=5486d9dd-2080-4c45-96bd-522ddc11da52"},"vehicle_type_id":"4","last_reported":1766823291,"current_range_meters":4400,"station_id":"ce4bhhh2rcd13ifvqfl0","pricing_plan_id":"cebpf4jnsgd1na2vs0mg"},{"bike_id":"061c7281-09d1-4a0c-8c3a-cf19bff30648","system_id":"levelo_inurba_marseille","lat":43.29023,"lon":5.38122,"is_reserved":false,"is_disabled":true,"rental_uris":{"android":"levelo://app?vid=061c7281-09d1-4a0c-8c3a-cf19bff30648","ios":"levelo://app?vid=061c7281-09d1-4a0c-8c3a-cf19bff30648"},"vehicle_type_id":"4","last_reported":1766823291,"current_range_meters":4800,"station_id":"ce4bh4p2rcd13ifvqe1g","pricing_plan_id":"cebpf4jnsgd1na2vs0mg"},{"bike_id":"6d373430-813a-4ac6-a484-9f4402e994cc","system_id":"levelo_inurba_marseille","lat":43.217445,"lon":5.346039,"is_reserved":false,"is_disabled":false,"rental_uris":{"android":"levelo://app?vid=6d373430-813a-4ac6-a484-9f4402e994cc","ios":"levelo://app?vid=6d373430-813a-4ac6-a484-9f4402e994cc"},"vehicle_type_id":"4","last_reported":1766823291,"current_range_meters":5600,"station_id":"st_cvj6r9ubvosntc0bgbag","pricing_plan_id":"cebpf4jnsgd1na2vs0mg"},{"bike_id":"5adb93f4-5835-4880-ac04-efe4431c38ed","system_id":"levelo_inurba_marseille","lat":43.25413,"lon":5.42421,"is_reserved":false,"is_disabled":false,"rental_uris":{"android":"levelo://app?vid=5adb93f4-5835-4880-ac04-efe4431c38ed","ios":"levelo://app?vid=5adb93f4-5835-4880-ac04-efe4431c38ed"},"vehicle_type_id":"4","last_reported":1766823291,"current_range_meters":5600,"station_id":"","pricing_plan_id":"cebpf4jnsgd1na2vs0mg"},{"bike_id":"cdee5e30-6603-4342-9e14-47ac4f642dbc","system_id":"levelo_inurba_marseille","lat":43.29782,"lon":5.37249,"is_reserved":false,"is_disabled":false,"rental_uris":{"android":"levelo://app?vid=cdee5e30-6603-4342-9e14-47ac4f642dbc","ios":"levelo://app?vid=cdee5e30-6603-4342-9e14-47ac4f642dbc"},"vehicle_type_id":"4","last_reported":1766823291,"current_range_meters":5600,"station_id":"","pricing_plan_id":"cebpf4jnsgd1na2vs0mg"},{"bike_id":"115b2f8e-404e-4661-b1a9-5ff904791dd7","system_id":"levelo_inurba_marseille","lat":43.29794,"lon":5.38197,"is_reserved":false,"is_disabled":false,"rental_uris":{"android":"levelo://app?vid=115b2f8e-404e-4661-b1a9-5ff904791dd7","ios":"levelo://app?vid=115b2f8e-404e-4661-b1a9-5ff904791dd7"},"vehicle_type_id":"4","last_reported":1766823291,"current_range_meters":6000,"station_id":"","pricing_plan_id":"cebpf4jnsgd1na2vs0mg"},{"bike_id":"3e346a2c-c4f8-4d56-8dfe-41e7954cb434","system_id":"levelo_inurba_marseille","lat":43.28879,"lon":5.449942,"is_reserved":false,"is_disabled":false,"rental_uris":{"android":"levelo://app?vid=3e346a2c-c4f8-4d56-8dfe-41e7954cb434","ios":"levelo://app?vid=3e346a2c-c4f8-4d56-8dfe-41e7954cb434"},"vehicle_type_id":"4","last_reported":1766823291,"current_range_meters":6000,"station_id":"","pricing_plan_id":"cebpf4jnsgd1na2vs0mg"},{"bike_id":"b07774d6-eab2-4c47-a2ab-6007a3372911","system_id":"levelo_inurba_marseille","lat":43.24946,"lon":5.40481,"is_reserved":false,"is_disabled":false,"rental_uris":{"android":"levelo://app?vid=b07774d6-eab2-4c47-a2ab-6007a3372911","ios":"levelo://app?vid=b07774d6-eab2-4c47-a2ab-6007a3372911"},"vehicle_type_id":"4","last_reported":1766823291,"current_range_meters":6000,"station_id":"st_d2ngiaodas8pm72gd1h0","pricing_plan_id":"cebpf4jnsgd1na2vs0mg"},{"bike_id":"45cb4a88-56d0-4ea5-b85d-33b8d4d652ea","system_id":"levelo_inurba_marseille","lat":43.29614,"lon":5.38333,"is_reserved":false,"is_disabled":false,"rental_uris":{"android":"levelo://app?vid=45cb4a88-56d0-4ea5-b85d-33b8d4d652ea","ios":"levelo://app?vid=45cb4a88-56d0-4ea5-b85d-33b8d4d652ea"},"vehicle_type_id":"4","last_reported":1766823291,"current_range_meters":6400,"station_id":"","pricing_plan_id":"cebpf4jnsgd1na2vs0mg"},{"bike_id":"38f2c3d6-c076-4448-a723-af590b3417f8","system_id":"levelo_inurba_marseille","lat":43.26562,"lon":5.39007,"is_reserved":false,"is_disabled":false,"rental_uris":{"android":"levelo://app?vid=38f2c3d6-c076-4448-a723-af590b3417f8","ios":"levelo://app?vid=38f2c3d6-c076-4448-a723-af590b3417f8"},"vehicle_type_id":"4","last_reported":1766823291,"current_range_meters":6400,"station_id":"ce4bhe12rcd13ifvqf30","pricing_plan_id":"cebpf4jnsgd1na2vs0mg"},{"bike_id":"417195e8-be88-49a9-be4e-a24d8d002797","system_id":"levelo_inurba_marseille","lat":43.29974,"lon":5.38487,"is_reserved":false,"is_disabled":false,"rental_uris":{"android":"levelo://app?vid=417195e8-be88-49a9-be4e-a24d8d002797","ios":"levelo://app?vid=417195e8-be88-49a9-be4e-a24d8d002797"},"vehicle_type_id":"4","last_reported":1766823291,"current_range_meters":6400,"station_id":"ce4bgj92rcd13ifvqbd0","pricing_plan_id":"cebpf4jnsgd1na2vs0mg"},{"bike_id":"2fad9db5-aa59-4d67-acc6-8a420e8c641e","system_id":"levelo_inurba_marseille","lat":43.28668,"lon":5.39928,"is_reserved":false,"is_disabled":false,"rental_uris":{"android":"levelo://app?vid=2fad9db5-aa59-4d67-acc6-8a420e8c641e","ios":"levelo://app?vid=2fad9db5-aa59-4d67-acc6-8a420e8c641e"},"vehicle_type_id":"4","last_reported":1766823291,"current_range_meters":6400,"station_id":"","pricing_plan_id":"cebpf4jnsgd1na2vs0mg"},{"bike_id":"b53a2018-c08b-41d5-8a0f-cdf97f88532e","system_id":"levelo_inurba_marseille","lat":43.30728,"lon":5.42439,"is_reserved":false,"is_disabled":false,"rental_uris":{"android":"levelo://app?vid=b53a2018-c08b-41d5-8a0f-cdf97f88532e","ios":"levelo://app?vid=b53a2018-c08b-41d5-8a0f-cdf97f88532e"},"vehicle_type_id":"4","last_reported":1766823291,"current_range_meters":6800,"station_id":"st_cvj6ca6bvosntc0bfgr0","pricing_plan_id":"cebpf4jnsgd1na2vs0mg"},{"bike_id":"8a3188ca-d2bd-469a-a185-5fef5584acc0","system_id":"levelo_inurba_marseille","lat":43.319915,"lon":5.381419,"is_reserved":false,"is_disabled":false,"rental_uris":{"android":"levelo://app?vid=8a3188ca-d2bd-469a-a185-5fef5584acc0","ios":"levelo://app?vid=8a3188ca-d2bd-469a-a185-5fef5584acc0"},"vehicle_type_id":"4","last_reported":1766823291,"current_range_meters":6800,"station_id":"ce4bhr12rcd13ifvqhpg","pricing_plan_id":"cebpf4jnsgd1na2vs0mg"},{"bike_id":"64721fec-77b8-4807-9667-cec3c8c1fbd0","system_id":"levelo_inurba_marseille","lat":43.243237,"lon":5.394644,"is_reserved":false,"is_disabled":false,"rental_uris":{"android":"levelo://app?vid=64721fec-77b8-4807-9667-cec3c8c1fbd0","ios":"levelo://app?vid=64721fec-77b8-4807-9667-cec3c8c1fbd0"},"vehicle_type_id":"4","last_reported":1766823291,"current_range_meters":6800,"station_id":"","pricing_plan_id":"cebpf4jnsgd1na2vs0mg"},{"bike_id":"26f138cc-4f5d-4857-a726-7f1da488b4d3","system_id":"levelo_inurba_marseille","lat":43.25929,"lon":5.40879,"is_reserved":false,"is_disabled":false,"rental_uris":{"android":"levelo://app?vid=26f138cc-4f5d-4857-a726-7f1da488b4d3","ios":"levelo://app?vid=26f138cc-4f5d-4857-a726-7f1da488b4d3"},"vehicle_type_id":"4","last_reported":1766823291,"current_range_meters":7200,"station_id":"ce4bhm92rcd13ifvqglg","pricing_plan_id":"cebpf4jnsgd1na2vs0mg"},{"bike_id":"ec103638-e6b9-42d3-a233-f8f7c3062633","system_id":"levelo_inurba_marseille","lat":43.30204,"lon":5.37382,"is_reserved":false,"is_disabled":false,"rental_uris":{"android":"levelo://app?vid=ec103638-e6b9-42d3-a233-f8f7c3062633","ios":"levelo://app?vid=ec103638-e6b9-42d3-a233-f8f7c3062633"},"vehicle_type_id":"4","last_reported":1766823291,"current_range_meters":7200,"station_id":"","pricing_plan_id":"cebpf4jnsgd1na2vs0mg"},{"bike_id":"2c71a119-634c-424f-a15a-9dff9c60a427","system_id":"levelo_inurba_marseille","lat":43.24814,"lon":5.374639,"is_reserved":false,"is_disabled":false,"rental_uris":{"android":"levelo://app?vid=2c71a119-634c-424f-a15a-9dff9c60a427","ios":"levelo://app?vid=2c71a119-634c-424f-a15a-9dff9c60a427"},"vehicle_type_id":"4","last_reported":1766823291,"current_range_meters":8000,"station_id":"ce4bhgh2rcd13ifvqfb0","pricing_plan_id":"cebpf4jnsgd1na2vs0mg"},{"bike_id":"a2a1337d-ec9d-4b6b-9079-4ec62e407cf1","system_id":"levelo_inurba_marseille","lat":43.29903,"lon":5.37451,"is_reserved":false,"is_disabled":false,"rental_uris":{"android":"levelo://app?vid=a2a1337d-ec9d-4b6b-9079-4ec62e407cf1","ios":"levelo://app?vid=a2a1337d-ec9d-4b6b-9079-4ec62e407cf1"},"vehicle_type_id":"4","last_reported":1766823291,"current_range_meters":8000,"station_id":"ce4bgjh2rcd13ifvqbg0","pricing_plan_id":"cebpf4jnsgd1na2vs0mg"},{"bike_id":"311d19b3-9a08-44c8-99c5-1bdd0ec61ae4","system_id":"levelo_inurba_marseille","lat":43.24947,"lon":5.40485,"is_reserved":false,"is_disabled":false,"rental_uris":{"android":"levelo://app?vid=311d19b3-9a08-44c8-99c5-1bdd0ec61ae4","ios":"levelo://app?vid=311d19b3-9a08-44c8-99c5-1bdd0ec61ae4"},"vehicle_type_id":"4","last_reported":1766823291,"current_range_meters":8000,"station_id":"st_d2ngiaodas8pm72gd1h0","pricing_plan_id":"cebpf4jnsgd1na2vs0mg"},{"bike_id":"e06e16f6-596f-4677-9ce6-0164b6eff11e","system_id":"levelo_inurba_marseille","lat":43.29254,"lon":5.37267,"is_reserved":false,"is_disabled":false,"rental_uris":{"android":"levelo://app?vid=e06e16f6-596f-4677-9ce6-0164b6eff11e","ios":"levelo://app?vid=e06e16f6-596f-4677-9ce6-0164b6eff11e"},"vehicle_type_id":"4","last_reported":1766823291,"current_range_meters":8400,"station_id":"","pricing_plan_id":"cebpf4jnsgd1na2vs0mg"},{"bike_id":"1f45b2b1-d2e0-4187-926d-9979c716f8a5","system_id":"levelo_inurba_marseille","lat":43.25056,"lon":5.40458,"is_reserved":false,"is_disabled":false,"rental_uris":{"android":"levelo://app?vid=1f45b2b1-d2e0-4187-926d-9979c716f8a5","ios":"levelo://app?vid=1f45b2b1-d2e0-4187-926d-9979c716f8a5"},"vehicle_type_id":"4","last_reported":1766823291,"current_range_meters":8400,"station_id":"","pricing_plan_id":"cebpf4jnsgd1na2vs0mg"},{"bike_id":"f19865c5-a947-4888-ba03-5ff76ba57faf","system_id":"levelo_inurba_marseille","lat":43.28512,"lon":5.48356,"is_reserved":false,"is_disabled":false,"rental_uris":{"android":"levelo://app?vid=f19865c5-a947-4888-ba03-5ff76ba57faf","ios":"levelo://app?vid=f19865c5-a947-4888-ba03-5ff76ba57faf"},"vehicle_type_id":"4","last_reported":1766823291,"current_range_meters":8400,"station_id":"","pricing_plan_id":"cebpf4jnsgd1na2vs0mg"},{"bike_id":"5f1c6459-3fd3-43ad-89d7-e2075908cbe7","system_id":"levelo_inurba_marseille","lat":43.27094,"lon":5.42492,"is_reserved":false,"is_disabled":false,"rental_uris":{"android":"levelo://app?vid=5f1c6459-3fd3-43ad-89d7-e2075908cbe7","ios":"levelo://app?vid=5f1c6459-3fd3-43ad-89d7-e2075908cbe7"},"vehicle_type_id":"4","last_reported":1766823291,"current_range_meters":8400,"station_id":"","pricing_plan_id":"cebpf4jnsgd1na2vs0mg"},{"bike_id":"859e49a6-fc42-445b-b1db-54603ecb439d","system_id":"levelo_inurba_marseille","lat":43.303209,"lon":5.369008,"is_reserved":false,"is_disabled":false,"rental_uris":{"android":"levelo://app?vid=859e49a6-fc42-445b-b1db-54603ecb439d","ios":"levelo://app?vid=859e49a6-fc42-445b-b1db-54603ecb439d"},"vehicle_type_id":"4","last_reported":1766823291,"current_range_meters":8800,"station_id":"ce4bgqh2rcd13ifvqc5g","pricing_plan_id":"cebpf4jnsgd1na2vs0mg"},{"bike_id":"30b4de5e-52da-4654-9315-d4149e8dde1e","system_id":"levelo_inurba_marseille","lat":43.262102,"lon":5.379204,"is_reserved":false,"is_disabled":false,"rental_uris":{"android":"levelo://app?vid=30b4de5e-52da-4654-9315-d4149e8dde1e","ios":"levelo://app?vid=30b4de5e-52da-4654-9315-d4149e8dde1e"},"vehicle_type_id":"4","last_reported":1766823291,"current_range_meters":8800,"station_id":"ce4bhjp2rcd13ifvqg90","pricing_plan_id":"cebpf4jnsgd1na2vs0mg"},{"bike_id":"7a2e82d1-62e9-410b-9f10-b8048f7037fe","system_id":"levelo_inurba_marseille","lat":43.26579,"lon":5.39022,"is_reserved":false,"is_disabled":false,"rental_uris":{"android":"levelo://app?vid=7a2e82d1-62e9-410b-9f10-b8048f7037fe","ios":"levelo://app?vid=7a2e82d1-62e9-410b-9f10-b8048f7037fe"},"vehicle_type_id":"4","last_reported":1766823291,"current_range_meters":8800,"station_id":"ce4bhe12rcd13ifvqf30","pricing_plan_id":"cebpf4jnsgd1na2vs0mg"},{"bike_id":"6af309a2-8f26-4463-a2f8-b68c7d811285","system_id":"levelo_inurba_marseille","lat":43.30852,"lon":5.37477,"is_reserved":false,"is_disabled":false,"rental_uris":{"android":"levelo://app?vid=6af309a2-8f26-4463-a2f8-b68c7d811285","ios":"levelo://app?vid=6af309a2-8f26-4463-a2f8-b68c7d811285"},"vehicle_type_id":"4","last_reported":1766823291,"current_range_meters":8800,"station_id":"","pricing_plan_id":"cebpf4jnsgd1na2vs0mg"},{"bike_id":"6b8f4994-ae68-40d7-a4c4-d1db7eda086e","system_id":"levelo_inurba_marseille","lat":43.25859,"lon":5.39902,"is_reserved":false,"is_disabled":false,"rental_uris":{"android":"levelo://app?vid=6b8f4994-ae68-40d7-a4c4-d1db7eda086e","ios":"levelo://app?vid=6b8f4994-ae68-40d7-a4c4-d1db7eda086e"},"vehicle_type_id":"4","last_reported":1766823291,"current_range_meters":8800,"station_id":"ce4bhl92rcd13ifvqghg","pricing_plan_id":"cebpf4jnsgd1na2vs0mg"},{"bike_id":"aa317b8e-4331-438b-aaf7-bd098bbc12e7","system_id":"levelo_inurba_marseille","lat":43.301309,"lon":5.37427,"is_reserved":false,"is_disabled":false,"rental_uris":{"android":"levelo://app?vid=aa317b8e-4331-438b-aaf7-bd098bbc12e7","ios":"levelo://app?vid=aa317b8e-4331-438b-aaf7-bd098bbc12e7"},"vehicle_type_id":"4","last_reported":1766823291,"current_range_meters":8800,"station_id":"ce4bgs92rcd13ifvqcc0","pricing_plan_id":"cebpf4jnsgd1na2vs0mg"},{"bike_id":"178fcda9-a2da-4c8b-a3bd-0cb77c427b5a","system_id":"levelo_inurba_marseille","lat":43.29919,"lon":5.374769,"is_reserved":false,"is_disabled":false,"rental_uris":{"android":"levelo://app?vid=178fcda9-a2da-4c8b-a3bd-0cb77c427b5a","ios":"levelo://app?vid=178fcda9-a2da-4c8b-a3bd-0cb77c427b5a"},"vehicle_type_id":"4","last_reported":1766823291,"current_range_meters":8800,"station_id":"ce4bgjh2rcd13ifvqbg0","pricing_plan_id":"cebpf4jnsgd1na2vs0mg"},{"bike_id":"2effcc26-a8b3-4343-adf4-25189e0339d9","system_id":"levelo_inurba_marseille","lat":43.2605,"lon":5.39392,"is_reserved":false,"is_disabled":false,"rental_uris":{"android":"levelo://app?vid=2effcc26-a8b3-4343-adf4-25189e0339d9","ios":"levelo://app?vid=2effcc26-a8b3-4343-adf4-25189e0339d9"},"vehicle_type_id":"4","last_reported":1766823291,"current_range_meters":8800,"station_id":"ce4bhh92rcd13ifvqfj0","pricing_plan_id":"cebpf4jnsgd1na2vs0mg"},{"bike_id":"bdf61926-de40-4a9b-b98a-a989792c537a","system_id":"levelo_inurba_marseille","lat":43.28477,"lon":5.48396,"is_reserved":false,"is_disabled":false,"rental_uris":{"android":"levelo://app?vid=bdf61926-de40-4a9b-b98a-a989792c537a","ios":"levelo://app?vid=bdf61926-de40-4a9b-b98a-a989792c537a"},"vehicle_type_id":"4","last_reported":1766823291,"current_range_meters":8800,"station_id":"","pricing_plan_id":"cebpf4jnsgd1na2vs0mg"},{"bike_id":"e822138c-76de-4ef3-8652-739a687c2d43","system_id":"levelo_inurba_marseille","lat":43.25901,"lon":5.40912,"is_reserved":false,"is_disabled":false,"rental_uris":{"android":"levelo://app?vid=e822138c-76de-4ef3-8652-739a687c2d43","ios":"levelo://app?vid=e822138c-76de-4ef3-8652-739a687c2d43"},"vehicle_type_id":"4","last_reported":1766823291,"current_range_meters":8800,"station_id":"ce4bhm92rcd13ifvqglg","pricing_plan_id":"cebpf4jnsgd1na2vs0mg"},{"bike_id":"d031320b-e967-449d-99d4-420c8de16ac8","system_id":"levelo_inurba_marseille","lat":43.289476,"lon":5.39632,"is_reserved":false,"is_disabled":false,"rental_uris":{"android":"levelo://app?vid=d031320b-e967-449d-99d4-420c8de16ac8","ios":"levelo://app?vid=d031320b-e967-449d-99d4-420c8de16ac8"},"vehicle_type_id":"4","last_reported":1766823291,"current_range_meters":9200,"station_id":"ce4bh3h2rcd13ifvqdn0","pricing_plan_id":"cebpf4jnsgd1na2vs0mg"},{"bike_id":"ff911a00-b185-400e-9549-1db99f4b282d","system_id":"levelo_inurba_marseille","lat":43.30535,"lon":5.38414,"is_reserved":false,"is_disabled":false,"rental_uris":{"android":"levelo://app?vid=ff911a00-b185-400e-9549-1db99f4b282d","ios":"levelo://app?vid=ff911a00-b185-400e-9549-1db99f4b282d"},"vehicle_type_id":"4","last_reported":1766823291,"current_range_meters":9200,"station_id":"ce4bgg92rcd13ifvqb30","pricing_plan_id":"cebpf4jnsgd1na2vs0mg"},{"bike_id":"645729d9-d8d0-4c53-ab8e-ac1cf2890b1b","system_id":"levelo_inurba_marseille","lat":43.26192,"lon":5.37467,"is_reserved":false,"is_disabled":false,"rental_uris":{"android":"levelo://app?vid=645729d9-d8d0-4c53-ab8e-ac1cf2890b1b","ios":"levelo://app?vid=645729d9-d8d0-4c53-ab8e-ac1cf2890b1b"},"vehicle_type_id":"4","last_reported":1766823291,"current_range_meters":9200,"station_id":"ce4bhgp2rcd13ifvqfc0","pricing_plan_id":"cebpf4jnsgd1na2vs0mg"},{"bike_id":"7be06acd-d801-44f2-97c6-27213eca298f","system_id":"levelo_inurba_marseille","lat":43.262166,"lon":5.374415,"is_reserved":false,"is_disabled":false,"rental_uris":{"android":"levelo://app?vid=7be06acd-d801-44f2-97c6-27213eca298f","ios":"levelo://app?vid=7be06acd-d801-44f2-97c6-27213eca298f"},"vehicle_type_id":"4","last_reported":1766823291,"current_range_meters":9200,"station_id":"ce4bhgp2rcd13ifvqfc0","pricing_plan_id":"cebpf4jnsgd1na2vs0mg"},{"bike_id":"c86d1eb5-ae71-46a4-86f5-933ea875f540","system_id":"levelo_inurba_marseille","lat":43.31047,"lon":5.3717,"is_reserved":false,"is_disabled":false,"rental_uris":{"android":"levelo://app?vid=c86d1eb5-ae71-46a4-86f5-933ea875f540","ios":"levelo://app?vid=c86d1eb5-ae71-46a4-86f5-933ea875f540"},"vehicle_type_id":"4","last_reported":1766823291,"current_range_meters":9200,"station_id":"st_d4kl2rp97mjs73e7tdfg","pricing_plan_id":"cebpf4jnsgd1na2vs0mg"},{"bike_id":"b98c4bb3-e84f-4703-8006-455cb12ed450","system_id":"levelo_inurba_marseille","lat":43.28826,"lon":5.42632,"is_reserved":false,"is_disabled":false,"rental_uris":{"android":"levelo://app?vid=b98c4bb3-e84f-4703-8006-455cb12ed450","ios":"levelo://app?vid=b98c4bb3-e84f-4703-8006-455cb12ed450"},"vehicle_type_id":"4","last_reported":1766823291,"current_range_meters":9200,"station_id":"","pricing_plan_id":"cebpf4jnsgd1na2vs0mg"},{"bike_id":"a7b0ffca-bd19-4593-b42d-f026e5905164","system_id":"levelo_inurba_marseille","lat":43.2929,"lon":5.36946,"is_reserved":false,"is_disabled":false,"rental_uris":{"android":"levelo://app?vid=a7b0ffca-bd19-4593-b42d-f026e5905164","ios":"levelo://app?vid=a7b0ffca-bd19-4593-b42d-f026e5905164"},"vehicle_type_id":"4","last_reported":1766823291,"current_range_meters":9200,"station_id":"","pricing_plan_id":"cebpf4jnsgd1na2vs0mg"},{"bike_id":"0fe94f2e-6793-4ba7-9730-f660628c3fd8","system_id":"levelo_inurba_marseille","lat":43.301244,"lon":5.431173,"is_reserved":false,"is_disabled":false,"rental_uris":{"android":"levelo://app?vid=0fe94f2e-6793-4ba7-9730-f660628c3fd8","ios":"levelo://app?vid=0fe94f2e-6793-4ba7-9730-f660628c3fd8"},"vehicle_type_id":"4","last_reported":1766823291,"current_range_meters":9200,"station_id":"st_d3js3co5814s73ftftug","pricing_plan_id":"cebpf4jnsgd1na2vs0mg"},{"bike_id":"c6c751ca-f0d9-4d7d-924c-b26f574b394e","system_id":"levelo_inurba_marseille","lat":43.26753,"lon":5.38462,"is_reserved":false,"is_disabled":false,"rental_uris":{"android":"levelo://app?vid=c6c751ca-f0d9-4d7d-924c-b26f574b394e","ios":"levelo://app?vid=c6c751ca-f0d9-4d7d-924c-b26f574b394e"},"vehicle_type_id":"4","last_reported":1766823291,"current_range_meters":9200,"station_id":"","pricing_plan_id":"cebpf4jnsgd1na2vs0mg"},{"bike_id":"c20e3468-7ee0-441d-a8fd-cedaa65a5b80","system_id":"levelo_inurba_marseille","lat":43.282771,"lon":5.350603,"is_reserved":false,"is_disabled":false,"rental_uris":{"android":"levelo://app?vid=c20e3468-7ee0-441d-a8fd-cedaa65a5b80","ios":"levelo://app?vid=c20e3468-7ee0-441d-a8fd-cedaa65a5b80"},"vehicle_type_id":"4","last_reported":1766823291,"current_range_meters":9600,"station_id":"ce4bhbp2rcd13ifvqerg","pricing_plan_id":"cebpf4jnsgd1na2vs0mg"},{"bike_id":"9a28fd2f-33dc-47c9-84f8-2e8b1adbfeca","system_id":"levelo_inurba_marseille","lat":43.2976,"lon":5.42785,"is_reserved":false,"is_disabled":true,"rental_uris":{"android":"levelo://app?vid=9a28fd2f-33dc-47c9-84f8-2e8b1adbfeca","ios":"levelo://app?vid=9a28fd2f-33dc-47c9-84f8-2e8b1adbfeca"},"vehicle_type_id":"4","last_reported":1766823291,"current_range_meters":9600,"station_id":"st_d3md5207bmas73dh9klg","pricing_plan_id":"cebpf4jnsgd1na2vs0mg"},{"bike_id":"4a3b040e-572a-4826-9dff-a05874a41068","system_id":"levelo_inurba_marseille","lat":43.283452,"lon":5.381093,"is_reserved":false,"is_disabled":false,"rental_uris":{"android":"levelo://app?vid=4a3b040e-572a-4826-9dff-a05874a41068","ios":"levelo://app?vid=4a3b040e-572a-4826-9dff-a05874a41068"},"vehicle_type_id":"4","last_reported":1766823291,"current_range_meters":9600,"station_id":"ce4bh412rcd13ifvqdr0","pricing_plan_id":"cebpf4jnsgd1na2vs0mg"},{"bike_id":"9c14413a-d916-44a7-aed4-847b6c349f2c","system_id":"levelo_inurba_marseille","lat":43.2397,"lon":5.36637,"is_reserved":false,"is_disabled":false,"rental_uris":{"android":"levelo://app?vid=9c14413a-d916-44a7-aed4-847b6c349f2c","ios":"levelo://app?vid=9c14413a-d916-44a7-aed4-847b6c349f2c"},"vehicle_type_id":"4","last_reported":1766823291,"current_range_meters":9600,"station_id":"ce4bhi12rcd13ifvqfp0","pricing_plan_id":"cebpf4jnsgd1na2vs0mg"},{"bike_id":"66de7b9e-1a4f-4d86-98ae-eb4a418a2023","system_id":"levelo_inurba_marseille","lat":43.29924,"lon":5.37467,"is_reserved":false,"is_disabled":false,"rental_uris":{"android":"levelo://app?vid=66de7b9e-1a4f-4d86-98ae-eb4a418a2023","ios":"levelo://app?vid=66de7b9e-1a4f-4d86-98ae-eb4a418a2023"},"vehicle_type_id":"4","last_reported":1766823291,"current_range_meters":9600,"station_id":"ce4bgjh2rcd13ifvqbg0","pricing_plan_id":"cebpf4jnsgd1na2vs0mg"},{"bike_id":"5f28fd39-60b7-400e-8355-9be34e6c13d0","system_id":"levelo_inurba_marseille","lat":43.30552,"lon":5.36551,"is_reserved":false,"is_disabled":false,"rental_uris":{"android":"levelo://app?vid=5f28fd39-60b7-400e-8355-9be34e6c13d0","ios":"levelo://app?vid=5f28fd39-60b7-400e-8355-9be34e6c13d0"},"vehicle_type_id":"4","last_reported":1766823291,"current_range_meters":9600,"station_id":"ce4bgs12rcd13ifvqcag","pricing_plan_id":"cebpf4jnsgd1na2vs0mg"},{"bike_id":"0125cf6e-1378-412b-a7dd-03753ddd54e6","system_id":"levelo_inurba_marseille","lat":43.29937,"lon":5.36543,"is_reserved":false,"is_disabled":false,"rental_uris":{"android":"levelo://app?vid=0125cf6e-1378-412b-a7dd-03753ddd54e6","ios":"levelo://app?vid=0125cf6e-1378-412b-a7dd-03753ddd54e6"},"vehicle_type_id":"4","last_reported":1766823291,"current_range_meters":9600,"station_id":"ce4bgm92rcd13ifvqbr0","pricing_plan_id":"cebpf4jnsgd1na2vs0mg"},{"bike_id":"03645bc7-649d-430a-92cc-0088094ba1a7","system_id":"levelo_inurba_marseille","lat":43.254879,"lon":5.376473,"is_reserved":false,"is_disabled":false,"rental_uris":{"android":"levelo://app?vid=03645bc7-649d-430a-92cc-0088094ba1a7","ios":"levelo://app?vid=03645bc7-649d-430a-92cc-0088094ba1a7"},"vehicle_type_id":"4","last_reported":1766823291,"current_range_meters":9600,"station_id":"ce4bhh12rcd13ifvqff0","pricing_plan_id":"cebpf4jnsgd1na2vs0mg"},{"bike_id":"1c86e37a-8481-4da4-bf05-647d86eb8b04","system_id":"levelo_inurba_marseille","lat":43.309103,"lon":5.416336,"is_reserved":false,"is_disabled":false,"rental_uris":{"android":"levelo://app?vid=1c86e37a-8481-4da4-bf05-647d86eb8b04","ios":"levelo://app?vid=1c86e37a-8481-4da4-bf05-647d86eb8b04"},"vehicle_type_id":"4","last_reported":1766823291,"current_range_meters":9600,"station_id":"","pricing_plan_id":"cebpf4jnsgd1na2vs0mg"},{"bike_id":"bc568f99-2d83-4e5a-8b80-4c8ab7d8ad1f","system_id":"levelo_inurba_marseille","lat":43.24169,"lon":5.37656,"is_reserved":false,"is_disabled":false,"rental_uris":{"android":"levelo://app?vid=bc568f99-2d83-4e5a-8b80-4c8ab7d8ad1f","ios":"levelo://app?vid=bc568f99-2d83-4e5a-8b80-4c8ab7d8ad1f"},"vehicle_type_id":"4","last_reported":1766823291,"current_range_meters":9600,"station_id":"","pricing_plan_id":"cebpf4jnsgd1na2vs0mg"},{"bike_id":"a60aab28-e45f-4ade-bf06-05ea36f216c0","system_id":"levelo_inurba_marseille","lat":43.303149,"lon":5.369086,"is_reserved":false,"is_disabled":false,"rental_uris":{"android":"levelo://app?vid=a60aab28-e45f-4ade-bf06-05ea36f216c0","ios":"levelo://app?vid=a60aab28-e45f-4ade-bf06-05ea36f216c0"},"vehicle_type_id":"4","last_reported":1766823291,"current_range_meters":10000,"station_id":"ce4bgqh2rcd13ifvqc5g","pricing_plan_id":"cebpf4jnsgd1na2vs0mg"},{"bike_id":"c9346feb-2020-4380-a5a9-7be746a8f756","system_id":"levelo_inurba_marseille","lat":43.29679,"lon":5.37307,"is_reserved":false,"is_disabled":false,"rental_uris":{"android":"levelo://app?vid=c9346feb-2020-4380-a5a9-7be746a8f756","ios":"levelo://app?vid=c9346feb-2020-4380-a5a9-7be746a8f756"},"vehicle_type_id":"4","last_reported":1766823291,"current_range_meters":10000,"station_id":"ce4bgk12rcd13ifvqbj0","pricing_plan_id":"cebpf4jnsgd1na2vs0mg"},{"bike_id":"c7375325-0a1d-4a15-9a09-b19b99adc188","system_id":"levelo_inurba_marseille","lat":43.294877,"lon":5.433173,"is_reserved":false,"is_disabled":true,"rental_uris":{"android":"levelo://app?vid=c7375325-0a1d-4a15-9a09-b19b99adc188","ios":"levelo://app?vid=c7375325-0a1d-4a15-9a09-b19b99adc188"},"vehicle_type_id":"4","last_reported":1766823291,"current_range_meters":10000,"station_id":"st_d3j5ugp08ojc73fj9d10","pricing_plan_id":"cebpf4jnsgd1na2vs0mg"},{"bike_id":"feacf3f4-70c5-4ed2-815c-880ed439d963","system_id":"levelo_inurba_marseille","lat":43.29852,"lon":5.36293,"is_reserved":false,"is_disabled":false,"rental_uris":{"android":"levelo://app?vid=feacf3f4-70c5-4ed2-815c-880ed439d963","ios":"levelo://app?vid=feacf3f4-70c5-4ed2-815c-880ed439d963"},"vehicle_type_id":"4","last_reported":1766823291,"current_range_meters":10000,"station_id":"ce4bgpp2rcd13ifvqc3g","pricing_plan_id":"cebpf4jnsgd1na2vs0mg"},{"bike_id":"53b0c323-1f2c-4890-898b-18ae97706c5b","system_id":"levelo_inurba_marseille","lat":43.29552,"lon":5.37492,"is_reserved":false,"is_disabled":true,"rental_uris":{"android":"levelo://app?vid=53b0c323-1f2c-4890-898b-18ae97706c5b","ios":"levelo://app?vid=53b0c323-1f2c-4890-898b-18ae97706c5b"},"vehicle_type_id":"4","last_reported":1766823291,"current_range_meters":10000,"station_id":"ce4bgkp2rcd13ifvqbmg","pricing_plan_id":"cebpf4jnsgd1na2vs0mg"},{"bike_id":"92d80675-044b-48fa-9aa3-77b4da84f73c","system_id":"levelo_inurba_marseille","lat":43.29208,"lon":5.40406,"is_reserved":false,"is_disabled":false,"rental_uris":{"android":"levelo://app?vid=92d80675-044b-48fa-9aa3-77b4da84f73c","ios":"levelo://app?vid=92d80675-044b-48fa-9aa3-77b4da84f73c"},"vehicle_type_id":"4","last_reported":1766823291,"current_range_meters":10000,"station_id":"","pricing_plan_id":"cebpf4jnsgd1na2vs0mg"},{"bike_id":"52cafd97-382c-4286-9604-d4c6a4591db2","system_id":"levelo_inurba_marseille","lat":43.30303,"lon":5.39196,"is_reserved":false,"is_disabled":false,"rental_uris":{"android":"levelo://app?vid=52cafd97-382c-4286-9604-d4c6a4591db2","ios":"levelo://app?vid=52cafd97-382c-4286-9604-d4c6a4591db2"},"vehicle_type_id":"4","last_reported":1766823291,"current_range_meters":10000,"station_id":"ce4bgkh2rcd13ifvqbk0","pricing_plan_id":"cebpf4jnsgd1na2vs0mg"},{"bike_id":"29da013e-f676-4033-a45f-8d005e13e759","system_id":"levelo_inurba_marseille","lat":43.211904,"lon":5.35074,"is_reserved":false,"is_disabled":false,"rental_uris":{"android":"levelo://app?vid=29da013e-f676-4033-a45f-8d005e13e759","ios":"levelo://app?vid=29da013e-f676-4033-a45f-8d005e13e759"},"vehicle_type_id":"4","last_reported":1766823291,"current_range_meters":10000,"station_id":"st_cvj6sg6p6f1abm77japg","pricing_plan_id":"cebpf4jnsgd1na2vs0mg"},{"bike_id":"9c1ff02c-df35-4545-98b6-54b455499ca0","system_id":"levelo_inurba_marseille","lat":43.27184,"lon":5.40998,"is_reserved":false,"is_disabled":true,"rental_uris":{"android":"levelo://app?vid=9c1ff02c-df35-4545-98b6-54b455499ca0","ios":"levelo://app?vid=9c1ff02c-df35-4545-98b6-54b455499ca0"},"vehicle_type_id":"4","last_reported":1766823291,"current_range_meters":10000,"station_id":"ce4bhl12rcd13ifvqgf0","pricing_plan_id":"cebpf4jnsgd1na2vs0mg"},{"bike_id":"0dea2e8a-6059-4d97-ad92-35ab7ce0b843","system_id":"levelo_inurba_marseille","lat":43.296072,"lon":5.377178,"is_reserved":false,"is_disabled":false,"rental_uris":{"android":"levelo://app?vid=0dea2e8a-6059-4d97-ad92-35ab7ce0b843","ios":"levelo://app?vid=0dea2e8a-6059-4d97-ad92-35ab7ce0b843"},"vehicle_type_id":"4","last_reported":1766823291,"current_range_meters":10000,"station_id":"ce4bgi92rcd13ifvqb90","pricing_plan_id":"cebpf4jnsgd1na2vs0mg"},{"bike_id":"fd8bb2c2-2f23-4c58-93f0-a91126ea1bc2","system_id":"levelo_inurba_marseille","lat":43.29678,"lon":5.37789,"is_reserved":false,"is_disabled":false,"rental_uris":{"android":"levelo://app?vid=fd8bb2c2-2f23-4c58-93f0-a91126ea1bc2","ios":"levelo://app?vid=fd8bb2c2-2f23-4c58-93f0-a91126ea1bc2"},"vehicle_type_id":"4","last_reported":1766823291,"current_range_meters":10000,"station_id":"","pricing_plan_id":"cebpf4jnsgd1na2vs0mg"},{"bike_id":"d0fd51c5-0139-4a31-b911-aa96edb4687f","system_id":"levelo_inurba_marseille","lat":43.30592,"lon":5.39372,"is_reserved":false,"is_disabled":false,"rental_uris":{"android":"levelo://app?vid=d0fd51c5-0139-4a31-b911-aa96edb4687f","ios":"levelo://app?vid=d0fd51c5-0139-4a31-b911-aa96edb4687f"},"vehicle_type_id":"4","last_reported":1766823291,"current_range_meters":10000,"station_id":"","pricing_plan_id":"cebpf4jnsgd1na2vs0mg"},{"bike_id":"ce2e0510-be2b-4245-ae8c-68756ac0c30e","system_id":"levelo_inurba_marseille","lat":43.26545,"lon":5.38997,"is_reserved":false,"is_disabled":false,"rental_uris":{"android":"levelo://app?vid=ce2e0510-be2b-4245-ae8c-68756ac0c30e","ios":"levelo://app?vid=ce2e0510-be2b-4245-ae8c-68756ac0c30e"},"vehicle_type_id":"4","last_reported":1766823291,"current_range_meters":10000,"station_id":"ce4bhe12rcd13ifvqf30","pricing_plan_id":"cebpf4jnsgd1na2vs0mg"},{"bike_id":"339a0c71-2a9a-4cfb-a54e-2a5557b4296a","system_id":"levelo_inurba_marseille","lat":43.2417,"lon":5.36395,"is_reserved":false,"is_disabled":false,"rental_uris":{"android":"levelo://app?vid=339a0c71-2a9a-4cfb-a54e-2a5557b4296a","ios":"levelo://app?vid=339a0c71-2a9a-4cfb-a54e-2a5557b4296a"},"vehicle_type_id":"4","last_reported":1766823291,"current_range_meters":10000,"station_id":"cpo36qri1sfpv3e86is0","pricing_plan_id":"cebpf4jnsgd1na2vs0mg"},{"bike_id":"b5cb44c0-a4f9-4099-9f81-31cbf8741596","system_id":"levelo_inurba_marseille","lat":43.29522,"lon":5.38277,"is_reserved":false,"is_disabled":false,"rental_uris":{"android":"levelo://app?vid=b5cb44c0-a4f9-4099-9f81-31cbf8741596","ios":"levelo://app?vid=b5cb44c0-a4f9-4099-9f81-31cbf8741596"},"vehicle_type_id":"4","last_reported":1766823291,"current_range_meters":10000,"station_id":"","pricing_plan_id":"cebpf4jnsgd1na2vs0mg"},{"bike_id":"5b0e730c-da97-4939-8816-81125587fcb1","system_id":"levelo_inurba_marseille","lat":43.23202,"lon":5.35556,"is_reserved":false,"is_disabled":false,"rental_uris":{"android":"levelo://app?vid=5b0e730c-da97-4939-8816-81125587fcb1","ios":"levelo://app?vid=5b0e730c-da97-4939-8816-81125587fcb1"},"vehicle_type_id":"4","last_reported":1766823291,"current_range_meters":10000,"station_id":"ce4bhu92rcd13ifvqi70","pricing_plan_id":"cebpf4jnsgd1na2vs0mg"},{"bike_id":"c2e71bbe-8e23-4836-a7cf-ee178e55a815","system_id":"levelo_inurba_marseille","lat":43.26577,"lon":5.39071,"is_reserved":false,"is_disabled":false,"rental_uris":{"android":"levelo://app?vid=c2e71bbe-8e23-4836-a7cf-ee178e55a815","ios":"levelo://app?vid=c2e71bbe-8e23-4836-a7cf-ee178e55a815"},"vehicle_type_id":"4","last_reported":1766823291,"current_range_meters":10000,"station_id":"ce4bhe12rcd13ifvqf30","pricing_plan_id":"cebpf4jnsgd1na2vs0mg"},{"bike_id":"ffd01dbf-4e75-4a7f-a0ee-4191a3cc86de","system_id":"levelo_inurba_marseille","lat":43.292104,"lon":5.369058,"is_reserved":false,"is_disabled":false,"rental_uris":{"android":"levelo://app?vid=ffd01dbf-4e75-4a7f-a0ee-4191a3cc86de","ios":"levelo://app?vid=ffd01dbf-4e75-4a7f-a0ee-4191a3cc86de"},"vehicle_type_id":"4","last_reported":1766823291,"current_range_meters":10000,"station_id":"","pricing_plan_id":"cebpf4jnsgd1na2vs0mg"},{"bike_id":"f556403d-4b5f-4e1b-98bd-5f8a3846c56a","system_id":"levelo_inurba_marseille","lat":43.27632,"lon":5.36086,"is_reserved":false,"is_disabled":false,"rental_uris":{"android":"levelo://app?vid=f556403d-4b5f-4e1b-98bd-5f8a3846c56a","ios":"levelo://app?vid=f556403d-4b5f-4e1b-98bd-5f8a3846c56a"},"vehicle_type_id":"4","last_reported":1766823291,"current_range_meters":10000,"station_id":"ce4bgj92rcd13ifvqbe0","pricing_plan_id":"cebpf4jnsgd1na2vs0mg"},{"bike_id":"86c35558-f87a-4831-bde5-b60e4642d971","system_id":"levelo_inurba_marseille","lat":43.231453,"lon":5.437137,"is_reserved":false,"is_disabled":false,"rental_uris":{"android":"levelo://app?vid=86c35558-f87a-4831-bde5-b60e4642d971","ios":"levelo://app?vid=86c35558-f87a-4831-bde5-b60e4642d971"},"vehicle_type_id":"4","last_reported":1766823291,"current_range_meters":10800,"station_id":"ce4bhmp2rcd13ifvqgog","pricing_plan_id":"cebpf4jnsgd1na2vs0mg"},{"bike_id":"8526cb13-c70f-4134-9aed-80c4c9d31e4e","system_id":"levelo_inurba_marseille","lat":43.2792,"lon":5.39206,"is_reserved":false,"is_disabled":false,"rental_uris":{"android":"levelo://app?vid=8526cb13-c70f-4134-9aed-80c4c9d31e4e","ios":"levelo://app?vid=8526cb13-c70f-4134-9aed-80c4c9d31e4e"},"vehicle_type_id":"4","last_reported":1766823291,"current_range_meters":10800,"station_id":"","pricing_plan_id":"cebpf4jnsgd1na2vs0mg"},{"bike_id":"663e255d-5f5e-4d65-a6b3-3ad9f08a8e90","system_id":"levelo_inurba_marseille","lat":43.2848,"lon":5.384172,"is_reserved":false,"is_disabled":false,"rental_uris":{"android":"levelo://app?vid=663e255d-5f5e-4d65-a6b3-3ad9f08a8e90","ios":"levelo://app?vid=663e255d-5f5e-4d65-a6b3-3ad9f08a8e90"},"vehicle_type_id":"4","last_reported":1766823291,"current_range_meters":10800,"station_id":"ce4bh512rcd13ifvqe3g","pricing_plan_id":"cebpf4jnsgd1na2vs0mg"},{"bike_id":"680ad38f-c421-4a2b-a393-fe86f3b99028","system_id":"levelo_inurba_marseille","lat":43.24386,"lon":5.3706,"is_reserved":false,"is_disabled":false,"rental_uris":{"android":"levelo://app?vid=680ad38f-c421-4a2b-a393-fe86f3b99028","ios":"levelo://app?vid=680ad38f-c421-4a2b-a393-fe86f3b99028"},"vehicle_type_id":"4","last_reported":1766823291,"current_range_meters":10800,"station_id":"ce4bhhh2rcd13ifvqfk0","pricing_plan_id":"cebpf4jnsgd1na2vs0mg"},{"bike_id":"60a2dc58-693e-42dd-a72f-b3478fe2ee29","system_id":"levelo_inurba_marseille","lat":43.22921,"lon":5.35382,"is_reserved":false,"is_disabled":false,"rental_uris":{"android":"levelo://app?vid=60a2dc58-693e-42dd-a72f-b3478fe2ee29","ios":"levelo://app?vid=60a2dc58-693e-42dd-a72f-b3478fe2ee29"},"vehicle_type_id":"4","last_reported":1766823291,"current_range_meters":10800,"station_id":"cpo3532slgdg3j2ikp40","pricing_plan_id":"cebpf4jnsgd1na2vs0mg"},{"bike_id":"4fdb64f2-0b05-4843-9442-2d32caf6a11f","system_id":"levelo_inurba_marseille","lat":43.24538,"lon":5.39522,"is_reserved":false,"is_disabled":false,"rental_uris":{"android":"levelo://app?vid=4fdb64f2-0b05-4843-9442-2d32caf6a11f","ios":"levelo://app?vid=4fdb64f2-0b05-4843-9442-2d32caf6a11f"},"vehicle_type_id":"4","last_reported":1766823291,"current_range_meters":10800,"station_id":"ce4bhlp2rcd13ifvqgjg","pricing_plan_id":"cebpf4jnsgd1na2vs0mg"},{"bike_id":"a1b6046e-42e4-4882-b024-f3da11adfa95","system_id":"levelo_inurba_marseille","lat":43.254869,"lon":5.37647,"is_reserved":false,"is_disabled":false,"rental_uris":{"android":"levelo://app?vid=a1b6046e-42e4-4882-b024-f3da11adfa95","ios":"levelo://app?vid=a1b6046e-42e4-4882-b024-f3da11adfa95"},"vehicle_type_id":"4","last_reported":1766823291,"current_range_meters":10800,"station_id":"","pricing_plan_id":"cebpf4jnsgd1na2vs0mg"},{"bike_id":"7926d54a-a130-4142-86f9-8f125a51ce7a","system_id":"levelo_inurba_marseille","lat":43.2621,"lon":5.37434,"is_reserved":false,"is_disabled":false,"rental_uris":{"android":"levelo://app?vid=7926d54a-a130-4142-86f9-8f125a51ce7a","ios":"levelo://app?vid=7926d54a-a130-4142-86f9-8f125a51ce7a"},"vehicle_type_id":"4","last_reported":1766823291,"current_range_meters":10800,"station_id":"ce4bhgp2rcd13ifvqfc0","pricing_plan_id":"cebpf4jnsgd1na2vs0mg"},{"bike_id":"cd784df2-c561-43c4-b73f-765565e83f74","system_id":"levelo_inurba_marseille","lat":43.254898,"lon":5.376458,"is_reserved":false,"is_disabled":false,"rental_uris":{"android":"levelo://app?vid=cd784df2-c561-43c4-b73f-765565e83f74","ios":"levelo://app?vid=cd784df2-c561-43c4-b73f-765565e83f74"},"vehicle_type_id":"4","last_reported":1766823291,"current_range_meters":10800,"station_id":"ce4bhh12rcd13ifvqff0","pricing_plan_id":"cebpf4jnsgd1na2vs0mg"},{"bike_id":"de86687a-8317-4441-99ad-5dc7452d11f1","system_id":"levelo_inurba_marseille","lat":43.29713,"lon":5.36481,"is_reserved":false,"is_disabled":false,"rental_uris":{"android":"levelo://app?vid=de86687a-8317-4441-99ad-5dc7452d11f1","ios":"levelo://app?vid=de86687a-8317-4441-99ad-5dc7452d11f1"},"vehicle_type_id":"4","last_reported":1766823291,"current_range_meters":10800,"station_id":"","pricing_plan_id":"cebpf4jnsgd1na2vs0mg"},{"bike_id":"ced1419c-54e0-4684-8fb9-5b1030e80e20","system_id":"levelo_inurba_marseille","lat":43.28481,"lon":5.48385,"is_reserved":false,"is_disabled":false,"rental_uris":{"android":"levelo://app?vid=ced1419c-54e0-4684-8fb9-5b1030e80e20","ios":"levelo://app?vid=ced1419c-54e0-4684-8fb9-5b1030e80e20"},"vehicle_type_id":"4","last_reported":1766823291,"current_range_meters":10800,"station_id":"st_d3svhcjqgbts73a3dn0g","pricing_plan_id":"cebpf4jnsgd1na2vs0mg"},{"bike_id":"b8e901ee-4c84-47f0-be0f-c317004d0bfa","system_id":"levelo_inurba_marseille","lat":43.29653,"lon":5.37423,"is_reserved":false,"is_disabled":false,"rental_uris":{"android":"levelo://app?vid=b8e901ee-4c84-47f0-be0f-c317004d0bfa","ios":"levelo://app?vid=b8e901ee-4c84-47f0-be0f-c317004d0bfa"},"vehicle_type_id":"4","last_reported":1766823291,"current_range_meters":11200,"station_id":"","pricing_plan_id":"cebpf4jnsgd1na2vs0mg"},{"bike_id":"d82042c6-2b6a-49fb-9b35-25ce44be0d80","system_id":"levelo_inurba_marseille","lat":43.25097,"lon":5.40335,"is_reserved":false,"is_disabled":false,"rental_uris":{"android":"levelo://app?vid=d82042c6-2b6a-49fb-9b35-25ce44be0d80","ios":"levelo://app?vid=d82042c6-2b6a-49fb-9b35-25ce44be0d80"},"vehicle_type_id":"4","last_reported":1766823291,"current_range_meters":11200,"station_id":"ce4bhlh2rcd13ifvqgig","pricing_plan_id":"cebpf4jnsgd1na2vs0mg"},{"bike_id":"8f1fbae4-9ae2-42cf-94dd-daad6d586514","system_id":"levelo_inurba_marseille","lat":43.225643,"lon":5.416258,"is_reserved":false,"is_disabled":false,"rental_uris":{"android":"levelo://app?vid=8f1fbae4-9ae2-42cf-94dd-daad6d586514","ios":"levelo://app?vid=8f1fbae4-9ae2-42cf-94dd-daad6d586514"},"vehicle_type_id":"4","last_reported":1766823291,"current_range_meters":11200,"station_id":"st_d2o4gvlbi1j2169b742g","pricing_plan_id":"cebpf4jnsgd1na2vs0mg"},{"bike_id":"dac24c5c-9a42-4fdf-bf17-c0729a4a9a2a","system_id":"levelo_inurba_marseille","lat":43.32511,"lon":5.41219,"is_reserved":false,"is_disabled":false,"rental_uris":{"android":"levelo://app?vid=dac24c5c-9a42-4fdf-bf17-c0729a4a9a2a","ios":"levelo://app?vid=dac24c5c-9a42-4fdf-bf17-c0729a4a9a2a"},"vehicle_type_id":"4","last_reported":1766823291,"current_range_meters":11200,"station_id":"","pricing_plan_id":"cebpf4jnsgd1na2vs0mg"},{"bike_id":"2fb61bf5-8a3d-4506-b698-5006dd44c698","system_id":"levelo_inurba_marseille","lat":43.3168,"lon":5.40458,"is_reserved":false,"is_disabled":true,"rental_uris":{"android":"levelo://app?vid=2fb61bf5-8a3d-4506-b698-5006dd44c698","ios":"levelo://app?vid=2fb61bf5-8a3d-4506-b698-5006dd44c698"},"vehicle_type_id":"4","last_reported":1766823291,"current_range_meters":11200,"station_id":"ce4bh012rcd13ifvqd00","pricing_plan_id":"cebpf4jnsgd1na2vs0mg"},{"bike_id":"4bb5f6b4-9f89-412d-b467-d32169ae36d4","system_id":"levelo_inurba_marseille","lat":43.24168,"lon":5.36397,"is_reserved":false,"is_disabled":false,"rental_uris":{"android":"levelo://app?vid=4bb5f6b4-9f89-412d-b467-d32169ae36d4","ios":"levelo://app?vid=4bb5f6b4-9f89-412d-b467-d32169ae36d4"},"vehicle_type_id":"4","last_reported":1766823291,"current_range_meters":11200,"station_id":"cpo36qri1sfpv3e86is0","pricing_plan_id":"cebpf4jnsgd1na2vs0mg"},{"bike_id":"1a041a43-3a75-44da-ba2a-a446348b0e04","system_id":"levelo_inurba_marseille","lat":43.30313,"lon":5.36886,"is_reserved":false,"is_disabled":true,"rental_uris":{"android":"levelo://app?vid=1a041a43-3a75-44da-ba2a-a446348b0e04","ios":"levelo://app?vid=1a041a43-3a75-44da-ba2a-a446348b0e04"},"vehicle_type_id":"4","last_reported":1766823291,"current_range_meters":11200,"station_id":"ce4bgqh2rcd13ifvqc5g","pricing_plan_id":"cebpf4jnsgd1na2vs0mg"},{"bike_id":"f9e8d59c-cf5f-4182-8bed-78508331ca21","system_id":"levelo_inurba_marseille","lat":43.279962,"lon":5.41669,"is_reserved":false,"is_disabled":true,"rental_uris":{"android":"levelo://app?vid=f9e8d59c-cf5f-4182-8bed-78508331ca21","ios":"levelo://app?vid=f9e8d59c-cf5f-4182-8bed-78508331ca21"},"vehicle_type_id":"4","last_reported":1766823291,"current_range_meters":11200,"station_id":"ce4bho12rcd13ifvqh1g","pricing_plan_id":"cebpf4jnsgd1na2vs0mg"},{"bike_id":"b85fa905-0bc6-474d-bcdb-b11c2e45e674","system_id":"levelo_inurba_marseille","lat":43.30144,"lon":5.3743,"is_reserved":false,"is_disabled":false,"rental_uris":{"android":"levelo://app?vid=b85fa905-0bc6-474d-bcdb-b11c2e45e674","ios":"levelo://app?vid=b85fa905-0bc6-474d-bcdb-b11c2e45e674"},"vehicle_type_id":"4","last_reported":1766823291,"current_range_meters":11200,"station_id":"ce4bgs92rcd13ifvqcc0","pricing_plan_id":"cebpf4jnsgd1na2vs0mg"},{"bike_id":"86512598-83f0-4c4a-a58d-92aa9acac71e","system_id":"levelo_inurba_marseille","lat":43.27993,"lon":5.40015,"is_reserved":false,"is_disabled":false,"rental_uris":{"android":"levelo://app?vid=86512598-83f0-4c4a-a58d-92aa9acac71e","ios":"levelo://app?vid=86512598-83f0-4c4a-a58d-92aa9acac71e"},"vehicle_type_id":"4","last_reported":1766823291,"current_range_meters":11200,"station_id":"ce4bho92rcd13ifvqh4g","pricing_plan_id":"cebpf4jnsgd1na2vs0mg"},{"bike_id":"33c6abe7-96e4-430c-bb50-83824ef03caa","system_id":"levelo_inurba_marseille","lat":43.23188,"lon":5.39983,"is_reserved":false,"is_disabled":false,"rental_uris":{"android":"levelo://app?vid=33c6abe7-96e4-430c-bb50-83824ef03caa","ios":"levelo://app?vid=33c6abe7-96e4-430c-bb50-83824ef03caa"},"vehicle_type_id":"4","last_reported":1766823291,"current_range_meters":11200,"station_id":"ce4bhn12rcd13ifvqgqg","pricing_plan_id":"cebpf4jnsgd1na2vs0mg"},{"bike_id":"8919de20-b487-423c-81ed-f5cabe5bd1c0","system_id":"levelo_inurba_marseille","lat":43.24812,"lon":5.37459,"is_reserved":false,"is_disabled":false,"rental_uris":{"android":"levelo://app?vid=8919de20-b487-423c-81ed-f5cabe5bd1c0","ios":"levelo://app?vid=8919de20-b487-423c-81ed-f5cabe5bd1c0"},"vehicle_type_id":"4","last_reported":1766823291,"current_range_meters":11600,"station_id":"ce4bhgh2rcd13ifvqfb0","pricing_plan_id":"cebpf4jnsgd1na2vs0mg"},{"bike_id":"99b4eb98-b7eb-4379-a6b2-33d1211601ee","system_id":"levelo_inurba_marseille","lat":43.30054,"lon":5.38574,"is_reserved":false,"is_disabled":false,"rental_uris":{"android":"levelo://app?vid=99b4eb98-b7eb-4379-a6b2-33d1211601ee","ios":"levelo://app?vid=99b4eb98-b7eb-4379-a6b2-33d1211601ee"},"vehicle_type_id":"4","last_reported":1766823291,"current_range_meters":11600,"station_id":"","pricing_plan_id":"cebpf4jnsgd1na2vs0mg"},{"bike_id":"08368f9d-912f-4404-b6c0-c6267e11e352","system_id":"levelo_inurba_marseille","lat":43.26363,"lon":5.41085,"is_reserved":false,"is_disabled":false,"rental_uris":{"android":"levelo://app?vid=08368f9d-912f-4404-b6c0-c6267e11e352","ios":"levelo://app?vid=08368f9d-912f-4404-b6c0-c6267e11e352"},"vehicle_type_id":"4","last_reported":1766823291,"current_range_meters":11600,"station_id":"st_d4e5ca6na9uc73bfl5fg","pricing_plan_id":"cebpf4jnsgd1na2vs0mg"},{"bike_id":"5deda95f-0f94-4439-bf35-d380903be227","system_id":"levelo_inurba_marseille","lat":43.31686,"lon":5.40457,"is_reserved":false,"is_disabled":false,"rental_uris":{"android":"levelo://app?vid=5deda95f-0f94-4439-bf35-d380903be227","ios":"levelo://app?vid=5deda95f-0f94-4439-bf35-d380903be227"},"vehicle_type_id":"4","last_reported":1766823291,"current_range_meters":11600,"station_id":"ce4bh012rcd13ifvqd00","pricing_plan_id":"cebpf4jnsgd1na2vs0mg"},{"bike_id":"0f1fac99-4d4a-420d-8919-52cc78a0094b","system_id":"levelo_inurba_marseille","lat":43.28608,"lon":5.35107,"is_reserved":false,"is_disabled":false,"rental_uris":{"android":"levelo://app?vid=0f1fac99-4d4a-420d-8919-52cc78a0094b","ios":"levelo://app?vid=0f1fac99-4d4a-420d-8919-52cc78a0094b"},"vehicle_type_id":"4","last_reported":1766823291,"current_range_meters":11600,"station_id":"","pricing_plan_id":"cebpf4jnsgd1na2vs0mg"},{"bike_id":"56691a51-3f80-4391-9c85-001b7f8f94cd","system_id":"levelo_inurba_marseille","lat":43.29353,"lon":5.38995,"is_reserved":false,"is_disabled":false,"rental_uris":{"android":"levelo://app?vid=56691a51-3f80-4391-9c85-001b7f8f94cd","ios":"levelo://app?vid=56691a51-3f80-4391-9c85-001b7f8f94cd"},"vehicle_type_id":"4","last_reported":1766823291,"current_range_meters":11600,"station_id":"","pricing_plan_id":"cebpf4jnsgd1na2vs0mg"},{"bike_id":"413bfd79-2014-47f7-9869-cdc775bc7926","system_id":"levelo_inurba_marseille","lat":43.3316,"lon":5.37691,"is_reserved":false,"is_disabled":false,"rental_uris":{"android":"levelo://app?vid=413bfd79-2014-47f7-9869-cdc775bc7926","ios":"levelo://app?vid=413bfd79-2014-47f7-9869-cdc775bc7926"},"vehicle_type_id":"4","last_reported":1766823291,"current_range_meters":11600,"station_id":"st_d46cu089ee8s73dldbu0","pricing_plan_id":"cebpf4jnsgd1na2vs0mg"},{"bike_id":"25e0529c-8d33-4ce3-aea0-6671d631b978","system_id":"levelo_inurba_marseille","lat":43.296356,"lon":5.380135,"is_reserved":false,"is_disabled":false,"rental_uris":{"android":"levelo://app?vid=25e0529c-8d33-4ce3-aea0-6671d631b978","ios":"levelo://app?vid=25e0529c-8d33-4ce3-aea0-6671d631b978"},"vehicle_type_id":"4","last_reported":1766823291,"current_range_meters":11600,"station_id":"","pricing_plan_id":"cebpf4jnsgd1na2vs0mg"},{"bike_id":"02ac510f-6208-4366-8c37-9b55552b8835","system_id":"levelo_inurba_marseille","lat":43.279991,"lon":5.41658,"is_reserved":false,"is_disabled":false,"rental_uris":{"android":"levelo://app?vid=02ac510f-6208-4366-8c37-9b55552b8835","ios":"levelo://app?vid=02ac510f-6208-4366-8c37-9b55552b8835"},"vehicle_type_id":"4","last_reported":1766823291,"current_range_meters":11600,"station_id":"ce4bho12rcd13ifvqh1g","pricing_plan_id":"cebpf4jnsgd1na2vs0mg"},{"bike_id":"cf42684c-2f83-4795-ab87-4214da43d1fe","system_id":"levelo_inurba_marseille","lat":43.27326,"lon":5.39066,"is_reserved":false,"is_disabled":false,"rental_uris":{"android":"levelo://app?vid=cf42684c-2f83-4795-ab87-4214da43d1fe","ios":"levelo://app?vid=cf42684c-2f83-4795-ab87-4214da43d1fe"},"vehicle_type_id":"4","last_reported":1766823291,"current_range_meters":11600,"station_id":"ce4bhgp2rcd13ifvqfe0","pricing_plan_id":"cebpf4jnsgd1na2vs0mg"},{"bike_id":"e3781f90-0086-427c-a4b7-9b91a627b8bc","system_id":"levelo_inurba_marseille","lat":43.30145,"lon":5.38086,"is_reserved":false,"is_disabled":false,"rental_uris":{"android":"levelo://app?vid=e3781f90-0086-427c-a4b7-9b91a627b8bc","ios":"levelo://app?vid=e3781f90-0086-427c-a4b7-9b91a627b8bc"},"vehicle_type_id":"4","last_reported":1766823291,"current_range_meters":11600,"station_id":"ce4bgjp2rcd13ifvqbh0","pricing_plan_id":"cebpf4jnsgd1na2vs0mg"},{"bike_id":"c7586477-b188-4afb-9115-cd7a566c0858","system_id":"levelo_inurba_marseille","lat":43.269463,"lon":5.402441,"is_reserved":false,"is_disabled":false,"rental_uris":{"android":"levelo://app?vid=c7586477-b188-4afb-9115-cd7a566c0858","ios":"levelo://app?vid=c7586477-b188-4afb-9115-cd7a566c0858"},"vehicle_type_id":"4","last_reported":1766823291,"current_range_meters":12000,"station_id":"cjm6bp8fraef2m0cb0m0","pricing_plan_id":"cebpf4jnsgd1na2vs0mg"},{"bike_id":"a2d207d5-a981-40fc-8232-34f7720fdbd6","system_id":"levelo_inurba_marseille","lat":43.25109,"lon":5.403291,"is_reserved":false,"is_disabled":false,"rental_uris":{"android":"levelo://app?vid=a2d207d5-a981-40fc-8232-34f7720fdbd6","ios":"levelo://app?vid=a2d207d5-a981-40fc-8232-34f7720fdbd6"},"vehicle_type_id":"4","last_reported":1766823291,"current_range_meters":12000,"station_id":"ce4bhlh2rcd13ifvqgig","pricing_plan_id":"cebpf4jnsgd1na2vs0mg"},{"bike_id":"f7fce171-ca89-43a8-8262-6b164177b644","system_id":"levelo_inurba_marseille","lat":43.282667,"lon":5.35048,"is_reserved":false,"is_disabled":false,"rental_uris":{"android":"levelo://app?vid=f7fce171-ca89-43a8-8262-6b164177b644","ios":"levelo://app?vid=f7fce171-ca89-43a8-8262-6b164177b644"},"vehicle_type_id":"4","last_reported":1766823291,"current_range_meters":12000,"station_id":"ce4bhbp2rcd13ifvqerg","pricing_plan_id":"cebpf4jnsgd1na2vs0mg"},{"bike_id":"24fa35f4-c95a-4394-b8e7-d3191ddc30ff","system_id":"levelo_inurba_marseille","lat":43.29728,"lon":5.37681,"is_reserved":false,"is_disabled":true,"rental_uris":{"android":"levelo://app?vid=24fa35f4-c95a-4394-b8e7-d3191ddc30ff","ios":"levelo://app?vid=24fa35f4-c95a-4394-b8e7-d3191ddc30ff"},"vehicle_type_id":"4","last_reported":1766823291,"current_range_meters":12000,"station_id":"ce4bgkh2rcd13ifvqbl0","pricing_plan_id":"cebpf4jnsgd1na2vs0mg"},{"bike_id":"a833609a-113f-4f9f-b401-b22ed43577e3","system_id":"levelo_inurba_marseille","lat":43.27946,"lon":5.41045,"is_reserved":false,"is_disabled":false,"rental_uris":{"android":"levelo://app?vid=a833609a-113f-4f9f-b401-b22ed43577e3","ios":"levelo://app?vid=a833609a-113f-4f9f-b401-b22ed43577e3"},"vehicle_type_id":"4","last_reported":1766823291,"current_range_meters":12000,"station_id":"ce4bhnp2rcd13ifvqh0g","pricing_plan_id":"cebpf4jnsgd1na2vs0mg"},{"bike_id":"ada94320-bd40-4fef-8f8b-7e13b7f534a4","system_id":"levelo_inurba_marseille","lat":43.25487,"lon":5.37656,"is_reserved":false,"is_disabled":false,"rental_uris":{"android":"levelo://app?vid=ada94320-bd40-4fef-8f8b-7e13b7f534a4","ios":"levelo://app?vid=ada94320-bd40-4fef-8f8b-7e13b7f534a4"},"vehicle_type_id":"4","last_reported":1766823291,"current_range_meters":12000,"station_id":"ce4bhh12rcd13ifvqff0","pricing_plan_id":"cebpf4jnsgd1na2vs0mg"},{"bike_id":"e77de4b6-0e20-4f4c-b9bf-25d6bb5fde0b","system_id":"levelo_inurba_marseille","lat":43.30553,"lon":5.367,"is_reserved":false,"is_disabled":false,"rental_uris":{"android":"levelo://app?vid=e77de4b6-0e20-4f4c-b9bf-25d6bb5fde0b","ios":"levelo://app?vid=e77de4b6-0e20-4f4c-b9bf-25d6bb5fde0b"},"vehicle_type_id":"4","last_reported":1766823291,"current_range_meters":12400,"station_id":"ce4bgrp2rcd13ifvqc9g","pricing_plan_id":"cebpf4jnsgd1na2vs0mg"},{"bike_id":"53ef742d-7b52-48e5-9560-b98da21f1854","system_id":"levelo_inurba_marseille","lat":43.337444,"lon":5.374475,"is_reserved":false,"is_disabled":false,"rental_uris":{"android":"levelo://app?vid=53ef742d-7b52-48e5-9560-b98da21f1854","ios":"levelo://app?vid=53ef742d-7b52-48e5-9560-b98da21f1854"},"vehicle_type_id":"4","last_reported":1766823291,"current_range_meters":12400,"station_id":"","pricing_plan_id":"cebpf4jnsgd1na2vs0mg"},{"bike_id":"d9a84f43-9c4e-4447-98e3-35fa11345d19","system_id":"levelo_inurba_marseille","lat":43.26064,"lon":5.39402,"is_reserved":false,"is_disabled":false,"rental_uris":{"android":"levelo://app?vid=d9a84f43-9c4e-4447-98e3-35fa11345d19","ios":"levelo://app?vid=d9a84f43-9c4e-4447-98e3-35fa11345d19"},"vehicle_type_id":"4","last_reported":1766823291,"current_range_meters":12400,"station_id":"ce4bhh92rcd13ifvqfj0","pricing_plan_id":"cebpf4jnsgd1na2vs0mg"},{"bike_id":"f51ce5e6-24df-4de6-b01e-3d027efd5b41","system_id":"levelo_inurba_marseille","lat":43.22921,"lon":5.3538,"is_reserved":false,"is_disabled":true,"rental_uris":{"android":"levelo://app?vid=f51ce5e6-24df-4de6-b01e-3d027efd5b41","ios":"levelo://app?vid=f51ce5e6-24df-4de6-b01e-3d027efd5b41"},"vehicle_type_id":"4","last_reported":1766823291,"current_range_meters":12400,"station_id":"cpo3532slgdg3j2ikp40","pricing_plan_id":"cebpf4jnsgd1na2vs0mg"},{"bike_id":"b96c6966-4d71-4623-8c94-7bde53253bad","system_id":"levelo_inurba_marseille","lat":43.31349,"lon":5.37152,"is_reserved":false,"is_disabled":false,"rental_uris":{"android":"levelo://app?vid=b96c6966-4d71-4623-8c94-7bde53253bad","ios":"levelo://app?vid=b96c6966-4d71-4623-8c94-7bde53253bad"},"vehicle_type_id":"4","last_reported":1766823291,"current_range_meters":12400,"station_id":"","pricing_plan_id":"cebpf4jnsgd1na2vs0mg"},{"bike_id":"66584438-8e8d-4b88-af1a-ad83cbf0cc72","system_id":"levelo_inurba_marseille","lat":43.28405,"lon":5.34972,"is_reserved":false,"is_disabled":false,"rental_uris":{"android":"levelo://app?vid=66584438-8e8d-4b88-af1a-ad83cbf0cc72","ios":"levelo://app?vid=66584438-8e8d-4b88-af1a-ad83cbf0cc72"},"vehicle_type_id":"4","last_reported":1766823291,"current_range_meters":12400,"station_id":"ce4bhbh2rcd13ifvqepg","pricing_plan_id":"cebpf4jnsgd1na2vs0mg"},{"bike_id":"c4e3ea82-40ed-4986-8167-7db4886c6748","system_id":"levelo_inurba_marseille","lat":43.286184,"lon":5.350998,"is_reserved":false,"is_disabled":false,"rental_uris":{"android":"levelo://app?vid=c4e3ea82-40ed-4986-8167-7db4886c6748","ios":"levelo://app?vid=c4e3ea82-40ed-4986-8167-7db4886c6748"},"vehicle_type_id":"4","last_reported":1766823291,"current_range_meters":12400,"station_id":"ce4bhch2rcd13ifvqeug","pricing_plan_id":"cebpf4jnsgd1na2vs0mg"},{"bike_id":"995d0b92-810b-4276-a4c9-bd8ab12a2f01","system_id":"levelo_inurba_marseille","lat":43.26552,"lon":5.37302,"is_reserved":false,"is_disabled":false,"rental_uris":{"android":"levelo://app?vid=995d0b92-810b-4276-a4c9-bd8ab12a2f01","ios":"levelo://app?vid=995d0b92-810b-4276-a4c9-bd8ab12a2f01"},"vehicle_type_id":"4","last_reported":1766823291,"current_range_meters":12800,"station_id":"","pricing_plan_id":"cebpf4jnsgd1na2vs0mg"},{"bike_id":"cde75731-be94-4954-af76-b79651b240b9","system_id":"levelo_inurba_marseille","lat":43.29925,"lon":5.39393,"is_reserved":false,"is_disabled":false,"rental_uris":{"android":"levelo://app?vid=cde75731-be94-4954-af76-b79651b240b9","ios":"levelo://app?vid=cde75731-be94-4954-af76-b79651b240b9"},"vehicle_type_id":"4","last_reported":1766823291,"current_range_meters":12800,"station_id":"","pricing_plan_id":"cebpf4jnsgd1na2vs0mg"},{"bike_id":"9b4e82fe-62b1-4d62-84c9-b85f75539bf6","system_id":"levelo_inurba_marseille","lat":43.22938,"lon":5.35366,"is_reserved":false,"is_disabled":false,"rental_uris":{"android":"levelo://app?vid=9b4e82fe-62b1-4d62-84c9-b85f75539bf6","ios":"levelo://app?vid=9b4e82fe-62b1-4d62-84c9-b85f75539bf6"},"vehicle_type_id":"4","last_reported":1766823291,"current_range_meters":12800,"station_id":"cpo3532slgdg3j2ikp40","pricing_plan_id":"cebpf4jnsgd1na2vs0mg"},{"bike_id":"425d18fb-d6ea-4c6f-b010-a47573d02f5c","system_id":"levelo_inurba_marseille","lat":43.29271,"lon":5.36838,"is_reserved":false,"is_disabled":true,"rental_uris":{"android":"levelo://app?vid=425d18fb-d6ea-4c6f-b010-a47573d02f5c","ios":"levelo://app?vid=425d18fb-d6ea-4c6f-b010-a47573d02f5c"},"vehicle_type_id":"4","last_reported":1766823291,"current_range_meters":12800,"station_id":"ce4bhbp2rcd13ifvqesg","pricing_plan_id":"cebpf4jnsgd1na2vs0mg"},{"bike_id":"d333f5c5-54f8-4cf5-940a-bb6a2ed8e5fd","system_id":"levelo_inurba_marseille","lat":43.30563,"lon":5.3764,"is_reserved":false,"is_disabled":false,"rental_uris":{"android":"levelo://app?vid=d333f5c5-54f8-4cf5-940a-bb6a2ed8e5fd","ios":"levelo://app?vid=d333f5c5-54f8-4cf5-940a-bb6a2ed8e5fd"},"vehicle_type_id":"4","last_reported":1766823291,"current_range_meters":12800,"station_id":"","pricing_plan_id":"cebpf4jnsgd1na2vs0mg"},{"bike_id":"ee9098e3-7899-41e7-a269-fb96829dd887","system_id":"levelo_inurba_marseille","lat":43.309559,"lon":5.390341,"is_reserved":false,"is_disabled":false,"rental_uris":{"android":"levelo://app?vid=ee9098e3-7899-41e7-a269-fb96829dd887","ios":"levelo://app?vid=ee9098e3-7899-41e7-a269-fb96829dd887"},"vehicle_type_id":"4","last_reported":1766823291,"current_range_meters":12800,"station_id":"","pricing_plan_id":"cebpf4jnsgd1na2vs0mg"},{"bike_id":"ff960407-74d2-4772-9371-4b8dd01a7755","system_id":"levelo_inurba_marseille","lat":43.25012,"lon":5.38868,"is_reserved":false,"is_disabled":true,"rental_uris":{"android":"levelo://app?vid=ff960407-74d2-4772-9371-4b8dd01a7755","ios":"levelo://app?vid=ff960407-74d2-4772-9371-4b8dd01a7755"},"vehicle_type_id":"4","last_reported":1766823291,"current_range_meters":12800,"station_id":"ce4bhgp2rcd13ifvqfd0","pricing_plan_id":"cebpf4jnsgd1na2vs0mg"},{"bike_id":"1c79eb29-135e-40c1-8651-901759d4aaa6","system_id":"levelo_inurba_marseille","lat":43.28558,"lon":5.35307,"is_reserved":false,"is_disabled":false,"rental_uris":{"android":"levelo://app?vid=1c79eb29-135e-40c1-8651-901759d4aaa6","ios":"levelo://app?vid=1c79eb29-135e-40c1-8651-901759d4aaa6"},"vehicle_type_id":"4","last_reported":1766823291,"current_range_meters":12800,"station_id":"","pricing_plan_id":"cebpf4jnsgd1na2vs0mg"},{"bike_id":"c22c8068-92dd-490d-8c31-c575761084ca","system_id":"levelo_inurba_marseille","lat":43.29969,"lon":5.38475,"is_reserved":false,"is_disabled":false,"rental_uris":{"android":"levelo://app?vid=c22c8068-92dd-490d-8c31-c575761084ca","ios":"levelo://app?vid=c22c8068-92dd-490d-8c31-c575761084ca"},"vehicle_type_id":"4","last_reported":1766823291,"current_range_meters":12800,"station_id":"ce4bgj92rcd13ifvqbd0","pricing_plan_id":"cebpf4jnsgd1na2vs0mg"},{"bike_id":"6db7000b-0203-438a-9256-95b48d6ce96f","system_id":"levelo_inurba_marseille","lat":43.241635,"lon":5.363985,"is_reserved":false,"is_disabled":false,"rental_uris":{"android":"levelo://app?vid=6db7000b-0203-438a-9256-95b48d6ce96f","ios":"levelo://app?vid=6db7000b-0203-438a-9256-95b48d6ce96f"},"vehicle_type_id":"4","last_reported":1766823291,"current_range_meters":12800,"station_id":"cpo36qri1sfpv3e86is0","pricing_plan_id":"cebpf4jnsgd1na2vs0mg"},{"bike_id":"c9581d28-803f-4aff-9c5a-fc9ea8310d40","system_id":"levelo_inurba_marseille","lat":43.29305,"lon":5.37157,"is_reserved":false,"is_disabled":false,"rental_uris":{"android":"levelo://app?vid=c9581d28-803f-4aff-9c5a-fc9ea8310d40","ios":"levelo://app?vid=c9581d28-803f-4aff-9c5a-fc9ea8310d40"},"vehicle_type_id":"4","last_reported":1766823291,"current_range_meters":12800,"station_id":"ce4bgh92rcd13ifvqb40","pricing_plan_id":"cebpf4jnsgd1na2vs0mg"},{"bike_id":"9821df82-926e-489a-a328-b0f6432f6689","system_id":"levelo_inurba_marseille","lat":43.24493,"lon":5.37832,"is_reserved":false,"is_disabled":false,"rental_uris":{"android":"levelo://app?vid=9821df82-926e-489a-a328-b0f6432f6689","ios":"levelo://app?vid=9821df82-926e-489a-a328-b0f6432f6689"},"vehicle_type_id":"4","last_reported":1766823291,"current_range_meters":12800,"station_id":"","pricing_plan_id":"cebpf4jnsgd1na2vs0mg"},{"bike_id":"0ab2476b-02de-4bd5-900a-0f181fc6646b","system_id":"levelo_inurba_marseille","lat":43.307318,"lon":5.424413,"is_reserved":false,"is_disabled":false,"rental_uris":{"android":"levelo://app?vid=0ab2476b-02de-4bd5-900a-0f181fc6646b","ios":"levelo://app?vid=0ab2476b-02de-4bd5-900a-0f181fc6646b"},"vehicle_type_id":"4","last_reported":1766823291,"current_range_meters":12800,"station_id":"st_cvj6ca6bvosntc0bfgr0","pricing_plan_id":"cebpf4jnsgd1na2vs0mg"},{"bike_id":"315c3fb2-fafe-4c20-87fa-382acc7e1808","system_id":"levelo_inurba_marseille","lat":43.28216,"lon":5.39071,"is_reserved":false,"is_disabled":true,"rental_uris":{"android":"levelo://app?vid=315c3fb2-fafe-4c20-87fa-382acc7e1808","ios":"levelo://app?vid=315c3fb2-fafe-4c20-87fa-382acc7e1808"},"vehicle_type_id":"4","last_reported":1766823291,"current_range_meters":12800,"station_id":"ce4bhn92rcd13ifvqgsg","pricing_plan_id":"cebpf4jnsgd1na2vs0mg"},{"bike_id":"b4726fd8-e137-41ff-a40f-985f58a92b70","system_id":"levelo_inurba_marseille","lat":43.24231,"lon":5.36937,"is_reserved":false,"is_disabled":false,"rental_uris":{"android":"levelo://app?vid=b4726fd8-e137-41ff-a40f-985f58a92b70","ios":"levelo://app?vid=b4726fd8-e137-41ff-a40f-985f58a92b70"},"vehicle_type_id":"4","last_reported":1766823291,"current_range_meters":12800,"station_id":"","pricing_plan_id":"cebpf4jnsgd1na2vs0mg"},{"bike_id":"51e35170-2ec9-4b53-8aa4-78c827b57342","system_id":"levelo_inurba_marseille","lat":43.25001,"lon":5.38946,"is_reserved":false,"is_disabled":false,"rental_uris":{"android":"levelo://app?vid=51e35170-2ec9-4b53-8aa4-78c827b57342","ios":"levelo://app?vid=51e35170-2ec9-4b53-8aa4-78c827b57342"},"vehicle_type_id":"4","last_reported":1766823291,"current_range_meters":12800,"station_id":"ce4bhgp2rcd13ifvqfd0","pricing_plan_id":"cebpf4jnsgd1na2vs0mg"},{"bike_id":"ac69310b-48fc-4542-b776-5797f9034e72","system_id":"levelo_inurba_marseille","lat":43.29802,"lon":5.44042,"is_reserved":false,"is_disabled":false,"rental_uris":{"android":"levelo://app?vid=ac69310b-48fc-4542-b776-5797f9034e72","ios":"levelo://app?vid=ac69310b-48fc-4542-b776-5797f9034e72"},"vehicle_type_id":"4","last_reported":1766823291,"current_range_meters":13600,"station_id":"st_d3jp68qikq2c7381ktn0","pricing_plan_id":"cebpf4jnsgd1na2vs0mg"},{"bike_id":"075753f2-03fc-482d-992a-1a659c9f27f8","system_id":"levelo_inurba_marseille","lat":43.281961,"lon":5.349386,"is_reserved":false,"is_disabled":false,"rental_uris":{"android":"levelo://app?vid=075753f2-03fc-482d-992a-1a659c9f27f8","ios":"levelo://app?vid=075753f2-03fc-482d-992a-1a659c9f27f8"},"vehicle_type_id":"4","last_reported":1766823291,"current_range_meters":13600,"station_id":"","pricing_plan_id":"cebpf4jnsgd1na2vs0mg"},{"bike_id":"9ec8656d-c2fc-45ff-af44-860ca4dba739","system_id":"levelo_inurba_marseille","lat":43.22932,"lon":5.35374,"is_reserved":false,"is_disabled":false,"rental_uris":{"android":"levelo://app?vid=9ec8656d-c2fc-45ff-af44-860ca4dba739","ios":"levelo://app?vid=9ec8656d-c2fc-45ff-af44-860ca4dba739"},"vehicle_type_id":"4","last_reported":1766823291,"current_range_meters":13600,"station_id":"cpo3532slgdg3j2ikp40","pricing_plan_id":"cebpf4jnsgd1na2vs0mg"},{"bike_id":"26c6d701-c0c6-4a72-a1b4-56e24c002b72","system_id":"levelo_inurba_marseille","lat":43.305393,"lon":5.384277,"is_reserved":false,"is_disabled":false,"rental_uris":{"android":"levelo://app?vid=26c6d701-c0c6-4a72-a1b4-56e24c002b72","ios":"levelo://app?vid=26c6d701-c0c6-4a72-a1b4-56e24c002b72"},"vehicle_type_id":"4","last_reported":1766823291,"current_range_meters":13600,"station_id":"ce4bgg92rcd13ifvqb30","pricing_plan_id":"cebpf4jnsgd1na2vs0mg"},{"bike_id":"422090a1-21cd-4dae-9de6-5f2ef8918195","system_id":"levelo_inurba_marseille","lat":43.309444,"lon":5.390331,"is_reserved":false,"is_disabled":false,"rental_uris":{"android":"levelo://app?vid=422090a1-21cd-4dae-9de6-5f2ef8918195","ios":"levelo://app?vid=422090a1-21cd-4dae-9de6-5f2ef8918195"},"vehicle_type_id":"4","last_reported":1766823291,"current_range_meters":13600,"station_id":"ce4bgup2rcd13ifvqco0","pricing_plan_id":"cebpf4jnsgd1na2vs0mg"},{"bike_id":"54edafda-989c-4c09-9895-5888168e846e","system_id":"levelo_inurba_marseille","lat":43.23789,"lon":5.36625,"is_reserved":false,"is_disabled":false,"rental_uris":{"android":"levelo://app?vid=54edafda-989c-4c09-9895-5888168e846e","ios":"levelo://app?vid=54edafda-989c-4c09-9895-5888168e846e"},"vehicle_type_id":"4","last_reported":1766823291,"current_range_meters":13600,"station_id":"st_d3nk18o9ro0c73en2l3g","pricing_plan_id":"cebpf4jnsgd1na2vs0mg"},{"bike_id":"49eeb1b5-cd4e-46c3-9f1a-d1ddf4ac97f4","system_id":"levelo_inurba_marseille","lat":43.241609,"lon":5.363982,"is_reserved":false,"is_disabled":false,"rental_uris":{"android":"levelo://app?vid=49eeb1b5-cd4e-46c3-9f1a-d1ddf4ac97f4","ios":"levelo://app?vid=49eeb1b5-cd4e-46c3-9f1a-d1ddf4ac97f4"},"vehicle_type_id":"4","last_reported":1766823291,"current_range_meters":13600,"station_id":"cpo36qri1sfpv3e86is0","pricing_plan_id":"cebpf4jnsgd1na2vs0mg"},{"bike_id":"2774eca9-c878-4033-8514-2330fd47f167","system_id":"levelo_inurba_marseille","lat":43.28478,"lon":5.48392,"is_reserved":false,"is_disabled":false,"rental_uris":{"android":"levelo://app?vid=2774eca9-c878-4033-8514-2330fd47f167","ios":"levelo://app?vid=2774eca9-c878-4033-8514-2330fd47f167"},"vehicle_type_id":"4","last_reported":1766823291,"current_range_meters":13600,"station_id":"st_d3svhcjqgbts73a3dn0g","pricing_plan_id":"cebpf4jnsgd1na2vs0mg"},{"bike_id":"a19d2be1-59ee-4d04-852a-6ac1e19bb92e","system_id":"levelo_inurba_marseille","lat":43.239672,"lon":5.366309,"is_reserved":false,"is_disabled":false,"rental_uris":{"android":"levelo://app?vid=a19d2be1-59ee-4d04-852a-6ac1e19bb92e","ios":"levelo://app?vid=a19d2be1-59ee-4d04-852a-6ac1e19bb92e"},"vehicle_type_id":"4","last_reported":1766823291,"current_range_meters":13600,"station_id":"ce4bhi12rcd13ifvqfp0","pricing_plan_id":"cebpf4jnsgd1na2vs0mg"},{"bike_id":"7ef0cae7-d0ce-42f4-8945-1ef1b36c8fff","system_id":"levelo_inurba_marseille","lat":43.290618,"lon":5.399191,"is_reserved":false,"is_disabled":false,"rental_uris":{"android":"levelo://app?vid=7ef0cae7-d0ce-42f4-8945-1ef1b36c8fff","ios":"levelo://app?vid=7ef0cae7-d0ce-42f4-8945-1ef1b36c8fff"},"vehicle_type_id":"4","last_reported":1766823291,"current_range_meters":13600,"station_id":"ce4bh392rcd13ifvqdm0","pricing_plan_id":"cebpf4jnsgd1na2vs0mg"},{"bike_id":"ad42361f-c58f-4dc6-b3ce-ec617296ab2d","system_id":"levelo_inurba_marseille","lat":43.27954,"lon":5.41031,"is_reserved":false,"is_disabled":false,"rental_uris":{"android":"levelo://app?vid=ad42361f-c58f-4dc6-b3ce-ec617296ab2d","ios":"levelo://app?vid=ad42361f-c58f-4dc6-b3ce-ec617296ab2d"},"vehicle_type_id":"4","last_reported":1766823291,"current_range_meters":13600,"station_id":"ce4bhnp2rcd13ifvqh0g","pricing_plan_id":"cebpf4jnsgd1na2vs0mg"},{"bike_id":"3fed967f-06a2-4296-8378-206650097842","system_id":"levelo_inurba_marseille","lat":43.24546,"lon":5.39532,"is_reserved":false,"is_disabled":false,"rental_uris":{"android":"levelo://app?vid=3fed967f-06a2-4296-8378-206650097842","ios":"levelo://app?vid=3fed967f-06a2-4296-8378-206650097842"},"vehicle_type_id":"4","last_reported":1766823291,"current_range_meters":13600,"station_id":"ce4bhlp2rcd13ifvqgjg","pricing_plan_id":"cebpf4jnsgd1na2vs0mg"},{"bike_id":"6c259998-4e0e-43df-8f5b-042b9350d210","system_id":"levelo_inurba_marseille","lat":43.26564,"lon":5.40326,"is_reserved":false,"is_disabled":false,"rental_uris":{"android":"levelo://app?vid=6c259998-4e0e-43df-8f5b-042b9350d210","ios":"levelo://app?vid=6c259998-4e0e-43df-8f5b-042b9350d210"},"vehicle_type_id":"4","last_reported":1766823291,"current_range_meters":14000,"station_id":"ce4bhmp2rcd13ifvqgng","pricing_plan_id":"cebpf4jnsgd1na2vs0mg"},{"bike_id":"ae6f5036-1aa0-4a83-abdc-77ced3fab898","system_id":"levelo_inurba_marseille","lat":43.30933,"lon":5.38027,"is_reserved":false,"is_disabled":false,"rental_uris":{"android":"levelo://app?vid=ae6f5036-1aa0-4a83-abdc-77ced3fab898","ios":"levelo://app?vid=ae6f5036-1aa0-4a83-abdc-77ced3fab898"},"vehicle_type_id":"4","last_reported":1766823291,"current_range_meters":14000,"station_id":"","pricing_plan_id":"cebpf4jnsgd1na2vs0mg"},{"bike_id":"b8bbc689-8205-4fcc-8acf-50d3fc777f23","system_id":"levelo_inurba_marseille","lat":43.25717,"lon":5.41081,"is_reserved":false,"is_disabled":false,"rental_uris":{"android":"levelo://app?vid=b8bbc689-8205-4fcc-8acf-50d3fc777f23","ios":"levelo://app?vid=b8bbc689-8205-4fcc-8acf-50d3fc777f23"},"vehicle_type_id":"4","last_reported":1766823291,"current_range_meters":14000,"station_id":"ce4bhkp2rcd13ifvqgd0","pricing_plan_id":"cebpf4jnsgd1na2vs0mg"},{"bike_id":"25f10c5b-07f8-4fd2-9876-01469efdbeee","system_id":"levelo_inurba_marseille","lat":43.29201,"lon":5.39329,"is_reserved":false,"is_disabled":false,"rental_uris":{"android":"levelo://app?vid=25f10c5b-07f8-4fd2-9876-01469efdbeee","ios":"levelo://app?vid=25f10c5b-07f8-4fd2-9876-01469efdbeee"},"vehicle_type_id":"4","last_reported":1766823291,"current_range_meters":14000,"station_id":"ce4bh192rcd13ifvqdd0","pricing_plan_id":"cebpf4jnsgd1na2vs0mg"},{"bike_id":"63142313-bfab-4962-b27c-e5e6b21d415f","system_id":"levelo_inurba_marseille","lat":43.30293,"lon":5.37616,"is_reserved":false,"is_disabled":false,"rental_uris":{"android":"levelo://app?vid=63142313-bfab-4962-b27c-e5e6b21d415f","ios":"levelo://app?vid=63142313-bfab-4962-b27c-e5e6b21d415f"},"vehicle_type_id":"4","last_reported":1766823291,"current_range_meters":14400,"station_id":"","pricing_plan_id":"cebpf4jnsgd1na2vs0mg"},{"bike_id":"6adcb05f-5783-46bb-8735-d36e6455f6ae","system_id":"levelo_inurba_marseille","lat":43.265634,"lon":5.390015,"is_reserved":false,"is_disabled":false,"rental_uris":{"android":"levelo://app?vid=6adcb05f-5783-46bb-8735-d36e6455f6ae","ios":"levelo://app?vid=6adcb05f-5783-46bb-8735-d36e6455f6ae"},"vehicle_type_id":"4","last_reported":1766823291,"current_range_meters":14400,"station_id":"ce4bhe12rcd13ifvqf30","pricing_plan_id":"cebpf4jnsgd1na2vs0mg"},{"bike_id":"9d21dcb0-ce26-48db-a303-317550439f40","system_id":"levelo_inurba_marseille","lat":43.28481,"lon":5.4839,"is_reserved":false,"is_disabled":false,"rental_uris":{"android":"levelo://app?vid=9d21dcb0-ce26-48db-a303-317550439f40","ios":"levelo://app?vid=9d21dcb0-ce26-48db-a303-317550439f40"},"vehicle_type_id":"4","last_reported":1766823291,"current_range_meters":14400,"station_id":"","pricing_plan_id":"cebpf4jnsgd1na2vs0mg"},{"bike_id":"25b7cb42-dba0-4326-b2b6-859e57a3c269","system_id":"levelo_inurba_marseille","lat":43.265639,"lon":5.390153,"is_reserved":false,"is_disabled":false,"rental_uris":{"android":"levelo://app?vid=25b7cb42-dba0-4326-b2b6-859e57a3c269","ios":"levelo://app?vid=25b7cb42-dba0-4326-b2b6-859e57a3c269"},"vehicle_type_id":"4","last_reported":1766823291,"current_range_meters":14400,"station_id":"ce4bhe12rcd13ifvqf30","pricing_plan_id":"cebpf4jnsgd1na2vs0mg"},{"bike_id":"431908cb-6e2f-475c-b9dc-80e49f264756","system_id":"levelo_inurba_marseille","lat":43.27622,"lon":5.361,"is_reserved":false,"is_disabled":false,"rental_uris":{"android":"levelo://app?vid=431908cb-6e2f-475c-b9dc-80e49f264756","ios":"levelo://app?vid=431908cb-6e2f-475c-b9dc-80e49f264756"},"vehicle_type_id":"4","last_reported":1766823291,"current_range_meters":14400,"station_id":"ce4bgj92rcd13ifvqbe0","pricing_plan_id":"cebpf4jnsgd1na2vs0mg"},{"bike_id":"4611e732-61f5-45a0-8297-83affa8a636d","system_id":"levelo_inurba_marseille","lat":43.21192,"lon":5.35069,"is_reserved":false,"is_disabled":false,"rental_uris":{"android":"levelo://app?vid=4611e732-61f5-45a0-8297-83affa8a636d","ios":"levelo://app?vid=4611e732-61f5-45a0-8297-83affa8a636d"},"vehicle_type_id":"4","last_reported":1766823291,"current_range_meters":14400,"station_id":"st_cvj6sg6p6f1abm77japg","pricing_plan_id":"cebpf4jnsgd1na2vs0mg"},{"bike_id":"465a2f57-579d-444d-b220-7224c6e202b3","system_id":"levelo_inurba_marseille","lat":43.24385,"lon":5.37057,"is_reserved":false,"is_disabled":false,"rental_uris":{"android":"levelo://app?vid=465a2f57-579d-444d-b220-7224c6e202b3","ios":"levelo://app?vid=465a2f57-579d-444d-b220-7224c6e202b3"},"vehicle_type_id":"4","last_reported":1766823291,"current_range_meters":14400,"station_id":"ce4bhhh2rcd13ifvqfk0","pricing_plan_id":"cebpf4jnsgd1na2vs0mg"},{"bike_id":"80ea5379-a594-4a0f-b427-a122bc00e13a","system_id":"levelo_inurba_marseille","lat":43.24991,"lon":5.38936,"is_reserved":false,"is_disabled":false,"rental_uris":{"android":"levelo://app?vid=80ea5379-a594-4a0f-b427-a122bc00e13a","ios":"levelo://app?vid=80ea5379-a594-4a0f-b427-a122bc00e13a"},"vehicle_type_id":"4","last_reported":1766823291,"current_range_meters":14400,"station_id":"ce4bhgp2rcd13ifvqfd0","pricing_plan_id":"cebpf4jnsgd1na2vs0mg"},{"bike_id":"242bd6e5-e4cf-459e-8a0a-cf71c098ed97","system_id":"levelo_inurba_marseille","lat":43.27952,"lon":5.40998,"is_reserved":false,"is_disabled":false,"rental_uris":{"android":"levelo://app?vid=242bd6e5-e4cf-459e-8a0a-cf71c098ed97","ios":"levelo://app?vid=242bd6e5-e4cf-459e-8a0a-cf71c098ed97"},"vehicle_type_id":"4","last_reported":1766823291,"current_range_meters":14400,"station_id":"ce4bhnp2rcd13ifvqh0g","pricing_plan_id":"cebpf4jnsgd1na2vs0mg"},{"bike_id":"13525c8e-1574-4729-89f8-da4a70aa414c","system_id":"levelo_inurba_marseille","lat":43.29928,"lon":5.37462,"is_reserved":false,"is_disabled":false,"rental_uris":{"android":"levelo://app?vid=13525c8e-1574-4729-89f8-da4a70aa414c","ios":"levelo://app?vid=13525c8e-1574-4729-89f8-da4a70aa414c"},"vehicle_type_id":"4","last_reported":1766823291,"current_range_meters":14400,"station_id":"ce4bgjh2rcd13ifvqbg0","pricing_plan_id":"cebpf4jnsgd1na2vs0mg"},{"bike_id":"a763c937-8f21-4793-b0d9-18b72e145794","system_id":"levelo_inurba_marseille","lat":43.30308,"lon":5.36903,"is_reserved":false,"is_disabled":false,"rental_uris":{"android":"levelo://app?vid=a763c937-8f21-4793-b0d9-18b72e145794","ios":"levelo://app?vid=a763c937-8f21-4793-b0d9-18b72e145794"},"vehicle_type_id":"4","last_reported":1766823291,"current_range_meters":14800,"station_id":"ce4bgqh2rcd13ifvqc5g","pricing_plan_id":"cebpf4jnsgd1na2vs0mg"},{"bike_id":"ee8ca4e8-f3dc-48b9-b5f2-1235114e76c1","system_id":"levelo_inurba_marseille","lat":43.23956,"lon":5.36646,"is_reserved":false,"is_disabled":false,"rental_uris":{"android":"levelo://app?vid=ee8ca4e8-f3dc-48b9-b5f2-1235114e76c1","ios":"levelo://app?vid=ee8ca4e8-f3dc-48b9-b5f2-1235114e76c1"},"vehicle_type_id":"4","last_reported":1766823291,"current_range_meters":14800,"station_id":"ce4bhi12rcd13ifvqfp0","pricing_plan_id":"cebpf4jnsgd1na2vs0mg"},{"bike_id":"e7195f19-4fc7-4c9a-b655-a9b129278d8e","system_id":"levelo_inurba_marseille","lat":43.26716,"lon":5.40558,"is_reserved":false,"is_disabled":false,"rental_uris":{"android":"levelo://app?vid=e7195f19-4fc7-4c9a-b655-a9b129278d8e","ios":"levelo://app?vid=e7195f19-4fc7-4c9a-b655-a9b129278d8e"},"vehicle_type_id":"4","last_reported":1766823291,"current_range_meters":14800,"station_id":"","pricing_plan_id":"cebpf4jnsgd1na2vs0mg"},{"bike_id":"3ad1f912-18ed-44fc-a2a6-801b8caf95f6","system_id":"levelo_inurba_marseille","lat":43.2856,"lon":5.39486,"is_reserved":false,"is_disabled":false,"rental_uris":{"android":"levelo://app?vid=3ad1f912-18ed-44fc-a2a6-801b8caf95f6","ios":"levelo://app?vid=3ad1f912-18ed-44fc-a2a6-801b8caf95f6"},"vehicle_type_id":"4","last_reported":1766823291,"current_range_meters":14800,"station_id":"ce4bh292rcd13ifvqdg0","pricing_plan_id":"cebpf4jnsgd1na2vs0mg"},{"bike_id":"ecaaf60c-0069-4225-b8f7-d112b28f454b","system_id":"levelo_inurba_marseille","lat":43.26212,"lon":5.37926,"is_reserved":false,"is_disabled":false,"rental_uris":{"android":"levelo://app?vid=ecaaf60c-0069-4225-b8f7-d112b28f454b","ios":"levelo://app?vid=ecaaf60c-0069-4225-b8f7-d112b28f454b"},"vehicle_type_id":"4","last_reported":1766823291,"current_range_meters":14800,"station_id":"ce4bhjp2rcd13ifvqg90","pricing_plan_id":"cebpf4jnsgd1na2vs0mg"},{"bike_id":"2089b640-697f-4fd8-b711-3a2997951b04","system_id":"levelo_inurba_marseille","lat":43.29983,"lon":5.3849,"is_reserved":false,"is_disabled":true,"rental_uris":{"android":"levelo://app?vid=2089b640-697f-4fd8-b711-3a2997951b04","ios":"levelo://app?vid=2089b640-697f-4fd8-b711-3a2997951b04"},"vehicle_type_id":"4","last_reported":1766823291,"current_range_meters":15200,"station_id":"ce4bgj92rcd13ifvqbd0","pricing_plan_id":"cebpf4jnsgd1na2vs0mg"},{"bike_id":"b6fd63db-b8cb-44b4-a848-c2c592754fb3","system_id":"levelo_inurba_marseille","lat":43.29132,"lon":5.40051,"is_reserved":false,"is_disabled":true,"rental_uris":{"android":"levelo://app?vid=b6fd63db-b8cb-44b4-a848-c2c592754fb3","ios":"levelo://app?vid=b6fd63db-b8cb-44b4-a848-c2c592754fb3"},"vehicle_type_id":"4","last_reported":1766823291,"current_range_meters":15200,"station_id":"","pricing_plan_id":"cebpf4jnsgd1na2vs0mg"},{"bike_id":"14d04dab-7034-4d24-b53c-76198629f7c6","system_id":"levelo_inurba_marseille","lat":43.297879,"lon":5.376844,"is_reserved":false,"is_disabled":false,"rental_uris":{"android":"levelo://app?vid=14d04dab-7034-4d24-b53c-76198629f7c6","ios":"levelo://app?vid=14d04dab-7034-4d24-b53c-76198629f7c6"},"vehicle_type_id":"4","last_reported":1766823291,"current_range_meters":15200,"station_id":"ce4bgi92rcd13ifvqb90","pricing_plan_id":"cebpf4jnsgd1na2vs0mg"},{"bike_id":"05226a2d-813b-4916-9796-af3361da1ae2","system_id":"levelo_inurba_marseille","lat":43.29599,"lon":5.37723,"is_reserved":false,"is_disabled":false,"rental_uris":{"android":"levelo://app?vid=05226a2d-813b-4916-9796-af3361da1ae2","ios":"levelo://app?vid=05226a2d-813b-4916-9796-af3361da1ae2"},"vehicle_type_id":"4","last_reported":1766823291,"current_range_meters":15200,"station_id":"ce4bgi92rcd13ifvqb90","pricing_plan_id":"cebpf4jnsgd1na2vs0mg"},{"bike_id":"765d86ce-7793-49fe-8da7-63b3f87de73b","system_id":"levelo_inurba_marseille","lat":43.30487,"lon":5.36598,"is_reserved":false,"is_disabled":false,"rental_uris":{"android":"levelo://app?vid=765d86ce-7793-49fe-8da7-63b3f87de73b","ios":"levelo://app?vid=765d86ce-7793-49fe-8da7-63b3f87de73b"},"vehicle_type_id":"4","last_reported":1766823291,"current_range_meters":15200,"station_id":"","pricing_plan_id":"cebpf4jnsgd1na2vs0mg"},{"bike_id":"577a8429-e907-45de-a0fc-b8c3d38163f6","system_id":"levelo_inurba_marseille","lat":43.30311,"lon":5.36905,"is_reserved":false,"is_disabled":false,"rental_uris":{"android":"levelo://app?vid=577a8429-e907-45de-a0fc-b8c3d38163f6","ios":"levelo://app?vid=577a8429-e907-45de-a0fc-b8c3d38163f6"},"vehicle_type_id":"4","last_reported":1766823291,"current_range_meters":15200,"station_id":"ce4bgqh2rcd13ifvqc5g","pricing_plan_id":"cebpf4jnsgd1na2vs0mg"},{"bike_id":"c267a687-5d3a-4391-868f-0c73efcfc0f9","system_id":"levelo_inurba_marseille","lat":43.30939,"lon":5.37263,"is_reserved":false,"is_disabled":false,"rental_uris":{"android":"levelo://app?vid=c267a687-5d3a-4391-868f-0c73efcfc0f9","ios":"levelo://app?vid=c267a687-5d3a-4391-868f-0c73efcfc0f9"},"vehicle_type_id":"4","last_reported":1766823291,"current_range_meters":15200,"station_id":"","pricing_plan_id":"cebpf4jnsgd1na2vs0mg"},{"bike_id":"7b941545-04ef-4c35-af28-d0b06d9429ee","system_id":"levelo_inurba_marseille","lat":43.28154,"lon":5.42642,"is_reserved":false,"is_disabled":false,"rental_uris":{"android":"levelo://app?vid=7b941545-04ef-4c35-af28-d0b06d9429ee","ios":"levelo://app?vid=7b941545-04ef-4c35-af28-d0b06d9429ee"},"vehicle_type_id":"4","last_reported":1766823291,"current_range_meters":15200,"station_id":"ce4bhnh2rcd13ifvqgug","pricing_plan_id":"cebpf4jnsgd1na2vs0mg"},{"bike_id":"9e95d4d6-4ead-43b9-b013-3d5e521662f8","system_id":"levelo_inurba_marseille","lat":43.306292,"lon":5.393057,"is_reserved":false,"is_disabled":false,"rental_uris":{"android":"levelo://app?vid=9e95d4d6-4ead-43b9-b013-3d5e521662f8","ios":"levelo://app?vid=9e95d4d6-4ead-43b9-b013-3d5e521662f8"},"vehicle_type_id":"4","last_reported":1766823291,"current_range_meters":16000,"station_id":"ce4bh0p2rcd13ifvqd80","pricing_plan_id":"cebpf4jnsgd1na2vs0mg"},{"bike_id":"48286d0d-ff1f-48ea-ac0f-731d1c020dc8","system_id":"levelo_inurba_marseille","lat":43.23969,"lon":5.36643,"is_reserved":false,"is_disabled":false,"rental_uris":{"android":"levelo://app?vid=48286d0d-ff1f-48ea-ac0f-731d1c020dc8","ios":"levelo://app?vid=48286d0d-ff1f-48ea-ac0f-731d1c020dc8"},"vehicle_type_id":"4","last_reported":1766823291,"current_range_meters":16000,"station_id":"ce4bhi12rcd13ifvqfp0","pricing_plan_id":"cebpf4jnsgd1na2vs0mg"},{"bike_id":"80e5704f-ad4a-47fa-8434-b81adbddb3a7","system_id":"levelo_inurba_marseille","lat":43.27958,"lon":5.41035,"is_reserved":false,"is_disabled":true,"rental_uris":{"android":"levelo://app?vid=80e5704f-ad4a-47fa-8434-b81adbddb3a7","ios":"levelo://app?vid=80e5704f-ad4a-47fa-8434-b81adbddb3a7"},"vehicle_type_id":"4","last_reported":1766823291,"current_range_meters":16000,"station_id":"ce4bhnp2rcd13ifvqh0g","pricing_plan_id":"cebpf4jnsgd1na2vs0mg"},{"bike_id":"9ab94bd4-911e-4ae8-a279-365da064d715","system_id":"levelo_inurba_marseille","lat":43.27621,"lon":5.36114,"is_reserved":false,"is_disabled":false,"rental_uris":{"android":"levelo://app?vid=9ab94bd4-911e-4ae8-a279-365da064d715","ios":"levelo://app?vid=9ab94bd4-911e-4ae8-a279-365da064d715"},"vehicle_type_id":"4","last_reported":1766823291,"current_range_meters":16000,"station_id":"ce4bgj92rcd13ifvqbe0","pricing_plan_id":"cebpf4jnsgd1na2vs0mg"},{"bike_id":"afb985e7-8c63-4644-90eb-d9081c2fb82f","system_id":"levelo_inurba_marseille","lat":43.27229,"lon":5.39173,"is_reserved":false,"is_disabled":false,"rental_uris":{"android":"levelo://app?vid=afb985e7-8c63-4644-90eb-d9081c2fb82f","ios":"levelo://app?vid=afb985e7-8c63-4644-90eb-d9081c2fb82f"},"vehicle_type_id":"4","last_reported":1766823291,"current_range_meters":16000,"station_id":"ce4bhhp2rcd13ifvqfm0","pricing_plan_id":"cebpf4jnsgd1na2vs0mg"},{"bike_id":"b8359eb8-309f-4919-a9d8-14bc8a289068","system_id":"levelo_inurba_marseille","lat":43.29833,"lon":5.38079,"is_reserved":false,"is_disabled":false,"rental_uris":{"android":"levelo://app?vid=b8359eb8-309f-4919-a9d8-14bc8a289068","ios":"levelo://app?vid=b8359eb8-309f-4919-a9d8-14bc8a289068"},"vehicle_type_id":"4","last_reported":1766823291,"current_range_meters":16000,"station_id":"ce4bgip2rcd13ifvqbb0","pricing_plan_id":"cebpf4jnsgd1na2vs0mg"},{"bike_id":"c0723a55-d0d0-493e-a4c5-9479bcaeff93","system_id":"levelo_inurba_marseille","lat":43.28472,"lon":5.48401,"is_reserved":false,"is_disabled":false,"rental_uris":{"android":"levelo://app?vid=c0723a55-d0d0-493e-a4c5-9479bcaeff93","ios":"levelo://app?vid=c0723a55-d0d0-493e-a4c5-9479bcaeff93"},"vehicle_type_id":"4","last_reported":1766823291,"current_range_meters":16000,"station_id":"","pricing_plan_id":"cebpf4jnsgd1na2vs0mg"},{"bike_id":"17a49efb-d179-4b85-b20c-4afe87c0613f","system_id":"levelo_inurba_marseille","lat":43.310582,"lon":5.371766,"is_reserved":false,"is_disabled":true,"rental_uris":{"android":"levelo://app?vid=17a49efb-d179-4b85-b20c-4afe87c0613f","ios":"levelo://app?vid=17a49efb-d179-4b85-b20c-4afe87c0613f"},"vehicle_type_id":"4","last_reported":1766823291,"current_range_meters":16000,"station_id":"st_d4kl2rp97mjs73e7tdfg","pricing_plan_id":"cebpf4jnsgd1na2vs0mg"},{"bike_id":"879a5d14-e6db-48a4-8e4d-81072218817d","system_id":"levelo_inurba_marseille","lat":43.28154,"lon":5.42627,"is_reserved":false,"is_disabled":false,"rental_uris":{"android":"levelo://app?vid=879a5d14-e6db-48a4-8e4d-81072218817d","ios":"levelo://app?vid=879a5d14-e6db-48a4-8e4d-81072218817d"},"vehicle_type_id":"4","last_reported":1766823291,"current_range_meters":16000,"station_id":"ce4bhnh2rcd13ifvqgug","pricing_plan_id":"cebpf4jnsgd1na2vs0mg"},{"bike_id":"08f4624a-a23d-4738-b794-a8bd53bfd7e8","system_id":"levelo_inurba_marseille","lat":43.29902,"lon":5.37583,"is_reserved":false,"is_disabled":false,"rental_uris":{"android":"levelo://app?vid=08f4624a-a23d-4738-b794-a8bd53bfd7e8","ios":"levelo://app?vid=08f4624a-a23d-4738-b794-a8bd53bfd7e8"},"vehicle_type_id":"4","last_reported":1766823291,"current_range_meters":16400,"station_id":"","pricing_plan_id":"cebpf4jnsgd1na2vs0mg"},{"bike_id":"2964d339-565e-4966-a8d5-dd5de314e6fd","system_id":"levelo_inurba_marseille","lat":43.32356,"lon":5.36756,"is_reserved":false,"is_disabled":false,"rental_uris":{"android":"levelo://app?vid=2964d339-565e-4966-a8d5-dd5de314e6fd","ios":"levelo://app?vid=2964d339-565e-4966-a8d5-dd5de314e6fd"},"vehicle_type_id":"4","last_reported":1766823291,"current_range_meters":16400,"station_id":"ce4bhsh2rcd13ifvqi2g","pricing_plan_id":"cebpf4jnsgd1na2vs0mg"},{"bike_id":"b7166de2-1d61-4c79-9744-9f412287c996","system_id":"levelo_inurba_marseille","lat":43.31231,"lon":5.38085,"is_reserved":false,"is_disabled":false,"rental_uris":{"android":"levelo://app?vid=b7166de2-1d61-4c79-9744-9f412287c996","ios":"levelo://app?vid=b7166de2-1d61-4c79-9744-9f412287c996"},"vehicle_type_id":"4","last_reported":1766823291,"current_range_meters":16400,"station_id":"","pricing_plan_id":"cebpf4jnsgd1na2vs0mg"},{"bike_id":"b779b4c3-bbd6-4120-94bd-1061db54af08","system_id":"levelo_inurba_marseille","lat":43.284093,"lon":5.375206,"is_reserved":false,"is_disabled":false,"rental_uris":{"android":"levelo://app?vid=b779b4c3-bbd6-4120-94bd-1061db54af08","ios":"levelo://app?vid=b779b4c3-bbd6-4120-94bd-1061db54af08"},"vehicle_type_id":"4","last_reported":1766823291,"current_range_meters":16400,"station_id":"ce4bh412rcd13ifvqds0","pricing_plan_id":"cebpf4jnsgd1na2vs0mg"},{"bike_id":"f2caf87d-4288-4c36-ae25-4b83246253ef","system_id":"levelo_inurba_marseille","lat":43.27369,"lon":5.36263,"is_reserved":false,"is_disabled":false,"rental_uris":{"android":"levelo://app?vid=f2caf87d-4288-4c36-ae25-4b83246253ef","ios":"levelo://app?vid=f2caf87d-4288-4c36-ae25-4b83246253ef"},"vehicle_type_id":"4","last_reported":1766823291,"current_range_meters":16400,"station_id":"ce4bhbh2rcd13ifvqeo0","pricing_plan_id":"cebpf4jnsgd1na2vs0mg"},{"bike_id":"50f2d474-ee9b-4c75-ad2b-2a2a28d29ffb","system_id":"levelo_inurba_marseille","lat":43.296906,"lon":5.385515,"is_reserved":false,"is_disabled":false,"rental_uris":{"android":"levelo://app?vid=50f2d474-ee9b-4c75-ad2b-2a2a28d29ffb","ios":"levelo://app?vid=50f2d474-ee9b-4c75-ad2b-2a2a28d29ffb"},"vehicle_type_id":"4","last_reported":1766823291,"current_range_meters":16400,"station_id":"","pricing_plan_id":"cebpf4jnsgd1na2vs0mg"},{"bike_id":"e1b6fe91-09ae-4d42-8730-3d2b156ee937","system_id":"levelo_inurba_marseille","lat":43.27812,"lon":5.40717,"is_reserved":false,"is_disabled":false,"rental_uris":{"android":"levelo://app?vid=e1b6fe91-09ae-4d42-8730-3d2b156ee937","ios":"levelo://app?vid=e1b6fe91-09ae-4d42-8730-3d2b156ee937"},"vehicle_type_id":"4","last_reported":1766823291,"current_range_meters":16400,"station_id":"ce4bhnh2rcd13ifvqgtg","pricing_plan_id":"cebpf4jnsgd1na2vs0mg"},{"bike_id":"199b8ef9-121c-4d37-9141-bd46153982f9","system_id":"levelo_inurba_marseille","lat":43.29566,"lon":5.36725,"is_reserved":false,"is_disabled":false,"rental_uris":{"android":"levelo://app?vid=199b8ef9-121c-4d37-9141-bd46153982f9","ios":"levelo://app?vid=199b8ef9-121c-4d37-9141-bd46153982f9"},"vehicle_type_id":"4","last_reported":1766823291,"current_range_meters":16400,"station_id":"ce4bgph2rcd13ifvqc2g","pricing_plan_id":"cebpf4jnsgd1na2vs0mg"},{"bike_id":"364a48f3-8473-4e00-9d33-2eb0fe242911","system_id":"levelo_inurba_marseille","lat":43.27664,"lon":5.38879,"is_reserved":false,"is_disabled":true,"rental_uris":{"android":"levelo://app?vid=364a48f3-8473-4e00-9d33-2eb0fe242911","ios":"levelo://app?vid=364a48f3-8473-4e00-9d33-2eb0fe242911"},"vehicle_type_id":"4","last_reported":1766823291,"current_range_meters":16400,"station_id":"ce4bhi12rcd13ifvqfo0","pricing_plan_id":"cebpf4jnsgd1na2vs0mg"},{"bike_id":"739c8502-027c-4c3b-9170-91063b5035a8","system_id":"levelo_inurba_marseille","lat":43.24646,"lon":5.38894,"is_reserved":false,"is_disabled":false,"rental_uris":{"android":"levelo://app?vid=739c8502-027c-4c3b-9170-91063b5035a8","ios":"levelo://app?vid=739c8502-027c-4c3b-9170-91063b5035a8"},"vehicle_type_id":"4","last_reported":1766823291,"current_range_meters":16400,"station_id":"ce4bhg12rcd13ifvqf60","pricing_plan_id":"cebpf4jnsgd1na2vs0mg"},{"bike_id":"2853c209-3f9f-4191-bf56-3d8e43b957b1","system_id":"levelo_inurba_marseille","lat":43.2781,"lon":5.40719,"is_reserved":false,"is_disabled":false,"rental_uris":{"android":"levelo://app?vid=2853c209-3f9f-4191-bf56-3d8e43b957b1","ios":"levelo://app?vid=2853c209-3f9f-4191-bf56-3d8e43b957b1"},"vehicle_type_id":"4","last_reported":1766823291,"current_range_meters":16400,"station_id":"ce4bhnh2rcd13ifvqgtg","pricing_plan_id":"cebpf4jnsgd1na2vs0mg"},{"bike_id":"722f4425-a563-41a7-8aa1-4d570a9a3eb1","system_id":"levelo_inurba_marseille","lat":43.30189,"lon":5.366058,"is_reserved":false,"is_disabled":false,"rental_uris":{"android":"levelo://app?vid=722f4425-a563-41a7-8aa1-4d570a9a3eb1","ios":"levelo://app?vid=722f4425-a563-41a7-8aa1-4d570a9a3eb1"},"vehicle_type_id":"4","last_reported":1766823291,"current_range_meters":16400,"station_id":"ce4bgrh2rcd13ifvqc8g","pricing_plan_id":"cebpf4jnsgd1na2vs0mg"},{"bike_id":"f11d934b-4291-435e-828d-f3e84d40f288","system_id":"levelo_inurba_marseille","lat":43.26174,"lon":5.37474,"is_reserved":false,"is_disabled":false,"rental_uris":{"android":"levelo://app?vid=f11d934b-4291-435e-828d-f3e84d40f288","ios":"levelo://app?vid=f11d934b-4291-435e-828d-f3e84d40f288"},"vehicle_type_id":"4","last_reported":1766823291,"current_range_meters":16400,"station_id":"ce4bhgp2rcd13ifvqfc0","pricing_plan_id":"cebpf4jnsgd1na2vs0mg"},{"bike_id":"3c6dfb34-82b5-4988-93a7-7ce81fb8808f","system_id":"levelo_inurba_marseille","lat":43.279231,"lon":5.395685,"is_reserved":false,"is_disabled":true,"rental_uris":{"android":"levelo://app?vid=3c6dfb34-82b5-4988-93a7-7ce81fb8808f","ios":"levelo://app?vid=3c6dfb34-82b5-4988-93a7-7ce81fb8808f"},"vehicle_type_id":"4","last_reported":1766823291,"current_range_meters":16400,"station_id":"ce4bhf92rcd13ifvqf40","pricing_plan_id":"cebpf4jnsgd1na2vs0mg"},{"bike_id":"cf10dff0-c65f-457b-8864-435d3da2db86","system_id":"levelo_inurba_marseille","lat":43.30081,"lon":5.39112,"is_reserved":false,"is_disabled":false,"rental_uris":{"android":"levelo://app?vid=cf10dff0-c65f-457b-8864-435d3da2db86","ios":"levelo://app?vid=cf10dff0-c65f-457b-8864-435d3da2db86"},"vehicle_type_id":"4","last_reported":1766823291,"current_range_meters":16400,"station_id":"ce4bh192rcd13ifvqdb0","pricing_plan_id":"cebpf4jnsgd1na2vs0mg"},{"bike_id":"178e467f-59ab-495a-abec-5fcdffb80082","system_id":"levelo_inurba_marseille","lat":43.300958,"lon":5.390774,"is_reserved":false,"is_disabled":false,"rental_uris":{"android":"levelo://app?vid=178e467f-59ab-495a-abec-5fcdffb80082","ios":"levelo://app?vid=178e467f-59ab-495a-abec-5fcdffb80082"},"vehicle_type_id":"4","last_reported":1766823291,"current_range_meters":16400,"station_id":"ce4bh192rcd13ifvqdb0","pricing_plan_id":"cebpf4jnsgd1na2vs0mg"},{"bike_id":"5edd8cbd-a7c6-41a2-ac77-88aa9d9d74fc","system_id":"levelo_inurba_marseille","lat":43.289995,"lon":5.356116,"is_reserved":false,"is_disabled":true,"rental_uris":{"android":"levelo://app?vid=5edd8cbd-a7c6-41a2-ac77-88aa9d9d74fc","ios":"levelo://app?vid=5edd8cbd-a7c6-41a2-ac77-88aa9d9d74fc"},"vehicle_type_id":"4","last_reported":1766823291,"current_range_meters":16800,"station_id":"ce4bhb92rcd13ifvqen0","pricing_plan_id":"cebpf4jnsgd1na2vs0mg"},{"bike_id":"1e850597-bf66-4bd9-a6d8-d3fc0391d871","system_id":"levelo_inurba_marseille","lat":43.24168,"lon":5.39741,"is_reserved":false,"is_disabled":false,"rental_uris":{"android":"levelo://app?vid=1e850597-bf66-4bd9-a6d8-d3fc0391d871","ios":"levelo://app?vid=1e850597-bf66-4bd9-a6d8-d3fc0391d871"},"vehicle_type_id":"4","last_reported":1766823291,"current_range_meters":16800,"station_id":"ce4bhn12rcd13ifvqgpg","pricing_plan_id":"cebpf4jnsgd1na2vs0mg"},{"bike_id":"d07dc22c-a864-4104-81e7-c60339403064","system_id":"levelo_inurba_marseille","lat":43.29857,"lon":5.37892,"is_reserved":false,"is_disabled":false,"rental_uris":{"android":"levelo://app?vid=d07dc22c-a864-4104-81e7-c60339403064","ios":"levelo://app?vid=d07dc22c-a864-4104-81e7-c60339403064"},"vehicle_type_id":"4","last_reported":1766823291,"current_range_meters":16800,"station_id":"","pricing_plan_id":"cebpf4jnsgd1na2vs0mg"},{"bike_id":"3eff831f-cbc6-4439-b5a2-98a13e76e8c8","system_id":"levelo_inurba_marseille","lat":43.25339,"lon":5.42167,"is_reserved":false,"is_disabled":false,"rental_uris":{"android":"levelo://app?vid=3eff831f-cbc6-4439-b5a2-98a13e76e8c8","ios":"levelo://app?vid=3eff831f-cbc6-4439-b5a2-98a13e76e8c8"},"vehicle_type_id":"4","last_reported":1766823291,"current_range_meters":16800,"station_id":"st_d2m65c5bi1j21697t3ng","pricing_plan_id":"cebpf4jnsgd1na2vs0mg"},{"bike_id":"6db94a7f-0f1d-4f26-99fe-9eb4f89acba1","system_id":"levelo_inurba_marseille","lat":43.30389,"lon":5.37501,"is_reserved":false,"is_disabled":false,"rental_uris":{"android":"levelo://app?vid=6db94a7f-0f1d-4f26-99fe-9eb4f89acba1","ios":"levelo://app?vid=6db94a7f-0f1d-4f26-99fe-9eb4f89acba1"},"vehicle_type_id":"4","last_reported":1766823291,"current_range_meters":16800,"station_id":"","pricing_plan_id":"cebpf4jnsgd1na2vs0mg"},{"bike_id":"666e58fb-a158-477b-beda-a8f96d893446","system_id":"levelo_inurba_marseille","lat":43.295282,"lon":5.385369,"is_reserved":false,"is_disabled":false,"rental_uris":{"android":"levelo://app?vid=666e58fb-a158-477b-beda-a8f96d893446","ios":"levelo://app?vid=666e58fb-a158-477b-beda-a8f96d893446"},"vehicle_type_id":"4","last_reported":1766823291,"current_range_meters":16800,"station_id":"ce4bgih2rcd13ifvqba0","pricing_plan_id":"cebpf4jnsgd1na2vs0mg"},{"bike_id":"395d7e75-d76e-417c-8d95-56034096a735","system_id":"levelo_inurba_marseille","lat":43.303,"lon":5.39252,"is_reserved":false,"is_disabled":false,"rental_uris":{"android":"levelo://app?vid=395d7e75-d76e-417c-8d95-56034096a735","ios":"levelo://app?vid=395d7e75-d76e-417c-8d95-56034096a735"},"vehicle_type_id":"4","last_reported":1766823291,"current_range_meters":16800,"station_id":"ce4bgkh2rcd13ifvqbk0","pricing_plan_id":"cebpf4jnsgd1na2vs0mg"},{"bike_id":"e7457e29-ba40-4ee4-bcd4-810da3a227c0","system_id":"levelo_inurba_marseille","lat":43.298,"lon":5.3809,"is_reserved":false,"is_disabled":false,"rental_uris":{"android":"levelo://app?vid=e7457e29-ba40-4ee4-bcd4-810da3a227c0","ios":"levelo://app?vid=e7457e29-ba40-4ee4-bcd4-810da3a227c0"},"vehicle_type_id":"4","last_reported":1766823291,"current_range_meters":16800,"station_id":"ce4bgip2rcd13ifvqbb0","pricing_plan_id":"cebpf4jnsgd1na2vs0mg"},{"bike_id":"3a8eae66-603b-4cc6-a47a-5e999d573fad","system_id":"levelo_inurba_marseille","lat":43.270033,"lon":5.387481,"is_reserved":false,"is_disabled":false,"rental_uris":{"android":"levelo://app?vid=3a8eae66-603b-4cc6-a47a-5e999d573fad","ios":"levelo://app?vid=3a8eae66-603b-4cc6-a47a-5e999d573fad"},"vehicle_type_id":"4","last_reported":1766823291,"current_range_meters":16800,"station_id":"","pricing_plan_id":"cebpf4jnsgd1na2vs0mg"},{"bike_id":"c33eb5f0-499c-46b8-b706-b5add847dbd3","system_id":"levelo_inurba_marseille","lat":43.33141,"lon":5.377,"is_reserved":false,"is_disabled":false,"rental_uris":{"android":"levelo://app?vid=c33eb5f0-499c-46b8-b706-b5add847dbd3","ios":"levelo://app?vid=c33eb5f0-499c-46b8-b706-b5add847dbd3"},"vehicle_type_id":"4","last_reported":1766823291,"current_range_meters":16800,"station_id":"st_d46cu089ee8s73dldbu0","pricing_plan_id":"cebpf4jnsgd1na2vs0mg"},{"bike_id":"3f979261-b307-4305-83e5-8ab756d92c11","system_id":"levelo_inurba_marseille","lat":43.2619,"lon":5.37451,"is_reserved":false,"is_disabled":false,"rental_uris":{"android":"levelo://app?vid=3f979261-b307-4305-83e5-8ab756d92c11","ios":"levelo://app?vid=3f979261-b307-4305-83e5-8ab756d92c11"},"vehicle_type_id":"4","last_reported":1766823291,"current_range_meters":16800,"station_id":"ce4bhgp2rcd13ifvqfc0","pricing_plan_id":"cebpf4jnsgd1na2vs0mg"},{"bike_id":"6e93bb3f-8639-49ad-a1bd-672303861f12","system_id":"levelo_inurba_marseille","lat":43.237888,"lon":5.366284,"is_reserved":false,"is_disabled":false,"rental_uris":{"android":"levelo://app?vid=6e93bb3f-8639-49ad-a1bd-672303861f12","ios":"levelo://app?vid=6e93bb3f-8639-49ad-a1bd-672303861f12"},"vehicle_type_id":"4","last_reported":1766823291,"current_range_meters":16800,"station_id":"st_d3nk18o9ro0c73en2l3g","pricing_plan_id":"cebpf4jnsgd1na2vs0mg"},{"bike_id":"ef4bf226-d875-4cdb-9a8e-7a46fec64f85","system_id":"levelo_inurba_marseille","lat":43.281474,"lon":5.426471,"is_reserved":false,"is_disabled":true,"rental_uris":{"android":"levelo://app?vid=ef4bf226-d875-4cdb-9a8e-7a46fec64f85","ios":"levelo://app?vid=ef4bf226-d875-4cdb-9a8e-7a46fec64f85"},"vehicle_type_id":"4","last_reported":1766823291,"current_range_meters":16800,"station_id":"ce4bhnh2rcd13ifvqgug","pricing_plan_id":"cebpf4jnsgd1na2vs0mg"},{"bike_id":"746607d7-0d50-445a-b435-314ed89afc68","system_id":"levelo_inurba_marseille","lat":43.29881,"lon":5.43679,"is_reserved":false,"is_disabled":false,"rental_uris":{"android":"levelo://app?vid=746607d7-0d50-445a-b435-314ed89afc68","ios":"levelo://app?vid=746607d7-0d50-445a-b435-314ed89afc68"},"vehicle_type_id":"4","last_reported":1766823291,"current_range_meters":16800,"station_id":"ce4bhpp2rcd13ifvqhfg","pricing_plan_id":"cebpf4jnsgd1na2vs0mg"},