{"last_updated":1726233326,"ttl":30,"version":"2.2","data":{"bikes":[{"bike_id":"bc35aeaa-3e4d-43e6-9935-c8f1110a4b4c","system_id":"levelo_inurba_marseille","lat":43.30509,"lon":5.36702,"is_reserved":false,"is_disabled":false,"rental_uris":{"android":"levelo://app?vid=bc35aeaa-3e4d-43e6-9935-c8f1110a4b4c","ios":"levelo://app?vid=bc35aeaa-3e4d-43e6-9935-c8f1110a4b4c"},"vehicle_type_id":"4","last_reported":1726233326,"current_range_meters":37600,"station_id":"ce4bgrp2rcd13ifvqc9g","pricing_plan_id":"cebpf4jnsgd1na2vs0mg"},{"bike_id":"2ca2fd52-6283-4397-ac7e-8db28b0c8f78","system_id":"levelo_inurba_marseille","lat":43.23196,"lon":5.35555,"is_reserved":false,"is_disabled":false,"rental_uris":{"android":"levelo://app?vid=2ca2fd52-6283-4397-ac7e-8db28b0c8f78","ios":"levelo://app?vid=2ca2fd52-6283-4397-ac7e-8db28b0c8f78"},"vehicle_type_id":"4","last_reported":1726233326,"current_range_meters":11600,"station_id":"ce4bhu92rcd13ifvqi70","pricing_plan_id":"cebpf4jnsgd1na2vs0mg"},{"bike_id":"4b6575b2-03d3-481e-bfc2-0179f4ad785d","system_id":"levelo_inurba_marseille","lat":43.31692,"lon":5.40477,"is_reserved":false,"is_disabled":false,"rental_uris":{"android":"levelo://app?vid=4b6575b2-03d3-481e-bfc2-0179f4ad785d","ios":"levelo://app?vid=4b6575b2-03d3-481e-bfc2-0179f4ad785d"},"vehicle_type_id":"4","last_reported":1726233326,"current_range_meters":22000,"station_id":"ce4bh012rcd13ifvqd00","pricing_plan_id":"cebpf4jnsgd1na2vs0mg"},{"bike_id":"78daf548-540b-4a2e-b49b-346b3b3d76ec","system_id":"levelo_inurba_marseille","lat":43.23139,"lon":5.4371,"is_reserved":false,"is_disabled":false,"rental_uris":{"android":"levelo://app?vid=78daf548-540b-4a2e-b49b-346b3b3d76ec","ios":"levelo://app?vid=78daf548-540b-4a2e-b49b-346b3b3d76ec"},"vehicle_type_id":"4","last_reported":1726233326,"current_range_meters":17600,"station_id":"ce4bhmp2rcd13ifvqgog","pricing_plan_id":"cebpf4jnsgd1na2vs0mg"},{"bike_id":"5cec1ca9-00bc-42ac-963d-3cc35653a5c5","system_id":"levelo_inurba_marseille","lat":43.30808,"lon":5.38162,"is_reserved":false,"is_disabled":false,"rental_uris":{"android":"levelo://app?vid=5cec1ca9-00bc-42ac-963d-3cc35653a5c5","ios":"levelo://app?vid=5cec1ca9-00bc-42ac-963d-3cc35653a5c5"},"vehicle_type_id":"4","last_reported":1726233326,"current_range_meters":28000,"station_id":"ce4bgt12rcd13ifvqce0","pricing_plan_id":"cebpf4jnsgd1na2vs0mg"},{"bike_id":"1433cc86-19c5-4d38-a0b5-c5c087739e0a","system_id":"levelo_inurba_marseille","lat":43.22932,"lon":5.35374,"is_reserved":false,"is_disabled":false,"rental_uris":{"android":"levelo://app?vid=1433cc86-19c5-4d38-a0b5-c5c087739e0a","ios":"levelo://app?vid=1433cc86-19c5-4d38-a0b5-c5c087739e0a"},"vehicle_type_id":"4","last_reported":1726233326,"current_range_meters":30400,"station_id":"cpo3532slgdg3j2ikp40","pricing_plan_id":"cebpf4jnsgd1na2vs0mg"},{"bike_id":"b2a12926-7574-44ec-89ab-5248c306d28f","system_id":"levelo_inurba_marseille","lat":43.3175,"lon":5.39025,"is_reserved":false,"is_disabled":false,"rental_uris":{"android":"levelo://app?vid=b2a12926-7574-44ec-89ab-5248c306d28f","ios":"levelo://app?vid=b2a12926-7574-44ec-89ab-5248c306d28f"},"vehicle_type_id":"4","last_reported":1726233326,"current_range_meters":36800,"station_id":"ce4bhqp2rcd13ifvqhng","pricing_plan_id":"cebpf4jnsgd1na2vs0mg"},{"bike_id":"ae8c7bd4-e320-4650-aaec-5acdea38c512","system_id":"levelo_inurba_marseille","lat":43.28047,"lon":5.38665,"is_reserved":false,"is_disabled":false,"rental_uris":{"android":"levelo://app?vid=ae8c7bd4-e320-4650-aaec-5acdea38c512","ios":"levelo://app?vid=ae8c7bd4-e320-4650-aaec-5acdea38c512"},"vehicle_type_id":"4","last_reported":1726233326,"current_range_meters":22400,"station_id":"","pricing_plan_id":"cebpf4jnsgd1na2vs0mg"},{"bike_id":"083984dd-1abd-4a7d-84c6-e8ceb7b63abe","system_id":"levelo_inurba_marseille","lat":43.31081,"lon":5.37765,"is_reserved":false,"is_disabled":false,"rental_uris":{"android":"levelo://app?vid=083984dd-1abd-4a7d-84c6-e8ceb7b63abe","ios":"levelo://app?vid=083984dd-1abd-4a7d-84c6-e8ceb7b63abe"},"vehicle_type_id":"4","last_reported":1726233326,"current_range_meters":38000,"station_id":"ce4bgt92rcd13ifvqcg0","pricing_plan_id":"cebpf4jnsgd1na2vs0mg"},{"bike_id":"98f29766-e561-41e4-8fcb-12e5daf32825","system_id":"levelo_inurba_marseille","lat":43.30538,"lon":5.36529,"is_reserved":false,"is_disabled":false,"rental_uris":{"android":"levelo://app?vid=98f29766-e561-41e4-8fcb-12e5daf32825","ios":"levelo://app?vid=98f29766-e561-41e4-8fcb-12e5daf32825"},"vehicle_type_id":"4","last_reported":1726233326,"current_range_meters":35200,"station_id":"ce4bgs12rcd13ifvqcag","pricing_plan_id":"cebpf4jnsgd1na2vs0mg"},{"bike_id":"b68e0926-554e-4f5d-8d7a-b8dee24be0c7","system_id":"levelo_inurba_marseille","lat":43.28082,"lon":5.39658,"is_reserved":false,"is_disabled":false,"rental_uris":{"android":"levelo://app?vid=b68e0926-554e-4f5d-8d7a-b8dee24be0c7","ios":"levelo://app?vid=b68e0926-554e-4f5d-8d7a-b8dee24be0c7"},"vehicle_type_id":"4","last_reported":1726233326,"current_range_meters":24800,"station_id":"ce4bgvh2rcd13ifvqcs0","pricing_plan_id":"cebpf4jnsgd1na2vs0mg"},{"bike_id":"ae168d63-d8a1-4830-90e3-58117da14628","system_id":"levelo_inurba_marseille","lat":43.284125,"lon":5.349786,"is_reserved":false,"is_disabled":false,"rental_uris":{"android":"levelo://app?vid=ae168d63-d8a1-4830-90e3-58117da14628","ios":"levelo://app?vid=ae168d63-d8a1-4830-90e3-58117da14628"},"vehicle_type_id":"4","last_reported":1726233326,"current_range_meters":23200,"station_id":"ce4bhbh2rcd13ifvqepg","pricing_plan_id":"cebpf4jnsgd1na2vs0mg"},{"bike_id":"e0b9cb6c-4996-4b35-baa2-36f702866204","system_id":"levelo_inurba_marseille","lat":43.2603,"lon":5.37546,"is_reserved":false,"is_disabled":false,"rental_uris":{"android":"levelo://app?vid=e0b9cb6c-4996-4b35-baa2-36f702866204","ios":"levelo://app?vid=e0b9cb6c-4996-4b35-baa2-36f702866204"},"vehicle_type_id":"4","last_reported":1726233326,"current_range_meters":28400,"station_id":"ce4bhgh2rcd13ifvqfa0","pricing_plan_id":"cebpf4jnsgd1na2vs0mg"},{"bike_id":"20a93905-b3a1-4ead-a861-f6bd36aa5b5e","system_id":"levelo_inurba_marseille","lat":43.23155,"lon":5.4371,"is_reserved":false,"is_disabled":false,"rental_uris":{"android":"levelo://app?vid=20a93905-b3a1-4ead-a861-f6bd36aa5b5e","ios":"levelo://app?vid=20a93905-b3a1-4ead-a861-f6bd36aa5b5e"},"vehicle_type_id":"4","last_reported":1726233326,"current_range_meters":19600,"station_id":"ce4bhmp2rcd13ifvqgog","pricing_plan_id":"cebpf4jnsgd1na2vs0mg"},{"bike_id":"8c442eab-56ed-4a03-9dbe-7f62420f4eeb","system_id":"levelo_inurba_marseille","lat":43.31707,"lon":5.37751,"is_reserved":false,"is_disabled":false,"rental_uris":{"android":"levelo://app?vid=8c442eab-56ed-4a03-9dbe-7f62420f4eeb","ios":"levelo://app?vid=8c442eab-56ed-4a03-9dbe-7f62420f4eeb"},"vehicle_type_id":"4","last_reported":1726233326,"current_range_meters":24000,"station_id":"ce4bgth2rcd13ifvqch0","pricing_plan_id":"cebpf4jnsgd1na2vs0mg"},{"bike_id":"f45d9413-9a73-47f2-a10e-0dc762623601","system_id":"levelo_inurba_marseille","lat":43.23152,"lon":5.43703,"is_reserved":false,"is_disabled":false,"rental_uris":{"android":"levelo://app?vid=f45d9413-9a73-47f2-a10e-0dc762623601","ios":"levelo://app?vid=f45d9413-9a73-47f2-a10e-0dc762623601"},"vehicle_type_id":"4","last_reported":1726233326,"current_range_meters":39200,"station_id":"ce4bhmp2rcd13ifvqgog","pricing_plan_id":"cebpf4jnsgd1na2vs0mg"},{"bike_id":"fb9dbfe1-01d0-400a-aab3-c465c4c7ed0b","system_id":"levelo_inurba_marseille","lat":43.311704,"lon":5.387231,"is_reserved":false,"is_disabled":false,"rental_uris":{"android":"levelo://app?vid=fb9dbfe1-01d0-400a-aab3-c465c4c7ed0b","ios":"levelo://app?vid=fb9dbfe1-01d0-400a-aab3-c465c4c7ed0b"},"vehicle_type_id":"4","last_reported":1726233326,"current_range_meters":27600,"station_id":"ce4bgv12rcd13ifvqcp0","pricing_plan_id":"cebpf4jnsgd1na2vs0mg"},{"bike_id":"66392a4f-4a09-4c71-8bf6-e1937714ad14","system_id":"levelo_inurba_marseille","lat":43.337444,"lon":5.374475,"is_reserved":false,"is_disabled":false,"rental_uris":{"android":"levelo://app?vid=66392a4f-4a09-4c71-8bf6-e1937714ad14","ios":"levelo://app?vid=66392a4f-4a09-4c71-8bf6-e1937714ad14"},"vehicle_type_id":"4","last_reported":1726233326,"current_range_meters":38400,"station_id":"ce4bh3h2rcd13ifvqdn0","pricing_plan_id":"cebpf4jnsgd1na2vs0mg"},{"bike_id":"13ec4916-f0ea-4897-8afc-596425b42c42","system_id":"levelo_inurba_marseille","lat":43.23194,"lon":5.35553,"is_reserved":false,"is_disabled":false,"rental_uris":{"android":"levelo://app?vid=13ec4916-f0ea-4897-8afc-596425b42c42","ios":"levelo://app?vid=13ec4916-f0ea-4897-8afc-596425b42c42"},"vehicle_type_id":"4","last_reported":1726233326,"current_range_meters":32000,"station_id":"ce4bhu92rcd13ifvqi70","pricing_plan_id":"cebpf4jnsgd1na2vs0mg"},{"bike_id":"fbb69908-0749-45d1-8a5b-8e8131c59359","system_id":"levelo_inurba_marseille","lat":43.24661,"lon":5.38162,"is_reserved":false,"is_disabled":false,"rental_uris":{"android":"levelo://app?vid=fbb69908-0749-45d1-8a5b-8e8131c59359","ios":"levelo://app?vid=fbb69908-0749-45d1-8a5b-8e8131c59359"},"vehicle_type_id":"4","last_reported":1726233326,"current_range_meters":19200,"station_id":"ce4bhih2rcd13ifvqfr0","pricing_plan_id":"cebpf4jnsgd1na2vs0mg"},{"bike_id":"171e7c83-45c5-4f40-968b-a2410f7f37a5","system_id":"levelo_inurba_marseille","lat":43.23182,"lon":5.39994,"is_reserved":false,"is_disabled":false,"rental_uris":{"android":"levelo://app?vid=171e7c83-45c5-4f40-968b-a2410f7f37a5","ios":"levelo://app?vid=171e7c83-45c5-4f40-968b-a2410f7f37a5"},"vehicle_type_id":"4","last_reported":1726233326,"current_range_meters":38000,"station_id":"ce4bhn12rcd13ifvqgqg","pricing_plan_id":"cebpf4jnsgd1na2vs0mg"},{"bike_id":"1879a399-8333-4090-987d-118b259829f6","system_id":"levelo_inurba_marseille","lat":43.29267,"lon":5.38454,"is_reserved":false,"is_disabled":false,"rental_uris":{"android":"levelo://app?vid=1879a399-8333-4090-987d-118b259829f6","ios":"levelo://app?vid=1879a399-8333-4090-987d-118b259829f6"},"vehicle_type_id":"4","last_reported":1726233326,"current_range_meters":10000,"station_id":"ce4bh692rcd13ifvqea0","pricing_plan_id":"cebpf4jnsgd1na2vs0mg"},{"bike_id":"a59d64a6-0c90-478e-8726-6eda2f84c2f7","system_id":"levelo_inurba_marseille","lat":43.26035,"lon":5.37546,"is_reserved":false,"is_disabled":false,"rental_uris":{"android":"levelo://app?vid=a59d64a6-0c90-478e-8726-6eda2f84c2f7","ios":"levelo://app?vid=a59d64a6-0c90-478e-8726-6eda2f84c2f7"},"vehicle_type_id":"4","last_reported":1726233326,"current_range_meters":4400,"station_id":"ce4bhgh2rcd13ifvqfa0","pricing_plan_id":"cebpf4jnsgd1na2vs0mg"},{"bike_id":"1b69e28d-b657-4802-b5dd-aa17fb5a768b","system_id":"levelo_inurba_marseille","lat":43.26896,"lon":5.40879,"is_reserved":false,"is_disabled":false,"rental_uris":{"android":"levelo://app?vid=1b69e28d-b657-4802-b5dd-aa17fb5a768b","ios":"levelo://app?vid=1b69e28d-b657-4802-b5dd-aa17fb5a768b"},"vehicle_type_id":"4","last_reported":1726233326,"current_range_meters":34800,"station_id":"","pricing_plan_id":"cebpf4jnsgd1na2vs0mg"},{"bike_id":"23cfa90c-f523-4d5a-adca-1befa81d6423","system_id":"levelo_inurba_marseille","lat":43.29591,"lon":5.37721,"is_reserved":false,"is_disabled":false,"rental_uris":{"android":"levelo://app?vid=23cfa90c-f523-4d5a-adca-1befa81d6423","ios":"levelo://app?vid=23cfa90c-f523-4d5a-adca-1befa81d6423"},"vehicle_type_id":"4","last_reported":1726233326,"current_range_meters":38800,"station_id":"ce4bgi92rcd13ifvqb90","pricing_plan_id":"cebpf4jnsgd1na2vs0mg"},{"bike_id":"ee5bd0a5-1257-48de-9343-ea8521c36cdd","system_id":"levelo_inurba_marseille","lat":43.23204,"lon":5.35548,"is_reserved":false,"is_disabled":false,"rental_uris":{"android":"levelo://app?vid=ee5bd0a5-1257-48de-9343-ea8521c36cdd","ios":"levelo://app?vid=ee5bd0a5-1257-48de-9343-ea8521c36cdd"},"vehicle_type_id":"4","last_reported":1726233326,"current_range_meters":2800,"station_id":"ce4bhu92rcd13ifvqi70","pricing_plan_id":"cebpf4jnsgd1na2vs0mg"},{"bike_id":"995d3a7e-289e-4ebd-b785-9d2da426ad57","system_id":"levelo_inurba_marseille","lat":43.23198,"lon":5.35548,"is_reserved":false,"is_disabled":false,"rental_uris":{"android":"levelo://app?vid=995d3a7e-289e-4ebd-b785-9d2da426ad57","ios":"levelo://app?vid=995d3a7e-289e-4ebd-b785-9d2da426ad57"},"vehicle_type_id":"4","last_reported":1726233326,"current_range_meters":25600,"station_id":"ce4bhu92rcd13ifvqi70","pricing_plan_id":"cebpf4jnsgd1na2vs0mg"},{"bike_id":"74c67d55-8a5f-40c9-8066-d68354718f8c","system_id":"levelo_inurba_marseille","lat":43.23192,"lon":5.35549,"is_reserved":false,"is_disabled":false,"rental_uris":{"android":"levelo://app?vid=74c67d55-8a5f-40c9-8066-d68354718f8c","ios":"levelo://app?vid=74c67d55-8a5f-40c9-8066-d68354718f8c"},"vehicle_type_id":"4","last_reported":1726233326,"current_range_meters":30000,"station_id":"ce4bhu92rcd13ifvqi70","pricing_plan_id":"cebpf4jnsgd1na2vs0mg"},{"bike_id":"129bb5cc-071e-491b-b689-9864b057a690","system_id":"levelo_inurba_marseille","lat":43.29933,"lon":5.36556,"is_reserved":false,"is_disabled":false,"rental_uris":{"android":"levelo://app?vid=129bb5cc-071e-491b-b689-9864b057a690","ios":"levelo://app?vid=129bb5cc-071e-491b-b689-9864b057a690"},"vehicle_type_id":"4","last_reported":1726233326,"current_range_meters":35600,"station_id":"ce4bgm92rcd13ifvqbr0","pricing_plan_id":"cebpf4jnsgd1na2vs0mg"},{"bike_id":"c3bca95f-0507-4390-b268-6f4460567bd8","system_id":"levelo_inurba_marseille","lat":43.27963,"lon":5.39521,"is_reserved":false,"is_disabled":false,"rental_uris":{"android":"levelo://app?vid=c3bca95f-0507-4390-b268-6f4460567bd8","ios":"levelo://app?vid=c3bca95f-0507-4390-b268-6f4460567bd8"},"vehicle_type_id":"4","last_reported":1726233326,"current_range_meters":11200,"station_id":"ce4bhg12rcd13ifvqf80","pricing_plan_id":"cebpf4jnsgd1na2vs0mg"},{"bike_id":"e2be0aea-67dc-4dc6-b46f-e2412631f2dd","system_id":"levelo_inurba_marseille","lat":43.25007,"lon":5.38931,"is_reserved":false,"is_disabled":false,"rental_uris":{"android":"levelo://app?vid=e2be0aea-67dc-4dc6-b46f-e2412631f2dd","ios":"levelo://app?vid=e2be0aea-67dc-4dc6-b46f-e2412631f2dd"},"vehicle_type_id":"4","last_reported":1726233326,"current_range_meters":8000,"station_id":"ce4bhgp2rcd13ifvqfd0","pricing_plan_id":"cebpf4jnsgd1na2vs0mg"},{"bike_id":"18363dd6-7c9b-4898-acf1-e538c99e26ab","system_id":"levelo_inurba_marseille","lat":43.30554,"lon":5.36532,"is_reserved":false,"is_disabled":false,"rental_uris":{"android":"levelo://app?vid=18363dd6-7c9b-4898-acf1-e538c99e26ab","ios":"levelo://app?vid=18363dd6-7c9b-4898-acf1-e538c99e26ab"},"vehicle_type_id":"4","last_reported":1726233326,"current_range_meters":38800,"station_id":"ce4bgs12rcd13ifvqcag","pricing_plan_id":"cebpf4jnsgd1na2vs0mg"},{"bike_id":"ddcd6a1d-6048-412e-a374-9c40896ddcb7","system_id":"levelo_inurba_marseille","lat":43.23151,"lon":5.43705,"is_reserved":false,"is_disabled":false,"rental_uris":{"android":"levelo://app?vid=ddcd6a1d-6048-412e-a374-9c40896ddcb7","ios":"levelo://app?vid=ddcd6a1d-6048-412e-a374-9c40896ddcb7"},"vehicle_type_id":"4","last_reported":1726233326,"current_range_meters":14000,"station_id":"ce4bhmp2rcd13ifvqgog","pricing_plan_id":"cebpf4jnsgd1na2vs0mg"},{"bike_id":"050ac699-7d75-441e-a779-a2bdfa7771a2","system_id":"levelo_inurba_marseille","lat":43.288514,"lon":5.358618,"is_reserved":false,"is_disabled":false,"rental_uris":{"android":"levelo://app?vid=050ac699-7d75-441e-a779-a2bdfa7771a2","ios":"levelo://app?vid=050ac699-7d75-441e-a779-a2bdfa7771a2"},"vehicle_type_id":"4","last_reported":1726233326,"current_range_meters":14800,"station_id":"ce4bhb12rcd13ifvqem0","pricing_plan_id":"cebpf4jnsgd1na2vs0mg"},{"bike_id":"2df51dbf-664e-406c-83b4-fec2a0b6fba2","system_id":"levelo_inurba_marseille","lat":43.282739,"lon":5.350673,"is_reserved":false,"is_disabled":false,"rental_uris":{"android":"levelo://app?vid=2df51dbf-664e-406c-83b4-fec2a0b6fba2","ios":"levelo://app?vid=2df51dbf-664e-406c-83b4-fec2a0b6fba2"},"vehicle_type_id":"4","last_reported":1726233326,"current_range_meters":11200,"station_id":"ce4bhbp2rcd13ifvqerg","pricing_plan_id":"cebpf4jnsgd1na2vs0mg"},{"bike_id":"d84214b9-11c2-4a5e-8f9e-9bd274cfac2e","system_id":"levelo_inurba_marseille","lat":43.2668,"lon":5.38266,"is_reserved":false,"is_disabled":false,"rental_uris":{"android":"levelo://app?vid=d84214b9-11c2-4a5e-8f9e-9bd274cfac2e","ios":"levelo://app?vid=d84214b9-11c2-4a5e-8f9e-9bd274cfac2e"},"vehicle_type_id":"4","last_reported":1726233326,"current_range_meters":38800,"station_id":"ce4bhg92rcd13ifvqf90","pricing_plan_id":"cebpf4jnsgd1na2vs0mg"},{"bike_id":"445c1462-9e37-40c2-92bd-b577e6c50a54","system_id":"levelo_inurba_marseille","lat":43.26953,"lon":5.38628,"is_reserved":false,"is_disabled":false,"rental_uris":{"android":"levelo://app?vid=445c1462-9e37-40c2-92bd-b577e6c50a54","ios":"levelo://app?vid=445c1462-9e37-40c2-92bd-b577e6c50a54"},"vehicle_type_id":"4","last_reported":1726233326,"current_range_meters":37600,"station_id":"ce4bhh92rcd13ifvqfh0","pricing_plan_id":"cebpf4jnsgd1na2vs0mg"},{"bike_id":"0fd29e9b-5864-49ce-87d5-6c94f67fd247","system_id":"levelo_inurba_marseille","lat":43.27502,"lon":5.42452,"is_reserved":false,"is_disabled":false,"rental_uris":{"android":"levelo://app?vid=0fd29e9b-5864-49ce-87d5-6c94f67fd247","ios":"levelo://app?vid=0fd29e9b-5864-49ce-87d5-6c94f67fd247"},"vehicle_type_id":"4","last_reported":1726233326,"current_range_meters":14800,"station_id":"ce4bhn92rcd13ifvqgrg","pricing_plan_id":"cebpf4jnsgd1na2vs0mg"},{"bike_id":"bf99dca1-fb5c-408d-8934-0318c6a8682c","system_id":"levelo_inurba_marseille","lat":43.27426,"lon":5.39413,"is_reserved":false,"is_disabled":false,"rental_uris":{"android":"levelo://app?vid=bf99dca1-fb5c-408d-8934-0318c6a8682c","ios":"levelo://app?vid=bf99dca1-fb5c-408d-8934-0318c6a8682c"},"vehicle_type_id":"4","last_reported":1726233326,"current_range_meters":8000,"station_id":"ce4bhdp2rcd13ifvqf20","pricing_plan_id":"cebpf4jnsgd1na2vs0mg"},{"bike_id":"6df965e0-9534-47ea-b248-ceda89c3b8a8","system_id":"levelo_inurba_marseille","lat":43.23155,"lon":5.43704,"is_reserved":false,"is_disabled":false,"rental_uris":{"android":"levelo://app?vid=6df965e0-9534-47ea-b248-ceda89c3b8a8","ios":"levelo://app?vid=6df965e0-9534-47ea-b248-ceda89c3b8a8"},"vehicle_type_id":"4","last_reported":1726233326,"current_range_meters":18000,"station_id":"ce4bhmp2rcd13ifvqgog","pricing_plan_id":"cebpf4jnsgd1na2vs0mg"},{"bike_id":"2a089944-b1a6-45af-99d1-9b70add064d3","system_id":"levelo_inurba_marseille","lat":43.24808,"lon":5.37464,"is_reserved":false,"is_disabled":false,"rental_uris":{"android":"levelo://app?vid=2a089944-b1a6-45af-99d1-9b70add064d3","ios":"levelo://app?vid=2a089944-b1a6-45af-99d1-9b70add064d3"},"vehicle_type_id":"4","last_reported":1726233326,"current_range_meters":16800,"station_id":"ce4bhgh2rcd13ifvqfb0","pricing_plan_id":"cebpf4jnsgd1na2vs0mg"},{"bike_id":"34721204-9cc8-4128-8304-5b698c26b1e6","system_id":"levelo_inurba_marseille","lat":43.23185,"lon":5.39977,"is_reserved":false,"is_disabled":false,"rental_uris":{"android":"levelo://app?vid=34721204-9cc8-4128-8304-5b698c26b1e6","ios":"levelo://app?vid=34721204-9cc8-4128-8304-5b698c26b1e6"},"vehicle_type_id":"4","last_reported":1726233326,"current_range_meters":3600,"station_id":"ce4bhn12rcd13ifvqgqg","pricing_plan_id":"cebpf4jnsgd1na2vs0mg"},{"bike_id":"3e7284f6-6b22-423f-83c6-066d093107cb","system_id":"levelo_inurba_marseille","lat":43.27613,"lon":5.36118,"is_reserved":false,"is_disabled":false,"rental_uris":{"android":"levelo://app?vid=3e7284f6-6b22-423f-83c6-066d093107cb","ios":"levelo://app?vid=3e7284f6-6b22-423f-83c6-066d093107cb"},"vehicle_type_id":"4","last_reported":1726233326,"current_range_meters":26000,"station_id":"ce4bgj92rcd13ifvqbe0","pricing_plan_id":"cebpf4jnsgd1na2vs0mg"},{"bike_id":"24b4c8e9-d289-4567-aef8-92547a60c36e","system_id":"levelo_inurba_marseille","lat":43.33608,"lon":5.4103,"is_reserved":false,"is_disabled":false,"rental_uris":{"android":"levelo://app?vid=24b4c8e9-d289-4567-aef8-92547a60c36e","ios":"levelo://app?vid=24b4c8e9-d289-4567-aef8-92547a60c36e"},"vehicle_type_id":"4","last_reported":1726233326,"current_range_meters":27600,"station_id":"ce4bhqh2rcd13ifvqhmg","pricing_plan_id":"cebpf4jnsgd1na2vs0mg"},{"bike_id":"39b86749-80ef-4310-953b-c60370086942","system_id":"levelo_inurba_marseille","lat":43.24545,"lon":5.39525,"is_reserved":false,"is_disabled":false,"rental_uris":{"android":"levelo://app?vid=39b86749-80ef-4310-953b-c60370086942","ios":"levelo://app?vid=39b86749-80ef-4310-953b-c60370086942"},"vehicle_type_id":"4","last_reported":1726233326,"current_range_meters":30400,"station_id":"ce4bhlp2rcd13ifvqgjg","pricing_plan_id":"cebpf4jnsgd1na2vs0mg"},{"bike_id":"6a8f2f10-9a94-4930-acf4-9d3abaa17531","system_id":"levelo_inurba_marseille","lat":43.25502,"lon":5.3765,"is_reserved":false,"is_disabled":false,"rental_uris":{"android":"levelo://app?vid=6a8f2f10-9a94-4930-acf4-9d3abaa17531","ios":"levelo://app?vid=6a8f2f10-9a94-4930-acf4-9d3abaa17531"},"vehicle_type_id":"4","last_reported":1726233326,"current_range_meters":36400,"station_id":"ce4bhh12rcd13ifvqff0","pricing_plan_id":"cebpf4jnsgd1na2vs0mg"},{"bike_id":"6e702bc1-92e5-4f81-974a-281cae37a1db","system_id":"levelo_inurba_marseille","lat":43.25581,"lon":5.38227,"is_reserved":false,"is_disabled":false,"rental_uris":{"android":"levelo://app?vid=6e702bc1-92e5-4f81-974a-281cae37a1db","ios":"levelo://app?vid=6e702bc1-92e5-4f81-974a-281cae37a1db"},"vehicle_type_id":"4","last_reported":1726233326,"current_range_meters":32800,"station_id":"ce4bhih2rcd13ifvqfs0","pricing_plan_id":"cebpf4jnsgd1na2vs0mg"},{"bike_id":"463a29c6-de5f-452d-8ad2-3526bf777173","system_id":"levelo_inurba_marseille","lat":43.30536,"lon":5.3654,"is_reserved":false,"is_disabled":false,"rental_uris":{"android":"levelo://app?vid=463a29c6-de5f-452d-8ad2-3526bf777173","ios":"levelo://app?vid=463a29c6-de5f-452d-8ad2-3526bf777173"},"vehicle_type_id":"4","last_reported":1726233326,"current_range_meters":40000,"station_id":"ce4bgs12rcd13ifvqcag","pricing_plan_id":"cebpf4jnsgd1na2vs0mg"},{"bike_id":"8cb3e149-39ae-4d66-b9b7-961d088e9fdc","system_id":"levelo_inurba_marseille","lat":43.32369,"lon":5.38882,"is_reserved":false,"is_disabled":false,"rental_uris":{"android":"levelo://app?vid=8cb3e149-39ae-4d66-b9b7-961d088e9fdc","ios":"levelo://app?vid=8cb3e149-39ae-4d66-b9b7-961d088e9fdc"},"vehicle_type_id":"4","last_reported":1726233326,"current_range_meters":36400,"station_id":"ce4bhqp2rcd13ifvqhog","pricing_plan_id":"cebpf4jnsgd1na2vs0mg"},{"bike_id":"acb4473c-f793-440a-9c76-0eca7b03c7c3","system_id":"levelo_inurba_marseille","lat":43.2766,"lon":5.38132,"is_reserved":false,"is_disabled":false,"rental_uris":{"android":"levelo://app?vid=acb4473c-f793-440a-9c76-0eca7b03c7c3","ios":"levelo://app?vid=acb4473c-f793-440a-9c76-0eca7b03c7c3"},"vehicle_type_id":"4","last_reported":1726233326,"current_range_meters":7200,"station_id":"","pricing_plan_id":"cebpf4jnsgd1na2vs0mg"},{"bike_id":"6dd56887-d476-45ba-8c76-5d6a0932fcb2","system_id":"levelo_inurba_marseille","lat":43.2927,"lon":5.38436,"is_reserved":false,"is_disabled":false,"rental_uris":{"android":"levelo://app?vid=6dd56887-d476-45ba-8c76-5d6a0932fcb2","ios":"levelo://app?vid=6dd56887-d476-45ba-8c76-5d6a0932fcb2"},"vehicle_type_id":"4","last_reported":1726233326,"current_range_meters":7200,"station_id":"ce4bh692rcd13ifvqea0","pricing_plan_id":"cebpf4jnsgd1na2vs0mg"},{"bike_id":"5cb60f37-03a3-4a06-8e33-a3da3e0454bb","system_id":"levelo_inurba_marseille","lat":43.24655,"lon":5.389,"is_reserved":false,"is_disabled":false,"rental_uris":{"android":"levelo://app?vid=5cb60f37-03a3-4a06-8e33-a3da3e0454bb","ios":"levelo://app?vid=5cb60f37-03a3-4a06-8e33-a3da3e0454bb"},"vehicle_type_id":"4","last_reported":1726233326,"current_range_meters":32800,"station_id":"ce4bhg12rcd13ifvqf60","pricing_plan_id":"cebpf4jnsgd1na2vs0mg"},{"bike_id":"eb805259-985d-4b05-95b9-070ebfd124e7","system_id":"levelo_inurba_marseille","lat":43.28152,"lon":5.42646,"is_reserved":false,"is_disabled":false,"rental_uris":{"android":"levelo://app?vid=eb805259-985d-4b05-95b9-070ebfd124e7","ios":"levelo://app?vid=eb805259-985d-4b05-95b9-070ebfd124e7"},"vehicle_type_id":"4","last_reported":1726233326,"current_range_meters":2000,"station_id":"ce4bhnh2rcd13ifvqgug","pricing_plan_id":"cebpf4jnsgd1na2vs0mg"},{"bike_id":"7fe44641-96c6-4f62-ae86-2fd623a98c93","system_id":"levelo_inurba_marseille","lat":43.295011,"lon":5.385966,"is_reserved":false,"is_disabled":false,"rental_uris":{"android":"levelo://app?vid=7fe44641-96c6-4f62-ae86-2fd623a98c93","ios":"levelo://app?vid=7fe44641-96c6-4f62-ae86-2fd623a98c93"},"vehicle_type_id":"4","last_reported":1726233326,"current_range_meters":30400,"station_id":"ce4bh2h2rcd13ifvqdh0","pricing_plan_id":"cebpf4jnsgd1na2vs0mg"},{"bike_id":"b83334be-a8f2-44d7-8539-af8c3b0ad309","system_id":"levelo_inurba_marseille","lat":43.30552,"lon":5.36541,"is_reserved":false,"is_disabled":false,"rental_uris":{"android":"levelo://app?vid=b83334be-a8f2-44d7-8539-af8c3b0ad309","ios":"levelo://app?vid=b83334be-a8f2-44d7-8539-af8c3b0ad309"},"vehicle_type_id":"4","last_reported":1726233326,"current_range_meters":34800,"station_id":"ce4bgs12rcd13ifvqcag","pricing_plan_id":"cebpf4jnsgd1na2vs0mg"},{"bike_id":"4067cf6c-6e3d-4ac9-99bf-c1b92b69f736","system_id":"levelo_inurba_marseille","lat":43.32476,"lon":5.36561,"is_reserved":false,"is_disabled":false,"rental_uris":{"android":"levelo://app?vid=4067cf6c-6e3d-4ac9-99bf-c1b92b69f736","ios":"levelo://app?vid=4067cf6c-6e3d-4ac9-99bf-c1b92b69f736"},"vehicle_type_id":"4","last_reported":1726233326,"current_range_meters":24400,"station_id":"ce4bhs12rcd13ifvqhvg","pricing_plan_id":"cebpf4jnsgd1na2vs0mg"},{"bike_id":"9a294201-177a-42e2-b4e6-ec74738f7951","system_id":"levelo_inurba_marseille","lat":43.2695,"lon":5.38645,"is_reserved":false,"is_disabled":false,"rental_uris":{"android":"levelo://app?vid=9a294201-177a-42e2-b4e6-ec74738f7951","ios":"levelo://app?vid=9a294201-177a-42e2-b4e6-ec74738f7951"},"vehicle_type_id":"4","last_reported":1726233326,"current_range_meters":38800,"station_id":"ce4bhh92rcd13ifvqfh0","pricing_plan_id":"cebpf4jnsgd1na2vs0mg"},{"bike_id":"de0c03fd-df53-4c90-bdc6-56641ff0a144","system_id":"levelo_inurba_marseille","lat":43.28425,"lon":5.34989,"is_reserved":false,"is_disabled":false,"rental_uris":{"android":"levelo://app?vid=de0c03fd-df53-4c90-bdc6-56641ff0a144","ios":"levelo://app?vid=de0c03fd-df53-4c90-bdc6-56641ff0a144"},"vehicle_type_id":"4","last_reported":1726233326,"current_range_meters":16000,"station_id":"ce4bhbh2rcd13ifvqepg","pricing_plan_id":"cebpf4jnsgd1na2vs0mg"},{"bike_id":"80541b0c-c109-46c5-bf0b-c7fd9ec52216","system_id":"levelo_inurba_marseille","lat":43.30556,"lon":5.3841,"is_reserved":false,"is_disabled":false,"rental_uris":{"android":"levelo://app?vid=80541b0c-c109-46c5-bf0b-c7fd9ec52216","ios":"levelo://app?vid=80541b0c-c109-46c5-bf0b-c7fd9ec52216"},"vehicle_type_id":"4","last_reported":1726233326,"current_range_meters":38800,"station_id":"ce4bgg92rcd13ifvqb30","pricing_plan_id":"cebpf4jnsgd1na2vs0mg"},{"bike_id":"eaf3218e-3b2a-4dde-9c15-99a6c4254e56","system_id":"levelo_inurba_marseille","lat":43.299,"lon":5.43657,"is_reserved":false,"is_disabled":false,"rental_uris":{"android":"levelo://app?vid=eaf3218e-3b2a-4dde-9c15-99a6c4254e56","ios":"levelo://app?vid=eaf3218e-3b2a-4dde-9c15-99a6c4254e56"},"vehicle_type_id":"4","last_reported":1726233326,"current_range_meters":38800,"station_id":"ce4bhpp2rcd13ifvqhfg","pricing_plan_id":"cebpf4jnsgd1na2vs0mg"},{"bike_id":"a91883c6-12d3-44ff-9d57-b07bc67fba09","system_id":"levelo_inurba_marseille","lat":43.30939,"lon":5.40142,"is_reserved":false,"is_disabled":false,"rental_uris":{"android":"levelo://app?vid=a91883c6-12d3-44ff-9d57-b07bc67fba09","ios":"levelo://app?vid=a91883c6-12d3-44ff-9d57-b07bc67fba09"},"vehicle_type_id":"4","last_reported":1726233326,"current_range_meters":36000,"station_id":"ce4bgvp2rcd13ifvqct0","pricing_plan_id":"cebpf4jnsgd1na2vs0mg"},{"bike_id":"88db3a1b-7722-48a5-a994-64dc5a73a8d6","system_id":"levelo_inurba_marseille","lat":43.31343,"lon":5.36708,"is_reserved":false,"is_disabled":false,"rental_uris":{"android":"levelo://app?vid=88db3a1b-7722-48a5-a994-64dc5a73a8d6","ios":"levelo://app?vid=88db3a1b-7722-48a5-a994-64dc5a73a8d6"},"vehicle_type_id":"4","last_reported":1726233326,"current_range_meters":33600,"station_id":"ce4bgr92rcd13ifvqc6g","pricing_plan_id":"cebpf4jnsgd1na2vs0mg"},{"bike_id":"6dfe49f4-83e2-40d0-8865-0920a4415a17","system_id":"levelo_inurba_marseille","lat":43.29686,"lon":5.377,"is_reserved":false,"is_disabled":false,"rental_uris":{"android":"levelo://app?vid=6dfe49f4-83e2-40d0-8865-0920a4415a17","ios":"levelo://app?vid=6dfe49f4-83e2-40d0-8865-0920a4415a17"},"vehicle_type_id":"4","last_reported":1726233326,"current_range_meters":38800,"station_id":"ce4bgkh2rcd13ifvqbl0","pricing_plan_id":"cebpf4jnsgd1na2vs0mg"},{"bike_id":"0ea99d89-f29c-4e54-9766-bdcd2d65271c","system_id":"levelo_inurba_marseille","lat":43.22936,"lon":5.35375,"is_reserved":false,"is_disabled":false,"rental_uris":{"android":"levelo://app?vid=0ea99d89-f29c-4e54-9766-bdcd2d65271c","ios":"levelo://app?vid=0ea99d89-f29c-4e54-9766-bdcd2d65271c"},"vehicle_type_id":"4","last_reported":1726233326,"current_range_meters":27600,"station_id":"cpo3532slgdg3j2ikp40","pricing_plan_id":"cebpf4jnsgd1na2vs0mg"},{"bike_id":"ba81e19a-02db-4df6-ba4c-045bfb8f6f7d","system_id":"levelo_inurba_marseille","lat":43.30532,"lon":5.36537,"is_reserved":false,"is_disabled":false,"rental_uris":{"android":"levelo://app?vid=ba81e19a-02db-4df6-ba4c-045bfb8f6f7d","ios":"levelo://app?vid=ba81e19a-02db-4df6-ba4c-045bfb8f6f7d"},"vehicle_type_id":"4","last_reported":1726233326,"current_range_meters":40000,"station_id":"ce4bgs12rcd13ifvqcag","pricing_plan_id":"cebpf4jnsgd1na2vs0mg"},{"bike_id":"a9666f7c-f231-48c0-8103-a4acac2f2757","system_id":"levelo_inurba_marseille","lat":43.28108,"lon":5.3783,"is_reserved":false,"is_disabled":false,"rental_uris":{"android":"levelo://app?vid=a9666f7c-f231-48c0-8103-a4acac2f2757","ios":"levelo://app?vid=a9666f7c-f231-48c0-8103-a4acac2f2757"},"vehicle_type_id":"4","last_reported":1726233326,"current_range_meters":10000,"station_id":"ce4bha12rcd13ifvqee0","pricing_plan_id":"cebpf4jnsgd1na2vs0mg"},{"bike_id":"da752d37-08d6-4594-a91f-f2daa05620f5","system_id":"levelo_inurba_marseille","lat":43.24653,"lon":5.38892,"is_reserved":false,"is_disabled":false,"rental_uris":{"android":"levelo://app?vid=da752d37-08d6-4594-a91f-f2daa05620f5","ios":"levelo://app?vid=da752d37-08d6-4594-a91f-f2daa05620f5"},"vehicle_type_id":"4","last_reported":1726233326,"current_range_meters":23200,"station_id":"ce4bhg12rcd13ifvqf60","pricing_plan_id":"cebpf4jnsgd1na2vs0mg"},{"bike_id":"9af21871-9438-4cdf-9787-d7c2fb2c2d7f","system_id":"levelo_inurba_marseille","lat":43.2862,"lon":5.35107,"is_reserved":false,"is_disabled":false,"rental_uris":{"android":"levelo://app?vid=9af21871-9438-4cdf-9787-d7c2fb2c2d7f","ios":"levelo://app?vid=9af21871-9438-4cdf-9787-d7c2fb2c2d7f"},"vehicle_type_id":"4","last_reported":1726233326,"current_range_meters":12000,"station_id":"ce4bhch2rcd13ifvqeug","pricing_plan_id":"cebpf4jnsgd1na2vs0mg"},{"bike_id":"e49093f7-6383-4e7f-9f16-cb91fa6cb74b","system_id":"levelo_inurba_marseille","lat":43.25002,"lon":5.38926,"is_reserved":false,"is_disabled":false,"rental_uris":{"android":"levelo://app?vid=e49093f7-6383-4e7f-9f16-cb91fa6cb74b","ios":"levelo://app?vid=e49093f7-6383-4e7f-9f16-cb91fa6cb74b"},"vehicle_type_id":"4","last_reported":1726233326,"current_range_meters":26800,"station_id":"ce4bhgp2rcd13ifvqfd0","pricing_plan_id":"cebpf4jnsgd1na2vs0mg"},{"bike_id":"f5d80230-6671-4c19-998a-9bc8d3d47824","system_id":"levelo_inurba_marseille","lat":43.29004,"lon":5.35607,"is_reserved":false,"is_disabled":false,"rental_uris":{"android":"levelo://app?vid=f5d80230-6671-4c19-998a-9bc8d3d47824","ios":"levelo://app?vid=f5d80230-6671-4c19-998a-9bc8d3d47824"},"vehicle_type_id":"4","last_reported":1726233326,"current_range_meters":39200,"station_id":"ce4bhb92rcd13ifvqen0","pricing_plan_id":"cebpf4jnsgd1na2vs0mg"},{"bike_id":"7407a963-cf6f-4d39-b6c0-6f17363f367b","system_id":"levelo_inurba_marseille","lat":43.24663,"lon":5.38166,"is_reserved":false,"is_disabled":false,"rental_uris":{"android":"levelo://app?vid=7407a963-cf6f-4d39-b6c0-6f17363f367b","ios":"levelo://app?vid=7407a963-cf6f-4d39-b6c0-6f17363f367b"},"vehicle_type_id":"4","last_reported":1726233326,"current_range_meters":28000,"station_id":"ce4bhih2rcd13ifvqfr0","pricing_plan_id":"cebpf4jnsgd1na2vs0mg"},{"bike_id":"8764129a-9b8d-4490-a1c9-f9fa60b4a560","system_id":"levelo_inurba_marseille","lat":43.33609,"lon":5.41028,"is_reserved":false,"is_disabled":false,"rental_uris":{"android":"levelo://app?vid=8764129a-9b8d-4490-a1c9-f9fa60b4a560","ios":"levelo://app?vid=8764129a-9b8d-4490-a1c9-f9fa60b4a560"},"vehicle_type_id":"4","last_reported":1726233326,"current_range_meters":38800,"station_id":"ce4bhqh2rcd13ifvqhmg","pricing_plan_id":"cebpf4jnsgd1na2vs0mg"},{"bike_id":"3bbf0c6f-01ad-4bc3-a6b8-ec287505f254","system_id":"levelo_inurba_marseille","lat":43.28941,"lon":5.36388,"is_reserved":false,"is_disabled":false,"rental_uris":{"android":"levelo://app?vid=3bbf0c6f-01ad-4bc3-a6b8-ec287505f254","ios":"levelo://app?vid=3bbf0c6f-01ad-4bc3-a6b8-ec287505f254"},"vehicle_type_id":"4","last_reported":1726233326,"current_range_meters":17600,"station_id":"ce4bhc92rcd13ifvqetg","pricing_plan_id":"cebpf4jnsgd1na2vs0mg"},{"bike_id":"96cb29cb-8da1-4dd6-bd35-ee190827a973","system_id":"levelo_inurba_marseille","lat":43.26556,"lon":5.37285,"is_reserved":false,"is_disabled":false,"rental_uris":{"android":"levelo://app?vid=96cb29cb-8da1-4dd6-bd35-ee190827a973","ios":"levelo://app?vid=96cb29cb-8da1-4dd6-bd35-ee190827a973"},"vehicle_type_id":"4","last_reported":1726233326,"current_range_meters":6400,"station_id":"ce4bhg12rcd13ifvqf70","pricing_plan_id":"cebpf4jnsgd1na2vs0mg"},{"bike_id":"3539f0be-afab-492b-864e-85f37c26cb62","system_id":"levelo_inurba_marseille","lat":43.28722,"lon":5.37944,"is_reserved":false,"is_disabled":false,"rental_uris":{"android":"levelo://app?vid=3539f0be-afab-492b-864e-85f37c26cb62","ios":"levelo://app?vid=3539f0be-afab-492b-864e-85f37c26cb62"},"vehicle_type_id":"4","last_reported":1726233326,"current_range_meters":25600,"station_id":"ce4bh9p2rcd13ifvqec0","pricing_plan_id":"cebpf4jnsgd1na2vs0mg"},{"bike_id":"3d0be373-de2e-4082-893a-54f0b6f55849","system_id":"levelo_inurba_marseille","lat":43.25935,"lon":5.40916,"is_reserved":false,"is_disabled":false,"rental_uris":{"android":"levelo://app?vid=3d0be373-de2e-4082-893a-54f0b6f55849","ios":"levelo://app?vid=3d0be373-de2e-4082-893a-54f0b6f55849"},"vehicle_type_id":"4","last_reported":1726233326,"current_range_meters":31200,"station_id":"ce4bhm92rcd13ifvqglg","pricing_plan_id":"cebpf4jnsgd1na2vs0mg"},{"bike_id":"9b49fc06-69dc-4375-9bc8-2ab31283d424","system_id":"levelo_inurba_marseille","lat":43.29904,"lon":5.43665,"is_reserved":false,"is_disabled":false,"rental_uris":{"android":"levelo://app?vid=9b49fc06-69dc-4375-9bc8-2ab31283d424","ios":"levelo://app?vid=9b49fc06-69dc-4375-9bc8-2ab31283d424"},"vehicle_type_id":"4","last_reported":1726233326,"current_range_meters":37600,"station_id":"ce4bhpp2rcd13ifvqhfg","pricing_plan_id":"cebpf4jnsgd1na2vs0mg"},{"bike_id":"9cb8ebcf-fcc8-475a-a508-7661cb8965c1","system_id":"levelo_inurba_marseille","lat":43.26572,"lon":5.39009,"is_reserved":false,"is_disabled":false,"rental_uris":{"android":"levelo://app?vid=9cb8ebcf-fcc8-475a-a508-7661cb8965c1","ios":"levelo://app?vid=9cb8ebcf-fcc8-475a-a508-7661cb8965c1"},"vehicle_type_id":"4","last_reported":1726233326,"current_range_meters":14400,"station_id":"ce4bhe12rcd13ifvqf30","pricing_plan_id":"cebpf4jnsgd1na2vs0mg"},{"bike_id":"5ec98b49-1cbc-448a-967c-10e4d3cc5e69","system_id":"levelo_inurba_marseille","lat":43.26064,"lon":5.39392,"is_reserved":false,"is_disabled":false,"rental_uris":{"android":"levelo://app?vid=5ec98b49-1cbc-448a-967c-10e4d3cc5e69","ios":"levelo://app?vid=5ec98b49-1cbc-448a-967c-10e4d3cc5e69"},"vehicle_type_id":"4","last_reported":1726233326,"current_range_meters":28000,"station_id":"ce4bhh92rcd13ifvqfj0","pricing_plan_id":"cebpf4jnsgd1na2vs0mg"},{"bike_id":"ddccb5e1-f797-4c86-928a-820872f0e7ad","system_id":"levelo_inurba_marseille","lat":43.23155,"lon":5.43703,"is_reserved":false,"is_disabled":false,"rental_uris":{"android":"levelo://app?vid=ddccb5e1-f797-4c86-928a-820872f0e7ad","ios":"levelo://app?vid=ddccb5e1-f797-4c86-928a-820872f0e7ad"},"vehicle_type_id":"4","last_reported":1726233326,"current_range_meters":8400,"station_id":"ce4bhmp2rcd13ifvqgog","pricing_plan_id":"cebpf4jnsgd1na2vs0mg"},{"bike_id":"06a47742-72d4-4edf-a172-1d3b90a6e773","system_id":"levelo_inurba_marseille","lat":43.27984,"lon":5.38753,"is_reserved":false,"is_disabled":false,"rental_uris":{"android":"levelo://app?vid=06a47742-72d4-4edf-a172-1d3b90a6e773","ios":"levelo://app?vid=06a47742-72d4-4edf-a172-1d3b90a6e773"},"vehicle_type_id":"4","last_reported":1726233326,"current_range_meters":18800,"station_id":"ce4bhg12rcd13ifvqf80","pricing_plan_id":"cebpf4jnsgd1na2vs0mg"},{"bike_id":"becf8cdd-7049-41cc-8a05-6a37cdf30939","system_id":"levelo_inurba_marseille","lat":43.27575,"lon":5.3843,"is_reserved":false,"is_disabled":false,"rental_uris":{"android":"levelo://app?vid=becf8cdd-7049-41cc-8a05-6a37cdf30939","ios":"levelo://app?vid=becf8cdd-7049-41cc-8a05-6a37cdf30939"},"vehicle_type_id":"4","last_reported":1726233326,"current_range_meters":28800,"station_id":"ce4bhh92rcd13ifvqfi0","pricing_plan_id":"cebpf4jnsgd1na2vs0mg"},{"bike_id":"8cd504bb-7ccc-41c6-a736-850a175d54b9","system_id":"levelo_inurba_marseille","lat":43.28424,"lon":5.34993,"is_reserved":false,"is_disabled":false,"rental_uris":{"android":"levelo://app?vid=8cd504bb-7ccc-41c6-a736-850a175d54b9","ios":"levelo://app?vid=8cd504bb-7ccc-41c6-a736-850a175d54b9"},"vehicle_type_id":"4","last_reported":1726233326,"current_range_meters":29600,"station_id":"ce4bhbh2rcd13ifvqepg","pricing_plan_id":"cebpf4jnsgd1na2vs0mg"},{"bike_id":"1b01ab5d-5379-4ac8-8e00-e0e84ff0547c","system_id":"levelo_inurba_marseille","lat":43.30269,"lon":5.37696,"is_reserved":false,"is_disabled":false,"rental_uris":{"android":"levelo://app?vid=1b01ab5d-5379-4ac8-8e00-e0e84ff0547c","ios":"levelo://app?vid=1b01ab5d-5379-4ac8-8e00-e0e84ff0547c"},"vehicle_type_id":"4","last_reported":1726233326,"current_range_meters":30000,"station_id":"ce4bguh2rcd13ifvqcj0","pricing_plan_id":"cebpf4jnsgd1na2vs0mg"},{"bike_id":"a462c5c7-db76-4a28-9f54-599566284cc6","system_id":"levelo_inurba_marseille","lat":43.29196,"lon":5.39314,"is_reserved":false,"is_disabled":false,"rental_uris":{"android":"levelo://app?vid=a462c5c7-db76-4a28-9f54-599566284cc6","ios":"levelo://app?vid=a462c5c7-db76-4a28-9f54-599566284cc6"},"vehicle_type_id":"4","last_reported":1726233326,"current_range_meters":25600,"station_id":"ce4bh192rcd13ifvqdd0","pricing_plan_id":"cebpf4jnsgd1na2vs0mg"},{"bike_id":"46d70e9c-49ee-440a-a92c-d8b60775e17c","system_id":"levelo_inurba_marseille","lat":43.27425,"lon":5.39418,"is_reserved":false,"is_disabled":false,"rental_uris":{"android":"levelo://app?vid=46d70e9c-49ee-440a-a92c-d8b60775e17c","ios":"levelo://app?vid=46d70e9c-49ee-440a-a92c-d8b60775e17c"},"vehicle_type_id":"4","last_reported":1726233326,"current_range_meters":8800,"station_id":"ce4bhdp2rcd13ifvqf20","pricing_plan_id":"cebpf4jnsgd1na2vs0mg"},{"bike_id":"2fbe59be-967c-4f3f-b5eb-2a3f8b0b8fb5","system_id":"levelo_inurba_marseille","lat":43.27491,"lon":5.42458,"is_reserved":false,"is_disabled":false,"rental_uris":{"android":"levelo://app?vid=2fbe59be-967c-4f3f-b5eb-2a3f8b0b8fb5","ios":"levelo://app?vid=2fbe59be-967c-4f3f-b5eb-2a3f8b0b8fb5"},"vehicle_type_id":"4","last_reported":1726233326,"current_range_meters":35600,"station_id":"ce4bhn92rcd13ifvqgrg","pricing_plan_id":"cebpf4jnsgd1na2vs0mg"},{"bike_id":"a2065f96-47d3-4a85-be06-4c0f1ffbde51","system_id":"levelo_inurba_marseille","lat":43.26065,"lon":5.39395,"is_reserved":false,"is_disabled":false,"rental_uris":{"android":"levelo://app?vid=a2065f96-47d3-4a85-be06-4c0f1ffbde51","ios":"levelo://app?vid=a2065f96-47d3-4a85-be06-4c0f1ffbde51"},"vehicle_type_id":"4","last_reported":1726233326,"current_range_meters":8800,"station_id":"ce4bhh92rcd13ifvqfj0","pricing_plan_id":"cebpf4jnsgd1na2vs0mg"},{"bike_id":"79b7950d-90c8-4e3c-a243-1a31b18cd68e","system_id":"levelo_inurba_marseille","lat":43.2396,"lon":5.36648,"is_reserved":false,"is_disabled":false,"rental_uris":{"android":"levelo://app?vid=79b7950d-90c8-4e3c-a243-1a31b18cd68e","ios":"levelo://app?vid=79b7950d-90c8-4e3c-a243-1a31b18cd68e"},"vehicle_type_id":"4","last_reported":1726233326,"current_range_meters":10800,"station_id":"ce4bhi12rcd13ifvqfp0","pricing_plan_id":"cebpf4jnsgd1na2vs0mg"},{"bike_id":"72b517d2-6987-46d8-857e-779bc7604f01","system_id":"levelo_inurba_marseille","lat":43.26028,"lon":5.37551,"is_reserved":false,"is_disabled":false,"rental_uris":{"android":"levelo://app?vid=72b517d2-6987-46d8-857e-779bc7604f01","ios":"levelo://app?vid=72b517d2-6987-46d8-857e-779bc7604f01"},"vehicle_type_id":"4","last_reported":1726233326,"current_range_meters":19600,"station_id":"ce4bhgh2rcd13ifvqfa0","pricing_plan_id":"cebpf4jnsgd1na2vs0mg"},{"bike_id":"baa4bb8b-fadd-4fff-a6bc-b91afb334c06","system_id":"levelo_inurba_marseille","lat":43.309052,"lon":5.368347,"is_reserved":false,"is_disabled":false,"rental_uris":{"android":"levelo://app?vid=baa4bb8b-fadd-4fff-a6bc-b91afb334c06","ios":"levelo://app?vid=baa4bb8b-fadd-4fff-a6bc-b91afb334c06"},"vehicle_type_id":"4","last_reported":1726233326,"current_range_meters":13600,"station_id":"ce4bgn92rcd13ifvqbvg","pricing_plan_id":"cebpf4jnsgd1na2vs0mg"},{"bike_id":"2c4577b3-3689-495e-a3c3-a78eafd4dc43","system_id":"levelo_inurba_marseille","lat":43.26553,"lon":5.37285,"is_reserved":false,"is_disabled":false,"rental_uris":{"android":"levelo://app?vid=2c4577b3-3689-495e-a3c3-a78eafd4dc43","ios":"levelo://app?vid=2c4577b3-3689-495e-a3c3-a78eafd4dc43"},"vehicle_type_id":"4","last_reported":1726233326,"current_range_meters":27600,"station_id":"ce4bhg12rcd13ifvqf70","pricing_plan_id":"cebpf4jnsgd1na2vs0mg"},{"bike_id":"5808faf6-9bd9-4730-8859-0718e969bfc3","system_id":"levelo_inurba_marseille","lat":43.30554,"lon":5.36536,"is_reserved":false,"is_disabled":false,"rental_uris":{"android":"levelo://app?vid=5808faf6-9bd9-4730-8859-0718e969bfc3","ios":"levelo://app?vid=5808faf6-9bd9-4730-8859-0718e969bfc3"},"vehicle_type_id":"4","last_reported":1726233326,"current_range_meters":38800,"station_id":"ce4bgs12rcd13ifvqcag","pricing_plan_id":"cebpf4jnsgd1na2vs0mg"},{"bike_id":"5b3faf9d-8f29-4688-9e76-bd3226ec0b7b","system_id":"levelo_inurba_marseille","lat":43.337444,"lon":5.374475,"is_reserved":false,"is_disabled":false,"rental_uris":{"android":"levelo://app?vid=5b3faf9d-8f29-4688-9e76-bd3226ec0b7b","ios":"levelo://app?vid=5b3faf9d-8f29-4688-9e76-bd3226ec0b7b"},"vehicle_type_id":"4","last_reported":1726233326,"current_range_meters":25600,"station_id":"ce4bgj92rcd13ifvqbd0","pricing_plan_id":"cebpf4jnsgd1na2vs0mg"},{"bike_id":"67a287be-50cc-46dc-ac8b-4e874da66d33","system_id":"levelo_inurba_marseille","lat":43.29795,"lon":5.38092,"is_reserved":false,"is_disabled":false,"rental_uris":{"android":"levelo://app?vid=67a287be-50cc-46dc-ac8b-4e874da66d33","ios":"levelo://app?vid=67a287be-50cc-46dc-ac8b-4e874da66d33"},"vehicle_type_id":"4","last_reported":1726233326,"current_range_meters":32400,"station_id":"ce4bgip2rcd13ifvqbb0","pricing_plan_id":"cebpf4jnsgd1na2vs0mg"},{"bike_id":"60d5bda9-f640-405a-935d-62d1314e50fa","system_id":"levelo_inurba_marseille","lat":43.2397,"lon":5.36625,"is_reserved":false,"is_disabled":false,"rental_uris":{"android":"levelo://app?vid=60d5bda9-f640-405a-935d-62d1314e50fa","ios":"levelo://app?vid=60d5bda9-f640-405a-935d-62d1314e50fa"},"vehicle_type_id":"4","last_reported":1726233326,"current_range_meters":27200,"station_id":"ce4bhi12rcd13ifvqfp0","pricing_plan_id":"cebpf4jnsgd1na2vs0mg"},{"bike_id":"bd2ce2e0-f8d9-4e30-a205-2f074a8614dd","system_id":"levelo_inurba_marseille","lat":43.26945,"lon":5.38635,"is_reserved":false,"is_disabled":false,"rental_uris":{"android":"levelo://app?vid=bd2ce2e0-f8d9-4e30-a205-2f074a8614dd","ios":"levelo://app?vid=bd2ce2e0-f8d9-4e30-a205-2f074a8614dd"},"vehicle_type_id":"4","last_reported":1726233326,"current_range_meters":22400,"station_id":"ce4bhh92rcd13ifvqfh0","pricing_plan_id":"cebpf4jnsgd1na2vs0mg"},{"bike_id":"b27ccadd-fb46-42c9-bf72-8014a1042a8f","system_id":"levelo_inurba_marseille","lat":43.23147,"lon":5.43719,"is_reserved":false,"is_disabled":false,"rental_uris":{"android":"levelo://app?vid=b27ccadd-fb46-42c9-bf72-8014a1042a8f","ios":"levelo://app?vid=b27ccadd-fb46-42c9-bf72-8014a1042a8f"},"vehicle_type_id":"4","last_reported":1726233326,"current_range_meters":10000,"station_id":"ce4bhmp2rcd13ifvqgog","pricing_plan_id":"cebpf4jnsgd1na2vs0mg"},{"bike_id":"4f0ea37a-15ba-4240-b0fa-68e3874bc062","system_id":"levelo_inurba_marseille","lat":43.24996,"lon":5.38934,"is_reserved":false,"is_disabled":false,"rental_uris":{"android":"levelo://app?vid=4f0ea37a-15ba-4240-b0fa-68e3874bc062","ios":"levelo://app?vid=4f0ea37a-15ba-4240-b0fa-68e3874bc062"},"vehicle_type_id":"4","last_reported":1726233326,"current_range_meters":6400,"station_id":"ce4bhgp2rcd13ifvqfd0","pricing_plan_id":"cebpf4jnsgd1na2vs0mg"},{"bike_id":"cb02a5b8-37c0-4e8a-be67-13bf6e9421ba","system_id":"levelo_inurba_marseille","lat":43.308841,"lon":5.396582,"is_reserved":false,"is_disabled":false,"rental_uris":{"android":"levelo://app?vid=cb02a5b8-37c0-4e8a-be67-13bf6e9421ba","ios":"levelo://app?vid=cb02a5b8-37c0-4e8a-be67-13bf6e9421ba"},"vehicle_type_id":"4","last_reported":1726233326,"current_range_meters":24800,"station_id":"ce4bgkh2rcd13ifvqbl0","pricing_plan_id":"cebpf4jnsgd1na2vs0mg"},{"bike_id":"e5754da7-b4f3-4d9a-a15c-87d3b297e926","system_id":"levelo_inurba_marseille","lat":43.29601,"lon":5.38098,"is_reserved":false,"is_disabled":false,"rental_uris":{"android":"levelo://app?vid=e5754da7-b4f3-4d9a-a15c-87d3b297e926","ios":"levelo://app?vid=e5754da7-b4f3-4d9a-a15c-87d3b297e926"},"vehicle_type_id":"4","last_reported":1726233326,"current_range_meters":38800,"station_id":"ce4bgl12rcd13ifvqbo0","pricing_plan_id":"cebpf4jnsgd1na2vs0mg"},{"bike_id":"c61b49d7-8c8f-4d56-9187-d7249896e6d8","system_id":"levelo_inurba_marseille","lat":43.23154,"lon":5.43699,"is_reserved":false,"is_disabled":false,"rental_uris":{"android":"levelo://app?vid=c61b49d7-8c8f-4d56-9187-d7249896e6d8","ios":"levelo://app?vid=c61b49d7-8c8f-4d56-9187-d7249896e6d8"},"vehicle_type_id":"4","last_reported":1726233326,"current_range_meters":38800,"station_id":"ce4bhmp2rcd13ifvqgog","pricing_plan_id":"cebpf4jnsgd1na2vs0mg"},{"bike_id":"b09c33f1-211c-4401-9c5f-be63fa7524f7","system_id":"levelo_inurba_marseille","lat":43.23152,"lon":5.43704,"is_reserved":false,"is_disabled":false,"rental_uris":{"android":"levelo://app?vid=b09c33f1-211c-4401-9c5f-be63fa7524f7","ios":"levelo://app?vid=b09c33f1-211c-4401-9c5f-be63fa7524f7"},"vehicle_type_id":"4","last_reported":1726233326,"current_range_meters":26800,"station_id":"ce4bhmp2rcd13ifvqgog","pricing_plan_id":"cebpf4jnsgd1na2vs0mg"},{"bike_id":"aa4e8f1d-9407-485a-87ff-f80b98af6f87","system_id":"levelo_inurba_marseille","lat":43.32487,"lon":5.36563,"is_reserved":false,"is_disabled":false,"rental_uris":{"android":"levelo://app?vid=aa4e8f1d-9407-485a-87ff-f80b98af6f87","ios":"levelo://app?vid=aa4e8f1d-9407-485a-87ff-f80b98af6f87"},"vehicle_type_id":"4","last_reported":1726233326,"current_range_meters":11600,"station_id":"ce4bhs12rcd13ifvqhvg","pricing_plan_id":"cebpf4jnsgd1na2vs0mg"},{"bike_id":"dad5cc65-3730-45e6-8b77-f321112ef66b","system_id":"levelo_inurba_marseille","lat":43.292751,"lon":5.384596,"is_reserved":false,"is_disabled":false,"rental_uris":{"android":"levelo://app?vid=dad5cc65-3730-45e6-8b77-f321112ef66b","ios":"levelo://app?vid=dad5cc65-3730-45e6-8b77-f321112ef66b"},"vehicle_type_id":"4","last_reported":1726233326,"current_range_meters":30400,"station_id":"","pricing_plan_id":"cebpf4jnsgd1na2vs0mg"},{"bike_id":"2d9f6a36-1e8d-46ce-8819-b2bb04006d43","system_id":"levelo_inurba_marseille","lat":43.25584,"lon":5.38213,"is_reserved":false,"is_disabled":false,"rental_uris":{"android":"levelo://app?vid=2d9f6a36-1e8d-46ce-8819-b2bb04006d43","ios":"levelo://app?vid=2d9f6a36-1e8d-46ce-8819-b2bb04006d43"},"vehicle_type_id":"4","last_reported":1726233326,"current_range_meters":30000,"station_id":"ce4bhih2rcd13ifvqfs0","pricing_plan_id":"cebpf4jnsgd1na2vs0mg"},{"bike_id":"d62e1434-dfc4-4934-810c-ea7e62e20781","system_id":"levelo_inurba_marseille","lat":43.2894,"lon":5.36629,"is_reserved":false,"is_disabled":false,"rental_uris":{"android":"levelo://app?vid=d62e1434-dfc4-4934-810c-ea7e62e20781","ios":"levelo://app?vid=d62e1434-dfc4-4934-810c-ea7e62e20781"},"vehicle_type_id":"4","last_reported":1726233326,"current_range_meters":30800,"station_id":"ce4bhap2rcd13ifvqek0","pricing_plan_id":"cebpf4jnsgd1na2vs0mg"},{"bike_id":"aaf70cdf-ca22-4512-9da8-7d09f70d6b21","system_id":"levelo_inurba_marseille","lat":43.28378,"lon":5.3865,"is_reserved":false,"is_disabled":false,"rental_uris":{"android":"levelo://app?vid=aaf70cdf-ca22-4512-9da8-7d09f70d6b21","ios":"levelo://app?vid=aaf70cdf-ca22-4512-9da8-7d09f70d6b21"},"vehicle_type_id":"4","last_reported":1726233326,"current_range_meters":28800,"station_id":"ce4bh492rcd13ifvqdvg","pricing_plan_id":"cebpf4jnsgd1na2vs0mg"},{"bike_id":"b813df6d-55c7-4232-a7cf-5471bf083c81","system_id":"levelo_inurba_marseille","lat":43.303162,"lon":5.368877,"is_reserved":false,"is_disabled":false,"rental_uris":{"android":"levelo://app?vid=b813df6d-55c7-4232-a7cf-5471bf083c81","ios":"levelo://app?vid=b813df6d-55c7-4232-a7cf-5471bf083c81"},"vehicle_type_id":"4","last_reported":1726233326,"current_range_meters":16400,"station_id":"ce4bgqh2rcd13ifvqc5g","pricing_plan_id":"cebpf4jnsgd1na2vs0mg"},{"bike_id":"e62c8c71-b14f-4c94-8aa4-e0afcaaf93b6","system_id":"levelo_inurba_marseille","lat":43.24816,"lon":5.37461,"is_reserved":false,"is_disabled":false,"rental_uris":{"android":"levelo://app?vid=e62c8c71-b14f-4c94-8aa4-e0afcaaf93b6","ios":"levelo://app?vid=e62c8c71-b14f-4c94-8aa4-e0afcaaf93b6"},"vehicle_type_id":"4","last_reported":1726233326,"current_range_meters":32000,"station_id":"ce4bhgh2rcd13ifvqfb0","pricing_plan_id":"cebpf4jnsgd1na2vs0mg"},{"bike_id":"17e16d80-9ddf-4022-8403-1bf0defb4b3e","system_id":"levelo_inurba_marseille","lat":43.30146,"lon":5.37423,"is_reserved":false,"is_disabled":false,"rental_uris":{"android":"levelo://app?vid=17e16d80-9ddf-4022-8403-1bf0defb4b3e","ios":"levelo://app?vid=17e16d80-9ddf-4022-8403-1bf0defb4b3e"},"vehicle_type_id":"4","last_reported":1726233326,"current_range_meters":39200,"station_id":"ce4bgs92rcd13ifvqcc0","pricing_plan_id":"cebpf4jnsgd1na2vs0mg"},{"bike_id":"9e955087-931f-42c6-a5de-4480d9f0a58c","system_id":"levelo_inurba_marseille","lat":43.32482,"lon":5.36567,"is_reserved":false,"is_disabled":false,"rental_uris":{"android":"levelo://app?vid=9e955087-931f-42c6-a5de-4480d9f0a58c","ios":"levelo://app?vid=9e955087-931f-42c6-a5de-4480d9f0a58c"},"vehicle_type_id":"4","last_reported":1726233326,"current_range_meters":27200,"station_id":"ce4bhs12rcd13ifvqhvg","pricing_plan_id":"cebpf4jnsgd1na2vs0mg"},{"bike_id":"1cfb70bb-aa1a-46ef-bd21-b0675e69ec63","system_id":"levelo_inurba_marseille","lat":43.2693,"lon":5.3892,"is_reserved":false,"is_disabled":false,"rental_uris":{"android":"levelo://app?vid=1cfb70bb-aa1a-46ef-bd21-b0675e69ec63","ios":"levelo://app?vid=1cfb70bb-aa1a-46ef-bd21-b0675e69ec63"},"vehicle_type_id":"4","last_reported":1726233326,"current_range_meters":38400,"station_id":"ce4bhhh2rcd13ifvqfl0","pricing_plan_id":"cebpf4jnsgd1na2vs0mg"},{"bike_id":"69b26a0b-db83-4395-8ee1-1e784091ffad","system_id":"levelo_inurba_marseille","lat":43.23145,"lon":5.43715,"is_reserved":false,"is_disabled":false,"rental_uris":{"android":"levelo://app?vid=69b26a0b-db83-4395-8ee1-1e784091ffad","ios":"levelo://app?vid=69b26a0b-db83-4395-8ee1-1e784091ffad"},"vehicle_type_id":"4","last_reported":1726233326,"current_range_meters":38800,"station_id":"ce4bhmp2rcd13ifvqgog","pricing_plan_id":"cebpf4jnsgd1na2vs0mg"},{"bike_id":"893aa360-c841-40e1-bdb8-2f59f2d295c9","system_id":"levelo_inurba_marseille","lat":43.30146,"lon":5.3742,"is_reserved":false,"is_disabled":false,"rental_uris":{"android":"levelo://app?vid=893aa360-c841-40e1-bdb8-2f59f2d295c9","ios":"levelo://app?vid=893aa360-c841-40e1-bdb8-2f59f2d295c9"},"vehicle_type_id":"4","last_reported":1726233326,"current_range_meters":28000,"station_id":"ce4bgs92rcd13ifvqcc0","pricing_plan_id":"cebpf4jnsgd1na2vs0mg"},{"bike_id":"655b4797-dc8d-49a1-8610-fcd415671ad9","system_id":"levelo_inurba_marseille","lat":43.33602,"lon":5.41034,"is_reserved":false,"is_disabled":false,"rental_uris":{"android":"levelo://app?vid=655b4797-dc8d-49a1-8610-fcd415671ad9","ios":"levelo://app?vid=655b4797-dc8d-49a1-8610-fcd415671ad9"},"vehicle_type_id":"4","last_reported":1726233326,"current_range_meters":38800,"station_id":"ce4bhqh2rcd13ifvqhmg","pricing_plan_id":"cebpf4jnsgd1na2vs0mg"},{"bike_id":"89f52e50-6b50-4586-86fd-31a3522a1f60","system_id":"levelo_inurba_marseille","lat":43.29264,"lon":5.36851,"is_reserved":false,"is_disabled":false,"rental_uris":{"android":"levelo://app?vid=89f52e50-6b50-4586-86fd-31a3522a1f60","ios":"levelo://app?vid=89f52e50-6b50-4586-86fd-31a3522a1f60"},"vehicle_type_id":"4","last_reported":1726233326,"current_range_meters":20400,"station_id":"ce4bhbp2rcd13ifvqesg","pricing_plan_id":"cebpf4jnsgd1na2vs0mg"},{"bike_id":"848e4701-faff-4bd9-9f92-ca534abc7b7f","system_id":"levelo_inurba_marseille","lat":43.28938,"lon":5.36629,"is_reserved":false,"is_disabled":false,"rental_uris":{"android":"levelo://app?vid=848e4701-faff-4bd9-9f92-ca534abc7b7f","ios":"levelo://app?vid=848e4701-faff-4bd9-9f92-ca534abc7b7f"},"vehicle_type_id":"4","last_reported":1726233326,"current_range_meters":36000,"station_id":"ce4bhap2rcd13ifvqek0","pricing_plan_id":"cebpf4jnsgd1na2vs0mg"},{"bike_id":"d5ba26f7-2569-4fd9-9bd3-df5033365bb0","system_id":"levelo_inurba_marseille","lat":43.28847,"lon":5.393143,"is_reserved":false,"is_disabled":false,"rental_uris":{"android":"levelo://app?vid=d5ba26f7-2569-4fd9-9bd3-df5033365bb0","ios":"levelo://app?vid=d5ba26f7-2569-4fd9-9bd3-df5033365bb0"},"vehicle_type_id":"4","last_reported":1726233326,"current_range_meters":6000,"station_id":"ce4bh2p2rcd13ifvqdi0","pricing_plan_id":"cebpf4jnsgd1na2vs0mg"},{"bike_id":"5987713b-d8c0-4903-81ac-fe80cbeac0b3","system_id":"levelo_inurba_marseille","lat":43.27073,"lon":5.42276,"is_reserved":false,"is_disabled":false,"rental_uris":{"android":"levelo://app?vid=5987713b-d8c0-4903-81ac-fe80cbeac0b3","ios":"levelo://app?vid=5987713b-d8c0-4903-81ac-fe80cbeac0b3"},"vehicle_type_id":"4","last_reported":1726233326,"current_range_meters":38800,"station_id":"ce4bhk92rcd13ifvqgb0","pricing_plan_id":"cebpf4jnsgd1na2vs0mg"},{"bike_id":"f7a53b7e-f107-4093-ae3c-11e7b53133d4","system_id":"levelo_inurba_marseille","lat":43.27423,"lon":5.39411,"is_reserved":false,"is_disabled":false,"rental_uris":{"android":"levelo://app?vid=f7a53b7e-f107-4093-ae3c-11e7b53133d4","ios":"levelo://app?vid=f7a53b7e-f107-4093-ae3c-11e7b53133d4"},"vehicle_type_id":"4","last_reported":1726233326,"current_range_meters":24400,"station_id":"ce4bhdp2rcd13ifvqf20","pricing_plan_id":"cebpf4jnsgd1na2vs0mg"},{"bike_id":"dbca4d3a-c811-4d22-ae6d-658915bbf35a","system_id":"levelo_inurba_marseille","lat":43.30546,"lon":5.36547,"is_reserved":false,"is_disabled":false,"rental_uris":{"android":"levelo://app?vid=dbca4d3a-c811-4d22-ae6d-658915bbf35a","ios":"levelo://app?vid=dbca4d3a-c811-4d22-ae6d-658915bbf35a"},"vehicle_type_id":"4","last_reported":1726233326,"current_range_meters":11200,"station_id":"ce4bgs12rcd13ifvqcag","pricing_plan_id":"cebpf4jnsgd1na2vs0mg"},{"bike_id":"d608f0a9-6c51-4c68-be81-d6c79550be85","system_id":"levelo_inurba_marseille","lat":43.31714,"lon":5.43706,"is_reserved":false,"is_disabled":false,"rental_uris":{"android":"levelo://app?vid=d608f0a9-6c51-4c68-be81-d6c79550be85","ios":"levelo://app?vid=d608f0a9-6c51-4c68-be81-d6c79550be85"},"vehicle_type_id":"4","last_reported":1726233326,"current_range_meters":39200,"station_id":"ce4bhp92rcd13ifvqhcg","pricing_plan_id":"cebpf4jnsgd1na2vs0mg"},{"bike_id":"148b1d3d-291b-4046-9675-c12fd5377399","system_id":"levelo_inurba_marseille","lat":43.2907,"lon":5.37166,"is_reserved":false,"is_disabled":false,"rental_uris":{"android":"levelo://app?vid=148b1d3d-291b-4046-9675-c12fd5377399","ios":"levelo://app?vid=148b1d3d-291b-4046-9675-c12fd5377399"},"vehicle_type_id":"4","last_reported":1726233326,"current_range_meters":11600,"station_id":"ce4bh5p2rcd13ifvqe4g","pricing_plan_id":"cebpf4jnsgd1na2vs0mg"},{"bike_id":"a8408bc0-1ad0-4261-92e7-4324637d7c82","system_id":"levelo_inurba_marseille","lat":43.29011,"lon":5.35624,"is_reserved":false,"is_disabled":false,"rental_uris":{"android":"levelo://app?vid=a8408bc0-1ad0-4261-92e7-4324637d7c82","ios":"levelo://app?vid=a8408bc0-1ad0-4261-92e7-4324637d7c82"},"vehicle_type_id":"4","last_reported":1726233326,"current_range_meters":38800,"station_id":"ce4bhb92rcd13ifvqen0","pricing_plan_id":"cebpf4jnsgd1na2vs0mg"},{"bike_id":"1cd789f6-280b-4590-97e7-69713cf0b357","system_id":"levelo_inurba_marseille","lat":43.337444,"lon":5.374475,"is_reserved":false,"is_disabled":false,"rental_uris":{"android":"levelo://app?vid=1cd789f6-280b-4590-97e7-69713cf0b357","ios":"levelo://app?vid=1cd789f6-280b-4590-97e7-69713cf0b357"},"vehicle_type_id":"4","last_reported":1726233326,"current_range_meters":21600,"station_id":"ce4bh3h2rcd13ifvqdn0","pricing_plan_id":"cebpf4jnsgd1na2vs0mg"},{"bike_id":"deaeb920-23ab-4b51-a90a-3a4d369b9959","system_id":"levelo_inurba_marseille","lat":43.2656,"lon":5.3729,"is_reserved":false,"is_disabled":false,"rental_uris":{"android":"levelo://app?vid=deaeb920-23ab-4b51-a90a-3a4d369b9959","ios":"levelo://app?vid=deaeb920-23ab-4b51-a90a-3a4d369b9959"},"vehicle_type_id":"4","last_reported":1726233326,"current_range_meters":8000,"station_id":"ce4bhg12rcd13ifvqf70","pricing_plan_id":"cebpf4jnsgd1na2vs0mg"},{"bike_id":"e02f9ffc-eedb-494d-8a91-da043fe25982","system_id":"levelo_inurba_marseille","lat":43.29222,"lon":5.36055,"is_reserved":false,"is_disabled":false,"rental_uris":{"android":"levelo://app?vid=e02f9ffc-eedb-494d-8a91-da043fe25982","ios":"levelo://app?vid=e02f9ffc-eedb-494d-8a91-da043fe25982"},"vehicle_type_id":"4","last_reported":1726233326,"current_range_meters":31200,"station_id":"ce4bhbh2rcd13ifvqeqg","pricing_plan_id":"cebpf4jnsgd1na2vs0mg"},{"bike_id":"b1ef9f5c-48fe-4b6e-b5cb-3758aac5ecd5","system_id":"levelo_inurba_marseille","lat":43.23147,"lon":5.43715,"is_reserved":false,"is_disabled":false,"rental_uris":{"android":"levelo://app?vid=b1ef9f5c-48fe-4b6e-b5cb-3758aac5ecd5","ios":"levelo://app?vid=b1ef9f5c-48fe-4b6e-b5cb-3758aac5ecd5"},"vehicle_type_id":"4","last_reported":1726233326,"current_range_meters":38800,"station_id":"ce4bhmp2rcd13ifvqgog","pricing_plan_id":"cebpf4jnsgd1na2vs0mg"},{"bike_id":"2cfa046b-6b6c-4a3f-98b9-131f3ed8b6a3","system_id":"levelo_inurba_marseille","lat":43.27433,"lon":5.39408,"is_reserved":false,"is_disabled":false,"rental_uris":{"android":"levelo://app?vid=2cfa046b-6b6c-4a3f-98b9-131f3ed8b6a3","ios":"levelo://app?vid=2cfa046b-6b6c-4a3f-98b9-131f3ed8b6a3"},"vehicle_type_id":"4","last_reported":1726233326,"current_range_meters":39200,"station_id":"ce4bhdp2rcd13ifvqf20","pricing_plan_id":"cebpf4jnsgd1na2vs0mg"},{"bike_id":"3622b2e2-b415-4605-b192-83420befa424","system_id":"levelo_inurba_marseille","lat":43.30274,"lon":5.37696,"is_reserved":false,"is_disabled":false,"rental_uris":{"android":"levelo://app?vid=3622b2e2-b415-4605-b192-83420befa424","ios":"levelo://app?vid=3622b2e2-b415-4605-b192-83420befa424"},"vehicle_type_id":"4","last_reported":1726233326,"current_range_meters":26800,"station_id":"ce4bguh2rcd13ifvqcj0","pricing_plan_id":"cebpf4jnsgd1na2vs0mg"},{"bike_id":"4f6ba2b4-7946-42cf-ad2a-95f068c566bd","system_id":"levelo_inurba_marseille","lat":43.29905,"lon":5.38154,"is_reserved":false,"is_disabled":false,"rental_uris":{"android":"levelo://app?vid=4f6ba2b4-7946-42cf-ad2a-95f068c566bd","ios":"levelo://app?vid=4f6ba2b4-7946-42cf-ad2a-95f068c566bd"},"vehicle_type_id":"4","last_reported":1726233326,"current_range_meters":11200,"station_id":"ce4bgj12rcd13ifvqbc0","pricing_plan_id":"cebpf4jnsgd1na2vs0mg"},{"bike_id":"d765a641-e055-4e3b-87e7-fd69ea5db099","system_id":"levelo_inurba_marseille","lat":43.28931,"lon":5.39613,"is_reserved":false,"is_disabled":false,"rental_uris":{"android":"levelo://app?vid=d765a641-e055-4e3b-87e7-fd69ea5db099","ios":"levelo://app?vid=d765a641-e055-4e3b-87e7-fd69ea5db099"},"vehicle_type_id":"4","last_reported":1726233326,"current_range_meters":28400,"station_id":"ce4bh3h2rcd13ifvqdn0","pricing_plan_id":"cebpf4jnsgd1na2vs0mg"},{"bike_id":"2fd54701-55c5-4671-bea5-66ee84a29494","system_id":"levelo_inurba_marseille","lat":43.28934,"lon":5.3962,"is_reserved":false,"is_disabled":false,"rental_uris":{"android":"levelo://app?vid=2fd54701-55c5-4671-bea5-66ee84a29494","ios":"levelo://app?vid=2fd54701-55c5-4671-bea5-66ee84a29494"},"vehicle_type_id":"4","last_reported":1726233326,"current_range_meters":20000,"station_id":"ce4bh3h2rcd13ifvqdn0","pricing_plan_id":"cebpf4jnsgd1na2vs0mg"},{"bike_id":"5d4268d2-3049-496f-beee-92a357b5c673","system_id":"levelo_inurba_marseille","lat":43.29803,"lon":5.3809,"is_reserved":false,"is_disabled":false,"rental_uris":{"android":"levelo://app?vid=5d4268d2-3049-496f-beee-92a357b5c673","ios":"levelo://app?vid=5d4268d2-3049-496f-beee-92a357b5c673"},"vehicle_type_id":"4","last_reported":1726233326,"current_range_meters":38800,"station_id":"ce4bgip2rcd13ifvqbb0","pricing_plan_id":"cebpf4jnsgd1na2vs0mg"},{"bike_id":"3db9be20-f8f8-4f7f-b033-d72ac8fde952","system_id":"levelo_inurba_marseille","lat":43.29649,"lon":5.38004,"is_reserved":false,"is_disabled":false,"rental_uris":{"android":"levelo://app?vid=3db9be20-f8f8-4f7f-b033-d72ac8fde952","ios":"levelo://app?vid=3db9be20-f8f8-4f7f-b033-d72ac8fde952"},"vehicle_type_id":"4","last_reported":1726233326,"current_range_meters":22800,"station_id":"ce4bhg12rcd13ifvqf80","pricing_plan_id":"cebpf4jnsgd1na2vs0mg"},{"bike_id":"bc3b545b-f628-4ca1-975b-55ef5ad0c05c","system_id":"levelo_inurba_marseille","lat":43.29796,"lon":5.38093,"is_reserved":false,"is_disabled":false,"rental_uris":{"android":"levelo://app?vid=bc3b545b-f628-4ca1-975b-55ef5ad0c05c","ios":"levelo://app?vid=bc3b545b-f628-4ca1-975b-55ef5ad0c05c"},"vehicle_type_id":"4","last_reported":1726233326,"current_range_meters":36000,"station_id":"ce4bgip2rcd13ifvqbb0","pricing_plan_id":"cebpf4jnsgd1na2vs0mg"},{"bike_id":"a14562ce-ae43-453b-b4d3-2615927c910a","system_id":"levelo_inurba_marseille","lat":43.29847,"lon":5.36278,"is_reserved":false,"is_disabled":false,"rental_uris":{"android":"levelo://app?vid=a14562ce-ae43-453b-b4d3-2615927c910a","ios":"levelo://app?vid=a14562ce-ae43-453b-b4d3-2615927c910a"},"vehicle_type_id":"4","last_reported":1726233326,"current_range_meters":6800,"station_id":"ce4bgpp2rcd13ifvqc3g","pricing_plan_id":"cebpf4jnsgd1na2vs0mg"},{"bike_id":"1b21f49c-7d35-4fac-89f2-963094add212","system_id":"levelo_inurba_marseille","lat":43.24804,"lon":5.37453,"is_reserved":false,"is_disabled":false,"rental_uris":{"android":"levelo://app?vid=1b21f49c-7d35-4fac-89f2-963094add212","ios":"levelo://app?vid=1b21f49c-7d35-4fac-89f2-963094add212"},"vehicle_type_id":"4","last_reported":1726233326,"current_range_meters":18800,"station_id":"ce4bhgh2rcd13ifvqfb0","pricing_plan_id":"cebpf4jnsgd1na2vs0mg"},{"bike_id":"47322fce-12c8-4264-9c39-05c71061b21e","system_id":"levelo_inurba_marseille","lat":43.30332,"lon":5.40435,"is_reserved":false,"is_disabled":false,"rental_uris":{"android":"levelo://app?vid=47322fce-12c8-4264-9c39-05c71061b21e","ios":"levelo://app?vid=47322fce-12c8-4264-9c39-05c71061b21e"},"vehicle_type_id":"4","last_reported":1726233326,"current_range_meters":26000,"station_id":"ce4bh012rcd13ifvqd10","pricing_plan_id":"cebpf4jnsgd1na2vs0mg"},{"bike_id":"d093cabe-e20b-431f-a905-ee2541759ecf","system_id":"levelo_inurba_marseille","lat":43.289055,"lon":5.382051,"is_reserved":false,"is_disabled":false,"rental_uris":{"android":"levelo://app?vid=d093cabe-e20b-431f-a905-ee2541759ecf","ios":"levelo://app?vid=d093cabe-e20b-431f-a905-ee2541759ecf"},"vehicle_type_id":"4","last_reported":1726233326,"current_range_meters":32000,"station_id":"ce4bh4p2rcd13ifvqe1g","pricing_plan_id":"cebpf4jnsgd1na2vs0mg"},{"bike_id":"736971cf-08f0-4178-a255-b11a41f95677","system_id":"levelo_inurba_marseille","lat":43.29025,"lon":5.38636,"is_reserved":false,"is_disabled":false,"rental_uris":{"android":"levelo://app?vid=736971cf-08f0-4178-a255-b11a41f95677","ios":"levelo://app?vid=736971cf-08f0-4178-a255-b11a41f95677"},"vehicle_type_id":"4","last_reported":1726233326,"current_range_meters":16400,"station_id":"ce4bh4p2rcd13ifvqe0g","pricing_plan_id":"cebpf4jnsgd1na2vs0mg"},{"bike_id":"8261ace5-2139-442c-b15a-c46a7ca49df2","system_id":"levelo_inurba_marseille","lat":43.299,"lon":5.43668,"is_reserved":false,"is_disabled":false,"rental_uris":{"android":"levelo://app?vid=8261ace5-2139-442c-b15a-c46a7ca49df2","ios":"levelo://app?vid=8261ace5-2139-442c-b15a-c46a7ca49df2"},"vehicle_type_id":"4","last_reported":1726233326,"current_range_meters":30800,"station_id":"ce4bhpp2rcd13ifvqhfg","pricing_plan_id":"cebpf4jnsgd1na2vs0mg"},{"bike_id":"4afb8b00-be3a-4d15-9b8b-47916e625762","system_id":"levelo_inurba_marseille","lat":43.28548,"lon":5.44233,"is_reserved":false,"is_disabled":false,"rental_uris":{"android":"levelo://app?vid=4afb8b00-be3a-4d15-9b8b-47916e625762","ios":"levelo://app?vid=4afb8b00-be3a-4d15-9b8b-47916e625762"},"vehicle_type_id":"4","last_reported":1726233326,"current_range_meters":27600,"station_id":"","pricing_plan_id":"cebpf4jnsgd1na2vs0mg"},{"bike_id":"6160092f-4981-4a7f-8ab0-7f6f0d746aa2","system_id":"levelo_inurba_marseille","lat":43.25003,"lon":5.38936,"is_reserved":false,"is_disabled":false,"rental_uris":{"android":"levelo://app?vid=6160092f-4981-4a7f-8ab0-7f6f0d746aa2","ios":"levelo://app?vid=6160092f-4981-4a7f-8ab0-7f6f0d746aa2"},"vehicle_type_id":"4","last_reported":1726233326,"current_range_meters":3600,"station_id":"ce4bhgp2rcd13ifvqfd0","pricing_plan_id":"cebpf4jnsgd1na2vs0mg"},{"bike_id":"bb7acf50-b6bc-4b2d-adf4-833abc23b24c","system_id":"levelo_inurba_marseille","lat":43.23192,"lon":5.35544,"is_reserved":false,"is_disabled":false,"rental_uris":{"android":"levelo://app?vid=bb7acf50-b6bc-4b2d-adf4-833abc23b24c","ios":"levelo://app?vid=bb7acf50-b6bc-4b2d-adf4-833abc23b24c"},"vehicle_type_id":"4","last_reported":1726233326,"current_range_meters":38800,"station_id":"ce4bhu92rcd13ifvqi70","pricing_plan_id":"cebpf4jnsgd1na2vs0mg"},{"bike_id":"ce1e02bb-ece6-48a6-a230-49ea402ccd57","system_id":"levelo_inurba_marseille","lat":43.31711,"lon":5.43707,"is_reserved":false,"is_disabled":false,"rental_uris":{"android":"levelo://app?vid=ce1e02bb-ece6-48a6-a230-49ea402ccd57","ios":"levelo://app?vid=ce1e02bb-ece6-48a6-a230-49ea402ccd57"},"vehicle_type_id":"4","last_reported":1726233326,"current_range_meters":18800,"station_id":"ce4bhp92rcd13ifvqhcg","pricing_plan_id":"cebpf4jnsgd1na2vs0mg"},{"bike_id":"48a060ab-9f02-4905-8b17-8c1c960b8fe8","system_id":"levelo_inurba_marseille","lat":43.29008,"lon":5.35613,"is_reserved":false,"is_disabled":false,"rental_uris":{"android":"levelo://app?vid=48a060ab-9f02-4905-8b17-8c1c960b8fe8","ios":"levelo://app?vid=48a060ab-9f02-4905-8b17-8c1c960b8fe8"},"vehicle_type_id":"4","last_reported":1726233326,"current_range_meters":3600,"station_id":"ce4bhb92rcd13ifvqen0","pricing_plan_id":"cebpf4jnsgd1na2vs0mg"},{"bike_id":"2f855f06-9250-4286-ae1e-a95c53bd0f86","system_id":"levelo_inurba_marseille","lat":43.27066,"lon":5.42271,"is_reserved":false,"is_disabled":false,"rental_uris":{"android":"levelo://app?vid=2f855f06-9250-4286-ae1e-a95c53bd0f86","ios":"levelo://app?vid=2f855f06-9250-4286-ae1e-a95c53bd0f86"},"vehicle_type_id":"4","last_reported":1726233326,"current_range_meters":30400,"station_id":"ce4bhk92rcd13ifvqgb0","pricing_plan_id":"cebpf4jnsgd1na2vs0mg"},{"bike_id":"b744e099-f161-4d4f-87d2-6b799c4e5a9e","system_id":"levelo_inurba_marseille","lat":43.33605,"lon":5.41033,"is_reserved":false,"is_disabled":false,"rental_uris":{"android":"levelo://app?vid=b744e099-f161-4d4f-87d2-6b799c4e5a9e","ios":"levelo://app?vid=b744e099-f161-4d4f-87d2-6b799c4e5a9e"},"vehicle_type_id":"4","last_reported":1726233326,"current_range_meters":35200,"station_id":"ce4bhqh2rcd13ifvqhmg","pricing_plan_id":"cebpf4jnsgd1na2vs0mg"},{"bike_id":"fdbafa38-50a6-4c06-990b-5b9471c13f38","system_id":"levelo_inurba_marseille","lat":43.30555,"lon":5.36538,"is_reserved":false,"is_disabled":false,"rental_uris":{"android":"levelo://app?vid=fdbafa38-50a6-4c06-990b-5b9471c13f38","ios":"levelo://app?vid=fdbafa38-50a6-4c06-990b-5b9471c13f38"},"vehicle_type_id":"4","last_reported":1726233326,"current_range_meters":38000,"station_id":"ce4bgs12rcd13ifvqcag","pricing_plan_id":"cebpf4jnsgd1na2vs0mg"},{"bike_id":"64f414fe-5849-4ed7-a9c3-5796831030f0","system_id":"levelo_inurba_marseille","lat":43.2757,"lon":5.38422,"is_reserved":false,"is_disabled":false,"rental_uris":{"android":"levelo://app?vid=64f414fe-5849-4ed7-a9c3-5796831030f0","ios":"levelo://app?vid=64f414fe-5849-4ed7-a9c3-5796831030f0"},"vehicle_type_id":"4","last_reported":1726233326,"current_range_meters":6800,"station_id":"ce4bhh92rcd13ifvqfi0","pricing_plan_id":"cebpf4jnsgd1na2vs0mg"},{"bike_id":"e6d3aaca-3626-450a-85e4-125dde114d3c","system_id":"levelo_inurba_marseille","lat":43.302856,"lon":5.400797,"is_reserved":false,"is_disabled":false,"rental_uris":{"android":"levelo://app?vid=e6d3aaca-3626-450a-85e4-125dde114d3c","ios":"levelo://app?vid=e6d3aaca-3626-450a-85e4-125dde114d3c"},"vehicle_type_id":"4","last_reported":1726233326,"current_range_meters":8000,"station_id":"ce4bgvh2rcd13ifvqcs0","pricing_plan_id":"cebpf4jnsgd1na2vs0mg"},{"bike_id":"05726fd2-4872-41ab-a145-74b2e9d73db3","system_id":"levelo_inurba_marseille","lat":43.30899,"lon":5.37181,"is_reserved":false,"is_disabled":false,"rental_uris":{"android":"levelo://app?vid=05726fd2-4872-41ab-a145-74b2e9d73db3","ios":"levelo://app?vid=05726fd2-4872-41ab-a145-74b2e9d73db3"},"vehicle_type_id":"4","last_reported":1726233326,"current_range_meters":35600,"station_id":"ce4bguh2rcd13ifvqckg","pricing_plan_id":"cebpf4jnsgd1na2vs0mg"},{"bike_id":"931d64a5-cffd-493f-b19b-09687dfd9b55","system_id":"levelo_inurba_marseille","lat":43.29076,"lon":5.37179,"is_reserved":false,"is_disabled":false,"rental_uris":{"android":"levelo://app?vid=931d64a5-cffd-493f-b19b-09687dfd9b55","ios":"levelo://app?vid=931d64a5-cffd-493f-b19b-09687dfd9b55"},"vehicle_type_id":"4","last_reported":1726233326,"current_range_meters":8400,"station_id":"ce4bh5p2rcd13ifvqe4g","pricing_plan_id":"cebpf4jnsgd1na2vs0mg"},{"bike_id":"d8dca9fe-b9af-4568-87bb-8c5d09248c53","system_id":"levelo_inurba_marseille","lat":43.28928,"lon":5.36403,"is_reserved":false,"is_disabled":false,"rental_uris":{"android":"levelo://app?vid=d8dca9fe-b9af-4568-87bb-8c5d09248c53","ios":"levelo://app?vid=d8dca9fe-b9af-4568-87bb-8c5d09248c53"},"vehicle_type_id":"4","last_reported":1726233326,"current_range_meters":38800,"station_id":"ce4bhc92rcd13ifvqetg","pricing_plan_id":"cebpf4jnsgd1na2vs0mg"},{"bike_id":"7a416e95-bc47-4596-937a-bb0a25b7a176","system_id":"levelo_inurba_marseille","lat":43.31524,"lon":5.38034,"is_reserved":false,"is_disabled":false,"rental_uris":{"android":"levelo://app?vid=7a416e95-bc47-4596-937a-bb0a25b7a176","ios":"levelo://app?vid=7a416e95-bc47-4596-937a-bb0a25b7a176"},"vehicle_type_id":"4","last_reported":1726233326,"current_range_meters":38800,"station_id":"ce4bhsp2rcd13ifvqi50","pricing_plan_id":"cebpf4jnsgd1na2vs0mg"},{"bike_id":"2cdc504d-2565-4bae-ba11-73f50a1d8f08","system_id":"levelo_inurba_marseille","lat":43.33023,"lon":5.39039,"is_reserved":false,"is_disabled":false,"rental_uris":{"android":"levelo://app?vid=2cdc504d-2565-4bae-ba11-73f50a1d8f08","ios":"levelo://app?vid=2cdc504d-2565-4bae-ba11-73f50a1d8f08"},"vehicle_type_id":"4","last_reported":1726233326,"current_range_meters":39200,"station_id":"ce4bhr92rcd13ifvqhrg","pricing_plan_id":"cebpf4jnsgd1na2vs0mg"},{"bike_id":"731ad2a1-9721-44ce-91f8-2e3c57f6297a","system_id":"levelo_inurba_marseille","lat":43.29559,"lon":5.42287,"is_reserved":false,"is_disabled":false,"rental_uris":{"android":"levelo://app?vid=731ad2a1-9721-44ce-91f8-2e3c57f6297a","ios":"levelo://app?vid=731ad2a1-9721-44ce-91f8-2e3c57f6297a"},"vehicle_type_id":"4","last_reported":1726233326,"current_range_meters":10000,"station_id":"ce4bhph2rcd13ifvqhdg","pricing_plan_id":"cebpf4jnsgd1na2vs0mg"},{"bike_id":"65c1412b-046f-4164-bac6-8d82df38fef4","system_id":"levelo_inurba_marseille","lat":43.30554,"lon":5.3653,"is_reserved":false,"is_disabled":false,"rental_uris":{"android":"levelo://app?vid=65c1412b-046f-4164-bac6-8d82df38fef4","ios":"levelo://app?vid=65c1412b-046f-4164-bac6-8d82df38fef4"},"vehicle_type_id":"4","last_reported":1726233326,"current_range_meters":38800,"station_id":"ce4bgs12rcd13ifvqcag","pricing_plan_id":"cebpf4jnsgd1na2vs0mg"},{"bike_id":"480df1ac-b2fa-4a78-a4e3-16c51606dc00","system_id":"levelo_inurba_marseille","lat":43.30535,"lon":5.36526,"is_reserved":false,"is_disabled":false,"rental_uris":{"android":"levelo://app?vid=480df1ac-b2fa-4a78-a4e3-16c51606dc00","ios":"levelo://app?vid=480df1ac-b2fa-4a78-a4e3-16c51606dc00"},"vehicle_type_id":"4","last_reported":1726233326,"current_range_meters":24400,"station_id":"ce4bgs12rcd13ifvqcag","pricing_plan_id":"cebpf4jnsgd1na2vs0mg"},{"bike_id":"c28ff0f1-1713-431a-bccf-4e7a21e8e39b","system_id":"levelo_inurba_marseille","lat":43.25502,"lon":5.37653,"is_reserved":false,"is_disabled":false,"rental_uris":{"android":"levelo://app?vid=c28ff0f1-1713-431a-bccf-4e7a21e8e39b","ios":"levelo://app?vid=c28ff0f1-1713-431a-bccf-4e7a21e8e39b"},"vehicle_type_id":"4","last_reported":1726233326,"current_range_meters":38800,"station_id":"ce4bhh12rcd13ifvqff0","pricing_plan_id":"cebpf4jnsgd1na2vs0mg"},{"bike_id":"8ec62066-06f5-4149-aa4b-e967f3d79484","system_id":"levelo_inurba_marseille","lat":43.28103,"lon":5.37857,"is_reserved":false,"is_disabled":false,"rental_uris":{"android":"levelo://app?vid=8ec62066-06f5-4149-aa4b-e967f3d79484","ios":"levelo://app?vid=8ec62066-06f5-4149-aa4b-e967f3d79484"},"vehicle_type_id":"4","last_reported":1726233326,"current_range_meters":16800,"station_id":"ce4bha12rcd13ifvqee0","pricing_plan_id":"cebpf4jnsgd1na2vs0mg"},{"bike_id":"c5bfc17e-988c-4f26-a657-9c8657e202a8","system_id":"levelo_inurba_marseille","lat":43.29051,"lon":5.35924,"is_reserved":false,"is_disabled":false,"rental_uris":{"android":"levelo://app?vid=c5bfc17e-988c-4f26-a657-9c8657e202a8","ios":"levelo://app?vid=c5bfc17e-988c-4f26-a657-9c8657e202a8"},"vehicle_type_id":"4","last_reported":1726233326,"current_range_meters":6400,"station_id":"ce4bha92rcd13ifvqeg0","pricing_plan_id":"cebpf4jnsgd1na2vs0mg"},{"bike_id":"4c1548cc-cda4-45d8-95c7-8bac7e5fe0ad","system_id":"levelo_inurba_marseille","lat":43.27687,"lon":5.38898,"is_reserved":false,"is_disabled":false,"rental_uris":{"android":"levelo://app?vid=4c1548cc-cda4-45d8-95c7-8bac7e5fe0ad","ios":"levelo://app?vid=4c1548cc-cda4-45d8-95c7-8bac7e5fe0ad"},"vehicle_type_id":"4","last_reported":1726233326,"current_range_meters":38400,"station_id":"ce4bhi12rcd13ifvqfo0","pricing_plan_id":"cebpf4jnsgd1na2vs0mg"},{"bike_id":"d63b08fd-7716-422a-94e4-8f1dfff5bb11","system_id":"levelo_inurba_marseille","lat":43.28615,"lon":5.35097,"is_reserved":false,"is_disabled":false,"rental_uris":{"android":"levelo://app?vid=d63b08fd-7716-422a-94e4-8f1dfff5bb11","ios":"levelo://app?vid=d63b08fd-7716-422a-94e4-8f1dfff5bb11"},"vehicle_type_id":"4","last_reported":1726233326,"current_range_meters":38800,"station_id":"ce4bhch2rcd13ifvqeug","pricing_plan_id":"cebpf4jnsgd1na2vs0mg"},{"bike_id":"8f487187-cff0-4712-8663-f837b3077516","system_id":"levelo_inurba_marseille","lat":43.24393,"lon":5.37059,"is_reserved":false,"is_disabled":false,"rental_uris":{"android":"levelo://app?vid=8f487187-cff0-4712-8663-f837b3077516","ios":"levelo://app?vid=8f487187-cff0-4712-8663-f837b3077516"},"vehicle_type_id":"4","last_reported":1726233326,"current_range_meters":28400,"station_id":"ce4bhhh2rcd13ifvqfk0","pricing_plan_id":"cebpf4jnsgd1na2vs0mg"},{"bike_id":"1763571a-9954-433e-872e-ef6d6319dff6","system_id":"levelo_inurba_marseille","lat":43.31359,"lon":5.36711,"is_reserved":false,"is_disabled":false,"rental_uris":{"android":"levelo://app?vid=1763571a-9954-433e-872e-ef6d6319dff6","ios":"levelo://app?vid=1763571a-9954-433e-872e-ef6d6319dff6"},"vehicle_type_id":"4","last_reported":1726233326,"current_range_meters":26000,"station_id":"ce4bgr92rcd13ifvqc6g","pricing_plan_id":"cebpf4jnsgd1na2vs0mg"},{"bike_id":"6d357e3d-91e4-4b06-bdde-43f88f0f7949","system_id":"levelo_inurba_marseille","lat":43.23198,"lon":5.35548,"is_reserved":false,"is_disabled":false,"rental_uris":{"android":"levelo://app?vid=6d357e3d-91e4-4b06-bdde-43f88f0f7949","ios":"levelo://app?vid=6d357e3d-91e4-4b06-bdde-43f88f0f7949"},"vehicle_type_id":"4","last_reported":1726233326,"current_range_meters":2000,"station_id":"ce4bhu92rcd13ifvqi70","pricing_plan_id":"cebpf4jnsgd1na2vs0mg"},{"bike_id":"415d3c4f-5242-4572-8d05-9e1bd45eae7f","system_id":"levelo_inurba_marseille","lat":43.25583,"lon":5.38232,"is_reserved":false,"is_disabled":false,"rental_uris":{"android":"levelo://app?vid=415d3c4f-5242-4572-8d05-9e1bd45eae7f","ios":"levelo://app?vid=415d3c4f-5242-4572-8d05-9e1bd45eae7f"},"vehicle_type_id":"4","last_reported":1726233326,"current_range_meters":33200,"station_id":"ce4bhih2rcd13ifvqfs0","pricing_plan_id":"cebpf4jnsgd1na2vs0mg"},{"bike_id":"06be586c-7c46-466c-8f97-eac0c3d41244","system_id":"levelo_inurba_marseille","lat":43.27372,"lon":5.3626,"is_reserved":false,"is_disabled":false,"rental_uris":{"android":"levelo://app?vid=06be586c-7c46-466c-8f97-eac0c3d41244","ios":"levelo://app?vid=06be586c-7c46-466c-8f97-eac0c3d41244"},"vehicle_type_id":"4","last_reported":1726233326,"current_range_meters":29600,"station_id":"ce4bhbh2rcd13ifvqeo0","pricing_plan_id":"cebpf4jnsgd1na2vs0mg"},{"bike_id":"321776d9-93da-4f1b-96be-0c30e8fca15a","system_id":"levelo_inurba_marseille","lat":43.25724,"lon":5.41106,"is_reserved":false,"is_disabled":false,"rental_uris":{"android":"levelo://app?vid=321776d9-93da-4f1b-96be-0c30e8fca15a","ios":"levelo://app?vid=321776d9-93da-4f1b-96be-0c30e8fca15a"},"vehicle_type_id":"4","last_reported":1726233326,"current_range_meters":27200,"station_id":"ce4bhkp2rcd13ifvqgd0","pricing_plan_id":"cebpf4jnsgd1na2vs0mg"},{"bike_id":"0ede9162-5086-41c2-a21f-a81b6f3ce6a3","system_id":"levelo_inurba_marseille","lat":43.28936,"lon":5.36635,"is_reserved":false,"is_disabled":false,"rental_uris":{"android":"levelo://app?vid=0ede9162-5086-41c2-a21f-a81b6f3ce6a3","ios":"levelo://app?vid=0ede9162-5086-41c2-a21f-a81b6f3ce6a3"},"vehicle_type_id":"4","last_reported":1726233326,"current_range_meters":24800,"station_id":"ce4bhap2rcd13ifvqek0","pricing_plan_id":"cebpf4jnsgd1na2vs0mg"},{"bike_id":"54a12671-a11a-43e7-b223-e3549f5e76b3","system_id":"levelo_inurba_marseille","lat":43.29102,"lon":5.38145,"is_reserved":false,"is_disabled":false,"rental_uris":{"android":"levelo://app?vid=54a12671-a11a-43e7-b223-e3549f5e76b3","ios":"levelo://app?vid=54a12671-a11a-43e7-b223-e3549f5e76b3"},"vehicle_type_id":"4","last_reported":1726233326,"current_range_meters":37600,"station_id":"ce4bh512rcd13ifvqe2g","pricing_plan_id":"cebpf4jnsgd1na2vs0mg"},{"bike_id":"71e5bd5f-9941-45ed-83eb-1729c01b5303","system_id":"levelo_inurba_marseille","lat":43.22933,"lon":5.35373,"is_reserved":false,"is_disabled":false,"rental_uris":{"android":"levelo://app?vid=71e5bd5f-9941-45ed-83eb-1729c01b5303","ios":"levelo://app?vid=71e5bd5f-9941-45ed-83eb-1729c01b5303"},"vehicle_type_id":"4","last_reported":1726233326,"current_range_meters":34800,"station_id":"cpo3532slgdg3j2ikp40","pricing_plan_id":"cebpf4jnsgd1na2vs0mg"},{"bike_id":"91d16c8d-24ec-427f-9b84-fb589de1b76f","system_id":"levelo_inurba_marseille","lat":43.337444,"lon":5.374475,"is_reserved":false,"is_disabled":false,"rental_uris":{"android":"levelo://app?vid=91d16c8d-24ec-427f-9b84-fb589de1b76f","ios":"levelo://app?vid=91d16c8d-24ec-427f-9b84-fb589de1b76f"},"vehicle_type_id":"4","last_reported":1726233326,"current_range_meters":36000,"station_id":"ce4bh092rcd13ifvqd20","pricing_plan_id":"cebpf4jnsgd1na2vs0mg"},{"bike_id":"e7811449-424e-465f-a413-9a324c616070","system_id":"levelo_inurba_marseille","lat":43.30141,"lon":5.37417,"is_reserved":false,"is_disabled":false,"rental_uris":{"android":"levelo://app?vid=e7811449-424e-465f-a413-9a324c616070","ios":"levelo://app?vid=e7811449-424e-465f-a413-9a324c616070"},"vehicle_type_id":"4","last_reported":1726233326,"current_range_meters":38800,"station_id":"ce4bgs92rcd13ifvqcc0","pricing_plan_id":"cebpf4jnsgd1na2vs0mg"},{"bike_id":"5370546a-7244-45da-af29-6ba1e105add1","system_id":"levelo_inurba_marseille","lat":43.27372,"lon":5.36245,"is_reserved":false,"is_disabled":false,"rental_uris":{"android":"levelo://app?vid=5370546a-7244-45da-af29-6ba1e105add1","ios":"levelo://app?vid=5370546a-7244-45da-af29-6ba1e105add1"},"vehicle_type_id":"4","last_reported":1726233326,"current_range_meters":24400,"station_id":"ce4bhbh2rcd13ifvqeo0","pricing_plan_id":"cebpf4jnsgd1na2vs0mg"},{"bike_id":"339be7f5-8bf8-4895-a4e4-464a1e833fe6","system_id":"levelo_inurba_marseille","lat":43.26953,"lon":5.38635,"is_reserved":false,"is_disabled":false,"rental_uris":{"android":"levelo://app?vid=339be7f5-8bf8-4895-a4e4-464a1e833fe6","ios":"levelo://app?vid=339be7f5-8bf8-4895-a4e4-464a1e833fe6"},"vehicle_type_id":"4","last_reported":1726233326,"current_range_meters":7200,"station_id":"ce4bhh92rcd13ifvqfh0","pricing_plan_id":"cebpf4jnsgd1na2vs0mg"},{"bike_id":"e2ac5a84-df29-4058-8e6d-d81e29382627","system_id":"levelo_inurba_marseille","lat":43.337444,"lon":5.374475,"is_reserved":false,"is_disabled":false,"rental_uris":{"android":"levelo://app?vid=e2ac5a84-df29-4058-8e6d-d81e29382627","ios":"levelo://app?vid=e2ac5a84-df29-4058-8e6d-d81e29382627"},"vehicle_type_id":"4","last_reported":1726233326,"current_range_meters":18800,"station_id":"","pricing_plan_id":"cebpf4jnsgd1na2vs0mg"},{"bike_id":"ffd70a77-c284-4424-967a-f18b173c279c","system_id":"levelo_inurba_marseille","lat":43.23154,"lon":5.43706,"is_reserved":false,"is_disabled":false,"rental_uris":{"android":"levelo://app?vid=ffd70a77-c284-4424-967a-f18b173c279c","ios":"levelo://app?vid=ffd70a77-c284-4424-967a-f18b173c279c"},"vehicle_type_id":"4","last_reported":1726233326,"current_range_meters":12000,"station_id":"ce4bhmp2rcd13ifvqgog","pricing_plan_id":"cebpf4jnsgd1na2vs0mg"},{"bike_id":"ad1b5322-55e4-479e-8885-f21d19d9074d","system_id":"levelo_inurba_marseille","lat":43.29791,"lon":5.37088,"is_reserved":false,"is_disabled":false,"rental_uris":{"android":"levelo://app?vid=ad1b5322-55e4-479e-8885-f21d19d9074d","ios":"levelo://app?vid=ad1b5322-55e4-479e-8885-f21d19d9074d"},"vehicle_type_id":"4","last_reported":1726233326,"current_range_meters":36400,"station_id":"ce4bgop2rcd13ifvqc1g","pricing_plan_id":"cebpf4jnsgd1na2vs0mg"},{"bike_id":"3f8cf404-be43-4c92-832f-ef8c3ce649c3","system_id":"levelo_inurba_marseille","lat":43.2997,"lon":5.38499,"is_reserved":false,"is_disabled":false,"rental_uris":{"android":"levelo://app?vid=3f8cf404-be43-4c92-832f-ef8c3ce649c3","ios":"levelo://app?vid=3f8cf404-be43-4c92-832f-ef8c3ce649c3"},"vehicle_type_id":"4","last_reported":1726233326,"current_range_meters":38400,"station_id":"","pricing_plan_id":"cebpf4jnsgd1na2vs0mg"},{"bike_id":"91b36c15-8bb8-4d60-8c33-cdd8e0d267ed","system_id":"levelo_inurba_marseille","lat":43.23156,"lon":5.43716,"is_reserved":false,"is_disabled":false,"rental_uris":{"android":"levelo://app?vid=91b36c15-8bb8-4d60-8c33-cdd8e0d267ed","ios":"levelo://app?vid=91b36c15-8bb8-4d60-8c33-cdd8e0d267ed"},"vehicle_type_id":"4","last_reported":1726233326,"current_range_meters":11200,"station_id":"ce4bhmp2rcd13ifvqgog","pricing_plan_id":"cebpf4jnsgd1na2vs0mg"},{"bike_id":"18a15787-e7df-4d98-b234-0d8d226538c5","system_id":"levelo_inurba_marseille","lat":43.29695,"lon":5.37683,"is_reserved":false,"is_disabled":false,"rental_uris":{"android":"levelo://app?vid=18a15787-e7df-4d98-b234-0d8d226538c5","ios":"levelo://app?vid=18a15787-e7df-4d98-b234-0d8d226538c5"},"vehicle_type_id":"4","last_reported":1726233326,"current_range_meters":32800,"station_id":"ce4bgkh2rcd13ifvqbl0","pricing_plan_id":"cebpf4jnsgd1na2vs0mg"},{"bike_id":"55d94928-1c2c-4dfc-95d4-0ae00480b0b3","system_id":"levelo_inurba_marseille","lat":43.27433,"lon":5.39402,"is_reserved":false,"is_disabled":false,"rental_uris":{"android":"levelo://app?vid=55d94928-1c2c-4dfc-95d4-0ae00480b0b3","ios":"levelo://app?vid=55d94928-1c2c-4dfc-95d4-0ae00480b0b3"},"vehicle_type_id":"4","last_reported":1726233326,"current_range_meters":15200,"station_id":"ce4bhdp2rcd13ifvqf20","pricing_plan_id":"cebpf4jnsgd1na2vs0mg"},{"bike_id":"bd208f09-131a-49c8-ae5c-4e542e3ec04b","system_id":"levelo_inurba_marseille","lat":43.28355,"lon":5.38111,"is_reserved":false,"is_disabled":false,"rental_uris":{"android":"levelo://app?vid=bd208f09-131a-49c8-ae5c-4e542e3ec04b","ios":"levelo://app?vid=bd208f09-131a-49c8-ae5c-4e542e3ec04b"},"vehicle_type_id":"4","last_reported":1726233326,"current_range_meters":12400,"station_id":"ce4bh412rcd13ifvqdr0","pricing_plan_id":"cebpf4jnsgd1na2vs0mg"},{"bike_id":"a9828078-b3b9-4e39-980a-7686986a1d8d","system_id":"levelo_inurba_marseille","lat":43.26034,"lon":5.37547,"is_reserved":false,"is_disabled":false,"rental_uris":{"android":"levelo://app?vid=a9828078-b3b9-4e39-980a-7686986a1d8d","ios":"levelo://app?vid=a9828078-b3b9-4e39-980a-7686986a1d8d"},"vehicle_type_id":"4","last_reported":1726233326,"current_range_meters":28000,"station_id":"ce4bhgh2rcd13ifvqfa0","pricing_plan_id":"cebpf4jnsgd1na2vs0mg"},{"bike_id":"03200ce1-e816-4485-a9db-29a204ad97d8","system_id":"levelo_inurba_marseille","lat":43.2397,"lon":5.36619,"is_reserved":false,"is_disabled":false,"rental_uris":{"android":"levelo://app?vid=03200ce1-e816-4485-a9db-29a204ad97d8","ios":"levelo://app?vid=03200ce1-e816-4485-a9db-29a204ad97d8"},"vehicle_type_id":"4","last_reported":1726233326,"current_range_meters":33200,"station_id":"ce4bhi12rcd13ifvqfp0","pricing_plan_id":"cebpf4jnsgd1na2vs0mg"},{"bike_id":"954d2b54-362e-442e-bcaa-d17939d90e2d","system_id":"levelo_inurba_marseille","lat":43.25495,"lon":5.37653,"is_reserved":false,"is_disabled":false,"rental_uris":{"android":"levelo://app?vid=954d2b54-362e-442e-bcaa-d17939d90e2d","ios":"levelo://app?vid=954d2b54-362e-442e-bcaa-d17939d90e2d"},"vehicle_type_id":"4","last_reported":1726233326,"current_range_meters":38800,"station_id":"ce4bhh12rcd13ifvqff0","pricing_plan_id":"cebpf4jnsgd1na2vs0mg"},{"bike_id":"82dec1e1-c024-4a59-b080-1ca526441f94","system_id":"levelo_inurba_marseille","lat":43.337612,"lon":5.374504,"is_reserved":false,"is_disabled":false,"rental_uris":{"android":"levelo://app?vid=82dec1e1-c024-4a59-b080-1ca526441f94","ios":"levelo://app?vid=82dec1e1-c024-4a59-b080-1ca526441f94"},"vehicle_type_id":"4","last_reported":1726233326,"current_range_meters":14400,"station_id":"","pricing_plan_id":"cebpf4jnsgd1na2vs0mg"},{"bike_id":"c388f329-6f3c-470d-96b0-fb1532620c7b","system_id":"levelo_inurba_marseille","lat":43.23147,"lon":5.43717,"is_reserved":false,"is_disabled":false,"rental_uris":{"android":"levelo://app?vid=c388f329-6f3c-470d-96b0-fb1532620c7b","ios":"levelo://app?vid=c388f329-6f3c-470d-96b0-fb1532620c7b"},"vehicle_type_id":"4","last_reported":1726233326,"current_range_meters":21600,"station_id":"ce4bhmp2rcd13ifvqgog","pricing_plan_id":"cebpf4jnsgd1na2vs0mg"},{"bike_id":"482796c1-2dd4-4ac0-869c-7c6b5e1669a8","system_id":"levelo_inurba_marseille","lat":43.26959,"lon":5.38643,"is_reserved":false,"is_disabled":false,"rental_uris":{"android":"levelo://app?vid=482796c1-2dd4-4ac0-869c-7c6b5e1669a8","ios":"levelo://app?vid=482796c1-2dd4-4ac0-869c-7c6b5e1669a8"},"vehicle_type_id":"4","last_reported":1726233326,"current_range_meters":36400,"station_id":"ce4bhh92rcd13ifvqfh0","pricing_plan_id":"cebpf4jnsgd1na2vs0mg"},{"bike_id":"2deeed66-456e-4f3b-be82-f36b0e3c9d4c","system_id":"levelo_inurba_marseille","lat":43.23152,"lon":5.43709,"is_reserved":false,"is_disabled":false,"rental_uris":{"android":"levelo://app?vid=2deeed66-456e-4f3b-be82-f36b0e3c9d4c","ios":"levelo://app?vid=2deeed66-456e-4f3b-be82-f36b0e3c9d4c"},"vehicle_type_id":"4","last_reported":1726233326,"current_range_meters":18000,"station_id":"ce4bhmp2rcd13ifvqgog","pricing_plan_id":"cebpf4jnsgd1na2vs0mg"},{"bike_id":"fad4ce5f-29e2-4402-92b3-eafa4b8fc708","system_id":"levelo_inurba_marseille","lat":43.26029,"lon":5.37551,"is_reserved":false,"is_disabled":false,"rental_uris":{"android":"levelo://app?vid=fad4ce5f-29e2-4402-92b3-eafa4b8fc708","ios":"levelo://app?vid=fad4ce5f-29e2-4402-92b3-eafa4b8fc708"},"vehicle_type_id":"4","last_reported":1726233326,"current_range_meters":31200,"station_id":"ce4bhgh2rcd13ifvqfa0","pricing_plan_id":"cebpf4jnsgd1na2vs0mg"},{"bike_id":"1d34dc15-2ecb-4507-bcb9-ae773f0591be","system_id":"levelo_inurba_marseille","lat":43.337444,"lon":5.374475,"is_reserved":false,"is_disabled":false,"rental_uris":{"android":"levelo://app?vid=1d34dc15-2ecb-4507-bcb9-ae773f0591be","ios":"levelo://app?vid=1d34dc15-2ecb-4507-bcb9-ae773f0591be"},"vehicle_type_id":"4","last_reported":1726233326,"current_range_meters":21600,"station_id":"","pricing_plan_id":"cebpf4jnsgd1na2vs0mg"},{"bike_id":"68ff4151-97ec-460a-970f-20908099f2f1","system_id":"levelo_inurba_marseille","lat":43.30557,"lon":5.36531,"is_reserved":false,"is_disabled":false,"rental_uris":{"android":"levelo://app?vid=68ff4151-97ec-460a-970f-20908099f2f1","ios":"levelo://app?vid=68ff4151-97ec-460a-970f-20908099f2f1"},"vehicle_type_id":"4","last_reported":1726233326,"current_range_meters":38800,"station_id":"ce4bgs12rcd13ifvqcag","pricing_plan_id":"cebpf4jnsgd1na2vs0mg"},{"bike_id":"70b10b6a-34cc-460c-a115-d1c61697fe50","system_id":"levelo_inurba_marseille","lat":43.29912,"lon":5.37475,"is_reserved":false,"is_disabled":false,"rental_uris":{"android":"levelo://app?vid=70b10b6a-34cc-460c-a115-d1c61697fe50","ios":"levelo://app?vid=70b10b6a-34cc-460c-a115-d1c61697fe50"},"vehicle_type_id":"4","last_reported":1726233326,"current_range_meters":32400,"station_id":"ce4bgjh2rcd13ifvqbg0","pricing_plan_id":"cebpf4jnsgd1na2vs0mg"},{"bike_id":"d6766db9-65af-4436-94ce-bd1adef694c7","system_id":"levelo_inurba_marseille","lat":43.26684,"lon":5.38263,"is_reserved":false,"is_disabled":false,"rental_uris":{"android":"levelo://app?vid=d6766db9-65af-4436-94ce-bd1adef694c7","ios":"levelo://app?vid=d6766db9-65af-4436-94ce-bd1adef694c7"},"vehicle_type_id":"4","last_reported":1726233326,"current_range_meters":38800,"station_id":"ce4bhg92rcd13ifvqf90","pricing_plan_id":"cebpf4jnsgd1na2vs0mg"},{"bike_id":"0cbb2236-09bf-42e1-a609-5339d8ad7159","system_id":"levelo_inurba_marseille","lat":43.30948,"lon":5.39034,"is_reserved":false,"is_disabled":false,"rental_uris":{"android":"levelo://app?vid=0cbb2236-09bf-42e1-a609-5339d8ad7159","ios":"levelo://app?vid=0cbb2236-09bf-42e1-a609-5339d8ad7159"},"vehicle_type_id":"4","last_reported":1726233326,"current_range_meters":34800,"station_id":"ce4bgup2rcd13ifvqco0","pricing_plan_id":"cebpf4jnsgd1na2vs0mg"},{"bike_id":"5ddbd8ac-4c32-41a0-bd5d-0b5ab8b06354","system_id":"levelo_inurba_marseille","lat":43.29684,"lon":5.37289,"is_reserved":false,"is_disabled":false,"rental_uris":{"android":"levelo://app?vid=5ddbd8ac-4c32-41a0-bd5d-0b5ab8b06354","ios":"levelo://app?vid=5ddbd8ac-4c32-41a0-bd5d-0b5ab8b06354"},"vehicle_type_id":"4","last_reported":1726233326,"current_range_meters":31200,"station_id":"ce4bgk12rcd13ifvqbj0","pricing_plan_id":"cebpf4jnsgd1na2vs0mg"},{"bike_id":"beed390f-5590-4e36-a920-552bcc39f2d8","system_id":"levelo_inurba_marseille","lat":43.3054,"lon":5.36532,"is_reserved":false,"is_disabled":false,"rental_uris":{"android":"levelo://app?vid=beed390f-5590-4e36-a920-552bcc39f2d8","ios":"levelo://app?vid=beed390f-5590-4e36-a920-552bcc39f2d8"},"vehicle_type_id":"4","last_reported":1726233326,"current_range_meters":38800,"station_id":"ce4bgs12rcd13ifvqcag","pricing_plan_id":"cebpf4jnsgd1na2vs0mg"},{"bike_id":"61e00977-be43-400f-99ea-3c33330f7657","system_id":"levelo_inurba_marseille","lat":43.25006,"lon":5.38905,"is_reserved":false,"is_disabled":false,"rental_uris":{"android":"levelo://app?vid=61e00977-be43-400f-99ea-3c33330f7657","ios":"levelo://app?vid=61e00977-be43-400f-99ea-3c33330f7657"},"vehicle_type_id":"4","last_reported":1726233326,"current_range_meters":25200,"station_id":"ce4bhgp2rcd13ifvqfd0","pricing_plan_id":"cebpf4jnsgd1na2vs0mg"},{"bike_id":"0032f5f1-e541-4093-a68c-d29e851a1466","system_id":"levelo_inurba_marseille","lat":43.25007,"lon":5.38931,"is_reserved":false,"is_disabled":false,"rental_uris":{"android":"levelo://app?vid=0032f5f1-e541-4093-a68c-d29e851a1466","ios":"levelo://app?vid=0032f5f1-e541-4093-a68c-d29e851a1466"},"vehicle_type_id":"4","last_reported":1726233326,"current_range_meters":17200,"station_id":"ce4bhgp2rcd13ifvqfd0","pricing_plan_id":"cebpf4jnsgd1na2vs0mg"},{"bike_id":"1a4cc8f5-5fad-40e3-928b-9e9e2c7e3035","system_id":"levelo_inurba_marseille","lat":43.29007,"lon":5.356126,"is_reserved":false,"is_disabled":false,"rental_uris":{"android":"levelo://app?vid=1a4cc8f5-5fad-40e3-928b-9e9e2c7e3035","ios":"levelo://app?vid=1a4cc8f5-5fad-40e3-928b-9e9e2c7e3035"},"vehicle_type_id":"4","last_reported":1726233326,"current_range_meters":8400,"station_id":"ce4bhb92rcd13ifvqen0","pricing_plan_id":"cebpf4jnsgd1na2vs0mg"},{"bike_id":"6f460960-ce1e-4b86-8066-4975ee77fdb2","system_id":"levelo_inurba_marseille","lat":43.32482,"lon":5.36556,"is_reserved":false,"is_disabled":false,"rental_uris":{"android":"levelo://app?vid=6f460960-ce1e-4b86-8066-4975ee77fdb2","ios":"levelo://app?vid=6f460960-ce1e-4b86-8066-4975ee77fdb2"},"vehicle_type_id":"4","last_reported":1726233326,"current_range_meters":5600,"station_id":"ce4bhs12rcd13ifvqhvg","pricing_plan_id":"cebpf4jnsgd1na2vs0mg"},{"bike_id":"72dd6a67-214b-43ea-aa3b-7d9d8650531f","system_id":"levelo_inurba_marseille","lat":43.30252,"lon":5.40077,"is_reserved":false,"is_disabled":false,"rental_uris":{"android":"levelo://app?vid=72dd6a67-214b-43ea-aa3b-7d9d8650531f","ios":"levelo://app?vid=72dd6a67-214b-43ea-aa3b-7d9d8650531f"},"vehicle_type_id":"4","last_reported":1726233326,"current_range_meters":39200,"station_id":"ce4bgvh2rcd13ifvqcs0","pricing_plan_id":"cebpf4jnsgd1na2vs0mg"},{"bike_id":"2794102f-40ca-4bab-8475-933aea7c0df6","system_id":"levelo_inurba_marseille","lat":43.25583,"lon":5.38235,"is_reserved":false,"is_disabled":false,"rental_uris":{"android":"levelo://app?vid=2794102f-40ca-4bab-8475-933aea7c0df6","ios":"levelo://app?vid=2794102f-40ca-4bab-8475-933aea7c0df6"},"vehicle_type_id":"4","last_reported":1726233326,"current_range_meters":3200,"station_id":"ce4bhih2rcd13ifvqfs0","pricing_plan_id":"cebpf4jnsgd1na2vs0mg"},{"bike_id":"cd36c563-2066-400a-aeb7-7d2e69a58965","system_id":"levelo_inurba_marseille","lat":43.26681,"lon":5.38264,"is_reserved":false,"is_disabled":false,"rental_uris":{"android":"levelo://app?vid=cd36c563-2066-400a-aeb7-7d2e69a58965","ios":"levelo://app?vid=cd36c563-2066-400a-aeb7-7d2e69a58965"},"vehicle_type_id":"4","last_reported":1726233326,"current_range_meters":38800,"station_id":"ce4bhg92rcd13ifvqf90","pricing_plan_id":"cebpf4jnsgd1na2vs0mg"},{"bike_id":"439d853b-d03a-4144-9c99-6e21d6446801","system_id":"levelo_inurba_marseille","lat":43.23151,"lon":5.43721,"is_reserved":false,"is_disabled":false,"rental_uris":{"android":"levelo://app?vid=439d853b-d03a-4144-9c99-6e21d6446801","ios":"levelo://app?vid=439d853b-d03a-4144-9c99-6e21d6446801"},"vehicle_type_id":"4","last_reported":1726233326,"current_range_meters":5600,"station_id":"ce4bhmp2rcd13ifvqgog","pricing_plan_id":"cebpf4jnsgd1na2vs0mg"},{"bike_id":"66810bb0-a035-4057-bbea-a72533cd264c","system_id":"levelo_inurba_marseille","lat":43.30888,"lon":5.37194,"is_reserved":false,"is_disabled":false,"rental_uris":{"android":"levelo://app?vid=66810bb0-a035-4057-bbea-a72533cd264c","ios":"levelo://app?vid=66810bb0-a035-4057-bbea-a72533cd264c"},"vehicle_type_id":"4","last_reported":1726233326,"current_range_meters":26800,"station_id":"ce4bguh2rcd13ifvqckg","pricing_plan_id":"cebpf4jnsgd1na2vs0mg"},{"bike_id":"d5f8ca33-e137-4e84-a6a1-0dc921f8b019","system_id":"levelo_inurba_marseille","lat":43.29978,"lon":5.37176,"is_reserved":false,"is_disabled":false,"rental_uris":{"android":"levelo://app?vid=d5f8ca33-e137-4e84-a6a1-0dc921f8b019","ios":"levelo://app?vid=d5f8ca33-e137-4e84-a6a1-0dc921f8b019"},"vehicle_type_id":"4","last_reported":1726233326,"current_range_meters":28000,"station_id":"ce4bgr92rcd13ifvqc7g","pricing_plan_id":"cebpf4jnsgd1na2vs0mg"},{"bike_id":"2c265cb4-1bd2-4b5a-ba22-cf309314c08a","system_id":"levelo_inurba_marseille","lat":43.2893,"lon":5.384,"is_reserved":false,"is_disabled":false,"rental_uris":{"android":"levelo://app?vid=2c265cb4-1bd2-4b5a-ba22-cf309314c08a","ios":"levelo://app?vid=2c265cb4-1bd2-4b5a-ba22-cf309314c08a"},"vehicle_type_id":"4","last_reported":1726233326,"current_range_meters":37600,"station_id":"ce4bh612rcd13ifvqe6g","pricing_plan_id":"cebpf4jnsgd1na2vs0mg"},{"bike_id":"56830307-4a49-40f0-86d8-1373f06855be","system_id":"levelo_inurba_marseille","lat":43.29904,"lon":5.38136,"is_reserved":false,"is_disabled":false,"rental_uris":{"android":"levelo://app?vid=56830307-4a49-40f0-86d8-1373f06855be","ios":"levelo://app?vid=56830307-4a49-40f0-86d8-1373f06855be"},"vehicle_type_id":"4","last_reported":1726233326,"current_range_meters":20000,"station_id":"ce4bgj12rcd13ifvqbc0","pricing_plan_id":"cebpf4jnsgd1na2vs0mg"},{"bike_id":"666e4bc9-4aba-428e-9c9c-4ca1acd76507","system_id":"levelo_inurba_marseille","lat":43.25869,"lon":5.39901,"is_reserved":false,"is_disabled":false,"rental_uris":{"android":"levelo://app?vid=666e4bc9-4aba-428e-9c9c-4ca1acd76507","ios":"levelo://app?vid=666e4bc9-4aba-428e-9c9c-4ca1acd76507"},"vehicle_type_id":"4","last_reported":1726233326,"current_range_meters":34000,"station_id":"ce4bhl92rcd13ifvqghg","pricing_plan_id":"cebpf4jnsgd1na2vs0mg"},{"bike_id":"b243df54-6295-44ce-950d-968af1bc3d43","system_id":"levelo_inurba_marseille","lat":43.24548,"lon":5.39525,"is_reserved":false,"is_disabled":false,"rental_uris":{"android":"levelo://app?vid=b243df54-6295-44ce-950d-968af1bc3d43","ios":"levelo://app?vid=b243df54-6295-44ce-950d-968af1bc3d43"},"vehicle_type_id":"4","last_reported":1726233326,"current_range_meters":30000,"station_id":"ce4bhlp2rcd13ifvqgjg","pricing_plan_id":"cebpf4jnsgd1na2vs0mg"},{"bike_id":"76124697-dffe-4c33-9cdb-ff23d7ee3717","system_id":"levelo_inurba_marseille","lat":43.24179,"lon":5.39728,"is_reserved":false,"is_disabled":false,"rental_uris":{"android":"levelo://app?vid=76124697-dffe-4c33-9cdb-ff23d7ee3717","ios":"levelo://app?vid=76124697-dffe-4c33-9cdb-ff23d7ee3717"},"vehicle_type_id":"4","last_reported":1726233326,"current_range_meters":2000,"station_id":"ce4bhn12rcd13ifvqgpg","pricing_plan_id":"cebpf4jnsgd1na2vs0mg"},{"bike_id":"f20f613d-77b3-4abc-847d-4abd98073b48","system_id":"levelo_inurba_marseille","lat":43.28621,"lon":5.35104,"is_reserved":false,"is_disabled":false,"rental_uris":{"android":"levelo://app?vid=f20f613d-77b3-4abc-847d-4abd98073b48","ios":"levelo://app?vid=f20f613d-77b3-4abc-847d-4abd98073b48"},"vehicle_type_id":"4","last_reported":1726233326,"current_range_meters":31200,"station_id":"ce4bhch2rcd13ifvqeug","pricing_plan_id":"cebpf4jnsgd1na2vs0mg"},{"bike_id":"37391d25-87c0-4505-bac8-a768bab779a6","system_id":"levelo_inurba_marseille","lat":43.32487,"lon":5.36567,"is_reserved":false,"is_disabled":false,"rental_uris":{"android":"levelo://app?vid=37391d25-87c0-4505-bac8-a768bab779a6","ios":"levelo://app?vid=37391d25-87c0-4505-bac8-a768bab779a6"},"vehicle_type_id":"4","last_reported":1726233326,"current_range_meters":13600,"station_id":"ce4bhs12rcd13ifvqhvg","pricing_plan_id":"cebpf4jnsgd1na2vs0mg"},