{"last_updated":1700827994,"ttl":30,"version":"2.2","data":{"bikes":[{"bike_id":"4b8c8727-530b-47e2-a503-835763f00cd8","system_id":"levelo_inurba_marseille","lat":43.312239,"lon":5.368562,"is_reserved":false,"is_disabled":false,"rental_uris":{"android":"levelo://app?vid=4b8c8727-530b-47e2-a503-835763f00cd8","ios":"levelo://app?vid=4b8c8727-530b-47e2-a503-835763f00cd8"},"vehicle_type_id":"4","last_reported":1700827994,"current_range_meters":28800,"station_id":"ce4bgl92rcd13ifvqbq0","pricing_plan_id":"free"},{"bike_id":"be3186e1-6e0d-4f61-95e5-f15a199c35f3","system_id":"levelo_inurba_marseille","lat":43.314811,"lon":5.373103,"is_reserved":false,"is_disabled":false,"rental_uris":{"android":"levelo://app?vid=be3186e1-6e0d-4f61-95e5-f15a199c35f3","ios":"levelo://app?vid=be3186e1-6e0d-4f61-95e5-f15a199c35f3"},"vehicle_type_id":"4","last_reported":1700827994,"current_range_meters":10400,"station_id":"ce4bgt12rcd13ifvqcd0","pricing_plan_id":"free"},{"bike_id":"e09f8a0a-e8b5-4e56-ba83-eb26069f95a6","system_id":"levelo_inurba_marseille","lat":43.314811,"lon":5.373104,"is_reserved":false,"is_disabled":false,"rental_uris":{"android":"levelo://app?vid=e09f8a0a-e8b5-4e56-ba83-eb26069f95a6","ios":"levelo://app?vid=e09f8a0a-e8b5-4e56-ba83-eb26069f95a6"},"vehicle_type_id":"4","last_reported":1700827994,"current_range_meters":25600,"station_id":"ce4bgt12rcd13ifvqcd0","pricing_plan_id":"free"},{"bike_id":"21b86645-d3b3-4097-a807-7900fa87142f","system_id":"levelo_inurba_marseille","lat":43.314811,"lon":5.373103,"is_reserved":false,"is_disabled":false,"rental_uris":{"android":"levelo://app?vid=21b86645-d3b3-4097-a807-7900fa87142f","ios":"levelo://app?vid=21b86645-d3b3-4097-a807-7900fa87142f"},"vehicle_type_id":"4","last_reported":1700827994,"current_range_meters":18800,"station_id":"ce4bgt12rcd13ifvqcd0","pricing_plan_id":"free"},{"bike_id":"e6828738-a3f7-4275-bc5d-37f403121b1d","system_id":"levelo_inurba_marseille","lat":43.314811,"lon":5.373103,"is_reserved":false,"is_disabled":false,"rental_uris":{"android":"levelo://app?vid=e6828738-a3f7-4275-bc5d-37f403121b1d","ios":"levelo://app?vid=e6828738-a3f7-4275-bc5d-37f403121b1d"},"vehicle_type_id":"4","last_reported":1700827994,"current_range_meters":30800,"station_id":"ce4bgt12rcd13ifvqcd0","pricing_plan_id":"free"},{"bike_id":"e0a27f04-e287-4b0e-b1bb-df7b65078a38","system_id":"levelo_inurba_marseille","lat":43.3089,"lon":5.37198,"is_reserved":false,"is_disabled":false,"rental_uris":{"android":"levelo://app?vid=e0a27f04-e287-4b0e-b1bb-df7b65078a38","ios":"levelo://app?vid=e0a27f04-e287-4b0e-b1bb-df7b65078a38"},"vehicle_type_id":"4","last_reported":1700827994,"current_range_meters":5600,"station_id":"ce4bguh2rcd13ifvqckg","pricing_plan_id":"free"},{"bike_id":"fe67b6cd-6da7-452b-a5aa-333b57ed9e58","system_id":"levelo_inurba_marseille","lat":43.30546,"lon":5.36686,"is_reserved":false,"is_disabled":false,"rental_uris":{"android":"levelo://app?vid=fe67b6cd-6da7-452b-a5aa-333b57ed9e58","ios":"levelo://app?vid=fe67b6cd-6da7-452b-a5aa-333b57ed9e58"},"vehicle_type_id":"4","last_reported":1700827994,"current_range_meters":0,"station_id":"ce4bgrp2rcd13ifvqc9g","pricing_plan_id":"free"},{"bike_id":"d7a3583f-70e6-4dfa-8382-e786d436b373","system_id":"levelo_inurba_marseille","lat":43.305712,"lon":5.365641,"is_reserved":false,"is_disabled":false,"rental_uris":{"android":"levelo://app?vid=d7a3583f-70e6-4dfa-8382-e786d436b373","ios":"levelo://app?vid=d7a3583f-70e6-4dfa-8382-e786d436b373"},"vehicle_type_id":"4","last_reported":1700827994,"current_range_meters":19200,"station_id":"ce4bgs12rcd13ifvqcag","pricing_plan_id":"free"},{"bike_id":"84fe0fec-ebb1-4d39-ae17-190a98ce8faa","system_id":"levelo_inurba_marseille","lat":43.305706,"lon":5.365654,"is_reserved":false,"is_disabled":false,"rental_uris":{"android":"levelo://app?vid=84fe0fec-ebb1-4d39-ae17-190a98ce8faa","ios":"levelo://app?vid=84fe0fec-ebb1-4d39-ae17-190a98ce8faa"},"vehicle_type_id":"4","last_reported":1700827994,"current_range_meters":13600,"station_id":"ce4bgs12rcd13ifvqcag","pricing_plan_id":"free"},{"bike_id":"c33b5814-86af-45e8-98bd-4c5dde85bb45","system_id":"levelo_inurba_marseille","lat":43.305706,"lon":5.365654,"is_reserved":false,"is_disabled":false,"rental_uris":{"android":"levelo://app?vid=c33b5814-86af-45e8-98bd-4c5dde85bb45","ios":"levelo://app?vid=c33b5814-86af-45e8-98bd-4c5dde85bb45"},"vehicle_type_id":"4","last_reported":1700827994,"current_range_meters":5200,"station_id":"ce4bgs12rcd13ifvqcag","pricing_plan_id":"free"},{"bike_id":"d261a666-0af6-49ad-a053-028d0de6affc","system_id":"levelo_inurba_marseille","lat":43.305706,"lon":5.365654,"is_reserved":false,"is_disabled":false,"rental_uris":{"android":"levelo://app?vid=d261a666-0af6-49ad-a053-028d0de6affc","ios":"levelo://app?vid=d261a666-0af6-49ad-a053-028d0de6affc"},"vehicle_type_id":"4","last_reported":1700827994,"current_range_meters":2000,"station_id":"ce4bgs12rcd13ifvqcag","pricing_plan_id":"free"},{"bike_id":"e72d5dbe-d923-4a6c-96ab-dbe9156e538f","system_id":"levelo_inurba_marseille","lat":43.305706,"lon":5.365654,"is_reserved":false,"is_disabled":false,"rental_uris":{"android":"levelo://app?vid=e72d5dbe-d923-4a6c-96ab-dbe9156e538f","ios":"levelo://app?vid=e72d5dbe-d923-4a6c-96ab-dbe9156e538f"},"vehicle_type_id":"4","last_reported":1700827994,"current_range_meters":31600,"station_id":"ce4bgs12rcd13ifvqcag","pricing_plan_id":"free"},{"bike_id":"43bf5cf6-ac0a-4035-9884-61a3aec3d997","system_id":"levelo_inurba_marseille","lat":43.305706,"lon":5.365654,"is_reserved":false,"is_disabled":false,"rental_uris":{"android":"levelo://app?vid=43bf5cf6-ac0a-4035-9884-61a3aec3d997","ios":"levelo://app?vid=43bf5cf6-ac0a-4035-9884-61a3aec3d997"},"vehicle_type_id":"4","last_reported":1700827994,"current_range_meters":31200,"station_id":"ce4bgs12rcd13ifvqcag","pricing_plan_id":"free"},{"bike_id":"80b45c8b-c4fc-40e1-ac23-7604546e37bc","system_id":"levelo_inurba_marseille","lat":43.305714,"lon":5.365633,"is_reserved":false,"is_disabled":false,"rental_uris":{"android":"levelo://app?vid=80b45c8b-c4fc-40e1-ac23-7604546e37bc","ios":"levelo://app?vid=80b45c8b-c4fc-40e1-ac23-7604546e37bc"},"vehicle_type_id":"4","last_reported":1700827994,"current_range_meters":31200,"station_id":"ce4bgs12rcd13ifvqcag","pricing_plan_id":"free"},{"bike_id":"c7ba5f8c-cc62-4f9a-89ab-e3da034dc7ff","system_id":"levelo_inurba_marseille","lat":43.305706,"lon":5.365654,"is_reserved":false,"is_disabled":false,"rental_uris":{"android":"levelo://app?vid=c7ba5f8c-cc62-4f9a-89ab-e3da034dc7ff","ios":"levelo://app?vid=c7ba5f8c-cc62-4f9a-89ab-e3da034dc7ff"},"vehicle_type_id":"4","last_reported":1700827994,"current_range_meters":18800,"station_id":"ce4bgs12rcd13ifvqcag","pricing_plan_id":"free"},{"bike_id":"903fa980-3547-43a0-9d62-b67f55bb25e0","system_id":"levelo_inurba_marseille","lat":43.30823,"lon":5.37637,"is_reserved":false,"is_disabled":false,"rental_uris":{"android":"levelo://app?vid=903fa980-3547-43a0-9d62-b67f55bb25e0","ios":"levelo://app?vid=903fa980-3547-43a0-9d62-b67f55bb25e0"},"vehicle_type_id":"4","last_reported":1700827994,"current_range_meters":0,"station_id":"ce4bgv92rcd13ifvqcq0","pricing_plan_id":"free"},{"bike_id":"347135ef-3565-4355-8a75-4bae3320f960","system_id":"levelo_inurba_marseille","lat":43.30784,"lon":5.37646,"is_reserved":false,"is_disabled":false,"rental_uris":{"android":"levelo://app?vid=347135ef-3565-4355-8a75-4bae3320f960","ios":"levelo://app?vid=347135ef-3565-4355-8a75-4bae3320f960"},"vehicle_type_id":"4","last_reported":1700827994,"current_range_meters":17200,"station_id":"","pricing_plan_id":"free"},{"bike_id":"f6f4715a-8a2b-4f8f-b3d6-e7d5506593df","system_id":"levelo_inurba_marseille","lat":43.317075,"lon":5.377367,"is_reserved":false,"is_disabled":false,"rental_uris":{"android":"levelo://app?vid=f6f4715a-8a2b-4f8f-b3d6-e7d5506593df","ios":"levelo://app?vid=f6f4715a-8a2b-4f8f-b3d6-e7d5506593df"},"vehicle_type_id":"4","last_reported":1700827994,"current_range_meters":19200,"station_id":"ce4bgth2rcd13ifvqch0","pricing_plan_id":"free"},{"bike_id":"5432ebe5-659a-45a0-a8e1-89d3238e7a59","system_id":"levelo_inurba_marseille","lat":43.30307,"lon":5.36907,"is_reserved":false,"is_disabled":false,"rental_uris":{"android":"levelo://app?vid=5432ebe5-659a-45a0-a8e1-89d3238e7a59","ios":"levelo://app?vid=5432ebe5-659a-45a0-a8e1-89d3238e7a59"},"vehicle_type_id":"4","last_reported":1700827994,"current_range_meters":12800,"station_id":"ce4bgqh2rcd13ifvqc5g","pricing_plan_id":"free"},{"bike_id":"356de4d2-e479-4a3a-a1ff-27d5d59f7ef4","system_id":"levelo_inurba_marseille","lat":43.303046,"lon":5.368981,"is_reserved":false,"is_disabled":false,"rental_uris":{"android":"levelo://app?vid=356de4d2-e479-4a3a-a1ff-27d5d59f7ef4","ios":"levelo://app?vid=356de4d2-e479-4a3a-a1ff-27d5d59f7ef4"},"vehicle_type_id":"4","last_reported":1700827994,"current_range_meters":16800,"station_id":"ce4bgqh2rcd13ifvqc5g","pricing_plan_id":"free"},{"bike_id":"8e76a58e-9b9f-41fa-97c6-d0e5f4d9082d","system_id":"levelo_inurba_marseille","lat":43.301939,"lon":5.366286,"is_reserved":false,"is_disabled":false,"rental_uris":{"android":"levelo://app?vid=8e76a58e-9b9f-41fa-97c6-d0e5f4d9082d","ios":"levelo://app?vid=8e76a58e-9b9f-41fa-97c6-d0e5f4d9082d"},"vehicle_type_id":"4","last_reported":1700827994,"current_range_meters":20400,"station_id":"ce4bgrh2rcd13ifvqc8g","pricing_plan_id":"free"},{"bike_id":"fc7c0b88-6df5-49c8-b265-a489a5aa4516","system_id":"levelo_inurba_marseille","lat":43.30804,"lon":5.381543,"is_reserved":false,"is_disabled":false,"rental_uris":{"android":"levelo://app?vid=fc7c0b88-6df5-49c8-b265-a489a5aa4516","ios":"levelo://app?vid=fc7c0b88-6df5-49c8-b265-a489a5aa4516"},"vehicle_type_id":"4","last_reported":1700827994,"current_range_meters":0,"station_id":"ce4bgt12rcd13ifvqce0","pricing_plan_id":"free"},{"bike_id":"7d446fa6-db77-41e3-92c5-dd3d1fdaa5ad","system_id":"levelo_inurba_marseille","lat":43.304606,"lon":5.379026,"is_reserved":false,"is_disabled":false,"rental_uris":{"android":"levelo://app?vid=7d446fa6-db77-41e3-92c5-dd3d1fdaa5ad","ios":"levelo://app?vid=7d446fa6-db77-41e3-92c5-dd3d1fdaa5ad"},"vehicle_type_id":"4","last_reported":1700827994,"current_range_meters":29600,"station_id":"ce4bgup2rcd13ifvqcn0","pricing_plan_id":"free"},{"bike_id":"ddcd8fb5-e6f9-4509-b663-a5f016a9be0b","system_id":"levelo_inurba_marseille","lat":43.319935,"lon":5.381699,"is_reserved":false,"is_disabled":false,"rental_uris":{"android":"levelo://app?vid=ddcd8fb5-e6f9-4509-b663-a5f016a9be0b","ios":"levelo://app?vid=ddcd8fb5-e6f9-4509-b663-a5f016a9be0b"},"vehicle_type_id":"4","last_reported":1700827994,"current_range_meters":3600,"station_id":"ce4bhr12rcd13ifvqhpg","pricing_plan_id":"free"},{"bike_id":"9e5e861a-da7a-45de-bcab-61b7e0e26aab","system_id":"levelo_inurba_marseille","lat":43.319935,"lon":5.381699,"is_reserved":false,"is_disabled":false,"rental_uris":{"android":"levelo://app?vid=9e5e861a-da7a-45de-bcab-61b7e0e26aab","ios":"levelo://app?vid=9e5e861a-da7a-45de-bcab-61b7e0e26aab"},"vehicle_type_id":"4","last_reported":1700827994,"current_range_meters":22000,"station_id":"ce4bhr12rcd13ifvqhpg","pricing_plan_id":"free"},{"bike_id":"166c0c46-116f-41e8-991f-fe5e0b93d59b","system_id":"levelo_inurba_marseille","lat":43.313571,"lon":5.384829,"is_reserved":false,"is_disabled":false,"rental_uris":{"android":"levelo://app?vid=166c0c46-116f-41e8-991f-fe5e0b93d59b","ios":"levelo://app?vid=166c0c46-116f-41e8-991f-fe5e0b93d59b"},"vehicle_type_id":"4","last_reported":1700827994,"current_range_meters":2400,"station_id":"ce4bgt92rcd13ifvqcf0","pricing_plan_id":"free"},{"bike_id":"b3c25a8c-a335-4e4c-b61c-b239b075ffea","system_id":"levelo_inurba_marseille","lat":43.29931,"lon":5.36553,"is_reserved":false,"is_disabled":false,"rental_uris":{"android":"levelo://app?vid=b3c25a8c-a335-4e4c-b61c-b239b075ffea","ios":"levelo://app?vid=b3c25a8c-a335-4e4c-b61c-b239b075ffea"},"vehicle_type_id":"4","last_reported":1700827994,"current_range_meters":14800,"station_id":"ce4bgm92rcd13ifvqbr0","pricing_plan_id":"free"},{"bike_id":"b35d98a3-9c0d-4bc9-b7aa-dab5b52650cb","system_id":"levelo_inurba_marseille","lat":43.30202,"lon":5.38044,"is_reserved":false,"is_disabled":false,"rental_uris":{"android":"levelo://app?vid=b35d98a3-9c0d-4bc9-b7aa-dab5b52650cb","ios":"levelo://app?vid=b35d98a3-9c0d-4bc9-b7aa-dab5b52650cb"},"vehicle_type_id":"4","last_reported":1700827994,"current_range_meters":12400,"station_id":"","pricing_plan_id":"free"},{"bike_id":"c3045614-1eb8-488d-add5-337dc82beb2c","system_id":"levelo_inurba_marseille","lat":43.298433,"lon":5.362774,"is_reserved":false,"is_disabled":false,"rental_uris":{"android":"levelo://app?vid=c3045614-1eb8-488d-add5-337dc82beb2c","ios":"levelo://app?vid=c3045614-1eb8-488d-add5-337dc82beb2c"},"vehicle_type_id":"4","last_reported":1700827994,"current_range_meters":31200,"station_id":"ce4bgpp2rcd13ifvqc3g","pricing_plan_id":"free"},{"bike_id":"7ea1624c-355a-4b07-b8eb-91db24a820d3","system_id":"levelo_inurba_marseille","lat":43.305364,"lon":5.384119,"is_reserved":false,"is_disabled":false,"rental_uris":{"android":"levelo://app?vid=7ea1624c-355a-4b07-b8eb-91db24a820d3","ios":"levelo://app?vid=7ea1624c-355a-4b07-b8eb-91db24a820d3"},"vehicle_type_id":"4","last_reported":1700827994,"current_range_meters":24400,"station_id":"ce4bgg92rcd13ifvqb30","pricing_plan_id":"free"},{"bike_id":"1ba5c8de-e936-41b2-8dca-123b562ed684","system_id":"levelo_inurba_marseille","lat":43.298433,"lon":5.362774,"is_reserved":false,"is_disabled":false,"rental_uris":{"android":"levelo://app?vid=1ba5c8de-e936-41b2-8dca-123b562ed684","ios":"levelo://app?vid=1ba5c8de-e936-41b2-8dca-123b562ed684"},"vehicle_type_id":"4","last_reported":1700827994,"current_range_meters":28400,"station_id":"ce4bgpp2rcd13ifvqc3g","pricing_plan_id":"free"},{"bike_id":"0d549269-b895-41e7-9c2a-d9ad5d821eb5","system_id":"levelo_inurba_marseille","lat":43.298037,"lon":5.381066,"is_reserved":false,"is_disabled":false,"rental_uris":{"android":"levelo://app?vid=0d549269-b895-41e7-9c2a-d9ad5d821eb5","ios":"levelo://app?vid=0d549269-b895-41e7-9c2a-d9ad5d821eb5"},"vehicle_type_id":"4","last_reported":1700827994,"current_range_meters":11200,"station_id":"ce4bgip2rcd13ifvqbb0","pricing_plan_id":"free"},{"bike_id":"80a5ce88-e52a-4af7-b63d-e8fa364d7210","system_id":"levelo_inurba_marseille","lat":43.299243,"lon":5.374807,"is_reserved":false,"is_disabled":false,"rental_uris":{"android":"levelo://app?vid=80a5ce88-e52a-4af7-b63d-e8fa364d7210","ios":"levelo://app?vid=80a5ce88-e52a-4af7-b63d-e8fa364d7210"},"vehicle_type_id":"4","last_reported":1700827994,"current_range_meters":8000,"station_id":"ce4bgjh2rcd13ifvqbg0","pricing_plan_id":"free"},{"bike_id":"ac137c97-0837-4cd6-a12f-7167e5b904a8","system_id":"levelo_inurba_marseille","lat":43.311722,"lon":5.387247,"is_reserved":false,"is_disabled":false,"rental_uris":{"android":"levelo://app?vid=ac137c97-0837-4cd6-a12f-7167e5b904a8","ios":"levelo://app?vid=ac137c97-0837-4cd6-a12f-7167e5b904a8"},"vehicle_type_id":"4","last_reported":1700827994,"current_range_meters":5600,"station_id":"ce4bgv12rcd13ifvqcp0","pricing_plan_id":"free"},{"bike_id":"99dde141-2ea0-4c79-b085-0c26b5d6066f","system_id":"levelo_inurba_marseille","lat":43.29919,"lon":5.37489,"is_reserved":false,"is_disabled":false,"rental_uris":{"android":"levelo://app?vid=99dde141-2ea0-4c79-b085-0c26b5d6066f","ios":"levelo://app?vid=99dde141-2ea0-4c79-b085-0c26b5d6066f"},"vehicle_type_id":"4","last_reported":1700827994,"current_range_meters":0,"station_id":"ce4bgjh2rcd13ifvqbg0","pricing_plan_id":"free"},{"bike_id":"487f708b-82ea-4eaf-b232-fbc4b24ddab5","system_id":"levelo_inurba_marseille","lat":43.322872,"lon":5.382756,"is_reserved":false,"is_disabled":false,"rental_uris":{"android":"levelo://app?vid=487f708b-82ea-4eaf-b232-fbc4b24ddab5","ios":"levelo://app?vid=487f708b-82ea-4eaf-b232-fbc4b24ddab5"},"vehicle_type_id":"4","last_reported":1700827994,"current_range_meters":28000,"station_id":"ce4bhr12rcd13ifvqhqg","pricing_plan_id":"free"},{"bike_id":"57f07daa-f979-41b2-bf81-49ff7a829b2a","system_id":"levelo_inurba_marseille","lat":43.322847,"lon":5.382596,"is_reserved":false,"is_disabled":false,"rental_uris":{"android":"levelo://app?vid=57f07daa-f979-41b2-bf81-49ff7a829b2a","ios":"levelo://app?vid=57f07daa-f979-41b2-bf81-49ff7a829b2a"},"vehicle_type_id":"4","last_reported":1700827994,"current_range_meters":6800,"station_id":"ce4bhr12rcd13ifvqhqg","pricing_plan_id":"free"},{"bike_id":"8eccf735-9f13-4d66-89ee-04a7bf59eec2","system_id":"levelo_inurba_marseille","lat":43.322872,"lon":5.382756,"is_reserved":false,"is_disabled":false,"rental_uris":{"android":"levelo://app?vid=8eccf735-9f13-4d66-89ee-04a7bf59eec2","ios":"levelo://app?vid=8eccf735-9f13-4d66-89ee-04a7bf59eec2"},"vehicle_type_id":"4","last_reported":1700827994,"current_range_meters":31200,"station_id":"ce4bhr12rcd13ifvqhqg","pricing_plan_id":"free"},{"bike_id":"487c5ebe-8331-4357-9b3b-52b0c7fa643b","system_id":"levelo_inurba_marseille","lat":43.322872,"lon":5.382756,"is_reserved":false,"is_disabled":false,"rental_uris":{"android":"levelo://app?vid=487c5ebe-8331-4357-9b3b-52b0c7fa643b","ios":"levelo://app?vid=487c5ebe-8331-4357-9b3b-52b0c7fa643b"},"vehicle_type_id":"4","last_reported":1700827994,"current_range_meters":6400,"station_id":"ce4bhr12rcd13ifvqhqg","pricing_plan_id":"free"},{"bike_id":"60f8cdf5-3fb8-473e-b1c7-32b28ca21c32","system_id":"levelo_inurba_marseille","lat":43.32827,"lon":5.36688,"is_reserved":false,"is_disabled":false,"rental_uris":{"android":"levelo://app?vid=60f8cdf5-3fb8-473e-b1c7-32b28ca21c32","ios":"levelo://app?vid=60f8cdf5-3fb8-473e-b1c7-32b28ca21c32"},"vehicle_type_id":"4","last_reported":1700827994,"current_range_meters":4800,"station_id":"ce4bhs92rcd13ifvqi0g","pricing_plan_id":"free"},{"bike_id":"61e97999-8845-4f66-980f-ed9b431da9a6","system_id":"levelo_inurba_marseille","lat":43.328371,"lon":5.366909,"is_reserved":false,"is_disabled":false,"rental_uris":{"android":"levelo://app?vid=61e97999-8845-4f66-980f-ed9b431da9a6","ios":"levelo://app?vid=61e97999-8845-4f66-980f-ed9b431da9a6"},"vehicle_type_id":"4","last_reported":1700827994,"current_range_meters":0,"station_id":"ce4bhs92rcd13ifvqi0g","pricing_plan_id":"free"},{"bike_id":"a2d1fe46-b404-49b8-93cb-ba3af7e50716","system_id":"levelo_inurba_marseille","lat":43.297163,"lon":5.365866,"is_reserved":false,"is_disabled":false,"rental_uris":{"android":"levelo://app?vid=a2d1fe46-b404-49b8-93cb-ba3af7e50716","ios":"levelo://app?vid=a2d1fe46-b404-49b8-93cb-ba3af7e50716"},"vehicle_type_id":"4","last_reported":1700827994,"current_range_meters":24800,"station_id":"ce4bgn12rcd13ifvqbt0","pricing_plan_id":"free"},{"bike_id":"13f109ea-ea45-4c5e-bb74-23fd319d7061","system_id":"levelo_inurba_marseille","lat":43.297163,"lon":5.365866,"is_reserved":false,"is_disabled":false,"rental_uris":{"android":"levelo://app?vid=13f109ea-ea45-4c5e-bb74-23fd319d7061","ios":"levelo://app?vid=13f109ea-ea45-4c5e-bb74-23fd319d7061"},"vehicle_type_id":"4","last_reported":1700827994,"current_range_meters":8000,"station_id":"ce4bgn12rcd13ifvqbt0","pricing_plan_id":"free"},{"bike_id":"c89cade2-e67c-487a-ac47-609658bb176e","system_id":"levelo_inurba_marseille","lat":43.297163,"lon":5.365866,"is_reserved":false,"is_disabled":false,"rental_uris":{"android":"levelo://app?vid=c89cade2-e67c-487a-ac47-609658bb176e","ios":"levelo://app?vid=c89cade2-e67c-487a-ac47-609658bb176e"},"vehicle_type_id":"4","last_reported":1700827994,"current_range_meters":28000,"station_id":"ce4bgn12rcd13ifvqbt0","pricing_plan_id":"free"},{"bike_id":"40651570-2caa-481e-83f2-ed9b577fc84a","system_id":"levelo_inurba_marseille","lat":43.32406,"lon":5.38218,"is_reserved":false,"is_disabled":false,"rental_uris":{"android":"levelo://app?vid=40651570-2caa-481e-83f2-ed9b577fc84a","ios":"levelo://app?vid=40651570-2caa-481e-83f2-ed9b577fc84a"},"vehicle_type_id":"4","last_reported":1700827994,"current_range_meters":13200,"station_id":"","pricing_plan_id":"free"},{"bike_id":"4d7509f5-9559-42ca-a60d-bef9e80f0981","system_id":"levelo_inurba_marseille","lat":43.299576,"lon":5.379151,"is_reserved":false,"is_disabled":false,"rental_uris":{"android":"levelo://app?vid=4d7509f5-9559-42ca-a60d-bef9e80f0981","ios":"levelo://app?vid=4d7509f5-9559-42ca-a60d-bef9e80f0981"},"vehicle_type_id":"4","last_reported":1700827994,"current_range_meters":0,"station_id":"","pricing_plan_id":"free"},{"bike_id":"2efbf3e0-15a9-428e-b5f8-c25b5aeff48d","system_id":"levelo_inurba_marseille","lat":43.296935,"lon":5.376544,"is_reserved":false,"is_disabled":false,"rental_uris":{"android":"levelo://app?vid=2efbf3e0-15a9-428e-b5f8-c25b5aeff48d","ios":"levelo://app?vid=2efbf3e0-15a9-428e-b5f8-c25b5aeff48d"},"vehicle_type_id":"4","last_reported":1700827994,"current_range_meters":26800,"station_id":"ce4bgkh2rcd13ifvqbl0","pricing_plan_id":"free"},{"bike_id":"c68741dc-fdd8-434a-914b-c00b1303fb66","system_id":"levelo_inurba_marseille","lat":43.296921,"lon":5.376579,"is_reserved":false,"is_disabled":false,"rental_uris":{"android":"levelo://app?vid=c68741dc-fdd8-434a-914b-c00b1303fb66","ios":"levelo://app?vid=c68741dc-fdd8-434a-914b-c00b1303fb66"},"vehicle_type_id":"4","last_reported":1700827994,"current_range_meters":20800,"station_id":"ce4bgkh2rcd13ifvqbl0","pricing_plan_id":"free"},{"bike_id":"5733243b-f660-48cd-889a-61ae82f9f001","system_id":"levelo_inurba_marseille","lat":43.305714,"lon":5.365633,"is_reserved":false,"is_disabled":false,"rental_uris":{"android":"levelo://app?vid=5733243b-f660-48cd-889a-61ae82f9f001","ios":"levelo://app?vid=5733243b-f660-48cd-889a-61ae82f9f001"},"vehicle_type_id":"4","last_reported":1700827994,"current_range_meters":18400,"station_id":"ce4bgs12rcd13ifvqcag","pricing_plan_id":"free"},{"bike_id":"e870a805-2fbd-40ae-aeb8-108dc772ed5d","system_id":"levelo_inurba_marseille","lat":43.31759,"lon":5.39026,"is_reserved":false,"is_disabled":false,"rental_uris":{"android":"levelo://app?vid=e870a805-2fbd-40ae-aeb8-108dc772ed5d","ios":"levelo://app?vid=e870a805-2fbd-40ae-aeb8-108dc772ed5d"},"vehicle_type_id":"4","last_reported":1700827994,"current_range_meters":0,"station_id":"ce4bhqp2rcd13ifvqhng","pricing_plan_id":"free"},{"bike_id":"465c2dab-2ff9-4625-8d97-a774c86be3a4","system_id":"levelo_inurba_marseille","lat":43.298037,"lon":5.381066,"is_reserved":false,"is_disabled":false,"rental_uris":{"android":"levelo://app?vid=465c2dab-2ff9-4625-8d97-a774c86be3a4","ios":"levelo://app?vid=465c2dab-2ff9-4625-8d97-a774c86be3a4"},"vehicle_type_id":"4","last_reported":1700827994,"current_range_meters":800,"station_id":"ce4bgip2rcd13ifvqbb0","pricing_plan_id":"free"},{"bike_id":"c7a9115f-fbd9-4446-8ecf-c7232f775c30","system_id":"levelo_inurba_marseille","lat":43.295748,"lon":5.37522,"is_reserved":false,"is_disabled":false,"rental_uris":{"android":"levelo://app?vid=c7a9115f-fbd9-4446-8ecf-c7232f775c30","ios":"levelo://app?vid=c7a9115f-fbd9-4446-8ecf-c7232f775c30"},"vehicle_type_id":"4","last_reported":1700827994,"current_range_meters":11600,"station_id":"ce4bgh92rcd13ifvqb50","pricing_plan_id":"free"},{"bike_id":"6b621983-5e9e-42f7-990d-ad5a093820d2","system_id":"levelo_inurba_marseille","lat":43.293801,"lon":5.363066,"is_reserved":false,"is_disabled":false,"rental_uris":{"android":"levelo://app?vid=6b621983-5e9e-42f7-990d-ad5a093820d2","ios":"levelo://app?vid=6b621983-5e9e-42f7-990d-ad5a093820d2"},"vehicle_type_id":"4","last_reported":1700827994,"current_range_meters":4800,"station_id":"","pricing_plan_id":"free"},{"bike_id":"de048801-7454-4b39-90aa-20843d7d79be","system_id":"levelo_inurba_marseille","lat":43.29601,"lon":5.381084,"is_reserved":false,"is_disabled":false,"rental_uris":{"android":"levelo://app?vid=de048801-7454-4b39-90aa-20843d7d79be","ios":"levelo://app?vid=de048801-7454-4b39-90aa-20843d7d79be"},"vehicle_type_id":"4","last_reported":1700827994,"current_range_meters":2000,"station_id":"ce4bgl12rcd13ifvqbo0","pricing_plan_id":"free"},{"bike_id":"5a3d2df4-d8ee-4952-93d0-e08ae0f45946","system_id":"levelo_inurba_marseille","lat":43.29602,"lon":5.381084,"is_reserved":false,"is_disabled":false,"rental_uris":{"android":"levelo://app?vid=5a3d2df4-d8ee-4952-93d0-e08ae0f45946","ios":"levelo://app?vid=5a3d2df4-d8ee-4952-93d0-e08ae0f45946"},"vehicle_type_id":"4","last_reported":1700827994,"current_range_meters":20800,"station_id":"ce4bgl12rcd13ifvqbo0","pricing_plan_id":"free"},{"bike_id":"4f4e05cd-7e88-4ca0-a752-91e2aa2ae27c","system_id":"levelo_inurba_marseille","lat":43.292674,"lon":5.368494,"is_reserved":false,"is_disabled":false,"rental_uris":{"android":"levelo://app?vid=4f4e05cd-7e88-4ca0-a752-91e2aa2ae27c","ios":"levelo://app?vid=4f4e05cd-7e88-4ca0-a752-91e2aa2ae27c"},"vehicle_type_id":"4","last_reported":1700827994,"current_range_meters":0,"station_id":"ce4bhbp2rcd13ifvqesg","pricing_plan_id":"free"},{"bike_id":"3d5316dd-5c05-44ad-9437-fdac20761312","system_id":"levelo_inurba_marseille","lat":43.305994,"lon":5.393687,"is_reserved":false,"is_disabled":false,"rental_uris":{"android":"levelo://app?vid=3d5316dd-5c05-44ad-9437-fdac20761312","ios":"levelo://app?vid=3d5316dd-5c05-44ad-9437-fdac20761312"},"vehicle_type_id":"4","last_reported":1700827994,"current_range_meters":17200,"station_id":"ce4bh0p2rcd13ifvqd80","pricing_plan_id":"free"},{"bike_id":"a2b02ad8-80a1-4284-acfe-541e83b1873b","system_id":"levelo_inurba_marseille","lat":43.2936,"lon":5.37835,"is_reserved":false,"is_disabled":false,"rental_uris":{"android":"levelo://app?vid=a2b02ad8-80a1-4284-acfe-541e83b1873b","ios":"levelo://app?vid=a2b02ad8-80a1-4284-acfe-541e83b1873b"},"vehicle_type_id":"4","last_reported":1700827994,"current_range_meters":7600,"station_id":"ce4bgjh2rcd13ifvqbf0","pricing_plan_id":"free"},{"bike_id":"d6f33344-ab0b-453a-82a5-90bb03c1ef51","system_id":"levelo_inurba_marseille","lat":43.300852,"lon":5.390859,"is_reserved":false,"is_disabled":false,"rental_uris":{"android":"levelo://app?vid=d6f33344-ab0b-453a-82a5-90bb03c1ef51","ios":"levelo://app?vid=d6f33344-ab0b-453a-82a5-90bb03c1ef51"},"vehicle_type_id":"4","last_reported":1700827994,"current_range_meters":7600,"station_id":"ce4bh192rcd13ifvqdb0","pricing_plan_id":"free"},{"bike_id":"736712ba-3863-4b27-ba84-2d099f604e74","system_id":"levelo_inurba_marseille","lat":43.309038,"lon":5.396546,"is_reserved":false,"is_disabled":false,"rental_uris":{"android":"levelo://app?vid=736712ba-3863-4b27-ba84-2d099f604e74","ios":"levelo://app?vid=736712ba-3863-4b27-ba84-2d099f604e74"},"vehicle_type_id":"4","last_reported":1700827994,"current_range_meters":26000,"station_id":"ce4bh012rcd13ifvqcv0","pricing_plan_id":"free"},{"bike_id":"df22f045-4ccc-4eb6-965b-a57e98ab589c","system_id":"levelo_inurba_marseille","lat":43.309038,"lon":5.396546,"is_reserved":false,"is_disabled":false,"rental_uris":{"android":"levelo://app?vid=df22f045-4ccc-4eb6-965b-a57e98ab589c","ios":"levelo://app?vid=df22f045-4ccc-4eb6-965b-a57e98ab589c"},"vehicle_type_id":"4","last_reported":1700827994,"current_range_meters":1600,"station_id":"ce4bh012rcd13ifvqcv0","pricing_plan_id":"free"},{"bike_id":"79f7123a-427a-4515-98e6-b3412588b91d","system_id":"levelo_inurba_marseille","lat":43.3088,"lon":5.39655,"is_reserved":false,"is_disabled":false,"rental_uris":{"android":"levelo://app?vid=79f7123a-427a-4515-98e6-b3412588b91d","ios":"levelo://app?vid=79f7123a-427a-4515-98e6-b3412588b91d"},"vehicle_type_id":"4","last_reported":1700827994,"current_range_meters":11600,"station_id":"ce4bh012rcd13ifvqcv0","pricing_plan_id":"free"},{"bike_id":"1d10a1b1-d55f-4279-928a-9c6858f32ca9","system_id":"levelo_inurba_marseille","lat":43.33211,"lon":5.38112,"is_reserved":false,"is_disabled":false,"rental_uris":{"android":"levelo://app?vid=1d10a1b1-d55f-4279-928a-9c6858f32ca9","ios":"levelo://app?vid=1d10a1b1-d55f-4279-928a-9c6858f32ca9"},"vehicle_type_id":"4","last_reported":1700827994,"current_range_meters":0,"station_id":"","pricing_plan_id":"free"},{"bike_id":"c5cf4fe4-75f3-446b-8e6f-c06c1d1cffc0","system_id":"levelo_inurba_marseille","lat":43.294153,"lon":5.386305,"is_reserved":false,"is_disabled":false,"rental_uris":{"android":"levelo://app?vid=c5cf4fe4-75f3-446b-8e6f-c06c1d1cffc0","ios":"levelo://app?vid=c5cf4fe4-75f3-446b-8e6f-c06c1d1cffc0"},"vehicle_type_id":"4","last_reported":1700827994,"current_range_meters":21600,"station_id":"ce4bh2h2rcd13ifvqdh0","pricing_plan_id":"free"},{"bike_id":"2ae095fa-f331-4390-ad37-ce97158fa0ff","system_id":"levelo_inurba_marseille","lat":43.294162,"lon":5.386292,"is_reserved":false,"is_disabled":false,"rental_uris":{"android":"levelo://app?vid=2ae095fa-f331-4390-ad37-ce97158fa0ff","ios":"levelo://app?vid=2ae095fa-f331-4390-ad37-ce97158fa0ff"},"vehicle_type_id":"4","last_reported":1700827994,"current_range_meters":23200,"station_id":"ce4bh2h2rcd13ifvqdh0","pricing_plan_id":"free"},{"bike_id":"ea2ba1a6-4dd1-4be6-8000-29d9b8b555ff","system_id":"levelo_inurba_marseille","lat":43.304296,"lon":5.397513,"is_reserved":false,"is_disabled":false,"rental_uris":{"android":"levelo://app?vid=ea2ba1a6-4dd1-4be6-8000-29d9b8b555ff","ios":"levelo://app?vid=ea2ba1a6-4dd1-4be6-8000-29d9b8b555ff"},"vehicle_type_id":"4","last_reported":1700827994,"current_range_meters":24400,"station_id":"ce4bh092rcd13ifvqd20","pricing_plan_id":"free"},{"bike_id":"9ae15663-6377-4b59-bd44-d533f45bc120","system_id":"levelo_inurba_marseille","lat":43.292642,"lon":5.384254,"is_reserved":false,"is_disabled":false,"rental_uris":{"android":"levelo://app?vid=9ae15663-6377-4b59-bd44-d533f45bc120","ios":"levelo://app?vid=9ae15663-6377-4b59-bd44-d533f45bc120"},"vehicle_type_id":"4","last_reported":1700827994,"current_range_meters":1600,"station_id":"ce4bh692rcd13ifvqea0","pricing_plan_id":"free"},{"bike_id":"f2615bc8-a74f-4348-91e5-c34177ca55e0","system_id":"levelo_inurba_marseille","lat":43.330442,"lon":5.389148,"is_reserved":false,"is_disabled":false,"rental_uris":{"android":"levelo://app?vid=f2615bc8-a74f-4348-91e5-c34177ca55e0","ios":"levelo://app?vid=f2615bc8-a74f-4348-91e5-c34177ca55e0"},"vehicle_type_id":"4","last_reported":1700827994,"current_range_meters":26000,"station_id":"ce4bhr92rcd13ifvqhrg","pricing_plan_id":"free"},{"bike_id":"4f080e12-3419-4997-bd7e-b716121d92a2","system_id":"levelo_inurba_marseille","lat":43.33042,"lon":5.38922,"is_reserved":false,"is_disabled":false,"rental_uris":{"android":"levelo://app?vid=4f080e12-3419-4997-bd7e-b716121d92a2","ios":"levelo://app?vid=4f080e12-3419-4997-bd7e-b716121d92a2"},"vehicle_type_id":"4","last_reported":1700827994,"current_range_meters":0,"station_id":"ce4bhr92rcd13ifvqhrg","pricing_plan_id":"free"},{"bike_id":"f1164318-0b0d-4cc4-aa51-0afd73fdc755","system_id":"levelo_inurba_marseille","lat":43.304274,"lon":5.397513,"is_reserved":false,"is_disabled":false,"rental_uris":{"android":"levelo://app?vid=f1164318-0b0d-4cc4-aa51-0afd73fdc755","ios":"levelo://app?vid=f1164318-0b0d-4cc4-aa51-0afd73fdc755"},"vehicle_type_id":"4","last_reported":1700827994,"current_range_meters":20800,"station_id":"ce4bh092rcd13ifvqd20","pricing_plan_id":"free"},{"bike_id":"9f07a5db-853c-46df-945c-ed74c934dab2","system_id":"levelo_inurba_marseille","lat":43.290995,"lon":5.381361,"is_reserved":false,"is_disabled":false,"rental_uris":{"android":"levelo://app?vid=9f07a5db-853c-46df-945c-ed74c934dab2","ios":"levelo://app?vid=9f07a5db-853c-46df-945c-ed74c934dab2"},"vehicle_type_id":"4","last_reported":1700827994,"current_range_meters":14800,"station_id":"ce4bh512rcd13ifvqe2g","pricing_plan_id":"free"},{"bike_id":"62017e39-8e71-43bb-a5cc-203ade05804d","system_id":"levelo_inurba_marseille","lat":43.290995,"lon":5.381361,"is_reserved":false,"is_disabled":false,"rental_uris":{"android":"levelo://app?vid=62017e39-8e71-43bb-a5cc-203ade05804d","ios":"levelo://app?vid=62017e39-8e71-43bb-a5cc-203ade05804d"},"vehicle_type_id":"4","last_reported":1700827994,"current_range_meters":25600,"station_id":"ce4bh512rcd13ifvqe2g","pricing_plan_id":"free"},{"bike_id":"0ae43cb0-d7c3-44f4-83ec-62c516a85537","system_id":"levelo_inurba_marseille","lat":43.295169,"lon":5.390426,"is_reserved":false,"is_disabled":false,"rental_uris":{"android":"levelo://app?vid=0ae43cb0-d7c3-44f4-83ec-62c516a85537","ios":"levelo://app?vid=0ae43cb0-d7c3-44f4-83ec-62c516a85537"},"vehicle_type_id":"4","last_reported":1700827994,"current_range_meters":14800,"station_id":"ce4bh3p2rcd13ifvqdp0","pricing_plan_id":"free"},{"bike_id":"b73fb9ea-8893-496e-9348-50e703d92b4e","system_id":"levelo_inurba_marseille","lat":43.301117,"lon":5.398795,"is_reserved":false,"is_disabled":false,"rental_uris":{"android":"levelo://app?vid=b73fb9ea-8893-496e-9348-50e703d92b4e","ios":"levelo://app?vid=b73fb9ea-8893-496e-9348-50e703d92b4e"},"vehicle_type_id":"4","last_reported":1700827994,"current_range_meters":4000,"station_id":"ce4bh0h2rcd13ifvqd40","pricing_plan_id":"free"},{"bike_id":"65f3c0eb-327a-47fc-9fc5-09120760d0fb","system_id":"levelo_inurba_marseille","lat":43.301117,"lon":5.398795,"is_reserved":false,"is_disabled":false,"rental_uris":{"android":"levelo://app?vid=65f3c0eb-327a-47fc-9fc5-09120760d0fb","ios":"levelo://app?vid=65f3c0eb-327a-47fc-9fc5-09120760d0fb"},"vehicle_type_id":"4","last_reported":1700827994,"current_range_meters":4800,"station_id":"ce4bh0h2rcd13ifvqd40","pricing_plan_id":"free"},{"bike_id":"bf234e5d-a5d4-4596-8c3f-40e0d4def36a","system_id":"levelo_inurba_marseille","lat":43.301117,"lon":5.398795,"is_reserved":false,"is_disabled":false,"rental_uris":{"android":"levelo://app?vid=bf234e5d-a5d4-4596-8c3f-40e0d4def36a","ios":"levelo://app?vid=bf234e5d-a5d4-4596-8c3f-40e0d4def36a"},"vehicle_type_id":"4","last_reported":1700827994,"current_range_meters":18000,"station_id":"ce4bh0h2rcd13ifvqd40","pricing_plan_id":"free"},{"bike_id":"65b9b7b2-403d-4064-8fff-15092efc2d3e","system_id":"levelo_inurba_marseille","lat":43.301117,"lon":5.398795,"is_reserved":false,"is_disabled":false,"rental_uris":{"android":"levelo://app?vid=65b9b7b2-403d-4064-8fff-15092efc2d3e","ios":"levelo://app?vid=65b9b7b2-403d-4064-8fff-15092efc2d3e"},"vehicle_type_id":"4","last_reported":1700827994,"current_range_meters":5600,"station_id":"ce4bh0h2rcd13ifvqd40","pricing_plan_id":"free"},{"bike_id":"536a59c8-33fb-4d00-b762-9ec07a07e170","system_id":"levelo_inurba_marseille","lat":43.298681,"lon":5.397225,"is_reserved":false,"is_disabled":false,"rental_uris":{"android":"levelo://app?vid=536a59c8-33fb-4d00-b762-9ec07a07e170","ios":"levelo://app?vid=536a59c8-33fb-4d00-b762-9ec07a07e170"},"vehicle_type_id":"4","last_reported":1700827994,"current_range_meters":12400,"station_id":"ce4bh0h2rcd13ifvqd50","pricing_plan_id":"free"},{"bike_id":"bd6ecddf-7554-488b-8d00-a5fadf6111e9","system_id":"levelo_inurba_marseille","lat":43.2903,"lon":5.386353,"is_reserved":false,"is_disabled":false,"rental_uris":{"android":"levelo://app?vid=bd6ecddf-7554-488b-8d00-a5fadf6111e9","ios":"levelo://app?vid=bd6ecddf-7554-488b-8d00-a5fadf6111e9"},"vehicle_type_id":"4","last_reported":1700827994,"current_range_meters":3200,"station_id":"ce4bh4p2rcd13ifvqe0g","pricing_plan_id":"free"},{"bike_id":"7c3c21c8-7007-4907-a286-24998f7ad16b","system_id":"levelo_inurba_marseille","lat":43.289307,"lon":5.38406,"is_reserved":false,"is_disabled":false,"rental_uris":{"android":"levelo://app?vid=7c3c21c8-7007-4907-a286-24998f7ad16b","ios":"levelo://app?vid=7c3c21c8-7007-4907-a286-24998f7ad16b"},"vehicle_type_id":"4","last_reported":1700827994,"current_range_meters":28400,"station_id":"ce4bh612rcd13ifvqe6g","pricing_plan_id":"free"},{"bike_id":"2f010fc1-30ef-4c5c-89a9-0f6e982c5452","system_id":"levelo_inurba_marseille","lat":43.289307,"lon":5.38406,"is_reserved":false,"is_disabled":false,"rental_uris":{"android":"levelo://app?vid=2f010fc1-30ef-4c5c-89a9-0f6e982c5452","ios":"levelo://app?vid=2f010fc1-30ef-4c5c-89a9-0f6e982c5452"},"vehicle_type_id":"4","last_reported":1700827994,"current_range_meters":4400,"station_id":"ce4bh612rcd13ifvqe6g","pricing_plan_id":"free"},{"bike_id":"4fbabab4-81c6-404b-abff-c7a02e5e1b2e","system_id":"levelo_inurba_marseille","lat":43.289307,"lon":5.38406,"is_reserved":false,"is_disabled":false,"rental_uris":{"android":"levelo://app?vid=4fbabab4-81c6-404b-abff-c7a02e5e1b2e","ios":"levelo://app?vid=4fbabab4-81c6-404b-abff-c7a02e5e1b2e"},"vehicle_type_id":"4","last_reported":1700827994,"current_range_meters":27200,"station_id":"ce4bh612rcd13ifvqe6g","pricing_plan_id":"free"},{"bike_id":"148e0c69-7b6c-4e18-9067-ae257b016b02","system_id":"levelo_inurba_marseille","lat":43.287185,"lon":5.379373,"is_reserved":false,"is_disabled":false,"rental_uris":{"android":"levelo://app?vid=148e0c69-7b6c-4e18-9067-ae257b016b02","ios":"levelo://app?vid=148e0c69-7b6c-4e18-9067-ae257b016b02"},"vehicle_type_id":"4","last_reported":1700827994,"current_range_meters":16400,"station_id":"ce4bh9p2rcd13ifvqec0","pricing_plan_id":"free"},{"bike_id":"a9224cb7-5453-4df4-a648-87cd048f71a5","system_id":"levelo_inurba_marseille","lat":43.333591,"lon":5.39069,"is_reserved":false,"is_disabled":false,"rental_uris":{"android":"levelo://app?vid=a9224cb7-5453-4df4-a648-87cd048f71a5","ios":"levelo://app?vid=a9224cb7-5453-4df4-a648-87cd048f71a5"},"vehicle_type_id":"4","last_reported":1700827994,"current_range_meters":0,"station_id":"","pricing_plan_id":"free"},{"bike_id":"0e44d4ab-1c17-4ba5-a802-8b49ba3fa8e7","system_id":"levelo_inurba_marseille","lat":43.285848,"lon":5.350787,"is_reserved":false,"is_disabled":false,"rental_uris":{"android":"levelo://app?vid=0e44d4ab-1c17-4ba5-a802-8b49ba3fa8e7","ios":"levelo://app?vid=0e44d4ab-1c17-4ba5-a802-8b49ba3fa8e7"},"vehicle_type_id":"4","last_reported":1700827994,"current_range_meters":2000,"station_id":"ce4bhch2rcd13ifvqeug","pricing_plan_id":"free"},{"bike_id":"7aee70ff-24fa-448c-957c-07ad419181ff","system_id":"levelo_inurba_marseille","lat":43.283998,"lon":5.375062,"is_reserved":false,"is_disabled":false,"rental_uris":{"android":"levelo://app?vid=7aee70ff-24fa-448c-957c-07ad419181ff","ios":"levelo://app?vid=7aee70ff-24fa-448c-957c-07ad419181ff"},"vehicle_type_id":"4","last_reported":1700827994,"current_range_meters":22000,"station_id":"ce4bh412rcd13ifvqds0","pricing_plan_id":"free"},{"bike_id":"8285fcb2-6822-43d5-abdc-ad83c44d9f2e","system_id":"levelo_inurba_marseille","lat":43.28467,"lon":5.38415,"is_reserved":false,"is_disabled":false,"rental_uris":{"android":"levelo://app?vid=8285fcb2-6822-43d5-abdc-ad83c44d9f2e","ios":"levelo://app?vid=8285fcb2-6822-43d5-abdc-ad83c44d9f2e"},"vehicle_type_id":"4","last_reported":1700827994,"current_range_meters":0,"station_id":"ce4bh512rcd13ifvqe3g","pricing_plan_id":"free"},{"bike_id":"7b4e4df4-ac2b-47c5-a80f-22d822d5d266","system_id":"levelo_inurba_marseille","lat":43.284217,"lon":5.349697,"is_reserved":false,"is_disabled":false,"rental_uris":{"android":"levelo://app?vid=7b4e4df4-ac2b-47c5-a80f-22d822d5d266","ios":"levelo://app?vid=7b4e4df4-ac2b-47c5-a80f-22d822d5d266"},"vehicle_type_id":"4","last_reported":1700827994,"current_range_meters":23600,"station_id":"ce4bhbh2rcd13ifvqepg","pricing_plan_id":"free"},{"bike_id":"7867e2aa-6775-460a-8640-4bd0ca253b7d","system_id":"levelo_inurba_marseille","lat":43.284219,"lon":5.3497,"is_reserved":false,"is_disabled":false,"rental_uris":{"android":"levelo://app?vid=7867e2aa-6775-460a-8640-4bd0ca253b7d","ios":"levelo://app?vid=7867e2aa-6775-460a-8640-4bd0ca253b7d"},"vehicle_type_id":"4","last_reported":1700827994,"current_range_meters":19200,"station_id":"ce4bhbh2rcd13ifvqepg","pricing_plan_id":"free"},{"bike_id":"fd5e7bbe-6d7e-4e79-8bc6-97345f8100b5","system_id":"levelo_inurba_marseille","lat":43.284217,"lon":5.349697,"is_reserved":false,"is_disabled":false,"rental_uris":{"android":"levelo://app?vid=fd5e7bbe-6d7e-4e79-8bc6-97345f8100b5","ios":"levelo://app?vid=fd5e7bbe-6d7e-4e79-8bc6-97345f8100b5"},"vehicle_type_id":"4","last_reported":1700827994,"current_range_meters":29600,"station_id":"ce4bhbh2rcd13ifvqepg","pricing_plan_id":"free"},{"bike_id":"e2284003-4e46-4e0a-93e7-73d05c3666d9","system_id":"levelo_inurba_marseille","lat":43.33508,"lon":5.397755,"is_reserved":false,"is_disabled":false,"rental_uris":{"android":"levelo://app?vid=e2284003-4e46-4e0a-93e7-73d05c3666d9","ios":"levelo://app?vid=e2284003-4e46-4e0a-93e7-73d05c3666d9"},"vehicle_type_id":"4","last_reported":1700827994,"current_range_meters":26400,"station_id":"","pricing_plan_id":"free"},{"bike_id":"b4bc6c19-20e6-4b1e-b989-40d4ba171e93","system_id":"levelo_inurba_marseille","lat":43.33527,"lon":5.39762,"is_reserved":false,"is_disabled":false,"rental_uris":{"android":"levelo://app?vid=b4bc6c19-20e6-4b1e-b989-40d4ba171e93","ios":"levelo://app?vid=b4bc6c19-20e6-4b1e-b989-40d4ba171e93"},"vehicle_type_id":"4","last_reported":1700827994,"current_range_meters":5600,"station_id":"","pricing_plan_id":"free"},{"bike_id":"683e58ad-12f5-4267-a2e6-fa838625375e","system_id":"levelo_inurba_marseille","lat":43.2927,"lon":5.40122,"is_reserved":false,"is_disabled":false,"rental_uris":{"android":"levelo://app?vid=683e58ad-12f5-4267-a2e6-fa838625375e","ios":"levelo://app?vid=683e58ad-12f5-4267-a2e6-fa838625375e"},"vehicle_type_id":"4","last_reported":1700827994,"current_range_meters":0,"station_id":"ce4bh312rcd13ifvqdk0","pricing_plan_id":"free"},{"bike_id":"57e4521e-28b6-4748-b110-acd1210bf729","system_id":"levelo_inurba_marseille","lat":43.282754,"lon":5.350519,"is_reserved":false,"is_disabled":false,"rental_uris":{"android":"levelo://app?vid=57e4521e-28b6-4748-b110-acd1210bf729","ios":"levelo://app?vid=57e4521e-28b6-4748-b110-acd1210bf729"},"vehicle_type_id":"4","last_reported":1700827994,"current_range_meters":1200,"station_id":"ce4bhbp2rcd13ifvqerg","pricing_plan_id":"free"},{"bike_id":"41761e4c-45c9-48ae-af93-0b9eb4e970d6","system_id":"levelo_inurba_marseille","lat":43.28039,"lon":5.369297,"is_reserved":false,"is_disabled":false,"rental_uris":{"android":"levelo://app?vid=41761e4c-45c9-48ae-af93-0b9eb4e970d6","ios":"levelo://app?vid=41761e4c-45c9-48ae-af93-0b9eb4e970d6"},"vehicle_type_id":"4","last_reported":1700827994,"current_range_meters":5200,"station_id":"ce4bha12rcd13ifvqef0","pricing_plan_id":"free"},{"bike_id":"ada9b365-6faa-490d-a5be-ee668f8fc4a2","system_id":"levelo_inurba_marseille","lat":43.29028,"lon":5.39949,"is_reserved":false,"is_disabled":false,"rental_uris":{"android":"levelo://app?vid=ada9b365-6faa-490d-a5be-ee668f8fc4a2","ios":"levelo://app?vid=ada9b365-6faa-490d-a5be-ee668f8fc4a2"},"vehicle_type_id":"4","last_reported":1700827994,"current_range_meters":26000,"station_id":"ce4bh392rcd13ifvqdm0","pricing_plan_id":"free"},{"bike_id":"48dabb91-24c4-4541-88ba-bec534d5aea8","system_id":"levelo_inurba_marseille","lat":43.29037,"lon":5.39968,"is_reserved":false,"is_disabled":false,"rental_uris":{"android":"levelo://app?vid=48dabb91-24c4-4541-88ba-bec534d5aea8","ios":"levelo://app?vid=48dabb91-24c4-4541-88ba-bec534d5aea8"},"vehicle_type_id":"4","last_reported":1700827994,"current_range_meters":14400,"station_id":"ce4bh392rcd13ifvqdm0","pricing_plan_id":"free"},{"bike_id":"466adc12-e7bc-4039-8efb-f1a0c3d0b178","system_id":"levelo_inurba_marseille","lat":43.29029,"lon":5.39967,"is_reserved":false,"is_disabled":false,"rental_uris":{"android":"levelo://app?vid=466adc12-e7bc-4039-8efb-f1a0c3d0b178","ios":"levelo://app?vid=466adc12-e7bc-4039-8efb-f1a0c3d0b178"},"vehicle_type_id":"4","last_reported":1700827994,"current_range_meters":4800,"station_id":"ce4bh392rcd13ifvqdm0","pricing_plan_id":"free"},{"bike_id":"34dcb56a-764b-41f0-b2c1-9279fc71deb9","system_id":"levelo_inurba_marseille","lat":43.281044,"lon":5.378308,"is_reserved":false,"is_disabled":false,"rental_uris":{"android":"levelo://app?vid=34dcb56a-764b-41f0-b2c1-9279fc71deb9","ios":"levelo://app?vid=34dcb56a-764b-41f0-b2c1-9279fc71deb9"},"vehicle_type_id":"4","last_reported":1700827994,"current_range_meters":10000,"station_id":"ce4bha12rcd13ifvqee0","pricing_plan_id":"free"},{"bike_id":"b5aaec99-8748-4c3c-89a2-930f3ae99d5e","system_id":"levelo_inurba_marseille","lat":43.290412,"lon":5.399633,"is_reserved":false,"is_disabled":false,"rental_uris":{"android":"levelo://app?vid=b5aaec99-8748-4c3c-89a2-930f3ae99d5e","ios":"levelo://app?vid=b5aaec99-8748-4c3c-89a2-930f3ae99d5e"},"vehicle_type_id":"4","last_reported":1700827994,"current_range_meters":14800,"station_id":"ce4bh392rcd13ifvqdm0","pricing_plan_id":"free"},{"bike_id":"0eaf1dd6-08bf-400f-ba10-1702ae8d6b7b","system_id":"levelo_inurba_marseille","lat":43.29027,"lon":5.39988,"is_reserved":false,"is_disabled":false,"rental_uris":{"android":"levelo://app?vid=0eaf1dd6-08bf-400f-ba10-1702ae8d6b7b","ios":"levelo://app?vid=0eaf1dd6-08bf-400f-ba10-1702ae8d6b7b"},"vehicle_type_id":"4","last_reported":1700827994,"current_range_meters":18000,"station_id":"ce4bh392rcd13ifvqdm0","pricing_plan_id":"free"},{"bike_id":"8a7535c8-5c9d-49c8-b5f9-52c1e3b88cad","system_id":"levelo_inurba_marseille","lat":43.29021,"lon":5.39983,"is_reserved":false,"is_disabled":false,"rental_uris":{"android":"levelo://app?vid=8a7535c8-5c9d-49c8-b5f9-52c1e3b88cad","ios":"levelo://app?vid=8a7535c8-5c9d-49c8-b5f9-52c1e3b88cad"},"vehicle_type_id":"4","last_reported":1700827994,"current_range_meters":24000,"station_id":"ce4bh392rcd13ifvqdm0","pricing_plan_id":"free"},{"bike_id":"2e5fd5d4-c3c1-46b1-8721-7eafa76dab78","system_id":"levelo_inurba_marseille","lat":43.304188,"lon":5.412904,"is_reserved":false,"is_disabled":false,"rental_uris":{"android":"levelo://app?vid=2e5fd5d4-c3c1-46b1-8721-7eafa76dab78","ios":"levelo://app?vid=2e5fd5d4-c3c1-46b1-8721-7eafa76dab78"},"vehicle_type_id":"4","last_reported":1700827994,"current_range_meters":27200,"station_id":"ce4bhop2rcd13ifvqh8g","pricing_plan_id":"free"},{"bike_id":"e8997d84-e9e0-4aaa-a76a-c6d2af7271c7","system_id":"levelo_inurba_marseille","lat":43.298781,"lon":5.410336,"is_reserved":false,"is_disabled":false,"rental_uris":{"android":"levelo://app?vid=e8997d84-e9e0-4aaa-a76a-c6d2af7271c7","ios":"levelo://app?vid=e8997d84-e9e0-4aaa-a76a-c6d2af7271c7"},"vehicle_type_id":"4","last_reported":1700827994,"current_range_meters":0,"station_id":"","pricing_plan_id":"free"},{"bike_id":"f3dbf1c1-5f4a-4d1c-aa03-71c372130a55","system_id":"levelo_inurba_marseille","lat":43.28246,"lon":5.38992,"is_reserved":false,"is_disabled":false,"rental_uris":{"android":"levelo://app?vid=f3dbf1c1-5f4a-4d1c-aa03-71c372130a55","ios":"levelo://app?vid=f3dbf1c1-5f4a-4d1c-aa03-71c372130a55"},"vehicle_type_id":"4","last_reported":1700827994,"current_range_meters":16000,"station_id":"","pricing_plan_id":"free"},{"bike_id":"5a82cc2d-d60f-47bc-8f17-8fffaca9ef44","system_id":"levelo_inurba_marseille","lat":43.290412,"lon":5.399633,"is_reserved":false,"is_disabled":false,"rental_uris":{"android":"levelo://app?vid=5a82cc2d-d60f-47bc-8f17-8fffaca9ef44","ios":"levelo://app?vid=5a82cc2d-d60f-47bc-8f17-8fffaca9ef44"},"vehicle_type_id":"4","last_reported":1700827994,"current_range_meters":19200,"station_id":"ce4bh392rcd13ifvqdm0","pricing_plan_id":"free"},{"bike_id":"325e0011-df85-473a-8eec-bf75c5f79d2f","system_id":"levelo_inurba_marseille","lat":43.279087,"lon":5.380114,"is_reserved":false,"is_disabled":false,"rental_uris":{"android":"levelo://app?vid=325e0011-df85-473a-8eec-bf75c5f79d2f","ios":"levelo://app?vid=325e0011-df85-473a-8eec-bf75c5f79d2f"},"vehicle_type_id":"4","last_reported":1700827994,"current_range_meters":16400,"station_id":"ce4bhf92rcd13ifvqf50","pricing_plan_id":"free"},{"bike_id":"ed9dbb84-75b7-4587-8c4b-c5878c777a3a","system_id":"levelo_inurba_marseille","lat":43.287154,"lon":5.399979,"is_reserved":false,"is_disabled":false,"rental_uris":{"android":"levelo://app?vid=ed9dbb84-75b7-4587-8c4b-c5878c777a3a","ios":"levelo://app?vid=ed9dbb84-75b7-4587-8c4b-c5878c777a3a"},"vehicle_type_id":"4","last_reported":1700827994,"current_range_meters":14800,"station_id":"ce4bho92rcd13ifvqh3g","pricing_plan_id":"free"},{"bike_id":"f8c7dd16-9a7a-4b2b-a788-81f6dd0e28d4","system_id":"levelo_inurba_marseille","lat":43.320045,"lon":5.415046,"is_reserved":false,"is_disabled":false,"rental_uris":{"android":"levelo://app?vid=f8c7dd16-9a7a-4b2b-a788-81f6dd0e28d4","ios":"levelo://app?vid=f8c7dd16-9a7a-4b2b-a788-81f6dd0e28d4"},"vehicle_type_id":"4","last_reported":1700827994,"current_range_meters":25600,"station_id":"ce4bhq92rcd13ifvqhkg","pricing_plan_id":"free"},{"bike_id":"5e9853a1-683a-4ee1-bc33-17bb5616f098","system_id":"levelo_inurba_marseille","lat":43.279742,"lon":5.38744,"is_reserved":false,"is_disabled":false,"rental_uris":{"android":"levelo://app?vid=5e9853a1-683a-4ee1-bc33-17bb5616f098","ios":"levelo://app?vid=5e9853a1-683a-4ee1-bc33-17bb5616f098"},"vehicle_type_id":"4","last_reported":1700827994,"current_range_meters":2800,"station_id":"ce4bhg12rcd13ifvqf80","pricing_plan_id":"free"},{"bike_id":"803c6be2-ae82-4e27-926d-efa82ec53aaf","system_id":"levelo_inurba_marseille","lat":43.279742,"lon":5.38744,"is_reserved":false,"is_disabled":false,"rental_uris":{"android":"levelo://app?vid=803c6be2-ae82-4e27-926d-efa82ec53aaf","ios":"levelo://app?vid=803c6be2-ae82-4e27-926d-efa82ec53aaf"},"vehicle_type_id":"4","last_reported":1700827994,"current_range_meters":24400,"station_id":"ce4bhg12rcd13ifvqf80","pricing_plan_id":"free"},{"bike_id":"e84219aa-97fa-413c-a868-beb1b29c67b0","system_id":"levelo_inurba_marseille","lat":43.279742,"lon":5.38744,"is_reserved":false,"is_disabled":false,"rental_uris":{"android":"levelo://app?vid=e84219aa-97fa-413c-a868-beb1b29c67b0","ios":"levelo://app?vid=e84219aa-97fa-413c-a868-beb1b29c67b0"},"vehicle_type_id":"4","last_reported":1700827994,"current_range_meters":18400,"station_id":"ce4bhg12rcd13ifvqf80","pricing_plan_id":"free"},{"bike_id":"e4def290-1fc4-48b2-ae07-af59bbe0edb4","system_id":"levelo_inurba_marseille","lat":43.279742,"lon":5.38744,"is_reserved":false,"is_disabled":false,"rental_uris":{"android":"levelo://app?vid=e4def290-1fc4-48b2-ae07-af59bbe0edb4","ios":"levelo://app?vid=e4def290-1fc4-48b2-ae07-af59bbe0edb4"},"vehicle_type_id":"4","last_reported":1700827994,"current_range_meters":16800,"station_id":"ce4bhg12rcd13ifvqf80","pricing_plan_id":"free"},{"bike_id":"a5c2e938-1b45-433e-8a9d-d45654076d90","system_id":"levelo_inurba_marseille","lat":43.292571,"lon":5.409107,"is_reserved":false,"is_disabled":false,"rental_uris":{"android":"levelo://app?vid=a5c2e938-1b45-433e-8a9d-d45654076d90","ios":"levelo://app?vid=a5c2e938-1b45-433e-8a9d-d45654076d90"},"vehicle_type_id":"4","last_reported":1700827994,"current_range_meters":7600,"station_id":"ce4bh192rcd13ifvqdc0","pricing_plan_id":"free"},{"bike_id":"a954200a-e694-4ead-9ad3-420e90b99780","system_id":"levelo_inurba_marseille","lat":43.29252,"lon":5.40908,"is_reserved":false,"is_disabled":false,"rental_uris":{"android":"levelo://app?vid=a954200a-e694-4ead-9ad3-420e90b99780","ios":"levelo://app?vid=a954200a-e694-4ead-9ad3-420e90b99780"},"vehicle_type_id":"4","last_reported":1700827994,"current_range_meters":0,"station_id":"ce4bh192rcd13ifvqdc0","pricing_plan_id":"free"},{"bike_id":"f68758e3-3869-4b8f-9b3d-f094b2d27ea4","system_id":"levelo_inurba_marseille","lat":43.28103,"lon":5.39435,"is_reserved":false,"is_disabled":false,"rental_uris":{"android":"levelo://app?vid=f68758e3-3869-4b8f-9b3d-f094b2d27ea4","ios":"levelo://app?vid=f68758e3-3869-4b8f-9b3d-f094b2d27ea4"},"vehicle_type_id":"4","last_reported":1700827994,"current_range_meters":16000,"station_id":"","pricing_plan_id":"free"},{"bike_id":"380bea03-66b9-494a-9d3c-ad0da1c35a22","system_id":"levelo_inurba_marseille","lat":43.29369,"lon":5.41275,"is_reserved":false,"is_disabled":false,"rental_uris":{"android":"levelo://app?vid=380bea03-66b9-494a-9d3c-ad0da1c35a22","ios":"levelo://app?vid=380bea03-66b9-494a-9d3c-ad0da1c35a22"},"vehicle_type_id":"4","last_reported":1700827994,"current_range_meters":0,"station_id":"","pricing_plan_id":"free"},{"bike_id":"d558b0a4-b730-4a30-a1f9-dece1753e589","system_id":"levelo_inurba_marseille","lat":43.2763,"lon":5.38386,"is_reserved":false,"is_disabled":false,"rental_uris":{"android":"levelo://app?vid=d558b0a4-b730-4a30-a1f9-dece1753e589","ios":"levelo://app?vid=d558b0a4-b730-4a30-a1f9-dece1753e589"},"vehicle_type_id":"4","last_reported":1700827994,"current_range_meters":15200,"station_id":"","pricing_plan_id":"free"},{"bike_id":"caee7a9e-1d35-4225-9e9c-0dc1addbde80","system_id":"levelo_inurba_marseille","lat":43.278401,"lon":5.392152,"is_reserved":false,"is_disabled":false,"rental_uris":{"android":"levelo://app?vid=caee7a9e-1d35-4225-9e9c-0dc1addbde80","ios":"levelo://app?vid=caee7a9e-1d35-4225-9e9c-0dc1addbde80"},"vehicle_type_id":"4","last_reported":1700827994,"current_range_meters":20800,"station_id":"ce4bhjp2rcd13ifvqga0","pricing_plan_id":"free"},{"bike_id":"cb8bfbd7-7068-4cdb-9b06-3e35c4bb75cd","system_id":"levelo_inurba_marseille","lat":43.273613,"lon":5.362705,"is_reserved":false,"is_disabled":false,"rental_uris":{"android":"levelo://app?vid=cb8bfbd7-7068-4cdb-9b06-3e35c4bb75cd","ios":"levelo://app?vid=cb8bfbd7-7068-4cdb-9b06-3e35c4bb75cd"},"vehicle_type_id":"4","last_reported":1700827994,"current_range_meters":1200,"station_id":"ce4bhbh2rcd13ifvqeo0","pricing_plan_id":"free"},{"bike_id":"b32caa27-089c-48a7-ab5d-2e2e5e0b7972","system_id":"levelo_inurba_marseille","lat":43.33612,"lon":5.410321,"is_reserved":false,"is_disabled":false,"rental_uris":{"android":"levelo://app?vid=b32caa27-089c-48a7-ab5d-2e2e5e0b7972","ios":"levelo://app?vid=b32caa27-089c-48a7-ab5d-2e2e5e0b7972"},"vehicle_type_id":"4","last_reported":1700827994,"current_range_meters":18400,"station_id":"ce4bhqh2rcd13ifvqhmg","pricing_plan_id":"free"},{"bike_id":"59336d62-7963-4534-990b-42729db8f51c","system_id":"levelo_inurba_marseille","lat":43.336148,"lon":5.410349,"is_reserved":false,"is_disabled":false,"rental_uris":{"android":"levelo://app?vid=59336d62-7963-4534-990b-42729db8f51c","ios":"levelo://app?vid=59336d62-7963-4534-990b-42729db8f51c"},"vehicle_type_id":"4","last_reported":1700827994,"current_range_meters":29200,"station_id":"ce4bhqh2rcd13ifvqhmg","pricing_plan_id":"free"},{"bike_id":"a39270ba-f86f-494e-949b-747922ddb9ac","system_id":"levelo_inurba_marseille","lat":43.276771,"lon":5.388799,"is_reserved":false,"is_disabled":false,"rental_uris":{"android":"levelo://app?vid=a39270ba-f86f-494e-949b-747922ddb9ac","ios":"levelo://app?vid=a39270ba-f86f-494e-949b-747922ddb9ac"},"vehicle_type_id":"4","last_reported":1700827994,"current_range_meters":20400,"station_id":"ce4bhi12rcd13ifvqfo0","pricing_plan_id":"free"},{"bike_id":"fc8a50fc-7fb9-4b58-ae5e-3658ebaf4b71","system_id":"levelo_inurba_marseille","lat":43.34182,"lon":5.406,"is_reserved":false,"is_disabled":false,"rental_uris":{"android":"levelo://app?vid=fc8a50fc-7fb9-4b58-ae5e-3658ebaf4b71","ios":"levelo://app?vid=fc8a50fc-7fb9-4b58-ae5e-3658ebaf4b71"},"vehicle_type_id":"4","last_reported":1700827994,"current_range_meters":4400,"station_id":"","pricing_plan_id":"free"},{"bike_id":"53a673be-60d5-43ad-b964-14048a7ef946","system_id":"levelo_inurba_marseille","lat":43.29041,"lon":5.399634,"is_reserved":false,"is_disabled":false,"rental_uris":{"android":"levelo://app?vid=53a673be-60d5-43ad-b964-14048a7ef946","ios":"levelo://app?vid=53a673be-60d5-43ad-b964-14048a7ef946"},"vehicle_type_id":"4","last_reported":1700827994,"current_range_meters":22400,"station_id":"ce4bh392rcd13ifvqdm0","pricing_plan_id":"free"},{"bike_id":"ee3353de-ad16-41b2-900b-c0d5b5e68caf","system_id":"levelo_inurba_marseille","lat":43.340804,"lon":5.410219,"is_reserved":false,"is_disabled":false,"rental_uris":{"android":"levelo://app?vid=ee3353de-ad16-41b2-900b-c0d5b5e68caf","ios":"levelo://app?vid=ee3353de-ad16-41b2-900b-c0d5b5e68caf"},"vehicle_type_id":"4","last_reported":1700827994,"current_range_meters":30800,"station_id":"ce4bhqh2rcd13ifvqhlg","pricing_plan_id":"free"},{"bike_id":"422eaa23-7465-45a6-8f34-ef03bb0d0a13","system_id":"levelo_inurba_marseille","lat":43.340804,"lon":5.410219,"is_reserved":false,"is_disabled":false,"rental_uris":{"android":"levelo://app?vid=422eaa23-7465-45a6-8f34-ef03bb0d0a13","ios":"levelo://app?vid=422eaa23-7465-45a6-8f34-ef03bb0d0a13"},"vehicle_type_id":"4","last_reported":1700827994,"current_range_meters":24400,"station_id":"ce4bhqh2rcd13ifvqhlg","pricing_plan_id":"free"},{"bike_id":"f6d19d1b-693b-4963-ba5a-4b930cec88fd","system_id":"levelo_inurba_marseille","lat":43.340804,"lon":5.410219,"is_reserved":false,"is_disabled":false,"rental_uris":{"android":"levelo://app?vid=f6d19d1b-693b-4963-ba5a-4b930cec88fd","ios":"levelo://app?vid=f6d19d1b-693b-4963-ba5a-4b930cec88fd"},"vehicle_type_id":"4","last_reported":1700827994,"current_range_meters":30800,"station_id":"ce4bhqh2rcd13ifvqhlg","pricing_plan_id":"free"},{"bike_id":"e0251fd8-4e40-4ecc-8379-605029ccde6c","system_id":"levelo_inurba_marseille","lat":43.340804,"lon":5.410219,"is_reserved":false,"is_disabled":false,"rental_uris":{"android":"levelo://app?vid=e0251fd8-4e40-4ecc-8379-605029ccde6c","ios":"levelo://app?vid=e0251fd8-4e40-4ecc-8379-605029ccde6c"},"vehicle_type_id":"4","last_reported":1700827994,"current_range_meters":24000,"station_id":"ce4bhqh2rcd13ifvqhlg","pricing_plan_id":"free"},{"bike_id":"d2eb6e60-c832-4226-b0bd-5c4c79e22e56","system_id":"levelo_inurba_marseille","lat":43.340804,"lon":5.410219,"is_reserved":false,"is_disabled":false,"rental_uris":{"android":"levelo://app?vid=d2eb6e60-c832-4226-b0bd-5c4c79e22e56","ios":"levelo://app?vid=d2eb6e60-c832-4226-b0bd-5c4c79e22e56"},"vehicle_type_id":"4","last_reported":1700827994,"current_range_meters":12400,"station_id":"ce4bhqh2rcd13ifvqhlg","pricing_plan_id":"free"},{"bike_id":"48565e36-de67-4c6a-8337-460138cf3900","system_id":"levelo_inurba_marseille","lat":43.340804,"lon":5.410219,"is_reserved":false,"is_disabled":false,"rental_uris":{"android":"levelo://app?vid=48565e36-de67-4c6a-8337-460138cf3900","ios":"levelo://app?vid=48565e36-de67-4c6a-8337-460138cf3900"},"vehicle_type_id":"4","last_reported":1700827994,"current_range_meters":12800,"station_id":"ce4bhqh2rcd13ifvqhlg","pricing_plan_id":"free"},{"bike_id":"04c48993-d044-41c4-9cb8-117723655329","system_id":"levelo_inurba_marseille","lat":43.340804,"lon":5.410219,"is_reserved":false,"is_disabled":false,"rental_uris":{"android":"levelo://app?vid=04c48993-d044-41c4-9cb8-117723655329","ios":"levelo://app?vid=04c48993-d044-41c4-9cb8-117723655329"},"vehicle_type_id":"4","last_reported":1700827994,"current_range_meters":19200,"station_id":"ce4bhqh2rcd13ifvqhlg","pricing_plan_id":"free"},{"bike_id":"42402f9f-a5de-4464-b628-42de40584ac1","system_id":"levelo_inurba_marseille","lat":43.340804,"lon":5.410219,"is_reserved":false,"is_disabled":false,"rental_uris":{"android":"levelo://app?vid=42402f9f-a5de-4464-b628-42de40584ac1","ios":"levelo://app?vid=42402f9f-a5de-4464-b628-42de40584ac1"},"vehicle_type_id":"4","last_reported":1700827994,"current_range_meters":2800,"station_id":"ce4bhqh2rcd13ifvqhlg","pricing_plan_id":"free"},{"bike_id":"99e6c035-6835-4756-ae1b-acf7a8aac303","system_id":"levelo_inurba_marseille","lat":43.27209,"lon":5.39185,"is_reserved":false,"is_disabled":false,"rental_uris":{"android":"levelo://app?vid=99e6c035-6835-4756-ae1b-acf7a8aac303","ios":"levelo://app?vid=99e6c035-6835-4756-ae1b-acf7a8aac303"},"vehicle_type_id":"4","last_reported":1700827994,"current_range_meters":12800,"station_id":"","pricing_plan_id":"free"},{"bike_id":"97480f06-1b31-4e25-8363-9aa0a75321c0","system_id":"levelo_inurba_marseille","lat":43.272124,"lon":5.391768,"is_reserved":false,"is_disabled":false,"rental_uris":{"android":"levelo://app?vid=97480f06-1b31-4e25-8363-9aa0a75321c0","ios":"levelo://app?vid=97480f06-1b31-4e25-8363-9aa0a75321c0"},"vehicle_type_id":"4","last_reported":1700827994,"current_range_meters":18800,"station_id":"ce4bhhp2rcd13ifvqfm0","pricing_plan_id":"free"},{"bike_id":"582bd1bf-fc5c-4e9a-966a-3393b1b3e3f2","system_id":"levelo_inurba_marseille","lat":43.278128,"lon":5.407195,"is_reserved":false,"is_disabled":false,"rental_uris":{"android":"levelo://app?vid=582bd1bf-fc5c-4e9a-966a-3393b1b3e3f2","ios":"levelo://app?vid=582bd1bf-fc5c-4e9a-966a-3393b1b3e3f2"},"vehicle_type_id":"4","last_reported":1700827994,"current_range_meters":17600,"station_id":"ce4bhnh2rcd13ifvqgtg","pricing_plan_id":"free"},{"bike_id":"a8593da5-57bd-4110-a835-e4552f2a1ff7","system_id":"levelo_inurba_marseille","lat":43.278128,"lon":5.407195,"is_reserved":false,"is_disabled":false,"rental_uris":{"android":"levelo://app?vid=a8593da5-57bd-4110-a835-e4552f2a1ff7","ios":"levelo://app?vid=a8593da5-57bd-4110-a835-e4552f2a1ff7"},"vehicle_type_id":"4","last_reported":1700827994,"current_range_meters":16000,"station_id":"ce4bhnh2rcd13ifvqgtg","pricing_plan_id":"free"},{"bike_id":"597c847a-fdb6-4611-bcf5-0c9291e2abca","system_id":"levelo_inurba_marseille","lat":43.278044,"lon":5.406987,"is_reserved":false,"is_disabled":false,"rental_uris":{"android":"levelo://app?vid=597c847a-fdb6-4611-bcf5-0c9291e2abca","ios":"levelo://app?vid=597c847a-fdb6-4611-bcf5-0c9291e2abca"},"vehicle_type_id":"4","last_reported":1700827994,"current_range_meters":15600,"station_id":"","pricing_plan_id":"free"},{"bike_id":"d84d5f9e-8a52-4da9-8abc-f42760e0e7fe","system_id":"levelo_inurba_marseille","lat":43.278128,"lon":5.407195,"is_reserved":false,"is_disabled":false,"rental_uris":{"android":"levelo://app?vid=d84d5f9e-8a52-4da9-8abc-f42760e0e7fe","ios":"levelo://app?vid=d84d5f9e-8a52-4da9-8abc-f42760e0e7fe"},"vehicle_type_id":"4","last_reported":1700827994,"current_range_meters":15200,"station_id":"ce4bhnh2rcd13ifvqgtg","pricing_plan_id":"free"},{"bike_id":"c2321381-f18d-428d-95fe-2ef574f61cb4","system_id":"levelo_inurba_marseille","lat":43.278128,"lon":5.407195,"is_reserved":false,"is_disabled":false,"rental_uris":{"android":"levelo://app?vid=c2321381-f18d-428d-95fe-2ef574f61cb4","ios":"levelo://app?vid=c2321381-f18d-428d-95fe-2ef574f61cb4"},"vehicle_type_id":"4","last_reported":1700827994,"current_range_meters":0,"station_id":"ce4bhnh2rcd13ifvqgtg","pricing_plan_id":"free"},{"bike_id":"69abd8d6-e825-43ad-abe0-26fa4a4ee999","system_id":"levelo_inurba_marseille","lat":43.269467,"lon":5.386439,"is_reserved":false,"is_disabled":false,"rental_uris":{"android":"levelo://app?vid=69abd8d6-e825-43ad-abe0-26fa4a4ee999","ios":"levelo://app?vid=69abd8d6-e825-43ad-abe0-26fa4a4ee999"},"vehicle_type_id":"4","last_reported":1700827994,"current_range_meters":7600,"station_id":"ce4bhh92rcd13ifvqfh0","pricing_plan_id":"free"},{"bike_id":"4166afc7-c74f-4a2b-9f02-f15b321b02c7","system_id":"levelo_inurba_marseille","lat":43.269467,"lon":5.386439,"is_reserved":false,"is_disabled":false,"rental_uris":{"android":"levelo://app?vid=4166afc7-c74f-4a2b-9f02-f15b321b02c7","ios":"levelo://app?vid=4166afc7-c74f-4a2b-9f02-f15b321b02c7"},"vehicle_type_id":"4","last_reported":1700827994,"current_range_meters":24800,"station_id":"ce4bhh92rcd13ifvqfh0","pricing_plan_id":"free"},{"bike_id":"1b71e166-fef8-49f7-9015-9771dc2e68e8","system_id":"levelo_inurba_marseille","lat":43.269467,"lon":5.386439,"is_reserved":false,"is_disabled":false,"rental_uris":{"android":"levelo://app?vid=1b71e166-fef8-49f7-9015-9771dc2e68e8","ios":"levelo://app?vid=1b71e166-fef8-49f7-9015-9771dc2e68e8"},"vehicle_type_id":"4","last_reported":1700827994,"current_range_meters":18000,"station_id":"ce4bhh92rcd13ifvqfh0","pricing_plan_id":"free"},{"bike_id":"f60e0cdd-f643-4f09-b32f-53fdd78bcbb4","system_id":"levelo_inurba_marseille","lat":43.279538,"lon":5.410463,"is_reserved":false,"is_disabled":false,"rental_uris":{"android":"levelo://app?vid=f60e0cdd-f643-4f09-b32f-53fdd78bcbb4","ios":"levelo://app?vid=f60e0cdd-f643-4f09-b32f-53fdd78bcbb4"},"vehicle_type_id":"4","last_reported":1700827994,"current_range_meters":0,"station_id":"ce4bhnp2rcd13ifvqh0g","pricing_plan_id":"free"},{"bike_id":"48c1fbfb-e6c4-4c56-a75c-55416f8bb4c3","system_id":"levelo_inurba_marseille","lat":43.268683,"lon":5.389417,"is_reserved":false,"is_disabled":false,"rental_uris":{"android":"levelo://app?vid=48c1fbfb-e6c4-4c56-a75c-55416f8bb4c3","ios":"levelo://app?vid=48c1fbfb-e6c4-4c56-a75c-55416f8bb4c3"},"vehicle_type_id":"4","last_reported":1700827994,"current_range_meters":25600,"station_id":"","pricing_plan_id":"free"},{"bike_id":"16207791-efb0-4647-be04-11df27cab8b1","system_id":"levelo_inurba_marseille","lat":43.26685,"lon":5.38271,"is_reserved":false,"is_disabled":false,"rental_uris":{"android":"levelo://app?vid=16207791-efb0-4647-be04-11df27cab8b1","ios":"levelo://app?vid=16207791-efb0-4647-be04-11df27cab8b1"},"vehicle_type_id":"4","last_reported":1700827994,"current_range_meters":2000,"station_id":"ce4bhg92rcd13ifvqf90","pricing_plan_id":"free"},{"bike_id":"72b1047d-07d2-47c4-9805-d565409aa9fb","system_id":"levelo_inurba_marseille","lat":43.266843,"lon":5.382683,"is_reserved":false,"is_disabled":false,"rental_uris":{"android":"levelo://app?vid=72b1047d-07d2-47c4-9805-d565409aa9fb","ios":"levelo://app?vid=72b1047d-07d2-47c4-9805-d565409aa9fb"},"vehicle_type_id":"4","last_reported":1700827994,"current_range_meters":23600,"station_id":"ce4bhg92rcd13ifvqf90","pricing_plan_id":"free"},{"bike_id":"a78c7975-23dc-4765-ac5e-cc07d0748e32","system_id":"levelo_inurba_marseille","lat":43.26681,"lon":5.382694,"is_reserved":false,"is_disabled":false,"rental_uris":{"android":"levelo://app?vid=a78c7975-23dc-4765-ac5e-cc07d0748e32","ios":"levelo://app?vid=a78c7975-23dc-4765-ac5e-cc07d0748e32"},"vehicle_type_id":"4","last_reported":1700827994,"current_range_meters":1600,"station_id":"ce4bhg92rcd13ifvqf90","pricing_plan_id":"free"},{"bike_id":"41de51a6-505b-4bd1-af98-8b03e9811828","system_id":"levelo_inurba_marseille","lat":43.26681,"lon":5.382694,"is_reserved":false,"is_disabled":false,"rental_uris":{"android":"levelo://app?vid=41de51a6-505b-4bd1-af98-8b03e9811828","ios":"levelo://app?vid=41de51a6-505b-4bd1-af98-8b03e9811828"},"vehicle_type_id":"4","last_reported":1700827994,"current_range_meters":31600,"station_id":"ce4bhg92rcd13ifvqf90","pricing_plan_id":"free"},{"bike_id":"458ec4b9-7e8d-4723-9af4-a7ca8cc1a968","system_id":"levelo_inurba_marseille","lat":43.26681,"lon":5.382694,"is_reserved":false,"is_disabled":false,"rental_uris":{"android":"levelo://app?vid=458ec4b9-7e8d-4723-9af4-a7ca8cc1a968","ios":"levelo://app?vid=458ec4b9-7e8d-4723-9af4-a7ca8cc1a968"},"vehicle_type_id":"4","last_reported":1700827994,"current_range_meters":30400,"station_id":"ce4bhg92rcd13ifvqf90","pricing_plan_id":"free"},{"bike_id":"e5e9fc9f-3310-44d2-aece-a9a06023fa18","system_id":"levelo_inurba_marseille","lat":43.26679,"lon":5.38264,"is_reserved":false,"is_disabled":false,"rental_uris":{"android":"levelo://app?vid=e5e9fc9f-3310-44d2-aece-a9a06023fa18","ios":"levelo://app?vid=e5e9fc9f-3310-44d2-aece-a9a06023fa18"},"vehicle_type_id":"4","last_reported":1700827994,"current_range_meters":28800,"station_id":"ce4bhg92rcd13ifvqf90","pricing_plan_id":"free"},{"bike_id":"b8f9086c-caff-4a3d-a32a-1e48486d2363","system_id":"levelo_inurba_marseille","lat":43.26679,"lon":5.38269,"is_reserved":false,"is_disabled":false,"rental_uris":{"android":"levelo://app?vid=b8f9086c-caff-4a3d-a32a-1e48486d2363","ios":"levelo://app?vid=b8f9086c-caff-4a3d-a32a-1e48486d2363"},"vehicle_type_id":"4","last_reported":1700827994,"current_range_meters":10400,"station_id":"ce4bhg92rcd13ifvqf90","pricing_plan_id":"free"},{"bike_id":"c4074fae-ec9c-4ed9-95a4-6884210b5735","system_id":"levelo_inurba_marseille","lat":43.266777,"lon":5.382663,"is_reserved":false,"is_disabled":false,"rental_uris":{"android":"levelo://app?vid=c4074fae-ec9c-4ed9-95a4-6884210b5735","ios":"levelo://app?vid=c4074fae-ec9c-4ed9-95a4-6884210b5735"},"vehicle_type_id":"4","last_reported":1700827994,"current_range_meters":16400,"station_id":"ce4bhg92rcd13ifvqf90","pricing_plan_id":"free"},{"bike_id":"d7f17dc5-6588-4a8f-83ee-16175f3f3b78","system_id":"levelo_inurba_marseille","lat":43.26556,"lon":5.37283,"is_reserved":false,"is_disabled":false,"rental_uris":{"android":"levelo://app?vid=d7f17dc5-6588-4a8f-83ee-16175f3f3b78","ios":"levelo://app?vid=d7f17dc5-6588-4a8f-83ee-16175f3f3b78"},"vehicle_type_id":"4","last_reported":1700827994,"current_range_meters":14000,"station_id":"ce4bhg12rcd13ifvqf70","pricing_plan_id":"free"},{"bike_id":"937de9a9-f305-4587-8803-b9643de4628d","system_id":"levelo_inurba_marseille","lat":43.265714,"lon":5.372891,"is_reserved":false,"is_disabled":false,"rental_uris":{"android":"levelo://app?vid=937de9a9-f305-4587-8803-b9643de4628d","ios":"levelo://app?vid=937de9a9-f305-4587-8803-b9643de4628d"},"vehicle_type_id":"4","last_reported":1700827994,"current_range_meters":17200,"station_id":"ce4bhg12rcd13ifvqf70","pricing_plan_id":"free"},{"bike_id":"28e8ce00-6b21-4e06-9930-c7c4408cc650","system_id":"levelo_inurba_marseille","lat":43.326174,"lon":5.430584,"is_reserved":false,"is_disabled":false,"rental_uris":{"android":"levelo://app?vid=28e8ce00-6b21-4e06-9930-c7c4408cc650","ios":"levelo://app?vid=28e8ce00-6b21-4e06-9930-c7c4408cc650"},"vehicle_type_id":"4","last_reported":1700827994,"current_range_meters":0,"station_id":"","pricing_plan_id":"free"},{"bike_id":"d85ea02f-5fe6-4a7e-a11a-599035b35d1a","system_id":"levelo_inurba_marseille","lat":43.267966,"lon":5.393976,"is_reserved":false,"is_disabled":false,"rental_uris":{"android":"levelo://app?vid=d85ea02f-5fe6-4a7e-a11a-599035b35d1a","ios":"levelo://app?vid=d85ea02f-5fe6-4a7e-a11a-599035b35d1a"},"vehicle_type_id":"4","last_reported":1700827994,"current_range_meters":15600,"station_id":"ce4bhh12rcd13ifvqfg0","pricing_plan_id":"free"},{"bike_id":"2b5f0b27-ae58-4e9e-bd76-c585f78e8a73","system_id":"levelo_inurba_marseille","lat":43.26386,"lon":5.37454,"is_reserved":false,"is_disabled":false,"rental_uris":{"android":"levelo://app?vid=2b5f0b27-ae58-4e9e-bd76-c585f78e8a73","ios":"levelo://app?vid=2b5f0b27-ae58-4e9e-bd76-c585f78e8a73"},"vehicle_type_id":"4","last_reported":1700827994,"current_range_meters":14800,"station_id":"","pricing_plan_id":"free"},{"bike_id":"842f28e5-db3c-4998-89e9-23d0f964f086","system_id":"levelo_inurba_marseille","lat":43.26932,"lon":5.4026,"is_reserved":false,"is_disabled":false,"rental_uris":{"android":"levelo://app?vid=842f28e5-db3c-4998-89e9-23d0f964f086","ios":"levelo://app?vid=842f28e5-db3c-4998-89e9-23d0f964f086"},"vehicle_type_id":"4","last_reported":1700827994,"current_range_meters":16800,"station_id":"cjm6bp8fraef2m0cb0m0","pricing_plan_id":"free"},{"bike_id":"a6750c07-c05f-4d8f-bb08-91439711bd36","system_id":"levelo_inurba_marseille","lat":43.261782,"lon":5.374515,"is_reserved":false,"is_disabled":false,"rental_uris":{"android":"levelo://app?vid=a6750c07-c05f-4d8f-bb08-91439711bd36","ios":"levelo://app?vid=a6750c07-c05f-4d8f-bb08-91439711bd36"},"vehicle_type_id":"4","last_reported":1700827994,"current_range_meters":27600,"station_id":"ce4bhgp2rcd13ifvqfc0","pricing_plan_id":"free"},{"bike_id":"f23d8119-b478-4639-98c5-6883279f9f84","system_id":"levelo_inurba_marseille","lat":43.317104,"lon":5.436818,"is_reserved":false,"is_disabled":false,"rental_uris":{"android":"levelo://app?vid=f23d8119-b478-4639-98c5-6883279f9f84","ios":"levelo://app?vid=f23d8119-b478-4639-98c5-6883279f9f84"},"vehicle_type_id":"4","last_reported":1700827994,"current_range_meters":24800,"station_id":"ce4bhp92rcd13ifvqhcg","pricing_plan_id":"free"},{"bike_id":"e927cc78-55fc-4406-a26c-5d780237e426","system_id":"levelo_inurba_marseille","lat":43.267959,"lon":5.402687,"is_reserved":false,"is_disabled":false,"rental_uris":{"android":"levelo://app?vid=e927cc78-55fc-4406-a26c-5d780237e426","ios":"levelo://app?vid=e927cc78-55fc-4406-a26c-5d780237e426"},"vehicle_type_id":"4","last_reported":1700827994,"current_range_meters":28800,"station_id":"ce501612rcd8frsf0b60","pricing_plan_id":"free"},{"bike_id":"18512275-ce8a-4cb5-b247-e864ee1038b0","system_id":"levelo_inurba_marseille","lat":43.267959,"lon":5.402685,"is_reserved":false,"is_disabled":false,"rental_uris":{"android":"levelo://app?vid=18512275-ce8a-4cb5-b247-e864ee1038b0","ios":"levelo://app?vid=18512275-ce8a-4cb5-b247-e864ee1038b0"},"vehicle_type_id":"4","last_reported":1700827994,"current_range_meters":20000,"station_id":"ce501612rcd8frsf0b60","pricing_plan_id":"free"},{"bike_id":"d0bb53f7-f1b8-4609-a668-27efdac67f66","system_id":"levelo_inurba_marseille","lat":43.26301,"lon":5.38842,"is_reserved":false,"is_disabled":false,"rental_uris":{"android":"levelo://app?vid=d0bb53f7-f1b8-4609-a668-27efdac67f66","ios":"levelo://app?vid=d0bb53f7-f1b8-4609-a668-27efdac67f66"},"vehicle_type_id":"4","last_reported":1700827994,"current_range_meters":0,"station_id":"","pricing_plan_id":"free"},{"bike_id":"efe02d19-0356-4f27-85ef-675447d0f7ba","system_id":"levelo_inurba_marseille","lat":43.29897,"lon":5.43659,"is_reserved":false,"is_disabled":false,"rental_uris":{"android":"levelo://app?vid=efe02d19-0356-4f27-85ef-675447d0f7ba","ios":"levelo://app?vid=efe02d19-0356-4f27-85ef-675447d0f7ba"},"vehicle_type_id":"4","last_reported":1700827994,"current_range_meters":14400,"station_id":"ce4bhpp2rcd13ifvqhfg","pricing_plan_id":"free"},{"bike_id":"01738c21-b518-4e69-920b-bea8470a7be5","system_id":"levelo_inurba_marseille","lat":43.260219,"lon":5.37546,"is_reserved":false,"is_disabled":false,"rental_uris":{"android":"levelo://app?vid=01738c21-b518-4e69-920b-bea8470a7be5","ios":"levelo://app?vid=01738c21-b518-4e69-920b-bea8470a7be5"},"vehicle_type_id":"4","last_reported":1700827994,"current_range_meters":25600,"station_id":"ce4bhgh2rcd13ifvqfa0","pricing_plan_id":"free"},{"bike_id":"80438f1e-5ce5-43bb-b8b0-62680314de25","system_id":"levelo_inurba_marseille","lat":43.25584,"lon":5.3823,"is_reserved":false,"is_disabled":false,"rental_uris":{"android":"levelo://app?vid=80438f1e-5ce5-43bb-b8b0-62680314de25","ios":"levelo://app?vid=80438f1e-5ce5-43bb-b8b0-62680314de25"},"vehicle_type_id":"4","last_reported":1700827994,"current_range_meters":12000,"station_id":"ce4bhih2rcd13ifvqfs0","pricing_plan_id":"free"},{"bike_id":"be55ff5a-173b-464f-b17c-1646c69ac2e0","system_id":"levelo_inurba_marseille","lat":43.2558,"lon":5.38232,"is_reserved":false,"is_disabled":false,"rental_uris":{"android":"levelo://app?vid=be55ff5a-173b-464f-b17c-1646c69ac2e0","ios":"levelo://app?vid=be55ff5a-173b-464f-b17c-1646c69ac2e0"},"vehicle_type_id":"4","last_reported":1700827994,"current_range_meters":19200,"station_id":"ce4bhih2rcd13ifvqfs0","pricing_plan_id":"free"},{"bike_id":"c1487a84-afe8-4ce0-86c6-68b365335692","system_id":"levelo_inurba_marseille","lat":43.25578,"lon":5.38227,"is_reserved":false,"is_disabled":false,"rental_uris":{"android":"levelo://app?vid=c1487a84-afe8-4ce0-86c6-68b365335692","ios":"levelo://app?vid=c1487a84-afe8-4ce0-86c6-68b365335692"},"vehicle_type_id":"4","last_reported":1700827994,"current_range_meters":11600,"station_id":"ce4bhih2rcd13ifvqfs0","pricing_plan_id":"free"},{"bike_id":"3d825c4b-aaf3-4023-8f24-8e9933b1cecd","system_id":"levelo_inurba_marseille","lat":43.25578,"lon":5.38228,"is_reserved":false,"is_disabled":false,"rental_uris":{"android":"levelo://app?vid=3d825c4b-aaf3-4023-8f24-8e9933b1cecd","ios":"levelo://app?vid=3d825c4b-aaf3-4023-8f24-8e9933b1cecd"},"vehicle_type_id":"4","last_reported":1700827994,"current_range_meters":5600,"station_id":"ce4bhih2rcd13ifvqfs0","pricing_plan_id":"free"},{"bike_id":"d6383509-ddf8-46d5-a1f6-f831e0b12d1e","system_id":"levelo_inurba_marseille","lat":43.25493,"lon":5.37646,"is_reserved":false,"is_disabled":false,"rental_uris":{"android":"levelo://app?vid=d6383509-ddf8-46d5-a1f6-f831e0b12d1e","ios":"levelo://app?vid=d6383509-ddf8-46d5-a1f6-f831e0b12d1e"},"vehicle_type_id":"4","last_reported":1700827994,"current_range_meters":25200,"station_id":"ce4bhh12rcd13ifvqff0","pricing_plan_id":"free"},{"bike_id":"4f71c8e8-0af0-4bdc-bce1-955916723f32","system_id":"levelo_inurba_marseille","lat":43.254947,"lon":5.376454,"is_reserved":false,"is_disabled":false,"rental_uris":{"android":"levelo://app?vid=4f71c8e8-0af0-4bdc-bce1-955916723f32","ios":"levelo://app?vid=4f71c8e8-0af0-4bdc-bce1-955916723f32"},"vehicle_type_id":"4","last_reported":1700827994,"current_range_meters":26400,"station_id":"ce4bhh12rcd13ifvqff0","pricing_plan_id":"free"},{"bike_id":"8d33a254-526f-4419-8986-e5abd974fa23","system_id":"levelo_inurba_marseille","lat":43.2544,"lon":5.37695,"is_reserved":false,"is_disabled":false,"rental_uris":{"android":"levelo://app?vid=8d33a254-526f-4419-8986-e5abd974fa23","ios":"levelo://app?vid=8d33a254-526f-4419-8986-e5abd974fa23"},"vehicle_type_id":"4","last_reported":1700827994,"current_range_meters":19600,"station_id":"","pricing_plan_id":"free"},{"bike_id":"0ca6e84a-719a-4e14-8f7e-2c45afba3c7d","system_id":"levelo_inurba_marseille","lat":43.257079,"lon":5.411051,"is_reserved":false,"is_disabled":false,"rental_uris":{"android":"levelo://app?vid=0ca6e84a-719a-4e14-8f7e-2c45afba3c7d","ios":"levelo://app?vid=0ca6e84a-719a-4e14-8f7e-2c45afba3c7d"},"vehicle_type_id":"4","last_reported":1700827994,"current_range_meters":30000,"station_id":"ce4bhkp2rcd13ifvqgd0","pricing_plan_id":"free"},{"bike_id":"78f15e83-9125-43d2-93d2-f4f8450e8f15","system_id":"levelo_inurba_marseille","lat":43.257079,"lon":5.411051,"is_reserved":false,"is_disabled":false,"rental_uris":{"android":"levelo://app?vid=78f15e83-9125-43d2-93d2-f4f8450e8f15","ios":"levelo://app?vid=78f15e83-9125-43d2-93d2-f4f8450e8f15"},"vehicle_type_id":"4","last_reported":1700827994,"current_range_meters":0,"station_id":"ce4bhkp2rcd13ifvqgd0","pricing_plan_id":"free"},{"bike_id":"49753bc6-879e-47ee-8eea-6773a7080b74","system_id":"levelo_inurba_marseille","lat":43.250009,"lon":5.389195,"is_reserved":false,"is_disabled":false,"rental_uris":{"android":"levelo://app?vid=49753bc6-879e-47ee-8eea-6773a7080b74","ios":"levelo://app?vid=49753bc6-879e-47ee-8eea-6773a7080b74"},"vehicle_type_id":"4","last_reported":1700827994,"current_range_meters":11600,"station_id":"ce4bhgp2rcd13ifvqfd0","pricing_plan_id":"free"},{"bike_id":"55e3fdda-b943-4bf6-94f2-66bb68d72086","system_id":"levelo_inurba_marseille","lat":43.250009,"lon":5.389195,"is_reserved":false,"is_disabled":false,"rental_uris":{"android":"levelo://app?vid=55e3fdda-b943-4bf6-94f2-66bb68d72086","ios":"levelo://app?vid=55e3fdda-b943-4bf6-94f2-66bb68d72086"},"vehicle_type_id":"4","last_reported":1700827994,"current_range_meters":11600,"station_id":"ce4bhgp2rcd13ifvqfd0","pricing_plan_id":"free"},{"bike_id":"2b6bbb92-8dd9-4a06-b047-baa851f9552e","system_id":"levelo_inurba_marseille","lat":43.24803,"lon":5.3746,"is_reserved":false,"is_disabled":false,"rental_uris":{"android":"levelo://app?vid=2b6bbb92-8dd9-4a06-b047-baa851f9552e","ios":"levelo://app?vid=2b6bbb92-8dd9-4a06-b047-baa851f9552e"},"vehicle_type_id":"4","last_reported":1700827994,"current_range_meters":16400,"station_id":"ce4bhgh2rcd13ifvqfb0","pricing_plan_id":"free"},{"bike_id":"088e6cce-a1e3-48f0-8c09-18c04ac80440","system_id":"levelo_inurba_marseille","lat":43.250966,"lon":5.395186,"is_reserved":false,"is_disabled":false,"rental_uris":{"android":"levelo://app?vid=088e6cce-a1e3-48f0-8c09-18c04ac80440","ios":"levelo://app?vid=088e6cce-a1e3-48f0-8c09-18c04ac80440"},"vehicle_type_id":"4","last_reported":1700827994,"current_range_meters":8800,"station_id":"ce4bhm12rcd13ifvqgkg","pricing_plan_id":"free"},{"bike_id":"8b2f4673-8019-49f3-a802-e81090c5d1b9","system_id":"levelo_inurba_marseille","lat":43.246537,"lon":5.3767,"is_reserved":false,"is_disabled":false,"rental_uris":{"android":"levelo://app?vid=8b2f4673-8019-49f3-a802-e81090c5d1b9","ios":"levelo://app?vid=8b2f4673-8019-49f3-a802-e81090c5d1b9"},"vehicle_type_id":"4","last_reported":1700827994,"current_range_meters":17200,"station_id":"","pricing_plan_id":"free"},{"bike_id":"395cea4b-fa7b-47f7-b8d1-3ad5825b0958","system_id":"levelo_inurba_marseille","lat":43.24693,"lon":5.382096,"is_reserved":false,"is_disabled":false,"rental_uris":{"android":"levelo://app?vid=395cea4b-fa7b-47f7-b8d1-3ad5825b0958","ios":"levelo://app?vid=395cea4b-fa7b-47f7-b8d1-3ad5825b0958"},"vehicle_type_id":"4","last_reported":1700827994,"current_range_meters":14000,"station_id":"ce4bhih2rcd13ifvqfr0","pricing_plan_id":"free"},{"bike_id":"969b658f-c7ec-4c18-9d03-e6b76e87a51c","system_id":"levelo_inurba_marseille","lat":43.24665,"lon":5.38163,"is_reserved":false,"is_disabled":false,"rental_uris":{"android":"levelo://app?vid=969b658f-c7ec-4c18-9d03-e6b76e87a51c","ios":"levelo://app?vid=969b658f-c7ec-4c18-9d03-e6b76e87a51c"},"vehicle_type_id":"4","last_reported":1700827994,"current_range_meters":11600,"station_id":"ce4bhih2rcd13ifvqfr0","pricing_plan_id":"free"},{"bike_id":"768357dc-c4e0-4d7e-a74d-cfda80dabd50","system_id":"levelo_inurba_marseille","lat":43.24693,"lon":5.382096,"is_reserved":false,"is_disabled":false,"rental_uris":{"android":"levelo://app?vid=768357dc-c4e0-4d7e-a74d-cfda80dabd50","ios":"levelo://app?vid=768357dc-c4e0-4d7e-a74d-cfda80dabd50"},"vehicle_type_id":"4","last_reported":1700827994,"current_range_meters":31200,"station_id":"ce4bhih2rcd13ifvqfr0","pricing_plan_id":"free"},{"bike_id":"84636850-685b-494c-99ad-c03d1f56ebab","system_id":"levelo_inurba_marseille","lat":43.24693,"lon":5.382096,"is_reserved":false,"is_disabled":false,"rental_uris":{"android":"levelo://app?vid=84636850-685b-494c-99ad-c03d1f56ebab","ios":"levelo://app?vid=84636850-685b-494c-99ad-c03d1f56ebab"},"vehicle_type_id":"4","last_reported":1700827994,"current_range_meters":19200,"station_id":"ce4bhih2rcd13ifvqfr0","pricing_plan_id":"free"},{"bike_id":"fb1033d5-45f1-4ef0-8d6d-e30c5315bcbf","system_id":"levelo_inurba_marseille","lat":43.24693,"lon":5.382096,"is_reserved":false,"is_disabled":false,"rental_uris":{"android":"levelo://app?vid=fb1033d5-45f1-4ef0-8d6d-e30c5315bcbf","ios":"levelo://app?vid=fb1033d5-45f1-4ef0-8d6d-e30c5315bcbf"},"vehicle_type_id":"4","last_reported":1700827994,"current_range_meters":16400,"station_id":"ce4bhih2rcd13ifvqfr0","pricing_plan_id":"free"},{"bike_id":"dec5a812-38ab-41dc-9202-5aec3ca54539","system_id":"levelo_inurba_marseille","lat":43.24693,"lon":5.382096,"is_reserved":false,"is_disabled":false,"rental_uris":{"android":"levelo://app?vid=dec5a812-38ab-41dc-9202-5aec3ca54539","ios":"levelo://app?vid=dec5a812-38ab-41dc-9202-5aec3ca54539"},"vehicle_type_id":"4","last_reported":1700827994,"current_range_meters":26800,"station_id":"ce4bhih2rcd13ifvqfr0","pricing_plan_id":"free"},{"bike_id":"536867e4-0199-4385-b193-cdb3dab4bb59","system_id":"levelo_inurba_marseille","lat":43.25102,"lon":5.403214,"is_reserved":false,"is_disabled":false,"rental_uris":{"android":"levelo://app?vid=536867e4-0199-4385-b193-cdb3dab4bb59","ios":"levelo://app?vid=536867e4-0199-4385-b193-cdb3dab4bb59"},"vehicle_type_id":"4","last_reported":1700827994,"current_range_meters":27200,"station_id":"ce4bhlh2rcd13ifvqgig","pricing_plan_id":"free"},{"bike_id":"13f421bd-d175-4ab4-bb9b-bb827f57e932","system_id":"levelo_inurba_marseille","lat":43.25108,"lon":5.40324,"is_reserved":false,"is_disabled":false,"rental_uris":{"android":"levelo://app?vid=13f421bd-d175-4ab4-bb9b-bb827f57e932","ios":"levelo://app?vid=13f421bd-d175-4ab4-bb9b-bb827f57e932"},"vehicle_type_id":"4","last_reported":1700827994,"current_range_meters":17600,"station_id":"ce4bhlh2rcd13ifvqgig","pricing_plan_id":"free"},{"bike_id":"0d5ff200-b717-4d1b-a00b-caff37148102","system_id":"levelo_inurba_marseille","lat":43.251045,"lon":5.4033,"is_reserved":false,"is_disabled":false,"rental_uris":{"android":"levelo://app?vid=0d5ff200-b717-4d1b-a00b-caff37148102","ios":"levelo://app?vid=0d5ff200-b717-4d1b-a00b-caff37148102"},"vehicle_type_id":"4","last_reported":1700827994,"current_range_meters":4800,"station_id":"ce4bhlh2rcd13ifvqgig","pricing_plan_id":"free"},{"bike_id":"0ba39c68-ad9b-4af4-911a-5a0fab635ba6","system_id":"levelo_inurba_marseille","lat":43.246461,"lon":5.389014,"is_reserved":false,"is_disabled":false,"rental_uris":{"android":"levelo://app?vid=0ba39c68-ad9b-4af4-911a-5a0fab635ba6","ios":"levelo://app?vid=0ba39c68-ad9b-4af4-911a-5a0fab635ba6"},"vehicle_type_id":"4","last_reported":1700827994,"current_range_meters":10400,"station_id":"ce4bhg12rcd13ifvqf60","pricing_plan_id":"free"},{"bike_id":"03275a86-12c2-4bed-b33f-c075ae0a78b7","system_id":"levelo_inurba_marseille","lat":43.246467,"lon":5.388984,"is_reserved":false,"is_disabled":false,"rental_uris":{"android":"levelo://app?vid=03275a86-12c2-4bed-b33f-c075ae0a78b7","ios":"levelo://app?vid=03275a86-12c2-4bed-b33f-c075ae0a78b7"},"vehicle_type_id":"4","last_reported":1700827994,"current_range_meters":31200,"station_id":"ce4bhg12rcd13ifvqf60","pricing_plan_id":"free"},{"bike_id":"c53bdc49-fce9-42d4-98c3-4fbc01630ac1","system_id":"levelo_inurba_marseille","lat":43.246467,"lon":5.388984,"is_reserved":false,"is_disabled":false,"rental_uris":{"android":"levelo://app?vid=c53bdc49-fce9-42d4-98c3-4fbc01630ac1","ios":"levelo://app?vid=c53bdc49-fce9-42d4-98c3-4fbc01630ac1"},"vehicle_type_id":"4","last_reported":1700827994,"current_range_meters":25200,"station_id":"ce4bhg12rcd13ifvqf60","pricing_plan_id":"free"},{"bike_id":"e5734605-a64e-4a89-825d-d184fa7f79ab","system_id":"levelo_inurba_marseille","lat":43.243884,"lon":5.370736,"is_reserved":false,"is_disabled":false,"rental_uris":{"android":"levelo://app?vid=e5734605-a64e-4a89-825d-d184fa7f79ab","ios":"levelo://app?vid=e5734605-a64e-4a89-825d-d184fa7f79ab"},"vehicle_type_id":"4","last_reported":1700827994,"current_range_meters":28400,"station_id":"ce4bhhh2rcd13ifvqfk0","pricing_plan_id":"free"},{"bike_id":"67cbb5ad-74a5-4919-9676-33b81549afcb","system_id":"levelo_inurba_marseille","lat":43.243884,"lon":5.370737,"is_reserved":false,"is_disabled":false,"rental_uris":{"android":"levelo://app?vid=67cbb5ad-74a5-4919-9676-33b81549afcb","ios":"levelo://app?vid=67cbb5ad-74a5-4919-9676-33b81549afcb"},"vehicle_type_id":"4","last_reported":1700827994,"current_range_meters":28800,"station_id":"ce4bhhh2rcd13ifvqfk0","pricing_plan_id":"free"},{"bike_id":"002f35b0-8653-40ae-b718-04602e09d7c3","system_id":"levelo_inurba_marseille","lat":43.243884,"lon":5.370736,"is_reserved":false,"is_disabled":false,"rental_uris":{"android":"levelo://app?vid=002f35b0-8653-40ae-b718-04602e09d7c3","ios":"levelo://app?vid=002f35b0-8653-40ae-b718-04602e09d7c3"},"vehicle_type_id":"4","last_reported":1700827994,"current_range_meters":30000,"station_id":"ce4bhhh2rcd13ifvqfk0","pricing_plan_id":"free"},{"bike_id":"b6a3294a-d08b-4856-bc2d-cb266764db07","system_id":"levelo_inurba_marseille","lat":43.243884,"lon":5.370737,"is_reserved":false,"is_disabled":false,"rental_uris":{"android":"levelo://app?vid=b6a3294a-d08b-4856-bc2d-cb266764db07","ios":"levelo://app?vid=b6a3294a-d08b-4856-bc2d-cb266764db07"},"vehicle_type_id":"4","last_reported":1700827994,"current_range_meters":31200,"station_id":"ce4bhhh2rcd13ifvqfk0","pricing_plan_id":"free"},{"bike_id":"37a91800-392f-4ba8-a060-fafd20b8850e","system_id":"levelo_inurba_marseille","lat":43.243884,"lon":5.370736,"is_reserved":false,"is_disabled":false,"rental_uris":{"android":"levelo://app?vid=37a91800-392f-4ba8-a060-fafd20b8850e","ios":"levelo://app?vid=37a91800-392f-4ba8-a060-fafd20b8850e"},"vehicle_type_id":"4","last_reported":1700827994,"current_range_meters":31200,"station_id":"ce4bhhh2rcd13ifvqfk0","pricing_plan_id":"free"},{"bike_id":"10cce0be-ca50-4499-8a22-0dbebd67df50","system_id":"levelo_inurba_marseille","lat":43.243884,"lon":5.370736,"is_reserved":false,"is_disabled":false,"rental_uris":{"android":"levelo://app?vid=10cce0be-ca50-4499-8a22-0dbebd67df50","ios":"levelo://app?vid=10cce0be-ca50-4499-8a22-0dbebd67df50"},"vehicle_type_id":"4","last_reported":1700827994,"current_range_meters":12800,"station_id":"ce4bhhh2rcd13ifvqfk0","pricing_plan_id":"free"},{"bike_id":"d5f29348-84d7-4fa8-867d-8b651be783d0","system_id":"levelo_inurba_marseille","lat":43.243884,"lon":5.370736,"is_reserved":false,"is_disabled":false,"rental_uris":{"android":"levelo://app?vid=d5f29348-84d7-4fa8-867d-8b651be783d0","ios":"levelo://app?vid=d5f29348-84d7-4fa8-867d-8b651be783d0"},"vehicle_type_id":"4","last_reported":1700827994,"current_range_meters":17200,"station_id":"ce4bhhh2rcd13ifvqfk0","pricing_plan_id":"free"},{"bike_id":"7c872bb4-b3c5-4bd2-bb2d-aa9070092584","system_id":"levelo_inurba_marseille","lat":43.243884,"lon":5.370736,"is_reserved":false,"is_disabled":false,"rental_uris":{"android":"levelo://app?vid=7c872bb4-b3c5-4bd2-bb2d-aa9070092584","ios":"levelo://app?vid=7c872bb4-b3c5-4bd2-bb2d-aa9070092584"},"vehicle_type_id":"4","last_reported":1700827994,"current_range_meters":6400,"station_id":"ce4bhhh2rcd13ifvqfk0","pricing_plan_id":"free"},{"bike_id":"23b5cfb3-98c2-4526-95b1-f42afcf00c8d","system_id":"levelo_inurba_marseille","lat":43.245581,"lon":5.395069,"is_reserved":false,"is_disabled":false,"rental_uris":{"android":"levelo://app?vid=23b5cfb3-98c2-4526-95b1-f42afcf00c8d","ios":"levelo://app?vid=23b5cfb3-98c2-4526-95b1-f42afcf00c8d"},"vehicle_type_id":"4","last_reported":1700827994,"current_range_meters":25200,"station_id":"ce4bhlp2rcd13ifvqgjg","pricing_plan_id":"free"},{"bike_id":"f38a914a-1669-412f-a27f-d66e5a38000d","system_id":"levelo_inurba_marseille","lat":43.24185,"lon":5.3732,"is_reserved":false,"is_disabled":false,"rental_uris":{"android":"levelo://app?vid=f38a914a-1669-412f-a27f-d66e5a38000d","ios":"levelo://app?vid=f38a914a-1669-412f-a27f-d66e5a38000d"},"vehicle_type_id":"4","last_reported":1700827994,"current_range_meters":0,"station_id":"","pricing_plan_id":"free"},{"bike_id":"124f1bf7-9af9-4782-a052-dd6aa38caf9d","system_id":"levelo_inurba_marseille","lat":43.239588,"lon":5.366238,"is_reserved":false,"is_disabled":false,"rental_uris":{"android":"levelo://app?vid=124f1bf7-9af9-4782-a052-dd6aa38caf9d","ios":"levelo://app?vid=124f1bf7-9af9-4782-a052-dd6aa38caf9d"},"vehicle_type_id":"4","last_reported":1700827994,"current_range_meters":25200,"station_id":"ce4bhi12rcd13ifvqfp0","pricing_plan_id":"free"},{"bike_id":"56b0f98d-ecc1-47fa-bd3e-9dc560c42354","system_id":"levelo_inurba_marseille","lat":43.239588,"lon":5.366238,"is_reserved":false,"is_disabled":false,"rental_uris":{"android":"levelo://app?vid=56b0f98d-ecc1-47fa-bd3e-9dc560c42354","ios":"levelo://app?vid=56b0f98d-ecc1-47fa-bd3e-9dc560c42354"},"vehicle_type_id":"4","last_reported":1700827994,"current_range_meters":21600,"station_id":"ce4bhi12rcd13ifvqfp0","pricing_plan_id":"free"},{"bike_id":"3ef70aed-f117-47c7-8cf5-f087e626237b","system_id":"levelo_inurba_marseille","lat":43.23961,"lon":5.36639,"is_reserved":false,"is_disabled":false,"rental_uris":{"android":"levelo://app?vid=3ef70aed-f117-47c7-8cf5-f087e626237b","ios":"levelo://app?vid=3ef70aed-f117-47c7-8cf5-f087e626237b"},"vehicle_type_id":"4","last_reported":1700827994,"current_range_meters":12400,"station_id":"ce4bhi12rcd13ifvqfp0","pricing_plan_id":"free"},{"bike_id":"4171becc-e805-473d-84c2-e3378bc1eb28","system_id":"levelo_inurba_marseille","lat":43.2396,"lon":5.36625,"is_reserved":false,"is_disabled":false,"rental_uris":{"android":"levelo://app?vid=4171becc-e805-473d-84c2-e3378bc1eb28","ios":"levelo://app?vid=4171becc-e805-473d-84c2-e3378bc1eb28"},"vehicle_type_id":"4","last_reported":1700827994,"current_range_meters":18000,"station_id":"ce4bhi12rcd13ifvqfp0","pricing_plan_id":"free"},{"bike_id":"425d3457-d7b1-4bd6-af05-1b26bfd08345","system_id":"levelo_inurba_marseille","lat":43.23195,"lon":5.35555,"is_reserved":false,"is_disabled":false,"rental_uris":{"android":"levelo://app?vid=425d3457-d7b1-4bd6-af05-1b26bfd08345","ios":"levelo://app?vid=425d3457-d7b1-4bd6-af05-1b26bfd08345"},"vehicle_type_id":"4","last_reported":1700827994,"current_range_meters":31200,"station_id":"ce4bhu92rcd13ifvqi70","pricing_plan_id":"free"},{"bike_id":"aeb874ed-5a67-45f7-94cd-1c1e110219bc","system_id":"levelo_inurba_marseille","lat":43.231919,"lon":5.355532,"is_reserved":false,"is_disabled":false,"rental_uris":{"android":"levelo://app?vid=aeb874ed-5a67-45f7-94cd-1c1e110219bc","ios":"levelo://app?vid=aeb874ed-5a67-45f7-94cd-1c1e110219bc"},"vehicle_type_id":"4","last_reported":1700827994,"current_range_meters":31200,"station_id":"ce4bhu92rcd13ifvqi70","pricing_plan_id":"free"},{"bike_id":"edd2b3c8-67fd-4064-8af7-f698e6d9963c","system_id":"levelo_inurba_marseille","lat":43.231919,"lon":5.355532,"is_reserved":false,"is_disabled":false,"rental_uris":{"android":"levelo://app?vid=edd2b3c8-67fd-4064-8af7-f698e6d9963c","ios":"levelo://app?vid=edd2b3c8-67fd-4064-8af7-f698e6d9963c"},"vehicle_type_id":"4","last_reported":1700827994,"current_range_meters":26000,"station_id":"ce4bhu92rcd13ifvqi70","pricing_plan_id":"free"},{"bike_id":"e5142140-e22b-48ab-87cb-62f0bb2d3ee6","system_id":"levelo_inurba_marseille","lat":43.2319,"lon":5.355425,"is_reserved":false,"is_disabled":false,"rental_uris":{"android":"levelo://app?vid=e5142140-e22b-48ab-87cb-62f0bb2d3ee6","ios":"levelo://app?vid=e5142140-e22b-48ab-87cb-62f0bb2d3ee6"},"vehicle_type_id":"4","last_reported":1700827994,"current_range_meters":10400,"station_id":"ce4bhu92rcd13ifvqi70","pricing_plan_id":"free"},{"bike_id":"0781b68f-f7ce-4993-97f3-a63d398915f6","system_id":"levelo_inurba_marseille","lat":43.231793,"lon":5.400044,"is_reserved":false,"is_disabled":false,"rental_uris":{"android":"levelo://app?vid=0781b68f-f7ce-4993-97f3-a63d398915f6","ios":"levelo://app?vid=0781b68f-f7ce-4993-97f3-a63d398915f6"},"vehicle_type_id":"4","last_reported":1700827994,"current_range_meters":29200,"station_id":"ce4bhn12rcd13ifvqgqg","pricing_plan_id":"free"},{"bike_id":"216d01e0-0894-4b88-9379-35377c1f196b","system_id":"levelo_inurba_marseille","lat":43.231794,"lon":5.400052,"is_reserved":false,"is_disabled":false,"rental_uris":{"android":"levelo://app?vid=216d01e0-0894-4b88-9379-35377c1f196b","ios":"levelo://app?vid=216d01e0-0894-4b88-9379-35377c1f196b"},"vehicle_type_id":"4","last_reported":1700827994,"current_range_meters":31200,"station_id":"ce4bhn12rcd13ifvqgqg","pricing_plan_id":"free"},{"bike_id":"ba6d79c0-6a21-43e4-a3e7-c61b28164239","system_id":"levelo_inurba_marseille","lat":43.231793,"lon":5.400044,"is_reserved":false,"is_disabled":false,"rental_uris":{"android":"levelo://app?vid=ba6d79c0-6a21-43e4-a3e7-c61b28164239","ios":"levelo://app?vid=ba6d79c0-6a21-43e4-a3e7-c61b28164239"},"vehicle_type_id":"4","last_reported":1700827994,"current_range_meters":24800,"station_id":"ce4bhn12rcd13ifvqgqg","pricing_plan_id":"free"},{"bike_id":"df7e6c4d-a3bc-48a2-a471-a72390a84d34","system_id":"levelo_inurba_marseille","lat":43.231793,"lon":5.400044,"is_reserved":false,"is_disabled":false,"rental_uris":{"android":"levelo://app?vid=df7e6c4d-a3bc-48a2-a471-a72390a84d34","ios":"levelo://app?vid=df7e6c4d-a3bc-48a2-a471-a72390a84d34"},"vehicle_type_id":"4","last_reported":1700827994,"current_range_meters":23200,"station_id":"ce4bhn12rcd13ifvqgqg","pricing_plan_id":"free"},{"bike_id":"42b71bb2-3e67-452d-bdb5-18d18eec3243","system_id":"levelo_inurba_marseille","lat":43.231794,"lon":5.400052,"is_reserved":false,"is_disabled":false,"rental_uris":{"android":"levelo://app?vid=42b71bb2-3e67-452d-bdb5-18d18eec3243","ios":"levelo://app?vid=42b71bb2-3e67-452d-bdb5-18d18eec3243"},"vehicle_type_id":"4","last_reported":1700827994,"current_range_meters":30800,"station_id":"ce4bhn12rcd13ifvqgqg","pricing_plan_id":"free"},{"bike_id":"b1ff8538-de6b-4362-8b24-b9288098290c","system_id":"levelo_inurba_marseille","lat":43.231793,"lon":5.400044,"is_reserved":false,"is_disabled":false,"rental_uris":{"android":"levelo://app?vid=b1ff8538-de6b-4362-8b24-b9288098290c","ios":"levelo://app?vid=b1ff8538-de6b-4362-8b24-b9288098290c"},"vehicle_type_id":"4","last_reported":1700827994,"current_range_meters":10800,"station_id":"ce4bhn12rcd13ifvqgqg","pricing_plan_id":"free"},{"bike_id":"9c2bf53e-bbf1-4349-bc38-b78a298e6986","system_id":"levelo_inurba_marseille","lat":43.231793,"lon":5.400044,"is_reserved":false,"is_disabled":false,"rental_uris":{"android":"levelo://app?vid=9c2bf53e-bbf1-4349-bc38-b78a298e6986","ios":"levelo://app?vid=9c2bf53e-bbf1-4349-bc38-b78a298e6986"},"vehicle_type_id":"4","last_reported":1700827994,"current_range_meters":31200,"station_id":"ce4bhn12rcd13ifvqgqg","pricing_plan_id":"free"},{"bike_id":"0d65e76d-9880-4e2c-a36d-b8425499c90e","system_id":"levelo_inurba_marseille","lat":43.231793,"lon":5.400044,"is_reserved":false,"is_disabled":false,"rental_uris":{"android":"levelo://app?vid=0d65e76d-9880-4e2c-a36d-b8425499c90e","ios":"levelo://app?vid=0d65e76d-9880-4e2c-a36d-b8425499c90e"},"vehicle_type_id":"4","last_reported":1700827994,"current_range_meters":18000,"station_id":"ce4bhn12rcd13ifvqgqg","pricing_plan_id":"free"},{"bike_id":"9780e49b-8eb6-4c96-95ee-9b6d1e553d68","system_id":"levelo_inurba_marseille","lat":43.231794,"lon":5.400052,"is_reserved":false,"is_disabled":false,"rental_uris":{"android":"levelo://app?vid=9780e49b-8eb6-4c96-95ee-9b6d1e553d68","ios":"levelo://app?vid=9780e49b-8eb6-4c96-95ee-9b6d1e553d68"},"vehicle_type_id":"4","last_reported":1700827994,"current_range_meters":27600,"station_id":"ce4bhn12rcd13ifvqgqg","pricing_plan_id":"free"},{"bike_id":"330a00ea-2930-409e-9e01-e23d5e12ceb5","system_id":"levelo_inurba_marseille","lat":43.231794,"lon":5.400052,"is_reserved":false,"is_disabled":false,"rental_uris":{"android":"levelo://app?vid=330a00ea-2930-409e-9e01-e23d5e12ceb5","ios":"levelo://app?vid=330a00ea-2930-409e-9e01-e23d5e12ceb5"},"vehicle_type_id":"4","last_reported":1700827994,"current_range_meters":8000,"station_id":"ce4bhn12rcd13ifvqgqg","pricing_plan_id":"free"},{"bike_id":"cf24bd9e-bddf-43d2-a571-988001872784","system_id":"levelo_inurba_marseille","lat":43.231794,"lon":5.400052,"is_reserved":false,"is_disabled":false,"rental_uris":{"android":"levelo://app?vid=cf24bd9e-bddf-43d2-a571-988001872784","ios":"levelo://app?vid=cf24bd9e-bddf-43d2-a571-988001872784"},"vehicle_type_id":"4","last_reported":1700827994,"current_range_meters":4800,"station_id":"ce4bhn12rcd13ifvqgqg","pricing_plan_id":"free"},{"bike_id":"0945036d-9858-4086-b41b-ec6e60edb8ad","system_id":"levelo_inurba_marseille","lat":43.231794,"lon":5.400052,"is_reserved":false,"is_disabled":false,"rental_uris":{"android":"levelo://app?vid=0945036d-9858-4086-b41b-ec6e60edb8ad","ios":"levelo://app?vid=0945036d-9858-4086-b41b-ec6e60edb8ad"},"vehicle_type_id":"4","last_reported":1700827994,"current_range_meters":8000,"station_id":"ce4bhn12rcd13ifvqgqg","pricing_plan_id":"free"},{"bike_id":"d2f24a51-c96a-4f12-9abb-52227ab6b303","system_id":"levelo_inurba_marseille","lat":43.231794,"lon":5.400052,"is_reserved":false,"is_disabled":false,"rental_uris":{"android":"levelo://app?vid=d2f24a51-c96a-4f12-9abb-52227ab6b303","ios":"levelo://app?vid=d2f24a51-c96a-4f12-9abb-52227ab6b303"},"vehicle_type_id":"4","last_reported":1700827994,"current_range_meters":21200,"station_id":"ce4bhn12rcd13ifvqgqg","pricing_plan_id":"free"},{"bike_id":"5c58bb44-d9ab-4a10-87d6-54e673736920","system_id":"levelo_inurba_marseille","lat":43.231562,"lon":5.436933,"is_reserved":false,"is_disabled":false,"rental_uris":{"android":"levelo://app?vid=5c58bb44-d9ab-4a10-87d6-54e673736920","ios":"levelo://app?vid=5c58bb44-d9ab-4a10-87d6-54e673736920"},"vehicle_type_id":"4","last_reported":1700827994,"current_range_meters":14800,"station_id":"ce4bhmp2rcd13ifvqgog","pricing_plan_id":"free"},{"bike_id":"2bad0efe-c22c-42f7-aee5-405a0af4087e","system_id":"levelo_inurba_marseille","lat":43.231562,"lon":5.436933,"is_reserved":false,"is_disabled":false,"rental_uris":{"android":"levelo://app?vid=2bad0efe-c22c-42f7-aee5-405a0af4087e","ios":"levelo://app?vid=2bad0efe-c22c-42f7-aee5-405a0af4087e"},"vehicle_type_id":"4","last_reported":1700827994,"current_range_meters":16800,"station_id":"ce4bhmp2rcd13ifvqgog","pricing_plan_id":"free"},{"bike_id":"2d08ab7f-e103-4c6f-94df-f48ea1bdee7f","system_id":"levelo_inurba_marseille","lat":43.231562,"lon":5.436933,"is_reserved":false,"is_disabled":false,"rental_uris":{"android":"levelo://app?vid=2d08ab7f-e103-4c6f-94df-f48ea1bdee7f","ios":"levelo://app?vid=2d08ab7f-e103-4c6f-94df-f48ea1bdee7f"},"vehicle_type_id":"4","last_reported":1700827994,"current_range_meters":3600,"station_id":"ce4bhmp2rcd13ifvqgog","pricing_plan_id":"free"},{"bike_id":"a5cc39d0-de91-472c-bdba-00d1503ce110","system_id":"levelo_inurba_marseille","lat":43.231562,"lon":5.436933,"is_reserved":false,"is_disabled":false,"rental_uris":{"android":"levelo://app?vid=a5cc39d0-de91-472c-bdba-00d1503ce110","ios":"levelo://app?vid=a5cc39d0-de91-472c-bdba-00d1503ce110"},"vehicle_type_id":"4","last_reported":1700827994,"current_range_meters":27600,"station_id":"ce4bhmp2rcd13ifvqgog","pricing_plan_id":"free"},