{"last_updated":1766064549,"ttl":60,"version":"2.2","data":{"bikes":[{"bike_id":"89746ebd-0f87-45ff-ad07-3b3b9e79859d","system_id":"levelo_inurba_marseille","lat":43.337444,"lon":5.374475,"is_reserved":false,"is_disabled":false,"rental_uris":{"android":"levelo://app?vid=89746ebd-0f87-45ff-ad07-3b3b9e79859d","ios":"levelo://app?vid=89746ebd-0f87-45ff-ad07-3b3b9e79859d"},"vehicle_type_id":"4","last_reported":1766064550,"current_range_meters":0,"station_id":"","pricing_plan_id":"cebpf4jnsgd1na2vs0mg"},{"bike_id":"5f93f501-2d81-4fb7-ab31-13f49b797c73","system_id":"levelo_inurba_marseille","lat":43.337444,"lon":5.374475,"is_reserved":false,"is_disabled":false,"rental_uris":{"android":"levelo://app?vid=5f93f501-2d81-4fb7-ab31-13f49b797c73","ios":"levelo://app?vid=5f93f501-2d81-4fb7-ab31-13f49b797c73"},"vehicle_type_id":"4","last_reported":1766064550,"current_range_meters":0,"station_id":"","pricing_plan_id":"cebpf4jnsgd1na2vs0mg"},{"bike_id":"9f2891eb-8cb1-4d3a-9ae3-b51da2a34677","system_id":"levelo_inurba_marseille","lat":43.337444,"lon":5.374475,"is_reserved":false,"is_disabled":false,"rental_uris":{"android":"levelo://app?vid=9f2891eb-8cb1-4d3a-9ae3-b51da2a34677","ios":"levelo://app?vid=9f2891eb-8cb1-4d3a-9ae3-b51da2a34677"},"vehicle_type_id":"4","last_reported":1766064550,"current_range_meters":0,"station_id":"","pricing_plan_id":"cebpf4jnsgd1na2vs0mg"},{"bike_id":"7fcd6cf4-7192-48f5-b805-e0e6b88fc06d","system_id":"levelo_inurba_marseille","lat":43.337444,"lon":5.374475,"is_reserved":false,"is_disabled":false,"rental_uris":{"android":"levelo://app?vid=7fcd6cf4-7192-48f5-b805-e0e6b88fc06d","ios":"levelo://app?vid=7fcd6cf4-7192-48f5-b805-e0e6b88fc06d"},"vehicle_type_id":"4","last_reported":1766064550,"current_range_meters":0,"station_id":"","pricing_plan_id":"cebpf4jnsgd1na2vs0mg"},{"bike_id":"984427a2-8de3-4c28-b9d3-ae0321756511","system_id":"levelo_inurba_marseille","lat":43.337444,"lon":5.374475,"is_reserved":false,"is_disabled":false,"rental_uris":{"android":"levelo://app?vid=984427a2-8de3-4c28-b9d3-ae0321756511","ios":"levelo://app?vid=984427a2-8de3-4c28-b9d3-ae0321756511"},"vehicle_type_id":"4","last_reported":1766064550,"current_range_meters":0,"station_id":"","pricing_plan_id":"cebpf4jnsgd1na2vs0mg"},{"bike_id":"c99ed6b8-5aff-489a-b136-3bb80b0dc20f","system_id":"levelo_inurba_marseille","lat":43.337444,"lon":5.374475,"is_reserved":false,"is_disabled":false,"rental_uris":{"android":"levelo://app?vid=c99ed6b8-5aff-489a-b136-3bb80b0dc20f","ios":"levelo://app?vid=c99ed6b8-5aff-489a-b136-3bb80b0dc20f"},"vehicle_type_id":"4","last_reported":1766064550,"current_range_meters":0,"station_id":"","pricing_plan_id":"cebpf4jnsgd1na2vs0mg"},{"bike_id":"eab22124-3334-4fbd-aeec-0ee7cc0befea","system_id":"levelo_inurba_marseille","lat":43.337444,"lon":5.374475,"is_reserved":false,"is_disabled":false,"rental_uris":{"android":"levelo://app?vid=eab22124-3334-4fbd-aeec-0ee7cc0befea","ios":"levelo://app?vid=eab22124-3334-4fbd-aeec-0ee7cc0befea"},"vehicle_type_id":"4","last_reported":1766064550,"current_range_meters":0,"station_id":"","pricing_plan_id":"cebpf4jnsgd1na2vs0mg"},{"bike_id":"776afbf9-4d43-462b-9cd8-ecc870b2e81c","system_id":"levelo_inurba_marseille","lat":43.337444,"lon":5.374475,"is_reserved":false,"is_disabled":false,"rental_uris":{"android":"levelo://app?vid=776afbf9-4d43-462b-9cd8-ecc870b2e81c","ios":"levelo://app?vid=776afbf9-4d43-462b-9cd8-ecc870b2e81c"},"vehicle_type_id":"4","last_reported":1766064550,"current_range_meters":0,"station_id":"","pricing_plan_id":"cebpf4jnsgd1na2vs0mg"},{"bike_id":"70eee77a-166e-484f-b7e4-dae6ee59da5a","system_id":"levelo_inurba_marseille","lat":43.337444,"lon":5.374475,"is_reserved":false,"is_disabled":false,"rental_uris":{"android":"levelo://app?vid=70eee77a-166e-484f-b7e4-dae6ee59da5a","ios":"levelo://app?vid=70eee77a-166e-484f-b7e4-dae6ee59da5a"},"vehicle_type_id":"4","last_reported":1766064550,"current_range_meters":0,"station_id":"","pricing_plan_id":"cebpf4jnsgd1na2vs0mg"},{"bike_id":"a3ee911f-124e-4515-8ecc-413372693197","system_id":"levelo_inurba_marseille","lat":43.337444,"lon":5.374475,"is_reserved":false,"is_disabled":false,"rental_uris":{"android":"levelo://app?vid=a3ee911f-124e-4515-8ecc-413372693197","ios":"levelo://app?vid=a3ee911f-124e-4515-8ecc-413372693197"},"vehicle_type_id":"4","last_reported":1766064550,"current_range_meters":0,"station_id":"","pricing_plan_id":"cebpf4jnsgd1na2vs0mg"},{"bike_id":"1c311bab-9785-44cb-9952-8aa392b36060","system_id":"levelo_inurba_marseille","lat":43.337444,"lon":5.374475,"is_reserved":false,"is_disabled":false,"rental_uris":{"android":"levelo://app?vid=1c311bab-9785-44cb-9952-8aa392b36060","ios":"levelo://app?vid=1c311bab-9785-44cb-9952-8aa392b36060"},"vehicle_type_id":"4","last_reported":1766064550,"current_range_meters":0,"station_id":"","pricing_plan_id":"cebpf4jnsgd1na2vs0mg"},{"bike_id":"24b0559e-4ca2-4c88-9940-347a5356b4c4","system_id":"levelo_inurba_marseille","lat":43.337444,"lon":5.374475,"is_reserved":false,"is_disabled":false,"rental_uris":{"android":"levelo://app?vid=24b0559e-4ca2-4c88-9940-347a5356b4c4","ios":"levelo://app?vid=24b0559e-4ca2-4c88-9940-347a5356b4c4"},"vehicle_type_id":"4","last_reported":1766064550,"current_range_meters":0,"station_id":"","pricing_plan_id":"cebpf4jnsgd1na2vs0mg"},{"bike_id":"67360657-d424-4837-9fa9-27bcc36bea01","system_id":"levelo_inurba_marseille","lat":43.337444,"lon":5.374475,"is_reserved":false,"is_disabled":false,"rental_uris":{"android":"levelo://app?vid=67360657-d424-4837-9fa9-27bcc36bea01","ios":"levelo://app?vid=67360657-d424-4837-9fa9-27bcc36bea01"},"vehicle_type_id":"4","last_reported":1766064550,"current_range_meters":0,"station_id":"","pricing_plan_id":"cebpf4jnsgd1na2vs0mg"},{"bike_id":"4fa850da-ad97-4627-85e1-bd114fc36224","system_id":"levelo_inurba_marseille","lat":43.337444,"lon":5.374475,"is_reserved":false,"is_disabled":false,"rental_uris":{"android":"levelo://app?vid=4fa850da-ad97-4627-85e1-bd114fc36224","ios":"levelo://app?vid=4fa850da-ad97-4627-85e1-bd114fc36224"},"vehicle_type_id":"4","last_reported":1766064550,"current_range_meters":0,"station_id":"","pricing_plan_id":"cebpf4jnsgd1na2vs0mg"},{"bike_id":"7b66086d-7dba-4561-b50b-8038df447d3e","system_id":"levelo_inurba_marseille","lat":43.337444,"lon":5.374475,"is_reserved":false,"is_disabled":false,"rental_uris":{"android":"levelo://app?vid=7b66086d-7dba-4561-b50b-8038df447d3e","ios":"levelo://app?vid=7b66086d-7dba-4561-b50b-8038df447d3e"},"vehicle_type_id":"4","last_reported":1766064550,"current_range_meters":0,"station_id":"","pricing_plan_id":"cebpf4jnsgd1na2vs0mg"},{"bike_id":"9eb2a9d7-f410-4898-8e7b-c9b3ee8571d8","system_id":"levelo_inurba_marseille","lat":43.337444,"lon":5.374475,"is_reserved":false,"is_disabled":false,"rental_uris":{"android":"levelo://app?vid=9eb2a9d7-f410-4898-8e7b-c9b3ee8571d8","ios":"levelo://app?vid=9eb2a9d7-f410-4898-8e7b-c9b3ee8571d8"},"vehicle_type_id":"4","last_reported":1766064550,"current_range_meters":0,"station_id":"","pricing_plan_id":"cebpf4jnsgd1na2vs0mg"},{"bike_id":"de4cac4a-d0b7-4eab-9a86-c416c290e8c5","system_id":"levelo_inurba_marseille","lat":43.337444,"lon":5.374475,"is_reserved":false,"is_disabled":false,"rental_uris":{"android":"levelo://app?vid=de4cac4a-d0b7-4eab-9a86-c416c290e8c5","ios":"levelo://app?vid=de4cac4a-d0b7-4eab-9a86-c416c290e8c5"},"vehicle_type_id":"4","last_reported":1766064550,"current_range_meters":0,"station_id":"","pricing_plan_id":"cebpf4jnsgd1na2vs0mg"},{"bike_id":"89207a95-f071-4d8d-8116-6def2d6ccee2","system_id":"levelo_inurba_marseille","lat":43.337444,"lon":5.374475,"is_reserved":false,"is_disabled":false,"rental_uris":{"android":"levelo://app?vid=89207a95-f071-4d8d-8116-6def2d6ccee2","ios":"levelo://app?vid=89207a95-f071-4d8d-8116-6def2d6ccee2"},"vehicle_type_id":"4","last_reported":1766064550,"current_range_meters":0,"station_id":"","pricing_plan_id":"cebpf4jnsgd1na2vs0mg"},{"bike_id":"222facb1-128a-4031-a09a-d208eb3e7c49","system_id":"levelo_inurba_marseille","lat":43.337444,"lon":5.374475,"is_reserved":false,"is_disabled":false,"rental_uris":{"android":"levelo://app?vid=222facb1-128a-4031-a09a-d208eb3e7c49","ios":"levelo://app?vid=222facb1-128a-4031-a09a-d208eb3e7c49"},"vehicle_type_id":"4","last_reported":1766064550,"current_range_meters":0,"station_id":"","pricing_plan_id":"cebpf4jnsgd1na2vs0mg"},{"bike_id":"d6b98ed6-42e1-4679-acfe-a3de6f0fe8ce","system_id":"levelo_inurba_marseille","lat":43.337444,"lon":5.374475,"is_reserved":false,"is_disabled":false,"rental_uris":{"android":"levelo://app?vid=d6b98ed6-42e1-4679-acfe-a3de6f0fe8ce","ios":"levelo://app?vid=d6b98ed6-42e1-4679-acfe-a3de6f0fe8ce"},"vehicle_type_id":"4","last_reported":1766064550,"current_range_meters":0,"station_id":"","pricing_plan_id":"cebpf4jnsgd1na2vs0mg"},{"bike_id":"cf5fde43-b4cc-4c29-a317-55e3c1c66de7","system_id":"levelo_inurba_marseille","lat":43.337444,"lon":5.374475,"is_reserved":false,"is_disabled":false,"rental_uris":{"android":"levelo://app?vid=cf5fde43-b4cc-4c29-a317-55e3c1c66de7","ios":"levelo://app?vid=cf5fde43-b4cc-4c29-a317-55e3c1c66de7"},"vehicle_type_id":"4","last_reported":1766064550,"current_range_meters":0,"station_id":"","pricing_plan_id":"cebpf4jnsgd1na2vs0mg"},{"bike_id":"1739822d-8a3d-4f2f-be57-c770f16f53b3","system_id":"levelo_inurba_marseille","lat":43.337444,"lon":5.374475,"is_reserved":false,"is_disabled":false,"rental_uris":{"android":"levelo://app?vid=1739822d-8a3d-4f2f-be57-c770f16f53b3","ios":"levelo://app?vid=1739822d-8a3d-4f2f-be57-c770f16f53b3"},"vehicle_type_id":"4","last_reported":1766064550,"current_range_meters":0,"station_id":"","pricing_plan_id":"cebpf4jnsgd1na2vs0mg"},{"bike_id":"3a41bd59-7845-4eea-a9cf-1047b4436e33","system_id":"levelo_inurba_marseille","lat":43.337444,"lon":5.374475,"is_reserved":false,"is_disabled":false,"rental_uris":{"android":"levelo://app?vid=3a41bd59-7845-4eea-a9cf-1047b4436e33","ios":"levelo://app?vid=3a41bd59-7845-4eea-a9cf-1047b4436e33"},"vehicle_type_id":"4","last_reported":1766064550,"current_range_meters":0,"station_id":"","pricing_plan_id":"cebpf4jnsgd1na2vs0mg"},{"bike_id":"cbf646c3-4262-4223-adf8-cfc8ef29c267","system_id":"levelo_inurba_marseille","lat":43.337444,"lon":5.374475,"is_reserved":false,"is_disabled":false,"rental_uris":{"android":"levelo://app?vid=cbf646c3-4262-4223-adf8-cfc8ef29c267","ios":"levelo://app?vid=cbf646c3-4262-4223-adf8-cfc8ef29c267"},"vehicle_type_id":"4","last_reported":1766064550,"current_range_meters":0,"station_id":"","pricing_plan_id":"cebpf4jnsgd1na2vs0mg"},{"bike_id":"1b119f61-bbc1-46d6-a342-bfed665247d3","system_id":"levelo_inurba_marseille","lat":43.337444,"lon":5.374475,"is_reserved":false,"is_disabled":false,"rental_uris":{"android":"levelo://app?vid=1b119f61-bbc1-46d6-a342-bfed665247d3","ios":"levelo://app?vid=1b119f61-bbc1-46d6-a342-bfed665247d3"},"vehicle_type_id":"4","last_reported":1766064550,"current_range_meters":0,"station_id":"","pricing_plan_id":"cebpf4jnsgd1na2vs0mg"},{"bike_id":"44bd5c71-7f64-4815-ba9b-07a7c20d8b20","system_id":"levelo_inurba_marseille","lat":43.337444,"lon":5.374475,"is_reserved":false,"is_disabled":false,"rental_uris":{"android":"levelo://app?vid=44bd5c71-7f64-4815-ba9b-07a7c20d8b20","ios":"levelo://app?vid=44bd5c71-7f64-4815-ba9b-07a7c20d8b20"},"vehicle_type_id":"4","last_reported":1766064550,"current_range_meters":0,"station_id":"","pricing_plan_id":"cebpf4jnsgd1na2vs0mg"},{"bike_id":"b427f547-c03b-4370-9079-f194a4e05612","system_id":"levelo_inurba_marseille","lat":43.337444,"lon":5.374475,"is_reserved":false,"is_disabled":false,"rental_uris":{"android":"levelo://app?vid=b427f547-c03b-4370-9079-f194a4e05612","ios":"levelo://app?vid=b427f547-c03b-4370-9079-f194a4e05612"},"vehicle_type_id":"4","last_reported":1766064550,"current_range_meters":0,"station_id":"","pricing_plan_id":"cebpf4jnsgd1na2vs0mg"},{"bike_id":"3b173b9a-a163-4851-85c8-15a1febb57e7","system_id":"levelo_inurba_marseille","lat":43.29017,"lon":5.381289,"is_reserved":false,"is_disabled":false,"rental_uris":{"android":"levelo://app?vid=3b173b9a-a163-4851-85c8-15a1febb57e7","ios":"levelo://app?vid=3b173b9a-a163-4851-85c8-15a1febb57e7"},"vehicle_type_id":"4","last_reported":1766064550,"current_range_meters":2800,"station_id":"ce4bh4p2rcd13ifvqe1g","pricing_plan_id":"cebpf4jnsgd1na2vs0mg"},{"bike_id":"500ccc04-45c0-4dae-a582-ca036f6f2898","system_id":"levelo_inurba_marseille","lat":43.337444,"lon":5.374475,"is_reserved":false,"is_disabled":false,"rental_uris":{"android":"levelo://app?vid=500ccc04-45c0-4dae-a582-ca036f6f2898","ios":"levelo://app?vid=500ccc04-45c0-4dae-a582-ca036f6f2898"},"vehicle_type_id":"4","last_reported":1766064550,"current_range_meters":2800,"station_id":"","pricing_plan_id":"cebpf4jnsgd1na2vs0mg"},{"bike_id":"08acdc25-268c-41a4-9b7b-3c760066c768","system_id":"levelo_inurba_marseille","lat":43.29584,"lon":5.36751,"is_reserved":false,"is_disabled":false,"rental_uris":{"android":"levelo://app?vid=08acdc25-268c-41a4-9b7b-3c760066c768","ios":"levelo://app?vid=08acdc25-268c-41a4-9b7b-3c760066c768"},"vehicle_type_id":"4","last_reported":1766064550,"current_range_meters":2800,"station_id":"ce4bgph2rcd13ifvqc2g","pricing_plan_id":"cebpf4jnsgd1na2vs0mg"},{"bike_id":"dc1c66a1-ec6a-4a97-84f0-949967d8e557","system_id":"levelo_inurba_marseille","lat":43.31009,"lon":5.3936,"is_reserved":false,"is_disabled":false,"rental_uris":{"android":"levelo://app?vid=dc1c66a1-ec6a-4a97-84f0-949967d8e557","ios":"levelo://app?vid=dc1c66a1-ec6a-4a97-84f0-949967d8e557"},"vehicle_type_id":"4","last_reported":1766064550,"current_range_meters":2800,"station_id":"","pricing_plan_id":"cebpf4jnsgd1na2vs0mg"},{"bike_id":"1ec387b1-c4cc-4633-9e58-b629571341f9","system_id":"levelo_inurba_marseille","lat":43.29076,"lon":5.37174,"is_reserved":false,"is_disabled":false,"rental_uris":{"android":"levelo://app?vid=1ec387b1-c4cc-4633-9e58-b629571341f9","ios":"levelo://app?vid=1ec387b1-c4cc-4633-9e58-b629571341f9"},"vehicle_type_id":"4","last_reported":1766064550,"current_range_meters":2800,"station_id":"ce4bh5p2rcd13ifvqe4g","pricing_plan_id":"cebpf4jnsgd1na2vs0mg"},{"bike_id":"b147f415-51a0-425f-bb2d-544b352fc1c1","system_id":"levelo_inurba_marseille","lat":43.28392,"lon":5.37507,"is_reserved":false,"is_disabled":false,"rental_uris":{"android":"levelo://app?vid=b147f415-51a0-425f-bb2d-544b352fc1c1","ios":"levelo://app?vid=b147f415-51a0-425f-bb2d-544b352fc1c1"},"vehicle_type_id":"4","last_reported":1766064550,"current_range_meters":3200,"station_id":"ce4bh412rcd13ifvqds0","pricing_plan_id":"cebpf4jnsgd1na2vs0mg"},{"bike_id":"5b9d1c25-f3d2-499f-afdc-7ca526a5e26c","system_id":"levelo_inurba_marseille","lat":43.24014,"lon":5.37782,"is_reserved":false,"is_disabled":true,"rental_uris":{"android":"levelo://app?vid=5b9d1c25-f3d2-499f-afdc-7ca526a5e26c","ios":"levelo://app?vid=5b9d1c25-f3d2-499f-afdc-7ca526a5e26c"},"vehicle_type_id":"4","last_reported":1766064550,"current_range_meters":3200,"station_id":"","pricing_plan_id":"cebpf4jnsgd1na2vs0mg"},{"bike_id":"32f825a1-14bf-450e-af11-5c22b3b5e2ab","system_id":"levelo_inurba_marseille","lat":43.30145,"lon":5.37421,"is_reserved":false,"is_disabled":false,"rental_uris":{"android":"levelo://app?vid=32f825a1-14bf-450e-af11-5c22b3b5e2ab","ios":"levelo://app?vid=32f825a1-14bf-450e-af11-5c22b3b5e2ab"},"vehicle_type_id":"4","last_reported":1766064550,"current_range_meters":3200,"station_id":"ce4bgs92rcd13ifvqcc0","pricing_plan_id":"cebpf4jnsgd1na2vs0mg"},{"bike_id":"52a54e30-98ea-4cde-b62d-e76ff0fd87ba","system_id":"levelo_inurba_marseille","lat":43.27492,"lon":5.42437,"is_reserved":false,"is_disabled":true,"rental_uris":{"android":"levelo://app?vid=52a54e30-98ea-4cde-b62d-e76ff0fd87ba","ios":"levelo://app?vid=52a54e30-98ea-4cde-b62d-e76ff0fd87ba"},"vehicle_type_id":"4","last_reported":1766064550,"current_range_meters":3200,"station_id":"ce4bhn92rcd13ifvqgrg","pricing_plan_id":"cebpf4jnsgd1na2vs0mg"},{"bike_id":"2e95b54b-b23d-42ec-8292-60e1c749d49a","system_id":"levelo_inurba_marseille","lat":43.3003,"lon":5.40125,"is_reserved":false,"is_disabled":false,"rental_uris":{"android":"levelo://app?vid=2e95b54b-b23d-42ec-8292-60e1c749d49a","ios":"levelo://app?vid=2e95b54b-b23d-42ec-8292-60e1c749d49a"},"vehicle_type_id":"4","last_reported":1766064550,"current_range_meters":3200,"station_id":"","pricing_plan_id":"cebpf4jnsgd1na2vs0mg"},{"bike_id":"20db7f91-bdc8-4de8-b252-4bdf62f5355d","system_id":"levelo_inurba_marseille","lat":43.28848,"lon":5.39338,"is_reserved":false,"is_disabled":false,"rental_uris":{"android":"levelo://app?vid=20db7f91-bdc8-4de8-b252-4bdf62f5355d","ios":"levelo://app?vid=20db7f91-bdc8-4de8-b252-4bdf62f5355d"},"vehicle_type_id":"4","last_reported":1766064550,"current_range_meters":3200,"station_id":"ce4bh2p2rcd13ifvqdi0","pricing_plan_id":"cebpf4jnsgd1na2vs0mg"},{"bike_id":"a7877468-4b4b-473f-a9f4-75f611d361cb","system_id":"levelo_inurba_marseille","lat":43.30883,"lon":5.36874,"is_reserved":false,"is_disabled":false,"rental_uris":{"android":"levelo://app?vid=a7877468-4b4b-473f-a9f4-75f611d361cb","ios":"levelo://app?vid=a7877468-4b4b-473f-a9f4-75f611d361cb"},"vehicle_type_id":"4","last_reported":1766064550,"current_range_meters":3600,"station_id":"ce4bgn92rcd13ifvqbvg","pricing_plan_id":"cebpf4jnsgd1na2vs0mg"},{"bike_id":"b837e29c-a49d-4037-8ffb-c58ec3701d59","system_id":"levelo_inurba_marseille","lat":43.31155,"lon":5.4541,"is_reserved":false,"is_disabled":false,"rental_uris":{"android":"levelo://app?vid=b837e29c-a49d-4037-8ffb-c58ec3701d59","ios":"levelo://app?vid=b837e29c-a49d-4037-8ffb-c58ec3701d59"},"vehicle_type_id":"4","last_reported":1766064550,"current_range_meters":3600,"station_id":"","pricing_plan_id":"cebpf4jnsgd1na2vs0mg"},{"bike_id":"3dde39a6-9631-4ad9-91c8-8bf86a414415","system_id":"levelo_inurba_marseille","lat":43.29991,"lon":5.37225,"is_reserved":false,"is_disabled":false,"rental_uris":{"android":"levelo://app?vid=3dde39a6-9631-4ad9-91c8-8bf86a414415","ios":"levelo://app?vid=3dde39a6-9631-4ad9-91c8-8bf86a414415"},"vehicle_type_id":"4","last_reported":1766064550,"current_range_meters":3600,"station_id":"ce4bgr92rcd13ifvqc7g","pricing_plan_id":"cebpf4jnsgd1na2vs0mg"},{"bike_id":"8d321c31-2ebe-45ab-b3e2-dce2428bd0f9","system_id":"levelo_inurba_marseille","lat":43.260327,"lon":5.375453,"is_reserved":false,"is_disabled":false,"rental_uris":{"android":"levelo://app?vid=8d321c31-2ebe-45ab-b3e2-dce2428bd0f9","ios":"levelo://app?vid=8d321c31-2ebe-45ab-b3e2-dce2428bd0f9"},"vehicle_type_id":"4","last_reported":1766064550,"current_range_meters":3600,"station_id":"ce4bhgh2rcd13ifvqfa0","pricing_plan_id":"cebpf4jnsgd1na2vs0mg"},{"bike_id":"045f2a44-cec2-42de-9e9f-3adc6bfb3e17","system_id":"levelo_inurba_marseille","lat":43.29032,"lon":5.3997,"is_reserved":false,"is_disabled":false,"rental_uris":{"android":"levelo://app?vid=045f2a44-cec2-42de-9e9f-3adc6bfb3e17","ios":"levelo://app?vid=045f2a44-cec2-42de-9e9f-3adc6bfb3e17"},"vehicle_type_id":"4","last_reported":1766064550,"current_range_meters":3600,"station_id":"ce4bh392rcd13ifvqdm0","pricing_plan_id":"cebpf4jnsgd1na2vs0mg"},{"bike_id":"2e08df65-c35b-4794-afe4-fbc75c417b79","system_id":"levelo_inurba_marseille","lat":43.23209,"lon":5.35555,"is_reserved":false,"is_disabled":false,"rental_uris":{"android":"levelo://app?vid=2e08df65-c35b-4794-afe4-fbc75c417b79","ios":"levelo://app?vid=2e08df65-c35b-4794-afe4-fbc75c417b79"},"vehicle_type_id":"4","last_reported":1766064550,"current_range_meters":3600,"station_id":"ce4bhu92rcd13ifvqi70","pricing_plan_id":"cebpf4jnsgd1na2vs0mg"},{"bike_id":"075753f2-03fc-482d-992a-1a659c9f27f8","system_id":"levelo_inurba_marseille","lat":43.28218,"lon":5.34909,"is_reserved":false,"is_disabled":false,"rental_uris":{"android":"levelo://app?vid=075753f2-03fc-482d-992a-1a659c9f27f8","ios":"levelo://app?vid=075753f2-03fc-482d-992a-1a659c9f27f8"},"vehicle_type_id":"4","last_reported":1766064550,"current_range_meters":4000,"station_id":"","pricing_plan_id":"cebpf4jnsgd1na2vs0mg"},{"bike_id":"7f431ae6-2f3f-4d5b-9bd2-7a74ee500c2a","system_id":"levelo_inurba_marseille","lat":43.27373,"lon":5.36265,"is_reserved":false,"is_disabled":false,"rental_uris":{"android":"levelo://app?vid=7f431ae6-2f3f-4d5b-9bd2-7a74ee500c2a","ios":"levelo://app?vid=7f431ae6-2f3f-4d5b-9bd2-7a74ee500c2a"},"vehicle_type_id":"4","last_reported":1766064550,"current_range_meters":4000,"station_id":"ce4bhbh2rcd13ifvqeo0","pricing_plan_id":"cebpf4jnsgd1na2vs0mg"},{"bike_id":"cb179ec6-dd9c-4fab-91bc-d261e785e1b0","system_id":"levelo_inurba_marseille","lat":43.31179,"lon":5.38712,"is_reserved":false,"is_disabled":false,"rental_uris":{"android":"levelo://app?vid=cb179ec6-dd9c-4fab-91bc-d261e785e1b0","ios":"levelo://app?vid=cb179ec6-dd9c-4fab-91bc-d261e785e1b0"},"vehicle_type_id":"4","last_reported":1766064550,"current_range_meters":4000,"station_id":"ce4bgv12rcd13ifvqcp0","pricing_plan_id":"cebpf4jnsgd1na2vs0mg"},{"bike_id":"339d251b-5332-4901-aae2-eda8f9aa1d79","system_id":"levelo_inurba_marseille","lat":43.270643,"lon":5.42292,"is_reserved":false,"is_disabled":true,"rental_uris":{"android":"levelo://app?vid=339d251b-5332-4901-aae2-eda8f9aa1d79","ios":"levelo://app?vid=339d251b-5332-4901-aae2-eda8f9aa1d79"},"vehicle_type_id":"4","last_reported":1766064550,"current_range_meters":4000,"station_id":"ce4bhk92rcd13ifvqgb0","pricing_plan_id":"cebpf4jnsgd1na2vs0mg"},{"bike_id":"208a85d0-191e-4cd8-8a77-3a16fe7472a1","system_id":"levelo_inurba_marseille","lat":43.29562,"lon":5.37544,"is_reserved":false,"is_disabled":false,"rental_uris":{"android":"levelo://app?vid=208a85d0-191e-4cd8-8a77-3a16fe7472a1","ios":"levelo://app?vid=208a85d0-191e-4cd8-8a77-3a16fe7472a1"},"vehicle_type_id":"4","last_reported":1766064550,"current_range_meters":4400,"station_id":"ce4bgh92rcd13ifvqb50","pricing_plan_id":"cebpf4jnsgd1na2vs0mg"},{"bike_id":"a0a1e7b3-b896-40ca-a15a-f7fd69a5dac4","system_id":"levelo_inurba_marseille","lat":43.240768,"lon":5.377575,"is_reserved":false,"is_disabled":false,"rental_uris":{"android":"levelo://app?vid=a0a1e7b3-b896-40ca-a15a-f7fd69a5dac4","ios":"levelo://app?vid=a0a1e7b3-b896-40ca-a15a-f7fd69a5dac4"},"vehicle_type_id":"4","last_reported":1766064550,"current_range_meters":4400,"station_id":"ce4bhnp2rcd13ifvqgvg","pricing_plan_id":"cebpf4jnsgd1na2vs0mg"},{"bike_id":"5eba90f6-1222-4473-8bef-fc7dba8fa1ea","system_id":"levelo_inurba_marseille","lat":43.29873,"lon":5.38911,"is_reserved":false,"is_disabled":false,"rental_uris":{"android":"levelo://app?vid=5eba90f6-1222-4473-8bef-fc7dba8fa1ea","ios":"levelo://app?vid=5eba90f6-1222-4473-8bef-fc7dba8fa1ea"},"vehicle_type_id":"4","last_reported":1766064550,"current_range_meters":4400,"station_id":"ce4bh392rcd13ifvqdl0","pricing_plan_id":"cebpf4jnsgd1na2vs0mg"},{"bike_id":"55966391-fad9-4c99-97ec-acc7c96285df","system_id":"levelo_inurba_marseille","lat":43.27054,"lon":5.40261,"is_reserved":false,"is_disabled":false,"rental_uris":{"android":"levelo://app?vid=55966391-fad9-4c99-97ec-acc7c96285df","ios":"levelo://app?vid=55966391-fad9-4c99-97ec-acc7c96285df"},"vehicle_type_id":"4","last_reported":1766064550,"current_range_meters":4800,"station_id":"ce4bhk92rcd13ifvqgc0","pricing_plan_id":"cebpf4jnsgd1na2vs0mg"},{"bike_id":"846ba82f-b80b-4118-ba94-f1f7e836af7f","system_id":"levelo_inurba_marseille","lat":43.33757,"lon":5.374367,"is_reserved":false,"is_disabled":false,"rental_uris":{"android":"levelo://app?vid=846ba82f-b80b-4118-ba94-f1f7e836af7f","ios":"levelo://app?vid=846ba82f-b80b-4118-ba94-f1f7e836af7f"},"vehicle_type_id":"4","last_reported":1766064550,"current_range_meters":4800,"station_id":"","pricing_plan_id":"cebpf4jnsgd1na2vs0mg"},{"bike_id":"1234872a-39b1-4f90-a2b5-ff0589ee7faa","system_id":"levelo_inurba_marseille","lat":43.26923,"lon":5.40227,"is_reserved":false,"is_disabled":false,"rental_uris":{"android":"levelo://app?vid=1234872a-39b1-4f90-a2b5-ff0589ee7faa","ios":"levelo://app?vid=1234872a-39b1-4f90-a2b5-ff0589ee7faa"},"vehicle_type_id":"4","last_reported":1766064550,"current_range_meters":4800,"station_id":"cjm6bp8fraef2m0cb0m0","pricing_plan_id":"cebpf4jnsgd1na2vs0mg"},{"bike_id":"85af97e3-1423-4cfb-ae81-091f2bb4b762","system_id":"levelo_inurba_marseille","lat":43.232819,"lon":5.39968,"is_reserved":false,"is_disabled":false,"rental_uris":{"android":"levelo://app?vid=85af97e3-1423-4cfb-ae81-091f2bb4b762","ios":"levelo://app?vid=85af97e3-1423-4cfb-ae81-091f2bb4b762"},"vehicle_type_id":"4","last_reported":1766064550,"current_range_meters":4800,"station_id":"ce4bhn12rcd13ifvqgqg","pricing_plan_id":"cebpf4jnsgd1na2vs0mg"},{"bike_id":"f1f74614-33ac-441f-af80-d784b5e55bd2","system_id":"levelo_inurba_marseille","lat":43.328946,"lon":5.399653,"is_reserved":false,"is_disabled":false,"rental_uris":{"android":"levelo://app?vid=f1f74614-33ac-441f-af80-d784b5e55bd2","ios":"levelo://app?vid=f1f74614-33ac-441f-af80-d784b5e55bd2"},"vehicle_type_id":"4","last_reported":1766064550,"current_range_meters":4800,"station_id":"","pricing_plan_id":"cebpf4jnsgd1na2vs0mg"},{"bike_id":"ef03fd63-9ec9-4404-a680-b31131999566","system_id":"levelo_inurba_marseille","lat":43.31269,"lon":5.40178,"is_reserved":false,"is_disabled":false,"rental_uris":{"android":"levelo://app?vid=ef03fd63-9ec9-4404-a680-b31131999566","ios":"levelo://app?vid=ef03fd63-9ec9-4404-a680-b31131999566"},"vehicle_type_id":"4","last_reported":1766064550,"current_range_meters":4800,"station_id":"ce4bh092rcd13ifvqd30","pricing_plan_id":"cebpf4jnsgd1na2vs0mg"},{"bike_id":"3bb181db-42bd-4470-ba39-31e4170e3711","system_id":"levelo_inurba_marseille","lat":43.296844,"lon":5.378836,"is_reserved":false,"is_disabled":false,"rental_uris":{"android":"levelo://app?vid=3bb181db-42bd-4470-ba39-31e4170e3711","ios":"levelo://app?vid=3bb181db-42bd-4470-ba39-31e4170e3711"},"vehicle_type_id":"4","last_reported":1766064550,"current_range_meters":5600,"station_id":"","pricing_plan_id":"cebpf4jnsgd1na2vs0mg"},{"bike_id":"c2f6ed28-fb4d-4021-8416-c3895128bc06","system_id":"levelo_inurba_marseille","lat":43.27077,"lon":5.42277,"is_reserved":false,"is_disabled":false,"rental_uris":{"android":"levelo://app?vid=c2f6ed28-fb4d-4021-8416-c3895128bc06","ios":"levelo://app?vid=c2f6ed28-fb4d-4021-8416-c3895128bc06"},"vehicle_type_id":"4","last_reported":1766064550,"current_range_meters":5600,"station_id":"ce4bhk92rcd13ifvqgb0","pricing_plan_id":"cebpf4jnsgd1na2vs0mg"},{"bike_id":"a8b82256-f66d-47f6-aaf1-ebeeda0594d5","system_id":"levelo_inurba_marseille","lat":43.245453,"lon":5.395242,"is_reserved":false,"is_disabled":false,"rental_uris":{"android":"levelo://app?vid=a8b82256-f66d-47f6-aaf1-ebeeda0594d5","ios":"levelo://app?vid=a8b82256-f66d-47f6-aaf1-ebeeda0594d5"},"vehicle_type_id":"4","last_reported":1766064550,"current_range_meters":5600,"station_id":"ce4bhlp2rcd13ifvqgjg","pricing_plan_id":"cebpf4jnsgd1na2vs0mg"},{"bike_id":"fa18d4a4-092d-4e3c-b1c7-0b110e27fdff","system_id":"levelo_inurba_marseille","lat":43.29796,"lon":5.3936,"is_reserved":false,"is_disabled":false,"rental_uris":{"android":"levelo://app?vid=fa18d4a4-092d-4e3c-b1c7-0b110e27fdff","ios":"levelo://app?vid=fa18d4a4-092d-4e3c-b1c7-0b110e27fdff"},"vehicle_type_id":"4","last_reported":1766064550,"current_range_meters":6000,"station_id":"chh1huq6cuj3fo74tm60","pricing_plan_id":"cebpf4jnsgd1na2vs0mg"},{"bike_id":"18e325b2-92f2-4991-9321-b31333b419cf","system_id":"levelo_inurba_marseille","lat":43.302157,"lon":5.394603,"is_reserved":false,"is_disabled":false,"rental_uris":{"android":"levelo://app?vid=18e325b2-92f2-4991-9321-b31333b419cf","ios":"levelo://app?vid=18e325b2-92f2-4991-9321-b31333b419cf"},"vehicle_type_id":"4","last_reported":1766064550,"current_range_meters":6000,"station_id":"ce4bh0p2rcd13ifvqd70","pricing_plan_id":"cebpf4jnsgd1na2vs0mg"},{"bike_id":"a90a54e1-d46b-4085-bbd3-aebefc938af1","system_id":"levelo_inurba_marseille","lat":43.309475,"lon":5.390304,"is_reserved":false,"is_disabled":false,"rental_uris":{"android":"levelo://app?vid=a90a54e1-d46b-4085-bbd3-aebefc938af1","ios":"levelo://app?vid=a90a54e1-d46b-4085-bbd3-aebefc938af1"},"vehicle_type_id":"4","last_reported":1766064550,"current_range_meters":6000,"station_id":"ce4bgup2rcd13ifvqco0","pricing_plan_id":"cebpf4jnsgd1na2vs0mg"},{"bike_id":"91a5fa2e-6103-4bcd-a9fc-556eb3c14cfc","system_id":"levelo_inurba_marseille","lat":43.29037,"lon":5.39971,"is_reserved":false,"is_disabled":false,"rental_uris":{"android":"levelo://app?vid=91a5fa2e-6103-4bcd-a9fc-556eb3c14cfc","ios":"levelo://app?vid=91a5fa2e-6103-4bcd-a9fc-556eb3c14cfc"},"vehicle_type_id":"4","last_reported":1766064550,"current_range_meters":6000,"station_id":"ce4bh392rcd13ifvqdm0","pricing_plan_id":"cebpf4jnsgd1na2vs0mg"},{"bike_id":"7e918e53-fa70-43c9-8cae-e1394e8a3b97","system_id":"levelo_inurba_marseille","lat":43.341376,"lon":5.409221,"is_reserved":false,"is_disabled":false,"rental_uris":{"android":"levelo://app?vid=7e918e53-fa70-43c9-8cae-e1394e8a3b97","ios":"levelo://app?vid=7e918e53-fa70-43c9-8cae-e1394e8a3b97"},"vehicle_type_id":"4","last_reported":1766064550,"current_range_meters":6000,"station_id":"ce4bhqh2rcd13ifvqhlg","pricing_plan_id":"cebpf4jnsgd1na2vs0mg"},{"bike_id":"d90c110d-3ee4-4803-bf3b-d150da911b4e","system_id":"levelo_inurba_marseille","lat":43.2847,"lon":5.38429,"is_reserved":false,"is_disabled":true,"rental_uris":{"android":"levelo://app?vid=d90c110d-3ee4-4803-bf3b-d150da911b4e","ios":"levelo://app?vid=d90c110d-3ee4-4803-bf3b-d150da911b4e"},"vehicle_type_id":"4","last_reported":1766064550,"current_range_meters":6400,"station_id":"ce4bh512rcd13ifvqe3g","pricing_plan_id":"cebpf4jnsgd1na2vs0mg"},{"bike_id":"d1ebcbae-60df-4084-9c02-0e8df5006916","system_id":"levelo_inurba_marseille","lat":43.27663,"lon":5.38895,"is_reserved":false,"is_disabled":false,"rental_uris":{"android":"levelo://app?vid=d1ebcbae-60df-4084-9c02-0e8df5006916","ios":"levelo://app?vid=d1ebcbae-60df-4084-9c02-0e8df5006916"},"vehicle_type_id":"4","last_reported":1766064550,"current_range_meters":6400,"station_id":"ce4bhi12rcd13ifvqfo0","pricing_plan_id":"cebpf4jnsgd1na2vs0mg"},{"bike_id":"421429dd-cc7d-47ec-9c23-d069c5b26c89","system_id":"levelo_inurba_marseille","lat":43.29709,"lon":5.37102,"is_reserved":false,"is_disabled":false,"rental_uris":{"android":"levelo://app?vid=421429dd-cc7d-47ec-9c23-d069c5b26c89","ios":"levelo://app?vid=421429dd-cc7d-47ec-9c23-d069c5b26c89"},"vehicle_type_id":"4","last_reported":1766064550,"current_range_meters":6400,"station_id":"","pricing_plan_id":"cebpf4jnsgd1na2vs0mg"},{"bike_id":"4f151a94-a967-4617-ab96-ab116cb710c5","system_id":"levelo_inurba_marseille","lat":44.0538,"lon":4.8881,"is_reserved":false,"is_disabled":false,"rental_uris":{"android":"levelo://app?vid=4f151a94-a967-4617-ab96-ab116cb710c5","ios":"levelo://app?vid=4f151a94-a967-4617-ab96-ab116cb710c5"},"vehicle_type_id":"4","last_reported":1766064550,"current_range_meters":6400,"station_id":"","pricing_plan_id":"cebpf4jnsgd1na2vs0mg"},{"bike_id":"52258c5b-71be-4ca3-abc4-349b115e60a1","system_id":"levelo_inurba_marseille","lat":43.30157,"lon":5.38105,"is_reserved":false,"is_disabled":false,"rental_uris":{"android":"levelo://app?vid=52258c5b-71be-4ca3-abc4-349b115e60a1","ios":"levelo://app?vid=52258c5b-71be-4ca3-abc4-349b115e60a1"},"vehicle_type_id":"4","last_reported":1766064550,"current_range_meters":6800,"station_id":"ce4bgjp2rcd13ifvqbh0","pricing_plan_id":"cebpf4jnsgd1na2vs0mg"},{"bike_id":"0bb4aea0-cd2d-4260-9073-2602e9e1b1df","system_id":"levelo_inurba_marseille","lat":43.22532,"lon":5.34859,"is_reserved":false,"is_disabled":false,"rental_uris":{"android":"levelo://app?vid=0bb4aea0-cd2d-4260-9073-2602e9e1b1df","ios":"levelo://app?vid=0bb4aea0-cd2d-4260-9073-2602e9e1b1df"},"vehicle_type_id":"4","last_reported":1766064550,"current_range_meters":6800,"station_id":"","pricing_plan_id":"cebpf4jnsgd1na2vs0mg"},{"bike_id":"1a1bf77b-85a1-4d50-bfe8-4eb8e28e8ddd","system_id":"levelo_inurba_marseille","lat":43.26552,"lon":5.39001,"is_reserved":false,"is_disabled":false,"rental_uris":{"android":"levelo://app?vid=1a1bf77b-85a1-4d50-bfe8-4eb8e28e8ddd","ios":"levelo://app?vid=1a1bf77b-85a1-4d50-bfe8-4eb8e28e8ddd"},"vehicle_type_id":"4","last_reported":1766064550,"current_range_meters":6800,"station_id":"ce4bhe12rcd13ifvqf30","pricing_plan_id":"cebpf4jnsgd1na2vs0mg"},{"bike_id":"85db6c0a-3845-439c-9efa-2efc303f44c8","system_id":"levelo_inurba_marseille","lat":43.28858,"lon":5.42525,"is_reserved":false,"is_disabled":false,"rental_uris":{"android":"levelo://app?vid=85db6c0a-3845-439c-9efa-2efc303f44c8","ios":"levelo://app?vid=85db6c0a-3845-439c-9efa-2efc303f44c8"},"vehicle_type_id":"4","last_reported":1766064550,"current_range_meters":6800,"station_id":"st_d3b462108ojc7389ooeg","pricing_plan_id":"cebpf4jnsgd1na2vs0mg"},{"bike_id":"88031236-6a40-4d32-a503-adc00e8f1b31","system_id":"levelo_inurba_marseille","lat":43.33767,"lon":5.374479,"is_reserved":false,"is_disabled":false,"rental_uris":{"android":"levelo://app?vid=88031236-6a40-4d32-a503-adc00e8f1b31","ios":"levelo://app?vid=88031236-6a40-4d32-a503-adc00e8f1b31"},"vehicle_type_id":"4","last_reported":1766064550,"current_range_meters":6800,"station_id":"","pricing_plan_id":"cebpf4jnsgd1na2vs0mg"},{"bike_id":"cb2f6b46-c555-4f29-a1d3-a291bf8bc77a","system_id":"levelo_inurba_marseille","lat":43.284048,"lon":5.375102,"is_reserved":false,"is_disabled":false,"rental_uris":{"android":"levelo://app?vid=cb2f6b46-c555-4f29-a1d3-a291bf8bc77a","ios":"levelo://app?vid=cb2f6b46-c555-4f29-a1d3-a291bf8bc77a"},"vehicle_type_id":"4","last_reported":1766064550,"current_range_meters":6800,"station_id":"ce4bh412rcd13ifvqds0","pricing_plan_id":"cebpf4jnsgd1na2vs0mg"},{"bike_id":"cc178787-4e27-477e-85ac-bb874f1df1de","system_id":"levelo_inurba_marseille","lat":43.2733,"lon":5.41054,"is_reserved":false,"is_disabled":false,"rental_uris":{"android":"levelo://app?vid=cc178787-4e27-477e-85ac-bb874f1df1de","ios":"levelo://app?vid=cc178787-4e27-477e-85ac-bb874f1df1de"},"vehicle_type_id":"4","last_reported":1766064550,"current_range_meters":6800,"station_id":"","pricing_plan_id":"cebpf4jnsgd1na2vs0mg"},{"bike_id":"10280846-7312-49b2-8ea0-8c2776d19972","system_id":"levelo_inurba_marseille","lat":43.30316,"lon":5.40438,"is_reserved":false,"is_disabled":false,"rental_uris":{"android":"levelo://app?vid=10280846-7312-49b2-8ea0-8c2776d19972","ios":"levelo://app?vid=10280846-7312-49b2-8ea0-8c2776d19972"},"vehicle_type_id":"4","last_reported":1766064550,"current_range_meters":6800,"station_id":"ce4bh012rcd13ifvqd10","pricing_plan_id":"cebpf4jnsgd1na2vs0mg"},{"bike_id":"acbd2263-19e0-4dae-9efa-dc304e2bd28d","system_id":"levelo_inurba_marseille","lat":43.28336,"lon":5.38109,"is_reserved":false,"is_disabled":false,"rental_uris":{"android":"levelo://app?vid=acbd2263-19e0-4dae-9efa-dc304e2bd28d","ios":"levelo://app?vid=acbd2263-19e0-4dae-9efa-dc304e2bd28d"},"vehicle_type_id":"4","last_reported":1766064550,"current_range_meters":6800,"station_id":"ce4bh412rcd13ifvqdr0","pricing_plan_id":"cebpf4jnsgd1na2vs0mg"},{"bike_id":"775c3d59-9805-4484-83b0-30e9c4947cb1","system_id":"levelo_inurba_marseille","lat":43.26938,"lon":5.38928,"is_reserved":false,"is_disabled":false,"rental_uris":{"android":"levelo://app?vid=775c3d59-9805-4484-83b0-30e9c4947cb1","ios":"levelo://app?vid=775c3d59-9805-4484-83b0-30e9c4947cb1"},"vehicle_type_id":"4","last_reported":1766064550,"current_range_meters":6800,"station_id":"ce4bhhh2rcd13ifvqfl0","pricing_plan_id":"cebpf4jnsgd1na2vs0mg"},{"bike_id":"20716b40-09be-44d5-978b-3c6f70da4533","system_id":"levelo_inurba_marseille","lat":43.296177,"lon":5.365472,"is_reserved":false,"is_disabled":false,"rental_uris":{"android":"levelo://app?vid=20716b40-09be-44d5-978b-3c6f70da4533","ios":"levelo://app?vid=20716b40-09be-44d5-978b-3c6f70da4533"},"vehicle_type_id":"4","last_reported":1766064550,"current_range_meters":7200,"station_id":"ce4bgpp2rcd13ifvqc3g","pricing_plan_id":"cebpf4jnsgd1na2vs0mg"},{"bike_id":"3bfd6c2a-2e96-4c66-b7ba-58180062dbeb","system_id":"levelo_inurba_marseille","lat":43.29372,"lon":5.37844,"is_reserved":false,"is_disabled":false,"rental_uris":{"android":"levelo://app?vid=3bfd6c2a-2e96-4c66-b7ba-58180062dbeb","ios":"levelo://app?vid=3bfd6c2a-2e96-4c66-b7ba-58180062dbeb"},"vehicle_type_id":"4","last_reported":1766064550,"current_range_meters":7200,"station_id":"ce4bgjh2rcd13ifvqbf0","pricing_plan_id":"cebpf4jnsgd1na2vs0mg"},{"bike_id":"b9e289e9-e1d8-4db9-8eeb-d4ae6610e1bb","system_id":"levelo_inurba_marseille","lat":43.28877,"lon":5.42533,"is_reserved":false,"is_disabled":false,"rental_uris":{"android":"levelo://app?vid=b9e289e9-e1d8-4db9-8eeb-d4ae6610e1bb","ios":"levelo://app?vid=b9e289e9-e1d8-4db9-8eeb-d4ae6610e1bb"},"vehicle_type_id":"4","last_reported":1766064550,"current_range_meters":7200,"station_id":"st_d3b462108ojc7389ooeg","pricing_plan_id":"cebpf4jnsgd1na2vs0mg"},{"bike_id":"50e6eefe-8aea-4054-ab8f-87d6e301ff34","system_id":"levelo_inurba_marseille","lat":43.24296,"lon":5.43824,"is_reserved":false,"is_disabled":false,"rental_uris":{"android":"levelo://app?vid=50e6eefe-8aea-4054-ab8f-87d6e301ff34","ios":"levelo://app?vid=50e6eefe-8aea-4054-ab8f-87d6e301ff34"},"vehicle_type_id":"4","last_reported":1766064550,"current_range_meters":7200,"station_id":"","pricing_plan_id":"cebpf4jnsgd1na2vs0mg"},{"bike_id":"a1ac0ba7-1483-464e-9caa-755fc64f46a4","system_id":"levelo_inurba_marseille","lat":43.24062,"lon":5.37855,"is_reserved":false,"is_disabled":false,"rental_uris":{"android":"levelo://app?vid=a1ac0ba7-1483-464e-9caa-755fc64f46a4","ios":"levelo://app?vid=a1ac0ba7-1483-464e-9caa-755fc64f46a4"},"vehicle_type_id":"4","last_reported":1766064550,"current_range_meters":7200,"station_id":"","pricing_plan_id":"cebpf4jnsgd1na2vs0mg"},{"bike_id":"b7ea4e20-faaf-42e5-9ca6-e0d3232c1f5a","system_id":"levelo_inurba_marseille","lat":43.289392,"lon":5.366531,"is_reserved":false,"is_disabled":false,"rental_uris":{"android":"levelo://app?vid=b7ea4e20-faaf-42e5-9ca6-e0d3232c1f5a","ios":"levelo://app?vid=b7ea4e20-faaf-42e5-9ca6-e0d3232c1f5a"},"vehicle_type_id":"4","last_reported":1766064550,"current_range_meters":7200,"station_id":"ce4bhap2rcd13ifvqek0","pricing_plan_id":"cebpf4jnsgd1na2vs0mg"},{"bike_id":"7e16a29b-1fbf-412f-80f7-d54ff217a3bb","system_id":"levelo_inurba_marseille","lat":43.32475,"lon":5.36577,"is_reserved":false,"is_disabled":false,"rental_uris":{"android":"levelo://app?vid=7e16a29b-1fbf-412f-80f7-d54ff217a3bb","ios":"levelo://app?vid=7e16a29b-1fbf-412f-80f7-d54ff217a3bb"},"vehicle_type_id":"4","last_reported":1766064550,"current_range_meters":8000,"station_id":"ce4bhs12rcd13ifvqhvg","pricing_plan_id":"cebpf4jnsgd1na2vs0mg"},{"bike_id":"70234fbf-7631-4d10-a5c3-9e540d6bde11","system_id":"levelo_inurba_marseille","lat":43.285244,"lon":5.391208,"is_reserved":false,"is_disabled":false,"rental_uris":{"android":"levelo://app?vid=70234fbf-7631-4d10-a5c3-9e540d6bde11","ios":"levelo://app?vid=70234fbf-7631-4d10-a5c3-9e540d6bde11"},"vehicle_type_id":"4","last_reported":1766064550,"current_range_meters":8000,"station_id":"ce4bhoh2rcd13ifvqh5g","pricing_plan_id":"cebpf4jnsgd1na2vs0mg"},{"bike_id":"07102bbf-8e43-4cc8-abfb-b7bffaf00185","system_id":"levelo_inurba_marseille","lat":43.29416,"lon":5.36285,"is_reserved":false,"is_disabled":false,"rental_uris":{"android":"levelo://app?vid=07102bbf-8e43-4cc8-abfb-b7bffaf00185","ios":"levelo://app?vid=07102bbf-8e43-4cc8-abfb-b7bffaf00185"},"vehicle_type_id":"4","last_reported":1766064550,"current_range_meters":8000,"station_id":"","pricing_plan_id":"cebpf4jnsgd1na2vs0mg"},{"bike_id":"c7e5daf3-a6b0-4ffc-8e95-134c47362fa1","system_id":"levelo_inurba_marseille","lat":43.30111,"lon":5.36865,"is_reserved":false,"is_disabled":false,"rental_uris":{"android":"levelo://app?vid=c7e5daf3-a6b0-4ffc-8e95-134c47362fa1","ios":"levelo://app?vid=c7e5daf3-a6b0-4ffc-8e95-134c47362fa1"},"vehicle_type_id":"4","last_reported":1766064550,"current_range_meters":8000,"station_id":"","pricing_plan_id":"cebpf4jnsgd1na2vs0mg"},{"bike_id":"c30f1607-d873-49cb-b6ea-4f3da9324499","system_id":"levelo_inurba_marseille","lat":43.211921,"lon":5.350738,"is_reserved":false,"is_disabled":false,"rental_uris":{"android":"levelo://app?vid=c30f1607-d873-49cb-b6ea-4f3da9324499","ios":"levelo://app?vid=c30f1607-d873-49cb-b6ea-4f3da9324499"},"vehicle_type_id":"4","last_reported":1766064550,"current_range_meters":8000,"station_id":"","pricing_plan_id":"cebpf4jnsgd1na2vs0mg"},{"bike_id":"5c58f512-48c4-429a-99dd-26f455ed726f","system_id":"levelo_inurba_marseille","lat":43.337944,"lon":5.374329,"is_reserved":false,"is_disabled":false,"rental_uris":{"android":"levelo://app?vid=5c58f512-48c4-429a-99dd-26f455ed726f","ios":"levelo://app?vid=5c58f512-48c4-429a-99dd-26f455ed726f"},"vehicle_type_id":"4","last_reported":1766064550,"current_range_meters":8000,"station_id":"","pricing_plan_id":"cebpf4jnsgd1na2vs0mg"},{"bike_id":"2823b4ca-2c59-4063-b2e9-c35cc4559fe6","system_id":"levelo_inurba_marseille","lat":43.28204,"lon":5.3906,"is_reserved":false,"is_disabled":false,"rental_uris":{"android":"levelo://app?vid=2823b4ca-2c59-4063-b2e9-c35cc4559fe6","ios":"levelo://app?vid=2823b4ca-2c59-4063-b2e9-c35cc4559fe6"},"vehicle_type_id":"4","last_reported":1766064550,"current_range_meters":8400,"station_id":"ce4bhn92rcd13ifvqgsg","pricing_plan_id":"cebpf4jnsgd1na2vs0mg"},{"bike_id":"be0796b3-fe53-47f9-9dc0-aee69e98025a","system_id":"levelo_inurba_marseille","lat":43.31332,"lon":5.39697,"is_reserved":false,"is_disabled":false,"rental_uris":{"android":"levelo://app?vid=be0796b3-fe53-47f9-9dc0-aee69e98025a","ios":"levelo://app?vid=be0796b3-fe53-47f9-9dc0-aee69e98025a"},"vehicle_type_id":"4","last_reported":1766064550,"current_range_meters":8400,"station_id":"ce4bgvp2rcd13ifvqcu0","pricing_plan_id":"cebpf4jnsgd1na2vs0mg"},{"bike_id":"d34df350-ece2-4189-8693-a2aaec5c10c7","system_id":"levelo_inurba_marseille","lat":43.27937,"lon":5.41042,"is_reserved":false,"is_disabled":false,"rental_uris":{"android":"levelo://app?vid=d34df350-ece2-4189-8693-a2aaec5c10c7","ios":"levelo://app?vid=d34df350-ece2-4189-8693-a2aaec5c10c7"},"vehicle_type_id":"4","last_reported":1766064550,"current_range_meters":8400,"station_id":"ce4bhnp2rcd13ifvqh0g","pricing_plan_id":"cebpf4jnsgd1na2vs0mg"},{"bike_id":"05c11225-843a-47cc-ae7a-625ff555981b","system_id":"levelo_inurba_marseille","lat":43.23789,"lon":5.36639,"is_reserved":false,"is_disabled":false,"rental_uris":{"android":"levelo://app?vid=05c11225-843a-47cc-ae7a-625ff555981b","ios":"levelo://app?vid=05c11225-843a-47cc-ae7a-625ff555981b"},"vehicle_type_id":"4","last_reported":1766064550,"current_range_meters":8400,"station_id":"st_d3nk18o9ro0c73en2l3g","pricing_plan_id":"cebpf4jnsgd1na2vs0mg"},{"bike_id":"f678842d-332c-4f57-bb2b-3c279d8a14e9","system_id":"levelo_inurba_marseille","lat":43.298727,"lon":5.397284,"is_reserved":false,"is_disabled":false,"rental_uris":{"android":"levelo://app?vid=f678842d-332c-4f57-bb2b-3c279d8a14e9","ios":"levelo://app?vid=f678842d-332c-4f57-bb2b-3c279d8a14e9"},"vehicle_type_id":"4","last_reported":1766064550,"current_range_meters":8400,"station_id":"ce4bh0h2rcd13ifvqd50","pricing_plan_id":"cebpf4jnsgd1na2vs0mg"},{"bike_id":"e68edb33-f119-4668-a648-2630e687f520","system_id":"levelo_inurba_marseille","lat":43.29914,"lon":5.37477,"is_reserved":false,"is_disabled":false,"rental_uris":{"android":"levelo://app?vid=e68edb33-f119-4668-a648-2630e687f520","ios":"levelo://app?vid=e68edb33-f119-4668-a648-2630e687f520"},"vehicle_type_id":"4","last_reported":1766064550,"current_range_meters":8400,"station_id":"ce4bgjh2rcd13ifvqbg0","pricing_plan_id":"cebpf4jnsgd1na2vs0mg"},{"bike_id":"bd6e3456-1d79-4a46-8638-9f36c62b99d3","system_id":"levelo_inurba_marseille","lat":43.25577,"lon":5.38229,"is_reserved":false,"is_disabled":false,"rental_uris":{"android":"levelo://app?vid=bd6e3456-1d79-4a46-8638-9f36c62b99d3","ios":"levelo://app?vid=bd6e3456-1d79-4a46-8638-9f36c62b99d3"},"vehicle_type_id":"4","last_reported":1766064550,"current_range_meters":8400,"station_id":"ce4bhih2rcd13ifvqfs0","pricing_plan_id":"cebpf4jnsgd1na2vs0mg"},{"bike_id":"9cb52630-f8b4-4ff3-9ddb-fd021bf763e2","system_id":"levelo_inurba_marseille","lat":43.29904,"lon":5.37219,"is_reserved":false,"is_disabled":false,"rental_uris":{"android":"levelo://app?vid=9cb52630-f8b4-4ff3-9ddb-fd021bf763e2","ios":"levelo://app?vid=9cb52630-f8b4-4ff3-9ddb-fd021bf763e2"},"vehicle_type_id":"4","last_reported":1766064550,"current_range_meters":8400,"station_id":"","pricing_plan_id":"cebpf4jnsgd1na2vs0mg"},{"bike_id":"339b3294-0958-4b8f-be41-a61a122ad3b8","system_id":"levelo_inurba_marseille","lat":43.30903,"lon":5.3685,"is_reserved":false,"is_disabled":false,"rental_uris":{"android":"levelo://app?vid=339b3294-0958-4b8f-be41-a61a122ad3b8","ios":"levelo://app?vid=339b3294-0958-4b8f-be41-a61a122ad3b8"},"vehicle_type_id":"4","last_reported":1766064550,"current_range_meters":8800,"station_id":"ce4bgn92rcd13ifvqbvg","pricing_plan_id":"cebpf4jnsgd1na2vs0mg"},{"bike_id":"e9f3017f-69b1-43c6-84d6-0869fe1296c7","system_id":"levelo_inurba_marseille","lat":43.27964,"lon":5.38748,"is_reserved":false,"is_disabled":false,"rental_uris":{"android":"levelo://app?vid=e9f3017f-69b1-43c6-84d6-0869fe1296c7","ios":"levelo://app?vid=e9f3017f-69b1-43c6-84d6-0869fe1296c7"},"vehicle_type_id":"4","last_reported":1766064550,"current_range_meters":8800,"station_id":"ce4bhg12rcd13ifvqf80","pricing_plan_id":"cebpf4jnsgd1na2vs0mg"},{"bike_id":"4c635b7d-7285-4e7b-a39a-45764199d6e5","system_id":"levelo_inurba_marseille","lat":43.24636,"lon":5.38884,"is_reserved":false,"is_disabled":false,"rental_uris":{"android":"levelo://app?vid=4c635b7d-7285-4e7b-a39a-45764199d6e5","ios":"levelo://app?vid=4c635b7d-7285-4e7b-a39a-45764199d6e5"},"vehicle_type_id":"4","last_reported":1766064550,"current_range_meters":8800,"station_id":"ce4bhg12rcd13ifvqf60","pricing_plan_id":"cebpf4jnsgd1na2vs0mg"},{"bike_id":"c1a13173-0834-4842-8f7a-134dbbd54b34","system_id":"levelo_inurba_marseille","lat":43.296,"lon":5.3811,"is_reserved":false,"is_disabled":false,"rental_uris":{"android":"levelo://app?vid=c1a13173-0834-4842-8f7a-134dbbd54b34","ios":"levelo://app?vid=c1a13173-0834-4842-8f7a-134dbbd54b34"},"vehicle_type_id":"4","last_reported":1766064550,"current_range_meters":8800,"station_id":"ce4bgl12rcd13ifvqbo0","pricing_plan_id":"cebpf4jnsgd1na2vs0mg"},{"bike_id":"a9adc8bf-52f1-4c31-a2de-42743dd086bf","system_id":"levelo_inurba_marseille","lat":43.33723,"lon":5.3748,"is_reserved":false,"is_disabled":false,"rental_uris":{"android":"levelo://app?vid=a9adc8bf-52f1-4c31-a2de-42743dd086bf","ios":"levelo://app?vid=a9adc8bf-52f1-4c31-a2de-42743dd086bf"},"vehicle_type_id":"4","last_reported":1766064550,"current_range_meters":8800,"station_id":"","pricing_plan_id":"cebpf4jnsgd1na2vs0mg"},{"bike_id":"86e8b465-b02a-4d26-9bdc-61e2cf347d92","system_id":"levelo_inurba_marseille","lat":43.273117,"lon":5.390833,"is_reserved":false,"is_disabled":false,"rental_uris":{"android":"levelo://app?vid=86e8b465-b02a-4d26-9bdc-61e2cf347d92","ios":"levelo://app?vid=86e8b465-b02a-4d26-9bdc-61e2cf347d92"},"vehicle_type_id":"4","last_reported":1766064550,"current_range_meters":8800,"station_id":"ce4bhgp2rcd13ifvqfe0","pricing_plan_id":"cebpf4jnsgd1na2vs0mg"},{"bike_id":"8716a47c-e7f6-45ed-b291-a4146dee0804","system_id":"levelo_inurba_marseille","lat":43.29026,"lon":5.3756,"is_reserved":false,"is_disabled":false,"rental_uris":{"android":"levelo://app?vid=8716a47c-e7f6-45ed-b291-a4146dee0804","ios":"levelo://app?vid=8716a47c-e7f6-45ed-b291-a4146dee0804"},"vehicle_type_id":"4","last_reported":1766064550,"current_range_meters":8800,"station_id":"ce4bh692rcd13ifvqe90","pricing_plan_id":"cebpf4jnsgd1na2vs0mg"},{"bike_id":"5614cec6-e3b0-4365-88b4-7cc34436ed87","system_id":"levelo_inurba_marseille","lat":43.302706,"lon":5.376961,"is_reserved":false,"is_disabled":false,"rental_uris":{"android":"levelo://app?vid=5614cec6-e3b0-4365-88b4-7cc34436ed87","ios":"levelo://app?vid=5614cec6-e3b0-4365-88b4-7cc34436ed87"},"vehicle_type_id":"4","last_reported":1766064550,"current_range_meters":8800,"station_id":"ce4bguh2rcd13ifvqcj0","pricing_plan_id":"cebpf4jnsgd1na2vs0mg"},{"bike_id":"18693ba9-e70c-4712-b809-f92059e0abc5","system_id":"levelo_inurba_marseille","lat":43.25245,"lon":5.38009,"is_reserved":false,"is_disabled":false,"rental_uris":{"android":"levelo://app?vid=18693ba9-e70c-4712-b809-f92059e0abc5","ios":"levelo://app?vid=18693ba9-e70c-4712-b809-f92059e0abc5"},"vehicle_type_id":"4","last_reported":1766064550,"current_range_meters":8800,"station_id":"","pricing_plan_id":"cebpf4jnsgd1na2vs0mg"},{"bike_id":"cc805cfa-d25c-4ac8-8283-b09969e61147","system_id":"levelo_inurba_marseille","lat":43.33797,"lon":5.374309,"is_reserved":false,"is_disabled":false,"rental_uris":{"android":"levelo://app?vid=cc805cfa-d25c-4ac8-8283-b09969e61147","ios":"levelo://app?vid=cc805cfa-d25c-4ac8-8283-b09969e61147"},"vehicle_type_id":"4","last_reported":1766064550,"current_range_meters":8800,"station_id":"","pricing_plan_id":"cebpf4jnsgd1na2vs0mg"},{"bike_id":"719915dd-1aab-4393-aad3-6667f90a2d2a","system_id":"levelo_inurba_marseille","lat":47.15959,"lon":4.9982,"is_reserved":false,"is_disabled":false,"rental_uris":{"android":"levelo://app?vid=719915dd-1aab-4393-aad3-6667f90a2d2a","ios":"levelo://app?vid=719915dd-1aab-4393-aad3-6667f90a2d2a"},"vehicle_type_id":"4","last_reported":1766064550,"current_range_meters":8800,"station_id":"","pricing_plan_id":"cebpf4jnsgd1na2vs0mg"},{"bike_id":"ffdeb232-3eba-4cca-8280-112e2506557f","system_id":"levelo_inurba_marseille","lat":43.30189,"lon":5.36618,"is_reserved":false,"is_disabled":false,"rental_uris":{"android":"levelo://app?vid=ffdeb232-3eba-4cca-8280-112e2506557f","ios":"levelo://app?vid=ffdeb232-3eba-4cca-8280-112e2506557f"},"vehicle_type_id":"4","last_reported":1766064550,"current_range_meters":9200,"station_id":"ce4bgrh2rcd13ifvqc8g","pricing_plan_id":"cebpf4jnsgd1na2vs0mg"},{"bike_id":"c0e5a07a-ae23-4904-99bc-81c07c1b025d","system_id":"levelo_inurba_marseille","lat":43.26029,"lon":5.37549,"is_reserved":false,"is_disabled":false,"rental_uris":{"android":"levelo://app?vid=c0e5a07a-ae23-4904-99bc-81c07c1b025d","ios":"levelo://app?vid=c0e5a07a-ae23-4904-99bc-81c07c1b025d"},"vehicle_type_id":"4","last_reported":1766064550,"current_range_meters":9200,"station_id":"ce4bhgh2rcd13ifvqfa0","pricing_plan_id":"cebpf4jnsgd1na2vs0mg"},{"bike_id":"00fd2dcb-6faf-4c7a-8c99-525909084655","system_id":"levelo_inurba_marseille","lat":43.281495,"lon":5.42648,"is_reserved":false,"is_disabled":true,"rental_uris":{"android":"levelo://app?vid=00fd2dcb-6faf-4c7a-8c99-525909084655","ios":"levelo://app?vid=00fd2dcb-6faf-4c7a-8c99-525909084655"},"vehicle_type_id":"4","last_reported":1766064550,"current_range_meters":9200,"station_id":"ce4bhnh2rcd13ifvqgug","pricing_plan_id":"cebpf4jnsgd1na2vs0mg"},{"bike_id":"0186d0ed-e6e2-49d9-9565-f46555fe7905","system_id":"levelo_inurba_marseille","lat":43.28481,"lon":5.384189,"is_reserved":false,"is_disabled":false,"rental_uris":{"android":"levelo://app?vid=0186d0ed-e6e2-49d9-9565-f46555fe7905","ios":"levelo://app?vid=0186d0ed-e6e2-49d9-9565-f46555fe7905"},"vehicle_type_id":"4","last_reported":1766064550,"current_range_meters":9200,"station_id":"","pricing_plan_id":"cebpf4jnsgd1na2vs0mg"},{"bike_id":"9cd0b5cd-982d-46c9-b94d-972458c0583a","system_id":"levelo_inurba_marseille","lat":43.306326,"lon":5.373744,"is_reserved":false,"is_disabled":false,"rental_uris":{"android":"levelo://app?vid=9cd0b5cd-982d-46c9-b94d-972458c0583a","ios":"levelo://app?vid=9cd0b5cd-982d-46c9-b94d-972458c0583a"},"vehicle_type_id":"4","last_reported":1766064550,"current_range_meters":9200,"station_id":"","pricing_plan_id":"cebpf4jnsgd1na2vs0mg"},{"bike_id":"ee6e64c0-a924-4f96-8689-db48260b708d","system_id":"levelo_inurba_marseille","lat":43.29982,"lon":5.38492,"is_reserved":false,"is_disabled":false,"rental_uris":{"android":"levelo://app?vid=ee6e64c0-a924-4f96-8689-db48260b708d","ios":"levelo://app?vid=ee6e64c0-a924-4f96-8689-db48260b708d"},"vehicle_type_id":"4","last_reported":1766064550,"current_range_meters":9200,"station_id":"ce4bgj92rcd13ifvqbd0","pricing_plan_id":"cebpf4jnsgd1na2vs0mg"},{"bike_id":"a474f569-93b6-408e-90c8-4c5a2064fccb","system_id":"levelo_inurba_marseille","lat":43.249995,"lon":5.389301,"is_reserved":false,"is_disabled":false,"rental_uris":{"android":"levelo://app?vid=a474f569-93b6-408e-90c8-4c5a2064fccb","ios":"levelo://app?vid=a474f569-93b6-408e-90c8-4c5a2064fccb"},"vehicle_type_id":"4","last_reported":1766064550,"current_range_meters":9200,"station_id":"ce4bhgp2rcd13ifvqfd0","pricing_plan_id":"cebpf4jnsgd1na2vs0mg"},{"bike_id":"7ab85ca7-5479-4fa9-97a7-4b6e66aa28e6","system_id":"levelo_inurba_marseille","lat":43.26063,"lon":5.39396,"is_reserved":false,"is_disabled":false,"rental_uris":{"android":"levelo://app?vid=7ab85ca7-5479-4fa9-97a7-4b6e66aa28e6","ios":"levelo://app?vid=7ab85ca7-5479-4fa9-97a7-4b6e66aa28e6"},"vehicle_type_id":"4","last_reported":1766064550,"current_range_meters":9200,"station_id":"ce4bhh92rcd13ifvqfj0","pricing_plan_id":"cebpf4jnsgd1na2vs0mg"},{"bike_id":"0f033089-1424-4fb4-b3dd-976abb0af258","system_id":"levelo_inurba_marseille","lat":43.24053,"lon":5.3775,"is_reserved":false,"is_disabled":false,"rental_uris":{"android":"levelo://app?vid=0f033089-1424-4fb4-b3dd-976abb0af258","ios":"levelo://app?vid=0f033089-1424-4fb4-b3dd-976abb0af258"},"vehicle_type_id":"4","last_reported":1766064550,"current_range_meters":9600,"station_id":"ce4bhnp2rcd13ifvqgvg","pricing_plan_id":"cebpf4jnsgd1na2vs0mg"},{"bike_id":"444f71b8-a38e-4539-b803-38dd71b427da","system_id":"levelo_inurba_marseille","lat":43.29028,"lon":5.38131,"is_reserved":false,"is_disabled":false,"rental_uris":{"android":"levelo://app?vid=444f71b8-a38e-4539-b803-38dd71b427da","ios":"levelo://app?vid=444f71b8-a38e-4539-b803-38dd71b427da"},"vehicle_type_id":"4","last_reported":1766064550,"current_range_meters":10000,"station_id":"ce4bh4p2rcd13ifvqe1g","pricing_plan_id":"cebpf4jnsgd1na2vs0mg"},{"bike_id":"2662ceb0-290d-4ce4-b329-341d7f8526ec","system_id":"levelo_inurba_marseille","lat":43.245555,"lon":5.395013,"is_reserved":false,"is_disabled":false,"rental_uris":{"android":"levelo://app?vid=2662ceb0-290d-4ce4-b329-341d7f8526ec","ios":"levelo://app?vid=2662ceb0-290d-4ce4-b329-341d7f8526ec"},"vehicle_type_id":"4","last_reported":1766064550,"current_range_meters":10000,"station_id":"","pricing_plan_id":"cebpf4jnsgd1na2vs0mg"},{"bike_id":"3cde007c-a409-4597-91e7-ca2461274ad1","system_id":"levelo_inurba_marseille","lat":43.26565,"lon":5.40191,"is_reserved":false,"is_disabled":false,"rental_uris":{"android":"levelo://app?vid=3cde007c-a409-4597-91e7-ca2461274ad1","ios":"levelo://app?vid=3cde007c-a409-4597-91e7-ca2461274ad1"},"vehicle_type_id":"4","last_reported":1766064550,"current_range_meters":10000,"station_id":"","pricing_plan_id":"cebpf4jnsgd1na2vs0mg"},{"bike_id":"a24ee5b6-572d-4941-9ef3-a9d89c28bd82","system_id":"levelo_inurba_marseille","lat":43.3055,"lon":5.36717,"is_reserved":false,"is_disabled":false,"rental_uris":{"android":"levelo://app?vid=a24ee5b6-572d-4941-9ef3-a9d89c28bd82","ios":"levelo://app?vid=a24ee5b6-572d-4941-9ef3-a9d89c28bd82"},"vehicle_type_id":"4","last_reported":1766064550,"current_range_meters":10000,"station_id":"ce4bgrp2rcd13ifvqc9g","pricing_plan_id":"cebpf4jnsgd1na2vs0mg"},{"bike_id":"7a217e04-e527-4f4b-ace2-648f28f70b0e","system_id":"levelo_inurba_marseille","lat":43.25574,"lon":5.38234,"is_reserved":false,"is_disabled":false,"rental_uris":{"android":"levelo://app?vid=7a217e04-e527-4f4b-ace2-648f28f70b0e","ios":"levelo://app?vid=7a217e04-e527-4f4b-ace2-648f28f70b0e"},"vehicle_type_id":"4","last_reported":1766064550,"current_range_meters":10000,"station_id":"ce4bhih2rcd13ifvqfs0","pricing_plan_id":"cebpf4jnsgd1na2vs0mg"},{"bike_id":"f7f5c04a-22b5-4669-9293-4e0da7df3812","system_id":"levelo_inurba_marseille","lat":43.30123,"lon":5.39846,"is_reserved":false,"is_disabled":false,"rental_uris":{"android":"levelo://app?vid=f7f5c04a-22b5-4669-9293-4e0da7df3812","ios":"levelo://app?vid=f7f5c04a-22b5-4669-9293-4e0da7df3812"},"vehicle_type_id":"4","last_reported":1766064550,"current_range_meters":10000,"station_id":"ce4bh0h2rcd13ifvqd40","pricing_plan_id":"cebpf4jnsgd1na2vs0mg"},{"bike_id":"e3e53fe2-9141-448c-bd17-d451259458d8","system_id":"levelo_inurba_marseille","lat":43.24082,"lon":5.3778,"is_reserved":false,"is_disabled":false,"rental_uris":{"android":"levelo://app?vid=e3e53fe2-9141-448c-bd17-d451259458d8","ios":"levelo://app?vid=e3e53fe2-9141-448c-bd17-d451259458d8"},"vehicle_type_id":"4","last_reported":1766064550,"current_range_meters":10000,"station_id":"ce4bhnp2rcd13ifvqgvg","pricing_plan_id":"cebpf4jnsgd1na2vs0mg"},{"bike_id":"77dab691-c6f9-433b-aa90-082c7a8f6c6d","system_id":"levelo_inurba_marseille","lat":43.23783,"lon":5.36627,"is_reserved":false,"is_disabled":false,"rental_uris":{"android":"levelo://app?vid=77dab691-c6f9-433b-aa90-082c7a8f6c6d","ios":"levelo://app?vid=77dab691-c6f9-433b-aa90-082c7a8f6c6d"},"vehicle_type_id":"4","last_reported":1766064550,"current_range_meters":10000,"station_id":"st_d3nk18o9ro0c73en2l3g","pricing_plan_id":"cebpf4jnsgd1na2vs0mg"},{"bike_id":"56690126-52b4-458d-9f2f-06c49d77fd16","system_id":"levelo_inurba_marseille","lat":43.29531,"lon":5.38535,"is_reserved":false,"is_disabled":false,"rental_uris":{"android":"levelo://app?vid=56690126-52b4-458d-9f2f-06c49d77fd16","ios":"levelo://app?vid=56690126-52b4-458d-9f2f-06c49d77fd16"},"vehicle_type_id":"4","last_reported":1766064550,"current_range_meters":10000,"station_id":"ce4bgih2rcd13ifvqba0","pricing_plan_id":"cebpf4jnsgd1na2vs0mg"},{"bike_id":"250d9f0d-0310-426b-97fe-cd28dd2a7b3c","system_id":"levelo_inurba_marseille","lat":43.27322,"lon":5.39084,"is_reserved":false,"is_disabled":false,"rental_uris":{"android":"levelo://app?vid=250d9f0d-0310-426b-97fe-cd28dd2a7b3c","ios":"levelo://app?vid=250d9f0d-0310-426b-97fe-cd28dd2a7b3c"},"vehicle_type_id":"4","last_reported":1766064550,"current_range_meters":10000,"station_id":"ce4bhgp2rcd13ifvqfe0","pricing_plan_id":"cebpf4jnsgd1na2vs0mg"},{"bike_id":"3fb7a4e2-ead5-45c9-9601-6de0e70cb3e3","system_id":"levelo_inurba_marseille","lat":43.290346,"lon":5.375687,"is_reserved":false,"is_disabled":false,"rental_uris":{"android":"levelo://app?vid=3fb7a4e2-ead5-45c9-9601-6de0e70cb3e3","ios":"levelo://app?vid=3fb7a4e2-ead5-45c9-9601-6de0e70cb3e3"},"vehicle_type_id":"4","last_reported":1766064550,"current_range_meters":10000,"station_id":"ce4bh692rcd13ifvqe90","pricing_plan_id":"cebpf4jnsgd1na2vs0mg"},{"bike_id":"23926c30-7be6-4204-bb9e-334fc7de64a9","system_id":"levelo_inurba_marseille","lat":43.28473,"lon":5.38413,"is_reserved":false,"is_disabled":false,"rental_uris":{"android":"levelo://app?vid=23926c30-7be6-4204-bb9e-334fc7de64a9","ios":"levelo://app?vid=23926c30-7be6-4204-bb9e-334fc7de64a9"},"vehicle_type_id":"4","last_reported":1766064550,"current_range_meters":10000,"station_id":"ce4bh512rcd13ifvqe3g","pricing_plan_id":"cebpf4jnsgd1na2vs0mg"},{"bike_id":"1d959034-8c3b-4194-8f03-ba31b683013e","system_id":"levelo_inurba_marseille","lat":43.3354,"lon":5.37468,"is_reserved":false,"is_disabled":false,"rental_uris":{"android":"levelo://app?vid=1d959034-8c3b-4194-8f03-ba31b683013e","ios":"levelo://app?vid=1d959034-8c3b-4194-8f03-ba31b683013e"},"vehicle_type_id":"4","last_reported":1766064550,"current_range_meters":10000,"station_id":"st_d46tts09ee8s73dlu43g","pricing_plan_id":"cebpf4jnsgd1na2vs0mg"},{"bike_id":"63f2a6e5-fe2c-4d66-8246-b5377cabfb10","system_id":"levelo_inurba_marseille","lat":43.27643,"lon":5.38871,"is_reserved":false,"is_disabled":false,"rental_uris":{"android":"levelo://app?vid=63f2a6e5-fe2c-4d66-8246-b5377cabfb10","ios":"levelo://app?vid=63f2a6e5-fe2c-4d66-8246-b5377cabfb10"},"vehicle_type_id":"4","last_reported":1766064550,"current_range_meters":10800,"station_id":"ce4bhi12rcd13ifvqfo0","pricing_plan_id":"cebpf4jnsgd1na2vs0mg"},{"bike_id":"518a163f-631b-47d8-b2a2-ed09d2432883","system_id":"levelo_inurba_marseille","lat":43.29966,"lon":5.38497,"is_reserved":false,"is_disabled":false,"rental_uris":{"android":"levelo://app?vid=518a163f-631b-47d8-b2a2-ed09d2432883","ios":"levelo://app?vid=518a163f-631b-47d8-b2a2-ed09d2432883"},"vehicle_type_id":"4","last_reported":1766064550,"current_range_meters":10800,"station_id":"ce4bgj92rcd13ifvqbd0","pricing_plan_id":"cebpf4jnsgd1na2vs0mg"},{"bike_id":"64f89ee4-d340-4d44-b767-ad9b14888bc1","system_id":"levelo_inurba_marseille","lat":43.26946,"lon":5.3863,"is_reserved":false,"is_disabled":false,"rental_uris":{"android":"levelo://app?vid=64f89ee4-d340-4d44-b767-ad9b14888bc1","ios":"levelo://app?vid=64f89ee4-d340-4d44-b767-ad9b14888bc1"},"vehicle_type_id":"4","last_reported":1766064550,"current_range_meters":10800,"station_id":"ce4bhh92rcd13ifvqfh0","pricing_plan_id":"cebpf4jnsgd1na2vs0mg"},{"bike_id":"d530aabd-67d9-4ce5-a96c-8278143245ac","system_id":"levelo_inurba_marseille","lat":43.290005,"lon":5.356092,"is_reserved":false,"is_disabled":false,"rental_uris":{"android":"levelo://app?vid=d530aabd-67d9-4ce5-a96c-8278143245ac","ios":"levelo://app?vid=d530aabd-67d9-4ce5-a96c-8278143245ac"},"vehicle_type_id":"4","last_reported":1766064550,"current_range_meters":10800,"station_id":"ce4bhb92rcd13ifvqen0","pricing_plan_id":"cebpf4jnsgd1na2vs0mg"},{"bike_id":"11f01633-1467-48d4-a58d-38bd78112852","system_id":"levelo_inurba_marseille","lat":43.27545,"lon":5.38438,"is_reserved":false,"is_disabled":false,"rental_uris":{"android":"levelo://app?vid=11f01633-1467-48d4-a58d-38bd78112852","ios":"levelo://app?vid=11f01633-1467-48d4-a58d-38bd78112852"},"vehicle_type_id":"4","last_reported":1766064550,"current_range_meters":10800,"station_id":"ce4bhh92rcd13ifvqfi0","pricing_plan_id":"cebpf4jnsgd1na2vs0mg"},{"bike_id":"f87a7598-e6b9-4feb-a6e3-d98d4acd6941","system_id":"levelo_inurba_marseille","lat":43.24174,"lon":5.36407,"is_reserved":false,"is_disabled":false,"rental_uris":{"android":"levelo://app?vid=f87a7598-e6b9-4feb-a6e3-d98d4acd6941","ios":"levelo://app?vid=f87a7598-e6b9-4feb-a6e3-d98d4acd6941"},"vehicle_type_id":"4","last_reported":1766064550,"current_range_meters":10800,"station_id":"cpo36qri1sfpv3e86is0","pricing_plan_id":"cebpf4jnsgd1na2vs0mg"},{"bike_id":"9c10a177-9935-4a1a-982e-4841575bfa35","system_id":"levelo_inurba_marseille","lat":43.286132,"lon":5.35107,"is_reserved":false,"is_disabled":false,"rental_uris":{"android":"levelo://app?vid=9c10a177-9935-4a1a-982e-4841575bfa35","ios":"levelo://app?vid=9c10a177-9935-4a1a-982e-4841575bfa35"},"vehicle_type_id":"4","last_reported":1766064550,"current_range_meters":10800,"station_id":"ce4bhb92rcd13ifvqen0","pricing_plan_id":"cebpf4jnsgd1na2vs0mg"},{"bike_id":"5afffc42-5d9b-4bf6-b162-f0a929667398","system_id":"levelo_inurba_marseille","lat":43.25105,"lon":5.40337,"is_reserved":false,"is_disabled":false,"rental_uris":{"android":"levelo://app?vid=5afffc42-5d9b-4bf6-b162-f0a929667398","ios":"levelo://app?vid=5afffc42-5d9b-4bf6-b162-f0a929667398"},"vehicle_type_id":"4","last_reported":1766064550,"current_range_meters":11200,"station_id":"ce4bhlh2rcd13ifvqgig","pricing_plan_id":"cebpf4jnsgd1na2vs0mg"},{"bike_id":"cd4b798f-ef73-462b-a871-c0e46f70c7b6","system_id":"levelo_inurba_marseille","lat":43.29668,"lon":5.37695,"is_reserved":false,"is_disabled":false,"rental_uris":{"android":"levelo://app?vid=cd4b798f-ef73-462b-a871-c0e46f70c7b6","ios":"levelo://app?vid=cd4b798f-ef73-462b-a871-c0e46f70c7b6"},"vehicle_type_id":"4","last_reported":1766064550,"current_range_meters":11200,"station_id":"ce4bgkh2rcd13ifvqbl0","pricing_plan_id":"cebpf4jnsgd1na2vs0mg"},{"bike_id":"50bb104f-bdbe-4eab-bd19-f33b1d1b4be5","system_id":"levelo_inurba_marseille","lat":43.25338,"lon":5.42167,"is_reserved":false,"is_disabled":false,"rental_uris":{"android":"levelo://app?vid=50bb104f-bdbe-4eab-bd19-f33b1d1b4be5","ios":"levelo://app?vid=50bb104f-bdbe-4eab-bd19-f33b1d1b4be5"},"vehicle_type_id":"4","last_reported":1766064550,"current_range_meters":11200,"station_id":"st_d2m65c5bi1j21697t3ng","pricing_plan_id":"cebpf4jnsgd1na2vs0mg"},{"bike_id":"345527b9-e5b3-41dc-86fa-0725a99c666a","system_id":"levelo_inurba_marseille","lat":43.32064,"lon":5.37293,"is_reserved":false,"is_disabled":false,"rental_uris":{"android":"levelo://app?vid=345527b9-e5b3-41dc-86fa-0725a99c666a","ios":"levelo://app?vid=345527b9-e5b3-41dc-86fa-0725a99c666a"},"vehicle_type_id":"4","last_reported":1766064550,"current_range_meters":11200,"station_id":"","pricing_plan_id":"cebpf4jnsgd1na2vs0mg"},{"bike_id":"9fd9e2d5-cd2d-4e2e-a545-038699ea50b3","system_id":"levelo_inurba_marseille","lat":43.29023,"lon":5.38645,"is_reserved":false,"is_disabled":false,"rental_uris":{"android":"levelo://app?vid=9fd9e2d5-cd2d-4e2e-a545-038699ea50b3","ios":"levelo://app?vid=9fd9e2d5-cd2d-4e2e-a545-038699ea50b3"},"vehicle_type_id":"4","last_reported":1766064550,"current_range_meters":11200,"station_id":"ce4bh4p2rcd13ifvqe0g","pricing_plan_id":"cebpf4jnsgd1na2vs0mg"},{"bike_id":"c8ae05dc-be68-4290-a207-222d34083f3e","system_id":"levelo_inurba_marseille","lat":43.28306,"lon":5.38919,"is_reserved":false,"is_disabled":false,"rental_uris":{"android":"levelo://app?vid=c8ae05dc-be68-4290-a207-222d34083f3e","ios":"levelo://app?vid=c8ae05dc-be68-4290-a207-222d34083f3e"},"vehicle_type_id":"4","last_reported":1766064550,"current_range_meters":11200,"station_id":"","pricing_plan_id":"cebpf4jnsgd1na2vs0mg"},{"bike_id":"fe023a00-195e-468b-afd1-a308711e61cf","system_id":"levelo_inurba_marseille","lat":43.276826,"lon":5.389039,"is_reserved":false,"is_disabled":false,"rental_uris":{"android":"levelo://app?vid=fe023a00-195e-468b-afd1-a308711e61cf","ios":"levelo://app?vid=fe023a00-195e-468b-afd1-a308711e61cf"},"vehicle_type_id":"4","last_reported":1766064550,"current_range_meters":11200,"station_id":"ce4bhi12rcd13ifvqfo0","pricing_plan_id":"cebpf4jnsgd1na2vs0mg"},{"bike_id":"7e5e3878-901e-4cf9-bd85-774bfec7564a","system_id":"levelo_inurba_marseille","lat":43.31068,"lon":5.37187,"is_reserved":false,"is_disabled":false,"rental_uris":{"android":"levelo://app?vid=7e5e3878-901e-4cf9-bd85-774bfec7564a","ios":"levelo://app?vid=7e5e3878-901e-4cf9-bd85-774bfec7564a"},"vehicle_type_id":"4","last_reported":1766064550,"current_range_meters":11200,"station_id":"st_d4kl2rp97mjs73e7tdfg","pricing_plan_id":"cebpf4jnsgd1na2vs0mg"},{"bike_id":"81508f0a-e327-4705-ae72-228165570b37","system_id":"levelo_inurba_marseille","lat":43.25102,"lon":5.38967,"is_reserved":false,"is_disabled":false,"rental_uris":{"android":"levelo://app?vid=81508f0a-e327-4705-ae72-228165570b37","ios":"levelo://app?vid=81508f0a-e327-4705-ae72-228165570b37"},"vehicle_type_id":"4","last_reported":1766064550,"current_range_meters":11200,"station_id":"","pricing_plan_id":"cebpf4jnsgd1na2vs0mg"},{"bike_id":"53b4f7a5-d4a3-4ba7-a32f-24fcc5f84365","system_id":"levelo_inurba_marseille","lat":43.27371,"lon":5.36263,"is_reserved":false,"is_disabled":false,"rental_uris":{"android":"levelo://app?vid=53b4f7a5-d4a3-4ba7-a32f-24fcc5f84365","ios":"levelo://app?vid=53b4f7a5-d4a3-4ba7-a32f-24fcc5f84365"},"vehicle_type_id":"4","last_reported":1766064550,"current_range_meters":11200,"station_id":"ce4bhbh2rcd13ifvqeo0","pricing_plan_id":"cebpf4jnsgd1na2vs0mg"},{"bike_id":"779d7692-3b67-4262-ae1b-7d026e518fb6","system_id":"levelo_inurba_marseille","lat":46.23571,"lon":4.79507,"is_reserved":false,"is_disabled":false,"rental_uris":{"android":"levelo://app?vid=779d7692-3b67-4262-ae1b-7d026e518fb6","ios":"levelo://app?vid=779d7692-3b67-4262-ae1b-7d026e518fb6"},"vehicle_type_id":"4","last_reported":1766064550,"current_range_meters":11200,"station_id":"","pricing_plan_id":"cebpf4jnsgd1na2vs0mg"},{"bike_id":"1c783e39-3092-489d-97e8-0a4c367392b3","system_id":"levelo_inurba_marseille","lat":43.30608,"lon":5.37217,"is_reserved":false,"is_disabled":false,"rental_uris":{"android":"levelo://app?vid=1c783e39-3092-489d-97e8-0a4c367392b3","ios":"levelo://app?vid=1c783e39-3092-489d-97e8-0a4c367392b3"},"vehicle_type_id":"4","last_reported":1766064550,"current_range_meters":11600,"station_id":"ce4bgqh2rcd13ifvqc4g","pricing_plan_id":"cebpf4jnsgd1na2vs0mg"},{"bike_id":"b3560ba4-c43e-4fb4-9705-d7ab1ea7fdc6","system_id":"levelo_inurba_marseille","lat":43.28235,"lon":5.39067,"is_reserved":false,"is_disabled":false,"rental_uris":{"android":"levelo://app?vid=b3560ba4-c43e-4fb4-9705-d7ab1ea7fdc6","ios":"levelo://app?vid=b3560ba4-c43e-4fb4-9705-d7ab1ea7fdc6"},"vehicle_type_id":"4","last_reported":1766064550,"current_range_meters":11600,"station_id":"ce4bhn92rcd13ifvqgsg","pricing_plan_id":"cebpf4jnsgd1na2vs0mg"},{"bike_id":"38cf53a6-ff03-4245-b99b-a3c30164292b","system_id":"levelo_inurba_marseille","lat":43.29598,"lon":5.380981,"is_reserved":false,"is_disabled":true,"rental_uris":{"android":"levelo://app?vid=38cf53a6-ff03-4245-b99b-a3c30164292b","ios":"levelo://app?vid=38cf53a6-ff03-4245-b99b-a3c30164292b"},"vehicle_type_id":"4","last_reported":1766064550,"current_range_meters":11600,"station_id":"ce4bgl12rcd13ifvqbo0","pricing_plan_id":"cebpf4jnsgd1na2vs0mg"},{"bike_id":"2154a936-f819-49ae-b7ae-2734365f2c42","system_id":"levelo_inurba_marseille","lat":43.335362,"lon":5.374863,"is_reserved":false,"is_disabled":false,"rental_uris":{"android":"levelo://app?vid=2154a936-f819-49ae-b7ae-2734365f2c42","ios":"levelo://app?vid=2154a936-f819-49ae-b7ae-2734365f2c42"},"vehicle_type_id":"4","last_reported":1766064550,"current_range_meters":11600,"station_id":"st_d46tts09ee8s73dlu43g","pricing_plan_id":"cebpf4jnsgd1na2vs0mg"},{"bike_id":"6a1e1967-fdaf-4e65-ae26-1571d7f0290c","system_id":"levelo_inurba_marseille","lat":43.337605,"lon":5.374353,"is_reserved":false,"is_disabled":false,"rental_uris":{"android":"levelo://app?vid=6a1e1967-fdaf-4e65-ae26-1571d7f0290c","ios":"levelo://app?vid=6a1e1967-fdaf-4e65-ae26-1571d7f0290c"},"vehicle_type_id":"4","last_reported":1766064550,"current_range_meters":11600,"station_id":"","pricing_plan_id":"cebpf4jnsgd1na2vs0mg"},{"bike_id":"bca3ef8f-a76c-47e8-92d5-6c1a5ece9b4d","system_id":"levelo_inurba_marseille","lat":43.23788,"lon":5.36643,"is_reserved":false,"is_disabled":false,"rental_uris":{"android":"levelo://app?vid=bca3ef8f-a76c-47e8-92d5-6c1a5ece9b4d","ios":"levelo://app?vid=bca3ef8f-a76c-47e8-92d5-6c1a5ece9b4d"},"vehicle_type_id":"4","last_reported":1766064550,"current_range_meters":11600,"station_id":"st_d3nk18o9ro0c73en2l3g","pricing_plan_id":"cebpf4jnsgd1na2vs0mg"},{"bike_id":"51f43a5f-2a5a-4c8a-847c-1c5481be0271","system_id":"levelo_inurba_marseille","lat":43.307326,"lon":5.368049,"is_reserved":false,"is_disabled":true,"rental_uris":{"android":"levelo://app?vid=51f43a5f-2a5a-4c8a-847c-1c5481be0271","ios":"levelo://app?vid=51f43a5f-2a5a-4c8a-847c-1c5481be0271"},"vehicle_type_id":"4","last_reported":1766064550,"current_range_meters":11600,"station_id":"","pricing_plan_id":"cebpf4jnsgd1na2vs0mg"},{"bike_id":"1ce0f5c0-25df-445b-ba92-26de3010da50","system_id":"levelo_inurba_marseille","lat":43.331587,"lon":5.376978,"is_reserved":false,"is_disabled":false,"rental_uris":{"android":"levelo://app?vid=1ce0f5c0-25df-445b-ba92-26de3010da50","ios":"levelo://app?vid=1ce0f5c0-25df-445b-ba92-26de3010da50"},"vehicle_type_id":"4","last_reported":1766064550,"current_range_meters":11600,"station_id":"st_d46cu089ee8s73dldbu0","pricing_plan_id":"cebpf4jnsgd1na2vs0mg"},{"bike_id":"e2429317-15f1-49ee-b676-d1c0aa6943f8","system_id":"levelo_inurba_marseille","lat":43.30561,"lon":5.36703,"is_reserved":false,"is_disabled":false,"rental_uris":{"android":"levelo://app?vid=e2429317-15f1-49ee-b676-d1c0aa6943f8","ios":"levelo://app?vid=e2429317-15f1-49ee-b676-d1c0aa6943f8"},"vehicle_type_id":"4","last_reported":1766064550,"current_range_meters":11600,"station_id":"ce4bgrp2rcd13ifvqc9g","pricing_plan_id":"cebpf4jnsgd1na2vs0mg"},{"bike_id":"cf0e2dfe-8751-4251-bbd3-3ad00be9f3ad","system_id":"levelo_inurba_marseille","lat":43.284814,"lon":5.483991,"is_reserved":false,"is_disabled":false,"rental_uris":{"android":"levelo://app?vid=cf0e2dfe-8751-4251-bbd3-3ad00be9f3ad","ios":"levelo://app?vid=cf0e2dfe-8751-4251-bbd3-3ad00be9f3ad"},"vehicle_type_id":"4","last_reported":1766064550,"current_range_meters":11600,"station_id":"st_d3svhcjqgbts73a3dn0g","pricing_plan_id":"cebpf4jnsgd1na2vs0mg"},{"bike_id":"38d5bbe5-85ce-4ef0-a09a-30d465a65053","system_id":"levelo_inurba_marseille","lat":43.29614,"lon":5.37685,"is_reserved":false,"is_disabled":false,"rental_uris":{"android":"levelo://app?vid=38d5bbe5-85ce-4ef0-a09a-30d465a65053","ios":"levelo://app?vid=38d5bbe5-85ce-4ef0-a09a-30d465a65053"},"vehicle_type_id":"4","last_reported":1766064550,"current_range_meters":12000,"station_id":"ce4bgi92rcd13ifvqb90","pricing_plan_id":"cebpf4jnsgd1na2vs0mg"},{"bike_id":"2a7cb992-0930-4ad6-8e4f-da52676eb138","system_id":"levelo_inurba_marseille","lat":43.27369,"lon":5.362654,"is_reserved":false,"is_disabled":false,"rental_uris":{"android":"levelo://app?vid=2a7cb992-0930-4ad6-8e4f-da52676eb138","ios":"levelo://app?vid=2a7cb992-0930-4ad6-8e4f-da52676eb138"},"vehicle_type_id":"4","last_reported":1766064550,"current_range_meters":12000,"station_id":"ce4bhbh2rcd13ifvqeo0","pricing_plan_id":"cebpf4jnsgd1na2vs0mg"},{"bike_id":"4a614ce4-d61c-499d-8955-0569e02f377b","system_id":"levelo_inurba_marseille","lat":43.27514,"lon":5.37292,"is_reserved":false,"is_disabled":false,"rental_uris":{"android":"levelo://app?vid=4a614ce4-d61c-499d-8955-0569e02f377b","ios":"levelo://app?vid=4a614ce4-d61c-499d-8955-0569e02f377b"},"vehicle_type_id":"4","last_reported":1766064550,"current_range_meters":12000,"station_id":"","pricing_plan_id":"cebpf4jnsgd1na2vs0mg"},{"bike_id":"dc0eda1f-9489-4c11-a03b-3f842bbfe088","system_id":"levelo_inurba_marseille","lat":43.29616,"lon":5.37722,"is_reserved":false,"is_disabled":false,"rental_uris":{"android":"levelo://app?vid=dc0eda1f-9489-4c11-a03b-3f842bbfe088","ios":"levelo://app?vid=dc0eda1f-9489-4c11-a03b-3f842bbfe088"},"vehicle_type_id":"4","last_reported":1766064550,"current_range_meters":12000,"station_id":"ce4bgi92rcd13ifvqb90","pricing_plan_id":"cebpf4jnsgd1na2vs0mg"},{"bike_id":"ee6f7e5c-24b4-4046-a3ec-072080785116","system_id":"levelo_inurba_marseille","lat":43.21736,"lon":5.34567,"is_reserved":false,"is_disabled":true,"rental_uris":{"android":"levelo://app?vid=ee6f7e5c-24b4-4046-a3ec-072080785116","ios":"levelo://app?vid=ee6f7e5c-24b4-4046-a3ec-072080785116"},"vehicle_type_id":"4","last_reported":1766064550,"current_range_meters":12000,"station_id":"st_cvj6r9ubvosntc0bgbag","pricing_plan_id":"cebpf4jnsgd1na2vs0mg"},{"bike_id":"1b3c2c60-6ff2-4726-98a5-0e15725bfce9","system_id":"levelo_inurba_marseille","lat":43.29586,"lon":5.36747,"is_reserved":false,"is_disabled":false,"rental_uris":{"android":"levelo://app?vid=1b3c2c60-6ff2-4726-98a5-0e15725bfce9","ios":"levelo://app?vid=1b3c2c60-6ff2-4726-98a5-0e15725bfce9"},"vehicle_type_id":"4","last_reported":1766064550,"current_range_meters":12000,"station_id":"ce4bgph2rcd13ifvqc2g","pricing_plan_id":"cebpf4jnsgd1na2vs0mg"},{"bike_id":"5a84f0aa-409b-45aa-8e27-c273c8289e1a","system_id":"levelo_inurba_marseille","lat":43.29776,"lon":5.37101,"is_reserved":false,"is_disabled":false,"rental_uris":{"android":"levelo://app?vid=5a84f0aa-409b-45aa-8e27-c273c8289e1a","ios":"levelo://app?vid=5a84f0aa-409b-45aa-8e27-c273c8289e1a"},"vehicle_type_id":"4","last_reported":1766064550,"current_range_meters":12000,"station_id":"ce4bgop2rcd13ifvqc1g","pricing_plan_id":"cebpf4jnsgd1na2vs0mg"},{"bike_id":"f0552324-7f16-45f2-af53-7d50398c0e4b","system_id":"levelo_inurba_marseille","lat":43.29188,"lon":5.39317,"is_reserved":false,"is_disabled":true,"rental_uris":{"android":"levelo://app?vid=f0552324-7f16-45f2-af53-7d50398c0e4b","ios":"levelo://app?vid=f0552324-7f16-45f2-af53-7d50398c0e4b"},"vehicle_type_id":"4","last_reported":1766064550,"current_range_meters":12000,"station_id":"ce4bh192rcd13ifvqdd0","pricing_plan_id":"cebpf4jnsgd1na2vs0mg"},{"bike_id":"0e5605a0-8a9b-4110-930b-7d8a6198266d","system_id":"levelo_inurba_marseille","lat":43.32361,"lon":5.38492,"is_reserved":false,"is_disabled":false,"rental_uris":{"android":"levelo://app?vid=0e5605a0-8a9b-4110-930b-7d8a6198266d","ios":"levelo://app?vid=0e5605a0-8a9b-4110-930b-7d8a6198266d"},"vehicle_type_id":"4","last_reported":1766064550,"current_range_meters":12000,"station_id":"st_d45171o9ee8s73djdqug","pricing_plan_id":"cebpf4jnsgd1na2vs0mg"},{"bike_id":"6b4cd3da-f321-4ff7-ae75-43ec42cab679","system_id":"levelo_inurba_marseille","lat":43.28674,"lon":5.38671,"is_reserved":false,"is_disabled":false,"rental_uris":{"android":"levelo://app?vid=6b4cd3da-f321-4ff7-ae75-43ec42cab679","ios":"levelo://app?vid=6b4cd3da-f321-4ff7-ae75-43ec42cab679"},"vehicle_type_id":"4","last_reported":1766064550,"current_range_meters":12400,"station_id":"ce4bh492rcd13ifvqdug","pricing_plan_id":"cebpf4jnsgd1na2vs0mg"},{"bike_id":"9a4090b1-3af1-4620-96cb-2dd026585aca","system_id":"levelo_inurba_marseille","lat":43.32368,"lon":5.3666,"is_reserved":false,"is_disabled":false,"rental_uris":{"android":"levelo://app?vid=9a4090b1-3af1-4620-96cb-2dd026585aca","ios":"levelo://app?vid=9a4090b1-3af1-4620-96cb-2dd026585aca"},"vehicle_type_id":"4","last_reported":1766064550,"current_range_meters":12400,"station_id":"","pricing_plan_id":"cebpf4jnsgd1na2vs0mg"},{"bike_id":"2704a896-1b81-4eb2-9ff3-afb57e76d700","system_id":"levelo_inurba_marseille","lat":43.29851,"lon":5.36299,"is_reserved":false,"is_disabled":false,"rental_uris":{"android":"levelo://app?vid=2704a896-1b81-4eb2-9ff3-afb57e76d700","ios":"levelo://app?vid=2704a896-1b81-4eb2-9ff3-afb57e76d700"},"vehicle_type_id":"4","last_reported":1766064550,"current_range_meters":12800,"station_id":"ce4bgpp2rcd13ifvqc3g","pricing_plan_id":"cebpf4jnsgd1na2vs0mg"},{"bike_id":"436e467e-3ef8-4484-b12e-82fd46509f97","system_id":"levelo_inurba_marseille","lat":43.23298,"lon":5.44392,"is_reserved":false,"is_disabled":false,"rental_uris":{"android":"levelo://app?vid=436e467e-3ef8-4484-b12e-82fd46509f97","ios":"levelo://app?vid=436e467e-3ef8-4484-b12e-82fd46509f97"},"vehicle_type_id":"4","last_reported":1766064550,"current_range_meters":12800,"station_id":"","pricing_plan_id":"cebpf4jnsgd1na2vs0mg"},{"bike_id":"b6521d11-99b8-43ca-a853-a51747d5db82","system_id":"levelo_inurba_marseille","lat":43.301253,"lon":5.431195,"is_reserved":false,"is_disabled":false,"rental_uris":{"android":"levelo://app?vid=b6521d11-99b8-43ca-a853-a51747d5db82","ios":"levelo://app?vid=b6521d11-99b8-43ca-a853-a51747d5db82"},"vehicle_type_id":"4","last_reported":1766064550,"current_range_meters":12800,"station_id":"st_d3js3co5814s73ftftug","pricing_plan_id":"cebpf4jnsgd1na2vs0mg"},{"bike_id":"6de10432-5b01-47f3-be6f-d593285e5cfb","system_id":"levelo_inurba_marseille","lat":43.30155,"lon":5.38087,"is_reserved":false,"is_disabled":false,"rental_uris":{"android":"levelo://app?vid=6de10432-5b01-47f3-be6f-d593285e5cfb","ios":"levelo://app?vid=6de10432-5b01-47f3-be6f-d593285e5cfb"},"vehicle_type_id":"4","last_reported":1766064550,"current_range_meters":12800,"station_id":"","pricing_plan_id":"cebpf4jnsgd1na2vs0mg"},{"bike_id":"9d054196-cd6f-4325-bb1d-fbfbbc9318d2","system_id":"levelo_inurba_marseille","lat":43.30124,"lon":5.43117,"is_reserved":false,"is_disabled":false,"rental_uris":{"android":"levelo://app?vid=9d054196-cd6f-4325-bb1d-fbfbbc9318d2","ios":"levelo://app?vid=9d054196-cd6f-4325-bb1d-fbfbbc9318d2"},"vehicle_type_id":"4","last_reported":1766064550,"current_range_meters":12800,"station_id":"st_d3js3co5814s73ftftug","pricing_plan_id":"cebpf4jnsgd1na2vs0mg"},{"bike_id":"875c0926-7566-42f1-9d60-20eaee8b344e","system_id":"levelo_inurba_marseille","lat":43.29575,"lon":5.375,"is_reserved":false,"is_disabled":false,"rental_uris":{"android":"levelo://app?vid=875c0926-7566-42f1-9d60-20eaee8b344e","ios":"levelo://app?vid=875c0926-7566-42f1-9d60-20eaee8b344e"},"vehicle_type_id":"4","last_reported":1766064550,"current_range_meters":12800,"station_id":"ce4bgh92rcd13ifvqb50","pricing_plan_id":"cebpf4jnsgd1na2vs0mg"},{"bike_id":"228ed5e4-a793-4f90-a46f-1e70b2793524","system_id":"levelo_inurba_marseille","lat":43.28615,"lon":5.3991,"is_reserved":false,"is_disabled":true,"rental_uris":{"android":"levelo://app?vid=228ed5e4-a793-4f90-a46f-1e70b2793524","ios":"levelo://app?vid=228ed5e4-a793-4f90-a46f-1e70b2793524"},"vehicle_type_id":"4","last_reported":1766064550,"current_range_meters":12800,"station_id":"st_d4a7ka997mjs738ck50g","pricing_plan_id":"cebpf4jnsgd1na2vs0mg"},{"bike_id":"c5365846-c619-4f12-8c92-97c9f9725a15","system_id":"levelo_inurba_marseille","lat":43.29534,"lon":5.37932,"is_reserved":false,"is_disabled":false,"rental_uris":{"android":"levelo://app?vid=c5365846-c619-4f12-8c92-97c9f9725a15","ios":"levelo://app?vid=c5365846-c619-4f12-8c92-97c9f9725a15"},"vehicle_type_id":"4","last_reported":1766064550,"current_range_meters":12800,"station_id":"","pricing_plan_id":"cebpf4jnsgd1na2vs0mg"},{"bike_id":"9d69d969-80ac-4208-a742-5bc89bcc7fbb","system_id":"levelo_inurba_marseille","lat":43.255757,"lon":5.382321,"is_reserved":false,"is_disabled":false,"rental_uris":{"android":"levelo://app?vid=9d69d969-80ac-4208-a742-5bc89bcc7fbb","ios":"levelo://app?vid=9d69d969-80ac-4208-a742-5bc89bcc7fbb"},"vehicle_type_id":"4","last_reported":1766064550,"current_range_meters":12800,"station_id":"ce4bhih2rcd13ifvqfs0","pricing_plan_id":"cebpf4jnsgd1na2vs0mg"},{"bike_id":"e79f34f4-a454-46bc-b7bd-c453550482db","system_id":"levelo_inurba_marseille","lat":43.30537,"lon":5.36714,"is_reserved":false,"is_disabled":false,"rental_uris":{"android":"levelo://app?vid=e79f34f4-a454-46bc-b7bd-c453550482db","ios":"levelo://app?vid=e79f34f4-a454-46bc-b7bd-c453550482db"},"vehicle_type_id":"4","last_reported":1766064550,"current_range_meters":12800,"station_id":"ce4bgrp2rcd13ifvqc9g","pricing_plan_id":"cebpf4jnsgd1na2vs0mg"},{"bike_id":"a6bb7fde-2db0-447e-8cac-38a0c3844ce6","system_id":"levelo_inurba_marseille","lat":43.27747,"lon":5.38814,"is_reserved":false,"is_disabled":false,"rental_uris":{"android":"levelo://app?vid=a6bb7fde-2db0-447e-8cac-38a0c3844ce6","ios":"levelo://app?vid=a6bb7fde-2db0-447e-8cac-38a0c3844ce6"},"vehicle_type_id":"4","last_reported":1766064550,"current_range_meters":13600,"station_id":"","pricing_plan_id":"cebpf4jnsgd1na2vs0mg"},{"bike_id":"c17b1349-1904-4e25-a47c-bb3ef4dc3274","system_id":"levelo_inurba_marseille","lat":43.28417,"lon":5.37515,"is_reserved":false,"is_disabled":false,"rental_uris":{"android":"levelo://app?vid=c17b1349-1904-4e25-a47c-bb3ef4dc3274","ios":"levelo://app?vid=c17b1349-1904-4e25-a47c-bb3ef4dc3274"},"vehicle_type_id":"4","last_reported":1766064550,"current_range_meters":13600,"station_id":"ce4bh412rcd13ifvqds0","pricing_plan_id":"cebpf4jnsgd1na2vs0mg"},{"bike_id":"85f12ccf-5b46-4628-894a-c4095346a940","system_id":"levelo_inurba_marseille","lat":43.279552,"lon":5.410419,"is_reserved":false,"is_disabled":true,"rental_uris":{"android":"levelo://app?vid=85f12ccf-5b46-4628-894a-c4095346a940","ios":"levelo://app?vid=85f12ccf-5b46-4628-894a-c4095346a940"},"vehicle_type_id":"4","last_reported":1766064550,"current_range_meters":13600,"station_id":"ce4bhnp2rcd13ifvqh0g","pricing_plan_id":"cebpf4jnsgd1na2vs0mg"},{"bike_id":"d50867a0-a974-4546-a28c-eba4c2e0b399","system_id":"levelo_inurba_marseille","lat":43.231965,"lon":5.355539,"is_reserved":false,"is_disabled":false,"rental_uris":{"android":"levelo://app?vid=d50867a0-a974-4546-a28c-eba4c2e0b399","ios":"levelo://app?vid=d50867a0-a974-4546-a28c-eba4c2e0b399"},"vehicle_type_id":"4","last_reported":1766064550,"current_range_meters":13600,"station_id":"ce4bhu92rcd13ifvqi70","pricing_plan_id":"cebpf4jnsgd1na2vs0mg"},{"bike_id":"63c41449-76cb-4593-a116-d53f025be3ec","system_id":"levelo_inurba_marseille","lat":43.26652,"lon":5.40822,"is_reserved":false,"is_disabled":false,"rental_uris":{"android":"levelo://app?vid=63c41449-76cb-4593-a116-d53f025be3ec","ios":"levelo://app?vid=63c41449-76cb-4593-a116-d53f025be3ec"},"vehicle_type_id":"4","last_reported":1766064550,"current_range_meters":13600,"station_id":"","pricing_plan_id":"cebpf4jnsgd1na2vs0mg"},{"bike_id":"52b61354-da80-471d-a0ef-682891b3f0eb","system_id":"levelo_inurba_marseille","lat":43.24403,"lon":5.37096,"is_reserved":false,"is_disabled":true,"rental_uris":{"android":"levelo://app?vid=52b61354-da80-471d-a0ef-682891b3f0eb","ios":"levelo://app?vid=52b61354-da80-471d-a0ef-682891b3f0eb"},"vehicle_type_id":"4","last_reported":1766064550,"current_range_meters":13600,"station_id":"ce4bhhh2rcd13ifvqfk0","pricing_plan_id":"cebpf4jnsgd1na2vs0mg"},{"bike_id":"1f8bf9e3-c9bd-4c05-9201-34f9580d25af","system_id":"levelo_inurba_marseille","lat":43.21188,"lon":5.35094,"is_reserved":false,"is_disabled":false,"rental_uris":{"android":"levelo://app?vid=1f8bf9e3-c9bd-4c05-9201-34f9580d25af","ios":"levelo://app?vid=1f8bf9e3-c9bd-4c05-9201-34f9580d25af"},"vehicle_type_id":"4","last_reported":1766064550,"current_range_meters":13600,"station_id":"st_cvj6sg6p6f1abm77japg","pricing_plan_id":"cebpf4jnsgd1na2vs0mg"},{"bike_id":"0d76f9ec-36de-4311-a1ef-897de10e0d0d","system_id":"levelo_inurba_marseille","lat":43.29821,"lon":5.44081,"is_reserved":false,"is_disabled":false,"rental_uris":{"android":"levelo://app?vid=0d76f9ec-36de-4311-a1ef-897de10e0d0d","ios":"levelo://app?vid=0d76f9ec-36de-4311-a1ef-897de10e0d0d"},"vehicle_type_id":"4","last_reported":1766064550,"current_range_meters":13600,"station_id":"st_d3jp68qikq2c7381ktn0","pricing_plan_id":"cebpf4jnsgd1na2vs0mg"},{"bike_id":"539ac7f8-cbfa-4eaf-a599-a27073f3eab8","system_id":"levelo_inurba_marseille","lat":43.25917,"lon":5.40908,"is_reserved":false,"is_disabled":false,"rental_uris":{"android":"levelo://app?vid=539ac7f8-cbfa-4eaf-a599-a27073f3eab8","ios":"levelo://app?vid=539ac7f8-cbfa-4eaf-a599-a27073f3eab8"},"vehicle_type_id":"4","last_reported":1766064550,"current_range_meters":13600,"station_id":"ce4bhm92rcd13ifvqglg","pricing_plan_id":"cebpf4jnsgd1na2vs0mg"},{"bike_id":"1c296f85-b870-4ee1-ba78-54f6afe7fe1c","system_id":"levelo_inurba_marseille","lat":43.24083,"lon":5.37765,"is_reserved":false,"is_disabled":false,"rental_uris":{"android":"levelo://app?vid=1c296f85-b870-4ee1-ba78-54f6afe7fe1c","ios":"levelo://app?vid=1c296f85-b870-4ee1-ba78-54f6afe7fe1c"},"vehicle_type_id":"4","last_reported":1766064550,"current_range_meters":13600,"station_id":"ce4bhnp2rcd13ifvqgvg","pricing_plan_id":"cebpf4jnsgd1na2vs0mg"},{"bike_id":"c06a36d5-9915-4d2d-9da6-f83221a1189c","system_id":"levelo_inurba_marseille","lat":43.27922,"lon":5.3958,"is_reserved":false,"is_disabled":false,"rental_uris":{"android":"levelo://app?vid=c06a36d5-9915-4d2d-9da6-f83221a1189c","ios":"levelo://app?vid=c06a36d5-9915-4d2d-9da6-f83221a1189c"},"vehicle_type_id":"4","last_reported":1766064550,"current_range_meters":13600,"station_id":"ce4bhf92rcd13ifvqf40","pricing_plan_id":"cebpf4jnsgd1na2vs0mg"},{"bike_id":"7d66c6df-8513-4be7-ae50-4718cfeb6a90","system_id":"levelo_inurba_marseille","lat":43.32357,"lon":5.36773,"is_reserved":false,"is_disabled":false,"rental_uris":{"android":"levelo://app?vid=7d66c6df-8513-4be7-ae50-4718cfeb6a90","ios":"levelo://app?vid=7d66c6df-8513-4be7-ae50-4718cfeb6a90"},"vehicle_type_id":"4","last_reported":1766064550,"current_range_meters":13600,"station_id":"ce4bhsh2rcd13ifvqi2g","pricing_plan_id":"cebpf4jnsgd1na2vs0mg"},{"bike_id":"5016f860-973b-4de0-b0cf-76783dc82886","system_id":"levelo_inurba_marseille","lat":43.23789,"lon":5.36632,"is_reserved":false,"is_disabled":false,"rental_uris":{"android":"levelo://app?vid=5016f860-973b-4de0-b0cf-76783dc82886","ios":"levelo://app?vid=5016f860-973b-4de0-b0cf-76783dc82886"},"vehicle_type_id":"4","last_reported":1766064550,"current_range_meters":13600,"station_id":"st_d3nk18o9ro0c73en2l3g","pricing_plan_id":"cebpf4jnsgd1na2vs0mg"},{"bike_id":"4f7715fd-8473-4cb9-a11e-228941c0da36","system_id":"levelo_inurba_marseille","lat":43.244159,"lon":5.371501,"is_reserved":false,"is_disabled":false,"rental_uris":{"android":"levelo://app?vid=4f7715fd-8473-4cb9-a11e-228941c0da36","ios":"levelo://app?vid=4f7715fd-8473-4cb9-a11e-228941c0da36"},"vehicle_type_id":"4","last_reported":1766064550,"current_range_meters":13600,"station_id":"ce4bhhh2rcd13ifvqfk0","pricing_plan_id":"cebpf4jnsgd1na2vs0mg"},{"bike_id":"98df3c79-a09d-4fcd-8e72-1d835e48117a","system_id":"levelo_inurba_marseille","lat":43.31408,"lon":5.40338,"is_reserved":false,"is_disabled":false,"rental_uris":{"android":"levelo://app?vid=98df3c79-a09d-4fcd-8e72-1d835e48117a","ios":"levelo://app?vid=98df3c79-a09d-4fcd-8e72-1d835e48117a"},"vehicle_type_id":"4","last_reported":1766064550,"current_range_meters":13600,"station_id":"","pricing_plan_id":"cebpf4jnsgd1na2vs0mg"},{"bike_id":"539a15a5-ea1f-433a-b280-748c300e9855","system_id":"levelo_inurba_marseille","lat":43.232789,"lon":5.399677,"is_reserved":false,"is_disabled":false,"rental_uris":{"android":"levelo://app?vid=539a15a5-ea1f-433a-b280-748c300e9855","ios":"levelo://app?vid=539a15a5-ea1f-433a-b280-748c300e9855"},"vehicle_type_id":"4","last_reported":1766064550,"current_range_meters":13600,"station_id":"ce4bhn12rcd13ifvqgqg","pricing_plan_id":"cebpf4jnsgd1na2vs0mg"},{"bike_id":"0de50e14-dc05-48db-b2b3-c6b99664dcd7","system_id":"levelo_inurba_marseille","lat":43.2318,"lon":5.35555,"is_reserved":false,"is_disabled":false,"rental_uris":{"android":"levelo://app?vid=0de50e14-dc05-48db-b2b3-c6b99664dcd7","ios":"levelo://app?vid=0de50e14-dc05-48db-b2b3-c6b99664dcd7"},"vehicle_type_id":"4","last_reported":1766064550,"current_range_meters":14000,"station_id":"ce4bhu92rcd13ifvqi70","pricing_plan_id":"cebpf4jnsgd1na2vs0mg"},{"bike_id":"5d65cceb-4b3a-42ef-a9d8-44a2e8fcd9c4","system_id":"levelo_inurba_marseille","lat":43.237955,"lon":5.36636,"is_reserved":false,"is_disabled":false,"rental_uris":{"android":"levelo://app?vid=5d65cceb-4b3a-42ef-a9d8-44a2e8fcd9c4","ios":"levelo://app?vid=5d65cceb-4b3a-42ef-a9d8-44a2e8fcd9c4"},"vehicle_type_id":"4","last_reported":1766064550,"current_range_meters":14000,"station_id":"st_d3nk18o9ro0c73en2l3g","pricing_plan_id":"cebpf4jnsgd1na2vs0mg"},{"bike_id":"8543a50e-b75a-4dae-bb27-b53be4589137","system_id":"levelo_inurba_marseille","lat":43.2819,"lon":5.34963,"is_reserved":false,"is_disabled":false,"rental_uris":{"android":"levelo://app?vid=8543a50e-b75a-4dae-bb27-b53be4589137","ios":"levelo://app?vid=8543a50e-b75a-4dae-bb27-b53be4589137"},"vehicle_type_id":"4","last_reported":1766064550,"current_range_meters":14000,"station_id":"","pricing_plan_id":"cebpf4jnsgd1na2vs0mg"},{"bike_id":"00cf03c6-bbdd-4256-b1e1-4baa2221dd32","system_id":"levelo_inurba_marseille","lat":43.24163,"lon":5.36395,"is_reserved":false,"is_disabled":false,"rental_uris":{"android":"levelo://app?vid=00cf03c6-bbdd-4256-b1e1-4baa2221dd32","ios":"levelo://app?vid=00cf03c6-bbdd-4256-b1e1-4baa2221dd32"},"vehicle_type_id":"4","last_reported":1766064550,"current_range_meters":14000,"station_id":"cpo36qri1sfpv3e86is0","pricing_plan_id":"cebpf4jnsgd1na2vs0mg"},{"bike_id":"4b02806f-6477-418a-bedb-0bf665bbdfa2","system_id":"levelo_inurba_marseille","lat":43.24812,"lon":5.37452,"is_reserved":false,"is_disabled":false,"rental_uris":{"android":"levelo://app?vid=4b02806f-6477-418a-bedb-0bf665bbdfa2","ios":"levelo://app?vid=4b02806f-6477-418a-bedb-0bf665bbdfa2"},"vehicle_type_id":"4","last_reported":1766064550,"current_range_meters":14000,"station_id":"ce4bhgh2rcd13ifvqfb0","pricing_plan_id":"cebpf4jnsgd1na2vs0mg"},{"bike_id":"a527a7d5-498e-40c7-800e-4f9be15187f2","system_id":"levelo_inurba_marseille","lat":43.27997,"lon":5.40008,"is_reserved":false,"is_disabled":false,"rental_uris":{"android":"levelo://app?vid=a527a7d5-498e-40c7-800e-4f9be15187f2","ios":"levelo://app?vid=a527a7d5-498e-40c7-800e-4f9be15187f2"},"vehicle_type_id":"4","last_reported":1766064550,"current_range_meters":14000,"station_id":"ce4bho92rcd13ifvqh4g","pricing_plan_id":"cebpf4jnsgd1na2vs0mg"},{"bike_id":"3a28887f-b680-4d59-b534-0dadf846dc00","system_id":"levelo_inurba_marseille","lat":43.28355,"lon":5.38098,"is_reserved":false,"is_disabled":false,"rental_uris":{"android":"levelo://app?vid=3a28887f-b680-4d59-b534-0dadf846dc00","ios":"levelo://app?vid=3a28887f-b680-4d59-b534-0dadf846dc00"},"vehicle_type_id":"4","last_reported":1766064550,"current_range_meters":14000,"station_id":"ce4bh412rcd13ifvqdr0","pricing_plan_id":"cebpf4jnsgd1na2vs0mg"},{"bike_id":"fade1f76-6248-43fe-aeb9-7f93aeff737b","system_id":"levelo_inurba_marseille","lat":43.27908,"lon":5.39567,"is_reserved":false,"is_disabled":true,"rental_uris":{"android":"levelo://app?vid=fade1f76-6248-43fe-aeb9-7f93aeff737b","ios":"levelo://app?vid=fade1f76-6248-43fe-aeb9-7f93aeff737b"},"vehicle_type_id":"4","last_reported":1766064550,"current_range_meters":14000,"station_id":"ce4bhf92rcd13ifvqf40","pricing_plan_id":"cebpf4jnsgd1na2vs0mg"},{"bike_id":"2a0682ed-054c-4325-ac87-3c87d973bfc4","system_id":"levelo_inurba_marseille","lat":46.04589,"lon":4.72868,"is_reserved":false,"is_disabled":false,"rental_uris":{"android":"levelo://app?vid=2a0682ed-054c-4325-ac87-3c87d973bfc4","ios":"levelo://app?vid=2a0682ed-054c-4325-ac87-3c87d973bfc4"},"vehicle_type_id":"4","last_reported":1766064550,"current_range_meters":14000,"station_id":"","pricing_plan_id":"cebpf4jnsgd1na2vs0mg"},{"bike_id":"1d07838f-da7d-479c-916e-372000b4b0aa","system_id":"levelo_inurba_marseille","lat":43.30278,"lon":5.37703,"is_reserved":false,"is_disabled":false,"rental_uris":{"android":"levelo://app?vid=1d07838f-da7d-479c-916e-372000b4b0aa","ios":"levelo://app?vid=1d07838f-da7d-479c-916e-372000b4b0aa"},"vehicle_type_id":"4","last_reported":1766064550,"current_range_meters":14400,"station_id":"ce4bguh2rcd13ifvqcj0","pricing_plan_id":"cebpf4jnsgd1na2vs0mg"},{"bike_id":"e021dafe-b1f9-403c-bd19-c846f9798435","system_id":"levelo_inurba_marseille","lat":43.24053,"lon":5.3775,"is_reserved":false,"is_disabled":false,"rental_uris":{"android":"levelo://app?vid=e021dafe-b1f9-403c-bd19-c846f9798435","ios":"levelo://app?vid=e021dafe-b1f9-403c-bd19-c846f9798435"},"vehicle_type_id":"4","last_reported":1766064550,"current_range_meters":14400,"station_id":"ce4bhnp2rcd13ifvqgvg","pricing_plan_id":"cebpf4jnsgd1na2vs0mg"},{"bike_id":"d235767a-3e44-44c9-893e-7ebda15e5a64","system_id":"levelo_inurba_marseille","lat":43.25432,"lon":5.38519,"is_reserved":false,"is_disabled":false,"rental_uris":{"android":"levelo://app?vid=d235767a-3e44-44c9-893e-7ebda15e5a64","ios":"levelo://app?vid=d235767a-3e44-44c9-893e-7ebda15e5a64"},"vehicle_type_id":"4","last_reported":1766064550,"current_range_meters":14400,"station_id":"","pricing_plan_id":"cebpf4jnsgd1na2vs0mg"},{"bike_id":"f621baf8-0b1d-4915-82f5-f14757f2e678","system_id":"levelo_inurba_marseille","lat":43.26674,"lon":5.38265,"is_reserved":false,"is_disabled":false,"rental_uris":{"android":"levelo://app?vid=f621baf8-0b1d-4915-82f5-f14757f2e678","ios":"levelo://app?vid=f621baf8-0b1d-4915-82f5-f14757f2e678"},"vehicle_type_id":"4","last_reported":1766064550,"current_range_meters":14400,"station_id":"ce4bhg92rcd13ifvqf90","pricing_plan_id":"cebpf4jnsgd1na2vs0mg"},{"bike_id":"641cf759-a40a-4406-a499-4dfcdce96bae","system_id":"levelo_inurba_marseille","lat":43.30877,"lon":5.39655,"is_reserved":false,"is_disabled":false,"rental_uris":{"android":"levelo://app?vid=641cf759-a40a-4406-a499-4dfcdce96bae","ios":"levelo://app?vid=641cf759-a40a-4406-a499-4dfcdce96bae"},"vehicle_type_id":"4","last_reported":1766064550,"current_range_meters":14400,"station_id":"ce4bh012rcd13ifvqcv0","pricing_plan_id":"cebpf4jnsgd1na2vs0mg"},{"bike_id":"38d5de4d-7a0b-4e15-baba-a01d15e92556","system_id":"levelo_inurba_marseille","lat":43.29275,"lon":5.36848,"is_reserved":false,"is_disabled":false,"rental_uris":{"android":"levelo://app?vid=38d5de4d-7a0b-4e15-baba-a01d15e92556","ios":"levelo://app?vid=38d5de4d-7a0b-4e15-baba-a01d15e92556"},"vehicle_type_id":"4","last_reported":1766064550,"current_range_meters":14400,"station_id":"ce4bhbp2rcd13ifvqesg","pricing_plan_id":"cebpf4jnsgd1na2vs0mg"},{"bike_id":"2029c855-dcdb-4970-bac2-bc6c1ffd0882","system_id":"levelo_inurba_marseille","lat":43.266812,"lon":5.38273,"is_reserved":false,"is_disabled":false,"rental_uris":{"android":"levelo://app?vid=2029c855-dcdb-4970-bac2-bc6c1ffd0882","ios":"levelo://app?vid=2029c855-dcdb-4970-bac2-bc6c1ffd0882"},"vehicle_type_id":"4","last_reported":1766064550,"current_range_meters":14400,"station_id":"","pricing_plan_id":"cebpf4jnsgd1na2vs0mg"},{"bike_id":"03a674ea-657c-4035-8e69-54a23edb2670","system_id":"levelo_inurba_marseille","lat":43.264024,"lon":5.410724,"is_reserved":false,"is_disabled":false,"rental_uris":{"android":"levelo://app?vid=03a674ea-657c-4035-8e69-54a23edb2670","ios":"levelo://app?vid=03a674ea-657c-4035-8e69-54a23edb2670"},"vehicle_type_id":"4","last_reported":1766064550,"current_range_meters":14400,"station_id":"st_d4e5ca6na9uc73bfl5fg","pricing_plan_id":"cebpf4jnsgd1na2vs0mg"},{"bike_id":"0e831b8a-ba65-4401-84c3-afd3e8869534","system_id":"levelo_inurba_marseille","lat":43.29624,"lon":5.37209,"is_reserved":false,"is_disabled":false,"rental_uris":{"android":"levelo://app?vid=0e831b8a-ba65-4401-84c3-afd3e8869534","ios":"levelo://app?vid=0e831b8a-ba65-4401-84c3-afd3e8869534"},"vehicle_type_id":"4","last_reported":1766064550,"current_range_meters":14400,"station_id":"ce4bgk12rcd13ifvqbj0","pricing_plan_id":"cebpf4jnsgd1na2vs0mg"},{"bike_id":"5df7c2b5-328b-4cf1-a7f3-c3abbb4ce075","system_id":"levelo_inurba_marseille","lat":43.23805,"lon":5.36635,"is_reserved":false,"is_disabled":false,"rental_uris":{"android":"levelo://app?vid=5df7c2b5-328b-4cf1-a7f3-c3abbb4ce075","ios":"levelo://app?vid=5df7c2b5-328b-4cf1-a7f3-c3abbb4ce075"},"vehicle_type_id":"4","last_reported":1766064550,"current_range_meters":14400,"station_id":"st_d3nk18o9ro0c73en2l3g","pricing_plan_id":"cebpf4jnsgd1na2vs0mg"},{"bike_id":"db1e44ee-e575-4842-8686-fadaa7d84bf9","system_id":"levelo_inurba_marseille","lat":43.27836,"lon":5.39211,"is_reserved":false,"is_disabled":false,"rental_uris":{"android":"levelo://app?vid=db1e44ee-e575-4842-8686-fadaa7d84bf9","ios":"levelo://app?vid=db1e44ee-e575-4842-8686-fadaa7d84bf9"},"vehicle_type_id":"4","last_reported":1766064550,"current_range_meters":14400,"station_id":"ce4bhjp2rcd13ifvqga0","pricing_plan_id":"cebpf4jnsgd1na2vs0mg"},{"bike_id":"719a4a00-bc16-4b1a-ac42-02c86ebc4f05","system_id":"levelo_inurba_marseille","lat":43.28273,"lon":5.35061,"is_reserved":false,"is_disabled":false,"rental_uris":{"android":"levelo://app?vid=719a4a00-bc16-4b1a-ac42-02c86ebc4f05","ios":"levelo://app?vid=719a4a00-bc16-4b1a-ac42-02c86ebc4f05"},"vehicle_type_id":"4","last_reported":1766064550,"current_range_meters":14400,"station_id":"ce4bhbp2rcd13ifvqerg","pricing_plan_id":"cebpf4jnsgd1na2vs0mg"},{"bike_id":"a9a267d4-7a76-480e-8693-8c6743669044","system_id":"levelo_inurba_marseille","lat":46.23582,"lon":4.79503,"is_reserved":false,"is_disabled":false,"rental_uris":{"android":"levelo://app?vid=a9a267d4-7a76-480e-8693-8c6743669044","ios":"levelo://app?vid=a9a267d4-7a76-480e-8693-8c6743669044"},"vehicle_type_id":"4","last_reported":1766064550,"current_range_meters":14400,"station_id":"","pricing_plan_id":"cebpf4jnsgd1na2vs0mg"},{"bike_id":"368a8ed5-63c0-46da-8b41-df8c47ab74e5","system_id":"levelo_inurba_marseille","lat":43.308873,"lon":5.396614,"is_reserved":false,"is_disabled":false,"rental_uris":{"android":"levelo://app?vid=368a8ed5-63c0-46da-8b41-df8c47ab74e5","ios":"levelo://app?vid=368a8ed5-63c0-46da-8b41-df8c47ab74e5"},"vehicle_type_id":"4","last_reported":1766064550,"current_range_meters":14800,"station_id":"ce4bh012rcd13ifvqcv0","pricing_plan_id":"cebpf4jnsgd1na2vs0mg"},{"bike_id":"9f6c9975-15d6-48de-a383-d85662191ef8","system_id":"levelo_inurba_marseille","lat":43.21165,"lon":5.35104,"is_reserved":false,"is_disabled":false,"rental_uris":{"android":"levelo://app?vid=9f6c9975-15d6-48de-a383-d85662191ef8","ios":"levelo://app?vid=9f6c9975-15d6-48de-a383-d85662191ef8"},"vehicle_type_id":"4","last_reported":1766064550,"current_range_meters":14800,"station_id":"st_cvj6sg6p6f1abm77japg","pricing_plan_id":"cebpf4jnsgd1na2vs0mg"},{"bike_id":"eac78c98-095f-4d78-8e98-87b6e0773649","system_id":"levelo_inurba_marseille","lat":43.23193,"lon":5.35563,"is_reserved":false,"is_disabled":false,"rental_uris":{"android":"levelo://app?vid=eac78c98-095f-4d78-8e98-87b6e0773649","ios":"levelo://app?vid=eac78c98-095f-4d78-8e98-87b6e0773649"},"vehicle_type_id":"4","last_reported":1766064550,"current_range_meters":14800,"station_id":"ce4bhu92rcd13ifvqi70","pricing_plan_id":"cebpf4jnsgd1na2vs0mg"},