{"last_updated":1700903179,"ttl":30,"version":"2.2","data":{"bikes":[{"bike_id":"4f479843-3b65-4f86-97fe-5abe33f8675a","system_id":"levelo_inurba_marseille","lat":43.309039,"lon":5.371797,"is_reserved":false,"is_disabled":false,"rental_uris":{"android":"levelo://app?vid=4f479843-3b65-4f86-97fe-5abe33f8675a","ios":"levelo://app?vid=4f479843-3b65-4f86-97fe-5abe33f8675a"},"vehicle_type_id":"4","last_reported":1700903179,"current_range_meters":19200,"station_id":"ce4bguh2rcd13ifvqckg","pricing_plan_id":"free"},{"bike_id":"82ce7cf4-60db-4161-ae87-fe70a7b21179","system_id":"levelo_inurba_marseille","lat":43.309039,"lon":5.371797,"is_reserved":false,"is_disabled":false,"rental_uris":{"android":"levelo://app?vid=82ce7cf4-60db-4161-ae87-fe70a7b21179","ios":"levelo://app?vid=82ce7cf4-60db-4161-ae87-fe70a7b21179"},"vehicle_type_id":"4","last_reported":1700903179,"current_range_meters":31200,"station_id":"ce4bguh2rcd13ifvqckg","pricing_plan_id":"free"},{"bike_id":"d6ab450f-3da4-44e1-91ef-3188484f0fa3","system_id":"levelo_inurba_marseille","lat":43.305706,"lon":5.365654,"is_reserved":false,"is_disabled":false,"rental_uris":{"android":"levelo://app?vid=d6ab450f-3da4-44e1-91ef-3188484f0fa3","ios":"levelo://app?vid=d6ab450f-3da4-44e1-91ef-3188484f0fa3"},"vehicle_type_id":"4","last_reported":1700903179,"current_range_meters":27200,"station_id":"ce4bgs12rcd13ifvqcag","pricing_plan_id":"free"},{"bike_id":"0e3a20c0-fbe4-4be1-8a70-167c2d1fc9f6","system_id":"levelo_inurba_marseille","lat":43.305181,"lon":5.36568,"is_reserved":false,"is_disabled":false,"rental_uris":{"android":"levelo://app?vid=0e3a20c0-fbe4-4be1-8a70-167c2d1fc9f6","ios":"levelo://app?vid=0e3a20c0-fbe4-4be1-8a70-167c2d1fc9f6"},"vehicle_type_id":"4","last_reported":1700903179,"current_range_meters":0,"station_id":"ce4bgs12rcd13ifvqcag","pricing_plan_id":"free"},{"bike_id":"573a870a-b6c4-429d-8587-8103772b84bc","system_id":"levelo_inurba_marseille","lat":43.308155,"lon":5.376612,"is_reserved":false,"is_disabled":false,"rental_uris":{"android":"levelo://app?vid=573a870a-b6c4-429d-8587-8103772b84bc","ios":"levelo://app?vid=573a870a-b6c4-429d-8587-8103772b84bc"},"vehicle_type_id":"4","last_reported":1700903179,"current_range_meters":5600,"station_id":"ce4bgv92rcd13ifvqcq0","pricing_plan_id":"free"},{"bike_id":"f427a2c3-6e4a-446b-ae2f-9be8aa7f4122","system_id":"levelo_inurba_marseille","lat":43.31719,"lon":5.376813,"is_reserved":false,"is_disabled":false,"rental_uris":{"android":"levelo://app?vid=f427a2c3-6e4a-446b-ae2f-9be8aa7f4122","ios":"levelo://app?vid=f427a2c3-6e4a-446b-ae2f-9be8aa7f4122"},"vehicle_type_id":"4","last_reported":1700903179,"current_range_meters":25600,"station_id":"ce4bgth2rcd13ifvqch0","pricing_plan_id":"free"},{"bike_id":"b898b018-f57d-4901-bab2-fdd15d391de9","system_id":"levelo_inurba_marseille","lat":43.317168,"lon":5.376883,"is_reserved":false,"is_disabled":false,"rental_uris":{"android":"levelo://app?vid=b898b018-f57d-4901-bab2-fdd15d391de9","ios":"levelo://app?vid=b898b018-f57d-4901-bab2-fdd15d391de9"},"vehicle_type_id":"4","last_reported":1700903179,"current_range_meters":28000,"station_id":"ce4bgth2rcd13ifvqch0","pricing_plan_id":"free"},{"bike_id":"d0838722-4519-4ead-99e9-d3f441a66736","system_id":"levelo_inurba_marseille","lat":43.317075,"lon":5.377367,"is_reserved":false,"is_disabled":false,"rental_uris":{"android":"levelo://app?vid=d0838722-4519-4ead-99e9-d3f441a66736","ios":"levelo://app?vid=d0838722-4519-4ead-99e9-d3f441a66736"},"vehicle_type_id":"4","last_reported":1700903179,"current_range_meters":24800,"station_id":"ce4bgth2rcd13ifvqch0","pricing_plan_id":"free"},{"bike_id":"9fdf340d-8b1b-41cf-a8fd-3039275a75bd","system_id":"levelo_inurba_marseille","lat":43.303046,"lon":5.368981,"is_reserved":false,"is_disabled":false,"rental_uris":{"android":"levelo://app?vid=9fdf340d-8b1b-41cf-a8fd-3039275a75bd","ios":"levelo://app?vid=9fdf340d-8b1b-41cf-a8fd-3039275a75bd"},"vehicle_type_id":"4","last_reported":1700903179,"current_range_meters":27600,"station_id":"ce4bgqh2rcd13ifvqc5g","pricing_plan_id":"free"},{"bike_id":"cf92051e-3b73-41ee-8f87-07a63c97f5fc","system_id":"levelo_inurba_marseille","lat":43.315312,"lon":5.380379,"is_reserved":false,"is_disabled":false,"rental_uris":{"android":"levelo://app?vid=cf92051e-3b73-41ee-8f87-07a63c97f5fc","ios":"levelo://app?vid=cf92051e-3b73-41ee-8f87-07a63c97f5fc"},"vehicle_type_id":"4","last_reported":1700903179,"current_range_meters":16800,"station_id":"ce4bhsp2rcd13ifvqi50","pricing_plan_id":"free"},{"bike_id":"d69025b0-8b89-4c4d-be9b-24cc15a18fef","system_id":"levelo_inurba_marseille","lat":43.30272,"lon":5.36906,"is_reserved":false,"is_disabled":false,"rental_uris":{"android":"levelo://app?vid=d69025b0-8b89-4c4d-be9b-24cc15a18fef","ios":"levelo://app?vid=d69025b0-8b89-4c4d-be9b-24cc15a18fef"},"vehicle_type_id":"4","last_reported":1700903179,"current_range_meters":17600,"station_id":"","pricing_plan_id":"free"},{"bike_id":"5b839f33-d76f-45a9-800d-361f0d025709","system_id":"levelo_inurba_marseille","lat":43.315293,"lon":5.380349,"is_reserved":false,"is_disabled":false,"rental_uris":{"android":"levelo://app?vid=5b839f33-d76f-45a9-800d-361f0d025709","ios":"levelo://app?vid=5b839f33-d76f-45a9-800d-361f0d025709"},"vehicle_type_id":"4","last_reported":1700903179,"current_range_meters":19600,"station_id":"ce4bhsp2rcd13ifvqi50","pricing_plan_id":"free"},{"bike_id":"7795724f-ef02-4a7f-9fa2-d6884f479239","system_id":"levelo_inurba_marseille","lat":43.301939,"lon":5.366286,"is_reserved":false,"is_disabled":false,"rental_uris":{"android":"levelo://app?vid=7795724f-ef02-4a7f-9fa2-d6884f479239","ios":"levelo://app?vid=7795724f-ef02-4a7f-9fa2-d6884f479239"},"vehicle_type_id":"4","last_reported":1700903179,"current_range_meters":25600,"station_id":"ce4bgrh2rcd13ifvqc8g","pricing_plan_id":"free"},{"bike_id":"9f5fe5d2-b5f4-4b5e-ae8b-9fdabc923653","system_id":"levelo_inurba_marseille","lat":43.304606,"lon":5.379026,"is_reserved":false,"is_disabled":false,"rental_uris":{"android":"levelo://app?vid=9f5fe5d2-b5f4-4b5e-ae8b-9fdabc923653","ios":"levelo://app?vid=9f5fe5d2-b5f4-4b5e-ae8b-9fdabc923653"},"vehicle_type_id":"4","last_reported":1700903179,"current_range_meters":21600,"station_id":"ce4bgup2rcd13ifvqcn0","pricing_plan_id":"free"},{"bike_id":"d248aa88-e2e7-4ce8-b0bd-a90c451e56c8","system_id":"levelo_inurba_marseille","lat":43.304606,"lon":5.379026,"is_reserved":false,"is_disabled":false,"rental_uris":{"android":"levelo://app?vid=d248aa88-e2e7-4ce8-b0bd-a90c451e56c8","ios":"levelo://app?vid=d248aa88-e2e7-4ce8-b0bd-a90c451e56c8"},"vehicle_type_id":"4","last_reported":1700903179,"current_range_meters":30800,"station_id":"ce4bgup2rcd13ifvqcn0","pricing_plan_id":"free"},{"bike_id":"bfdf1953-a0ec-41af-865f-f369c4822762","system_id":"levelo_inurba_marseille","lat":43.304606,"lon":5.379026,"is_reserved":false,"is_disabled":false,"rental_uris":{"android":"levelo://app?vid=bfdf1953-a0ec-41af-865f-f369c4822762","ios":"levelo://app?vid=bfdf1953-a0ec-41af-865f-f369c4822762"},"vehicle_type_id":"4","last_reported":1700903179,"current_range_meters":30800,"station_id":"ce4bgup2rcd13ifvqcn0","pricing_plan_id":"free"},{"bike_id":"5728f5cb-2fb7-4672-8197-2f13ebac31fe","system_id":"levelo_inurba_marseille","lat":43.304606,"lon":5.379026,"is_reserved":false,"is_disabled":false,"rental_uris":{"android":"levelo://app?vid=5728f5cb-2fb7-4672-8197-2f13ebac31fe","ios":"levelo://app?vid=5728f5cb-2fb7-4672-8197-2f13ebac31fe"},"vehicle_type_id":"4","last_reported":1700903179,"current_range_meters":27200,"station_id":"ce4bgup2rcd13ifvqcn0","pricing_plan_id":"free"},{"bike_id":"3537fba9-594f-4cfa-8b91-7796b8520999","system_id":"levelo_inurba_marseille","lat":43.304606,"lon":5.379026,"is_reserved":false,"is_disabled":false,"rental_uris":{"android":"levelo://app?vid=3537fba9-594f-4cfa-8b91-7796b8520999","ios":"levelo://app?vid=3537fba9-594f-4cfa-8b91-7796b8520999"},"vehicle_type_id":"4","last_reported":1700903179,"current_range_meters":31200,"station_id":"ce4bgup2rcd13ifvqcn0","pricing_plan_id":"free"},{"bike_id":"3dc2f81b-07b9-46c0-9430-9e266e1cea0b","system_id":"levelo_inurba_marseille","lat":43.30461,"lon":5.37903,"is_reserved":false,"is_disabled":false,"rental_uris":{"android":"levelo://app?vid=3dc2f81b-07b9-46c0-9430-9e266e1cea0b","ios":"levelo://app?vid=3dc2f81b-07b9-46c0-9430-9e266e1cea0b"},"vehicle_type_id":"4","last_reported":1700903179,"current_range_meters":21600,"station_id":"ce4bgup2rcd13ifvqcn0","pricing_plan_id":"free"},{"bike_id":"7ae50ca8-be13-4935-97a0-71b26072c469","system_id":"levelo_inurba_marseille","lat":43.304606,"lon":5.379026,"is_reserved":false,"is_disabled":false,"rental_uris":{"android":"levelo://app?vid=7ae50ca8-be13-4935-97a0-71b26072c469","ios":"levelo://app?vid=7ae50ca8-be13-4935-97a0-71b26072c469"},"vehicle_type_id":"4","last_reported":1700903179,"current_range_meters":19200,"station_id":"ce4bgup2rcd13ifvqcn0","pricing_plan_id":"free"},{"bike_id":"64f8ad7f-8812-4d50-a1bc-9dfec8e4e01f","system_id":"levelo_inurba_marseille","lat":43.304606,"lon":5.379026,"is_reserved":false,"is_disabled":false,"rental_uris":{"android":"levelo://app?vid=64f8ad7f-8812-4d50-a1bc-9dfec8e4e01f","ios":"levelo://app?vid=64f8ad7f-8812-4d50-a1bc-9dfec8e4e01f"},"vehicle_type_id":"4","last_reported":1700903179,"current_range_meters":31200,"station_id":"ce4bgup2rcd13ifvqcn0","pricing_plan_id":"free"},{"bike_id":"90674431-35f7-4114-b8b3-e06d4958e8b4","system_id":"levelo_inurba_marseille","lat":43.304606,"lon":5.379026,"is_reserved":false,"is_disabled":false,"rental_uris":{"android":"levelo://app?vid=90674431-35f7-4114-b8b3-e06d4958e8b4","ios":"levelo://app?vid=90674431-35f7-4114-b8b3-e06d4958e8b4"},"vehicle_type_id":"4","last_reported":1700903179,"current_range_meters":23600,"station_id":"ce4bgup2rcd13ifvqcn0","pricing_plan_id":"free"},{"bike_id":"ca06037b-a6a3-410d-93f8-ff70bfff1a43","system_id":"levelo_inurba_marseille","lat":43.304606,"lon":5.379026,"is_reserved":false,"is_disabled":false,"rental_uris":{"android":"levelo://app?vid=ca06037b-a6a3-410d-93f8-ff70bfff1a43","ios":"levelo://app?vid=ca06037b-a6a3-410d-93f8-ff70bfff1a43"},"vehicle_type_id":"4","last_reported":1700903179,"current_range_meters":14800,"station_id":"ce4bgup2rcd13ifvqcn0","pricing_plan_id":"free"},{"bike_id":"6e211921-90ba-4dee-a70f-68daa8538b59","system_id":"levelo_inurba_marseille","lat":43.304606,"lon":5.379026,"is_reserved":false,"is_disabled":false,"rental_uris":{"android":"levelo://app?vid=6e211921-90ba-4dee-a70f-68daa8538b59","ios":"levelo://app?vid=6e211921-90ba-4dee-a70f-68daa8538b59"},"vehicle_type_id":"4","last_reported":1700903179,"current_range_meters":16400,"station_id":"ce4bgup2rcd13ifvqcn0","pricing_plan_id":"free"},{"bike_id":"0326f398-eeee-4c19-a0f5-91597c7657fa","system_id":"levelo_inurba_marseille","lat":43.302784,"lon":5.377158,"is_reserved":false,"is_disabled":false,"rental_uris":{"android":"levelo://app?vid=0326f398-eeee-4c19-a0f5-91597c7657fa","ios":"levelo://app?vid=0326f398-eeee-4c19-a0f5-91597c7657fa"},"vehicle_type_id":"4","last_reported":1700903179,"current_range_meters":27200,"station_id":"ce4bguh2rcd13ifvqcj0","pricing_plan_id":"free"},{"bike_id":"babfdd7e-6cd2-4e72-8866-ac8539f5db7f","system_id":"levelo_inurba_marseille","lat":43.319935,"lon":5.381699,"is_reserved":false,"is_disabled":false,"rental_uris":{"android":"levelo://app?vid=babfdd7e-6cd2-4e72-8866-ac8539f5db7f","ios":"levelo://app?vid=babfdd7e-6cd2-4e72-8866-ac8539f5db7f"},"vehicle_type_id":"4","last_reported":1700903179,"current_range_meters":31200,"station_id":"ce4bhr12rcd13ifvqhpg","pricing_plan_id":"free"},{"bike_id":"b26e99ca-4d47-4ed0-b501-a4b987ea012a","system_id":"levelo_inurba_marseille","lat":43.31996,"lon":5.38152,"is_reserved":false,"is_disabled":false,"rental_uris":{"android":"levelo://app?vid=b26e99ca-4d47-4ed0-b501-a4b987ea012a","ios":"levelo://app?vid=b26e99ca-4d47-4ed0-b501-a4b987ea012a"},"vehicle_type_id":"4","last_reported":1700903179,"current_range_meters":25200,"station_id":"ce4bhr12rcd13ifvqhpg","pricing_plan_id":"free"},{"bike_id":"297c48cb-ada2-41fa-a9b3-36f330453cd6","system_id":"levelo_inurba_marseille","lat":43.31998,"lon":5.38152,"is_reserved":false,"is_disabled":false,"rental_uris":{"android":"levelo://app?vid=297c48cb-ada2-41fa-a9b3-36f330453cd6","ios":"levelo://app?vid=297c48cb-ada2-41fa-a9b3-36f330453cd6"},"vehicle_type_id":"4","last_reported":1700903179,"current_range_meters":30800,"station_id":"ce4bhr12rcd13ifvqhpg","pricing_plan_id":"free"},{"bike_id":"d48821a1-e8e3-408d-ae14-507b996e5bff","system_id":"levelo_inurba_marseille","lat":43.313571,"lon":5.384829,"is_reserved":false,"is_disabled":false,"rental_uris":{"android":"levelo://app?vid=d48821a1-e8e3-408d-ae14-507b996e5bff","ios":"levelo://app?vid=d48821a1-e8e3-408d-ae14-507b996e5bff"},"vehicle_type_id":"4","last_reported":1700903179,"current_range_meters":19600,"station_id":"ce4bgt92rcd13ifvqcf0","pricing_plan_id":"free"},{"bike_id":"ff4ba8b2-237a-4d62-be05-7f0d76437608","system_id":"levelo_inurba_marseille","lat":43.313571,"lon":5.384829,"is_reserved":false,"is_disabled":false,"rental_uris":{"android":"levelo://app?vid=ff4ba8b2-237a-4d62-be05-7f0d76437608","ios":"levelo://app?vid=ff4ba8b2-237a-4d62-be05-7f0d76437608"},"vehicle_type_id":"4","last_reported":1700903179,"current_range_meters":10400,"station_id":"ce4bgt92rcd13ifvqcf0","pricing_plan_id":"free"},{"bike_id":"370cb26f-10c2-4896-a531-833a7555abd9","system_id":"levelo_inurba_marseille","lat":43.305601,"lon":5.383663,"is_reserved":false,"is_disabled":false,"rental_uris":{"android":"levelo://app?vid=370cb26f-10c2-4896-a531-833a7555abd9","ios":"levelo://app?vid=370cb26f-10c2-4896-a531-833a7555abd9"},"vehicle_type_id":"4","last_reported":1700903179,"current_range_meters":29600,"station_id":"","pricing_plan_id":"free"},{"bike_id":"18645dd1-e964-43c0-9b49-8de3e6e66324","system_id":"levelo_inurba_marseille","lat":43.305364,"lon":5.384119,"is_reserved":false,"is_disabled":false,"rental_uris":{"android":"levelo://app?vid=18645dd1-e964-43c0-9b49-8de3e6e66324","ios":"levelo://app?vid=18645dd1-e964-43c0-9b49-8de3e6e66324"},"vehicle_type_id":"4","last_reported":1700903179,"current_range_meters":21600,"station_id":"ce4bgg92rcd13ifvqb30","pricing_plan_id":"free"},{"bike_id":"80b4b238-9cb7-425f-a795-42b1e665cae2","system_id":"levelo_inurba_marseille","lat":43.298433,"lon":5.362774,"is_reserved":false,"is_disabled":false,"rental_uris":{"android":"levelo://app?vid=80b4b238-9cb7-425f-a795-42b1e665cae2","ios":"levelo://app?vid=80b4b238-9cb7-425f-a795-42b1e665cae2"},"vehicle_type_id":"4","last_reported":1700903179,"current_range_meters":25200,"station_id":"ce4bgpp2rcd13ifvqc3g","pricing_plan_id":"free"},{"bike_id":"7b71dcc2-37f7-47ca-999a-2577a5b20c1f","system_id":"levelo_inurba_marseille","lat":43.305364,"lon":5.384119,"is_reserved":false,"is_disabled":false,"rental_uris":{"android":"levelo://app?vid=7b71dcc2-37f7-47ca-999a-2577a5b20c1f","ios":"levelo://app?vid=7b71dcc2-37f7-47ca-999a-2577a5b20c1f"},"vehicle_type_id":"4","last_reported":1700903179,"current_range_meters":25600,"station_id":"ce4bgg92rcd13ifvqb30","pricing_plan_id":"free"},{"bike_id":"a11ceb9d-1757-4ba8-9748-19ac2f1cfc93","system_id":"levelo_inurba_marseille","lat":43.305364,"lon":5.384119,"is_reserved":false,"is_disabled":false,"rental_uris":{"android":"levelo://app?vid=a11ceb9d-1757-4ba8-9748-19ac2f1cfc93","ios":"levelo://app?vid=a11ceb9d-1757-4ba8-9748-19ac2f1cfc93"},"vehicle_type_id":"4","last_reported":1700903179,"current_range_meters":25600,"station_id":"ce4bgg92rcd13ifvqb30","pricing_plan_id":"free"},{"bike_id":"09eebb08-1c76-4705-ad5d-21f288103669","system_id":"levelo_inurba_marseille","lat":43.298433,"lon":5.362774,"is_reserved":false,"is_disabled":false,"rental_uris":{"android":"levelo://app?vid=09eebb08-1c76-4705-ad5d-21f288103669","ios":"levelo://app?vid=09eebb08-1c76-4705-ad5d-21f288103669"},"vehicle_type_id":"4","last_reported":1700903179,"current_range_meters":22000,"station_id":"ce4bgpp2rcd13ifvqc3g","pricing_plan_id":"free"},{"bike_id":"361c9483-57dc-4cc1-9de3-9d453d7e5047","system_id":"levelo_inurba_marseille","lat":43.299243,"lon":5.37481,"is_reserved":false,"is_disabled":false,"rental_uris":{"android":"levelo://app?vid=361c9483-57dc-4cc1-9de3-9d453d7e5047","ios":"levelo://app?vid=361c9483-57dc-4cc1-9de3-9d453d7e5047"},"vehicle_type_id":"4","last_reported":1700903179,"current_range_meters":29600,"station_id":"ce4bgjh2rcd13ifvqbg0","pricing_plan_id":"free"},{"bike_id":"09a9d7fd-6a0c-4198-a8f9-c1c15a9dd14e","system_id":"levelo_inurba_marseille","lat":43.299243,"lon":5.37481,"is_reserved":false,"is_disabled":false,"rental_uris":{"android":"levelo://app?vid=09a9d7fd-6a0c-4198-a8f9-c1c15a9dd14e","ios":"levelo://app?vid=09a9d7fd-6a0c-4198-a8f9-c1c15a9dd14e"},"vehicle_type_id":"4","last_reported":1700903179,"current_range_meters":30000,"station_id":"ce4bgjh2rcd13ifvqbg0","pricing_plan_id":"free"},{"bike_id":"1bd5b7fe-4db4-4d94-a1c0-e553a0f5aea1","system_id":"levelo_inurba_marseille","lat":43.311722,"lon":5.387247,"is_reserved":false,"is_disabled":false,"rental_uris":{"android":"levelo://app?vid=1bd5b7fe-4db4-4d94-a1c0-e553a0f5aea1","ios":"levelo://app?vid=1bd5b7fe-4db4-4d94-a1c0-e553a0f5aea1"},"vehicle_type_id":"4","last_reported":1700903179,"current_range_meters":27200,"station_id":"ce4bgv12rcd13ifvqcp0","pricing_plan_id":"free"},{"bike_id":"dee3eb11-86c8-4303-a87f-725c2b210c7c","system_id":"levelo_inurba_marseille","lat":43.311722,"lon":5.387247,"is_reserved":false,"is_disabled":false,"rental_uris":{"android":"levelo://app?vid=dee3eb11-86c8-4303-a87f-725c2b210c7c","ios":"levelo://app?vid=dee3eb11-86c8-4303-a87f-725c2b210c7c"},"vehicle_type_id":"4","last_reported":1700903179,"current_range_meters":22800,"station_id":"ce4bgv12rcd13ifvqcp0","pricing_plan_id":"free"},{"bike_id":"f05f6d3e-25f1-4e43-b08f-fa093b86236c","system_id":"levelo_inurba_marseille","lat":43.311722,"lon":5.387247,"is_reserved":false,"is_disabled":false,"rental_uris":{"android":"levelo://app?vid=f05f6d3e-25f1-4e43-b08f-fa093b86236c","ios":"levelo://app?vid=f05f6d3e-25f1-4e43-b08f-fa093b86236c"},"vehicle_type_id":"4","last_reported":1700903179,"current_range_meters":25600,"station_id":"ce4bgv12rcd13ifvqcp0","pricing_plan_id":"free"},{"bike_id":"f9ce9c3f-5ce0-442f-986c-f1a94ddddd6a","system_id":"levelo_inurba_marseille","lat":43.322872,"lon":5.382756,"is_reserved":false,"is_disabled":false,"rental_uris":{"android":"levelo://app?vid=f9ce9c3f-5ce0-442f-986c-f1a94ddddd6a","ios":"levelo://app?vid=f9ce9c3f-5ce0-442f-986c-f1a94ddddd6a"},"vehicle_type_id":"4","last_reported":1700903179,"current_range_meters":30000,"station_id":"ce4bhr12rcd13ifvqhqg","pricing_plan_id":"free"},{"bike_id":"f8736720-e966-45a6-a671-1e9c1c844291","system_id":"levelo_inurba_marseille","lat":43.322872,"lon":5.382756,"is_reserved":false,"is_disabled":false,"rental_uris":{"android":"levelo://app?vid=f8736720-e966-45a6-a671-1e9c1c844291","ios":"levelo://app?vid=f8736720-e966-45a6-a671-1e9c1c844291"},"vehicle_type_id":"4","last_reported":1700903179,"current_range_meters":26000,"station_id":"ce4bhr12rcd13ifvqhqg","pricing_plan_id":"free"},{"bike_id":"7c93eefc-07fe-4a09-b42f-ee22a5cbe113","system_id":"levelo_inurba_marseille","lat":43.322872,"lon":5.382756,"is_reserved":false,"is_disabled":false,"rental_uris":{"android":"levelo://app?vid=7c93eefc-07fe-4a09-b42f-ee22a5cbe113","ios":"levelo://app?vid=7c93eefc-07fe-4a09-b42f-ee22a5cbe113"},"vehicle_type_id":"4","last_reported":1700903179,"current_range_meters":26000,"station_id":"ce4bhr12rcd13ifvqhqg","pricing_plan_id":"free"},{"bike_id":"4625bec6-4af3-44cb-8699-3acd72afd201","system_id":"levelo_inurba_marseille","lat":43.322872,"lon":5.382756,"is_reserved":false,"is_disabled":false,"rental_uris":{"android":"levelo://app?vid=4625bec6-4af3-44cb-8699-3acd72afd201","ios":"levelo://app?vid=4625bec6-4af3-44cb-8699-3acd72afd201"},"vehicle_type_id":"4","last_reported":1700903179,"current_range_meters":22400,"station_id":"ce4bhr12rcd13ifvqhqg","pricing_plan_id":"free"},{"bike_id":"07a03e0e-e12b-474e-a940-8baf07c98432","system_id":"levelo_inurba_marseille","lat":43.328371,"lon":5.366909,"is_reserved":false,"is_disabled":false,"rental_uris":{"android":"levelo://app?vid=07a03e0e-e12b-474e-a940-8baf07c98432","ios":"levelo://app?vid=07a03e0e-e12b-474e-a940-8baf07c98432"},"vehicle_type_id":"4","last_reported":1700903179,"current_range_meters":16000,"station_id":"ce4bhs92rcd13ifvqi0g","pricing_plan_id":"free"},{"bike_id":"d2dfb988-ecba-41d5-8ac1-cdc2348bdd62","system_id":"levelo_inurba_marseille","lat":43.297163,"lon":5.365866,"is_reserved":false,"is_disabled":false,"rental_uris":{"android":"levelo://app?vid=d2dfb988-ecba-41d5-8ac1-cdc2348bdd62","ios":"levelo://app?vid=d2dfb988-ecba-41d5-8ac1-cdc2348bdd62"},"vehicle_type_id":"4","last_reported":1700903179,"current_range_meters":31200,"station_id":"ce4bgn12rcd13ifvqbt0","pricing_plan_id":"free"},{"bike_id":"bf8d61a6-45c7-4b78-96a2-48e1f8f0e943","system_id":"levelo_inurba_marseille","lat":43.297163,"lon":5.365866,"is_reserved":false,"is_disabled":false,"rental_uris":{"android":"levelo://app?vid=bf8d61a6-45c7-4b78-96a2-48e1f8f0e943","ios":"levelo://app?vid=bf8d61a6-45c7-4b78-96a2-48e1f8f0e943"},"vehicle_type_id":"4","last_reported":1700903179,"current_range_meters":22800,"station_id":"ce4bgn12rcd13ifvqbt0","pricing_plan_id":"free"},{"bike_id":"319846df-048c-433c-beef-c4cf6361e7df","system_id":"levelo_inurba_marseille","lat":43.297163,"lon":5.365866,"is_reserved":false,"is_disabled":false,"rental_uris":{"android":"levelo://app?vid=319846df-048c-433c-beef-c4cf6361e7df","ios":"levelo://app?vid=319846df-048c-433c-beef-c4cf6361e7df"},"vehicle_type_id":"4","last_reported":1700903179,"current_range_meters":30000,"station_id":"ce4bgn12rcd13ifvqbt0","pricing_plan_id":"free"},{"bike_id":"ac328807-b538-4c50-af18-483b8d141cc9","system_id":"levelo_inurba_marseille","lat":43.297163,"lon":5.365866,"is_reserved":false,"is_disabled":false,"rental_uris":{"android":"levelo://app?vid=ac328807-b538-4c50-af18-483b8d141cc9","ios":"levelo://app?vid=ac328807-b538-4c50-af18-483b8d141cc9"},"vehicle_type_id":"4","last_reported":1700903179,"current_range_meters":17200,"station_id":"ce4bgn12rcd13ifvqbt0","pricing_plan_id":"free"},{"bike_id":"4d7509f5-9559-42ca-a60d-bef9e80f0981","system_id":"levelo_inurba_marseille","lat":43.2996,"lon":5.37917,"is_reserved":false,"is_disabled":false,"rental_uris":{"android":"levelo://app?vid=4d7509f5-9559-42ca-a60d-bef9e80f0981","ios":"levelo://app?vid=4d7509f5-9559-42ca-a60d-bef9e80f0981"},"vehicle_type_id":"4","last_reported":1700903179,"current_range_meters":0,"station_id":"","pricing_plan_id":"free"},{"bike_id":"91ea429b-0379-495d-8d3b-cbac9d1a9ae5","system_id":"levelo_inurba_marseille","lat":43.2968,"lon":5.37291,"is_reserved":false,"is_disabled":false,"rental_uris":{"android":"levelo://app?vid=91ea429b-0379-495d-8d3b-cbac9d1a9ae5","ios":"levelo://app?vid=91ea429b-0379-495d-8d3b-cbac9d1a9ae5"},"vehicle_type_id":"4","last_reported":1700903179,"current_range_meters":28000,"station_id":"ce4bgk12rcd13ifvqbj0","pricing_plan_id":"free"},{"bike_id":"11f77723-1b30-4487-8e52-b663c43af7a6","system_id":"levelo_inurba_marseille","lat":43.296131,"lon":5.370791,"is_reserved":false,"is_disabled":false,"rental_uris":{"android":"levelo://app?vid=11f77723-1b30-4487-8e52-b663c43af7a6","ios":"levelo://app?vid=11f77723-1b30-4487-8e52-b663c43af7a6"},"vehicle_type_id":"4","last_reported":1700903179,"current_range_meters":30800,"station_id":"ce4bgnh2rcd13ifvqc0g","pricing_plan_id":"free"},{"bike_id":"36997de2-1b02-486b-9756-353fd6f2397c","system_id":"levelo_inurba_marseille","lat":43.29573,"lon":5.367355,"is_reserved":false,"is_disabled":false,"rental_uris":{"android":"levelo://app?vid=36997de2-1b02-486b-9756-353fd6f2397c","ios":"levelo://app?vid=36997de2-1b02-486b-9756-353fd6f2397c"},"vehicle_type_id":"4","last_reported":1700903179,"current_range_meters":26000,"station_id":"ce4bgph2rcd13ifvqc2g","pricing_plan_id":"free"},{"bike_id":"e195152f-b380-400b-8404-e657c40c1bc7","system_id":"levelo_inurba_marseille","lat":43.29573,"lon":5.367355,"is_reserved":false,"is_disabled":false,"rental_uris":{"android":"levelo://app?vid=e195152f-b380-400b-8404-e657c40c1bc7","ios":"levelo://app?vid=e195152f-b380-400b-8404-e657c40c1bc7"},"vehicle_type_id":"4","last_reported":1700903179,"current_range_meters":22800,"station_id":"ce4bgph2rcd13ifvqc2g","pricing_plan_id":"free"},{"bike_id":"9140a864-5f8a-4d9e-bc60-4aa6ad5cdbda","system_id":"levelo_inurba_marseille","lat":43.29573,"lon":5.367355,"is_reserved":false,"is_disabled":false,"rental_uris":{"android":"levelo://app?vid=9140a864-5f8a-4d9e-bc60-4aa6ad5cdbda","ios":"levelo://app?vid=9140a864-5f8a-4d9e-bc60-4aa6ad5cdbda"},"vehicle_type_id":"4","last_reported":1700903179,"current_range_meters":24400,"station_id":"ce4bgph2rcd13ifvqc2g","pricing_plan_id":"free"},{"bike_id":"95407f93-d914-4495-b5cf-5ef84f70cb08","system_id":"levelo_inurba_marseille","lat":43.29573,"lon":5.367355,"is_reserved":false,"is_disabled":false,"rental_uris":{"android":"levelo://app?vid=95407f93-d914-4495-b5cf-5ef84f70cb08","ios":"levelo://app?vid=95407f93-d914-4495-b5cf-5ef84f70cb08"},"vehicle_type_id":"4","last_reported":1700903179,"current_range_meters":14000,"station_id":"ce4bgph2rcd13ifvqc2g","pricing_plan_id":"free"},{"bike_id":"071eb492-c116-4c73-abf2-f3f4763e972c","system_id":"levelo_inurba_marseille","lat":43.299028,"lon":5.381509,"is_reserved":false,"is_disabled":false,"rental_uris":{"android":"levelo://app?vid=071eb492-c116-4c73-abf2-f3f4763e972c","ios":"levelo://app?vid=071eb492-c116-4c73-abf2-f3f4763e972c"},"vehicle_type_id":"4","last_reported":1700903179,"current_range_meters":28400,"station_id":"ce4bgj12rcd13ifvqbc0","pricing_plan_id":"free"},{"bike_id":"aa461f5c-571a-405c-b94b-381d6ba0ca55","system_id":"levelo_inurba_marseille","lat":43.309589,"lon":5.390258,"is_reserved":false,"is_disabled":false,"rental_uris":{"android":"levelo://app?vid=aa461f5c-571a-405c-b94b-381d6ba0ca55","ios":"levelo://app?vid=aa461f5c-571a-405c-b94b-381d6ba0ca55"},"vehicle_type_id":"4","last_reported":1700903179,"current_range_meters":29200,"station_id":"ce4bgup2rcd13ifvqco0","pricing_plan_id":"free"},{"bike_id":"10f5c5d0-4560-4fb3-9b89-bf8f09eaaaf6","system_id":"levelo_inurba_marseille","lat":43.309589,"lon":5.390258,"is_reserved":false,"is_disabled":false,"rental_uris":{"android":"levelo://app?vid=10f5c5d0-4560-4fb3-9b89-bf8f09eaaaf6","ios":"levelo://app?vid=10f5c5d0-4560-4fb3-9b89-bf8f09eaaaf6"},"vehicle_type_id":"4","last_reported":1700903179,"current_range_meters":17200,"station_id":"ce4bgup2rcd13ifvqco0","pricing_plan_id":"free"},{"bike_id":"2778d040-f211-4fd0-8aca-8ea6a9dded77","system_id":"levelo_inurba_marseille","lat":43.309589,"lon":5.390258,"is_reserved":false,"is_disabled":false,"rental_uris":{"android":"levelo://app?vid=2778d040-f211-4fd0-8aca-8ea6a9dded77","ios":"levelo://app?vid=2778d040-f211-4fd0-8aca-8ea6a9dded77"},"vehicle_type_id":"4","last_reported":1700903179,"current_range_meters":23200,"station_id":"ce4bgup2rcd13ifvqco0","pricing_plan_id":"free"},{"bike_id":"4ae65ddd-0ffc-49df-bfdc-241736d2ef8c","system_id":"levelo_inurba_marseille","lat":43.309589,"lon":5.390258,"is_reserved":false,"is_disabled":false,"rental_uris":{"android":"levelo://app?vid=4ae65ddd-0ffc-49df-bfdc-241736d2ef8c","ios":"levelo://app?vid=4ae65ddd-0ffc-49df-bfdc-241736d2ef8c"},"vehicle_type_id":"4","last_reported":1700903179,"current_range_meters":31600,"station_id":"ce4bgup2rcd13ifvqco0","pricing_plan_id":"free"},{"bike_id":"4554244b-88b6-4b43-94ca-1ee298ae6133","system_id":"levelo_inurba_marseille","lat":43.309589,"lon":5.390258,"is_reserved":false,"is_disabled":false,"rental_uris":{"android":"levelo://app?vid=4554244b-88b6-4b43-94ca-1ee298ae6133","ios":"levelo://app?vid=4554244b-88b6-4b43-94ca-1ee298ae6133"},"vehicle_type_id":"4","last_reported":1700903179,"current_range_meters":27200,"station_id":"ce4bgup2rcd13ifvqco0","pricing_plan_id":"free"},{"bike_id":"295427a0-b19c-4a40-be22-410836aa3b55","system_id":"levelo_inurba_marseille","lat":43.309589,"lon":5.390258,"is_reserved":false,"is_disabled":false,"rental_uris":{"android":"levelo://app?vid=295427a0-b19c-4a40-be22-410836aa3b55","ios":"levelo://app?vid=295427a0-b19c-4a40-be22-410836aa3b55"},"vehicle_type_id":"4","last_reported":1700903179,"current_range_meters":21600,"station_id":"ce4bgup2rcd13ifvqco0","pricing_plan_id":"free"},{"bike_id":"48e9b64d-1128-4519-8d2e-b65c1a45e1fd","system_id":"levelo_inurba_marseille","lat":43.309589,"lon":5.390258,"is_reserved":false,"is_disabled":false,"rental_uris":{"android":"levelo://app?vid=48e9b64d-1128-4519-8d2e-b65c1a45e1fd","ios":"levelo://app?vid=48e9b64d-1128-4519-8d2e-b65c1a45e1fd"},"vehicle_type_id":"4","last_reported":1700903179,"current_range_meters":31200,"station_id":"ce4bgup2rcd13ifvqco0","pricing_plan_id":"free"},{"bike_id":"a28594db-338e-46f4-8316-e9212152a9d4","system_id":"levelo_inurba_marseille","lat":43.309589,"lon":5.390258,"is_reserved":false,"is_disabled":false,"rental_uris":{"android":"levelo://app?vid=a28594db-338e-46f4-8316-e9212152a9d4","ios":"levelo://app?vid=a28594db-338e-46f4-8316-e9212152a9d4"},"vehicle_type_id":"4","last_reported":1700903179,"current_range_meters":13200,"station_id":"ce4bgup2rcd13ifvqco0","pricing_plan_id":"free"},{"bike_id":"d893ffb0-ee3a-4101-a097-ac154bac72a5","system_id":"levelo_inurba_marseille","lat":43.298037,"lon":5.381066,"is_reserved":false,"is_disabled":false,"rental_uris":{"android":"levelo://app?vid=d893ffb0-ee3a-4101-a097-ac154bac72a5","ios":"levelo://app?vid=d893ffb0-ee3a-4101-a097-ac154bac72a5"},"vehicle_type_id":"4","last_reported":1700903179,"current_range_meters":21600,"station_id":"ce4bgip2rcd13ifvqbb0","pricing_plan_id":"free"},{"bike_id":"8788bad4-805f-4a1e-8530-16db81276271","system_id":"levelo_inurba_marseille","lat":43.298037,"lon":5.381066,"is_reserved":false,"is_disabled":false,"rental_uris":{"android":"levelo://app?vid=8788bad4-805f-4a1e-8530-16db81276271","ios":"levelo://app?vid=8788bad4-805f-4a1e-8530-16db81276271"},"vehicle_type_id":"4","last_reported":1700903179,"current_range_meters":25600,"station_id":"ce4bgip2rcd13ifvqbb0","pricing_plan_id":"free"},{"bike_id":"64d68a8e-ed98-4ca5-88e7-b6c24ada9d5e","system_id":"levelo_inurba_marseille","lat":43.295748,"lon":5.37522,"is_reserved":false,"is_disabled":false,"rental_uris":{"android":"levelo://app?vid=64d68a8e-ed98-4ca5-88e7-b6c24ada9d5e","ios":"levelo://app?vid=64d68a8e-ed98-4ca5-88e7-b6c24ada9d5e"},"vehicle_type_id":"4","last_reported":1700903179,"current_range_meters":28800,"station_id":"ce4bgh92rcd13ifvqb50","pricing_plan_id":"free"},{"bike_id":"5f733dea-7abe-4e1d-a898-610171a08263","system_id":"levelo_inurba_marseille","lat":43.304278,"lon":5.388868,"is_reserved":false,"is_disabled":false,"rental_uris":{"android":"levelo://app?vid=5f733dea-7abe-4e1d-a898-610171a08263","ios":"levelo://app?vid=5f733dea-7abe-4e1d-a898-610171a08263"},"vehicle_type_id":"4","last_reported":1700903179,"current_range_meters":26800,"station_id":"ce4bgk12rcd13ifvqbi0","pricing_plan_id":"free"},{"bike_id":"352924a0-6078-48fd-a964-b3efcb14ffc9","system_id":"levelo_inurba_marseille","lat":43.295748,"lon":5.37522,"is_reserved":false,"is_disabled":false,"rental_uris":{"android":"levelo://app?vid=352924a0-6078-48fd-a964-b3efcb14ffc9","ios":"levelo://app?vid=352924a0-6078-48fd-a964-b3efcb14ffc9"},"vehicle_type_id":"4","last_reported":1700903179,"current_range_meters":17600,"station_id":"ce4bgh92rcd13ifvqb50","pricing_plan_id":"free"},{"bike_id":"a3e04e5f-2ce4-4be6-ac14-372571c133c2","system_id":"levelo_inurba_marseille","lat":43.304278,"lon":5.388868,"is_reserved":false,"is_disabled":false,"rental_uris":{"android":"levelo://app?vid=a3e04e5f-2ce4-4be6-ac14-372571c133c2","ios":"levelo://app?vid=a3e04e5f-2ce4-4be6-ac14-372571c133c2"},"vehicle_type_id":"4","last_reported":1700903179,"current_range_meters":27600,"station_id":"ce4bgk12rcd13ifvqbi0","pricing_plan_id":"free"},{"bike_id":"7d5ced87-e785-4e12-9829-98b68fbdb3e3","system_id":"levelo_inurba_marseille","lat":43.304274,"lon":5.388873,"is_reserved":false,"is_disabled":false,"rental_uris":{"android":"levelo://app?vid=7d5ced87-e785-4e12-9829-98b68fbdb3e3","ios":"levelo://app?vid=7d5ced87-e785-4e12-9829-98b68fbdb3e3"},"vehicle_type_id":"4","last_reported":1700903179,"current_range_meters":28400,"station_id":"ce4bgk12rcd13ifvqbi0","pricing_plan_id":"free"},{"bike_id":"ee83c424-6524-4638-974d-91a1a52c9c8b","system_id":"levelo_inurba_marseille","lat":43.296263,"lon":5.377094,"is_reserved":false,"is_disabled":false,"rental_uris":{"android":"levelo://app?vid=ee83c424-6524-4638-974d-91a1a52c9c8b","ios":"levelo://app?vid=ee83c424-6524-4638-974d-91a1a52c9c8b"},"vehicle_type_id":"4","last_reported":1700903179,"current_range_meters":30400,"station_id":"ce4bgi92rcd13ifvqb90","pricing_plan_id":"free"},{"bike_id":"7b3c52d8-e0f2-4e35-9744-5c9e78e45371","system_id":"levelo_inurba_marseille","lat":43.296263,"lon":5.377094,"is_reserved":false,"is_disabled":false,"rental_uris":{"android":"levelo://app?vid=7b3c52d8-e0f2-4e35-9744-5c9e78e45371","ios":"levelo://app?vid=7b3c52d8-e0f2-4e35-9744-5c9e78e45371"},"vehicle_type_id":"4","last_reported":1700903179,"current_range_meters":28400,"station_id":"ce4bgi92rcd13ifvqb90","pricing_plan_id":"free"},{"bike_id":"056fe394-44f3-4b6b-b345-565309ffc8cd","system_id":"levelo_inurba_marseille","lat":43.296263,"lon":5.377094,"is_reserved":false,"is_disabled":false,"rental_uris":{"android":"levelo://app?vid=056fe394-44f3-4b6b-b345-565309ffc8cd","ios":"levelo://app?vid=056fe394-44f3-4b6b-b345-565309ffc8cd"},"vehicle_type_id":"4","last_reported":1700903179,"current_range_meters":23200,"station_id":"ce4bgi92rcd13ifvqb90","pricing_plan_id":"free"},{"bike_id":"bbacfff2-61fb-42fb-82ff-4277913744c3","system_id":"levelo_inurba_marseille","lat":43.295279,"lon":5.375048,"is_reserved":false,"is_disabled":false,"rental_uris":{"android":"levelo://app?vid=bbacfff2-61fb-42fb-82ff-4277913744c3","ios":"levelo://app?vid=bbacfff2-61fb-42fb-82ff-4277913744c3"},"vehicle_type_id":"4","last_reported":1700903179,"current_range_meters":28800,"station_id":"ce4bgkp2rcd13ifvqbmg","pricing_plan_id":"free"},{"bike_id":"bb1d07e5-d8fc-4050-a0fc-b4a4c34532a4","system_id":"levelo_inurba_marseille","lat":43.295279,"lon":5.375048,"is_reserved":false,"is_disabled":false,"rental_uris":{"android":"levelo://app?vid=bb1d07e5-d8fc-4050-a0fc-b4a4c34532a4","ios":"levelo://app?vid=bb1d07e5-d8fc-4050-a0fc-b4a4c34532a4"},"vehicle_type_id":"4","last_reported":1700903179,"current_range_meters":30800,"station_id":"ce4bgkp2rcd13ifvqbmg","pricing_plan_id":"free"},{"bike_id":"1a19e226-614a-4d61-9b8d-8bc0acfc13d7","system_id":"levelo_inurba_marseille","lat":43.295279,"lon":5.375048,"is_reserved":false,"is_disabled":false,"rental_uris":{"android":"levelo://app?vid=1a19e226-614a-4d61-9b8d-8bc0acfc13d7","ios":"levelo://app?vid=1a19e226-614a-4d61-9b8d-8bc0acfc13d7"},"vehicle_type_id":"4","last_reported":1700903179,"current_range_meters":20400,"station_id":"ce4bgkp2rcd13ifvqbmg","pricing_plan_id":"free"},{"bike_id":"6b621983-5e9e-42f7-990d-ad5a093820d2","system_id":"levelo_inurba_marseille","lat":43.293801,"lon":5.363066,"is_reserved":false,"is_disabled":false,"rental_uris":{"android":"levelo://app?vid=6b621983-5e9e-42f7-990d-ad5a093820d2","ios":"levelo://app?vid=6b621983-5e9e-42f7-990d-ad5a093820d2"},"vehicle_type_id":"4","last_reported":1700903179,"current_range_meters":1200,"station_id":"","pricing_plan_id":"free"},{"bike_id":"b5e0185b-342e-4a52-ac72-1e9cca22446b","system_id":"levelo_inurba_marseille","lat":43.32367,"lon":5.388836,"is_reserved":false,"is_disabled":false,"rental_uris":{"android":"levelo://app?vid=b5e0185b-342e-4a52-ac72-1e9cca22446b","ios":"levelo://app?vid=b5e0185b-342e-4a52-ac72-1e9cca22446b"},"vehicle_type_id":"4","last_reported":1700903179,"current_range_meters":26000,"station_id":"ce4bhqp2rcd13ifvqhog","pricing_plan_id":"free"},{"bike_id":"cfb8f4b3-f94a-4417-89c6-398d973a56e1","system_id":"levelo_inurba_marseille","lat":43.29601,"lon":5.381084,"is_reserved":false,"is_disabled":false,"rental_uris":{"android":"levelo://app?vid=cfb8f4b3-f94a-4417-89c6-398d973a56e1","ios":"levelo://app?vid=cfb8f4b3-f94a-4417-89c6-398d973a56e1"},"vehicle_type_id":"4","last_reported":1700903179,"current_range_meters":26000,"station_id":"ce4bgl12rcd13ifvqbo0","pricing_plan_id":"free"},{"bike_id":"e6d6bf22-c9bd-4209-937c-697c3bdd80b7","system_id":"levelo_inurba_marseille","lat":43.29601,"lon":5.381084,"is_reserved":false,"is_disabled":false,"rental_uris":{"android":"levelo://app?vid=e6d6bf22-c9bd-4209-937c-697c3bdd80b7","ios":"levelo://app?vid=e6d6bf22-c9bd-4209-937c-697c3bdd80b7"},"vehicle_type_id":"4","last_reported":1700903179,"current_range_meters":17600,"station_id":"ce4bgl12rcd13ifvqbo0","pricing_plan_id":"free"},{"bike_id":"83c49f71-644b-4857-9447-0be032df1498","system_id":"levelo_inurba_marseille","lat":43.30594,"lon":5.39357,"is_reserved":false,"is_disabled":false,"rental_uris":{"android":"levelo://app?vid=83c49f71-644b-4857-9447-0be032df1498","ios":"levelo://app?vid=83c49f71-644b-4857-9447-0be032df1498"},"vehicle_type_id":"4","last_reported":1700903179,"current_range_meters":0,"station_id":"ce4bh0p2rcd13ifvqd80","pricing_plan_id":"free"},{"bike_id":"6df92b89-d74f-4746-bfef-0882c427c845","system_id":"levelo_inurba_marseille","lat":43.305994,"lon":5.393687,"is_reserved":false,"is_disabled":false,"rental_uris":{"android":"levelo://app?vid=6df92b89-d74f-4746-bfef-0882c427c845","ios":"levelo://app?vid=6df92b89-d74f-4746-bfef-0882c427c845"},"vehicle_type_id":"4","last_reported":1700903179,"current_range_meters":26400,"station_id":"ce4bh0p2rcd13ifvqd80","pricing_plan_id":"free"},{"bike_id":"df4b10f5-c4fa-492b-a7c9-d1848394a6d7","system_id":"levelo_inurba_marseille","lat":43.305994,"lon":5.393687,"is_reserved":false,"is_disabled":false,"rental_uris":{"android":"levelo://app?vid=df4b10f5-c4fa-492b-a7c9-d1848394a6d7","ios":"levelo://app?vid=df4b10f5-c4fa-492b-a7c9-d1848394a6d7"},"vehicle_type_id":"4","last_reported":1700903179,"current_range_meters":22800,"station_id":"ce4bh0p2rcd13ifvqd80","pricing_plan_id":"free"},{"bike_id":"0ffc4078-5b01-40c2-9ced-3b3eda700fdf","system_id":"levelo_inurba_marseille","lat":43.305994,"lon":5.393687,"is_reserved":false,"is_disabled":false,"rental_uris":{"android":"levelo://app?vid=0ffc4078-5b01-40c2-9ced-3b3eda700fdf","ios":"levelo://app?vid=0ffc4078-5b01-40c2-9ced-3b3eda700fdf"},"vehicle_type_id":"4","last_reported":1700903179,"current_range_meters":27200,"station_id":"ce4bh0p2rcd13ifvqd80","pricing_plan_id":"free"},{"bike_id":"4f5d8ede-1ebb-4928-b2d8-37fd1ba199a4","system_id":"levelo_inurba_marseille","lat":43.305994,"lon":5.393687,"is_reserved":false,"is_disabled":false,"rental_uris":{"android":"levelo://app?vid=4f5d8ede-1ebb-4928-b2d8-37fd1ba199a4","ios":"levelo://app?vid=4f5d8ede-1ebb-4928-b2d8-37fd1ba199a4"},"vehicle_type_id":"4","last_reported":1700903179,"current_range_meters":30400,"station_id":"ce4bh0p2rcd13ifvqd80","pricing_plan_id":"free"},{"bike_id":"b65c7d90-c272-4240-b3ed-da874a659fba","system_id":"levelo_inurba_marseille","lat":43.2936,"lon":5.37835,"is_reserved":false,"is_disabled":false,"rental_uris":{"android":"levelo://app?vid=b65c7d90-c272-4240-b3ed-da874a659fba","ios":"levelo://app?vid=b65c7d90-c272-4240-b3ed-da874a659fba"},"vehicle_type_id":"4","last_reported":1700903179,"current_range_meters":25600,"station_id":"ce4bgjh2rcd13ifvqbf0","pricing_plan_id":"free"},{"bike_id":"197e50b5-e9b9-4c7e-a774-e295e757d93f","system_id":"levelo_inurba_marseille","lat":43.2936,"lon":5.37835,"is_reserved":false,"is_disabled":false,"rental_uris":{"android":"levelo://app?vid=197e50b5-e9b9-4c7e-a774-e295e757d93f","ios":"levelo://app?vid=197e50b5-e9b9-4c7e-a774-e295e757d93f"},"vehicle_type_id":"4","last_reported":1700903179,"current_range_meters":25600,"station_id":"ce4bgjh2rcd13ifvqbf0","pricing_plan_id":"free"},{"bike_id":"0a35d52a-6713-4e79-871c-cd3f887cbd0b","system_id":"levelo_inurba_marseille","lat":43.2936,"lon":5.37835,"is_reserved":false,"is_disabled":false,"rental_uris":{"android":"levelo://app?vid=0a35d52a-6713-4e79-871c-cd3f887cbd0b","ios":"levelo://app?vid=0a35d52a-6713-4e79-871c-cd3f887cbd0b"},"vehicle_type_id":"4","last_reported":1700903179,"current_range_meters":27600,"station_id":"ce4bgjh2rcd13ifvqbf0","pricing_plan_id":"free"},{"bike_id":"13f3d93a-dff0-4d1a-8feb-d9e1972e4a0b","system_id":"levelo_inurba_marseille","lat":43.292311,"lon":5.360731,"is_reserved":false,"is_disabled":false,"rental_uris":{"android":"levelo://app?vid=13f3d93a-dff0-4d1a-8feb-d9e1972e4a0b","ios":"levelo://app?vid=13f3d93a-dff0-4d1a-8feb-d9e1972e4a0b"},"vehicle_type_id":"4","last_reported":1700903179,"current_range_meters":27200,"station_id":"ce4bhbh2rcd13ifvqeqg","pricing_plan_id":"free"},{"bike_id":"a696677b-d887-409e-97dd-24e220d6701c","system_id":"levelo_inurba_marseille","lat":43.292311,"lon":5.360731,"is_reserved":false,"is_disabled":false,"rental_uris":{"android":"levelo://app?vid=a696677b-d887-409e-97dd-24e220d6701c","ios":"levelo://app?vid=a696677b-d887-409e-97dd-24e220d6701c"},"vehicle_type_id":"4","last_reported":1700903179,"current_range_meters":29600,"station_id":"ce4bhbh2rcd13ifvqeqg","pricing_plan_id":"free"},{"bike_id":"b6e0f47c-1a40-43ea-9a1b-34054cf445e2","system_id":"levelo_inurba_marseille","lat":43.300852,"lon":5.390859,"is_reserved":false,"is_disabled":false,"rental_uris":{"android":"levelo://app?vid=b6e0f47c-1a40-43ea-9a1b-34054cf445e2","ios":"levelo://app?vid=b6e0f47c-1a40-43ea-9a1b-34054cf445e2"},"vehicle_type_id":"4","last_reported":1700903179,"current_range_meters":26400,"station_id":"ce4bh192rcd13ifvqdb0","pricing_plan_id":"free"},{"bike_id":"b1447ccc-a0bd-4f48-a03d-c2072c3a2a9d","system_id":"levelo_inurba_marseille","lat":43.292663,"lon":5.376389,"is_reserved":false,"is_disabled":false,"rental_uris":{"android":"levelo://app?vid=b1447ccc-a0bd-4f48-a03d-c2072c3a2a9d","ios":"levelo://app?vid=b1447ccc-a0bd-4f48-a03d-c2072c3a2a9d"},"vehicle_type_id":"4","last_reported":1700903179,"current_range_meters":23200,"station_id":"ce4bgi12rcd13ifvqb80","pricing_plan_id":"free"},{"bike_id":"7a9da358-5f28-40f9-9fd7-0cf5195e2dc0","system_id":"levelo_inurba_marseille","lat":43.291671,"lon":5.371575,"is_reserved":false,"is_disabled":false,"rental_uris":{"android":"levelo://app?vid=7a9da358-5f28-40f9-9fd7-0cf5195e2dc0","ios":"levelo://app?vid=7a9da358-5f28-40f9-9fd7-0cf5195e2dc0"},"vehicle_type_id":"4","last_reported":1700903179,"current_range_meters":24800,"station_id":"ce4bha92rcd13ifvqeh0","pricing_plan_id":"free"},{"bike_id":"28999095-a641-4482-9805-cfa7ebea296e","system_id":"levelo_inurba_marseille","lat":43.291675,"lon":5.371583,"is_reserved":false,"is_disabled":false,"rental_uris":{"android":"levelo://app?vid=28999095-a641-4482-9805-cfa7ebea296e","ios":"levelo://app?vid=28999095-a641-4482-9805-cfa7ebea296e"},"vehicle_type_id":"4","last_reported":1700903179,"current_range_meters":29200,"station_id":"ce4bha92rcd13ifvqeh0","pricing_plan_id":"free"},{"bike_id":"6748fa3a-dfc6-44e4-8519-2034d9fc54de","system_id":"levelo_inurba_marseille","lat":43.30882,"lon":5.3963,"is_reserved":false,"is_disabled":false,"rental_uris":{"android":"levelo://app?vid=6748fa3a-dfc6-44e4-8519-2034d9fc54de","ios":"levelo://app?vid=6748fa3a-dfc6-44e4-8519-2034d9fc54de"},"vehicle_type_id":"4","last_reported":1700903179,"current_range_meters":31200,"station_id":"ce4bh012rcd13ifvqcv0","pricing_plan_id":"free"},{"bike_id":"7cd9be1a-99b0-41ae-9072-ad1706b74100","system_id":"levelo_inurba_marseille","lat":43.30882,"lon":5.39632,"is_reserved":false,"is_disabled":false,"rental_uris":{"android":"levelo://app?vid=7cd9be1a-99b0-41ae-9072-ad1706b74100","ios":"levelo://app?vid=7cd9be1a-99b0-41ae-9072-ad1706b74100"},"vehicle_type_id":"4","last_reported":1700903179,"current_range_meters":23200,"station_id":"ce4bh012rcd13ifvqcv0","pricing_plan_id":"free"},{"bike_id":"08e318de-e6be-4d92-bb43-f34e2aee1130","system_id":"levelo_inurba_marseille","lat":43.313291,"lon":5.396838,"is_reserved":false,"is_disabled":false,"rental_uris":{"android":"levelo://app?vid=08e318de-e6be-4d92-bb43-f34e2aee1130","ios":"levelo://app?vid=08e318de-e6be-4d92-bb43-f34e2aee1130"},"vehicle_type_id":"4","last_reported":1700903179,"current_range_meters":26000,"station_id":"ce4bgvp2rcd13ifvqcu0","pricing_plan_id":"free"},{"bike_id":"d549e28d-8ebd-4c66-a877-a4f63f03ca1a","system_id":"levelo_inurba_marseille","lat":43.30888,"lon":5.39649,"is_reserved":false,"is_disabled":false,"rental_uris":{"android":"levelo://app?vid=d549e28d-8ebd-4c66-a877-a4f63f03ca1a","ios":"levelo://app?vid=d549e28d-8ebd-4c66-a877-a4f63f03ca1a"},"vehicle_type_id":"4","last_reported":1700903179,"current_range_meters":30800,"station_id":"ce4bh012rcd13ifvqcv0","pricing_plan_id":"free"},{"bike_id":"811b560c-73ad-4229-94e8-f200ecb55f0b","system_id":"levelo_inurba_marseille","lat":43.31329,"lon":5.39696,"is_reserved":false,"is_disabled":false,"rental_uris":{"android":"levelo://app?vid=811b560c-73ad-4229-94e8-f200ecb55f0b","ios":"levelo://app?vid=811b560c-73ad-4229-94e8-f200ecb55f0b"},"vehicle_type_id":"4","last_reported":1700903179,"current_range_meters":15200,"station_id":"ce4bgvp2rcd13ifvqcu0","pricing_plan_id":"free"},{"bike_id":"6e82d0f5-eb7f-4cea-81d4-b337539bfcee","system_id":"levelo_inurba_marseille","lat":43.313291,"lon":5.396838,"is_reserved":false,"is_disabled":false,"rental_uris":{"android":"levelo://app?vid=6e82d0f5-eb7f-4cea-81d4-b337539bfcee","ios":"levelo://app?vid=6e82d0f5-eb7f-4cea-81d4-b337539bfcee"},"vehicle_type_id":"4","last_reported":1700903179,"current_range_meters":18400,"station_id":"ce4bgvp2rcd13ifvqcu0","pricing_plan_id":"free"},{"bike_id":"1d10a1b1-d55f-4279-928a-9c6858f32ca9","system_id":"levelo_inurba_marseille","lat":43.33211,"lon":5.38112,"is_reserved":false,"is_disabled":false,"rental_uris":{"android":"levelo://app?vid=1d10a1b1-d55f-4279-928a-9c6858f32ca9","ios":"levelo://app?vid=1d10a1b1-d55f-4279-928a-9c6858f32ca9"},"vehicle_type_id":"4","last_reported":1700903179,"current_range_meters":0,"station_id":"","pricing_plan_id":"free"},{"bike_id":"fcdf30a5-019e-4d57-b841-bb9f50e605dc","system_id":"levelo_inurba_marseille","lat":43.29529,"lon":5.385581,"is_reserved":false,"is_disabled":false,"rental_uris":{"android":"levelo://app?vid=fcdf30a5-019e-4d57-b841-bb9f50e605dc","ios":"levelo://app?vid=fcdf30a5-019e-4d57-b841-bb9f50e605dc"},"vehicle_type_id":"4","last_reported":1700903179,"current_range_meters":14800,"station_id":"ce4bgih2rcd13ifvqba0","pricing_plan_id":"free"},{"bike_id":"ef0f309a-a7e2-46b1-94b1-23b6be0c5271","system_id":"levelo_inurba_marseille","lat":43.290779,"lon":5.371482,"is_reserved":false,"is_disabled":false,"rental_uris":{"android":"levelo://app?vid=ef0f309a-a7e2-46b1-94b1-23b6be0c5271","ios":"levelo://app?vid=ef0f309a-a7e2-46b1-94b1-23b6be0c5271"},"vehicle_type_id":"4","last_reported":1700903179,"current_range_meters":20800,"station_id":"ce4bh5p2rcd13ifvqe4g","pricing_plan_id":"free"},{"bike_id":"aa11cd85-cdf8-4967-b712-aa84c7df2ea9","system_id":"levelo_inurba_marseille","lat":43.290624,"lon":5.359245,"is_reserved":false,"is_disabled":false,"rental_uris":{"android":"levelo://app?vid=aa11cd85-cdf8-4967-b712-aa84c7df2ea9","ios":"levelo://app?vid=aa11cd85-cdf8-4967-b712-aa84c7df2ea9"},"vehicle_type_id":"4","last_reported":1700903179,"current_range_meters":24800,"station_id":"ce4bha92rcd13ifvqeg0","pricing_plan_id":"free"},{"bike_id":"b14ce939-ebff-4623-859d-94eae85bc418","system_id":"levelo_inurba_marseille","lat":43.290297,"lon":5.359199,"is_reserved":false,"is_disabled":false,"rental_uris":{"android":"levelo://app?vid=b14ce939-ebff-4623-859d-94eae85bc418","ios":"levelo://app?vid=b14ce939-ebff-4623-859d-94eae85bc418"},"vehicle_type_id":"4","last_reported":1700903179,"current_range_meters":6000,"station_id":"","pricing_plan_id":"free"},{"bike_id":"bc9d849a-de2c-4c58-ab9a-0e05e505f625","system_id":"levelo_inurba_marseille","lat":43.290327,"lon":5.375711,"is_reserved":false,"is_disabled":false,"rental_uris":{"android":"levelo://app?vid=bc9d849a-de2c-4c58-ab9a-0e05e505f625","ios":"levelo://app?vid=bc9d849a-de2c-4c58-ab9a-0e05e505f625"},"vehicle_type_id":"4","last_reported":1700903179,"current_range_meters":21200,"station_id":"ce4bh692rcd13ifvqe90","pricing_plan_id":"free"},{"bike_id":"331aef77-56d6-4fee-9c17-34458dbe9d2b","system_id":"levelo_inurba_marseille","lat":43.28939,"lon":5.364,"is_reserved":false,"is_disabled":false,"rental_uris":{"android":"levelo://app?vid=331aef77-56d6-4fee-9c17-34458dbe9d2b","ios":"levelo://app?vid=331aef77-56d6-4fee-9c17-34458dbe9d2b"},"vehicle_type_id":"4","last_reported":1700903179,"current_range_meters":30000,"station_id":"ce4bhc92rcd13ifvqetg","pricing_plan_id":"free"},{"bike_id":"46919551-4c46-4558-8995-2ce54bb6ba88","system_id":"levelo_inurba_marseille","lat":43.289743,"lon":5.378304,"is_reserved":false,"is_disabled":false,"rental_uris":{"android":"levelo://app?vid=46919551-4c46-4558-8995-2ce54bb6ba88","ios":"levelo://app?vid=46919551-4c46-4558-8995-2ce54bb6ba88"},"vehicle_type_id":"4","last_reported":1700903179,"current_range_meters":30800,"station_id":"ce4bh9p2rcd13ifvqed0","pricing_plan_id":"free"},{"bike_id":"a6bc42bc-9ba8-4283-95ec-bb6cd4250da8","system_id":"levelo_inurba_marseille","lat":43.289743,"lon":5.378304,"is_reserved":false,"is_disabled":false,"rental_uris":{"android":"levelo://app?vid=a6bc42bc-9ba8-4283-95ec-bb6cd4250da8","ios":"levelo://app?vid=a6bc42bc-9ba8-4283-95ec-bb6cd4250da8"},"vehicle_type_id":"4","last_reported":1700903179,"current_range_meters":22800,"station_id":"ce4bh9p2rcd13ifvqed0","pricing_plan_id":"free"},{"bike_id":"286a7d2a-184a-4246-8a9b-4edc8c07808f","system_id":"levelo_inurba_marseille","lat":43.290094,"lon":5.381264,"is_reserved":false,"is_disabled":false,"rental_uris":{"android":"levelo://app?vid=286a7d2a-184a-4246-8a9b-4edc8c07808f","ios":"levelo://app?vid=286a7d2a-184a-4246-8a9b-4edc8c07808f"},"vehicle_type_id":"4","last_reported":1700903179,"current_range_meters":24800,"station_id":"ce4bh4p2rcd13ifvqe1g","pricing_plan_id":"free"},{"bike_id":"6d3380cd-34a6-405f-9e14-9dfad01eb06b","system_id":"levelo_inurba_marseille","lat":43.312609,"lon":5.401662,"is_reserved":false,"is_disabled":false,"rental_uris":{"android":"levelo://app?vid=6d3380cd-34a6-405f-9e14-9dfad01eb06b","ios":"levelo://app?vid=6d3380cd-34a6-405f-9e14-9dfad01eb06b"},"vehicle_type_id":"4","last_reported":1700903179,"current_range_meters":26400,"station_id":"ce4bh092rcd13ifvqd30","pricing_plan_id":"free"},{"bike_id":"a38b6c82-fffa-4504-b18a-b2d18abb5759","system_id":"levelo_inurba_marseille","lat":43.286591,"lon":5.363346,"is_reserved":false,"is_disabled":false,"rental_uris":{"android":"levelo://app?vid=a38b6c82-fffa-4504-b18a-b2d18abb5759","ios":"levelo://app?vid=a38b6c82-fffa-4504-b18a-b2d18abb5759"},"vehicle_type_id":"4","last_reported":1700903179,"current_range_meters":18800,"station_id":"ce4bhah2rcd13ifvqej0","pricing_plan_id":"free"},{"bike_id":"5be12b77-60f5-48c7-9d25-be5536769985","system_id":"levelo_inurba_marseille","lat":43.298681,"lon":5.397225,"is_reserved":false,"is_disabled":false,"rental_uris":{"android":"levelo://app?vid=5be12b77-60f5-48c7-9d25-be5536769985","ios":"levelo://app?vid=5be12b77-60f5-48c7-9d25-be5536769985"},"vehicle_type_id":"4","last_reported":1700903179,"current_range_meters":20400,"station_id":"ce4bh0h2rcd13ifvqd50","pricing_plan_id":"free"},{"bike_id":"fb2ab89a-a607-4633-bdee-ab9fb021c23f","system_id":"levelo_inurba_marseille","lat":43.298681,"lon":5.397225,"is_reserved":false,"is_disabled":false,"rental_uris":{"android":"levelo://app?vid=fb2ab89a-a607-4633-bdee-ab9fb021c23f","ios":"levelo://app?vid=fb2ab89a-a607-4633-bdee-ab9fb021c23f"},"vehicle_type_id":"4","last_reported":1700903179,"current_range_meters":28000,"station_id":"ce4bh0h2rcd13ifvqd50","pricing_plan_id":"free"},{"bike_id":"0c2b0085-98c9-4fd1-b67e-063492939259","system_id":"levelo_inurba_marseille","lat":43.298681,"lon":5.397225,"is_reserved":false,"is_disabled":false,"rental_uris":{"android":"levelo://app?vid=0c2b0085-98c9-4fd1-b67e-063492939259","ios":"levelo://app?vid=0c2b0085-98c9-4fd1-b67e-063492939259"},"vehicle_type_id":"4","last_reported":1700903179,"current_range_meters":3200,"station_id":"ce4bh0h2rcd13ifvqd50","pricing_plan_id":"free"},{"bike_id":"0bdba9d9-d0bb-4fca-8f63-9a9cf684d57c","system_id":"levelo_inurba_marseille","lat":43.286039,"lon":5.370679,"is_reserved":false,"is_disabled":false,"rental_uris":{"android":"levelo://app?vid=0bdba9d9-d0bb-4fca-8f63-9a9cf684d57c","ios":"levelo://app?vid=0bdba9d9-d0bb-4fca-8f63-9a9cf684d57c"},"vehicle_type_id":"4","last_reported":1700903179,"current_range_meters":24800,"station_id":"ce4bht12rcd13ifvqi60","pricing_plan_id":"free"},{"bike_id":"a114aae6-8ceb-4886-b20a-6780de28c969","system_id":"levelo_inurba_marseille","lat":43.286039,"lon":5.370679,"is_reserved":false,"is_disabled":false,"rental_uris":{"android":"levelo://app?vid=a114aae6-8ceb-4886-b20a-6780de28c969","ios":"levelo://app?vid=a114aae6-8ceb-4886-b20a-6780de28c969"},"vehicle_type_id":"4","last_reported":1700903179,"current_range_meters":30800,"station_id":"ce4bht12rcd13ifvqi60","pricing_plan_id":"free"},{"bike_id":"5a59fb82-b826-494f-9bf0-d5372d5ab734","system_id":"levelo_inurba_marseille","lat":43.287128,"lon":5.379477,"is_reserved":false,"is_disabled":false,"rental_uris":{"android":"levelo://app?vid=5a59fb82-b826-494f-9bf0-d5372d5ab734","ios":"levelo://app?vid=5a59fb82-b826-494f-9bf0-d5372d5ab734"},"vehicle_type_id":"4","last_reported":1700903179,"current_range_meters":7600,"station_id":"ce4bh9p2rcd13ifvqec0","pricing_plan_id":"free"},{"bike_id":"bd7806b1-cdf2-4a1e-b5e0-df163e1f8f4c","system_id":"levelo_inurba_marseille","lat":43.2846,"lon":5.35887,"is_reserved":false,"is_disabled":false,"rental_uris":{"android":"levelo://app?vid=bd7806b1-cdf2-4a1e-b5e0-df163e1f8f4c","ios":"levelo://app?vid=bd7806b1-cdf2-4a1e-b5e0-df163e1f8f4c"},"vehicle_type_id":"4","last_reported":1700903179,"current_range_meters":21200,"station_id":"ce4bhah2rcd13ifvqei0","pricing_plan_id":"free"},{"bike_id":"ee4891d5-a13a-49e9-80b2-724d3220b9c2","system_id":"levelo_inurba_marseille","lat":43.28458,"lon":5.35885,"is_reserved":false,"is_disabled":false,"rental_uris":{"android":"levelo://app?vid=ee4891d5-a13a-49e9-80b2-724d3220b9c2","ios":"levelo://app?vid=ee4891d5-a13a-49e9-80b2-724d3220b9c2"},"vehicle_type_id":"4","last_reported":1700903179,"current_range_meters":21200,"station_id":"ce4bhah2rcd13ifvqei0","pricing_plan_id":"free"},{"bike_id":"bec460e9-8bd7-4de2-b033-6f6fc15d3b46","system_id":"levelo_inurba_marseille","lat":43.28457,"lon":5.35887,"is_reserved":false,"is_disabled":false,"rental_uris":{"android":"levelo://app?vid=bec460e9-8bd7-4de2-b033-6f6fc15d3b46","ios":"levelo://app?vid=bec460e9-8bd7-4de2-b033-6f6fc15d3b46"},"vehicle_type_id":"4","last_reported":1700903179,"current_range_meters":30800,"station_id":"ce4bhah2rcd13ifvqei0","pricing_plan_id":"free"},{"bike_id":"61cc7b97-d233-4710-86c8-d385a58acb08","system_id":"levelo_inurba_marseille","lat":43.284534,"lon":5.358662,"is_reserved":false,"is_disabled":false,"rental_uris":{"android":"levelo://app?vid=61cc7b97-d233-4710-86c8-d385a58acb08","ios":"levelo://app?vid=61cc7b97-d233-4710-86c8-d385a58acb08"},"vehicle_type_id":"4","last_reported":1700903179,"current_range_meters":31200,"station_id":"ce4bhah2rcd13ifvqei0","pricing_plan_id":"free"},{"bike_id":"464fb64a-e97b-4368-9517-d9757701de11","system_id":"levelo_inurba_marseille","lat":43.28624,"lon":5.35101,"is_reserved":false,"is_disabled":false,"rental_uris":{"android":"levelo://app?vid=464fb64a-e97b-4368-9517-d9757701de11","ios":"levelo://app?vid=464fb64a-e97b-4368-9517-d9757701de11"},"vehicle_type_id":"4","last_reported":1700903179,"current_range_meters":26400,"station_id":"ce4bhch2rcd13ifvqeug","pricing_plan_id":"free"},{"bike_id":"0659d491-e5a1-4057-8389-a0d7efdd059b","system_id":"levelo_inurba_marseille","lat":43.28618,"lon":5.35103,"is_reserved":false,"is_disabled":false,"rental_uris":{"android":"levelo://app?vid=0659d491-e5a1-4057-8389-a0d7efdd059b","ios":"levelo://app?vid=0659d491-e5a1-4057-8389-a0d7efdd059b"},"vehicle_type_id":"4","last_reported":1700903179,"current_range_meters":30800,"station_id":"ce4bhch2rcd13ifvqeug","pricing_plan_id":"free"},{"bike_id":"01c3ce8c-a919-4bde-a4f1-921293fc4f35","system_id":"levelo_inurba_marseille","lat":43.28612,"lon":5.35105,"is_reserved":false,"is_disabled":false,"rental_uris":{"android":"levelo://app?vid=01c3ce8c-a919-4bde-a4f1-921293fc4f35","ios":"levelo://app?vid=01c3ce8c-a919-4bde-a4f1-921293fc4f35"},"vehicle_type_id":"4","last_reported":1700903179,"current_range_meters":18400,"station_id":"ce4bhch2rcd13ifvqeug","pricing_plan_id":"free"},{"bike_id":"e60f3eb0-15c4-43b6-91a1-0cb634e3f378","system_id":"levelo_inurba_marseille","lat":43.285856,"lon":5.350771,"is_reserved":false,"is_disabled":false,"rental_uris":{"android":"levelo://app?vid=e60f3eb0-15c4-43b6-91a1-0cb634e3f378","ios":"levelo://app?vid=e60f3eb0-15c4-43b6-91a1-0cb634e3f378"},"vehicle_type_id":"4","last_reported":1700903179,"current_range_meters":22000,"station_id":"ce4bhch2rcd13ifvqeug","pricing_plan_id":"free"},{"bike_id":"60fb846c-95d4-493d-8ff0-fc77dde513c4","system_id":"levelo_inurba_marseille","lat":43.33717,"lon":5.391857,"is_reserved":false,"is_disabled":false,"rental_uris":{"android":"levelo://app?vid=60fb846c-95d4-493d-8ff0-fc77dde513c4","ios":"levelo://app?vid=60fb846c-95d4-493d-8ff0-fc77dde513c4"},"vehicle_type_id":"4","last_reported":1700903179,"current_range_meters":31200,"station_id":"ce4bhr92rcd13ifvqhsg","pricing_plan_id":"free"},{"bike_id":"88bb355f-c8f4-47cf-976f-181a9f95e494","system_id":"levelo_inurba_marseille","lat":43.28473,"lon":5.38412,"is_reserved":false,"is_disabled":false,"rental_uris":{"android":"levelo://app?vid=88bb355f-c8f4-47cf-976f-181a9f95e494","ios":"levelo://app?vid=88bb355f-c8f4-47cf-976f-181a9f95e494"},"vehicle_type_id":"4","last_reported":1700903179,"current_range_meters":26800,"station_id":"ce4bh512rcd13ifvqe3g","pricing_plan_id":"free"},{"bike_id":"7ed68669-0f74-4ee9-ab72-301a3b65d8be","system_id":"levelo_inurba_marseille","lat":43.284219,"lon":5.3497,"is_reserved":false,"is_disabled":false,"rental_uris":{"android":"levelo://app?vid=7ed68669-0f74-4ee9-ab72-301a3b65d8be","ios":"levelo://app?vid=7ed68669-0f74-4ee9-ab72-301a3b65d8be"},"vehicle_type_id":"4","last_reported":1700903179,"current_range_meters":30000,"station_id":"ce4bhbh2rcd13ifvqepg","pricing_plan_id":"free"},{"bike_id":"e2284003-4e46-4e0a-93e7-73d05c3666d9","system_id":"levelo_inurba_marseille","lat":43.33508,"lon":5.397755,"is_reserved":false,"is_disabled":false,"rental_uris":{"android":"levelo://app?vid=e2284003-4e46-4e0a-93e7-73d05c3666d9","ios":"levelo://app?vid=e2284003-4e46-4e0a-93e7-73d05c3666d9"},"vehicle_type_id":"4","last_reported":1700903179,"current_range_meters":23200,"station_id":"","pricing_plan_id":"free"},{"bike_id":"a0513cbe-1f28-425f-aec2-068e863b5b76","system_id":"levelo_inurba_marseille","lat":43.282674,"lon":5.350845,"is_reserved":false,"is_disabled":false,"rental_uris":{"android":"levelo://app?vid=a0513cbe-1f28-425f-aec2-068e863b5b76","ios":"levelo://app?vid=a0513cbe-1f28-425f-aec2-068e863b5b76"},"vehicle_type_id":"4","last_reported":1700903179,"current_range_meters":25600,"station_id":"ce4bhbp2rcd13ifvqerg","pricing_plan_id":"free"},{"bike_id":"89d3002a-936f-492d-bba4-96fa740cc32c","system_id":"levelo_inurba_marseille","lat":43.283502,"lon":5.386471,"is_reserved":false,"is_disabled":false,"rental_uris":{"android":"levelo://app?vid=89d3002a-936f-492d-bba4-96fa740cc32c","ios":"levelo://app?vid=89d3002a-936f-492d-bba4-96fa740cc32c"},"vehicle_type_id":"4","last_reported":1700903179,"current_range_meters":24800,"station_id":"ce4bh492rcd13ifvqdvg","pricing_plan_id":"free"},{"bike_id":"0a18882a-f245-4271-b2f9-ea195ac1d29f","system_id":"levelo_inurba_marseille","lat":43.28261,"lon":5.35068,"is_reserved":false,"is_disabled":false,"rental_uris":{"android":"levelo://app?vid=0a18882a-f245-4271-b2f9-ea195ac1d29f","ios":"levelo://app?vid=0a18882a-f245-4271-b2f9-ea195ac1d29f"},"vehicle_type_id":"4","last_reported":1700903179,"current_range_meters":24800,"station_id":"ce4bhbp2rcd13ifvqerg","pricing_plan_id":"free"},{"bike_id":"92af5a52-3ab4-44de-aff9-defbc1fddbe3","system_id":"levelo_inurba_marseille","lat":43.28039,"lon":5.369297,"is_reserved":false,"is_disabled":false,"rental_uris":{"android":"levelo://app?vid=92af5a52-3ab4-44de-aff9-defbc1fddbe3","ios":"levelo://app?vid=92af5a52-3ab4-44de-aff9-defbc1fddbe3"},"vehicle_type_id":"4","last_reported":1700903179,"current_range_meters":13200,"station_id":"ce4bha12rcd13ifvqef0","pricing_plan_id":"free"},{"bike_id":"09a88198-c1d5-46a8-9a74-3393cd531e27","system_id":"levelo_inurba_marseille","lat":43.28039,"lon":5.369297,"is_reserved":false,"is_disabled":false,"rental_uris":{"android":"levelo://app?vid=09a88198-c1d5-46a8-9a74-3393cd531e27","ios":"levelo://app?vid=09a88198-c1d5-46a8-9a74-3393cd531e27"},"vehicle_type_id":"4","last_reported":1700903179,"current_range_meters":31200,"station_id":"ce4bha12rcd13ifvqef0","pricing_plan_id":"free"},{"bike_id":"1ffceedc-796d-43e9-ba0e-2a29448ac059","system_id":"levelo_inurba_marseille","lat":43.290401,"lon":5.399825,"is_reserved":false,"is_disabled":false,"rental_uris":{"android":"levelo://app?vid=1ffceedc-796d-43e9-ba0e-2a29448ac059","ios":"levelo://app?vid=1ffceedc-796d-43e9-ba0e-2a29448ac059"},"vehicle_type_id":"4","last_reported":1700903179,"current_range_meters":0,"station_id":"ce4bh392rcd13ifvqdm0","pricing_plan_id":"free"},{"bike_id":"9cf9215b-a0c9-4021-8187-1204df65034d","system_id":"levelo_inurba_marseille","lat":43.281044,"lon":5.378308,"is_reserved":false,"is_disabled":false,"rental_uris":{"android":"levelo://app?vid=9cf9215b-a0c9-4021-8187-1204df65034d","ios":"levelo://app?vid=9cf9215b-a0c9-4021-8187-1204df65034d"},"vehicle_type_id":"4","last_reported":1700903179,"current_range_meters":24800,"station_id":"ce4bha12rcd13ifvqee0","pricing_plan_id":"free"},{"bike_id":"8a693070-4534-4871-9e3c-e44c02d1d577","system_id":"levelo_inurba_marseille","lat":43.285742,"lon":5.395004,"is_reserved":false,"is_disabled":false,"rental_uris":{"android":"levelo://app?vid=8a693070-4534-4871-9e3c-e44c02d1d577","ios":"levelo://app?vid=8a693070-4534-4871-9e3c-e44c02d1d577"},"vehicle_type_id":"4","last_reported":1700903179,"current_range_meters":23600,"station_id":"ce4bh292rcd13ifvqdg0","pricing_plan_id":"free"},{"bike_id":"80884e53-cad8-4161-bbf7-12408a1c3b80","system_id":"levelo_inurba_marseille","lat":43.304188,"lon":5.412904,"is_reserved":false,"is_disabled":false,"rental_uris":{"android":"levelo://app?vid=80884e53-cad8-4161-bbf7-12408a1c3b80","ios":"levelo://app?vid=80884e53-cad8-4161-bbf7-12408a1c3b80"},"vehicle_type_id":"4","last_reported":1700903179,"current_range_meters":22400,"station_id":"ce4bhop2rcd13ifvqh8g","pricing_plan_id":"free"},{"bike_id":"c25ea147-e804-4786-9d25-91f61a8ed59a","system_id":"levelo_inurba_marseille","lat":43.293651,"lon":5.41268,"is_reserved":false,"is_disabled":false,"rental_uris":{"android":"levelo://app?vid=c25ea147-e804-4786-9d25-91f61a8ed59a","ios":"levelo://app?vid=c25ea147-e804-4786-9d25-91f61a8ed59a"},"vehicle_type_id":"4","last_reported":1700903179,"current_range_meters":0,"station_id":"","pricing_plan_id":"free"},{"bike_id":"57395c6d-8375-485a-a945-4288be678215","system_id":"levelo_inurba_marseille","lat":43.275625,"lon":5.384392,"is_reserved":false,"is_disabled":false,"rental_uris":{"android":"levelo://app?vid=57395c6d-8375-485a-a945-4288be678215","ios":"levelo://app?vid=57395c6d-8375-485a-a945-4288be678215"},"vehicle_type_id":"4","last_reported":1700903179,"current_range_meters":18000,"station_id":"ce4bhh92rcd13ifvqfi0","pricing_plan_id":"free"},{"bike_id":"46a0d812-914b-4fda-aa78-96b897c6079c","system_id":"levelo_inurba_marseille","lat":43.275625,"lon":5.384392,"is_reserved":false,"is_disabled":false,"rental_uris":{"android":"levelo://app?vid=46a0d812-914b-4fda-aa78-96b897c6079c","ios":"levelo://app?vid=46a0d812-914b-4fda-aa78-96b897c6079c"},"vehicle_type_id":"4","last_reported":1700903179,"current_range_meters":14800,"station_id":"ce4bhh92rcd13ifvqfi0","pricing_plan_id":"free"},{"bike_id":"5ce43f54-1696-45c6-bfd2-edc199d12bbd","system_id":"levelo_inurba_marseille","lat":43.275625,"lon":5.384392,"is_reserved":false,"is_disabled":false,"rental_uris":{"android":"levelo://app?vid=5ce43f54-1696-45c6-bfd2-edc199d12bbd","ios":"levelo://app?vid=5ce43f54-1696-45c6-bfd2-edc199d12bbd"},"vehicle_type_id":"4","last_reported":1700903179,"current_range_meters":7600,"station_id":"ce4bhh92rcd13ifvqfi0","pricing_plan_id":"free"},{"bike_id":"561d56c0-616a-4955-bd15-b0e0ddd3d6ba","system_id":"levelo_inurba_marseille","lat":43.279952,"lon":5.400085,"is_reserved":false,"is_disabled":false,"rental_uris":{"android":"levelo://app?vid=561d56c0-616a-4955-bd15-b0e0ddd3d6ba","ios":"levelo://app?vid=561d56c0-616a-4955-bd15-b0e0ddd3d6ba"},"vehicle_type_id":"4","last_reported":1700903179,"current_range_meters":30800,"station_id":"ce4bho92rcd13ifvqh4g","pricing_plan_id":"free"},{"bike_id":"2aba52bf-9cdb-4dd3-a1ea-4c8b2bed0e7d","system_id":"levelo_inurba_marseille","lat":43.279952,"lon":5.400085,"is_reserved":false,"is_disabled":false,"rental_uris":{"android":"levelo://app?vid=2aba52bf-9cdb-4dd3-a1ea-4c8b2bed0e7d","ios":"levelo://app?vid=2aba52bf-9cdb-4dd3-a1ea-4c8b2bed0e7d"},"vehicle_type_id":"4","last_reported":1700903179,"current_range_meters":8000,"station_id":"ce4bho92rcd13ifvqh4g","pricing_plan_id":"free"},{"bike_id":"0826ab7c-a73f-40ed-b55c-b0d32a900d4a","system_id":"levelo_inurba_marseille","lat":43.279952,"lon":5.400085,"is_reserved":false,"is_disabled":false,"rental_uris":{"android":"levelo://app?vid=0826ab7c-a73f-40ed-b55c-b0d32a900d4a","ios":"levelo://app?vid=0826ab7c-a73f-40ed-b55c-b0d32a900d4a"},"vehicle_type_id":"4","last_reported":1700903179,"current_range_meters":19600,"station_id":"ce4bho92rcd13ifvqh4g","pricing_plan_id":"free"},{"bike_id":"e481d63d-28ee-4a2e-a936-78588bbb0cb7","system_id":"levelo_inurba_marseille","lat":43.273125,"lon":5.390731,"is_reserved":false,"is_disabled":false,"rental_uris":{"android":"levelo://app?vid=e481d63d-28ee-4a2e-a936-78588bbb0cb7","ios":"levelo://app?vid=e481d63d-28ee-4a2e-a936-78588bbb0cb7"},"vehicle_type_id":"4","last_reported":1700903179,"current_range_meters":26800,"station_id":"ce4bhgp2rcd13ifvqfe0","pricing_plan_id":"free"},{"bike_id":"19764068-8b76-4287-bc02-0bcf25178cd3","system_id":"levelo_inurba_marseille","lat":43.30422,"lon":5.42519,"is_reserved":false,"is_disabled":false,"rental_uris":{"android":"levelo://app?vid=19764068-8b76-4287-bc02-0bcf25178cd3","ios":"levelo://app?vid=19764068-8b76-4287-bc02-0bcf25178cd3"},"vehicle_type_id":"4","last_reported":1700903179,"current_range_meters":11200,"station_id":"ce4bhoh2rcd13ifvqh6g","pricing_plan_id":"free"},{"bike_id":"d617807c-32fa-4a81-8852-d232b7257f2e","system_id":"levelo_inurba_marseille","lat":43.304096,"lon":5.425385,"is_reserved":false,"is_disabled":false,"rental_uris":{"android":"levelo://app?vid=d617807c-32fa-4a81-8852-d232b7257f2e","ios":"levelo://app?vid=d617807c-32fa-4a81-8852-d232b7257f2e"},"vehicle_type_id":"4","last_reported":1700903179,"current_range_meters":26400,"station_id":"ce4bhoh2rcd13ifvqh6g","pricing_plan_id":"free"},{"bike_id":"118822d8-6e1e-4e74-a488-66c0b9bac4ea","system_id":"levelo_inurba_marseille","lat":43.295511,"lon":5.422926,"is_reserved":false,"is_disabled":false,"rental_uris":{"android":"levelo://app?vid=118822d8-6e1e-4e74-a488-66c0b9bac4ea","ios":"levelo://app?vid=118822d8-6e1e-4e74-a488-66c0b9bac4ea"},"vehicle_type_id":"4","last_reported":1700903179,"current_range_meters":20400,"station_id":"ce4bhph2rcd13ifvqhdg","pricing_plan_id":"free"},{"bike_id":"c0e7c921-2f34-4325-9644-1440c95e11ac","system_id":"levelo_inurba_marseille","lat":43.295523,"lon":5.422926,"is_reserved":false,"is_disabled":false,"rental_uris":{"android":"levelo://app?vid=c0e7c921-2f34-4325-9644-1440c95e11ac","ios":"levelo://app?vid=c0e7c921-2f34-4325-9644-1440c95e11ac"},"vehicle_type_id":"4","last_reported":1700903179,"current_range_meters":27200,"station_id":"ce4bhph2rcd13ifvqhdg","pricing_plan_id":"free"},{"bike_id":"39ba2a28-4e45-47ae-b54e-2e865e84aa2a","system_id":"levelo_inurba_marseille","lat":43.295523,"lon":5.422926,"is_reserved":false,"is_disabled":false,"rental_uris":{"android":"levelo://app?vid=39ba2a28-4e45-47ae-b54e-2e865e84aa2a","ios":"levelo://app?vid=39ba2a28-4e45-47ae-b54e-2e865e84aa2a"},"vehicle_type_id":"4","last_reported":1700903179,"current_range_meters":26800,"station_id":"ce4bhph2rcd13ifvqhdg","pricing_plan_id":"free"},{"bike_id":"9f3ea0ae-761e-43b1-ad64-979f3efc0236","system_id":"levelo_inurba_marseille","lat":43.295511,"lon":5.422926,"is_reserved":false,"is_disabled":false,"rental_uris":{"android":"levelo://app?vid=9f3ea0ae-761e-43b1-ad64-979f3efc0236","ios":"levelo://app?vid=9f3ea0ae-761e-43b1-ad64-979f3efc0236"},"vehicle_type_id":"4","last_reported":1700903179,"current_range_meters":22400,"station_id":"ce4bhph2rcd13ifvqhdg","pricing_plan_id":"free"},{"bike_id":"58636f9d-7758-4e31-a17e-c4e04578fa5d","system_id":"levelo_inurba_marseille","lat":43.295523,"lon":5.422926,"is_reserved":false,"is_disabled":false,"rental_uris":{"android":"levelo://app?vid=58636f9d-7758-4e31-a17e-c4e04578fa5d","ios":"levelo://app?vid=58636f9d-7758-4e31-a17e-c4e04578fa5d"},"vehicle_type_id":"4","last_reported":1700903179,"current_range_meters":18800,"station_id":"ce4bhph2rcd13ifvqhdg","pricing_plan_id":"free"},{"bike_id":"ec3d03da-78c9-4642-80f1-267154a38bb0","system_id":"levelo_inurba_marseille","lat":43.295511,"lon":5.422926,"is_reserved":false,"is_disabled":false,"rental_uris":{"android":"levelo://app?vid=ec3d03da-78c9-4642-80f1-267154a38bb0","ios":"levelo://app?vid=ec3d03da-78c9-4642-80f1-267154a38bb0"},"vehicle_type_id":"4","last_reported":1700903179,"current_range_meters":31200,"station_id":"ce4bhph2rcd13ifvqhdg","pricing_plan_id":"free"},{"bike_id":"9830637b-caf5-476f-85b7-c02033487ff2","system_id":"levelo_inurba_marseille","lat":43.295511,"lon":5.422926,"is_reserved":false,"is_disabled":false,"rental_uris":{"android":"levelo://app?vid=9830637b-caf5-476f-85b7-c02033487ff2","ios":"levelo://app?vid=9830637b-caf5-476f-85b7-c02033487ff2"},"vehicle_type_id":"4","last_reported":1700903179,"current_range_meters":31200,"station_id":"ce4bhph2rcd13ifvqhdg","pricing_plan_id":"free"},{"bike_id":"6d892d9f-8bb7-466b-91e4-6b4cd5e06b20","system_id":"levelo_inurba_marseille","lat":43.295511,"lon":5.422926,"is_reserved":false,"is_disabled":false,"rental_uris":{"android":"levelo://app?vid=6d892d9f-8bb7-466b-91e4-6b4cd5e06b20","ios":"levelo://app?vid=6d892d9f-8bb7-466b-91e4-6b4cd5e06b20"},"vehicle_type_id":"4","last_reported":1700903179,"current_range_meters":25200,"station_id":"ce4bhph2rcd13ifvqhdg","pricing_plan_id":"free"},{"bike_id":"60384595-5838-46d3-8ef9-ce34760ba3f9","system_id":"levelo_inurba_marseille","lat":43.295511,"lon":5.422926,"is_reserved":false,"is_disabled":false,"rental_uris":{"android":"levelo://app?vid=60384595-5838-46d3-8ef9-ce34760ba3f9","ios":"levelo://app?vid=60384595-5838-46d3-8ef9-ce34760ba3f9"},"vehicle_type_id":"4","last_reported":1700903179,"current_range_meters":31200,"station_id":"ce4bhph2rcd13ifvqhdg","pricing_plan_id":"free"},{"bike_id":"19af744c-b319-43d8-b5d6-6ef7c8fe9f3c","system_id":"levelo_inurba_marseille","lat":43.278128,"lon":5.407195,"is_reserved":false,"is_disabled":false,"rental_uris":{"android":"levelo://app?vid=19af744c-b319-43d8-b5d6-6ef7c8fe9f3c","ios":"levelo://app?vid=19af744c-b319-43d8-b5d6-6ef7c8fe9f3c"},"vehicle_type_id":"4","last_reported":1700903179,"current_range_meters":15600,"station_id":"ce4bhnh2rcd13ifvqgtg","pricing_plan_id":"free"},{"bike_id":"d3fe5ce2-2ed0-4ed2-a865-bef0657ed2d6","system_id":"levelo_inurba_marseille","lat":43.278128,"lon":5.407195,"is_reserved":false,"is_disabled":false,"rental_uris":{"android":"levelo://app?vid=d3fe5ce2-2ed0-4ed2-a865-bef0657ed2d6","ios":"levelo://app?vid=d3fe5ce2-2ed0-4ed2-a865-bef0657ed2d6"},"vehicle_type_id":"4","last_reported":1700903179,"current_range_meters":21600,"station_id":"ce4bhnh2rcd13ifvqgtg","pricing_plan_id":"free"},{"bike_id":"f8571973-6b4b-4432-a83c-92d5c5556f47","system_id":"levelo_inurba_marseille","lat":43.278128,"lon":5.407195,"is_reserved":false,"is_disabled":false,"rental_uris":{"android":"levelo://app?vid=f8571973-6b4b-4432-a83c-92d5c5556f47","ios":"levelo://app?vid=f8571973-6b4b-4432-a83c-92d5c5556f47"},"vehicle_type_id":"4","last_reported":1700903179,"current_range_meters":27600,"station_id":"ce4bhnh2rcd13ifvqgtg","pricing_plan_id":"free"},{"bike_id":"c905bedc-26ad-48f7-8ea3-95f9a5f09740","system_id":"levelo_inurba_marseille","lat":43.278128,"lon":5.407195,"is_reserved":false,"is_disabled":false,"rental_uris":{"android":"levelo://app?vid=c905bedc-26ad-48f7-8ea3-95f9a5f09740","ios":"levelo://app?vid=c905bedc-26ad-48f7-8ea3-95f9a5f09740"},"vehicle_type_id":"4","last_reported":1700903179,"current_range_meters":24800,"station_id":"ce4bhnh2rcd13ifvqgtg","pricing_plan_id":"free"},{"bike_id":"36427495-5867-4b09-a78d-61ef8361629f","system_id":"levelo_inurba_marseille","lat":43.269467,"lon":5.386439,"is_reserved":false,"is_disabled":false,"rental_uris":{"android":"levelo://app?vid=36427495-5867-4b09-a78d-61ef8361629f","ios":"levelo://app?vid=36427495-5867-4b09-a78d-61ef8361629f"},"vehicle_type_id":"4","last_reported":1700903179,"current_range_meters":19600,"station_id":"ce4bhh92rcd13ifvqfh0","pricing_plan_id":"free"},{"bike_id":"765e706f-68e6-4b58-8a26-eaf2140a98f6","system_id":"levelo_inurba_marseille","lat":43.269319,"lon":5.389397,"is_reserved":false,"is_disabled":false,"rental_uris":{"android":"levelo://app?vid=765e706f-68e6-4b58-8a26-eaf2140a98f6","ios":"levelo://app?vid=765e706f-68e6-4b58-8a26-eaf2140a98f6"},"vehicle_type_id":"4","last_reported":1700903179,"current_range_meters":16400,"station_id":"ce4bhhh2rcd13ifvqfl0","pricing_plan_id":"free"},{"bike_id":"2c7a5353-01d9-4c2c-bf58-3b3aa380c2f9","system_id":"levelo_inurba_marseille","lat":43.26557,"lon":5.37286,"is_reserved":false,"is_disabled":false,"rental_uris":{"android":"levelo://app?vid=2c7a5353-01d9-4c2c-bf58-3b3aa380c2f9","ios":"levelo://app?vid=2c7a5353-01d9-4c2c-bf58-3b3aa380c2f9"},"vehicle_type_id":"4","last_reported":1700903179,"current_range_meters":17200,"station_id":"ce4bhg12rcd13ifvqf70","pricing_plan_id":"free"},{"bike_id":"f23d8119-b478-4639-98c5-6883279f9f84","system_id":"levelo_inurba_marseille","lat":43.32592,"lon":5.43067,"is_reserved":false,"is_disabled":false,"rental_uris":{"android":"levelo://app?vid=f23d8119-b478-4639-98c5-6883279f9f84","ios":"levelo://app?vid=f23d8119-b478-4639-98c5-6883279f9f84"},"vehicle_type_id":"4","last_reported":1700903179,"current_range_meters":27200,"station_id":"","pricing_plan_id":"free"},{"bike_id":"e7b368e8-9edf-4ac8-acef-7e9558d427aa","system_id":"levelo_inurba_marseille","lat":43.32591,"lon":5.430713,"is_reserved":false,"is_disabled":false,"rental_uris":{"android":"levelo://app?vid=e7b368e8-9edf-4ac8-acef-7e9558d427aa","ios":"levelo://app?vid=e7b368e8-9edf-4ac8-acef-7e9558d427aa"},"vehicle_type_id":"4","last_reported":1700903179,"current_range_meters":0,"station_id":"","pricing_plan_id":"free"},{"bike_id":"ed30d6a1-b23a-49e5-9c83-5546be72a734","system_id":"levelo_inurba_marseille","lat":43.3259,"lon":5.43075,"is_reserved":false,"is_disabled":false,"rental_uris":{"android":"levelo://app?vid=ed30d6a1-b23a-49e5-9c83-5546be72a734","ios":"levelo://app?vid=ed30d6a1-b23a-49e5-9c83-5546be72a734"},"vehicle_type_id":"4","last_reported":1700903179,"current_range_meters":22000,"station_id":"","pricing_plan_id":"free"},{"bike_id":"d67469ee-5362-4610-a163-fe05ae3cf4f7","system_id":"levelo_inurba_marseille","lat":43.32604,"lon":5.430817,"is_reserved":false,"is_disabled":false,"rental_uris":{"android":"levelo://app?vid=d67469ee-5362-4610-a163-fe05ae3cf4f7","ios":"levelo://app?vid=d67469ee-5362-4610-a163-fe05ae3cf4f7"},"vehicle_type_id":"4","last_reported":1700903179,"current_range_meters":10400,"station_id":"","pricing_plan_id":"free"},{"bike_id":"5f40d50c-c2c7-49a8-adcf-b1df5b38345b","system_id":"levelo_inurba_marseille","lat":43.27996,"lon":5.416624,"is_reserved":false,"is_disabled":false,"rental_uris":{"android":"levelo://app?vid=5f40d50c-c2c7-49a8-adcf-b1df5b38345b","ios":"levelo://app?vid=5f40d50c-c2c7-49a8-adcf-b1df5b38345b"},"vehicle_type_id":"4","last_reported":1700903179,"current_range_meters":28400,"station_id":"ce4bho12rcd13ifvqh1g","pricing_plan_id":"free"},{"bike_id":"3738f45f-0f0f-4195-af48-2b999cb83df1","system_id":"levelo_inurba_marseille","lat":43.27996,"lon":5.416624,"is_reserved":false,"is_disabled":false,"rental_uris":{"android":"levelo://app?vid=3738f45f-0f0f-4195-af48-2b999cb83df1","ios":"levelo://app?vid=3738f45f-0f0f-4195-af48-2b999cb83df1"},"vehicle_type_id":"4","last_reported":1700903179,"current_range_meters":28800,"station_id":"ce4bho12rcd13ifvqh1g","pricing_plan_id":"free"},{"bike_id":"2b5f0b27-ae58-4e9e-bd76-c585f78e8a73","system_id":"levelo_inurba_marseille","lat":43.26386,"lon":5.37454,"is_reserved":false,"is_disabled":false,"rental_uris":{"android":"levelo://app?vid=2b5f0b27-ae58-4e9e-bd76-c585f78e8a73","ios":"levelo://app?vid=2b5f0b27-ae58-4e9e-bd76-c585f78e8a73"},"vehicle_type_id":"4","last_reported":1700903179,"current_range_meters":11600,"station_id":"","pricing_plan_id":"free"},{"bike_id":"43e8cc2d-eaa2-41f2-9a3f-ea8e67120d74","system_id":"levelo_inurba_marseille","lat":43.265738,"lon":5.390007,"is_reserved":false,"is_disabled":false,"rental_uris":{"android":"levelo://app?vid=43e8cc2d-eaa2-41f2-9a3f-ea8e67120d74","ios":"levelo://app?vid=43e8cc2d-eaa2-41f2-9a3f-ea8e67120d74"},"vehicle_type_id":"4","last_reported":1700903179,"current_range_meters":25600,"station_id":"ce4bhe12rcd13ifvqf30","pricing_plan_id":"free"},{"bike_id":"aac734c2-9e1a-401a-9f21-659f4c007e40","system_id":"levelo_inurba_marseille","lat":43.26567,"lon":5.38999,"is_reserved":false,"is_disabled":false,"rental_uris":{"android":"levelo://app?vid=aac734c2-9e1a-401a-9f21-659f4c007e40","ios":"levelo://app?vid=aac734c2-9e1a-401a-9f21-659f4c007e40"},"vehicle_type_id":"4","last_reported":1700903179,"current_range_meters":29600,"station_id":"ce4bhe12rcd13ifvqf30","pricing_plan_id":"free"},{"bike_id":"acbe10bc-171f-4ba0-b59f-d106d152eb5b","system_id":"levelo_inurba_marseille","lat":43.265646,"lon":5.390075,"is_reserved":false,"is_disabled":false,"rental_uris":{"android":"levelo://app?vid=acbe10bc-171f-4ba0-b59f-d106d152eb5b","ios":"levelo://app?vid=acbe10bc-171f-4ba0-b59f-d106d152eb5b"},"vehicle_type_id":"4","last_reported":1700903179,"current_range_meters":18800,"station_id":"ce4bhe12rcd13ifvqf30","pricing_plan_id":"free"},{"bike_id":"fd781e85-cb05-4246-8c92-f25c7b1d9f7d","system_id":"levelo_inurba_marseille","lat":43.265592,"lon":5.390038,"is_reserved":false,"is_disabled":false,"rental_uris":{"android":"levelo://app?vid=fd781e85-cb05-4246-8c92-f25c7b1d9f7d","ios":"levelo://app?vid=fd781e85-cb05-4246-8c92-f25c7b1d9f7d"},"vehicle_type_id":"4","last_reported":1700903179,"current_range_meters":19200,"station_id":"ce4bhe12rcd13ifvqf30","pricing_plan_id":"free"},{"bike_id":"e76efcfe-40d6-4620-ab0f-71f8c51c34fd","system_id":"levelo_inurba_marseille","lat":43.26944,"lon":5.4025,"is_reserved":false,"is_disabled":false,"rental_uris":{"android":"levelo://app?vid=e76efcfe-40d6-4620-ab0f-71f8c51c34fd","ios":"levelo://app?vid=e76efcfe-40d6-4620-ab0f-71f8c51c34fd"},"vehicle_type_id":"4","last_reported":1700903179,"current_range_meters":2400,"station_id":"cjm6bp8fraef2m0cb0m0","pricing_plan_id":"free"},{"bike_id":"dbc279b1-4335-4bcc-9eef-f924e0f80a07","system_id":"levelo_inurba_marseille","lat":43.26949,"lon":5.40262,"is_reserved":false,"is_disabled":false,"rental_uris":{"android":"levelo://app?vid=dbc279b1-4335-4bcc-9eef-f924e0f80a07","ios":"levelo://app?vid=dbc279b1-4335-4bcc-9eef-f924e0f80a07"},"vehicle_type_id":"4","last_reported":1700903179,"current_range_meters":26000,"station_id":"cjm6bp8fraef2m0cb0m0","pricing_plan_id":"free"},{"bike_id":"9eff6edb-46ad-4cfe-9732-b4fe2ea5c109","system_id":"levelo_inurba_marseille","lat":43.262123,"lon":5.376562,"is_reserved":false,"is_disabled":false,"rental_uris":{"android":"levelo://app?vid=9eff6edb-46ad-4cfe-9732-b4fe2ea5c109","ios":"levelo://app?vid=9eff6edb-46ad-4cfe-9732-b4fe2ea5c109"},"vehicle_type_id":"4","last_reported":1700903179,"current_range_meters":20000,"station_id":"","pricing_plan_id":"free"},{"bike_id":"a9c4f1f4-b074-427a-9d5a-b2d644525e4b","system_id":"levelo_inurba_marseille","lat":43.261782,"lon":5.374515,"is_reserved":false,"is_disabled":false,"rental_uris":{"android":"levelo://app?vid=a9c4f1f4-b074-427a-9d5a-b2d644525e4b","ios":"levelo://app?vid=a9c4f1f4-b074-427a-9d5a-b2d644525e4b"},"vehicle_type_id":"4","last_reported":1700903179,"current_range_meters":28400,"station_id":"ce4bhgp2rcd13ifvqfc0","pricing_plan_id":"free"},{"bike_id":"6a3948b4-3af1-436a-a88f-0610d93733b7","system_id":"levelo_inurba_marseille","lat":43.261782,"lon":5.374515,"is_reserved":false,"is_disabled":false,"rental_uris":{"android":"levelo://app?vid=6a3948b4-3af1-436a-a88f-0610d93733b7","ios":"levelo://app?vid=6a3948b4-3af1-436a-a88f-0610d93733b7"},"vehicle_type_id":"4","last_reported":1700903179,"current_range_meters":21200,"station_id":"ce4bhgp2rcd13ifvqfc0","pricing_plan_id":"free"},{"bike_id":"f809b2bb-3716-4d7b-8de4-7c32b60e559d","system_id":"levelo_inurba_marseille","lat":43.317104,"lon":5.436818,"is_reserved":false,"is_disabled":false,"rental_uris":{"android":"levelo://app?vid=f809b2bb-3716-4d7b-8de4-7c32b60e559d","ios":"levelo://app?vid=f809b2bb-3716-4d7b-8de4-7c32b60e559d"},"vehicle_type_id":"4","last_reported":1700903179,"current_range_meters":17600,"station_id":"ce4bhp92rcd13ifvqhcg","pricing_plan_id":"free"},{"bike_id":"168ee95c-61e1-4c1b-bff9-671722474473","system_id":"levelo_inurba_marseille","lat":43.317104,"lon":5.436818,"is_reserved":false,"is_disabled":false,"rental_uris":{"android":"levelo://app?vid=168ee95c-61e1-4c1b-bff9-671722474473","ios":"levelo://app?vid=168ee95c-61e1-4c1b-bff9-671722474473"},"vehicle_type_id":"4","last_reported":1700903179,"current_range_meters":16000,"station_id":"ce4bhp92rcd13ifvqhcg","pricing_plan_id":"free"},{"bike_id":"46163101-d36f-4b9d-b2d0-b570d3e9c51c","system_id":"levelo_inurba_marseille","lat":43.317104,"lon":5.436818,"is_reserved":false,"is_disabled":false,"rental_uris":{"android":"levelo://app?vid=46163101-d36f-4b9d-b2d0-b570d3e9c51c","ios":"levelo://app?vid=46163101-d36f-4b9d-b2d0-b570d3e9c51c"},"vehicle_type_id":"4","last_reported":1700903179,"current_range_meters":30400,"station_id":"ce4bhp92rcd13ifvqhcg","pricing_plan_id":"free"},{"bike_id":"a6cf9b04-855d-4dc5-9c72-ce4a8e5bbb9c","system_id":"levelo_inurba_marseille","lat":43.317104,"lon":5.436818,"is_reserved":false,"is_disabled":false,"rental_uris":{"android":"levelo://app?vid=a6cf9b04-855d-4dc5-9c72-ce4a8e5bbb9c","ios":"levelo://app?vid=a6cf9b04-855d-4dc5-9c72-ce4a8e5bbb9c"},"vehicle_type_id":"4","last_reported":1700903179,"current_range_meters":25600,"station_id":"ce4bhp92rcd13ifvqhcg","pricing_plan_id":"free"},{"bike_id":"1b98b7d3-c287-45d9-80ab-ed0171f3329e","system_id":"levelo_inurba_marseille","lat":43.317104,"lon":5.436818,"is_reserved":false,"is_disabled":false,"rental_uris":{"android":"levelo://app?vid=1b98b7d3-c287-45d9-80ab-ed0171f3329e","ios":"levelo://app?vid=1b98b7d3-c287-45d9-80ab-ed0171f3329e"},"vehicle_type_id":"4","last_reported":1700903179,"current_range_meters":30800,"station_id":"ce4bhp92rcd13ifvqhcg","pricing_plan_id":"free"},{"bike_id":"2f057b81-6fc8-4570-8186-e577abd426a5","system_id":"levelo_inurba_marseille","lat":43.262012,"lon":5.379307,"is_reserved":false,"is_disabled":false,"rental_uris":{"android":"levelo://app?vid=2f057b81-6fc8-4570-8186-e577abd426a5","ios":"levelo://app?vid=2f057b81-6fc8-4570-8186-e577abd426a5"},"vehicle_type_id":"4","last_reported":1700903179,"current_range_meters":26400,"station_id":"ce4bhjp2rcd13ifvqg90","pricing_plan_id":"free"},{"bike_id":"231e9912-b73a-49ce-a721-5dc993051c6c","system_id":"levelo_inurba_marseille","lat":43.262012,"lon":5.379307,"is_reserved":false,"is_disabled":false,"rental_uris":{"android":"levelo://app?vid=231e9912-b73a-49ce-a721-5dc993051c6c","ios":"levelo://app?vid=231e9912-b73a-49ce-a721-5dc993051c6c"},"vehicle_type_id":"4","last_reported":1700903179,"current_range_meters":14400,"station_id":"ce4bhjp2rcd13ifvqg90","pricing_plan_id":"free"},{"bike_id":"151dae41-aaf6-48e6-9c92-31a2e9cc0a57","system_id":"levelo_inurba_marseille","lat":43.26202,"lon":5.379299,"is_reserved":false,"is_disabled":false,"rental_uris":{"android":"levelo://app?vid=151dae41-aaf6-48e6-9c92-31a2e9cc0a57","ios":"levelo://app?vid=151dae41-aaf6-48e6-9c92-31a2e9cc0a57"},"vehicle_type_id":"4","last_reported":1700903179,"current_range_meters":14000,"station_id":"ce4bhjp2rcd13ifvqg90","pricing_plan_id":"free"},{"bike_id":"3feec791-ffcf-49b4-a3ec-8839e018235b","system_id":"levelo_inurba_marseille","lat":43.271388,"lon":5.409269,"is_reserved":false,"is_disabled":false,"rental_uris":{"android":"levelo://app?vid=3feec791-ffcf-49b4-a3ec-8839e018235b","ios":"levelo://app?vid=3feec791-ffcf-49b4-a3ec-8839e018235b"},"vehicle_type_id":"4","last_reported":1700903179,"current_range_meters":30000,"station_id":"ce4bhl12rcd13ifvqgf0","pricing_plan_id":"free"},{"bike_id":"4572da7b-b339-4c7f-80aa-57f54e950769","system_id":"levelo_inurba_marseille","lat":43.271388,"lon":5.409269,"is_reserved":false,"is_disabled":false,"rental_uris":{"android":"levelo://app?vid=4572da7b-b339-4c7f-80aa-57f54e950769","ios":"levelo://app?vid=4572da7b-b339-4c7f-80aa-57f54e950769"},"vehicle_type_id":"4","last_reported":1700903179,"current_range_meters":26400,"station_id":"ce4bhl12rcd13ifvqgf0","pricing_plan_id":"free"},{"bike_id":"731477c7-3eda-47fa-a9be-55a54d5ff8fe","system_id":"levelo_inurba_marseille","lat":43.271368,"lon":5.40928,"is_reserved":false,"is_disabled":false,"rental_uris":{"android":"levelo://app?vid=731477c7-3eda-47fa-a9be-55a54d5ff8fe","ios":"levelo://app?vid=731477c7-3eda-47fa-a9be-55a54d5ff8fe"},"vehicle_type_id":"4","last_reported":1700903179,"current_range_meters":27600,"station_id":"ce4bhl12rcd13ifvqgf0","pricing_plan_id":"free"},{"bike_id":"001de6f8-100f-4d90-9035-712cc428c1d5","system_id":"levelo_inurba_marseille","lat":43.267959,"lon":5.402685,"is_reserved":false,"is_disabled":false,"rental_uris":{"android":"levelo://app?vid=001de6f8-100f-4d90-9035-712cc428c1d5","ios":"levelo://app?vid=001de6f8-100f-4d90-9035-712cc428c1d5"},"vehicle_type_id":"4","last_reported":1700903179,"current_range_meters":17600,"station_id":"ce501612rcd8frsf0b60","pricing_plan_id":"free"},{"bike_id":"4187a108-62b4-453d-8f39-5a1312235326","system_id":"levelo_inurba_marseille","lat":43.298768,"lon":5.43643,"is_reserved":false,"is_disabled":false,"rental_uris":{"android":"levelo://app?vid=4187a108-62b4-453d-8f39-5a1312235326","ios":"levelo://app?vid=4187a108-62b4-453d-8f39-5a1312235326"},"vehicle_type_id":"4","last_reported":1700903179,"current_range_meters":24400,"station_id":"ce4bhpp2rcd13ifvqhfg","pricing_plan_id":"free"},{"bike_id":"7c5a83ac-336c-4b91-a5ea-82b3c6d6127d","system_id":"levelo_inurba_marseille","lat":43.298768,"lon":5.43643,"is_reserved":false,"is_disabled":false,"rental_uris":{"android":"levelo://app?vid=7c5a83ac-336c-4b91-a5ea-82b3c6d6127d","ios":"levelo://app?vid=7c5a83ac-336c-4b91-a5ea-82b3c6d6127d"},"vehicle_type_id":"4","last_reported":1700903179,"current_range_meters":31200,"station_id":"ce4bhpp2rcd13ifvqhfg","pricing_plan_id":"free"},{"bike_id":"8af0d2ed-93d1-485d-9803-40c71e52d0d9","system_id":"levelo_inurba_marseille","lat":43.29903,"lon":5.43671,"is_reserved":false,"is_disabled":false,"rental_uris":{"android":"levelo://app?vid=8af0d2ed-93d1-485d-9803-40c71e52d0d9","ios":"levelo://app?vid=8af0d2ed-93d1-485d-9803-40c71e52d0d9"},"vehicle_type_id":"4","last_reported":1700903179,"current_range_meters":14400,"station_id":"ce4bhpp2rcd13ifvqhfg","pricing_plan_id":"free"},{"bike_id":"91794d0e-e2e6-4dd9-a1b6-ff7501e49342","system_id":"levelo_inurba_marseille","lat":43.29896,"lon":5.43672,"is_reserved":false,"is_disabled":false,"rental_uris":{"android":"levelo://app?vid=91794d0e-e2e6-4dd9-a1b6-ff7501e49342","ios":"levelo://app?vid=91794d0e-e2e6-4dd9-a1b6-ff7501e49342"},"vehicle_type_id":"4","last_reported":1700903179,"current_range_meters":31200,"station_id":"ce4bhpp2rcd13ifvqhfg","pricing_plan_id":"free"},{"bike_id":"644c8db2-971c-425d-82fe-9137acbc93f3","system_id":"levelo_inurba_marseille","lat":43.260219,"lon":5.37546,"is_reserved":false,"is_disabled":false,"rental_uris":{"android":"levelo://app?vid=644c8db2-971c-425d-82fe-9137acbc93f3","ios":"levelo://app?vid=644c8db2-971c-425d-82fe-9137acbc93f3"},"vehicle_type_id":"4","last_reported":1700903179,"current_range_meters":28400,"station_id":"ce4bhgh2rcd13ifvqfa0","pricing_plan_id":"free"},{"bike_id":"5cc76595-4035-4213-b74e-41dabe622aaf","system_id":"levelo_inurba_marseille","lat":43.28152,"lon":5.42636,"is_reserved":false,"is_disabled":false,"rental_uris":{"android":"levelo://app?vid=5cc76595-4035-4213-b74e-41dabe622aaf","ios":"levelo://app?vid=5cc76595-4035-4213-b74e-41dabe622aaf"},"vehicle_type_id":"4","last_reported":1700903179,"current_range_meters":5200,"station_id":"ce4bhnh2rcd13ifvqgug","pricing_plan_id":"free"},{"bike_id":"5ac38179-4d98-4b89-80f2-dc6cd474e479","system_id":"levelo_inurba_marseille","lat":43.28153,"lon":5.42638,"is_reserved":false,"is_disabled":false,"rental_uris":{"android":"levelo://app?vid=5ac38179-4d98-4b89-80f2-dc6cd474e479","ios":"levelo://app?vid=5ac38179-4d98-4b89-80f2-dc6cd474e479"},"vehicle_type_id":"4","last_reported":1700903179,"current_range_meters":17600,"station_id":"ce4bhnh2rcd13ifvqgug","pricing_plan_id":"free"},{"bike_id":"a490993e-37f7-483a-a40b-3a1888958a96","system_id":"levelo_inurba_marseille","lat":43.28153,"lon":5.42639,"is_reserved":false,"is_disabled":false,"rental_uris":{"android":"levelo://app?vid=a490993e-37f7-483a-a40b-3a1888958a96","ios":"levelo://app?vid=a490993e-37f7-483a-a40b-3a1888958a96"},"vehicle_type_id":"4","last_reported":1700903179,"current_range_meters":400,"station_id":"ce4bhnh2rcd13ifvqgug","pricing_plan_id":"free"},{"bike_id":"6181795c-d57f-4dce-a524-f46690bf06cb","system_id":"levelo_inurba_marseille","lat":43.28151,"lon":5.42649,"is_reserved":false,"is_disabled":false,"rental_uris":{"android":"levelo://app?vid=6181795c-d57f-4dce-a524-f46690bf06cb","ios":"levelo://app?vid=6181795c-d57f-4dce-a524-f46690bf06cb"},"vehicle_type_id":"4","last_reported":1700903179,"current_range_meters":26000,"station_id":"ce4bhnh2rcd13ifvqgug","pricing_plan_id":"free"},{"bike_id":"38fd513c-4726-46e2-96a4-c9ec08ece0ea","system_id":"levelo_inurba_marseille","lat":43.2607,"lon":5.393983,"is_reserved":false,"is_disabled":false,"rental_uris":{"android":"levelo://app?vid=38fd513c-4726-46e2-96a4-c9ec08ece0ea","ios":"levelo://app?vid=38fd513c-4726-46e2-96a4-c9ec08ece0ea"},"vehicle_type_id":"4","last_reported":1700903179,"current_range_meters":21200,"station_id":"ce4bhh92rcd13ifvqfj0","pricing_plan_id":"free"},{"bike_id":"70a83f70-e56f-4793-93fe-125bd1c55207","system_id":"levelo_inurba_marseille","lat":43.2607,"lon":5.393983,"is_reserved":false,"is_disabled":false,"rental_uris":{"android":"levelo://app?vid=70a83f70-e56f-4793-93fe-125bd1c55207","ios":"levelo://app?vid=70a83f70-e56f-4793-93fe-125bd1c55207"},"vehicle_type_id":"4","last_reported":1700903179,"current_range_meters":27200,"station_id":"ce4bhh92rcd13ifvqfj0","pricing_plan_id":"free"},{"bike_id":"de189ee4-a513-4430-8d69-abb5102379cf","system_id":"levelo_inurba_marseille","lat":43.2607,"lon":5.393983,"is_reserved":false,"is_disabled":false,"rental_uris":{"android":"levelo://app?vid=de189ee4-a513-4430-8d69-abb5102379cf","ios":"levelo://app?vid=de189ee4-a513-4430-8d69-abb5102379cf"},"vehicle_type_id":"4","last_reported":1700903179,"current_range_meters":20000,"station_id":"ce4bhh92rcd13ifvqfj0","pricing_plan_id":"free"},{"bike_id":"a458ce16-ad01-4e93-a897-d9a9e1d52a9f","system_id":"levelo_inurba_marseille","lat":43.2607,"lon":5.393983,"is_reserved":false,"is_disabled":false,"rental_uris":{"android":"levelo://app?vid=a458ce16-ad01-4e93-a897-d9a9e1d52a9f","ios":"levelo://app?vid=a458ce16-ad01-4e93-a897-d9a9e1d52a9f"},"vehicle_type_id":"4","last_reported":1700903179,"current_range_meters":24400,"station_id":"ce4bhh92rcd13ifvqfj0","pricing_plan_id":"free"},{"bike_id":"ff385c11-2b7e-45df-b8ce-aac89ab149ad","system_id":"levelo_inurba_marseille","lat":43.275028,"lon":5.424534,"is_reserved":false,"is_disabled":false,"rental_uris":{"android":"levelo://app?vid=ff385c11-2b7e-45df-b8ce-aac89ab149ad","ios":"levelo://app?vid=ff385c11-2b7e-45df-b8ce-aac89ab149ad"},"vehicle_type_id":"4","last_reported":1700903179,"current_range_meters":31200,"station_id":"ce4bhn92rcd13ifvqgrg","pricing_plan_id":"free"},{"bike_id":"83dc7f14-1512-401b-8ef7-88c9e051bf35","system_id":"levelo_inurba_marseille","lat":43.275028,"lon":5.424534,"is_reserved":false,"is_disabled":false,"rental_uris":{"android":"levelo://app?vid=83dc7f14-1512-401b-8ef7-88c9e051bf35","ios":"levelo://app?vid=83dc7f14-1512-401b-8ef7-88c9e051bf35"},"vehicle_type_id":"4","last_reported":1700903179,"current_range_meters":25200,"station_id":"ce4bhn92rcd13ifvqgrg","pricing_plan_id":"free"},{"bike_id":"72baad42-f3d7-46ce-b9fd-2b00eca33dbb","system_id":"levelo_inurba_marseille","lat":43.275028,"lon":5.424534,"is_reserved":false,"is_disabled":false,"rental_uris":{"android":"levelo://app?vid=72baad42-f3d7-46ce-b9fd-2b00eca33dbb","ios":"levelo://app?vid=72baad42-f3d7-46ce-b9fd-2b00eca33dbb"},"vehicle_type_id":"4","last_reported":1700903179,"current_range_meters":12400,"station_id":"ce4bhn92rcd13ifvqgrg","pricing_plan_id":"free"},{"bike_id":"adf3a002-fe09-46e7-bfdf-15e737bcea7e","system_id":"levelo_inurba_marseille","lat":43.275028,"lon":5.424534,"is_reserved":false,"is_disabled":false,"rental_uris":{"android":"levelo://app?vid=adf3a002-fe09-46e7-bfdf-15e737bcea7e","ios":"levelo://app?vid=adf3a002-fe09-46e7-bfdf-15e737bcea7e"},"vehicle_type_id":"4","last_reported":1700903179,"current_range_meters":15600,"station_id":"ce4bhn92rcd13ifvqgrg","pricing_plan_id":"free"},{"bike_id":"adc85c31-6f73-4577-90c9-d7b4e8704a07","system_id":"levelo_inurba_marseille","lat":43.275028,"lon":5.424534,"is_reserved":false,"is_disabled":false,"rental_uris":{"android":"levelo://app?vid=adc85c31-6f73-4577-90c9-d7b4e8704a07","ios":"levelo://app?vid=adc85c31-6f73-4577-90c9-d7b4e8704a07"},"vehicle_type_id":"4","last_reported":1700903179,"current_range_meters":22000,"station_id":"ce4bhn92rcd13ifvqgrg","pricing_plan_id":"free"},{"bike_id":"24f1bf1f-5268-45e6-a816-869a92bcc51d","system_id":"levelo_inurba_marseille","lat":43.275028,"lon":5.424534,"is_reserved":false,"is_disabled":false,"rental_uris":{"android":"levelo://app?vid=24f1bf1f-5268-45e6-a816-869a92bcc51d","ios":"levelo://app?vid=24f1bf1f-5268-45e6-a816-869a92bcc51d"},"vehicle_type_id":"4","last_reported":1700903179,"current_range_meters":31200,"station_id":"ce4bhn92rcd13ifvqgrg","pricing_plan_id":"free"},{"bike_id":"184b100d-6d1b-4f87-b36d-3ef924b2aa03","system_id":"levelo_inurba_marseille","lat":43.26088,"lon":5.39769,"is_reserved":false,"is_disabled":false,"rental_uris":{"android":"levelo://app?vid=184b100d-6d1b-4f87-b36d-3ef924b2aa03","ios":"levelo://app?vid=184b100d-6d1b-4f87-b36d-3ef924b2aa03"},"vehicle_type_id":"4","last_reported":1700903179,"current_range_meters":25600,"station_id":"ce4bhi12rcd13ifvqfq0","pricing_plan_id":"free"},{"bike_id":"35ad092f-3c02-4080-88dd-74d480292c3b","system_id":"levelo_inurba_marseille","lat":43.260909,"lon":5.397591,"is_reserved":false,"is_disabled":false,"rental_uris":{"android":"levelo://app?vid=35ad092f-3c02-4080-88dd-74d480292c3b","ios":"levelo://app?vid=35ad092f-3c02-4080-88dd-74d480292c3b"},"vehicle_type_id":"4","last_reported":1700903179,"current_range_meters":19600,"station_id":"ce4bhi12rcd13ifvqfq0","pricing_plan_id":"free"},{"bike_id":"225e6c0c-2cee-466d-aaf0-b5f9bf391561","system_id":"levelo_inurba_marseille","lat":43.260839,"lon":5.397676,"is_reserved":false,"is_disabled":false,"rental_uris":{"android":"levelo://app?vid=225e6c0c-2cee-466d-aaf0-b5f9bf391561","ios":"levelo://app?vid=225e6c0c-2cee-466d-aaf0-b5f9bf391561"},"vehicle_type_id":"4","last_reported":1700903179,"current_range_meters":31200,"station_id":"","pricing_plan_id":"free"},{"bike_id":"c85f7616-3a9e-47a4-ae16-28a03e51ab4f","system_id":"levelo_inurba_marseille","lat":43.28933,"lon":5.43865,"is_reserved":false,"is_disabled":false,"rental_uris":{"android":"levelo://app?vid=c85f7616-3a9e-47a4-ae16-28a03e51ab4f","ios":"levelo://app?vid=c85f7616-3a9e-47a4-ae16-28a03e51ab4f"},"vehicle_type_id":"4","last_reported":1700903179,"current_range_meters":8400,"station_id":"","pricing_plan_id":"free"},{"bike_id":"50257b9d-6c9a-4fbc-95f6-06e45d0b4261","system_id":"levelo_inurba_marseille","lat":43.254947,"lon":5.376454,"is_reserved":false,"is_disabled":false,"rental_uris":{"android":"levelo://app?vid=50257b9d-6c9a-4fbc-95f6-06e45d0b4261","ios":"levelo://app?vid=50257b9d-6c9a-4fbc-95f6-06e45d0b4261"},"vehicle_type_id":"4","last_reported":1700903179,"current_range_meters":24400,"station_id":"ce4bhh12rcd13ifvqff0","pricing_plan_id":"free"},{"bike_id":"3362df01-282c-4809-bf01-482e34f7a2e2","system_id":"levelo_inurba_marseille","lat":43.255738,"lon":5.382367,"is_reserved":false,"is_disabled":false,"rental_uris":{"android":"levelo://app?vid=3362df01-282c-4809-bf01-482e34f7a2e2","ios":"levelo://app?vid=3362df01-282c-4809-bf01-482e34f7a2e2"},"vehicle_type_id":"4","last_reported":1700903179,"current_range_meters":26800,"station_id":"ce4bhih2rcd13ifvqfs0","pricing_plan_id":"free"},{"bike_id":"ad657e31-d5a7-459b-a7ef-89532e280c6c","system_id":"levelo_inurba_marseille","lat":43.270721,"lon":5.422764,"is_reserved":false,"is_disabled":false,"rental_uris":{"android":"levelo://app?vid=ad657e31-d5a7-459b-a7ef-89532e280c6c","ios":"levelo://app?vid=ad657e31-d5a7-459b-a7ef-89532e280c6c"},"vehicle_type_id":"4","last_reported":1700903179,"current_range_meters":26800,"station_id":"ce4bhk92rcd13ifvqgb0","pricing_plan_id":"free"},{"bike_id":"7596707c-49c3-4eae-95e1-008467641ac2","system_id":"levelo_inurba_marseille","lat":43.270721,"lon":5.422764,"is_reserved":false,"is_disabled":false,"rental_uris":{"android":"levelo://app?vid=7596707c-49c3-4eae-95e1-008467641ac2","ios":"levelo://app?vid=7596707c-49c3-4eae-95e1-008467641ac2"},"vehicle_type_id":"4","last_reported":1700903179,"current_range_meters":31200,"station_id":"ce4bhk92rcd13ifvqgb0","pricing_plan_id":"free"},{"bike_id":"cfd2dccf-2ef8-4b4a-8469-7caa00dd869f","system_id":"levelo_inurba_marseille","lat":43.270721,"lon":5.422764,"is_reserved":false,"is_disabled":false,"rental_uris":{"android":"levelo://app?vid=cfd2dccf-2ef8-4b4a-8469-7caa00dd869f","ios":"levelo://app?vid=cfd2dccf-2ef8-4b4a-8469-7caa00dd869f"},"vehicle_type_id":"4","last_reported":1700903179,"current_range_meters":26400,"station_id":"ce4bhk92rcd13ifvqgb0","pricing_plan_id":"free"},{"bike_id":"4efeab10-fc64-4315-b907-003206a4c0c2","system_id":"levelo_inurba_marseille","lat":43.270721,"lon":5.422764,"is_reserved":false,"is_disabled":false,"rental_uris":{"android":"levelo://app?vid=4efeab10-fc64-4315-b907-003206a4c0c2","ios":"levelo://app?vid=4efeab10-fc64-4315-b907-003206a4c0c2"},"vehicle_type_id":"4","last_reported":1700903179,"current_range_meters":20400,"station_id":"ce4bhk92rcd13ifvqgb0","pricing_plan_id":"free"},{"bike_id":"34b8976c-6036-4b67-9ec8-e013a6ceb002","system_id":"levelo_inurba_marseille","lat":43.25931,"lon":5.40907,"is_reserved":false,"is_disabled":false,"rental_uris":{"android":"levelo://app?vid=34b8976c-6036-4b67-9ec8-e013a6ceb002","ios":"levelo://app?vid=34b8976c-6036-4b67-9ec8-e013a6ceb002"},"vehicle_type_id":"4","last_reported":1700903179,"current_range_meters":30000,"station_id":"ce4bhm92rcd13ifvqglg","pricing_plan_id":"free"},{"bike_id":"48773712-1a80-47ff-ab7b-51cdd2fa4075","system_id":"levelo_inurba_marseille","lat":43.25932,"lon":5.40918,"is_reserved":false,"is_disabled":false,"rental_uris":{"android":"levelo://app?vid=48773712-1a80-47ff-ab7b-51cdd2fa4075","ios":"levelo://app?vid=48773712-1a80-47ff-ab7b-51cdd2fa4075"},