{"last_updated":1744229480,"ttl":60,"version":"2.2","data":{"bikes":[{"bike_id":"3f31f207-3522-4657-a794-551127701951","system_id":"levelo_inurba_marseille","lat":43.27939,"lon":5.41046,"is_reserved":false,"is_disabled":true,"rental_uris":{"android":"levelo://app?vid=3f31f207-3522-4657-a794-551127701951","ios":"levelo://app?vid=3f31f207-3522-4657-a794-551127701951"},"vehicle_type_id":"4","last_reported":1744229481,"current_range_meters":2800,"station_id":"ce4bhnp2rcd13ifvqh0g","pricing_plan_id":"cebpf4jnsgd1na2vs0mg"},{"bike_id":"81274cf1-d320-4b59-a46b-7fa043cf4666","system_id":"levelo_inurba_marseille","lat":43.25668,"lon":5.41099,"is_reserved":false,"is_disabled":true,"rental_uris":{"android":"levelo://app?vid=81274cf1-d320-4b59-a46b-7fa043cf4666","ios":"levelo://app?vid=81274cf1-d320-4b59-a46b-7fa043cf4666"},"vehicle_type_id":"4","last_reported":1744229481,"current_range_meters":2800,"station_id":"ce4bhkp2rcd13ifvqgd0","pricing_plan_id":"cebpf4jnsgd1na2vs0mg"},{"bike_id":"3576b946-70b3-456f-a60a-d98e227f015c","system_id":"levelo_inurba_marseille","lat":43.30079,"lon":5.38221,"is_reserved":false,"is_disabled":false,"rental_uris":{"android":"levelo://app?vid=3576b946-70b3-456f-a60a-d98e227f015c","ios":"levelo://app?vid=3576b946-70b3-456f-a60a-d98e227f015c"},"vehicle_type_id":"4","last_reported":1744229481,"current_range_meters":2800,"station_id":"","pricing_plan_id":"cebpf4jnsgd1na2vs0mg"},{"bike_id":"a5bf5eb7-158f-481f-a5ba-5c9bee64a504","system_id":"levelo_inurba_marseille","lat":43.30243,"lon":5.4006,"is_reserved":false,"is_disabled":false,"rental_uris":{"android":"levelo://app?vid=a5bf5eb7-158f-481f-a5ba-5c9bee64a504","ios":"levelo://app?vid=a5bf5eb7-158f-481f-a5ba-5c9bee64a504"},"vehicle_type_id":"4","last_reported":1744229481,"current_range_meters":2800,"station_id":"ce4bgvh2rcd13ifvqcs0","pricing_plan_id":"cebpf4jnsgd1na2vs0mg"},{"bike_id":"9b05fadb-7ebe-47e0-8e22-ef8e23e9806d","system_id":"levelo_inurba_marseille","lat":43.26209,"lon":5.37445,"is_reserved":false,"is_disabled":false,"rental_uris":{"android":"levelo://app?vid=9b05fadb-7ebe-47e0-8e22-ef8e23e9806d","ios":"levelo://app?vid=9b05fadb-7ebe-47e0-8e22-ef8e23e9806d"},"vehicle_type_id":"4","last_reported":1744229481,"current_range_meters":2800,"station_id":"ce4bhgp2rcd13ifvqfc0","pricing_plan_id":"cebpf4jnsgd1na2vs0mg"},{"bike_id":"d11fd9ed-9a37-402c-b5a9-2d89f85738c8","system_id":"levelo_inurba_marseille","lat":43.27174,"lon":5.41,"is_reserved":false,"is_disabled":false,"rental_uris":{"android":"levelo://app?vid=d11fd9ed-9a37-402c-b5a9-2d89f85738c8","ios":"levelo://app?vid=d11fd9ed-9a37-402c-b5a9-2d89f85738c8"},"vehicle_type_id":"4","last_reported":1744229481,"current_range_meters":3200,"station_id":"ce4bhl12rcd13ifvqgf0","pricing_plan_id":"cebpf4jnsgd1na2vs0mg"},{"bike_id":"98a1b50e-6a30-4a59-9c86-6d756f57398d","system_id":"levelo_inurba_marseille","lat":43.29095,"lon":5.38121,"is_reserved":false,"is_disabled":false,"rental_uris":{"android":"levelo://app?vid=98a1b50e-6a30-4a59-9c86-6d756f57398d","ios":"levelo://app?vid=98a1b50e-6a30-4a59-9c86-6d756f57398d"},"vehicle_type_id":"4","last_reported":1744229481,"current_range_meters":2800,"station_id":"ce4bh512rcd13ifvqe2g","pricing_plan_id":"cebpf4jnsgd1na2vs0mg"},{"bike_id":"db6d23d8-477c-4a61-ba90-90f50bf8afa8","system_id":"levelo_inurba_marseille","lat":43.28612,"lon":5.35107,"is_reserved":false,"is_disabled":false,"rental_uris":{"android":"levelo://app?vid=db6d23d8-477c-4a61-ba90-90f50bf8afa8","ios":"levelo://app?vid=db6d23d8-477c-4a61-ba90-90f50bf8afa8"},"vehicle_type_id":"4","last_reported":1744229481,"current_range_meters":3200,"station_id":"ce4bhch2rcd13ifvqeug","pricing_plan_id":"cebpf4jnsgd1na2vs0mg"},{"bike_id":"78d61e89-2593-4d8f-b70c-b337d89cc837","system_id":"levelo_inurba_marseille","lat":43.29006,"lon":5.37562,"is_reserved":false,"is_disabled":false,"rental_uris":{"android":"levelo://app?vid=78d61e89-2593-4d8f-b70c-b337d89cc837","ios":"levelo://app?vid=78d61e89-2593-4d8f-b70c-b337d89cc837"},"vehicle_type_id":"4","last_reported":1744229481,"current_range_meters":3200,"station_id":"ce4bh692rcd13ifvqe90","pricing_plan_id":"cebpf4jnsgd1na2vs0mg"},{"bike_id":"a5893a1f-7c9d-4af5-acab-6328a27154af","system_id":"levelo_inurba_marseille","lat":43.292785,"lon":5.408999,"is_reserved":false,"is_disabled":true,"rental_uris":{"android":"levelo://app?vid=a5893a1f-7c9d-4af5-acab-6328a27154af","ios":"levelo://app?vid=a5893a1f-7c9d-4af5-acab-6328a27154af"},"vehicle_type_id":"4","last_reported":1744229481,"current_range_meters":3200,"station_id":"","pricing_plan_id":"cebpf4jnsgd1na2vs0mg"},{"bike_id":"0c3a3bd3-4301-4ccc-9dfa-35c0c716dcce","system_id":"levelo_inurba_marseille","lat":43.246675,"lon":5.381662,"is_reserved":false,"is_disabled":true,"rental_uris":{"android":"levelo://app?vid=0c3a3bd3-4301-4ccc-9dfa-35c0c716dcce","ios":"levelo://app?vid=0c3a3bd3-4301-4ccc-9dfa-35c0c716dcce"},"vehicle_type_id":"4","last_reported":1744229481,"current_range_meters":3600,"station_id":"ce4bhih2rcd13ifvqfr0","pricing_plan_id":"cebpf4jnsgd1na2vs0mg"},{"bike_id":"31e57647-c2fd-49d1-b180-8138cc04aa66","system_id":"levelo_inurba_marseille","lat":43.29698,"lon":5.366,"is_reserved":false,"is_disabled":false,"rental_uris":{"android":"levelo://app?vid=31e57647-c2fd-49d1-b180-8138cc04aa66","ios":"levelo://app?vid=31e57647-c2fd-49d1-b180-8138cc04aa66"},"vehicle_type_id":"4","last_reported":1744229481,"current_range_meters":4400,"station_id":"ce4bgn12rcd13ifvqbt0","pricing_plan_id":"cebpf4jnsgd1na2vs0mg"},{"bike_id":"61faeab7-d3b1-42ea-8185-a6bb834269b2","system_id":"levelo_inurba_marseille","lat":43.27122,"lon":5.41453,"is_reserved":false,"is_disabled":false,"rental_uris":{"android":"levelo://app?vid=61faeab7-d3b1-42ea-8185-a6bb834269b2","ios":"levelo://app?vid=61faeab7-d3b1-42ea-8185-a6bb834269b2"},"vehicle_type_id":"4","last_reported":1744229481,"current_range_meters":3600,"station_id":"","pricing_plan_id":"cebpf4jnsgd1na2vs0mg"},{"bike_id":"79547a7e-3fe9-4411-addc-8e7d21ca027c","system_id":"levelo_inurba_marseille","lat":43.27324,"lon":5.39092,"is_reserved":false,"is_disabled":false,"rental_uris":{"android":"levelo://app?vid=79547a7e-3fe9-4411-addc-8e7d21ca027c","ios":"levelo://app?vid=79547a7e-3fe9-4411-addc-8e7d21ca027c"},"vehicle_type_id":"4","last_reported":1744229481,"current_range_meters":3200,"station_id":"ce4bhgp2rcd13ifvqfe0","pricing_plan_id":"cebpf4jnsgd1na2vs0mg"},{"bike_id":"ae7fc30f-36a4-4b2d-8b99-bb40d3c9eacc","system_id":"levelo_inurba_marseille","lat":43.29412,"lon":5.38617,"is_reserved":false,"is_disabled":true,"rental_uris":{"android":"levelo://app?vid=ae7fc30f-36a4-4b2d-8b99-bb40d3c9eacc","ios":"levelo://app?vid=ae7fc30f-36a4-4b2d-8b99-bb40d3c9eacc"},"vehicle_type_id":"4","last_reported":1744229481,"current_range_meters":4000,"station_id":"ce4bh2h2rcd13ifvqdh0","pricing_plan_id":"cebpf4jnsgd1na2vs0mg"},{"bike_id":"227eae24-9866-4008-ac70-a41ceb745952","system_id":"levelo_inurba_marseille","lat":43.29275,"lon":5.40112,"is_reserved":false,"is_disabled":false,"rental_uris":{"android":"levelo://app?vid=227eae24-9866-4008-ac70-a41ceb745952","ios":"levelo://app?vid=227eae24-9866-4008-ac70-a41ceb745952"},"vehicle_type_id":"4","last_reported":1744229481,"current_range_meters":4400,"station_id":"ce4bh312rcd13ifvqdk0","pricing_plan_id":"cebpf4jnsgd1na2vs0mg"},{"bike_id":"58b518c7-3105-4f5e-96af-5214cce79c4a","system_id":"levelo_inurba_marseille","lat":43.30795,"lon":5.38156,"is_reserved":false,"is_disabled":false,"rental_uris":{"android":"levelo://app?vid=58b518c7-3105-4f5e-96af-5214cce79c4a","ios":"levelo://app?vid=58b518c7-3105-4f5e-96af-5214cce79c4a"},"vehicle_type_id":"4","last_reported":1744229481,"current_range_meters":4400,"station_id":"ce4bgt12rcd13ifvqce0","pricing_plan_id":"cebpf4jnsgd1na2vs0mg"},{"bike_id":"98011710-961f-4b06-9ea5-2e20180ef4ff","system_id":"levelo_inurba_marseille","lat":43.28144,"lon":5.42644,"is_reserved":false,"is_disabled":false,"rental_uris":{"android":"levelo://app?vid=98011710-961f-4b06-9ea5-2e20180ef4ff","ios":"levelo://app?vid=98011710-961f-4b06-9ea5-2e20180ef4ff"},"vehicle_type_id":"4","last_reported":1744229481,"current_range_meters":4400,"station_id":"ce4bhnh2rcd13ifvqgug","pricing_plan_id":"cebpf4jnsgd1na2vs0mg"},{"bike_id":"d70ea41c-0e47-4cda-83b6-f7121878c5e6","system_id":"levelo_inurba_marseille","lat":43.30924,"lon":5.40138,"is_reserved":false,"is_disabled":false,"rental_uris":{"android":"levelo://app?vid=d70ea41c-0e47-4cda-83b6-f7121878c5e6","ios":"levelo://app?vid=d70ea41c-0e47-4cda-83b6-f7121878c5e6"},"vehicle_type_id":"4","last_reported":1744229481,"current_range_meters":4400,"station_id":"ce4bgvp2rcd13ifvqct0","pricing_plan_id":"cebpf4jnsgd1na2vs0mg"},{"bike_id":"008b40b9-aa5a-4e27-8bbf-eddf2b5cab1f","system_id":"levelo_inurba_marseille","lat":43.31372,"lon":5.384783,"is_reserved":false,"is_disabled":false,"rental_uris":{"android":"levelo://app?vid=008b40b9-aa5a-4e27-8bbf-eddf2b5cab1f","ios":"levelo://app?vid=008b40b9-aa5a-4e27-8bbf-eddf2b5cab1f"},"vehicle_type_id":"4","last_reported":1744229481,"current_range_meters":4400,"station_id":"ce4bgt92rcd13ifvqcf0","pricing_plan_id":"cebpf4jnsgd1na2vs0mg"},{"bike_id":"488970c7-ad85-4166-a4ad-456252c5bcc5","system_id":"levelo_inurba_marseille","lat":43.27347,"lon":5.40884,"is_reserved":false,"is_disabled":false,"rental_uris":{"android":"levelo://app?vid=488970c7-ad85-4166-a4ad-456252c5bcc5","ios":"levelo://app?vid=488970c7-ad85-4166-a4ad-456252c5bcc5"},"vehicle_type_id":"4","last_reported":1744229481,"current_range_meters":4400,"station_id":"","pricing_plan_id":"cebpf4jnsgd1na2vs0mg"},{"bike_id":"ebe1ea58-9f38-4c10-a6da-a9d33ab03a52","system_id":"levelo_inurba_marseille","lat":43.25001,"lon":5.38938,"is_reserved":false,"is_disabled":true,"rental_uris":{"android":"levelo://app?vid=ebe1ea58-9f38-4c10-a6da-a9d33ab03a52","ios":"levelo://app?vid=ebe1ea58-9f38-4c10-a6da-a9d33ab03a52"},"vehicle_type_id":"4","last_reported":1744229481,"current_range_meters":4800,"station_id":"ce4bhgp2rcd13ifvqfd0","pricing_plan_id":"cebpf4jnsgd1na2vs0mg"},{"bike_id":"6090bc0a-6bf5-42df-8ad5-818421a19ba2","system_id":"levelo_inurba_marseille","lat":43.283508,"lon":5.381133,"is_reserved":false,"is_disabled":false,"rental_uris":{"android":"levelo://app?vid=6090bc0a-6bf5-42df-8ad5-818421a19ba2","ios":"levelo://app?vid=6090bc0a-6bf5-42df-8ad5-818421a19ba2"},"vehicle_type_id":"4","last_reported":1744229481,"current_range_meters":5600,"station_id":"ce4bh412rcd13ifvqdr0","pricing_plan_id":"cebpf4jnsgd1na2vs0mg"},{"bike_id":"3ea27e54-f8eb-412e-930d-2d778578f9d0","system_id":"levelo_inurba_marseille","lat":43.24074,"lon":5.37757,"is_reserved":false,"is_disabled":false,"rental_uris":{"android":"levelo://app?vid=3ea27e54-f8eb-412e-930d-2d778578f9d0","ios":"levelo://app?vid=3ea27e54-f8eb-412e-930d-2d778578f9d0"},"vehicle_type_id":"4","last_reported":1744229481,"current_range_meters":4800,"station_id":"ce4bhnp2rcd13ifvqgvg","pricing_plan_id":"cebpf4jnsgd1na2vs0mg"},{"bike_id":"0afa710d-ae25-4ea1-8b2d-be4f5b57249c","system_id":"levelo_inurba_marseille","lat":43.27183,"lon":5.40958,"is_reserved":false,"is_disabled":false,"rental_uris":{"android":"levelo://app?vid=0afa710d-ae25-4ea1-8b2d-be4f5b57249c","ios":"levelo://app?vid=0afa710d-ae25-4ea1-8b2d-be4f5b57249c"},"vehicle_type_id":"4","last_reported":1744229481,"current_range_meters":4800,"station_id":"ce4bhl12rcd13ifvqgf0","pricing_plan_id":"cebpf4jnsgd1na2vs0mg"},{"bike_id":"5e5ab3fa-e6f6-4110-a0ed-51d1ebd7975e","system_id":"levelo_inurba_marseille","lat":43.30537,"lon":5.36548,"is_reserved":false,"is_disabled":false,"rental_uris":{"android":"levelo://app?vid=5e5ab3fa-e6f6-4110-a0ed-51d1ebd7975e","ios":"levelo://app?vid=5e5ab3fa-e6f6-4110-a0ed-51d1ebd7975e"},"vehicle_type_id":"4","last_reported":1744229481,"current_range_meters":4800,"station_id":"ce4bgs12rcd13ifvqcag","pricing_plan_id":"cebpf4jnsgd1na2vs0mg"},{"bike_id":"fdb4c052-f138-4355-8297-fbb28be751b3","system_id":"levelo_inurba_marseille","lat":43.27361,"lon":5.36235,"is_reserved":false,"is_disabled":true,"rental_uris":{"android":"levelo://app?vid=fdb4c052-f138-4355-8297-fbb28be751b3","ios":"levelo://app?vid=fdb4c052-f138-4355-8297-fbb28be751b3"},"vehicle_type_id":"4","last_reported":1744229481,"current_range_meters":4800,"station_id":"ce4bhbh2rcd13ifvqeo0","pricing_plan_id":"cebpf4jnsgd1na2vs0mg"},{"bike_id":"ec41b842-c84f-4ab1-894c-fc6101e00efb","system_id":"levelo_inurba_marseille","lat":43.31716,"lon":5.40281,"is_reserved":false,"is_disabled":false,"rental_uris":{"android":"levelo://app?vid=ec41b842-c84f-4ab1-894c-fc6101e00efb","ios":"levelo://app?vid=ec41b842-c84f-4ab1-894c-fc6101e00efb"},"vehicle_type_id":"4","last_reported":1744229481,"current_range_meters":4800,"station_id":"","pricing_plan_id":"cebpf4jnsgd1na2vs0mg"},{"bike_id":"cd07658d-a6fb-41d7-b49f-5b25a6336379","system_id":"levelo_inurba_marseille","lat":43.23961,"lon":5.36629,"is_reserved":false,"is_disabled":false,"rental_uris":{"android":"levelo://app?vid=cd07658d-a6fb-41d7-b49f-5b25a6336379","ios":"levelo://app?vid=cd07658d-a6fb-41d7-b49f-5b25a6336379"},"vehicle_type_id":"4","last_reported":1744229481,"current_range_meters":4800,"station_id":"ce4bhi12rcd13ifvqfp0","pricing_plan_id":"cebpf4jnsgd1na2vs0mg"},{"bike_id":"af4c1a05-e10b-4849-a374-e3b3b6a8c100","system_id":"levelo_inurba_marseille","lat":43.28094,"lon":5.37849,"is_reserved":false,"is_disabled":false,"rental_uris":{"android":"levelo://app?vid=af4c1a05-e10b-4849-a374-e3b3b6a8c100","ios":"levelo://app?vid=af4c1a05-e10b-4849-a374-e3b3b6a8c100"},"vehicle_type_id":"4","last_reported":1744229481,"current_range_meters":5600,"station_id":"ce4bha12rcd13ifvqee0","pricing_plan_id":"cebpf4jnsgd1na2vs0mg"},{"bike_id":"b0b12147-b768-4632-ac96-af54eaeea785","system_id":"levelo_inurba_marseille","lat":43.28935,"lon":5.36636,"is_reserved":false,"is_disabled":false,"rental_uris":{"android":"levelo://app?vid=b0b12147-b768-4632-ac96-af54eaeea785","ios":"levelo://app?vid=b0b12147-b768-4632-ac96-af54eaeea785"},"vehicle_type_id":"4","last_reported":1744229481,"current_range_meters":5600,"station_id":"ce4bhap2rcd13ifvqek0","pricing_plan_id":"cebpf4jnsgd1na2vs0mg"},{"bike_id":"39b31432-a95f-4197-b7b1-d47fab348f93","system_id":"levelo_inurba_marseille","lat":43.25823,"lon":5.39438,"is_reserved":false,"is_disabled":false,"rental_uris":{"android":"levelo://app?vid=39b31432-a95f-4197-b7b1-d47fab348f93","ios":"levelo://app?vid=39b31432-a95f-4197-b7b1-d47fab348f93"},"vehicle_type_id":"4","last_reported":1744229481,"current_range_meters":6000,"station_id":"ce4bhip2rcd13ifvqft0","pricing_plan_id":"cebpf4jnsgd1na2vs0mg"},{"bike_id":"6569a176-a49c-464b-9416-ff731ba8b325","system_id":"levelo_inurba_marseille","lat":43.3112,"lon":5.37761,"is_reserved":false,"is_disabled":true,"rental_uris":{"android":"levelo://app?vid=6569a176-a49c-464b-9416-ff731ba8b325","ios":"levelo://app?vid=6569a176-a49c-464b-9416-ff731ba8b325"},"vehicle_type_id":"4","last_reported":1744229481,"current_range_meters":6000,"station_id":"ce4bgt92rcd13ifvqcg0","pricing_plan_id":"cebpf4jnsgd1na2vs0mg"},{"bike_id":"86b48419-f6e0-4c45-877f-37618aea9ed2","system_id":"levelo_inurba_marseille","lat":43.28462,"lon":5.35878,"is_reserved":false,"is_disabled":false,"rental_uris":{"android":"levelo://app?vid=86b48419-f6e0-4c45-877f-37618aea9ed2","ios":"levelo://app?vid=86b48419-f6e0-4c45-877f-37618aea9ed2"},"vehicle_type_id":"4","last_reported":1744229481,"current_range_meters":6000,"station_id":"ce4bhah2rcd13ifvqei0","pricing_plan_id":"cebpf4jnsgd1na2vs0mg"},{"bike_id":"51689922-834e-44a8-ac11-5c7daafadf08","system_id":"levelo_inurba_marseille","lat":43.308899,"lon":5.396503,"is_reserved":false,"is_disabled":false,"rental_uris":{"android":"levelo://app?vid=51689922-834e-44a8-ac11-5c7daafadf08","ios":"levelo://app?vid=51689922-834e-44a8-ac11-5c7daafadf08"},"vehicle_type_id":"4","last_reported":1744229481,"current_range_meters":6000,"station_id":"ce4bh012rcd13ifvqcv0","pricing_plan_id":"cebpf4jnsgd1na2vs0mg"},{"bike_id":"c9a2dd4b-f99d-40ee-ae78-94715be1e7e2","system_id":"levelo_inurba_marseille","lat":43.30326,"lon":5.4043,"is_reserved":false,"is_disabled":false,"rental_uris":{"android":"levelo://app?vid=c9a2dd4b-f99d-40ee-ae78-94715be1e7e2","ios":"levelo://app?vid=c9a2dd4b-f99d-40ee-ae78-94715be1e7e2"},"vehicle_type_id":"4","last_reported":1744229481,"current_range_meters":5600,"station_id":"ce4bh012rcd13ifvqd10","pricing_plan_id":"cebpf4jnsgd1na2vs0mg"},{"bike_id":"6806d000-65f7-4912-97c7-24bf8c24ae8f","system_id":"levelo_inurba_marseille","lat":43.31128,"lon":5.38433,"is_reserved":false,"is_disabled":false,"rental_uris":{"android":"levelo://app?vid=6806d000-65f7-4912-97c7-24bf8c24ae8f","ios":"levelo://app?vid=6806d000-65f7-4912-97c7-24bf8c24ae8f"},"vehicle_type_id":"4","last_reported":1744229481,"current_range_meters":6000,"station_id":"","pricing_plan_id":"cebpf4jnsgd1na2vs0mg"},{"bike_id":"79b4a3fe-83b6-4a7e-b62d-fbe80c1f5666","system_id":"levelo_inurba_marseille","lat":43.21753,"lon":5.34605,"is_reserved":false,"is_disabled":false,"rental_uris":{"android":"levelo://app?vid=79b4a3fe-83b6-4a7e-b62d-fbe80c1f5666","ios":"levelo://app?vid=79b4a3fe-83b6-4a7e-b62d-fbe80c1f5666"},"vehicle_type_id":"4","last_reported":1744229481,"current_range_meters":6400,"station_id":"st_cvj6r9ubvosntc0bgbag","pricing_plan_id":"cebpf4jnsgd1na2vs0mg"},{"bike_id":"3bfd792d-8024-4b3d-8c0a-4428de874fa2","system_id":"levelo_inurba_marseille","lat":43.32042,"lon":5.38592,"is_reserved":false,"is_disabled":false,"rental_uris":{"android":"levelo://app?vid=3bfd792d-8024-4b3d-8c0a-4428de874fa2","ios":"levelo://app?vid=3bfd792d-8024-4b3d-8c0a-4428de874fa2"},"vehicle_type_id":"4","last_reported":1744229481,"current_range_meters":6400,"station_id":"","pricing_plan_id":"cebpf4jnsgd1na2vs0mg"},{"bike_id":"30d1b9f2-05f3-47dd-8bfb-29a1d4c148de","system_id":"levelo_inurba_marseille","lat":43.28618,"lon":5.35097,"is_reserved":false,"is_disabled":false,"rental_uris":{"android":"levelo://app?vid=30d1b9f2-05f3-47dd-8bfb-29a1d4c148de","ios":"levelo://app?vid=30d1b9f2-05f3-47dd-8bfb-29a1d4c148de"},"vehicle_type_id":"4","last_reported":1744229481,"current_range_meters":6400,"station_id":"ce4bhch2rcd13ifvqeug","pricing_plan_id":"cebpf4jnsgd1na2vs0mg"},{"bike_id":"9dad613b-fd85-481c-8b7c-456e1be1d564","system_id":"levelo_inurba_marseille","lat":43.262,"lon":5.37937,"is_reserved":false,"is_disabled":false,"rental_uris":{"android":"levelo://app?vid=9dad613b-fd85-481c-8b7c-456e1be1d564","ios":"levelo://app?vid=9dad613b-fd85-481c-8b7c-456e1be1d564"},"vehicle_type_id":"4","last_reported":1744229481,"current_range_meters":6400,"station_id":"ce4bhjp2rcd13ifvqg90","pricing_plan_id":"cebpf4jnsgd1na2vs0mg"},{"bike_id":"40aece10-cb14-4ed6-9938-61197d853950","system_id":"levelo_inurba_marseille","lat":43.29259,"lon":5.40913,"is_reserved":false,"is_disabled":false,"rental_uris":{"android":"levelo://app?vid=40aece10-cb14-4ed6-9938-61197d853950","ios":"levelo://app?vid=40aece10-cb14-4ed6-9938-61197d853950"},"vehicle_type_id":"4","last_reported":1744229481,"current_range_meters":6400,"station_id":"ce4bh192rcd13ifvqdc0","pricing_plan_id":"cebpf4jnsgd1na2vs0mg"},{"bike_id":"250bc858-aa43-4c5a-aa14-c0ebb959c5e7","system_id":"levelo_inurba_marseille","lat":43.280746,"lon":5.396572,"is_reserved":false,"is_disabled":false,"rental_uris":{"android":"levelo://app?vid=250bc858-aa43-4c5a-aa14-c0ebb959c5e7","ios":"levelo://app?vid=250bc858-aa43-4c5a-aa14-c0ebb959c5e7"},"vehicle_type_id":"4","last_reported":1744229481,"current_range_meters":6400,"station_id":"ce4bho12rcd13ifvqh2g","pricing_plan_id":"cebpf4jnsgd1na2vs0mg"},{"bike_id":"3d0cae43-5b75-4aac-b7cb-471ce1151dd5","system_id":"levelo_inurba_marseille","lat":43.33018,"lon":5.39386,"is_reserved":false,"is_disabled":true,"rental_uris":{"android":"levelo://app?vid=3d0cae43-5b75-4aac-b7cb-471ce1151dd5","ios":"levelo://app?vid=3d0cae43-5b75-4aac-b7cb-471ce1151dd5"},"vehicle_type_id":"4","last_reported":1744229481,"current_range_meters":6400,"station_id":"","pricing_plan_id":"cebpf4jnsgd1na2vs0mg"},{"bike_id":"8c58f2fa-99e1-41f8-bf90-9c1648b679b1","system_id":"levelo_inurba_marseille","lat":43.29373,"lon":5.37935,"is_reserved":false,"is_disabled":false,"rental_uris":{"android":"levelo://app?vid=8c58f2fa-99e1-41f8-bf90-9c1648b679b1","ios":"levelo://app?vid=8c58f2fa-99e1-41f8-bf90-9c1648b679b1"},"vehicle_type_id":"4","last_reported":1744229481,"current_range_meters":6400,"station_id":"","pricing_plan_id":"cebpf4jnsgd1na2vs0mg"},{"bike_id":"5e6ad826-38da-4531-b4ba-2eda8622ede3","system_id":"levelo_inurba_marseille","lat":43.31105,"lon":5.40451,"is_reserved":false,"is_disabled":false,"rental_uris":{"android":"levelo://app?vid=5e6ad826-38da-4531-b4ba-2eda8622ede3","ios":"levelo://app?vid=5e6ad826-38da-4531-b4ba-2eda8622ede3"},"vehicle_type_id":"4","last_reported":1744229481,"current_range_meters":6400,"station_id":"","pricing_plan_id":"cebpf4jnsgd1na2vs0mg"},{"bike_id":"4efd10f7-0cf8-4b7f-ba36-00a0f789aceb","system_id":"levelo_inurba_marseille","lat":43.29406,"lon":5.3949,"is_reserved":false,"is_disabled":false,"rental_uris":{"android":"levelo://app?vid=4efd10f7-0cf8-4b7f-ba36-00a0f789aceb","ios":"levelo://app?vid=4efd10f7-0cf8-4b7f-ba36-00a0f789aceb"},"vehicle_type_id":"4","last_reported":1744229481,"current_range_meters":6800,"station_id":"","pricing_plan_id":"cebpf4jnsgd1na2vs0mg"},{"bike_id":"f38f2c9a-2811-492d-9177-583f4ce25dca","system_id":"levelo_inurba_marseille","lat":43.28613,"lon":5.35109,"is_reserved":false,"is_disabled":false,"rental_uris":{"android":"levelo://app?vid=f38f2c9a-2811-492d-9177-583f4ce25dca","ios":"levelo://app?vid=f38f2c9a-2811-492d-9177-583f4ce25dca"},"vehicle_type_id":"4","last_reported":1744229481,"current_range_meters":6800,"station_id":"ce4bhch2rcd13ifvqeug","pricing_plan_id":"cebpf4jnsgd1na2vs0mg"},{"bike_id":"5e46e260-3a6a-48a1-932e-819fef6b786b","system_id":"levelo_inurba_marseille","lat":43.30933,"lon":5.40143,"is_reserved":false,"is_disabled":false,"rental_uris":{"android":"levelo://app?vid=5e46e260-3a6a-48a1-932e-819fef6b786b","ios":"levelo://app?vid=5e46e260-3a6a-48a1-932e-819fef6b786b"},"vehicle_type_id":"4","last_reported":1744229481,"current_range_meters":6400,"station_id":"ce4bgvp2rcd13ifvqct0","pricing_plan_id":"cebpf4jnsgd1na2vs0mg"},{"bike_id":"03926bc9-f9d8-4451-80fc-eb49eedc74e1","system_id":"levelo_inurba_marseille","lat":43.27809,"lon":5.4072,"is_reserved":false,"is_disabled":false,"rental_uris":{"android":"levelo://app?vid=03926bc9-f9d8-4451-80fc-eb49eedc74e1","ios":"levelo://app?vid=03926bc9-f9d8-4451-80fc-eb49eedc74e1"},"vehicle_type_id":"4","last_reported":1744229481,"current_range_meters":6800,"station_id":"ce4bhnh2rcd13ifvqgtg","pricing_plan_id":"cebpf4jnsgd1na2vs0mg"},{"bike_id":"68d1cc33-0218-451e-8e10-d32225c21263","system_id":"levelo_inurba_marseille","lat":43.23148,"lon":5.43703,"is_reserved":false,"is_disabled":true,"rental_uris":{"android":"levelo://app?vid=68d1cc33-0218-451e-8e10-d32225c21263","ios":"levelo://app?vid=68d1cc33-0218-451e-8e10-d32225c21263"},"vehicle_type_id":"4","last_reported":1744229481,"current_range_meters":6800,"station_id":"ce4bhmp2rcd13ifvqgog","pricing_plan_id":"cebpf4jnsgd1na2vs0mg"},{"bike_id":"5e15b74d-2d26-4464-8660-d7de5fce9541","system_id":"levelo_inurba_marseille","lat":43.29602,"lon":5.381,"is_reserved":false,"is_disabled":false,"rental_uris":{"android":"levelo://app?vid=5e15b74d-2d26-4464-8660-d7de5fce9541","ios":"levelo://app?vid=5e15b74d-2d26-4464-8660-d7de5fce9541"},"vehicle_type_id":"4","last_reported":1744229481,"current_range_meters":6800,"station_id":"ce4bgl12rcd13ifvqbo0","pricing_plan_id":"cebpf4jnsgd1na2vs0mg"},{"bike_id":"1b98233f-35ba-4ba3-8df1-8c2a0974be64","system_id":"levelo_inurba_marseille","lat":43.30259,"lon":5.40082,"is_reserved":false,"is_disabled":false,"rental_uris":{"android":"levelo://app?vid=1b98233f-35ba-4ba3-8df1-8c2a0974be64","ios":"levelo://app?vid=1b98233f-35ba-4ba3-8df1-8c2a0974be64"},"vehicle_type_id":"4","last_reported":1744229481,"current_range_meters":7200,"station_id":"ce4bgvh2rcd13ifvqcs0","pricing_plan_id":"cebpf4jnsgd1na2vs0mg"},{"bike_id":"68848945-f620-41ff-9818-a36c2baff89a","system_id":"levelo_inurba_marseille","lat":43.30325,"lon":5.40442,"is_reserved":false,"is_disabled":false,"rental_uris":{"android":"levelo://app?vid=68848945-f620-41ff-9818-a36c2baff89a","ios":"levelo://app?vid=68848945-f620-41ff-9818-a36c2baff89a"},"vehicle_type_id":"4","last_reported":1744229481,"current_range_meters":7200,"station_id":"ce4bh012rcd13ifvqd10","pricing_plan_id":"cebpf4jnsgd1na2vs0mg"},{"bike_id":"6650c56b-7012-403a-8fdd-eaa24045f69c","system_id":"levelo_inurba_marseille","lat":43.27969,"lon":5.38731,"is_reserved":false,"is_disabled":false,"rental_uris":{"android":"levelo://app?vid=6650c56b-7012-403a-8fdd-eaa24045f69c","ios":"levelo://app?vid=6650c56b-7012-403a-8fdd-eaa24045f69c"},"vehicle_type_id":"4","last_reported":1744229481,"current_range_meters":7200,"station_id":"ce4bhg12rcd13ifvqf80","pricing_plan_id":"cebpf4jnsgd1na2vs0mg"},{"bike_id":"690c16fd-a764-46d9-9f82-ab3dc6e9a512","system_id":"levelo_inurba_marseille","lat":43.29781,"lon":5.37084,"is_reserved":false,"is_disabled":false,"rental_uris":{"android":"levelo://app?vid=690c16fd-a764-46d9-9f82-ab3dc6e9a512","ios":"levelo://app?vid=690c16fd-a764-46d9-9f82-ab3dc6e9a512"},"vehicle_type_id":"4","last_reported":1744229481,"current_range_meters":7200,"station_id":"ce4bgop2rcd13ifvqc1g","pricing_plan_id":"cebpf4jnsgd1na2vs0mg"},{"bike_id":"951a075f-4063-499f-95ef-2ec50db6526c","system_id":"levelo_inurba_marseille","lat":43.22919,"lon":5.35386,"is_reserved":false,"is_disabled":false,"rental_uris":{"android":"levelo://app?vid=951a075f-4063-499f-95ef-2ec50db6526c","ios":"levelo://app?vid=951a075f-4063-499f-95ef-2ec50db6526c"},"vehicle_type_id":"4","last_reported":1744229481,"current_range_meters":7200,"station_id":"cpo3532slgdg3j2ikp40","pricing_plan_id":"cebpf4jnsgd1na2vs0mg"},{"bike_id":"db1c55f0-6cfc-4829-91dd-1d17965a83e5","system_id":"levelo_inurba_marseille","lat":43.3013,"lon":5.38784,"is_reserved":false,"is_disabled":false,"rental_uris":{"android":"levelo://app?vid=db1c55f0-6cfc-4829-91dd-1d17965a83e5","ios":"levelo://app?vid=db1c55f0-6cfc-4829-91dd-1d17965a83e5"},"vehicle_type_id":"4","last_reported":1744229481,"current_range_meters":7200,"station_id":"ce4bghh2rcd13ifvqb60","pricing_plan_id":"cebpf4jnsgd1na2vs0mg"},{"bike_id":"c40a2e2c-2a66-4aa2-81cf-c4ae98211b54","system_id":"levelo_inurba_marseille","lat":43.21749,"lon":5.34604,"is_reserved":false,"is_disabled":false,"rental_uris":{"android":"levelo://app?vid=c40a2e2c-2a66-4aa2-81cf-c4ae98211b54","ios":"levelo://app?vid=c40a2e2c-2a66-4aa2-81cf-c4ae98211b54"},"vehicle_type_id":"4","last_reported":1744229481,"current_range_meters":7200,"station_id":"st_cvj6r9ubvosntc0bgbag","pricing_plan_id":"cebpf4jnsgd1na2vs0mg"},{"bike_id":"806aabc5-a68c-49c9-9a9a-b9e74a1e0ea6","system_id":"levelo_inurba_marseille","lat":43.24826,"lon":5.37447,"is_reserved":false,"is_disabled":false,"rental_uris":{"android":"levelo://app?vid=806aabc5-a68c-49c9-9a9a-b9e74a1e0ea6","ios":"levelo://app?vid=806aabc5-a68c-49c9-9a9a-b9e74a1e0ea6"},"vehicle_type_id":"4","last_reported":1744229481,"current_range_meters":7200,"station_id":"ce4bhgh2rcd13ifvqfb0","pricing_plan_id":"cebpf4jnsgd1na2vs0mg"},{"bike_id":"304993a2-7aa4-4a77-8f56-953045ccac9f","system_id":"levelo_inurba_marseille","lat":43.26788,"lon":5.39412,"is_reserved":false,"is_disabled":false,"rental_uris":{"android":"levelo://app?vid=304993a2-7aa4-4a77-8f56-953045ccac9f","ios":"levelo://app?vid=304993a2-7aa4-4a77-8f56-953045ccac9f"},"vehicle_type_id":"4","last_reported":1744229481,"current_range_meters":7200,"station_id":"ce4bhh12rcd13ifvqfg0","pricing_plan_id":"cebpf4jnsgd1na2vs0mg"},{"bike_id":"cb4c20d8-81f8-4b24-be70-4540f41d4dbd","system_id":"levelo_inurba_marseille","lat":43.27918,"lon":5.39584,"is_reserved":false,"is_disabled":false,"rental_uris":{"android":"levelo://app?vid=cb4c20d8-81f8-4b24-be70-4540f41d4dbd","ios":"levelo://app?vid=cb4c20d8-81f8-4b24-be70-4540f41d4dbd"},"vehicle_type_id":"4","last_reported":1744229481,"current_range_meters":8000,"station_id":"ce4bhf92rcd13ifvqf40","pricing_plan_id":"cebpf4jnsgd1na2vs0mg"},{"bike_id":"bc41586b-49ab-4384-a354-abae8767ef13","system_id":"levelo_inurba_marseille","lat":43.29586,"lon":5.37697,"is_reserved":false,"is_disabled":false,"rental_uris":{"android":"levelo://app?vid=bc41586b-49ab-4384-a354-abae8767ef13","ios":"levelo://app?vid=bc41586b-49ab-4384-a354-abae8767ef13"},"vehicle_type_id":"4","last_reported":1744229481,"current_range_meters":8000,"station_id":"ce4bgi92rcd13ifvqb90","pricing_plan_id":"cebpf4jnsgd1na2vs0mg"},{"bike_id":"80663e12-6b64-446d-88c9-20255bde1a8a","system_id":"levelo_inurba_marseille","lat":43.30886,"lon":5.39634,"is_reserved":false,"is_disabled":true,"rental_uris":{"android":"levelo://app?vid=80663e12-6b64-446d-88c9-20255bde1a8a","ios":"levelo://app?vid=80663e12-6b64-446d-88c9-20255bde1a8a"},"vehicle_type_id":"4","last_reported":1744229481,"current_range_meters":8000,"station_id":"ce4bh012rcd13ifvqcv0","pricing_plan_id":"cebpf4jnsgd1na2vs0mg"},{"bike_id":"117be171-4e56-41e4-86e6-8fbe4c010556","system_id":"levelo_inurba_marseille","lat":43.27908,"lon":5.39598,"is_reserved":false,"is_disabled":false,"rental_uris":{"android":"levelo://app?vid=117be171-4e56-41e4-86e6-8fbe4c010556","ios":"levelo://app?vid=117be171-4e56-41e4-86e6-8fbe4c010556"},"vehicle_type_id":"4","last_reported":1744229481,"current_range_meters":8000,"station_id":"ce4bhf92rcd13ifvqf40","pricing_plan_id":"cebpf4jnsgd1na2vs0mg"},{"bike_id":"08f9c0c8-8b33-4578-8a03-20f44d582241","system_id":"levelo_inurba_marseille","lat":43.3053,"lon":5.36987,"is_reserved":false,"is_disabled":false,"rental_uris":{"android":"levelo://app?vid=08f9c0c8-8b33-4578-8a03-20f44d582241","ios":"levelo://app?vid=08f9c0c8-8b33-4578-8a03-20f44d582241"},"vehicle_type_id":"4","last_reported":1744229481,"current_range_meters":8000,"station_id":"","pricing_plan_id":"cebpf4jnsgd1na2vs0mg"},{"bike_id":"feca3d9e-12e9-4a3a-8f8a-211aa953b3fa","system_id":"levelo_inurba_marseille","lat":43.29303,"lon":5.41161,"is_reserved":false,"is_disabled":false,"rental_uris":{"android":"levelo://app?vid=feca3d9e-12e9-4a3a-8f8a-211aa953b3fa","ios":"levelo://app?vid=feca3d9e-12e9-4a3a-8f8a-211aa953b3fa"},"vehicle_type_id":"4","last_reported":1744229481,"current_range_meters":8000,"station_id":"","pricing_plan_id":"cebpf4jnsgd1na2vs0mg"},{"bike_id":"b397701f-0d3d-44bf-ab3e-3ccc7e74fb2e","system_id":"levelo_inurba_marseille","lat":43.264386,"lon":5.422741,"is_reserved":false,"is_disabled":false,"rental_uris":{"android":"levelo://app?vid=b397701f-0d3d-44bf-ab3e-3ccc7e74fb2e","ios":"levelo://app?vid=b397701f-0d3d-44bf-ab3e-3ccc7e74fb2e"},"vehicle_type_id":"4","last_reported":1744229481,"current_range_meters":8000,"station_id":"","pricing_plan_id":"cebpf4jnsgd1na2vs0mg"},{"bike_id":"cf249a5f-af00-42a3-891f-2a32c7072ed3","system_id":"levelo_inurba_marseille","lat":43.26222,"lon":5.40451,"is_reserved":false,"is_disabled":false,"rental_uris":{"android":"levelo://app?vid=cf249a5f-af00-42a3-891f-2a32c7072ed3","ios":"levelo://app?vid=cf249a5f-af00-42a3-891f-2a32c7072ed3"},"vehicle_type_id":"4","last_reported":1744229481,"current_range_meters":8400,"station_id":"ce4bhmh2rcd13ifvqgmg","pricing_plan_id":"cebpf4jnsgd1na2vs0mg"},{"bike_id":"1adcfecd-7da9-485c-b40f-e62ffc130e51","system_id":"levelo_inurba_marseille","lat":43.21758,"lon":5.34593,"is_reserved":false,"is_disabled":false,"rental_uris":{"android":"levelo://app?vid=1adcfecd-7da9-485c-b40f-e62ffc130e51","ios":"levelo://app?vid=1adcfecd-7da9-485c-b40f-e62ffc130e51"},"vehicle_type_id":"4","last_reported":1744229481,"current_range_meters":8400,"station_id":"st_cvj6r9ubvosntc0bgbag","pricing_plan_id":"cebpf4jnsgd1na2vs0mg"},{"bike_id":"523f199e-c50d-4cd7-8cb0-ecd6da8f7fb1","system_id":"levelo_inurba_marseille","lat":43.31733,"lon":5.42379,"is_reserved":false,"is_disabled":false,"rental_uris":{"android":"levelo://app?vid=523f199e-c50d-4cd7-8cb0-ecd6da8f7fb1","ios":"levelo://app?vid=523f199e-c50d-4cd7-8cb0-ecd6da8f7fb1"},"vehicle_type_id":"4","last_reported":1744229481,"current_range_meters":8400,"station_id":"ce4bhp92rcd13ifvqhbg","pricing_plan_id":"cebpf4jnsgd1na2vs0mg"},{"bike_id":"7c41bab6-0404-4314-b218-f822072c5aba","system_id":"levelo_inurba_marseille","lat":43.24081,"lon":5.3773,"is_reserved":false,"is_disabled":false,"rental_uris":{"android":"levelo://app?vid=7c41bab6-0404-4314-b218-f822072c5aba","ios":"levelo://app?vid=7c41bab6-0404-4314-b218-f822072c5aba"},"vehicle_type_id":"4","last_reported":1744229481,"current_range_meters":8400,"station_id":"ce4bhnp2rcd13ifvqgvg","pricing_plan_id":"cebpf4jnsgd1na2vs0mg"},{"bike_id":"2f8549bd-7a5a-4a09-98b7-f7f14a1bc74f","system_id":"levelo_inurba_marseille","lat":43.31181,"lon":5.3872,"is_reserved":false,"is_disabled":false,"rental_uris":{"android":"levelo://app?vid=2f8549bd-7a5a-4a09-98b7-f7f14a1bc74f","ios":"levelo://app?vid=2f8549bd-7a5a-4a09-98b7-f7f14a1bc74f"},"vehicle_type_id":"4","last_reported":1744229481,"current_range_meters":8400,"station_id":"ce4bgv12rcd13ifvqcp0","pricing_plan_id":"cebpf4jnsgd1na2vs0mg"},{"bike_id":"fc973399-e131-445b-9648-7b0ac8e69419","system_id":"levelo_inurba_marseille","lat":43.26554,"lon":5.37286,"is_reserved":false,"is_disabled":false,"rental_uris":{"android":"levelo://app?vid=fc973399-e131-445b-9648-7b0ac8e69419","ios":"levelo://app?vid=fc973399-e131-445b-9648-7b0ac8e69419"},"vehicle_type_id":"4","last_reported":1744229481,"current_range_meters":8400,"station_id":"ce4bhg12rcd13ifvqf70","pricing_plan_id":"cebpf4jnsgd1na2vs0mg"},{"bike_id":"2ea0e531-d908-4aba-86b9-16b6889b5ad9","system_id":"levelo_inurba_marseille","lat":43.28376,"lon":5.38662,"is_reserved":false,"is_disabled":false,"rental_uris":{"android":"levelo://app?vid=2ea0e531-d908-4aba-86b9-16b6889b5ad9","ios":"levelo://app?vid=2ea0e531-d908-4aba-86b9-16b6889b5ad9"},"vehicle_type_id":"4","last_reported":1744229481,"current_range_meters":8400,"station_id":"ce4bh492rcd13ifvqdvg","pricing_plan_id":"cebpf4jnsgd1na2vs0mg"},{"bike_id":"a6062fb8-9956-4878-9240-a78ab7935b55","system_id":"levelo_inurba_marseille","lat":43.27915,"lon":5.39578,"is_reserved":false,"is_disabled":false,"rental_uris":{"android":"levelo://app?vid=a6062fb8-9956-4878-9240-a78ab7935b55","ios":"levelo://app?vid=a6062fb8-9956-4878-9240-a78ab7935b55"},"vehicle_type_id":"4","last_reported":1744229481,"current_range_meters":8400,"station_id":"ce4bhf92rcd13ifvqf40","pricing_plan_id":"cebpf4jnsgd1na2vs0mg"},{"bike_id":"8bba85c0-145d-46f8-870c-07afd8cdd001","system_id":"levelo_inurba_marseille","lat":43.30595,"lon":5.39359,"is_reserved":false,"is_disabled":false,"rental_uris":{"android":"levelo://app?vid=8bba85c0-145d-46f8-870c-07afd8cdd001","ios":"levelo://app?vid=8bba85c0-145d-46f8-870c-07afd8cdd001"},"vehicle_type_id":"4","last_reported":1744229481,"current_range_meters":8800,"station_id":"ce4bh0p2rcd13ifvqd80","pricing_plan_id":"cebpf4jnsgd1na2vs0mg"},{"bike_id":"4eb280b3-5923-4cd2-a122-21058a7d0c17","system_id":"levelo_inurba_marseille","lat":43.24171,"lon":5.39731,"is_reserved":false,"is_disabled":false,"rental_uris":{"android":"levelo://app?vid=4eb280b3-5923-4cd2-a122-21058a7d0c17","ios":"levelo://app?vid=4eb280b3-5923-4cd2-a122-21058a7d0c17"},"vehicle_type_id":"4","last_reported":1744229481,"current_range_meters":8800,"station_id":"ce4bhn12rcd13ifvqgpg","pricing_plan_id":"cebpf4jnsgd1na2vs0mg"},{"bike_id":"5bdeb26a-11aa-4dd3-b37a-508fd7b0299b","system_id":"levelo_inurba_marseille","lat":43.29026,"lon":5.3864,"is_reserved":false,"is_disabled":false,"rental_uris":{"android":"levelo://app?vid=5bdeb26a-11aa-4dd3-b37a-508fd7b0299b","ios":"levelo://app?vid=5bdeb26a-11aa-4dd3-b37a-508fd7b0299b"},"vehicle_type_id":"4","last_reported":1744229481,"current_range_meters":8800,"station_id":"ce4bh4p2rcd13ifvqe0g","pricing_plan_id":"cebpf4jnsgd1na2vs0mg"},{"bike_id":"841cc48f-644f-4c42-a397-236e943da4b4","system_id":"levelo_inurba_marseille","lat":43.27074,"lon":5.42299,"is_reserved":false,"is_disabled":false,"rental_uris":{"android":"levelo://app?vid=841cc48f-644f-4c42-a397-236e943da4b4","ios":"levelo://app?vid=841cc48f-644f-4c42-a397-236e943da4b4"},"vehicle_type_id":"4","last_reported":1744229481,"current_range_meters":8800,"station_id":"ce4bhk92rcd13ifvqgb0","pricing_plan_id":"cebpf4jnsgd1na2vs0mg"},{"bike_id":"3ff04e72-73e5-4ada-9baf-e5e1244be974","system_id":"levelo_inurba_marseille","lat":43.31335,"lon":5.39677,"is_reserved":false,"is_disabled":false,"rental_uris":{"android":"levelo://app?vid=3ff04e72-73e5-4ada-9baf-e5e1244be974","ios":"levelo://app?vid=3ff04e72-73e5-4ada-9baf-e5e1244be974"},"vehicle_type_id":"4","last_reported":1744229481,"current_range_meters":8800,"station_id":"ce4bgvp2rcd13ifvqcu0","pricing_plan_id":"cebpf4jnsgd1na2vs0mg"},{"bike_id":"2293611d-7025-48e3-be5a-dfd45666a02b","system_id":"levelo_inurba_marseille","lat":43.31079,"lon":5.37785,"is_reserved":false,"is_disabled":false,"rental_uris":{"android":"levelo://app?vid=2293611d-7025-48e3-be5a-dfd45666a02b","ios":"levelo://app?vid=2293611d-7025-48e3-be5a-dfd45666a02b"},"vehicle_type_id":"4","last_reported":1744229481,"current_range_meters":8800,"station_id":"ce4bgt92rcd13ifvqcg0","pricing_plan_id":"cebpf4jnsgd1na2vs0mg"},{"bike_id":"6de31d8a-1560-4765-9df8-3bc7e9c88f85","system_id":"levelo_inurba_marseille","lat":43.30305,"lon":5.39217,"is_reserved":false,"is_disabled":false,"rental_uris":{"android":"levelo://app?vid=6de31d8a-1560-4765-9df8-3bc7e9c88f85","ios":"levelo://app?vid=6de31d8a-1560-4765-9df8-3bc7e9c88f85"},"vehicle_type_id":"4","last_reported":1744229481,"current_range_meters":8800,"station_id":"ce4bgkh2rcd13ifvqbk0","pricing_plan_id":"cebpf4jnsgd1na2vs0mg"},{"bike_id":"f4ff9495-9c4e-4975-99b0-e9aaca2598e2","system_id":"levelo_inurba_marseille","lat":43.29252,"lon":5.38446,"is_reserved":false,"is_disabled":false,"rental_uris":{"android":"levelo://app?vid=f4ff9495-9c4e-4975-99b0-e9aaca2598e2","ios":"levelo://app?vid=f4ff9495-9c4e-4975-99b0-e9aaca2598e2"},"vehicle_type_id":"4","last_reported":1744229481,"current_range_meters":9200,"station_id":"ce4bh692rcd13ifvqea0","pricing_plan_id":"cebpf4jnsgd1na2vs0mg"},{"bike_id":"db431e18-899c-422d-86f2-b88017499b1a","system_id":"levelo_inurba_marseille","lat":43.29869,"lon":5.38173,"is_reserved":false,"is_disabled":false,"rental_uris":{"android":"levelo://app?vid=db431e18-899c-422d-86f2-b88017499b1a","ios":"levelo://app?vid=db431e18-899c-422d-86f2-b88017499b1a"},"vehicle_type_id":"4","last_reported":1744229481,"current_range_meters":9200,"station_id":"ce4bgj12rcd13ifvqbc0","pricing_plan_id":"cebpf4jnsgd1na2vs0mg"},{"bike_id":"8b2d77f0-327c-4fd1-824a-28ad9d8a406b","system_id":"levelo_inurba_marseille","lat":43.30642,"lon":5.40078,"is_reserved":false,"is_disabled":false,"rental_uris":{"android":"levelo://app?vid=8b2d77f0-327c-4fd1-824a-28ad9d8a406b","ios":"levelo://app?vid=8b2d77f0-327c-4fd1-824a-28ad9d8a406b"},"vehicle_type_id":"4","last_reported":1744229481,"current_range_meters":9200,"station_id":"ce4bh112rcd13ifvqda0","pricing_plan_id":"cebpf4jnsgd1na2vs0mg"},{"bike_id":"ff731aec-71b8-46a4-8e6a-87f50d4c0728","system_id":"levelo_inurba_marseille","lat":43.28352,"lon":5.38105,"is_reserved":false,"is_disabled":false,"rental_uris":{"android":"levelo://app?vid=ff731aec-71b8-46a4-8e6a-87f50d4c0728","ios":"levelo://app?vid=ff731aec-71b8-46a4-8e6a-87f50d4c0728"},"vehicle_type_id":"4","last_reported":1744229481,"current_range_meters":9200,"station_id":"ce4bh412rcd13ifvqdr0","pricing_plan_id":"cebpf4jnsgd1na2vs0mg"},{"bike_id":"e44fda30-6a40-4761-ab8c-d6213ab027d7","system_id":"levelo_inurba_marseille","lat":43.28404,"lon":5.37519,"is_reserved":false,"is_disabled":false,"rental_uris":{"android":"levelo://app?vid=e44fda30-6a40-4761-ab8c-d6213ab027d7","ios":"levelo://app?vid=e44fda30-6a40-4761-ab8c-d6213ab027d7"},"vehicle_type_id":"4","last_reported":1744229481,"current_range_meters":9200,"station_id":"ce4bh412rcd13ifvqds0","pricing_plan_id":"cebpf4jnsgd1na2vs0mg"},{"bike_id":"0e7051ad-00f7-4897-9995-929c1987289a","system_id":"levelo_inurba_marseille","lat":43.34153,"lon":5.37008,"is_reserved":false,"is_disabled":false,"rental_uris":{"android":"levelo://app?vid=0e7051ad-00f7-4897-9995-929c1987289a","ios":"levelo://app?vid=0e7051ad-00f7-4897-9995-929c1987289a"},"vehicle_type_id":"4","last_reported":1744229481,"current_range_meters":9200,"station_id":"","pricing_plan_id":"cebpf4jnsgd1na2vs0mg"},{"bike_id":"1ac484de-8aab-4635-9fb6-a01309010087","system_id":"levelo_inurba_marseille","lat":43.29572,"lon":5.39974,"is_reserved":false,"is_disabled":false,"rental_uris":{"android":"levelo://app?vid=1ac484de-8aab-4635-9fb6-a01309010087","ios":"levelo://app?vid=1ac484de-8aab-4635-9fb6-a01309010087"},"vehicle_type_id":"4","last_reported":1744229481,"current_range_meters":9600,"station_id":"ce4bh312rcd13ifvqdj0","pricing_plan_id":"cebpf4jnsgd1na2vs0mg"},{"bike_id":"ab29a2e3-2fba-480e-905f-aa7fea000cd3","system_id":"levelo_inurba_marseille","lat":43.2679,"lon":5.40266,"is_reserved":false,"is_disabled":false,"rental_uris":{"android":"levelo://app?vid=ab29a2e3-2fba-480e-905f-aa7fea000cd3","ios":"levelo://app?vid=ab29a2e3-2fba-480e-905f-aa7fea000cd3"},"vehicle_type_id":"4","last_reported":1744229481,"current_range_meters":9600,"station_id":"ce501612rcd8frsf0b60","pricing_plan_id":"cebpf4jnsgd1na2vs0mg"},{"bike_id":"85c6c1a7-1e02-4ae5-b680-67cbc15bed7f","system_id":"levelo_inurba_marseille","lat":43.27493,"lon":5.42444,"is_reserved":false,"is_disabled":false,"rental_uris":{"android":"levelo://app?vid=85c6c1a7-1e02-4ae5-b680-67cbc15bed7f","ios":"levelo://app?vid=85c6c1a7-1e02-4ae5-b680-67cbc15bed7f"},"vehicle_type_id":"4","last_reported":1744229481,"current_range_meters":9600,"station_id":"ce4bhn92rcd13ifvqgrg","pricing_plan_id":"cebpf4jnsgd1na2vs0mg"},{"bike_id":"03284e8c-f9f2-47a7-9b7e-33533e020c69","system_id":"levelo_inurba_marseille","lat":43.28667,"lon":5.363512,"is_reserved":false,"is_disabled":false,"rental_uris":{"android":"levelo://app?vid=03284e8c-f9f2-47a7-9b7e-33533e020c69","ios":"levelo://app?vid=03284e8c-f9f2-47a7-9b7e-33533e020c69"},"vehicle_type_id":"4","last_reported":1744229481,"current_range_meters":9600,"station_id":"ce4bhah2rcd13ifvqej0","pricing_plan_id":"cebpf4jnsgd1na2vs0mg"},{"bike_id":"1a8c3bfa-7658-4f5e-93b8-93807ec24b6f","system_id":"levelo_inurba_marseille","lat":43.26573,"lon":5.3903,"is_reserved":false,"is_disabled":true,"rental_uris":{"android":"levelo://app?vid=1a8c3bfa-7658-4f5e-93b8-93807ec24b6f","ios":"levelo://app?vid=1a8c3bfa-7658-4f5e-93b8-93807ec24b6f"},"vehicle_type_id":"4","last_reported":1744229481,"current_range_meters":9600,"station_id":"ce4bhe12rcd13ifvqf30","pricing_plan_id":"cebpf4jnsgd1na2vs0mg"},{"bike_id":"711d68ab-f3c5-466b-859a-15d5aaf1caae","system_id":"levelo_inurba_marseille","lat":43.27803,"lon":5.40724,"is_reserved":false,"is_disabled":false,"rental_uris":{"android":"levelo://app?vid=711d68ab-f3c5-466b-859a-15d5aaf1caae","ios":"levelo://app?vid=711d68ab-f3c5-466b-859a-15d5aaf1caae"},"vehicle_type_id":"4","last_reported":1744229481,"current_range_meters":9200,"station_id":"ce4bhnh2rcd13ifvqgtg","pricing_plan_id":"cebpf4jnsgd1na2vs0mg"},{"bike_id":"25342297-a032-41cd-b93e-bfbfdad394a5","system_id":"levelo_inurba_marseille","lat":43.2902,"lon":5.37575,"is_reserved":false,"is_disabled":false,"rental_uris":{"android":"levelo://app?vid=25342297-a032-41cd-b93e-bfbfdad394a5","ios":"levelo://app?vid=25342297-a032-41cd-b93e-bfbfdad394a5"},"vehicle_type_id":"4","last_reported":1744229481,"current_range_meters":9600,"station_id":"ce4bh692rcd13ifvqe90","pricing_plan_id":"cebpf4jnsgd1na2vs0mg"},{"bike_id":"b0ee8110-12b9-4204-b103-76680f3e4afd","system_id":"levelo_inurba_marseille","lat":43.30655,"lon":5.4005,"is_reserved":false,"is_disabled":false,"rental_uris":{"android":"levelo://app?vid=b0ee8110-12b9-4204-b103-76680f3e4afd","ios":"levelo://app?vid=b0ee8110-12b9-4204-b103-76680f3e4afd"},"vehicle_type_id":"4","last_reported":1744229481,"current_range_meters":9600,"station_id":"ce4bh112rcd13ifvqda0","pricing_plan_id":"cebpf4jnsgd1na2vs0mg"},{"bike_id":"8fa78f52-8834-4b2c-8a1d-e4f911c35cd4","system_id":"levelo_inurba_marseille","lat":43.25737,"lon":5.41095,"is_reserved":false,"is_disabled":true,"rental_uris":{"android":"levelo://app?vid=8fa78f52-8834-4b2c-8a1d-e4f911c35cd4","ios":"levelo://app?vid=8fa78f52-8834-4b2c-8a1d-e4f911c35cd4"},"vehicle_type_id":"4","last_reported":1744229481,"current_range_meters":10000,"station_id":"ce4bhkp2rcd13ifvqgd0","pricing_plan_id":"cebpf4jnsgd1na2vs0mg"},{"bike_id":"cf334e37-1932-42c6-b9e9-e5d0e849cd74","system_id":"levelo_inurba_marseille","lat":43.29518,"lon":5.39404,"is_reserved":false,"is_disabled":false,"rental_uris":{"android":"levelo://app?vid=cf334e37-1932-42c6-b9e9-e5d0e849cd74","ios":"levelo://app?vid=cf334e37-1932-42c6-b9e9-e5d0e849cd74"},"vehicle_type_id":"4","last_reported":1744229481,"current_range_meters":10000,"station_id":"ce4bh292rcd13ifvqdf0","pricing_plan_id":"cebpf4jnsgd1na2vs0mg"},{"bike_id":"8b1885c7-c990-486a-9363-3a428e6713c7","system_id":"levelo_inurba_marseille","lat":43.28462,"lon":5.3588,"is_reserved":false,"is_disabled":false,"rental_uris":{"android":"levelo://app?vid=8b1885c7-c990-486a-9363-3a428e6713c7","ios":"levelo://app?vid=8b1885c7-c990-486a-9363-3a428e6713c7"},"vehicle_type_id":"4","last_reported":1744229481,"current_range_meters":10000,"station_id":"ce4bhah2rcd13ifvqei0","pricing_plan_id":"cebpf4jnsgd1na2vs0mg"},{"bike_id":"28b901ca-f450-46be-98f2-eb62b58396b1","system_id":"levelo_inurba_marseille","lat":43.30597,"lon":5.39358,"is_reserved":false,"is_disabled":false,"rental_uris":{"android":"levelo://app?vid=28b901ca-f450-46be-98f2-eb62b58396b1","ios":"levelo://app?vid=28b901ca-f450-46be-98f2-eb62b58396b1"},"vehicle_type_id":"4","last_reported":1744229481,"current_range_meters":10000,"station_id":"ce4bh0p2rcd13ifvqd80","pricing_plan_id":"cebpf4jnsgd1na2vs0mg"},{"bike_id":"68bb489e-c4e2-4ece-ba38-7a818ae7ebb3","system_id":"levelo_inurba_marseille","lat":43.27828,"lon":5.39203,"is_reserved":false,"is_disabled":false,"rental_uris":{"android":"levelo://app?vid=68bb489e-c4e2-4ece-ba38-7a818ae7ebb3","ios":"levelo://app?vid=68bb489e-c4e2-4ece-ba38-7a818ae7ebb3"},"vehicle_type_id":"4","last_reported":1744229481,"current_range_meters":10000,"station_id":"ce4bhjp2rcd13ifvqga0","pricing_plan_id":"cebpf4jnsgd1na2vs0mg"},{"bike_id":"9250f7ee-9c09-4ee4-a261-efb6cca51dd7","system_id":"levelo_inurba_marseille","lat":43.23977,"lon":5.36618,"is_reserved":false,"is_disabled":false,"rental_uris":{"android":"levelo://app?vid=9250f7ee-9c09-4ee4-a261-efb6cca51dd7","ios":"levelo://app?vid=9250f7ee-9c09-4ee4-a261-efb6cca51dd7"},"vehicle_type_id":"4","last_reported":1744229481,"current_range_meters":10000,"station_id":"ce4bhi12rcd13ifvqfp0","pricing_plan_id":"cebpf4jnsgd1na2vs0mg"},{"bike_id":"60bc3fb2-7a9c-478d-bae3-531d94541e5b","system_id":"levelo_inurba_marseille","lat":43.27084,"lon":5.42251,"is_reserved":false,"is_disabled":false,"rental_uris":{"android":"levelo://app?vid=60bc3fb2-7a9c-478d-bae3-531d94541e5b","ios":"levelo://app?vid=60bc3fb2-7a9c-478d-bae3-531d94541e5b"},"vehicle_type_id":"4","last_reported":1744229481,"current_range_meters":10000,"station_id":"ce4bhk92rcd13ifvqgb0","pricing_plan_id":"cebpf4jnsgd1na2vs0mg"},{"bike_id":"e82ff523-b20b-4178-8f7c-390cb9887af2","system_id":"levelo_inurba_marseille","lat":43.29093,"lon":5.38114,"is_reserved":false,"is_disabled":false,"rental_uris":{"android":"levelo://app?vid=e82ff523-b20b-4178-8f7c-390cb9887af2","ios":"levelo://app?vid=e82ff523-b20b-4178-8f7c-390cb9887af2"},"vehicle_type_id":"4","last_reported":1744229481,"current_range_meters":10000,"station_id":"ce4bh512rcd13ifvqe2g","pricing_plan_id":"cebpf4jnsgd1na2vs0mg"},{"bike_id":"6489eed7-b3ec-4710-af25-821f5e0ec8e0","system_id":"levelo_inurba_marseille","lat":43.29874,"lon":5.39739,"is_reserved":false,"is_disabled":false,"rental_uris":{"android":"levelo://app?vid=6489eed7-b3ec-4710-af25-821f5e0ec8e0","ios":"levelo://app?vid=6489eed7-b3ec-4710-af25-821f5e0ec8e0"},"vehicle_type_id":"4","last_reported":1744229481,"current_range_meters":10000,"station_id":"ce4bh0h2rcd13ifvqd50","pricing_plan_id":"cebpf4jnsgd1na2vs0mg"},{"bike_id":"273d917b-9626-4bc3-af2a-64134c30c9f0","system_id":"levelo_inurba_marseille","lat":43.29622,"lon":5.40585,"is_reserved":false,"is_disabled":false,"rental_uris":{"android":"levelo://app?vid=273d917b-9626-4bc3-af2a-64134c30c9f0","ios":"levelo://app?vid=273d917b-9626-4bc3-af2a-64134c30c9f0"},"vehicle_type_id":"4","last_reported":1744229481,"current_range_meters":10000,"station_id":"ce4bh0h2rcd13ifvqd60","pricing_plan_id":"cebpf4jnsgd1na2vs0mg"},{"bike_id":"a5f81979-db12-42e6-b86b-94d39f8f2d1c","system_id":"levelo_inurba_marseille","lat":43.3109,"lon":5.42418,"is_reserved":false,"is_disabled":false,"rental_uris":{"android":"levelo://app?vid=a5f81979-db12-42e6-b86b-94d39f8f2d1c","ios":"levelo://app?vid=a5f81979-db12-42e6-b86b-94d39f8f2d1c"},"vehicle_type_id":"4","last_reported":1744229481,"current_range_meters":10000,"station_id":"ce4bhp92rcd13ifvqhag","pricing_plan_id":"cebpf4jnsgd1na2vs0mg"},{"bike_id":"4e50999f-1b83-4f2d-beb9-95cad795279e","system_id":"levelo_inurba_marseille","lat":43.31707,"lon":5.43702,"is_reserved":false,"is_disabled":false,"rental_uris":{"android":"levelo://app?vid=4e50999f-1b83-4f2d-beb9-95cad795279e","ios":"levelo://app?vid=4e50999f-1b83-4f2d-beb9-95cad795279e"},"vehicle_type_id":"4","last_reported":1744229481,"current_range_meters":10000,"station_id":"ce4bhp92rcd13ifvqhcg","pricing_plan_id":"cebpf4jnsgd1na2vs0mg"},{"bike_id":"4983afd3-2d43-40dc-8c09-8bc37c3d7e50","system_id":"levelo_inurba_marseille","lat":43.29788,"lon":5.37105,"is_reserved":false,"is_disabled":false,"rental_uris":{"android":"levelo://app?vid=4983afd3-2d43-40dc-8c09-8bc37c3d7e50","ios":"levelo://app?vid=4983afd3-2d43-40dc-8c09-8bc37c3d7e50"},"vehicle_type_id":"4","last_reported":1744229481,"current_range_meters":10000,"station_id":"ce4bgop2rcd13ifvqc1g","pricing_plan_id":"cebpf4jnsgd1na2vs0mg"},{"bike_id":"b2323607-30a0-4dcd-b86a-75bb6b4b1da9","system_id":"levelo_inurba_marseille","lat":43.30887,"lon":5.39641,"is_reserved":false,"is_disabled":false,"rental_uris":{"android":"levelo://app?vid=b2323607-30a0-4dcd-b86a-75bb6b4b1da9","ios":"levelo://app?vid=b2323607-30a0-4dcd-b86a-75bb6b4b1da9"},"vehicle_type_id":"4","last_reported":1744229481,"current_range_meters":10800,"station_id":"ce4bh012rcd13ifvqcv0","pricing_plan_id":"cebpf4jnsgd1na2vs0mg"},{"bike_id":"2a353b13-ee6b-4196-b870-d93aa6abf93a","system_id":"levelo_inurba_marseille","lat":43.25814,"lon":5.39437,"is_reserved":false,"is_disabled":false,"rental_uris":{"android":"levelo://app?vid=2a353b13-ee6b-4196-b870-d93aa6abf93a","ios":"levelo://app?vid=2a353b13-ee6b-4196-b870-d93aa6abf93a"},"vehicle_type_id":"4","last_reported":1744229481,"current_range_meters":10000,"station_id":"ce4bhip2rcd13ifvqft0","pricing_plan_id":"cebpf4jnsgd1na2vs0mg"},{"bike_id":"9aa0b7b6-abb8-4a5e-bf68-151a0045be71","system_id":"levelo_inurba_marseille","lat":43.28672,"lon":5.38669,"is_reserved":false,"is_disabled":false,"rental_uris":{"android":"levelo://app?vid=9aa0b7b6-abb8-4a5e-bf68-151a0045be71","ios":"levelo://app?vid=9aa0b7b6-abb8-4a5e-bf68-151a0045be71"},"vehicle_type_id":"4","last_reported":1744229481,"current_range_meters":10000,"station_id":"ce4bh492rcd13ifvqdug","pricing_plan_id":"cebpf4jnsgd1na2vs0mg"},{"bike_id":"a7096ac2-8449-41c2-be54-9f2ae8294c09","system_id":"levelo_inurba_marseille","lat":43.32364,"lon":5.38869,"is_reserved":false,"is_disabled":false,"rental_uris":{"android":"levelo://app?vid=a7096ac2-8449-41c2-be54-9f2ae8294c09","ios":"levelo://app?vid=a7096ac2-8449-41c2-be54-9f2ae8294c09"},"vehicle_type_id":"4","last_reported":1744229481,"current_range_meters":10800,"station_id":"ce4bhqp2rcd13ifvqhog","pricing_plan_id":"cebpf4jnsgd1na2vs0mg"},{"bike_id":"c1c84328-b412-42f6-bb08-d4273df8d987","system_id":"levelo_inurba_marseille","lat":43.30807,"lon":5.43528,"is_reserved":false,"is_disabled":false,"rental_uris":{"android":"levelo://app?vid=c1c84328-b412-42f6-bb08-d4273df8d987","ios":"levelo://app?vid=c1c84328-b412-42f6-bb08-d4273df8d987"},"vehicle_type_id":"4","last_reported":1744229481,"current_range_meters":10800,"station_id":"ce4bhph2rcd13ifvqheg","pricing_plan_id":"cebpf4jnsgd1na2vs0mg"},{"bike_id":"01e31f15-bc9b-4d18-bebd-edf19bcedef2","system_id":"levelo_inurba_marseille","lat":43.28714,"lon":5.37946,"is_reserved":false,"is_disabled":true,"rental_uris":{"android":"levelo://app?vid=01e31f15-bc9b-4d18-bebd-edf19bcedef2","ios":"levelo://app?vid=01e31f15-bc9b-4d18-bebd-edf19bcedef2"},"vehicle_type_id":"4","last_reported":1744229481,"current_range_meters":10800,"station_id":"ce4bh9p2rcd13ifvqec0","pricing_plan_id":"cebpf4jnsgd1na2vs0mg"},{"bike_id":"147f9b4c-1c73-4048-93a4-44a3ec726794","system_id":"levelo_inurba_marseille","lat":43.29574,"lon":5.37519,"is_reserved":false,"is_disabled":true,"rental_uris":{"android":"levelo://app?vid=147f9b4c-1c73-4048-93a4-44a3ec726794","ios":"levelo://app?vid=147f9b4c-1c73-4048-93a4-44a3ec726794"},"vehicle_type_id":"4","last_reported":1744229481,"current_range_meters":10800,"station_id":"ce4bgh92rcd13ifvqb50","pricing_plan_id":"cebpf4jnsgd1na2vs0mg"},{"bike_id":"0d05c424-4af6-4961-bebd-f107bfa0153f","system_id":"levelo_inurba_marseille","lat":43.28144,"lon":5.4264,"is_reserved":false,"is_disabled":false,"rental_uris":{"android":"levelo://app?vid=0d05c424-4af6-4961-bebd-f107bfa0153f","ios":"levelo://app?vid=0d05c424-4af6-4961-bebd-f107bfa0153f"},"vehicle_type_id":"4","last_reported":1744229481,"current_range_meters":10800,"station_id":"ce4bhnh2rcd13ifvqgug","pricing_plan_id":"cebpf4jnsgd1na2vs0mg"},{"bike_id":"064b7d8e-65f3-40c7-94d9-b25fde606c85","system_id":"levelo_inurba_marseille","lat":43.29883,"lon":5.38903,"is_reserved":false,"is_disabled":false,"rental_uris":{"android":"levelo://app?vid=064b7d8e-65f3-40c7-94d9-b25fde606c85","ios":"levelo://app?vid=064b7d8e-65f3-40c7-94d9-b25fde606c85"},"vehicle_type_id":"4","last_reported":1744229481,"current_range_meters":11200,"station_id":"ce4bh392rcd13ifvqdl0","pricing_plan_id":"cebpf4jnsgd1na2vs0mg"},{"bike_id":"17f4902e-c861-4806-a819-8e218247cad7","system_id":"levelo_inurba_marseille","lat":43.24702,"lon":5.38131,"is_reserved":false,"is_disabled":false,"rental_uris":{"android":"levelo://app?vid=17f4902e-c861-4806-a819-8e218247cad7","ios":"levelo://app?vid=17f4902e-c861-4806-a819-8e218247cad7"},"vehicle_type_id":"4","last_reported":1744229481,"current_range_meters":11200,"station_id":"ce4bhih2rcd13ifvqfr0","pricing_plan_id":"cebpf4jnsgd1na2vs0mg"},{"bike_id":"b85221dc-73c2-4729-bd2d-bf033ae6c975","system_id":"levelo_inurba_marseille","lat":43.29887,"lon":5.39737,"is_reserved":false,"is_disabled":false,"rental_uris":{"android":"levelo://app?vid=b85221dc-73c2-4729-bd2d-bf033ae6c975","ios":"levelo://app?vid=b85221dc-73c2-4729-bd2d-bf033ae6c975"},"vehicle_type_id":"4","last_reported":1744229481,"current_range_meters":11200,"station_id":"ce4bh0h2rcd13ifvqd50","pricing_plan_id":"cebpf4jnsgd1na2vs0mg"},{"bike_id":"a17e6cae-e8f2-45c0-b2fd-f1e0af3aab88","system_id":"levelo_inurba_marseille","lat":43.27814,"lon":5.40715,"is_reserved":false,"is_disabled":false,"rental_uris":{"android":"levelo://app?vid=a17e6cae-e8f2-45c0-b2fd-f1e0af3aab88","ios":"levelo://app?vid=a17e6cae-e8f2-45c0-b2fd-f1e0af3aab88"},"vehicle_type_id":"4","last_reported":1744229481,"current_range_meters":11200,"station_id":"ce4bhnh2rcd13ifvqgtg","pricing_plan_id":"cebpf4jnsgd1na2vs0mg"},{"bike_id":"5f30a5a4-de9f-499e-b151-b811ebb3b43a","system_id":"levelo_inurba_marseille","lat":43.31081,"lon":5.38341,"is_reserved":false,"is_disabled":true,"rental_uris":{"android":"levelo://app?vid=5f30a5a4-de9f-499e-b151-b811ebb3b43a","ios":"levelo://app?vid=5f30a5a4-de9f-499e-b151-b811ebb3b43a"},"vehicle_type_id":"4","last_reported":1744229481,"current_range_meters":11200,"station_id":"ce4bgv92rcd13ifvqcr0","pricing_plan_id":"cebpf4jnsgd1na2vs0mg"},{"bike_id":"cc0b19bd-0040-40ba-8872-0047c3cc2158","system_id":"levelo_inurba_marseille","lat":43.27363,"lon":5.36256,"is_reserved":false,"is_disabled":false,"rental_uris":{"android":"levelo://app?vid=cc0b19bd-0040-40ba-8872-0047c3cc2158","ios":"levelo://app?vid=cc0b19bd-0040-40ba-8872-0047c3cc2158"},"vehicle_type_id":"4","last_reported":1744229481,"current_range_meters":11200,"station_id":"ce4bhbh2rcd13ifvqeo0","pricing_plan_id":"cebpf4jnsgd1na2vs0mg"},{"bike_id":"b7317aba-9fcb-430d-bbc1-5d681e6a9794","system_id":"levelo_inurba_marseille","lat":43.28853,"lon":5.35851,"is_reserved":false,"is_disabled":false,"rental_uris":{"android":"levelo://app?vid=b7317aba-9fcb-430d-bbc1-5d681e6a9794","ios":"levelo://app?vid=b7317aba-9fcb-430d-bbc1-5d681e6a9794"},"vehicle_type_id":"4","last_reported":1744229481,"current_range_meters":11200,"station_id":"ce4bhb12rcd13ifvqem0","pricing_plan_id":"cebpf4jnsgd1na2vs0mg"},{"bike_id":"9f000f15-44e9-41e4-b51d-12e9a7f823c3","system_id":"levelo_inurba_marseille","lat":43.261981,"lon":5.379248,"is_reserved":false,"is_disabled":false,"rental_uris":{"android":"levelo://app?vid=9f000f15-44e9-41e4-b51d-12e9a7f823c3","ios":"levelo://app?vid=9f000f15-44e9-41e4-b51d-12e9a7f823c3"},"vehicle_type_id":"4","last_reported":1744229481,"current_range_meters":11600,"station_id":"ce4bhjp2rcd13ifvqg90","pricing_plan_id":"cebpf4jnsgd1na2vs0mg"},{"bike_id":"5962e474-2cbb-44c7-a13a-c84e88a66e72","system_id":"levelo_inurba_marseille","lat":43.24802,"lon":5.37461,"is_reserved":false,"is_disabled":false,"rental_uris":{"android":"levelo://app?vid=5962e474-2cbb-44c7-a13a-c84e88a66e72","ios":"levelo://app?vid=5962e474-2cbb-44c7-a13a-c84e88a66e72"},"vehicle_type_id":"4","last_reported":1744229481,"current_range_meters":11600,"station_id":"","pricing_plan_id":"cebpf4jnsgd1na2vs0mg"},{"bike_id":"b96be04a-adcd-4816-8c18-ee76dccce0e8","system_id":"levelo_inurba_marseille","lat":43.24158,"lon":5.36398,"is_reserved":false,"is_disabled":false,"rental_uris":{"android":"levelo://app?vid=b96be04a-adcd-4816-8c18-ee76dccce0e8","ios":"levelo://app?vid=b96be04a-adcd-4816-8c18-ee76dccce0e8"},"vehicle_type_id":"4","last_reported":1744229481,"current_range_meters":11600,"station_id":"cpo36qri1sfpv3e86is0","pricing_plan_id":"cebpf4jnsgd1na2vs0mg"},{"bike_id":"67bd6efa-2ce8-4eda-9fb5-35d34cc3f4b0","system_id":"levelo_inurba_marseille","lat":43.29045,"lon":5.35916,"is_reserved":false,"is_disabled":false,"rental_uris":{"android":"levelo://app?vid=67bd6efa-2ce8-4eda-9fb5-35d34cc3f4b0","ios":"levelo://app?vid=67bd6efa-2ce8-4eda-9fb5-35d34cc3f4b0"},"vehicle_type_id":"4","last_reported":1744229481,"current_range_meters":11200,"station_id":"ce4bha92rcd13ifvqeg0","pricing_plan_id":"cebpf4jnsgd1na2vs0mg"},{"bike_id":"8d230c60-9103-4548-9c22-ea80e462ea92","system_id":"levelo_inurba_marseille","lat":43.29262,"lon":5.37627,"is_reserved":false,"is_disabled":false,"rental_uris":{"android":"levelo://app?vid=8d230c60-9103-4548-9c22-ea80e462ea92","ios":"levelo://app?vid=8d230c60-9103-4548-9c22-ea80e462ea92"},"vehicle_type_id":"4","last_reported":1744229481,"current_range_meters":11600,"station_id":"ce4bgi12rcd13ifvqb80","pricing_plan_id":"cebpf4jnsgd1na2vs0mg"},{"bike_id":"375be09f-28fa-4691-9059-27c3df85058e","system_id":"levelo_inurba_marseille","lat":43.29581,"lon":5.3674,"is_reserved":false,"is_disabled":false,"rental_uris":{"android":"levelo://app?vid=375be09f-28fa-4691-9059-27c3df85058e","ios":"levelo://app?vid=375be09f-28fa-4691-9059-27c3df85058e"},"vehicle_type_id":"4","last_reported":1744229481,"current_range_meters":11600,"station_id":"ce4bgph2rcd13ifvqc2g","pricing_plan_id":"cebpf4jnsgd1na2vs0mg"},{"bike_id":"53fb0077-3a65-43ca-a501-d7c36dc0627d","system_id":"levelo_inurba_marseille","lat":43.31763,"lon":5.38701,"is_reserved":false,"is_disabled":false,"rental_uris":{"android":"levelo://app?vid=53fb0077-3a65-43ca-a501-d7c36dc0627d","ios":"levelo://app?vid=53fb0077-3a65-43ca-a501-d7c36dc0627d"},"vehicle_type_id":"4","last_reported":1744229481,"current_range_meters":12000,"station_id":"","pricing_plan_id":"cebpf4jnsgd1na2vs0mg"},{"bike_id":"49ff83c9-b7ae-4714-8e73-f563a5b3bbce","system_id":"levelo_inurba_marseille","lat":43.28186,"lon":5.4263,"is_reserved":false,"is_disabled":false,"rental_uris":{"android":"levelo://app?vid=49ff83c9-b7ae-4714-8e73-f563a5b3bbce","ios":"levelo://app?vid=49ff83c9-b7ae-4714-8e73-f563a5b3bbce"},"vehicle_type_id":"4","last_reported":1744229481,"current_range_meters":12000,"station_id":"ce4bhnh2rcd13ifvqgug","pricing_plan_id":"cebpf4jnsgd1na2vs0mg"},{"bike_id":"c2b98e84-77fe-4de0-8271-3028ee6ab3a2","system_id":"levelo_inurba_marseille","lat":43.25867,"lon":5.39895,"is_reserved":false,"is_disabled":false,"rental_uris":{"android":"levelo://app?vid=c2b98e84-77fe-4de0-8271-3028ee6ab3a2","ios":"levelo://app?vid=c2b98e84-77fe-4de0-8271-3028ee6ab3a2"},"vehicle_type_id":"4","last_reported":1744229481,"current_range_meters":12000,"station_id":"ce4bhl92rcd13ifvqghg","pricing_plan_id":"cebpf4jnsgd1na2vs0mg"},{"bike_id":"9fce7fb9-26b6-4832-9f96-ea1b75c489f0","system_id":"levelo_inurba_marseille","lat":43.21208,"lon":5.35076,"is_reserved":false,"is_disabled":false,"rental_uris":{"android":"levelo://app?vid=9fce7fb9-26b6-4832-9f96-ea1b75c489f0","ios":"levelo://app?vid=9fce7fb9-26b6-4832-9f96-ea1b75c489f0"},"vehicle_type_id":"4","last_reported":1744229481,"current_range_meters":12000,"station_id":"st_cvj6sg6p6f1abm77japg","pricing_plan_id":"cebpf4jnsgd1na2vs0mg"},{"bike_id":"42183e06-5978-4858-b301-03ad7c7deda6","system_id":"levelo_inurba_marseille","lat":43.2716,"lon":5.41011,"is_reserved":false,"is_disabled":false,"rental_uris":{"android":"levelo://app?vid=42183e06-5978-4858-b301-03ad7c7deda6","ios":"levelo://app?vid=42183e06-5978-4858-b301-03ad7c7deda6"},"vehicle_type_id":"4","last_reported":1744229481,"current_range_meters":12000,"station_id":"ce4bhl12rcd13ifvqgf0","pricing_plan_id":"cebpf4jnsgd1na2vs0mg"},{"bike_id":"51220fd5-275f-44db-a81e-280c0ca810af","system_id":"levelo_inurba_marseille","lat":43.32264,"lon":5.38534,"is_reserved":false,"is_disabled":false,"rental_uris":{"android":"levelo://app?vid=51220fd5-275f-44db-a81e-280c0ca810af","ios":"levelo://app?vid=51220fd5-275f-44db-a81e-280c0ca810af"},"vehicle_type_id":"4","last_reported":1744229481,"current_range_meters":12000,"station_id":"","pricing_plan_id":"cebpf4jnsgd1na2vs0mg"},{"bike_id":"370c5ce7-3d00-4a67-b12b-0443c7b825ee","system_id":"levelo_inurba_marseille","lat":43.27602,"lon":5.36131,"is_reserved":false,"is_disabled":false,"rental_uris":{"android":"levelo://app?vid=370c5ce7-3d00-4a67-b12b-0443c7b825ee","ios":"levelo://app?vid=370c5ce7-3d00-4a67-b12b-0443c7b825ee"},"vehicle_type_id":"4","last_reported":1744229481,"current_range_meters":12000,"station_id":"ce4bgj92rcd13ifvqbe0","pricing_plan_id":"cebpf4jnsgd1na2vs0mg"},{"bike_id":"2be59056-90ee-4dc6-95fd-dd7b27b0c4cd","system_id":"levelo_inurba_marseille","lat":43.29267,"lon":5.38431,"is_reserved":false,"is_disabled":false,"rental_uris":{"android":"levelo://app?vid=2be59056-90ee-4dc6-95fd-dd7b27b0c4cd","ios":"levelo://app?vid=2be59056-90ee-4dc6-95fd-dd7b27b0c4cd"},"vehicle_type_id":"4","last_reported":1744229481,"current_range_meters":12000,"station_id":"ce4bh692rcd13ifvqea0","pricing_plan_id":"cebpf4jnsgd1na2vs0mg"},{"bike_id":"74663eca-cb9c-4b60-8824-b0023e99fbe9","system_id":"levelo_inurba_marseille","lat":43.28488,"lon":5.38411,"is_reserved":false,"is_disabled":false,"rental_uris":{"android":"levelo://app?vid=74663eca-cb9c-4b60-8824-b0023e99fbe9","ios":"levelo://app?vid=74663eca-cb9c-4b60-8824-b0023e99fbe9"},"vehicle_type_id":"4","last_reported":1744229481,"current_range_meters":12400,"station_id":"ce4bh512rcd13ifvqe3g","pricing_plan_id":"cebpf4jnsgd1na2vs0mg"},{"bike_id":"b4b93a64-d083-4ab2-bbd0-53609c602fb5","system_id":"levelo_inurba_marseille","lat":43.30933,"lon":5.40156,"is_reserved":false,"is_disabled":true,"rental_uris":{"android":"levelo://app?vid=b4b93a64-d083-4ab2-bbd0-53609c602fb5","ios":"levelo://app?vid=b4b93a64-d083-4ab2-bbd0-53609c602fb5"},"vehicle_type_id":"4","last_reported":1744229481,"current_range_meters":12400,"station_id":"ce4bgvp2rcd13ifvqct0","pricing_plan_id":"cebpf4jnsgd1na2vs0mg"},{"bike_id":"122cdde6-9512-4fc1-b3dd-8da01087c3ed","system_id":"levelo_inurba_marseille","lat":43.21178,"lon":5.35082,"is_reserved":false,"is_disabled":false,"rental_uris":{"android":"levelo://app?vid=122cdde6-9512-4fc1-b3dd-8da01087c3ed","ios":"levelo://app?vid=122cdde6-9512-4fc1-b3dd-8da01087c3ed"},"vehicle_type_id":"4","last_reported":1744229481,"current_range_meters":12400,"station_id":"","pricing_plan_id":"cebpf4jnsgd1na2vs0mg"},{"bike_id":"4c28f3d7-3228-4605-8a0a-01ab16fbb532","system_id":"levelo_inurba_marseille","lat":43.27199,"lon":5.39201,"is_reserved":false,"is_disabled":true,"rental_uris":{"android":"levelo://app?vid=4c28f3d7-3228-4605-8a0a-01ab16fbb532","ios":"levelo://app?vid=4c28f3d7-3228-4605-8a0a-01ab16fbb532"},"vehicle_type_id":"4","last_reported":1744229481,"current_range_meters":12400,"station_id":"ce4bhhp2rcd13ifvqfm0","pricing_plan_id":"cebpf4jnsgd1na2vs0mg"},{"bike_id":"4dd1a26e-f6af-4da8-bd6e-ba27a6ee0abd","system_id":"levelo_inurba_marseille","lat":43.3079,"lon":5.37629,"is_reserved":false,"is_disabled":false,"rental_uris":{"android":"levelo://app?vid=4dd1a26e-f6af-4da8-bd6e-ba27a6ee0abd","ios":"levelo://app?vid=4dd1a26e-f6af-4da8-bd6e-ba27a6ee0abd"},"vehicle_type_id":"4","last_reported":1744229481,"current_range_meters":12800,"station_id":"ce4bgv92rcd13ifvqcq0","pricing_plan_id":"cebpf4jnsgd1na2vs0mg"},{"bike_id":"d87cc5c4-1c8e-421b-a351-02b810df9ea3","system_id":"levelo_inurba_marseille","lat":43.25823,"lon":5.39422,"is_reserved":false,"is_disabled":false,"rental_uris":{"android":"levelo://app?vid=d87cc5c4-1c8e-421b-a351-02b810df9ea3","ios":"levelo://app?vid=d87cc5c4-1c8e-421b-a351-02b810df9ea3"},"vehicle_type_id":"4","last_reported":1744229481,"current_range_meters":12800,"station_id":"ce4bhip2rcd13ifvqft0","pricing_plan_id":"cebpf4jnsgd1na2vs0mg"},{"bike_id":"e616583f-8136-4758-95c9-cfbd8a46ac76","system_id":"levelo_inurba_marseille","lat":43.28474,"lon":5.38414,"is_reserved":false,"is_disabled":false,"rental_uris":{"android":"levelo://app?vid=e616583f-8136-4758-95c9-cfbd8a46ac76","ios":"levelo://app?vid=e616583f-8136-4758-95c9-cfbd8a46ac76"},"vehicle_type_id":"4","last_reported":1744229481,"current_range_meters":12800,"station_id":"ce4bh512rcd13ifvqe3g","pricing_plan_id":"cebpf4jnsgd1na2vs0mg"},{"bike_id":"f2ddeead-c55a-49b3-90e5-4eec0e251056","system_id":"levelo_inurba_marseille","lat":43.31725,"lon":5.43685,"is_reserved":false,"is_disabled":false,"rental_uris":{"android":"levelo://app?vid=f2ddeead-c55a-49b3-90e5-4eec0e251056","ios":"levelo://app?vid=f2ddeead-c55a-49b3-90e5-4eec0e251056"},"vehicle_type_id":"4","last_reported":1744229481,"current_range_meters":12800,"station_id":"ce4bhp92rcd13ifvqhcg","pricing_plan_id":"cebpf4jnsgd1na2vs0mg"},{"bike_id":"61368bc6-2f35-48e8-8699-4eb46dedda74","system_id":"levelo_inurba_marseille","lat":43.32486,"lon":5.36557,"is_reserved":false,"is_disabled":false,"rental_uris":{"android":"levelo://app?vid=61368bc6-2f35-48e8-8699-4eb46dedda74","ios":"levelo://app?vid=61368bc6-2f35-48e8-8699-4eb46dedda74"},"vehicle_type_id":"4","last_reported":1744229481,"current_range_meters":12800,"station_id":"ce4bhs12rcd13ifvqhvg","pricing_plan_id":"cebpf4jnsgd1na2vs0mg"},{"bike_id":"4106f3a0-32e5-4eb2-acfd-500d9d163916","system_id":"levelo_inurba_marseille","lat":43.243134,"lon":5.379779,"is_reserved":false,"is_disabled":false,"rental_uris":{"android":"levelo://app?vid=4106f3a0-32e5-4eb2-acfd-500d9d163916","ios":"levelo://app?vid=4106f3a0-32e5-4eb2-acfd-500d9d163916"},"vehicle_type_id":"4","last_reported":1744229481,"current_range_meters":12800,"station_id":"ce4bhnp2rcd13ifvqgvg","pricing_plan_id":"cebpf4jnsgd1na2vs0mg"},{"bike_id":"50d8154d-c125-4ab1-afba-16358c0c1aee","system_id":"levelo_inurba_marseille","lat":43.30888,"lon":5.39646,"is_reserved":false,"is_disabled":false,"rental_uris":{"android":"levelo://app?vid=50d8154d-c125-4ab1-afba-16358c0c1aee","ios":"levelo://app?vid=50d8154d-c125-4ab1-afba-16358c0c1aee"},"vehicle_type_id":"4","last_reported":1744229481,"current_range_meters":12800,"station_id":"ce4bh012rcd13ifvqcv0","pricing_plan_id":"cebpf4jnsgd1na2vs0mg"},{"bike_id":"d44ff2b9-417e-4368-bebb-1fc974db3122","system_id":"levelo_inurba_marseille","lat":43.33657,"lon":5.39761,"is_reserved":false,"is_disabled":false,"rental_uris":{"android":"levelo://app?vid=d44ff2b9-417e-4368-bebb-1fc974db3122","ios":"levelo://app?vid=d44ff2b9-417e-4368-bebb-1fc974db3122"},"vehicle_type_id":"4","last_reported":1744229481,"current_range_meters":12800,"station_id":"","pricing_plan_id":"cebpf4jnsgd1na2vs0mg"},{"bike_id":"de07ea0a-be7c-4e4e-90a4-07f0b64a1287","system_id":"levelo_inurba_marseille","lat":43.24811,"lon":5.37455,"is_reserved":false,"is_disabled":false,"rental_uris":{"android":"levelo://app?vid=de07ea0a-be7c-4e4e-90a4-07f0b64a1287","ios":"levelo://app?vid=de07ea0a-be7c-4e4e-90a4-07f0b64a1287"},"vehicle_type_id":"4","last_reported":1744229481,"current_range_meters":12800,"station_id":"ce4bhgh2rcd13ifvqfb0","pricing_plan_id":"cebpf4jnsgd1na2vs0mg"},{"bike_id":"ae7f5023-ae11-420f-985c-1ea539511dfd","system_id":"levelo_inurba_marseille","lat":43.3035,"lon":5.41881,"is_reserved":false,"is_disabled":false,"rental_uris":{"android":"levelo://app?vid=ae7f5023-ae11-420f-985c-1ea539511dfd","ios":"levelo://app?vid=ae7f5023-ae11-420f-985c-1ea539511dfd"},"vehicle_type_id":"4","last_reported":1744229481,"current_range_meters":12800,"station_id":"ce4bhop2rcd13ifvqh7g","pricing_plan_id":"cebpf4jnsgd1na2vs0mg"},{"bike_id":"06b151c5-ace7-42a9-b46b-d2596e010a5f","system_id":"levelo_inurba_marseille","lat":43.304643,"lon":5.379118,"is_reserved":false,"is_disabled":false,"rental_uris":{"android":"levelo://app?vid=06b151c5-ace7-42a9-b46b-d2596e010a5f","ios":"levelo://app?vid=06b151c5-ace7-42a9-b46b-d2596e010a5f"},"vehicle_type_id":"4","last_reported":1744229481,"current_range_meters":13600,"station_id":"ce4bhnh2rcd13ifvqgtg","pricing_plan_id":"cebpf4jnsgd1na2vs0mg"},{"bike_id":"5fcf90eb-430f-438a-8477-0551f6eb7104","system_id":"levelo_inurba_marseille","lat":43.30311,"lon":5.36888,"is_reserved":false,"is_disabled":false,"rental_uris":{"android":"levelo://app?vid=5fcf90eb-430f-438a-8477-0551f6eb7104","ios":"levelo://app?vid=5fcf90eb-430f-438a-8477-0551f6eb7104"},"vehicle_type_id":"4","last_reported":1744229481,"current_range_meters":13600,"station_id":"ce4bgqh2rcd13ifvqc5g","pricing_plan_id":"cebpf4jnsgd1na2vs0mg"},{"bike_id":"9b9a53ff-a9c9-4d39-9a13-3ede3ffd5177","system_id":"levelo_inurba_marseille","lat":43.27914,"lon":5.39591,"is_reserved":false,"is_disabled":false,"rental_uris":{"android":"levelo://app?vid=9b9a53ff-a9c9-4d39-9a13-3ede3ffd5177","ios":"levelo://app?vid=9b9a53ff-a9c9-4d39-9a13-3ede3ffd5177"},"vehicle_type_id":"4","last_reported":1744229481,"current_range_meters":14000,"station_id":"ce4bhf92rcd13ifvqf40","pricing_plan_id":"cebpf4jnsgd1na2vs0mg"},{"bike_id":"359554b7-9be0-4fad-af0c-7636833d5bf1","system_id":"levelo_inurba_marseille","lat":43.27623,"lon":5.36109,"is_reserved":false,"is_disabled":false,"rental_uris":{"android":"levelo://app?vid=359554b7-9be0-4fad-af0c-7636833d5bf1","ios":"levelo://app?vid=359554b7-9be0-4fad-af0c-7636833d5bf1"},"vehicle_type_id":"4","last_reported":1744229481,"current_range_meters":14000,"station_id":"ce4bgj92rcd13ifvqbe0","pricing_plan_id":"cebpf4jnsgd1na2vs0mg"},{"bike_id":"e6b27e51-7a6f-4c87-9cdb-e0dbaf392783","system_id":"levelo_inurba_marseille","lat":43.30971,"lon":5.39669,"is_reserved":false,"is_disabled":false,"rental_uris":{"android":"levelo://app?vid=e6b27e51-7a6f-4c87-9cdb-e0dbaf392783","ios":"levelo://app?vid=e6b27e51-7a6f-4c87-9cdb-e0dbaf392783"},"vehicle_type_id":"4","last_reported":1744229481,"current_range_meters":14000,"station_id":"","pricing_plan_id":"cebpf4jnsgd1na2vs0mg"},{"bike_id":"041d743e-435b-44bb-9e07-e28957f1abf9","system_id":"levelo_inurba_marseille","lat":43.30567,"lon":5.37234,"is_reserved":false,"is_disabled":false,"rental_uris":{"android":"levelo://app?vid=041d743e-435b-44bb-9e07-e28957f1abf9","ios":"levelo://app?vid=041d743e-435b-44bb-9e07-e28957f1abf9"},"vehicle_type_id":"4","last_reported":1744229481,"current_range_meters":14000,"station_id":"ce4bgqh2rcd13ifvqc4g","pricing_plan_id":"cebpf4jnsgd1na2vs0mg"},{"bike_id":"8ab6dcfc-9a38-4d9a-b92d-93ebc3289f5f","system_id":"levelo_inurba_marseille","lat":43.26103,"lon":5.39401,"is_reserved":false,"is_disabled":true,"rental_uris":{"android":"levelo://app?vid=8ab6dcfc-9a38-4d9a-b92d-93ebc3289f5f","ios":"levelo://app?vid=8ab6dcfc-9a38-4d9a-b92d-93ebc3289f5f"},"vehicle_type_id":"4","last_reported":1744229481,"current_range_meters":14000,"station_id":"ce4bhh92rcd13ifvqfj0","pricing_plan_id":"cebpf4jnsgd1na2vs0mg"},{"bike_id":"86497999-bebd-4800-a867-ec81bdbf771d","system_id":"levelo_inurba_marseille","lat":43.30374,"lon":5.42488,"is_reserved":false,"is_disabled":false,"rental_uris":{"android":"levelo://app?vid=86497999-bebd-4800-a867-ec81bdbf771d","ios":"levelo://app?vid=86497999-bebd-4800-a867-ec81bdbf771d"},"vehicle_type_id":"4","last_reported":1744229481,"current_range_meters":14000,"station_id":"ce4bhoh2rcd13ifvqh6g","pricing_plan_id":"cebpf4jnsgd1na2vs0mg"},{"bike_id":"b3fca0f6-dab0-4b56-a8f9-de4caa4a6296","system_id":"levelo_inurba_marseille","lat":43.26493,"lon":5.39538,"is_reserved":false,"is_disabled":false,"rental_uris":{"android":"levelo://app?vid=b3fca0f6-dab0-4b56-a8f9-de4caa4a6296","ios":"levelo://app?vid=b3fca0f6-dab0-4b56-a8f9-de4caa4a6296"},"vehicle_type_id":"4","last_reported":1744229481,"current_range_meters":14000,"station_id":"ce4bhi12rcd13ifvqfq0","pricing_plan_id":"cebpf4jnsgd1na2vs0mg"},{"bike_id":"7ac1b624-46d6-40ee-b786-0d4b01734cf1","system_id":"levelo_inurba_marseille","lat":43.306458,"lon":5.400983,"is_reserved":false,"is_disabled":false,"rental_uris":{"android":"levelo://app?vid=7ac1b624-46d6-40ee-b786-0d4b01734cf1","ios":"levelo://app?vid=7ac1b624-46d6-40ee-b786-0d4b01734cf1"},"vehicle_type_id":"4","last_reported":1744229481,"current_range_meters":14000,"station_id":"ce4bh112rcd13ifvqda0","pricing_plan_id":"cebpf4jnsgd1na2vs0mg"},{"bike_id":"46156e5f-25cc-45da-83c4-da2aa986f209","system_id":"levelo_inurba_marseille","lat":43.30493,"lon":5.367,"is_reserved":false,"is_disabled":false,"rental_uris":{"android":"levelo://app?vid=46156e5f-25cc-45da-83c4-da2aa986f209","ios":"levelo://app?vid=46156e5f-25cc-45da-83c4-da2aa986f209"},"vehicle_type_id":"4","last_reported":1744229481,"current_range_meters":14800,"station_id":"","pricing_plan_id":"cebpf4jnsgd1na2vs0mg"},{"bike_id":"49f12fd7-4c87-4529-a7b9-de78fd0243f1","system_id":"levelo_inurba_marseille","lat":43.32478,"lon":5.36557,"is_reserved":false,"is_disabled":false,"rental_uris":{"android":"levelo://app?vid=49f12fd7-4c87-4529-a7b9-de78fd0243f1","ios":"levelo://app?vid=49f12fd7-4c87-4529-a7b9-de78fd0243f1"},"vehicle_type_id":"4","last_reported":1744229481,"current_range_meters":14400,"station_id":"ce4bhs12rcd13ifvqhvg","pricing_plan_id":"cebpf4jnsgd1na2vs0mg"},{"bike_id":"90ee398c-32aa-4e9e-b5af-c37e1acd6094","system_id":"levelo_inurba_marseille","lat":43.307715,"lon":5.392288,"is_reserved":false,"is_disabled":false,"rental_uris":{"android":"levelo://app?vid=90ee398c-32aa-4e9e-b5af-c37e1acd6094","ios":"levelo://app?vid=90ee398c-32aa-4e9e-b5af-c37e1acd6094"},"vehicle_type_id":"4","last_reported":1744229481,"current_range_meters":14400,"station_id":"ce4bgv12rcd13ifvqcp0","pricing_plan_id":"cebpf4jnsgd1na2vs0mg"},{"bike_id":"8d708f6d-df7e-4b8c-9703-c7e737ed86bd","system_id":"levelo_inurba_marseille","lat":43.29568,"lon":5.39951,"is_reserved":false,"is_disabled":false,"rental_uris":{"android":"levelo://app?vid=8d708f6d-df7e-4b8c-9703-c7e737ed86bd","ios":"levelo://app?vid=8d708f6d-df7e-4b8c-9703-c7e737ed86bd"},"vehicle_type_id":"4","last_reported":1744229481,"current_range_meters":14400,"station_id":"ce4bh312rcd13ifvqdj0","pricing_plan_id":"cebpf4jnsgd1na2vs0mg"},{"bike_id":"3ce3d920-dde9-4fd8-b282-79c836620424","system_id":"levelo_inurba_marseille","lat":43.281465,"lon":5.426408,"is_reserved":false,"is_disabled":false,"rental_uris":{"android":"levelo://app?vid=3ce3d920-dde9-4fd8-b282-79c836620424","ios":"levelo://app?vid=3ce3d920-dde9-4fd8-b282-79c836620424"},"vehicle_type_id":"4","last_reported":1744229481,"current_range_meters":14400,"station_id":"ce4bhnh2rcd13ifvqgug","pricing_plan_id":"cebpf4jnsgd1na2vs0mg"},{"bike_id":"c3d3f2cb-fa48-4eed-91d9-75250f91b317","system_id":"levelo_inurba_marseille","lat":43.28978,"lon":5.37841,"is_reserved":false,"is_disabled":false,"rental_uris":{"android":"levelo://app?vid=c3d3f2cb-fa48-4eed-91d9-75250f91b317","ios":"levelo://app?vid=c3d3f2cb-fa48-4eed-91d9-75250f91b317"},"vehicle_type_id":"4","last_reported":1744229481,"current_range_meters":14000,"station_id":"ce4bh9p2rcd13ifvqed0","pricing_plan_id":"cebpf4jnsgd1na2vs0mg"},{"bike_id":"5829cd0d-c17e-4de3-b63f-9cd151926e69","system_id":"levelo_inurba_marseille","lat":43.29616,"lon":5.36687,"is_reserved":false,"is_disabled":true,"rental_uris":{"android":"levelo://app?vid=5829cd0d-c17e-4de3-b63f-9cd151926e69","ios":"levelo://app?vid=5829cd0d-c17e-4de3-b63f-9cd151926e69"},"vehicle_type_id":"4","last_reported":1744229481,"current_range_meters":14400,"station_id":"","pricing_plan_id":"cebpf4jnsgd1na2vs0mg"},{"bike_id":"8fa2960d-ec92-45d6-b6a2-1f5bf52773f7","system_id":"levelo_inurba_marseille","lat":43.279175,"lon":5.395686,"is_reserved":false,"is_disabled":false,"rental_uris":{"android":"levelo://app?vid=8fa2960d-ec92-45d6-b6a2-1f5bf52773f7","ios":"levelo://app?vid=8fa2960d-ec92-45d6-b6a2-1f5bf52773f7"},"vehicle_type_id":"4","last_reported":1744229481,"current_range_meters":14800,"station_id":"ce4bhf92rcd13ifvqf40","pricing_plan_id":"cebpf4jnsgd1na2vs0mg"},{"bike_id":"4d2b5cd5-2c6c-4905-b4b8-8faa5aae631b","system_id":"levelo_inurba_marseille","lat":43.33103,"lon":5.39374,"is_reserved":false,"is_disabled":false,"rental_uris":{"android":"levelo://app?vid=4d2b5cd5-2c6c-4905-b4b8-8faa5aae631b","ios":"levelo://app?vid=4d2b5cd5-2c6c-4905-b4b8-8faa5aae631b"},"vehicle_type_id":"4","last_reported":1744229481,"current_range_meters":14800,"station_id":"","pricing_plan_id":"cebpf4jnsgd1na2vs0mg"},{"bike_id":"6ea13098-fa17-4d72-9a98-dc3e83f8f184","system_id":"levelo_inurba_marseille","lat":43.30891,"lon":5.39655,"is_reserved":false,"is_disabled":false,"rental_uris":{"android":"levelo://app?vid=6ea13098-fa17-4d72-9a98-dc3e83f8f184","ios":"levelo://app?vid=6ea13098-fa17-4d72-9a98-dc3e83f8f184"},"vehicle_type_id":"4","last_reported":1744229481,"current_range_meters":14800,"station_id":"ce4bh012rcd13ifvqcv0","pricing_plan_id":"cebpf4jnsgd1na2vs0mg"},{"bike_id":"3eb4db5a-216b-43d3-addc-9c000b4d9b9f","system_id":"levelo_inurba_marseille","lat":43.30891,"lon":5.39641,"is_reserved":false,"is_disabled":false,"rental_uris":{"android":"levelo://app?vid=3eb4db5a-216b-43d3-addc-9c000b4d9b9f","ios":"levelo://app?vid=3eb4db5a-216b-43d3-addc-9c000b4d9b9f"},"vehicle_type_id":"4","last_reported":1744229481,"current_range_meters":14800,"station_id":"ce4bh012rcd13ifvqcv0","pricing_plan_id":"cebpf4jnsgd1na2vs0mg"},{"bike_id":"52012df3-67ab-420a-8b22-03832e0f4625","system_id":"levelo_inurba_marseille","lat":43.29628,"lon":5.40591,"is_reserved":false,"is_disabled":false,"rental_uris":{"android":"levelo://app?vid=52012df3-67ab-420a-8b22-03832e0f4625","ios":"levelo://app?vid=52012df3-67ab-420a-8b22-03832e0f4625"},"vehicle_type_id":"4","last_reported":1744229481,"current_range_meters":14800,"station_id":"ce4bh0h2rcd13ifvqd60","pricing_plan_id":"cebpf4jnsgd1na2vs0mg"},{"bike_id":"934d286e-1a7a-4e88-8688-5048b50c70aa","system_id":"levelo_inurba_marseille","lat":43.27841,"lon":5.39203,"is_reserved":false,"is_disabled":false,"rental_uris":{"android":"levelo://app?vid=934d286e-1a7a-4e88-8688-5048b50c70aa","ios":"levelo://app?vid=934d286e-1a7a-4e88-8688-5048b50c70aa"},"vehicle_type_id":"4","last_reported":1744229481,"current_range_meters":15200,"station_id":"ce4bhjp2rcd13ifvqga0","pricing_plan_id":"cebpf4jnsgd1na2vs0mg"},{"bike_id":"5ee7f373-9a30-4911-9e47-fc734b011568","system_id":"levelo_inurba_marseille","lat":43.293701,"lon":5.378312,"is_reserved":false,"is_disabled":false,"rental_uris":{"android":"levelo://app?vid=5ee7f373-9a30-4911-9e47-fc734b011568","ios":"levelo://app?vid=5ee7f373-9a30-4911-9e47-fc734b011568"},"vehicle_type_id":"4","last_reported":1744229481,"current_range_meters":16000,"station_id":"ce4bgjh2rcd13ifvqbf0","pricing_plan_id":"cebpf4jnsgd1na2vs0mg"},{"bike_id":"c0caac97-a957-4f01-bd7d-413a2d6a15d7","system_id":"levelo_inurba_marseille","lat":43.248083,"lon":5.374545,"is_reserved":false,"is_disabled":false,"rental_uris":{"android":"levelo://app?vid=c0caac97-a957-4f01-bd7d-413a2d6a15d7","ios":"levelo://app?vid=c0caac97-a957-4f01-bd7d-413a2d6a15d7"},"vehicle_type_id":"4","last_reported":1744229481,"current_range_meters":15200,"station_id":"ce4bhgh2rcd13ifvqfb0","pricing_plan_id":"cebpf4jnsgd1na2vs0mg"},{"bike_id":"42c1fdc6-38af-4ea1-a910-702e15d5a9b4","system_id":"levelo_inurba_marseille","lat":43.30922,"lon":5.40154,"is_reserved":false,"is_disabled":true,"rental_uris":{"android":"levelo://app?vid=42c1fdc6-38af-4ea1-a910-702e15d5a9b4","ios":"levelo://app?vid=42c1fdc6-38af-4ea1-a910-702e15d5a9b4"},"vehicle_type_id":"4","last_reported":1744229481,"current_range_meters":15200,"station_id":"ce4bgvp2rcd13ifvqct0","pricing_plan_id":"cebpf4jnsgd1na2vs0mg"},{"bike_id":"678c2f83-774f-4560-abc7-60287e466b90","system_id":"levelo_inurba_marseille","lat":43.30087,"lon":5.39063,"is_reserved":false,"is_disabled":false,"rental_uris":{"android":"levelo://app?vid=678c2f83-774f-4560-abc7-60287e466b90","ios":"levelo://app?vid=678c2f83-774f-4560-abc7-60287e466b90"},"vehicle_type_id":"4","last_reported":1744229481,"current_range_meters":15200,"station_id":"ce4bh192rcd13ifvqdb0","pricing_plan_id":"cebpf4jnsgd1na2vs0mg"},{"bike_id":"5d14c852-7d39-4daa-9337-9b008497a52a","system_id":"levelo_inurba_marseille","lat":43.2942,"lon":5.38612,"is_reserved":false,"is_disabled":true,"rental_uris":{"android":"levelo://app?vid=5d14c852-7d39-4daa-9337-9b008497a52a","ios":"levelo://app?vid=5d14c852-7d39-4daa-9337-9b008497a52a"},"vehicle_type_id":"4","last_reported":1744229481,"current_range_meters":16000,"station_id":"ce4bh2h2rcd13ifvqdh0","pricing_plan_id":"cebpf4jnsgd1na2vs0mg"},{"bike_id":"ac59196c-bd48-4883-af48-600f5357909f","system_id":"levelo_inurba_marseille","lat":43.30888,"lon":5.39641,"is_reserved":false,"is_disabled":false,"rental_uris":{"android":"levelo://app?vid=ac59196c-bd48-4883-af48-600f5357909f","ios":"levelo://app?vid=ac59196c-bd48-4883-af48-600f5357909f"},"vehicle_type_id":"4","last_reported":1744229481,"current_range_meters":16000,"station_id":"ce4bh012rcd13ifvqcv0","pricing_plan_id":"cebpf4jnsgd1na2vs0mg"},{"bike_id":"119d2a89-0afd-4a19-8a80-52340d1a8045","system_id":"levelo_inurba_marseille","lat":43.3361,"lon":5.41036,"is_reserved":false,"is_disabled":false,"rental_uris":{"android":"levelo://app?vid=119d2a89-0afd-4a19-8a80-52340d1a8045","ios":"levelo://app?vid=119d2a89-0afd-4a19-8a80-52340d1a8045"},"vehicle_type_id":"4","last_reported":1744229481,"current_range_meters":16000,"station_id":"ce4bhqh2rcd13ifvqhmg","pricing_plan_id":"cebpf4jnsgd1na2vs0mg"},{"bike_id":"0fd9f2ff-75d6-4bb3-bbe8-dda53740b121","system_id":"levelo_inurba_marseille","lat":43.32495,"lon":5.36555,"is_reserved":false,"is_disabled":false,"rental_uris":{"android":"levelo://app?vid=0fd9f2ff-75d6-4bb3-bbe8-dda53740b121","ios":"levelo://app?vid=0fd9f2ff-75d6-4bb3-bbe8-dda53740b121"},"vehicle_type_id":"4","last_reported":1744229481,"current_range_meters":15200,"station_id":"ce4bhs12rcd13ifvqhvg","pricing_plan_id":"cebpf4jnsgd1na2vs0mg"},{"bike_id":"1a3cd0ab-ec77-41b3-982c-74e5093499a8","system_id":"levelo_inurba_marseille","lat":43.30427,"lon":5.389,"is_reserved":false,"is_disabled":true,"rental_uris":{"android":"levelo://app?vid=1a3cd0ab-ec77-41b3-982c-74e5093499a8","ios":"levelo://app?vid=1a3cd0ab-ec77-41b3-982c-74e5093499a8"},"vehicle_type_id":"4","last_reported":1744229481,"current_range_meters":16000,"station_id":"ce4bgk12rcd13ifvqbi0","pricing_plan_id":"cebpf4jnsgd1na2vs0mg"},{"bike_id":"5154dce8-1dfa-451e-b897-845edc6aea9b","system_id":"levelo_inurba_marseille","lat":43.29767,"lon":5.37093,"is_reserved":false,"is_disabled":false,"rental_uris":{"android":"levelo://app?vid=5154dce8-1dfa-451e-b897-845edc6aea9b","ios":"levelo://app?vid=5154dce8-1dfa-451e-b897-845edc6aea9b"},"vehicle_type_id":"4","last_reported":1744229481,"current_range_meters":16400,"station_id":"ce4bgop2rcd13ifvqc1g","pricing_plan_id":"cebpf4jnsgd1na2vs0mg"},{"bike_id":"68cc9060-8e56-43b4-940e-c8d1091773ab","system_id":"levelo_inurba_marseille","lat":43.29524,"lon":5.38536,"is_reserved":false,"is_disabled":false,"rental_uris":{"android":"levelo://app?vid=68cc9060-8e56-43b4-940e-c8d1091773ab","ios":"levelo://app?vid=68cc9060-8e56-43b4-940e-c8d1091773ab"},"vehicle_type_id":"4","last_reported":1744229481,"current_range_meters":16000,"station_id":"ce4bgih2rcd13ifvqba0","pricing_plan_id":"cebpf4jnsgd1na2vs0mg"},{"bike_id":"ae158248-d8c1-42a9-9466-b356e48cc0e3","system_id":"levelo_inurba_marseille","lat":43.30787,"lon":5.3815,"is_reserved":false,"is_disabled":false,"rental_uris":{"android":"levelo://app?vid=ae158248-d8c1-42a9-9466-b356e48cc0e3","ios":"levelo://app?vid=ae158248-d8c1-42a9-9466-b356e48cc0e3"},"vehicle_type_id":"4","last_reported":1744229481,"current_range_meters":16400,"station_id":"ce4bgt12rcd13ifvqce0","pricing_plan_id":"cebpf4jnsgd1na2vs0mg"},{"bike_id":"5047455d-c97a-4875-9440-a0dd56a0356d","system_id":"levelo_inurba_marseille","lat":43.32363,"lon":5.36744,"is_reserved":false,"is_disabled":false,"rental_uris":{"android":"levelo://app?vid=5047455d-c97a-4875-9440-a0dd56a0356d","ios":"levelo://app?vid=5047455d-c97a-4875-9440-a0dd56a0356d"},"vehicle_type_id":"4","last_reported":1744229481,"current_range_meters":16400,"station_id":"ce4bhsh2rcd13ifvqi2g","pricing_plan_id":"cebpf4jnsgd1na2vs0mg"},{"bike_id":"80e32b05-6929-487c-8fd5-a86817c7e19b","system_id":"levelo_inurba_marseille","lat":43.29022,"lon":5.38649,"is_reserved":false,"is_disabled":false,"rental_uris":{"android":"levelo://app?vid=80e32b05-6929-487c-8fd5-a86817c7e19b","ios":"levelo://app?vid=80e32b05-6929-487c-8fd5-a86817c7e19b"},"vehicle_type_id":"4","last_reported":1744229481,"current_range_meters":16800,"station_id":"ce4bh4p2rcd13ifvqe0g","pricing_plan_id":"cebpf4jnsgd1na2vs0mg"},{"bike_id":"066918e9-658d-41fb-94df-83bd20a02c25","system_id":"levelo_inurba_marseille","lat":43.23056,"lon":5.355,"is_reserved":false,"is_disabled":true,"rental_uris":{"android":"levelo://app?vid=066918e9-658d-41fb-94df-83bd20a02c25","ios":"levelo://app?vid=066918e9-658d-41fb-94df-83bd20a02c25"},"vehicle_type_id":"4","last_reported":1744229481,"current_range_meters":16800,"station_id":"cpo3342slgdg3j2ifvpg","pricing_plan_id":"cebpf4jnsgd1na2vs0mg"},{"bike_id":"ba260ce7-c346-4426-9a40-e0bbd6c1a81c","system_id":"levelo_inurba_marseille","lat":43.29623,"lon":5.38161,"is_reserved":false,"is_disabled":false,"rental_uris":{"android":"levelo://app?vid=ba260ce7-c346-4426-9a40-e0bbd6c1a81c","ios":"levelo://app?vid=ba260ce7-c346-4426-9a40-e0bbd6c1a81c"},"vehicle_type_id":"4","last_reported":1744229481,"current_range_meters":16800,"station_id":"ce4bgl12rcd13ifvqbo0","pricing_plan_id":"cebpf4jnsgd1na2vs0mg"},{"bike_id":"e294201b-353a-4033-93e9-19d8f22d2aa7","system_id":"levelo_inurba_marseille","lat":43.29256,"lon":5.40905,"is_reserved":false,"is_disabled":false,"rental_uris":{"android":"levelo://app?vid=e294201b-353a-4033-93e9-19d8f22d2aa7","ios":"levelo://app?vid=e294201b-353a-4033-93e9-19d8f22d2aa7"},"vehicle_type_id":"4","last_reported":1744229481,"current_range_meters":16800,"station_id":"ce4bh192rcd13ifvqdc0","pricing_plan_id":"cebpf4jnsgd1na2vs0mg"},{"bike_id":"694363da-3b25-4ad3-8c5e-c8f0c7e1e2a0","system_id":"levelo_inurba_marseille","lat":43.31094,"lon":5.37764,"is_reserved":false,"is_disabled":false,"rental_uris":{"android":"levelo://app?vid=694363da-3b25-4ad3-8c5e-c8f0c7e1e2a0","ios":"levelo://app?vid=694363da-3b25-4ad3-8c5e-c8f0c7e1e2a0"},"vehicle_type_id":"4","last_reported":1744229481,"current_range_meters":16800,"station_id":"ce4bgt92rcd13ifvqcg0","pricing_plan_id":"cebpf4jnsgd1na2vs0mg"},{"bike_id":"c0990e46-a055-4103-9521-7cc22d1fcc5f","system_id":"levelo_inurba_marseille","lat":43.29568,"lon":5.3998,"is_reserved":false,"is_disabled":false,"rental_uris":{"android":"levelo://app?vid=c0990e46-a055-4103-9521-7cc22d1fcc5f","ios":"levelo://app?vid=c0990e46-a055-4103-9521-7cc22d1fcc5f"},"vehicle_type_id":"4","last_reported":1744229481,"current_range_meters":16800,"station_id":"ce4bh312rcd13ifvqdj0","pricing_plan_id":"cebpf4jnsgd1na2vs0mg"},{"bike_id":"9dcc3384-f664-4db8-950c-caf927b10649","system_id":"levelo_inurba_marseille","lat":43.278193,"lon":5.401251,"is_reserved":false,"is_disabled":false,"rental_uris":{"android":"levelo://app?vid=9dcc3384-f664-4db8-950c-caf927b10649","ios":"levelo://app?vid=9dcc3384-f664-4db8-950c-caf927b10649"},"vehicle_type_id":"4","last_reported":1744229481,"current_range_meters":16800,"station_id":"ce4bhjp2rcd13ifvqga0","pricing_plan_id":"cebpf4jnsgd1na2vs0mg"},{"bike_id":"e3c3a051-8134-4ed3-913b-374aa217874c","system_id":"levelo_inurba_marseille","lat":43.2559,"lon":5.40455,"is_reserved":false,"is_disabled":false,"rental_uris":{"android":"levelo://app?vid=e3c3a051-8134-4ed3-913b-374aa217874c","ios":"levelo://app?vid=e3c3a051-8134-4ed3-913b-374aa217874c"},"vehicle_type_id":"4","last_reported":1744229481,"current_range_meters":17200,"station_id":"","pricing_plan_id":"cebpf4jnsgd1na2vs0mg"},{"bike_id":"67e77a16-0d97-4e21-9e24-9f0e1db1a4b1","system_id":"levelo_inurba_marseille","lat":43.29784,"lon":5.39348,"is_reserved":false,"is_disabled":false,"rental_uris":{"android":"levelo://app?vid=67e77a16-0d97-4e21-9e24-9f0e1db1a4b1","ios":"levelo://app?vid=67e77a16-0d97-4e21-9e24-9f0e1db1a4b1"},"vehicle_type_id":"4","last_reported":1744229481,"current_range_meters":16800,"station_id":"chh1huq6cuj3fo74tm60","pricing_plan_id":"cebpf4jnsgd1na2vs0mg"},{"bike_id":"e55e878d-dadc-4d10-88c8-89ba95dfdd5a","system_id":"levelo_inurba_marseille","lat":43.30201,"lon":5.39463,"is_reserved":false,"is_disabled":false,"rental_uris":{"android":"levelo://app?vid=e55e878d-dadc-4d10-88c8-89ba95dfdd5a","ios":"levelo://app?vid=e55e878d-dadc-4d10-88c8-89ba95dfdd5a"},"vehicle_type_id":"4","last_reported":1744229481,"current_range_meters":16800,"station_id":"ce4bh0p2rcd13ifvqd70","pricing_plan_id":"cebpf4jnsgd1na2vs0mg"},{"bike_id":"e206e017-6262-4630-b9d5-f2f73ae3c402","system_id":"levelo_inurba_marseille","lat":43.30893,"lon":5.39629,"is_reserved":false,"is_disabled":false,"rental_uris":{"android":"levelo://app?vid=e206e017-6262-4630-b9d5-f2f73ae3c402","ios":"levelo://app?vid=e206e017-6262-4630-b9d5-f2f73ae3c402"},"vehicle_type_id":"4","last_reported":1744229481,"current_range_meters":17200,"station_id":"ce4bh012rcd13ifvqcv0","pricing_plan_id":"cebpf4jnsgd1na2vs0mg"},{"bike_id":"3c201c1c-6c2a-45ad-a0a4-505c388c1ef8","system_id":"levelo_inurba_marseille","lat":43.29256,"lon":5.38443,"is_reserved":false,"is_disabled":false,"rental_uris":{"android":"levelo://app?vid=3c201c1c-6c2a-45ad-a0a4-505c388c1ef8","ios":"levelo://app?vid=3c201c1c-6c2a-45ad-a0a4-505c388c1ef8"},"vehicle_type_id":"4","last_reported":1744229481,"current_range_meters":17200,"station_id":"ce4bh692rcd13ifvqea0","pricing_plan_id":"cebpf4jnsgd1na2vs0mg"},{"bike_id":"5d7db4b2-25bb-442b-b054-c3f9e9515910","system_id":"levelo_inurba_marseille","lat":43.30327,"lon":5.40435,"is_reserved":false,"is_disabled":false,"rental_uris":{"android":"levelo://app?vid=5d7db4b2-25bb-442b-b054-c3f9e9515910","ios":"levelo://app?vid=5d7db4b2-25bb-442b-b054-c3f9e9515910"},"vehicle_type_id":"4","last_reported":1744229481,"current_range_meters":17200,"station_id":"ce4bh012rcd13ifvqd10","pricing_plan_id":"cebpf4jnsgd1na2vs0mg"},{"bike_id":"19e57953-6d0c-43b9-ae97-3bf79908d670","system_id":"levelo_inurba_marseille","lat":43.27207,"lon":5.39193,"is_reserved":false,"is_disabled":true,"rental_uris":{"android":"levelo://app?vid=19e57953-6d0c-43b9-ae97-3bf79908d670","ios":"levelo://app?vid=19e57953-6d0c-43b9-ae97-3bf79908d670"},"vehicle_type_id":"4","last_reported":1744229481,"current_range_meters":17200,"station_id":"ce4bhhp2rcd13ifvqfm0","pricing_plan_id":"cebpf4jnsgd1na2vs0mg"},{"bike_id":"96b8abee-ca34-421c-8455-a08f60efdebb","system_id":"levelo_inurba_marseille","lat":43.2782,"lon":5.39207,"is_reserved":false,"is_disabled":false,"rental_uris":{"android":"levelo://app?vid=96b8abee-ca34-421c-8455-a08f60efdebb","ios":"levelo://app?vid=96b8abee-ca34-421c-8455-a08f60efdebb"},"vehicle_type_id":"4","last_reported":1744229481,"current_range_meters":17200,"station_id":"ce4bhjp2rcd13ifvqga0","pricing_plan_id":"cebpf4jnsgd1na2vs0mg"},{"bike_id":"d1f92f28-9609-4256-bd4a-880c7b09d4e8","system_id":"levelo_inurba_marseille","lat":43.29324,"lon":5.41151,"is_reserved":false,"is_disabled":false,"rental_uris":{"android":"levelo://app?vid=d1f92f28-9609-4256-bd4a-880c7b09d4e8","ios":"levelo://app?vid=d1f92f28-9609-4256-bd4a-880c7b09d4e8"},"vehicle_type_id":"4","last_reported":1744229481,"current_range_meters":17200,"station_id":"","pricing_plan_id":"cebpf4jnsgd1na2vs0mg"},{"bike_id":"f9fde33d-3e05-4f24-9670-2ad2d1cacdc1","system_id":"levelo_inurba_marseille","lat":43.288165,"lon":5.372627,"is_reserved":false,"is_disabled":false,"rental_uris":{"android":"levelo://app?vid=f9fde33d-3e05-4f24-9670-2ad2d1cacdc1","ios":"levelo://app?vid=f9fde33d-3e05-4f24-9670-2ad2d1cacdc1"},"vehicle_type_id":"4","last_reported":1744229481,"current_range_meters":17200,"station_id":"","pricing_plan_id":"cebpf4jnsgd1na2vs0mg"},{"bike_id":"0d1372de-6d8a-470a-886a-f68ccab9a82e","system_id":"levelo_inurba_marseille","lat":43.30247,"lon":5.40055,"is_reserved":false,"is_disabled":false,"rental_uris":{"android":"levelo://app?vid=0d1372de-6d8a-470a-886a-f68ccab9a82e","ios":"levelo://app?vid=0d1372de-6d8a-470a-886a-f68ccab9a82e"},"vehicle_type_id":"4","last_reported":1744229481,"current_range_meters":17200,"station_id":"ce4bgvh2rcd13ifvqcs0","pricing_plan_id":"cebpf4jnsgd1na2vs0mg"},{"bike_id":"97c886ff-aee8-465e-8e81-5e47737c7ff3","system_id":"levelo_inurba_marseille","lat":43.26554,"lon":5.37286,"is_reserved":false,"is_disabled":false,"rental_uris":{"android":"levelo://app?vid=97c886ff-aee8-465e-8e81-5e47737c7ff3","ios":"levelo://app?vid=97c886ff-aee8-465e-8e81-5e47737c7ff3"},"vehicle_type_id":"4","last_reported":1744229481,"current_range_meters":17200,"station_id":"ce4bhg12rcd13ifvqf70","pricing_plan_id":"cebpf4jnsgd1na2vs0mg"},{"bike_id":"69cf1085-f673-4290-9fab-424ebbaf28b8","system_id":"levelo_inurba_marseille","lat":43.26677,"lon":5.38272,"is_reserved":false,"is_disabled":false,"rental_uris":{"android":"levelo://app?vid=69cf1085-f673-4290-9fab-424ebbaf28b8","ios":"levelo://app?vid=69cf1085-f673-4290-9fab-424ebbaf28b8"},"vehicle_type_id":"4","last_reported":1744229481,"current_range_meters":17600,"station_id":"ce4bhg92rcd13ifvqf90","pricing_plan_id":"cebpf4jnsgd1na2vs0mg"},{"bike_id":"09fbd369-0449-462c-8ad6-b5f61d0c7247","system_id":"levelo_inurba_marseille","lat":43.31527,"lon":5.38036,"is_reserved":false,"is_disabled":false,"rental_uris":{"android":"levelo://app?vid=09fbd369-0449-462c-8ad6-b5f61d0c7247","ios":"levelo://app?vid=09fbd369-0449-462c-8ad6-b5f61d0c7247"},"vehicle_type_id":"4","last_reported":1744229481,"current_range_meters":17600,"station_id":"ce4bhsp2rcd13ifvqi50","pricing_plan_id":"cebpf4jnsgd1na2vs0mg"},{"bike_id":"ffa27c41-fd29-4e5d-9126-1cc08f22317a","system_id":"levelo_inurba_marseille","lat":43.28843,"lon":5.39315,"is_reserved":false,"is_disabled":false,"rental_uris":{"android":"levelo://app?vid=ffa27c41-fd29-4e5d-9126-1cc08f22317a","ios":"levelo://app?vid=ffa27c41-fd29-4e5d-9126-1cc08f22317a"},"vehicle_type_id":"4","last_reported":1744229481,"current_range_meters":17600,"station_id":"ce4bh2p2rcd13ifvqdi0","pricing_plan_id":"cebpf4jnsgd1na2vs0mg"},{"bike_id":"4e5309d3-4d99-4a94-99ef-b4e02baa2cc2","system_id":"levelo_inurba_marseille","lat":43.28951,"lon":5.36384,"is_reserved":false,"is_disabled":false,"rental_uris":{"android":"levelo://app?vid=4e5309d3-4d99-4a94-99ef-b4e02baa2cc2","ios":"levelo://app?vid=4e5309d3-4d99-4a94-99ef-b4e02baa2cc2"},"vehicle_type_id":"4","last_reported":1744229481,"current_range_meters":17600,"station_id":"ce4bhc92rcd13ifvqetg","pricing_plan_id":"cebpf4jnsgd1na2vs0mg"},{"bike_id":"640b6901-af87-4cbb-84ba-cf000e7c8d63","system_id":"levelo_inurba_marseille","lat":43.26484,"lon":5.39564,"is_reserved":false,"is_disabled":true,"rental_uris":{"android":"levelo://app?vid=640b6901-af87-4cbb-84ba-cf000e7c8d63","ios":"levelo://app?vid=640b6901-af87-4cbb-84ba-cf000e7c8d63"},"vehicle_type_id":"4","last_reported":1744229481,"current_range_meters":17600,"station_id":"ce4bhi12rcd13ifvqfq0","pricing_plan_id":"cebpf4jnsgd1na2vs0mg"},{"bike_id":"8fc75a06-b383-4356-9ce0-507c4c1bc08f","system_id":"levelo_inurba_marseille","lat":43.27085,"lon":5.42291,"is_reserved":false,"is_disabled":false,"rental_uris":{"android":"levelo://app?vid=8fc75a06-b383-4356-9ce0-507c4c1bc08f","ios":"levelo://app?vid=8fc75a06-b383-4356-9ce0-507c4c1bc08f"},"vehicle_type_id":"4","last_reported":1744229481,"current_range_meters":17600,"station_id":"ce4bhk92rcd13ifvqgb0","pricing_plan_id":"cebpf4jnsgd1na2vs0mg"},{"bike_id":"073955c6-6f8e-4d79-bdbc-3802d168fcc3","system_id":"levelo_inurba_marseille","lat":43.24168,"lon":5.36396,"is_reserved":false,"is_disabled":false,"rental_uris":{"android":"levelo://app?vid=073955c6-6f8e-4d79-bdbc-3802d168fcc3","ios":"levelo://app?vid=073955c6-6f8e-4d79-bdbc-3802d168fcc3"},"vehicle_type_id":"4","last_reported":1744229481,"current_range_meters":17600,"station_id":"cpo36qri1sfpv3e86is0","pricing_plan_id":"cebpf4jnsgd1na2vs0mg"},{"bike_id":"bae2bada-6798-4887-897e-1f73fb185ce2","system_id":"levelo_inurba_marseille","lat":43.2861,"lon":5.35101,"is_reserved":false,"is_disabled":false,"rental_uris":{"android":"levelo://app?vid=bae2bada-6798-4887-897e-1f73fb185ce2","ios":"levelo://app?vid=bae2bada-6798-4887-897e-1f73fb185ce2"},"vehicle_type_id":"4","last_reported":1744229481,"current_range_meters":17600,"station_id":"ce4bhch2rcd13ifvqeug","pricing_plan_id":"cebpf4jnsgd1na2vs0mg"},{"bike_id":"cd4c2d9a-97e7-4dc0-aaa2-b909ec3e746e","system_id":"levelo_inurba_marseille","lat":43.29521,"lon":5.39406,"is_reserved":false,"is_disabled":false,"rental_uris":{"android":"levelo://app?vid=cd4c2d9a-97e7-4dc0-aaa2-b909ec3e746e","ios":"levelo://app?vid=cd4c2d9a-97e7-4dc0-aaa2-b909ec3e746e"},"vehicle_type_id":"4","last_reported":1744229481,"current_range_meters":17600,"station_id":"ce4bh292rcd13ifvqdf0","pricing_plan_id":"cebpf4jnsgd1na2vs0mg"},{"bike_id":"59b0e41b-d4a7-4e34-a48c-8a7ec60277a3","system_id":"levelo_inurba_marseille","lat":43.26953,"lon":5.38634,"is_reserved":false,"is_disabled":false,"rental_uris":{"android":"levelo://app?vid=59b0e41b-d4a7-4e34-a48c-8a7ec60277a3","ios":"levelo://app?vid=59b0e41b-d4a7-4e34-a48c-8a7ec60277a3"},"vehicle_type_id":"4","last_reported":1744229481,"current_range_meters":17600,"station_id":"ce4bhh92rcd13ifvqfh0","pricing_plan_id":"cebpf4jnsgd1na2vs0mg"},{"bike_id":"39d569f2-804d-4c1f-93cb-ffdd8bba0563","system_id":"levelo_inurba_marseille","lat":43.30541,"lon":5.38465,"is_reserved":false,"is_disabled":true,"rental_uris":{"android":"levelo://app?vid=39d569f2-804d-4c1f-93cb-ffdd8bba0563","ios":"levelo://app?vid=39d569f2-804d-4c1f-93cb-ffdd8bba0563"},"vehicle_type_id":"4","last_reported":1744229481,"current_range_meters":18000,"station_id":"ce4bgg92rcd13ifvqb30","pricing_plan_id":"cebpf4jnsgd1na2vs0mg"},{"bike_id":"dad1b0b5-9864-4d37-aead-4e0c633b2ef0","system_id":"levelo_inurba_marseille","lat":43.29785,"lon":5.3934,"is_reserved":false,"is_disabled":false,"rental_uris":{"android":"levelo://app?vid=dad1b0b5-9864-4d37-aead-4e0c633b2ef0","ios":"levelo://app?vid=dad1b0b5-9864-4d37-aead-4e0c633b2ef0"},"vehicle_type_id":"4","last_reported":1744229481,"current_range_meters":18000,"station_id":"chh1huq6cuj3fo74tm60","pricing_plan_id":"cebpf4jnsgd1na2vs0mg"},