{"last_updated":1737716864,"ttl":60,"version":"2.2","data":{"bikes":[{"bike_id":"71025e83-daff-40eb-8f70-b8e1fc9300fb","system_id":"levelo_inurba_marseille","lat":43.22928,"lon":5.35419,"is_reserved":false,"is_disabled":false,"rental_uris":{"android":"levelo://app?vid=71025e83-daff-40eb-8f70-b8e1fc9300fb","ios":"levelo://app?vid=71025e83-daff-40eb-8f70-b8e1fc9300fb"},"vehicle_type_id":"4","last_reported":1737716864,"current_range_meters":37600,"station_id":"cpo3532slgdg3j2ikp40","pricing_plan_id":"cebpf4jnsgd1na2vs0mg"},{"bike_id":"ebbe391d-f1e8-4ff2-b709-e772b2444b74","system_id":"levelo_inurba_marseille","lat":43.30551,"lon":5.36537,"is_reserved":false,"is_disabled":false,"rental_uris":{"android":"levelo://app?vid=ebbe391d-f1e8-4ff2-b709-e772b2444b74","ios":"levelo://app?vid=ebbe391d-f1e8-4ff2-b709-e772b2444b74"},"vehicle_type_id":"4","last_reported":1737716864,"current_range_meters":28400,"station_id":"ce4bgs12rcd13ifvqcag","pricing_plan_id":"cebpf4jnsgd1na2vs0mg"},{"bike_id":"a96bf4db-8219-44a1-9e20-eb0a002a4ded","system_id":"levelo_inurba_marseille","lat":43.29581,"lon":5.3751,"is_reserved":false,"is_disabled":false,"rental_uris":{"android":"levelo://app?vid=a96bf4db-8219-44a1-9e20-eb0a002a4ded","ios":"levelo://app?vid=a96bf4db-8219-44a1-9e20-eb0a002a4ded"},"vehicle_type_id":"4","last_reported":1737716864,"current_range_meters":29600,"station_id":"ce4bgh92rcd13ifvqb50","pricing_plan_id":"cebpf4jnsgd1na2vs0mg"},{"bike_id":"9c7eaa63-fad9-42a1-ac6c-648c1755a7f5","system_id":"levelo_inurba_marseille","lat":43.30092,"lon":5.37325,"is_reserved":false,"is_disabled":false,"rental_uris":{"android":"levelo://app?vid=9c7eaa63-fad9-42a1-ac6c-648c1755a7f5","ios":"levelo://app?vid=9c7eaa63-fad9-42a1-ac6c-648c1755a7f5"},"vehicle_type_id":"4","last_reported":1737716864,"current_range_meters":32000,"station_id":"","pricing_plan_id":"cebpf4jnsgd1na2vs0mg"},{"bike_id":"c4df36f3-e406-427e-aa11-9767e867ccd8","system_id":"levelo_inurba_marseille","lat":43.29295,"lon":5.37441,"is_reserved":false,"is_disabled":false,"rental_uris":{"android":"levelo://app?vid=c4df36f3-e406-427e-aa11-9767e867ccd8","ios":"levelo://app?vid=c4df36f3-e406-427e-aa11-9767e867ccd8"},"vehicle_type_id":"4","last_reported":1737716864,"current_range_meters":24400,"station_id":"ce4bgi12rcd13ifvqb70","pricing_plan_id":"cebpf4jnsgd1na2vs0mg"},{"bike_id":"dac483ef-9263-4934-a146-b6697f88743a","system_id":"levelo_inurba_marseille","lat":43.28618,"lon":5.35104,"is_reserved":false,"is_disabled":false,"rental_uris":{"android":"levelo://app?vid=dac483ef-9263-4934-a146-b6697f88743a","ios":"levelo://app?vid=dac483ef-9263-4934-a146-b6697f88743a"},"vehicle_type_id":"4","last_reported":1737716864,"current_range_meters":16000,"station_id":"ce4bhch2rcd13ifvqeug","pricing_plan_id":"cebpf4jnsgd1na2vs0mg"},{"bike_id":"915f0150-76c4-4dba-b274-15ea7a8605fa","system_id":"levelo_inurba_marseille","lat":43.29628,"lon":5.4061,"is_reserved":false,"is_disabled":false,"rental_uris":{"android":"levelo://app?vid=915f0150-76c4-4dba-b274-15ea7a8605fa","ios":"levelo://app?vid=915f0150-76c4-4dba-b274-15ea7a8605fa"},"vehicle_type_id":"4","last_reported":1737716864,"current_range_meters":22400,"station_id":"ce4bh0h2rcd13ifvqd60","pricing_plan_id":"cebpf4jnsgd1na2vs0mg"},{"bike_id":"0dd91f0c-a48b-4f52-8436-25ee6729104b","system_id":"levelo_inurba_marseille","lat":43.30605,"lon":5.37228,"is_reserved":false,"is_disabled":false,"rental_uris":{"android":"levelo://app?vid=0dd91f0c-a48b-4f52-8436-25ee6729104b","ios":"levelo://app?vid=0dd91f0c-a48b-4f52-8436-25ee6729104b"},"vehicle_type_id":"4","last_reported":1737716864,"current_range_meters":22000,"station_id":"ce4bgqh2rcd13ifvqc4g","pricing_plan_id":"cebpf4jnsgd1na2vs0mg"},{"bike_id":"eb97554e-9784-452b-b85e-e8331efd4fe5","system_id":"levelo_inurba_marseille","lat":43.31383,"lon":5.36725,"is_reserved":false,"is_disabled":false,"rental_uris":{"android":"levelo://app?vid=eb97554e-9784-452b-b85e-e8331efd4fe5","ios":"levelo://app?vid=eb97554e-9784-452b-b85e-e8331efd4fe5"},"vehicle_type_id":"4","last_reported":1737716864,"current_range_meters":38800,"station_id":"ce4bgr92rcd13ifvqc6g","pricing_plan_id":"cebpf4jnsgd1na2vs0mg"},{"bike_id":"cb0ff26d-12db-4f4f-8a1e-edf0f3766303","system_id":"levelo_inurba_marseille","lat":43.31298,"lon":5.36807,"is_reserved":false,"is_disabled":false,"rental_uris":{"android":"levelo://app?vid=cb0ff26d-12db-4f4f-8a1e-edf0f3766303","ios":"levelo://app?vid=cb0ff26d-12db-4f4f-8a1e-edf0f3766303"},"vehicle_type_id":"4","last_reported":1737716864,"current_range_meters":8800,"station_id":"ce4bgl92rcd13ifvqbq0","pricing_plan_id":"cebpf4jnsgd1na2vs0mg"},{"bike_id":"d82e05f4-b654-4a16-8027-9057f5999b41","system_id":"levelo_inurba_marseille","lat":43.29376,"lon":5.37864,"is_reserved":false,"is_disabled":false,"rental_uris":{"android":"levelo://app?vid=d82e05f4-b654-4a16-8027-9057f5999b41","ios":"levelo://app?vid=d82e05f4-b654-4a16-8027-9057f5999b41"},"vehicle_type_id":"4","last_reported":1737716864,"current_range_meters":39200,"station_id":"ce4bgjh2rcd13ifvqbf0","pricing_plan_id":"cebpf4jnsgd1na2vs0mg"},{"bike_id":"18675e10-7b7e-4542-9ea5-424608b7fd98","system_id":"levelo_inurba_marseille","lat":43.29009,"lon":5.35614,"is_reserved":false,"is_disabled":false,"rental_uris":{"android":"levelo://app?vid=18675e10-7b7e-4542-9ea5-424608b7fd98","ios":"levelo://app?vid=18675e10-7b7e-4542-9ea5-424608b7fd98"},"vehicle_type_id":"4","last_reported":1737716864,"current_range_meters":37600,"station_id":"ce4bhb92rcd13ifvqen0","pricing_plan_id":"cebpf4jnsgd1na2vs0mg"},{"bike_id":"06fcbbbb-c9dd-4be1-9d7d-b2611a2c10e7","system_id":"levelo_inurba_marseille","lat":43.32658,"lon":5.40994,"is_reserved":false,"is_disabled":false,"rental_uris":{"android":"levelo://app?vid=06fcbbbb-c9dd-4be1-9d7d-b2611a2c10e7","ios":"levelo://app?vid=06fcbbbb-c9dd-4be1-9d7d-b2611a2c10e7"},"vehicle_type_id":"4","last_reported":1737716864,"current_range_meters":27200,"station_id":"ce4bhpp2rcd13ifvqhgg","pricing_plan_id":"cebpf4jnsgd1na2vs0mg"},{"bike_id":"367c1a4d-e3ef-4cc4-8a53-e7c1e322176a","system_id":"levelo_inurba_marseille","lat":43.301484,"lon":5.380892,"is_reserved":false,"is_disabled":false,"rental_uris":{"android":"levelo://app?vid=367c1a4d-e3ef-4cc4-8a53-e7c1e322176a","ios":"levelo://app?vid=367c1a4d-e3ef-4cc4-8a53-e7c1e322176a"},"vehicle_type_id":"4","last_reported":1737716864,"current_range_meters":32000,"station_id":"ce4bgjp2rcd13ifvqbh0","pricing_plan_id":"cebpf4jnsgd1na2vs0mg"},{"bike_id":"fa235921-264c-45fa-9486-36940e44284c","system_id":"levelo_inurba_marseille","lat":43.25575,"lon":5.38242,"is_reserved":false,"is_disabled":false,"rental_uris":{"android":"levelo://app?vid=fa235921-264c-45fa-9486-36940e44284c","ios":"levelo://app?vid=fa235921-264c-45fa-9486-36940e44284c"},"vehicle_type_id":"4","last_reported":1737716864,"current_range_meters":38800,"station_id":"ce4bhih2rcd13ifvqfs0","pricing_plan_id":"cebpf4jnsgd1na2vs0mg"},{"bike_id":"77973291-63d9-459d-a644-c2c2d5bbfb90","system_id":"levelo_inurba_marseille","lat":43.26572,"lon":5.39012,"is_reserved":false,"is_disabled":false,"rental_uris":{"android":"levelo://app?vid=77973291-63d9-459d-a644-c2c2d5bbfb90","ios":"levelo://app?vid=77973291-63d9-459d-a644-c2c2d5bbfb90"},"vehicle_type_id":"4","last_reported":1737716864,"current_range_meters":32800,"station_id":"ce4bhe12rcd13ifvqf30","pricing_plan_id":"cebpf4jnsgd1na2vs0mg"},{"bike_id":"59e599e2-aa0c-47e0-b327-0676fd03ab57","system_id":"levelo_inurba_marseille","lat":43.24174,"lon":5.36402,"is_reserved":false,"is_disabled":false,"rental_uris":{"android":"levelo://app?vid=59e599e2-aa0c-47e0-b327-0676fd03ab57","ios":"levelo://app?vid=59e599e2-aa0c-47e0-b327-0676fd03ab57"},"vehicle_type_id":"4","last_reported":1737716864,"current_range_meters":26000,"station_id":"cpo36qri1sfpv3e86is0","pricing_plan_id":"cebpf4jnsgd1na2vs0mg"},{"bike_id":"3169bea1-794e-4a56-bb06-3b17a235f305","system_id":"levelo_inurba_marseille","lat":43.25712,"lon":5.41118,"is_reserved":false,"is_disabled":false,"rental_uris":{"android":"levelo://app?vid=3169bea1-794e-4a56-bb06-3b17a235f305","ios":"levelo://app?vid=3169bea1-794e-4a56-bb06-3b17a235f305"},"vehicle_type_id":"4","last_reported":1737716864,"current_range_meters":39200,"station_id":"ce4bhkp2rcd13ifvqgd0","pricing_plan_id":"cebpf4jnsgd1na2vs0mg"},{"bike_id":"1472ea52-8fc9-449d-8cdc-fb5de31126e2","system_id":"levelo_inurba_marseille","lat":43.32476,"lon":5.36571,"is_reserved":false,"is_disabled":false,"rental_uris":{"android":"levelo://app?vid=1472ea52-8fc9-449d-8cdc-fb5de31126e2","ios":"levelo://app?vid=1472ea52-8fc9-449d-8cdc-fb5de31126e2"},"vehicle_type_id":"4","last_reported":1737716864,"current_range_meters":27200,"station_id":"ce4bhs12rcd13ifvqhvg","pricing_plan_id":"cebpf4jnsgd1na2vs0mg"},{"bike_id":"a7096c56-ee6c-4caa-8cc5-7bc6b6306671","system_id":"levelo_inurba_marseille","lat":43.31271,"lon":5.36715,"is_reserved":false,"is_disabled":false,"rental_uris":{"android":"levelo://app?vid=a7096c56-ee6c-4caa-8cc5-7bc6b6306671","ios":"levelo://app?vid=a7096c56-ee6c-4caa-8cc5-7bc6b6306671"},"vehicle_type_id":"4","last_reported":1737716864,"current_range_meters":26800,"station_id":"ce4bgr92rcd13ifvqc6g","pricing_plan_id":"cebpf4jnsgd1na2vs0mg"},{"bike_id":"056ed343-b9c5-4ee1-9000-c71459c47098","system_id":"levelo_inurba_marseille","lat":43.31713,"lon":5.40461,"is_reserved":false,"is_disabled":true,"rental_uris":{"android":"levelo://app?vid=056ed343-b9c5-4ee1-9000-c71459c47098","ios":"levelo://app?vid=056ed343-b9c5-4ee1-9000-c71459c47098"},"vehicle_type_id":"4","last_reported":1737716864,"current_range_meters":32800,"station_id":"ce4bh012rcd13ifvqd00","pricing_plan_id":"cebpf4jnsgd1na2vs0mg"},{"bike_id":"6faae1ac-5a05-4c51-842a-f6c6117386c2","system_id":"levelo_inurba_marseille","lat":43.28931,"lon":5.38404,"is_reserved":false,"is_disabled":true,"rental_uris":{"android":"levelo://app?vid=6faae1ac-5a05-4c51-842a-f6c6117386c2","ios":"levelo://app?vid=6faae1ac-5a05-4c51-842a-f6c6117386c2"},"vehicle_type_id":"4","last_reported":1737716864,"current_range_meters":800,"station_id":"ce4bh612rcd13ifvqe6g","pricing_plan_id":"cebpf4jnsgd1na2vs0mg"},{"bike_id":"d8e8b75f-a794-4d72-85e8-ae788703f778","system_id":"levelo_inurba_marseille","lat":43.30523,"lon":5.36732,"is_reserved":false,"is_disabled":false,"rental_uris":{"android":"levelo://app?vid=d8e8b75f-a794-4d72-85e8-ae788703f778","ios":"levelo://app?vid=d8e8b75f-a794-4d72-85e8-ae788703f778"},"vehicle_type_id":"4","last_reported":1737716864,"current_range_meters":39200,"station_id":"ce4bgrp2rcd13ifvqc9g","pricing_plan_id":"cebpf4jnsgd1na2vs0mg"},{"bike_id":"391c1801-8b1b-44dd-bfa1-5f0e512fbf2a","system_id":"levelo_inurba_marseille","lat":43.3176,"lon":5.39016,"is_reserved":false,"is_disabled":false,"rental_uris":{"android":"levelo://app?vid=391c1801-8b1b-44dd-bfa1-5f0e512fbf2a","ios":"levelo://app?vid=391c1801-8b1b-44dd-bfa1-5f0e512fbf2a"},"vehicle_type_id":"4","last_reported":1737716864,"current_range_meters":34800,"station_id":"ce4bhqp2rcd13ifvqhng","pricing_plan_id":"cebpf4jnsgd1na2vs0mg"},{"bike_id":"21c89861-37f6-4c39-8ec6-3d880c37e92d","system_id":"levelo_inurba_marseille","lat":43.30477,"lon":5.37916,"is_reserved":false,"is_disabled":false,"rental_uris":{"android":"levelo://app?vid=21c89861-37f6-4c39-8ec6-3d880c37e92d","ios":"levelo://app?vid=21c89861-37f6-4c39-8ec6-3d880c37e92d"},"vehicle_type_id":"4","last_reported":1737716864,"current_range_meters":24800,"station_id":"ce4bgup2rcd13ifvqcn0","pricing_plan_id":"cebpf4jnsgd1na2vs0mg"},{"bike_id":"0312c852-4783-4ebb-a98f-687b937764f2","system_id":"levelo_inurba_marseille","lat":43.28857,"lon":5.39323,"is_reserved":false,"is_disabled":false,"rental_uris":{"android":"levelo://app?vid=0312c852-4783-4ebb-a98f-687b937764f2","ios":"levelo://app?vid=0312c852-4783-4ebb-a98f-687b937764f2"},"vehicle_type_id":"4","last_reported":1737716864,"current_range_meters":38800,"station_id":"ce4bh2p2rcd13ifvqdi0","pricing_plan_id":"cebpf4jnsgd1na2vs0mg"},{"bike_id":"6ef9b078-758c-484c-88ff-72c3a69da2c0","system_id":"levelo_inurba_marseille","lat":43.33613,"lon":5.41031,"is_reserved":false,"is_disabled":false,"rental_uris":{"android":"levelo://app?vid=6ef9b078-758c-484c-88ff-72c3a69da2c0","ios":"levelo://app?vid=6ef9b078-758c-484c-88ff-72c3a69da2c0"},"vehicle_type_id":"4","last_reported":1737716864,"current_range_meters":38800,"station_id":"ce4bhqh2rcd13ifvqhmg","pricing_plan_id":"cebpf4jnsgd1na2vs0mg"},{"bike_id":"7dafa7e7-757d-4898-abdf-cf5305599df2","system_id":"levelo_inurba_marseille","lat":43.29948,"lon":5.37487,"is_reserved":false,"is_disabled":false,"rental_uris":{"android":"levelo://app?vid=7dafa7e7-757d-4898-abdf-cf5305599df2","ios":"levelo://app?vid=7dafa7e7-757d-4898-abdf-cf5305599df2"},"vehicle_type_id":"4","last_reported":1737716864,"current_range_meters":8400,"station_id":"ce4bgjh2rcd13ifvqbg0","pricing_plan_id":"cebpf4jnsgd1na2vs0mg"},{"bike_id":"720b7e3d-ec6c-4d8a-bd91-f2ce046d2245","system_id":"levelo_inurba_marseille","lat":43.231507,"lon":5.437201,"is_reserved":false,"is_disabled":false,"rental_uris":{"android":"levelo://app?vid=720b7e3d-ec6c-4d8a-bd91-f2ce046d2245","ios":"levelo://app?vid=720b7e3d-ec6c-4d8a-bd91-f2ce046d2245"},"vehicle_type_id":"4","last_reported":1737716864,"current_range_meters":7200,"station_id":"ce4bhmp2rcd13ifvqgog","pricing_plan_id":"cebpf4jnsgd1na2vs0mg"},{"bike_id":"1f755e2a-d0a1-47ad-a438-b244890a623b","system_id":"levelo_inurba_marseille","lat":43.27688,"lon":5.38929,"is_reserved":false,"is_disabled":false,"rental_uris":{"android":"levelo://app?vid=1f755e2a-d0a1-47ad-a438-b244890a623b","ios":"levelo://app?vid=1f755e2a-d0a1-47ad-a438-b244890a623b"},"vehicle_type_id":"4","last_reported":1737716864,"current_range_meters":17600,"station_id":"ce4bhi12rcd13ifvqfo0","pricing_plan_id":"cebpf4jnsgd1na2vs0mg"},{"bike_id":"5bdbe150-9b84-4e55-bac6-cff13ce5d19f","system_id":"levelo_inurba_marseille","lat":43.30529,"lon":5.36736,"is_reserved":false,"is_disabled":false,"rental_uris":{"android":"levelo://app?vid=5bdbe150-9b84-4e55-bac6-cff13ce5d19f","ios":"levelo://app?vid=5bdbe150-9b84-4e55-bac6-cff13ce5d19f"},"vehicle_type_id":"4","last_reported":1737716864,"current_range_meters":39200,"station_id":"ce4bgrp2rcd13ifvqc9g","pricing_plan_id":"cebpf4jnsgd1na2vs0mg"},{"bike_id":"2309d152-88bd-4996-a8a8-5ea46d241778","system_id":"levelo_inurba_marseille","lat":43.29936,"lon":5.36554,"is_reserved":false,"is_disabled":false,"rental_uris":{"android":"levelo://app?vid=2309d152-88bd-4996-a8a8-5ea46d241778","ios":"levelo://app?vid=2309d152-88bd-4996-a8a8-5ea46d241778"},"vehicle_type_id":"4","last_reported":1737716864,"current_range_meters":25600,"station_id":"ce4bgm92rcd13ifvqbr0","pricing_plan_id":"cebpf4jnsgd1na2vs0mg"},{"bike_id":"1dfcc0f1-4b3c-4674-9f20-f59055381517","system_id":"levelo_inurba_marseille","lat":43.29191,"lon":5.39331,"is_reserved":false,"is_disabled":false,"rental_uris":{"android":"levelo://app?vid=1dfcc0f1-4b3c-4674-9f20-f59055381517","ios":"levelo://app?vid=1dfcc0f1-4b3c-4674-9f20-f59055381517"},"vehicle_type_id":"4","last_reported":1737716864,"current_range_meters":12000,"station_id":"ce4bh192rcd13ifvqdd0","pricing_plan_id":"cebpf4jnsgd1na2vs0mg"},{"bike_id":"b214cadd-e18d-499d-bd11-205c2e43cccd","system_id":"levelo_inurba_marseille","lat":43.32113,"lon":5.36772,"is_reserved":false,"is_disabled":false,"rental_uris":{"android":"levelo://app?vid=b214cadd-e18d-499d-bd11-205c2e43cccd","ios":"levelo://app?vid=b214cadd-e18d-499d-bd11-205c2e43cccd"},"vehicle_type_id":"4","last_reported":1737716864,"current_range_meters":31200,"station_id":"ce4bhrh2rcd13ifvqhug","pricing_plan_id":"cebpf4jnsgd1na2vs0mg"},{"bike_id":"2b5f67dd-f0e0-4724-bc4a-a13b0862ca51","system_id":"levelo_inurba_marseille","lat":43.29865,"lon":5.38158,"is_reserved":false,"is_disabled":false,"rental_uris":{"android":"levelo://app?vid=2b5f67dd-f0e0-4724-bc4a-a13b0862ca51","ios":"levelo://app?vid=2b5f67dd-f0e0-4724-bc4a-a13b0862ca51"},"vehicle_type_id":"4","last_reported":1737716864,"current_range_meters":38800,"station_id":"ce4bgj12rcd13ifvqbc0","pricing_plan_id":"cebpf4jnsgd1na2vs0mg"},{"bike_id":"7c9e721c-221f-44d7-a17f-212fb419e554","system_id":"levelo_inurba_marseille","lat":43.29262,"lon":5.3843,"is_reserved":false,"is_disabled":false,"rental_uris":{"android":"levelo://app?vid=7c9e721c-221f-44d7-a17f-212fb419e554","ios":"levelo://app?vid=7c9e721c-221f-44d7-a17f-212fb419e554"},"vehicle_type_id":"4","last_reported":1737716864,"current_range_meters":28800,"station_id":"ce4bh692rcd13ifvqea0","pricing_plan_id":"cebpf4jnsgd1na2vs0mg"},{"bike_id":"df17b08c-c0a8-4101-b954-a8ea48a23f87","system_id":"levelo_inurba_marseille","lat":43.32542,"lon":5.41478,"is_reserved":false,"is_disabled":false,"rental_uris":{"android":"levelo://app?vid=df17b08c-c0a8-4101-b954-a8ea48a23f87","ios":"levelo://app?vid=df17b08c-c0a8-4101-b954-a8ea48a23f87"},"vehicle_type_id":"4","last_reported":1737716864,"current_range_meters":17200,"station_id":"ce4bhq12rcd13ifvqhhg","pricing_plan_id":"cebpf4jnsgd1na2vs0mg"},{"bike_id":"545ed6e3-0d7c-44d7-afc3-19d942ccdead","system_id":"levelo_inurba_marseille","lat":43.28273,"lon":5.35087,"is_reserved":false,"is_disabled":false,"rental_uris":{"android":"levelo://app?vid=545ed6e3-0d7c-44d7-afc3-19d942ccdead","ios":"levelo://app?vid=545ed6e3-0d7c-44d7-afc3-19d942ccdead"},"vehicle_type_id":"4","last_reported":1737716864,"current_range_meters":23200,"station_id":"ce4bhbp2rcd13ifvqerg","pricing_plan_id":"cebpf4jnsgd1na2vs0mg"},{"bike_id":"a31a0955-174a-42d6-9808-c7085fd56c19","system_id":"levelo_inurba_marseille","lat":43.26212,"lon":5.37456,"is_reserved":false,"is_disabled":false,"rental_uris":{"android":"levelo://app?vid=a31a0955-174a-42d6-9808-c7085fd56c19","ios":"levelo://app?vid=a31a0955-174a-42d6-9808-c7085fd56c19"},"vehicle_type_id":"4","last_reported":1737716864,"current_range_meters":24400,"station_id":"ce4bhgp2rcd13ifvqfc0","pricing_plan_id":"cebpf4jnsgd1na2vs0mg"},{"bike_id":"13d96c63-4b4b-4e93-9622-1f92d2cf3986","system_id":"levelo_inurba_marseille","lat":43.301453,"lon":5.37403,"is_reserved":false,"is_disabled":false,"rental_uris":{"android":"levelo://app?vid=13d96c63-4b4b-4e93-9622-1f92d2cf3986","ios":"levelo://app?vid=13d96c63-4b4b-4e93-9622-1f92d2cf3986"},"vehicle_type_id":"4","last_reported":1737716864,"current_range_meters":32000,"station_id":"ce4bgs92rcd13ifvqcc0","pricing_plan_id":"cebpf4jnsgd1na2vs0mg"},{"bike_id":"93f31409-d8bf-4634-94e4-01a37c4218c6","system_id":"levelo_inurba_marseille","lat":43.256346,"lon":5.390032,"is_reserved":false,"is_disabled":false,"rental_uris":{"android":"levelo://app?vid=93f31409-d8bf-4634-94e4-01a37c4218c6","ios":"levelo://app?vid=93f31409-d8bf-4634-94e4-01a37c4218c6"},"vehicle_type_id":"4","last_reported":1737716864,"current_range_meters":10800,"station_id":"ce4bhip2rcd13ifvqft0","pricing_plan_id":"cebpf4jnsgd1na2vs0mg"},{"bike_id":"f74a82c9-5e54-4bd6-8eac-1181a9e04273","system_id":"levelo_inurba_marseille","lat":43.24163,"lon":5.36431,"is_reserved":false,"is_disabled":false,"rental_uris":{"android":"levelo://app?vid=f74a82c9-5e54-4bd6-8eac-1181a9e04273","ios":"levelo://app?vid=f74a82c9-5e54-4bd6-8eac-1181a9e04273"},"vehicle_type_id":"4","last_reported":1737716864,"current_range_meters":6800,"station_id":"cpo36qri1sfpv3e86is0","pricing_plan_id":"cebpf4jnsgd1na2vs0mg"},{"bike_id":"f827e8f9-c800-4013-832e-0a40b72cf6c2","system_id":"levelo_inurba_marseille","lat":43.25712,"lon":5.41124,"is_reserved":false,"is_disabled":false,"rental_uris":{"android":"levelo://app?vid=f827e8f9-c800-4013-832e-0a40b72cf6c2","ios":"levelo://app?vid=f827e8f9-c800-4013-832e-0a40b72cf6c2"},"vehicle_type_id":"4","last_reported":1737716864,"current_range_meters":22000,"station_id":"ce4bhkp2rcd13ifvqgd0","pricing_plan_id":"cebpf4jnsgd1na2vs0mg"},{"bike_id":"bdf7f2c8-6eaf-4d8a-9b6d-944eb15b1d16","system_id":"levelo_inurba_marseille","lat":43.29704,"lon":5.36611,"is_reserved":false,"is_disabled":false,"rental_uris":{"android":"levelo://app?vid=bdf7f2c8-6eaf-4d8a-9b6d-944eb15b1d16","ios":"levelo://app?vid=bdf7f2c8-6eaf-4d8a-9b6d-944eb15b1d16"},"vehicle_type_id":"4","last_reported":1737716864,"current_range_meters":18800,"station_id":"ce4bgn12rcd13ifvqbt0","pricing_plan_id":"cebpf4jnsgd1na2vs0mg"},{"bike_id":"1f4cc9a1-a6f1-42ee-8f62-d3fd1b2849a6","system_id":"levelo_inurba_marseille","lat":43.2319,"lon":5.39981,"is_reserved":false,"is_disabled":false,"rental_uris":{"android":"levelo://app?vid=1f4cc9a1-a6f1-42ee-8f62-d3fd1b2849a6","ios":"levelo://app?vid=1f4cc9a1-a6f1-42ee-8f62-d3fd1b2849a6"},"vehicle_type_id":"4","last_reported":1737716864,"current_range_meters":38800,"station_id":"ce4bhn12rcd13ifvqgqg","pricing_plan_id":"cebpf4jnsgd1na2vs0mg"},{"bike_id":"59767ab0-c777-48db-a2ff-2c2eeb72fd84","system_id":"levelo_inurba_marseille","lat":43.25565,"lon":5.38231,"is_reserved":false,"is_disabled":false,"rental_uris":{"android":"levelo://app?vid=59767ab0-c777-48db-a2ff-2c2eeb72fd84","ios":"levelo://app?vid=59767ab0-c777-48db-a2ff-2c2eeb72fd84"},"vehicle_type_id":"4","last_reported":1737716864,"current_range_meters":28000,"station_id":"ce4bhih2rcd13ifvqfs0","pricing_plan_id":"cebpf4jnsgd1na2vs0mg"},{"bike_id":"fd0056eb-b9be-4c69-a266-cfeb6bd5023b","system_id":"levelo_inurba_marseille","lat":43.30088,"lon":5.39084,"is_reserved":false,"is_disabled":false,"rental_uris":{"android":"levelo://app?vid=fd0056eb-b9be-4c69-a266-cfeb6bd5023b","ios":"levelo://app?vid=fd0056eb-b9be-4c69-a266-cfeb6bd5023b"},"vehicle_type_id":"4","last_reported":1737716864,"current_range_meters":22800,"station_id":"ce4bh192rcd13ifvqdb0","pricing_plan_id":"cebpf4jnsgd1na2vs0mg"},{"bike_id":"9838cc78-2b53-49d3-ae13-82df62c4fd64","system_id":"levelo_inurba_marseille","lat":43.28434,"lon":5.40935,"is_reserved":false,"is_disabled":true,"rental_uris":{"android":"levelo://app?vid=9838cc78-2b53-49d3-ae13-82df62c4fd64","ios":"levelo://app?vid=9838cc78-2b53-49d3-ae13-82df62c4fd64"},"vehicle_type_id":"4","last_reported":1737716864,"current_range_meters":1200,"station_id":"","pricing_plan_id":"cebpf4jnsgd1na2vs0mg"},{"bike_id":"70f4baca-3d50-4fff-8ed7-e04bde78ff10","system_id":"levelo_inurba_marseille","lat":43.26183,"lon":5.3791,"is_reserved":false,"is_disabled":false,"rental_uris":{"android":"levelo://app?vid=70f4baca-3d50-4fff-8ed7-e04bde78ff10","ios":"levelo://app?vid=70f4baca-3d50-4fff-8ed7-e04bde78ff10"},"vehicle_type_id":"4","last_reported":1737716864,"current_range_meters":39200,"station_id":"ce4bhjp2rcd13ifvqg90","pricing_plan_id":"cebpf4jnsgd1na2vs0mg"},{"bike_id":"bf096a89-ee72-4f37-85bd-7b3cf9f0cb41","system_id":"levelo_inurba_marseille","lat":43.319291,"lon":5.379018,"is_reserved":false,"is_disabled":false,"rental_uris":{"android":"levelo://app?vid=bf096a89-ee72-4f37-85bd-7b3cf9f0cb41","ios":"levelo://app?vid=bf096a89-ee72-4f37-85bd-7b3cf9f0cb41"},"vehicle_type_id":"4","last_reported":1737716864,"current_range_meters":35600,"station_id":"","pricing_plan_id":"cebpf4jnsgd1na2vs0mg"},{"bike_id":"ed076e60-2bfe-4983-8b26-80f033b27224","system_id":"levelo_inurba_marseille","lat":43.26675,"lon":5.3828,"is_reserved":false,"is_disabled":false,"rental_uris":{"android":"levelo://app?vid=ed076e60-2bfe-4983-8b26-80f033b27224","ios":"levelo://app?vid=ed076e60-2bfe-4983-8b26-80f033b27224"},"vehicle_type_id":"4","last_reported":1737716864,"current_range_meters":17200,"station_id":"ce4bhg92rcd13ifvqf90","pricing_plan_id":"cebpf4jnsgd1na2vs0mg"},{"bike_id":"15007c8e-2f94-40e5-8e0c-7eab4afe272e","system_id":"levelo_inurba_marseille","lat":43.31771,"lon":5.37269,"is_reserved":false,"is_disabled":false,"rental_uris":{"android":"levelo://app?vid=15007c8e-2f94-40e5-8e0c-7eab4afe272e","ios":"levelo://app?vid=15007c8e-2f94-40e5-8e0c-7eab4afe272e"},"vehicle_type_id":"4","last_reported":1737716864,"current_range_meters":37600,"station_id":"","pricing_plan_id":"cebpf4jnsgd1na2vs0mg"},{"bike_id":"308e358e-cb1f-4b62-8103-eeb5731f0b2e","system_id":"levelo_inurba_marseille","lat":43.29533,"lon":5.37517,"is_reserved":false,"is_disabled":false,"rental_uris":{"android":"levelo://app?vid=308e358e-cb1f-4b62-8103-eeb5731f0b2e","ios":"levelo://app?vid=308e358e-cb1f-4b62-8103-eeb5731f0b2e"},"vehicle_type_id":"4","last_reported":1737716864,"current_range_meters":38000,"station_id":"ce4bgkp2rcd13ifvqbmg","pricing_plan_id":"cebpf4jnsgd1na2vs0mg"},{"bike_id":"ca086e44-bf3e-42cf-9cdd-4fb5146d5c95","system_id":"levelo_inurba_marseille","lat":43.30461,"lon":5.37907,"is_reserved":false,"is_disabled":false,"rental_uris":{"android":"levelo://app?vid=ca086e44-bf3e-42cf-9cdd-4fb5146d5c95","ios":"levelo://app?vid=ca086e44-bf3e-42cf-9cdd-4fb5146d5c95"},"vehicle_type_id":"4","last_reported":1737716864,"current_range_meters":38800,"station_id":"ce4bgup2rcd13ifvqcn0","pricing_plan_id":"cebpf4jnsgd1na2vs0mg"},{"bike_id":"c964a905-9270-455d-8da3-260e623933e5","system_id":"levelo_inurba_marseille","lat":43.26675,"lon":5.3828,"is_reserved":false,"is_disabled":false,"rental_uris":{"android":"levelo://app?vid=c964a905-9270-455d-8da3-260e623933e5","ios":"levelo://app?vid=c964a905-9270-455d-8da3-260e623933e5"},"vehicle_type_id":"4","last_reported":1737716864,"current_range_meters":39200,"station_id":"ce4bhg92rcd13ifvqf90","pricing_plan_id":"cebpf4jnsgd1na2vs0mg"},{"bike_id":"bf232eb6-ff63-4ac8-9eb0-5e3d769ec9cd","system_id":"levelo_inurba_marseille","lat":43.31327,"lon":5.36667,"is_reserved":false,"is_disabled":false,"rental_uris":{"android":"levelo://app?vid=bf232eb6-ff63-4ac8-9eb0-5e3d769ec9cd","ios":"levelo://app?vid=bf232eb6-ff63-4ac8-9eb0-5e3d769ec9cd"},"vehicle_type_id":"4","last_reported":1737716864,"current_range_meters":32800,"station_id":"ce4bgr92rcd13ifvqc6g","pricing_plan_id":"cebpf4jnsgd1na2vs0mg"},{"bike_id":"9524f704-c75a-4847-accf-ddfda8375e3e","system_id":"levelo_inurba_marseille","lat":43.26227,"lon":5.40452,"is_reserved":false,"is_disabled":false,"rental_uris":{"android":"levelo://app?vid=9524f704-c75a-4847-accf-ddfda8375e3e","ios":"levelo://app?vid=9524f704-c75a-4847-accf-ddfda8375e3e"},"vehicle_type_id":"4","last_reported":1737716864,"current_range_meters":30400,"station_id":"","pricing_plan_id":"cebpf4jnsgd1na2vs0mg"},{"bike_id":"640dda4b-4e7a-4299-9a4a-d49064134585","system_id":"levelo_inurba_marseille","lat":43.2619,"lon":5.37936,"is_reserved":false,"is_disabled":false,"rental_uris":{"android":"levelo://app?vid=640dda4b-4e7a-4299-9a4a-d49064134585","ios":"levelo://app?vid=640dda4b-4e7a-4299-9a4a-d49064134585"},"vehicle_type_id":"4","last_reported":1737716864,"current_range_meters":38800,"station_id":"ce4bhjp2rcd13ifvqg90","pricing_plan_id":"cebpf4jnsgd1na2vs0mg"},{"bike_id":"823f5e62-6792-4b71-9479-360bc5d7ee1c","system_id":"levelo_inurba_marseille","lat":43.29223,"lon":5.36064,"is_reserved":false,"is_disabled":false,"rental_uris":{"android":"levelo://app?vid=823f5e62-6792-4b71-9479-360bc5d7ee1c","ios":"levelo://app?vid=823f5e62-6792-4b71-9479-360bc5d7ee1c"},"vehicle_type_id":"4","last_reported":1737716864,"current_range_meters":32000,"station_id":"ce4bhbh2rcd13ifvqeqg","pricing_plan_id":"cebpf4jnsgd1na2vs0mg"},{"bike_id":"70fd6915-9ec6-4ec7-b798-83a37f71b358","system_id":"levelo_inurba_marseille","lat":43.24167,"lon":5.36407,"is_reserved":false,"is_disabled":false,"rental_uris":{"android":"levelo://app?vid=70fd6915-9ec6-4ec7-b798-83a37f71b358","ios":"levelo://app?vid=70fd6915-9ec6-4ec7-b798-83a37f71b358"},"vehicle_type_id":"4","last_reported":1737716864,"current_range_meters":30000,"station_id":"cpo36qri1sfpv3e86is0","pricing_plan_id":"cebpf4jnsgd1na2vs0mg"},{"bike_id":"0d523cb4-824a-4f30-9f94-216dd58ad552","system_id":"levelo_inurba_marseille","lat":43.31981,"lon":5.38162,"is_reserved":false,"is_disabled":false,"rental_uris":{"android":"levelo://app?vid=0d523cb4-824a-4f30-9f94-216dd58ad552","ios":"levelo://app?vid=0d523cb4-824a-4f30-9f94-216dd58ad552"},"vehicle_type_id":"4","last_reported":1737716864,"current_range_meters":20800,"station_id":"ce4bhr12rcd13ifvqhpg","pricing_plan_id":"cebpf4jnsgd1na2vs0mg"},{"bike_id":"b1350c89-a295-42ef-b3a2-f01d5d977dd1","system_id":"levelo_inurba_marseille","lat":43.30147,"lon":5.38101,"is_reserved":false,"is_disabled":false,"rental_uris":{"android":"levelo://app?vid=b1350c89-a295-42ef-b3a2-f01d5d977dd1","ios":"levelo://app?vid=b1350c89-a295-42ef-b3a2-f01d5d977dd1"},"vehicle_type_id":"4","last_reported":1737716864,"current_range_meters":17200,"station_id":"ce4bgjp2rcd13ifvqbh0","pricing_plan_id":"cebpf4jnsgd1na2vs0mg"},{"bike_id":"050bd42b-0fa4-4ea3-8a02-3c1196960ece","system_id":"levelo_inurba_marseille","lat":43.316421,"lon":5.374036,"is_reserved":false,"is_disabled":false,"rental_uris":{"android":"levelo://app?vid=050bd42b-0fa4-4ea3-8a02-3c1196960ece","ios":"levelo://app?vid=050bd42b-0fa4-4ea3-8a02-3c1196960ece"},"vehicle_type_id":"4","last_reported":1737716864,"current_range_meters":24400,"station_id":"","pricing_plan_id":"cebpf4jnsgd1na2vs0mg"},{"bike_id":"e3d72c5b-33fb-4d8e-8eae-71ee161e14bd","system_id":"levelo_inurba_marseille","lat":43.30908,"lon":5.36863,"is_reserved":false,"is_disabled":false,"rental_uris":{"android":"levelo://app?vid=e3d72c5b-33fb-4d8e-8eae-71ee161e14bd","ios":"levelo://app?vid=e3d72c5b-33fb-4d8e-8eae-71ee161e14bd"},"vehicle_type_id":"4","last_reported":1737716864,"current_range_meters":25200,"station_id":"ce4bgn92rcd13ifvqbvg","pricing_plan_id":"cebpf4jnsgd1na2vs0mg"},{"bike_id":"0ad149d9-6e33-405d-aa3c-5e42e0c0ed7d","system_id":"levelo_inurba_marseille","lat":43.28142,"lon":5.42662,"is_reserved":false,"is_disabled":false,"rental_uris":{"android":"levelo://app?vid=0ad149d9-6e33-405d-aa3c-5e42e0c0ed7d","ios":"levelo://app?vid=0ad149d9-6e33-405d-aa3c-5e42e0c0ed7d"},"vehicle_type_id":"4","last_reported":1737716864,"current_range_meters":38800,"station_id":"ce4bhnh2rcd13ifvqgug","pricing_plan_id":"cebpf4jnsgd1na2vs0mg"},{"bike_id":"2f4fa984-4c44-4974-abb6-1d4b539de1f0","system_id":"levelo_inurba_marseille","lat":43.28668,"lon":5.38675,"is_reserved":false,"is_disabled":false,"rental_uris":{"android":"levelo://app?vid=2f4fa984-4c44-4974-abb6-1d4b539de1f0","ios":"levelo://app?vid=2f4fa984-4c44-4974-abb6-1d4b539de1f0"},"vehicle_type_id":"4","last_reported":1737716864,"current_range_meters":32000,"station_id":"ce4bh492rcd13ifvqdug","pricing_plan_id":"cebpf4jnsgd1na2vs0mg"},{"bike_id":"347dd29e-9a9e-4a37-8ddd-6e2050aaff03","system_id":"levelo_inurba_marseille","lat":43.33732,"lon":5.3921,"is_reserved":false,"is_disabled":false,"rental_uris":{"android":"levelo://app?vid=347dd29e-9a9e-4a37-8ddd-6e2050aaff03","ios":"levelo://app?vid=347dd29e-9a9e-4a37-8ddd-6e2050aaff03"},"vehicle_type_id":"4","last_reported":1737716864,"current_range_meters":38400,"station_id":"ce4bhr92rcd13ifvqhsg","pricing_plan_id":"cebpf4jnsgd1na2vs0mg"},{"bike_id":"d7dbec56-3cb4-42dd-970e-b1e8e7b8f352","system_id":"levelo_inurba_marseille","lat":43.26676,"lon":5.38271,"is_reserved":false,"is_disabled":false,"rental_uris":{"android":"levelo://app?vid=d7dbec56-3cb4-42dd-970e-b1e8e7b8f352","ios":"levelo://app?vid=d7dbec56-3cb4-42dd-970e-b1e8e7b8f352"},"vehicle_type_id":"4","last_reported":1737716864,"current_range_meters":39200,"station_id":"ce4bhg92rcd13ifvqf90","pricing_plan_id":"cebpf4jnsgd1na2vs0mg"},{"bike_id":"68f2ccb3-f174-4230-b667-71cfa289852c","system_id":"levelo_inurba_marseille","lat":43.2808,"lon":5.39651,"is_reserved":false,"is_disabled":false,"rental_uris":{"android":"levelo://app?vid=68f2ccb3-f174-4230-b667-71cfa289852c","ios":"levelo://app?vid=68f2ccb3-f174-4230-b667-71cfa289852c"},"vehicle_type_id":"4","last_reported":1737716864,"current_range_meters":26000,"station_id":"ce4bho12rcd13ifvqh2g","pricing_plan_id":"cebpf4jnsgd1na2vs0mg"},{"bike_id":"4553b969-7b05-4629-91cf-2232cce0116a","system_id":"levelo_inurba_marseille","lat":43.24067,"lon":5.37709,"is_reserved":false,"is_disabled":false,"rental_uris":{"android":"levelo://app?vid=4553b969-7b05-4629-91cf-2232cce0116a","ios":"levelo://app?vid=4553b969-7b05-4629-91cf-2232cce0116a"},"vehicle_type_id":"4","last_reported":1737716864,"current_range_meters":38800,"station_id":"ce4bhnp2rcd13ifvqgvg","pricing_plan_id":"cebpf4jnsgd1na2vs0mg"},{"bike_id":"90b8a1b1-ad54-458d-9362-f5197bbdf048","system_id":"levelo_inurba_marseille","lat":43.2294,"lon":5.35386,"is_reserved":false,"is_disabled":false,"rental_uris":{"android":"levelo://app?vid=90b8a1b1-ad54-458d-9362-f5197bbdf048","ios":"levelo://app?vid=90b8a1b1-ad54-458d-9362-f5197bbdf048"},"vehicle_type_id":"4","last_reported":1737716864,"current_range_meters":38000,"station_id":"cpo3532slgdg3j2ikp40","pricing_plan_id":"cebpf4jnsgd1na2vs0mg"},{"bike_id":"1c66e932-63ee-4c4b-a135-c1271c7dcb5e","system_id":"levelo_inurba_marseille","lat":43.26188,"lon":5.37918,"is_reserved":false,"is_disabled":false,"rental_uris":{"android":"levelo://app?vid=1c66e932-63ee-4c4b-a135-c1271c7dcb5e","ios":"levelo://app?vid=1c66e932-63ee-4c4b-a135-c1271c7dcb5e"},"vehicle_type_id":"4","last_reported":1737716864,"current_range_meters":17200,"station_id":"ce4bhjp2rcd13ifvqg90","pricing_plan_id":"cebpf4jnsgd1na2vs0mg"},{"bike_id":"ab95ecf9-e61e-40ca-834d-c29fe586726d","system_id":"levelo_inurba_marseille","lat":43.30139,"lon":5.37427,"is_reserved":false,"is_disabled":false,"rental_uris":{"android":"levelo://app?vid=ab95ecf9-e61e-40ca-834d-c29fe586726d","ios":"levelo://app?vid=ab95ecf9-e61e-40ca-834d-c29fe586726d"},"vehicle_type_id":"4","last_reported":1737716864,"current_range_meters":17200,"station_id":"ce4bgs92rcd13ifvqcc0","pricing_plan_id":"cebpf4jnsgd1na2vs0mg"},{"bike_id":"dc6e3d32-a291-4b70-8bf0-8040f7271e19","system_id":"levelo_inurba_marseille","lat":43.29057,"lon":5.35927,"is_reserved":false,"is_disabled":false,"rental_uris":{"android":"levelo://app?vid=dc6e3d32-a291-4b70-8bf0-8040f7271e19","ios":"levelo://app?vid=dc6e3d32-a291-4b70-8bf0-8040f7271e19"},"vehicle_type_id":"4","last_reported":1737716864,"current_range_meters":36800,"station_id":"ce4bha92rcd13ifvqeg0","pricing_plan_id":"cebpf4jnsgd1na2vs0mg"},{"bike_id":"750f8951-c735-4fbb-8352-4d4326ecc358","system_id":"levelo_inurba_marseille","lat":43.336086,"lon":5.410322,"is_reserved":false,"is_disabled":false,"rental_uris":{"android":"levelo://app?vid=750f8951-c735-4fbb-8352-4d4326ecc358","ios":"levelo://app?vid=750f8951-c735-4fbb-8352-4d4326ecc358"},"vehicle_type_id":"4","last_reported":1737716864,"current_range_meters":24000,"station_id":"ce4bhqh2rcd13ifvqhmg","pricing_plan_id":"cebpf4jnsgd1na2vs0mg"},{"bike_id":"a3ad6f3b-805c-479e-b1ff-4179d35b5e6a","system_id":"levelo_inurba_marseille","lat":43.29253,"lon":5.40915,"is_reserved":false,"is_disabled":false,"rental_uris":{"android":"levelo://app?vid=a3ad6f3b-805c-479e-b1ff-4179d35b5e6a","ios":"levelo://app?vid=a3ad6f3b-805c-479e-b1ff-4179d35b5e6a"},"vehicle_type_id":"4","last_reported":1737716864,"current_range_meters":38800,"station_id":"ce4bh192rcd13ifvqdc0","pricing_plan_id":"cebpf4jnsgd1na2vs0mg"},{"bike_id":"9454eb74-d92a-4576-99df-377b75308eae","system_id":"levelo_inurba_marseille","lat":43.30103,"lon":5.39081,"is_reserved":false,"is_disabled":false,"rental_uris":{"android":"levelo://app?vid=9454eb74-d92a-4576-99df-377b75308eae","ios":"levelo://app?vid=9454eb74-d92a-4576-99df-377b75308eae"},"vehicle_type_id":"4","last_reported":1737716864,"current_range_meters":36400,"station_id":"ce4bh192rcd13ifvqdb0","pricing_plan_id":"cebpf4jnsgd1na2vs0mg"},{"bike_id":"f7bd2c13-f79f-4055-af64-cf40f9bc15ba","system_id":"levelo_inurba_marseille","lat":43.30313,"lon":5.369,"is_reserved":false,"is_disabled":false,"rental_uris":{"android":"levelo://app?vid=f7bd2c13-f79f-4055-af64-cf40f9bc15ba","ios":"levelo://app?vid=f7bd2c13-f79f-4055-af64-cf40f9bc15ba"},"vehicle_type_id":"4","last_reported":1737716864,"current_range_meters":36400,"station_id":"ce4bgqh2rcd13ifvqc5g","pricing_plan_id":"cebpf4jnsgd1na2vs0mg"},{"bike_id":"9daa65c1-5b02-4166-8c0c-de6e8b6f5aaf","system_id":"levelo_inurba_marseille","lat":43.28032,"lon":5.36945,"is_reserved":false,"is_disabled":false,"rental_uris":{"android":"levelo://app?vid=9daa65c1-5b02-4166-8c0c-de6e8b6f5aaf","ios":"levelo://app?vid=9daa65c1-5b02-4166-8c0c-de6e8b6f5aaf"},"vehicle_type_id":"4","last_reported":1737716864,"current_range_meters":38800,"station_id":"ce4bha12rcd13ifvqef0","pricing_plan_id":"cebpf4jnsgd1na2vs0mg"},{"bike_id":"ce90fea6-ff2a-4d0b-bd4f-45ced0acf4c0","system_id":"levelo_inurba_marseille","lat":43.323628,"lon":5.367536,"is_reserved":false,"is_disabled":false,"rental_uris":{"android":"levelo://app?vid=ce90fea6-ff2a-4d0b-bd4f-45ced0acf4c0","ios":"levelo://app?vid=ce90fea6-ff2a-4d0b-bd4f-45ced0acf4c0"},"vehicle_type_id":"4","last_reported":1737716864,"current_range_meters":8400,"station_id":"ce4bhsh2rcd13ifvqi2g","pricing_plan_id":"cebpf4jnsgd1na2vs0mg"},{"bike_id":"9c61d5ad-40df-4745-ab79-e52cb6f6bafc","system_id":"levelo_inurba_marseille","lat":43.28,"lon":5.40027,"is_reserved":false,"is_disabled":false,"rental_uris":{"android":"levelo://app?vid=9c61d5ad-40df-4745-ab79-e52cb6f6bafc","ios":"levelo://app?vid=9c61d5ad-40df-4745-ab79-e52cb6f6bafc"},"vehicle_type_id":"4","last_reported":1737716864,"current_range_meters":29600,"station_id":"ce4bho92rcd13ifvqh4g","pricing_plan_id":"cebpf4jnsgd1na2vs0mg"},{"bike_id":"ab13439f-1c4b-4b83-ac72-9f4e6d1f64cb","system_id":"levelo_inurba_marseille","lat":43.31246,"lon":5.37977,"is_reserved":false,"is_disabled":true,"rental_uris":{"android":"levelo://app?vid=ab13439f-1c4b-4b83-ac72-9f4e6d1f64cb","ios":"levelo://app?vid=ab13439f-1c4b-4b83-ac72-9f4e6d1f64cb"},"vehicle_type_id":"4","last_reported":1737716864,"current_range_meters":8000,"station_id":"","pricing_plan_id":"cebpf4jnsgd1na2vs0mg"},{"bike_id":"431299a0-21ec-4f6a-93fe-0d0fe6e96565","system_id":"levelo_inurba_marseille","lat":43.3032,"lon":5.36908,"is_reserved":false,"is_disabled":false,"rental_uris":{"android":"levelo://app?vid=431299a0-21ec-4f6a-93fe-0d0fe6e96565","ios":"levelo://app?vid=431299a0-21ec-4f6a-93fe-0d0fe6e96565"},"vehicle_type_id":"4","last_reported":1737716864,"current_range_meters":38400,"station_id":"ce4bgqh2rcd13ifvqc5g","pricing_plan_id":"cebpf4jnsgd1na2vs0mg"},{"bike_id":"68e2692a-5041-4200-a125-13faf386d830","system_id":"levelo_inurba_marseille","lat":43.27814,"lon":5.40707,"is_reserved":false,"is_disabled":false,"rental_uris":{"android":"levelo://app?vid=68e2692a-5041-4200-a125-13faf386d830","ios":"levelo://app?vid=68e2692a-5041-4200-a125-13faf386d830"},"vehicle_type_id":"4","last_reported":1737716864,"current_range_meters":30800,"station_id":"ce4bhnh2rcd13ifvqgtg","pricing_plan_id":"cebpf4jnsgd1na2vs0mg"},{"bike_id":"b647daaa-f6b6-44a5-9603-dc342d980de8","system_id":"levelo_inurba_marseille","lat":43.29206,"lon":5.3933,"is_reserved":false,"is_disabled":false,"rental_uris":{"android":"levelo://app?vid=b647daaa-f6b6-44a5-9603-dc342d980de8","ios":"levelo://app?vid=b647daaa-f6b6-44a5-9603-dc342d980de8"},"vehicle_type_id":"4","last_reported":1737716864,"current_range_meters":38800,"station_id":"ce4bh192rcd13ifvqdd0","pricing_plan_id":"cebpf4jnsgd1na2vs0mg"},{"bike_id":"08ddc84c-0cf0-43b6-8658-02e253c04c3a","system_id":"levelo_inurba_marseille","lat":43.30159,"lon":5.38084,"is_reserved":false,"is_disabled":false,"rental_uris":{"android":"levelo://app?vid=08ddc84c-0cf0-43b6-8658-02e253c04c3a","ios":"levelo://app?vid=08ddc84c-0cf0-43b6-8658-02e253c04c3a"},"vehicle_type_id":"4","last_reported":1737716864,"current_range_meters":32800,"station_id":"ce4bgjp2rcd13ifvqbh0","pricing_plan_id":"cebpf4jnsgd1na2vs0mg"},{"bike_id":"0d3f5817-39fa-40d7-ab9d-35c01033f435","system_id":"levelo_inurba_marseille","lat":43.26212,"lon":5.40489,"is_reserved":false,"is_disabled":false,"rental_uris":{"android":"levelo://app?vid=0d3f5817-39fa-40d7-ab9d-35c01033f435","ios":"levelo://app?vid=0d3f5817-39fa-40d7-ab9d-35c01033f435"},"vehicle_type_id":"4","last_reported":1737716864,"current_range_meters":3600,"station_id":"","pricing_plan_id":"cebpf4jnsgd1na2vs0mg"},{"bike_id":"adf37ecb-7a79-450c-982d-303eae1f41ff","system_id":"levelo_inurba_marseille","lat":43.26682,"lon":5.38267,"is_reserved":false,"is_disabled":false,"rental_uris":{"android":"levelo://app?vid=adf37ecb-7a79-450c-982d-303eae1f41ff","ios":"levelo://app?vid=adf37ecb-7a79-450c-982d-303eae1f41ff"},"vehicle_type_id":"4","last_reported":1737716864,"current_range_meters":39200,"station_id":"ce4bhg92rcd13ifvqf90","pricing_plan_id":"cebpf4jnsgd1na2vs0mg"},{"bike_id":"78b03264-0c2d-45b5-9b0a-cf7cc454c0c6","system_id":"levelo_inurba_marseille","lat":43.32478,"lon":5.36576,"is_reserved":false,"is_disabled":false,"rental_uris":{"android":"levelo://app?vid=78b03264-0c2d-45b5-9b0a-cf7cc454c0c6","ios":"levelo://app?vid=78b03264-0c2d-45b5-9b0a-cf7cc454c0c6"},"vehicle_type_id":"4","last_reported":1737716864,"current_range_meters":37600,"station_id":"ce4bhs12rcd13ifvqhvg","pricing_plan_id":"cebpf4jnsgd1na2vs0mg"},{"bike_id":"36bb60b4-b8f4-4e84-b8f3-ebf21c6fc7c0","system_id":"levelo_inurba_marseille","lat":43.2738,"lon":5.36262,"is_reserved":false,"is_disabled":false,"rental_uris":{"android":"levelo://app?vid=36bb60b4-b8f4-4e84-b8f3-ebf21c6fc7c0","ios":"levelo://app?vid=36bb60b4-b8f4-4e84-b8f3-ebf21c6fc7c0"},"vehicle_type_id":"4","last_reported":1737716864,"current_range_meters":33600,"station_id":"ce4bhbh2rcd13ifvqeo0","pricing_plan_id":"cebpf4jnsgd1na2vs0mg"},{"bike_id":"efcccd97-a21c-4651-bca9-251bfff03385","system_id":"levelo_inurba_marseille","lat":43.2922,"lon":5.3609,"is_reserved":false,"is_disabled":false,"rental_uris":{"android":"levelo://app?vid=efcccd97-a21c-4651-bca9-251bfff03385","ios":"levelo://app?vid=efcccd97-a21c-4651-bca9-251bfff03385"},"vehicle_type_id":"4","last_reported":1737716864,"current_range_meters":27600,"station_id":"ce4bhbh2rcd13ifvqeqg","pricing_plan_id":"cebpf4jnsgd1na2vs0mg"},{"bike_id":"fa9863a1-f920-45aa-81d9-bc9ce6457310","system_id":"levelo_inurba_marseille","lat":43.31322,"lon":5.396995,"is_reserved":false,"is_disabled":false,"rental_uris":{"android":"levelo://app?vid=fa9863a1-f920-45aa-81d9-bc9ce6457310","ios":"levelo://app?vid=fa9863a1-f920-45aa-81d9-bc9ce6457310"},"vehicle_type_id":"4","last_reported":1737716864,"current_range_meters":31200,"station_id":"ce4bgvp2rcd13ifvqcu0","pricing_plan_id":"cebpf4jnsgd1na2vs0mg"},{"bike_id":"86e74e3b-996a-4975-88d9-d5a7ed191bca","system_id":"levelo_inurba_marseille","lat":43.30519,"lon":5.36545,"is_reserved":false,"is_disabled":false,"rental_uris":{"android":"levelo://app?vid=86e74e3b-996a-4975-88d9-d5a7ed191bca","ios":"levelo://app?vid=86e74e3b-996a-4975-88d9-d5a7ed191bca"},"vehicle_type_id":"4","last_reported":1737716864,"current_range_meters":38400,"station_id":"ce4bgs12rcd13ifvqcag","pricing_plan_id":"cebpf4jnsgd1na2vs0mg"},{"bike_id":"0fd16e9d-a182-4cb8-8e7b-f4425423bfeb","system_id":"levelo_inurba_marseille","lat":43.29592,"lon":5.381,"is_reserved":false,"is_disabled":true,"rental_uris":{"android":"levelo://app?vid=0fd16e9d-a182-4cb8-8e7b-f4425423bfeb","ios":"levelo://app?vid=0fd16e9d-a182-4cb8-8e7b-f4425423bfeb"},"vehicle_type_id":"4","last_reported":1737716864,"current_range_meters":36400,"station_id":"ce4bgl12rcd13ifvqbo0","pricing_plan_id":"cebpf4jnsgd1na2vs0mg"},{"bike_id":"8ef3fa62-0a6f-4835-9ef6-faeb3804ec0a","system_id":"levelo_inurba_marseille","lat":43.30884,"lon":5.3686,"is_reserved":false,"is_disabled":false,"rental_uris":{"android":"levelo://app?vid=8ef3fa62-0a6f-4835-9ef6-faeb3804ec0a","ios":"levelo://app?vid=8ef3fa62-0a6f-4835-9ef6-faeb3804ec0a"},"vehicle_type_id":"4","last_reported":1737716864,"current_range_meters":38000,"station_id":"ce4bgn92rcd13ifvqbvg","pricing_plan_id":"cebpf4jnsgd1na2vs0mg"},{"bike_id":"f8d47279-9ba1-467f-a5c2-954f8bee37fb","system_id":"levelo_inurba_marseille","lat":43.325398,"lon":5.414536,"is_reserved":false,"is_disabled":false,"rental_uris":{"android":"levelo://app?vid=f8d47279-9ba1-467f-a5c2-954f8bee37fb","ios":"levelo://app?vid=f8d47279-9ba1-467f-a5c2-954f8bee37fb"},"vehicle_type_id":"4","last_reported":1737716864,"current_range_meters":8400,"station_id":"ce4bhq12rcd13ifvqhhg","pricing_plan_id":"cebpf4jnsgd1na2vs0mg"},{"bike_id":"85a3042a-99ef-4a57-92d9-e9fccf7a3989","system_id":"levelo_inurba_marseille","lat":43.30469,"lon":5.37897,"is_reserved":false,"is_disabled":false,"rental_uris":{"android":"levelo://app?vid=85a3042a-99ef-4a57-92d9-e9fccf7a3989","ios":"levelo://app?vid=85a3042a-99ef-4a57-92d9-e9fccf7a3989"},"vehicle_type_id":"4","last_reported":1737716864,"current_range_meters":33600,"station_id":"ce4bgup2rcd13ifvqcn0","pricing_plan_id":"cebpf4jnsgd1na2vs0mg"},{"bike_id":"85c4b304-0a15-4fc1-b75d-cfc16b5afe60","system_id":"levelo_inurba_marseille","lat":43.22933,"lon":5.35391,"is_reserved":false,"is_disabled":false,"rental_uris":{"android":"levelo://app?vid=85c4b304-0a15-4fc1-b75d-cfc16b5afe60","ios":"levelo://app?vid=85c4b304-0a15-4fc1-b75d-cfc16b5afe60"},"vehicle_type_id":"4","last_reported":1737716864,"current_range_meters":39200,"station_id":"cpo3532slgdg3j2ikp40","pricing_plan_id":"cebpf4jnsgd1na2vs0mg"},{"bike_id":"54aee527-ac70-4fa1-84d8-21e58a7f0185","system_id":"levelo_inurba_marseille","lat":43.275685,"lon":5.384288,"is_reserved":false,"is_disabled":false,"rental_uris":{"android":"levelo://app?vid=54aee527-ac70-4fa1-84d8-21e58a7f0185","ios":"levelo://app?vid=54aee527-ac70-4fa1-84d8-21e58a7f0185"},"vehicle_type_id":"4","last_reported":1737716864,"current_range_meters":3600,"station_id":"ce4bhh92rcd13ifvqfi0","pricing_plan_id":"cebpf4jnsgd1na2vs0mg"},{"bike_id":"f7f20ea8-ac89-40b3-bd17-c73f31722701","system_id":"levelo_inurba_marseille","lat":43.29896,"lon":5.43668,"is_reserved":false,"is_disabled":false,"rental_uris":{"android":"levelo://app?vid=f7f20ea8-ac89-40b3-bd17-c73f31722701","ios":"levelo://app?vid=f7f20ea8-ac89-40b3-bd17-c73f31722701"},"vehicle_type_id":"4","last_reported":1737716864,"current_range_meters":38400,"station_id":"ce4bhpp2rcd13ifvqhfg","pricing_plan_id":"cebpf4jnsgd1na2vs0mg"},{"bike_id":"13c17dca-014d-48b7-ad83-d0d80268795e","system_id":"levelo_inurba_marseille","lat":43.32104,"lon":5.36776,"is_reserved":false,"is_disabled":false,"rental_uris":{"android":"levelo://app?vid=13c17dca-014d-48b7-ad83-d0d80268795e","ios":"levelo://app?vid=13c17dca-014d-48b7-ad83-d0d80268795e"},"vehicle_type_id":"4","last_reported":1737716864,"current_range_meters":38400,"station_id":"ce4bhrh2rcd13ifvqhug","pricing_plan_id":"cebpf4jnsgd1na2vs0mg"},{"bike_id":"f2e3b5c2-d077-4514-b020-0850f3051bdb","system_id":"levelo_inurba_marseille","lat":43.29611,"lon":5.37744,"is_reserved":false,"is_disabled":false,"rental_uris":{"android":"levelo://app?vid=f2e3b5c2-d077-4514-b020-0850f3051bdb","ios":"levelo://app?vid=f2e3b5c2-d077-4514-b020-0850f3051bdb"},"vehicle_type_id":"4","last_reported":1737716864,"current_range_meters":38000,"station_id":"ce4bgi92rcd13ifvqb90","pricing_plan_id":"cebpf4jnsgd1na2vs0mg"},{"bike_id":"2aeb1fe7-2455-4a37-a484-bbbf324c7cf2","system_id":"levelo_inurba_marseille","lat":43.32114,"lon":5.36776,"is_reserved":false,"is_disabled":false,"rental_uris":{"android":"levelo://app?vid=2aeb1fe7-2455-4a37-a484-bbbf324c7cf2","ios":"levelo://app?vid=2aeb1fe7-2455-4a37-a484-bbbf324c7cf2"},"vehicle_type_id":"4","last_reported":1737716864,"current_range_meters":7200,"station_id":"ce4bhrh2rcd13ifvqhug","pricing_plan_id":"cebpf4jnsgd1na2vs0mg"},{"bike_id":"9a75e298-ddfa-48aa-84e2-a9d886d82a4c","system_id":"levelo_inurba_marseille","lat":43.32335,"lon":5.40626,"is_reserved":false,"is_disabled":false,"rental_uris":{"android":"levelo://app?vid=9a75e298-ddfa-48aa-84e2-a9d886d82a4c","ios":"levelo://app?vid=9a75e298-ddfa-48aa-84e2-a9d886d82a4c"},"vehicle_type_id":"4","last_reported":1737716864,"current_range_meters":33200,"station_id":"ce4bhq92rcd13ifvqhjg","pricing_plan_id":"cebpf4jnsgd1na2vs0mg"},{"bike_id":"5cbeeb31-e0c7-4911-9873-3974a5f601e5","system_id":"levelo_inurba_marseille","lat":43.27489,"lon":5.42466,"is_reserved":false,"is_disabled":false,"rental_uris":{"android":"levelo://app?vid=5cbeeb31-e0c7-4911-9873-3974a5f601e5","ios":"levelo://app?vid=5cbeeb31-e0c7-4911-9873-3974a5f601e5"},"vehicle_type_id":"4","last_reported":1737716864,"current_range_meters":36800,"station_id":"ce4bhn92rcd13ifvqgrg","pricing_plan_id":"cebpf4jnsgd1na2vs0mg"},{"bike_id":"1d51cb01-b3d9-4cd3-98cf-a30cf755d9d6","system_id":"levelo_inurba_marseille","lat":43.30873,"lon":5.36852,"is_reserved":false,"is_disabled":false,"rental_uris":{"android":"levelo://app?vid=1d51cb01-b3d9-4cd3-98cf-a30cf755d9d6","ios":"levelo://app?vid=1d51cb01-b3d9-4cd3-98cf-a30cf755d9d6"},"vehicle_type_id":"4","last_reported":1737716864,"current_range_meters":28400,"station_id":"ce4bgn92rcd13ifvqbvg","pricing_plan_id":"cebpf4jnsgd1na2vs0mg"},{"bike_id":"3e40302e-344f-404b-ba1e-ee841ffe8e36","system_id":"levelo_inurba_marseille","lat":43.30454,"lon":5.3795,"is_reserved":false,"is_disabled":true,"rental_uris":{"android":"levelo://app?vid=3e40302e-344f-404b-ba1e-ee841ffe8e36","ios":"levelo://app?vid=3e40302e-344f-404b-ba1e-ee841ffe8e36"},"vehicle_type_id":"4","last_reported":1737716864,"current_range_meters":22000,"station_id":"ce4bgup2rcd13ifvqcn0","pricing_plan_id":"cebpf4jnsgd1na2vs0mg"},{"bike_id":"7a55f28a-5a5b-4ca4-9825-dee123c17d08","system_id":"levelo_inurba_marseille","lat":43.32096,"lon":5.36781,"is_reserved":false,"is_disabled":false,"rental_uris":{"android":"levelo://app?vid=7a55f28a-5a5b-4ca4-9825-dee123c17d08","ios":"levelo://app?vid=7a55f28a-5a5b-4ca4-9825-dee123c17d08"},"vehicle_type_id":"4","last_reported":1737716864,"current_range_meters":37600,"station_id":"ce4bhrh2rcd13ifvqhug","pricing_plan_id":"cebpf4jnsgd1na2vs0mg"},{"bike_id":"fa8d78eb-e4d3-478c-924c-1bcea3e36896","system_id":"levelo_inurba_marseille","lat":43.273057,"lon":5.390863,"is_reserved":false,"is_disabled":false,"rental_uris":{"android":"levelo://app?vid=fa8d78eb-e4d3-478c-924c-1bcea3e36896","ios":"levelo://app?vid=fa8d78eb-e4d3-478c-924c-1bcea3e36896"},"vehicle_type_id":"4","last_reported":1737716864,"current_range_meters":6800,"station_id":"ce4bhgp2rcd13ifvqfe0","pricing_plan_id":"cebpf4jnsgd1na2vs0mg"},{"bike_id":"2779b390-a89b-4a17-ae5a-e84d0709f307","system_id":"levelo_inurba_marseille","lat":43.26211,"lon":5.37444,"is_reserved":false,"is_disabled":false,"rental_uris":{"android":"levelo://app?vid=2779b390-a89b-4a17-ae5a-e84d0709f307","ios":"levelo://app?vid=2779b390-a89b-4a17-ae5a-e84d0709f307"},"vehicle_type_id":"4","last_reported":1737716864,"current_range_meters":33200,"station_id":"ce4bhgp2rcd13ifvqfc0","pricing_plan_id":"cebpf4jnsgd1na2vs0mg"},{"bike_id":"af4be260-4b87-4626-95cf-318d1bcde55e","system_id":"levelo_inurba_marseille","lat":43.28852,"lon":5.3932,"is_reserved":false,"is_disabled":false,"rental_uris":{"android":"levelo://app?vid=af4be260-4b87-4626-95cf-318d1bcde55e","ios":"levelo://app?vid=af4be260-4b87-4626-95cf-318d1bcde55e"},"vehicle_type_id":"4","last_reported":1737716864,"current_range_meters":36800,"station_id":"ce4bh2p2rcd13ifvqdi0","pricing_plan_id":"cebpf4jnsgd1na2vs0mg"},{"bike_id":"7ae57d4a-987c-4a94-bf67-7089b41c8d83","system_id":"levelo_inurba_marseille","lat":43.27632,"lon":5.36081,"is_reserved":false,"is_disabled":false,"rental_uris":{"android":"levelo://app?vid=7ae57d4a-987c-4a94-bf67-7089b41c8d83","ios":"levelo://app?vid=7ae57d4a-987c-4a94-bf67-7089b41c8d83"},"vehicle_type_id":"4","last_reported":1737716864,"current_range_meters":38000,"station_id":"ce4bgj92rcd13ifvqbe0","pricing_plan_id":"cebpf4jnsgd1na2vs0mg"},{"bike_id":"14460ec0-8ab7-4599-bc0f-7184ba5cd83d","system_id":"levelo_inurba_marseille","lat":43.30453,"lon":5.3791,"is_reserved":false,"is_disabled":false,"rental_uris":{"android":"levelo://app?vid=14460ec0-8ab7-4599-bc0f-7184ba5cd83d","ios":"levelo://app?vid=14460ec0-8ab7-4599-bc0f-7184ba5cd83d"},"vehicle_type_id":"4","last_reported":1737716864,"current_range_meters":20400,"station_id":"ce4bgup2rcd13ifvqcn0","pricing_plan_id":"cebpf4jnsgd1na2vs0mg"},{"bike_id":"35614ed7-a0df-4792-bca2-a1978fcd9fab","system_id":"levelo_inurba_marseille","lat":43.30803,"lon":5.43536,"is_reserved":false,"is_disabled":false,"rental_uris":{"android":"levelo://app?vid=35614ed7-a0df-4792-bca2-a1978fcd9fab","ios":"levelo://app?vid=35614ed7-a0df-4792-bca2-a1978fcd9fab"},"vehicle_type_id":"4","last_reported":1737716864,"current_range_meters":38400,"station_id":"ce4bhph2rcd13ifvqheg","pricing_plan_id":"cebpf4jnsgd1na2vs0mg"},{"bike_id":"c2b1d898-8d95-4b49-b324-a24f4f18a4a0","system_id":"levelo_inurba_marseille","lat":43.32534,"lon":5.41495,"is_reserved":false,"is_disabled":false,"rental_uris":{"android":"levelo://app?vid=c2b1d898-8d95-4b49-b324-a24f4f18a4a0","ios":"levelo://app?vid=c2b1d898-8d95-4b49-b324-a24f4f18a4a0"},"vehicle_type_id":"4","last_reported":1737716864,"current_range_meters":36400,"station_id":"ce4bhq12rcd13ifvqhhg","pricing_plan_id":"cebpf4jnsgd1na2vs0mg"},{"bike_id":"28c8c0d8-4bb2-40c7-97a3-48d0cd1d316d","system_id":"levelo_inurba_marseille","lat":43.26689,"lon":5.3825,"is_reserved":false,"is_disabled":false,"rental_uris":{"android":"levelo://app?vid=28c8c0d8-4bb2-40c7-97a3-48d0cd1d316d","ios":"levelo://app?vid=28c8c0d8-4bb2-40c7-97a3-48d0cd1d316d"},"vehicle_type_id":"4","last_reported":1737716864,"current_range_meters":38800,"station_id":"ce4bhg92rcd13ifvqf90","pricing_plan_id":"cebpf4jnsgd1na2vs0mg"},{"bike_id":"8661b5e3-5c50-41b5-9990-f6cea7332865","system_id":"levelo_inurba_marseille","lat":43.29184,"lon":5.35812,"is_reserved":false,"is_disabled":false,"rental_uris":{"android":"levelo://app?vid=8661b5e3-5c50-41b5-9990-f6cea7332865","ios":"levelo://app?vid=8661b5e3-5c50-41b5-9990-f6cea7332865"},"vehicle_type_id":"4","last_reported":1737716864,"current_range_meters":37600,"station_id":"ce4bhb12rcd13ifvqel0","pricing_plan_id":"cebpf4jnsgd1na2vs0mg"},{"bike_id":"311bbf9a-6c7d-4f3c-805e-005cc77c447e","system_id":"levelo_inurba_marseille","lat":43.26943,"lon":5.4026,"is_reserved":false,"is_disabled":false,"rental_uris":{"android":"levelo://app?vid=311bbf9a-6c7d-4f3c-805e-005cc77c447e","ios":"levelo://app?vid=311bbf9a-6c7d-4f3c-805e-005cc77c447e"},"vehicle_type_id":"4","last_reported":1737716864,"current_range_meters":28400,"station_id":"cjm6bp8fraef2m0cb0m0","pricing_plan_id":"cebpf4jnsgd1na2vs0mg"},{"bike_id":"8189d985-ab91-4ff1-bb9d-2f862a50adc2","system_id":"levelo_inurba_marseille","lat":43.31691,"lon":5.40488,"is_reserved":false,"is_disabled":false,"rental_uris":{"android":"levelo://app?vid=8189d985-ab91-4ff1-bb9d-2f862a50adc2","ios":"levelo://app?vid=8189d985-ab91-4ff1-bb9d-2f862a50adc2"},"vehicle_type_id":"4","last_reported":1737716864,"current_range_meters":28000,"station_id":"ce4bh012rcd13ifvqd00","pricing_plan_id":"cebpf4jnsgd1na2vs0mg"},{"bike_id":"b270c411-1c6b-4674-90ea-3251933b39b8","system_id":"levelo_inurba_marseille","lat":43.30052,"lon":5.39098,"is_reserved":false,"is_disabled":false,"rental_uris":{"android":"levelo://app?vid=b270c411-1c6b-4674-90ea-3251933b39b8","ios":"levelo://app?vid=b270c411-1c6b-4674-90ea-3251933b39b8"},"vehicle_type_id":"4","last_reported":1737716864,"current_range_meters":32000,"station_id":"ce4bh192rcd13ifvqdb0","pricing_plan_id":"cebpf4jnsgd1na2vs0mg"},{"bike_id":"f23f0288-a55c-4862-a419-072a2b3fb42e","system_id":"levelo_inurba_marseille","lat":43.30951,"lon":5.39071,"is_reserved":false,"is_disabled":false,"rental_uris":{"android":"levelo://app?vid=f23f0288-a55c-4862-a419-072a2b3fb42e","ios":"levelo://app?vid=f23f0288-a55c-4862-a419-072a2b3fb42e"},"vehicle_type_id":"4","last_reported":1737716864,"current_range_meters":38800,"station_id":"ce4bgup2rcd13ifvqco0","pricing_plan_id":"cebpf4jnsgd1na2vs0mg"},{"bike_id":"7ab466f5-8f7c-4d09-b926-131a68eb0593","system_id":"levelo_inurba_marseille","lat":43.25083,"lon":5.39526,"is_reserved":false,"is_disabled":false,"rental_uris":{"android":"levelo://app?vid=7ab466f5-8f7c-4d09-b926-131a68eb0593","ios":"levelo://app?vid=7ab466f5-8f7c-4d09-b926-131a68eb0593"},"vehicle_type_id":"4","last_reported":1737716864,"current_range_meters":19600,"station_id":"ce4bhm12rcd13ifvqgkg","pricing_plan_id":"cebpf4jnsgd1na2vs0mg"},{"bike_id":"c54405f6-19ca-4898-9c27-b06f2510a17d","system_id":"levelo_inurba_marseille","lat":43.29225,"lon":5.36073,"is_reserved":false,"is_disabled":false,"rental_uris":{"android":"levelo://app?vid=c54405f6-19ca-4898-9c27-b06f2510a17d","ios":"levelo://app?vid=c54405f6-19ca-4898-9c27-b06f2510a17d"},"vehicle_type_id":"4","last_reported":1737716864,"current_range_meters":35200,"station_id":"ce4bhbh2rcd13ifvqeqg","pricing_plan_id":"cebpf4jnsgd1na2vs0mg"},{"bike_id":"96b757d9-bc3b-420b-be19-28e6baef3842","system_id":"levelo_inurba_marseille","lat":43.29577,"lon":5.36763,"is_reserved":false,"is_disabled":false,"rental_uris":{"android":"levelo://app?vid=96b757d9-bc3b-420b-be19-28e6baef3842","ios":"levelo://app?vid=96b757d9-bc3b-420b-be19-28e6baef3842"},"vehicle_type_id":"4","last_reported":1737716864,"current_range_meters":37600,"station_id":"ce4bgph2rcd13ifvqc2g","pricing_plan_id":"cebpf4jnsgd1na2vs0mg"},{"bike_id":"90562b19-8802-4e76-a682-f90dad6ec469","system_id":"levelo_inurba_marseille","lat":43.29523,"lon":5.38561,"is_reserved":false,"is_disabled":true,"rental_uris":{"android":"levelo://app?vid=90562b19-8802-4e76-a682-f90dad6ec469","ios":"levelo://app?vid=90562b19-8802-4e76-a682-f90dad6ec469"},"vehicle_type_id":"4","last_reported":1737716864,"current_range_meters":0,"station_id":"ce4bgih2rcd13ifvqba0","pricing_plan_id":"cebpf4jnsgd1na2vs0mg"},{"bike_id":"9863b7f9-4316-4322-9f6c-3cc66b0448e2","system_id":"levelo_inurba_marseille","lat":43.279439,"lon":5.389008,"is_reserved":false,"is_disabled":true,"rental_uris":{"android":"levelo://app?vid=9863b7f9-4316-4322-9f6c-3cc66b0448e2","ios":"levelo://app?vid=9863b7f9-4316-4322-9f6c-3cc66b0448e2"},"vehicle_type_id":"4","last_reported":1737716864,"current_range_meters":20400,"station_id":"","pricing_plan_id":"cebpf4jnsgd1na2vs0mg"},{"bike_id":"c6576668-b093-48f9-b2d3-a07383db0405","system_id":"levelo_inurba_marseille","lat":43.30598,"lon":5.37216,"is_reserved":false,"is_disabled":false,"rental_uris":{"android":"levelo://app?vid=c6576668-b093-48f9-b2d3-a07383db0405","ios":"levelo://app?vid=c6576668-b093-48f9-b2d3-a07383db0405"},"vehicle_type_id":"4","last_reported":1737716864,"current_range_meters":8800,"station_id":"ce4bgqh2rcd13ifvqc4g","pricing_plan_id":"cebpf4jnsgd1na2vs0mg"},{"bike_id":"52c76b33-891b-4417-9674-1dca51bf36cf","system_id":"levelo_inurba_marseille","lat":43.29852,"lon":5.36295,"is_reserved":false,"is_disabled":false,"rental_uris":{"android":"levelo://app?vid=52c76b33-891b-4417-9674-1dca51bf36cf","ios":"levelo://app?vid=52c76b33-891b-4417-9674-1dca51bf36cf"},"vehicle_type_id":"4","last_reported":1737716864,"current_range_meters":33600,"station_id":"ce4bgpp2rcd13ifvqc3g","pricing_plan_id":"cebpf4jnsgd1na2vs0mg"},{"bike_id":"439eff78-ea0e-40da-9eea-8f7a7a309896","system_id":"levelo_inurba_marseille","lat":43.32338,"lon":5.40623,"is_reserved":false,"is_disabled":false,"rental_uris":{"android":"levelo://app?vid=439eff78-ea0e-40da-9eea-8f7a7a309896","ios":"levelo://app?vid=439eff78-ea0e-40da-9eea-8f7a7a309896"},"vehicle_type_id":"4","last_reported":1737716864,"current_range_meters":34000,"station_id":"ce4bhq92rcd13ifvqhjg","pricing_plan_id":"cebpf4jnsgd1na2vs0mg"},{"bike_id":"ab927040-bfc3-4782-b1b3-ffbf9d71bc34","system_id":"levelo_inurba_marseille","lat":43.26678,"lon":5.3829,"is_reserved":false,"is_disabled":false,"rental_uris":{"android":"levelo://app?vid=ab927040-bfc3-4782-b1b3-ffbf9d71bc34","ios":"levelo://app?vid=ab927040-bfc3-4782-b1b3-ffbf9d71bc34"},"vehicle_type_id":"4","last_reported":1737716864,"current_range_meters":39200,"station_id":"ce4bhg92rcd13ifvqf90","pricing_plan_id":"cebpf4jnsgd1na2vs0mg"},{"bike_id":"9e2d13b9-d1b0-4762-93f4-a7dd29fa0c55","system_id":"levelo_inurba_marseille","lat":43.2921,"lon":5.36095,"is_reserved":false,"is_disabled":false,"rental_uris":{"android":"levelo://app?vid=9e2d13b9-d1b0-4762-93f4-a7dd29fa0c55","ios":"levelo://app?vid=9e2d13b9-d1b0-4762-93f4-a7dd29fa0c55"},"vehicle_type_id":"4","last_reported":1737716864,"current_range_meters":24000,"station_id":"ce4bhbh2rcd13ifvqeqg","pricing_plan_id":"cebpf4jnsgd1na2vs0mg"},{"bike_id":"b9e800e7-6bc8-49a5-8a06-3cda05ad5aff","system_id":"levelo_inurba_marseille","lat":43.27919,"lon":5.39577,"is_reserved":false,"is_disabled":true,"rental_uris":{"android":"levelo://app?vid=b9e800e7-6bc8-49a5-8a06-3cda05ad5aff","ios":"levelo://app?vid=b9e800e7-6bc8-49a5-8a06-3cda05ad5aff"},"vehicle_type_id":"4","last_reported":1737716864,"current_range_meters":800,"station_id":"ce4bhf92rcd13ifvqf40","pricing_plan_id":"cebpf4jnsgd1na2vs0mg"},{"bike_id":"eb82a4fa-b45d-4357-8410-47675bcbc568","system_id":"levelo_inurba_marseille","lat":43.29583,"lon":5.36735,"is_reserved":false,"is_disabled":false,"rental_uris":{"android":"levelo://app?vid=eb82a4fa-b45d-4357-8410-47675bcbc568","ios":"levelo://app?vid=eb82a4fa-b45d-4357-8410-47675bcbc568"},"vehicle_type_id":"4","last_reported":1737716864,"current_range_meters":38800,"station_id":"ce4bgph2rcd13ifvqc2g","pricing_plan_id":"cebpf4jnsgd1na2vs0mg"},{"bike_id":"fb96c333-d038-4b1c-9f7d-d3a5abfa6e1c","system_id":"levelo_inurba_marseille","lat":43.32469,"lon":5.3659,"is_reserved":false,"is_disabled":false,"rental_uris":{"android":"levelo://app?vid=fb96c333-d038-4b1c-9f7d-d3a5abfa6e1c","ios":"levelo://app?vid=fb96c333-d038-4b1c-9f7d-d3a5abfa6e1c"},"vehicle_type_id":"4","last_reported":1737716864,"current_range_meters":22000,"station_id":"ce4bhs12rcd13ifvqhvg","pricing_plan_id":"cebpf4jnsgd1na2vs0mg"},{"bike_id":"c400706d-11d8-4109-af7f-04e1a2259d9b","system_id":"levelo_inurba_marseille","lat":43.2989,"lon":5.43658,"is_reserved":false,"is_disabled":false,"rental_uris":{"android":"levelo://app?vid=c400706d-11d8-4109-af7f-04e1a2259d9b","ios":"levelo://app?vid=c400706d-11d8-4109-af7f-04e1a2259d9b"},"vehicle_type_id":"4","last_reported":1737716864,"current_range_meters":6400,"station_id":"ce4bhpp2rcd13ifvqhfg","pricing_plan_id":"cebpf4jnsgd1na2vs0mg"},{"bike_id":"8542304e-3d2f-457a-940c-10f69bbb7cf1","system_id":"levelo_inurba_marseille","lat":43.27681,"lon":5.38897,"is_reserved":false,"is_disabled":false,"rental_uris":{"android":"levelo://app?vid=8542304e-3d2f-457a-940c-10f69bbb7cf1","ios":"levelo://app?vid=8542304e-3d2f-457a-940c-10f69bbb7cf1"},"vehicle_type_id":"4","last_reported":1737716864,"current_range_meters":38800,"station_id":"ce4bhi12rcd13ifvqfo0","pricing_plan_id":"cebpf4jnsgd1na2vs0mg"},{"bike_id":"e5109a90-279c-4aeb-8d41-ff529bfa1123","system_id":"levelo_inurba_marseille","lat":43.2968,"lon":5.37302,"is_reserved":false,"is_disabled":false,"rental_uris":{"android":"levelo://app?vid=e5109a90-279c-4aeb-8d41-ff529bfa1123","ios":"levelo://app?vid=e5109a90-279c-4aeb-8d41-ff529bfa1123"},"vehicle_type_id":"4","last_reported":1737716864,"current_range_meters":26800,"station_id":"ce4bgk12rcd13ifvqbj0","pricing_plan_id":"cebpf4jnsgd1na2vs0mg"},{"bike_id":"e65017eb-8f52-4183-a9ec-6e2784f34809","system_id":"levelo_inurba_marseille","lat":43.30491,"lon":5.37908,"is_reserved":false,"is_disabled":true,"rental_uris":{"android":"levelo://app?vid=e65017eb-8f52-4183-a9ec-6e2784f34809","ios":"levelo://app?vid=e65017eb-8f52-4183-a9ec-6e2784f34809"},"vehicle_type_id":"4","last_reported":1737716864,"current_range_meters":400,"station_id":"ce4bgup2rcd13ifvqcn0","pricing_plan_id":"cebpf4jnsgd1na2vs0mg"},{"bike_id":"49242a4d-0fe8-4f4f-ab09-87228535689c","system_id":"levelo_inurba_marseille","lat":43.28156,"lon":5.42645,"is_reserved":false,"is_disabled":false,"rental_uris":{"android":"levelo://app?vid=49242a4d-0fe8-4f4f-ab09-87228535689c","ios":"levelo://app?vid=49242a4d-0fe8-4f4f-ab09-87228535689c"},"vehicle_type_id":"4","last_reported":1737716864,"current_range_meters":12400,"station_id":"ce4bhnh2rcd13ifvqgug","pricing_plan_id":"cebpf4jnsgd1na2vs0mg"},{"bike_id":"c3ccfefb-c1f2-459b-aeea-f7492233dca7","system_id":"levelo_inurba_marseille","lat":43.25931,"lon":5.40915,"is_reserved":false,"is_disabled":false,"rental_uris":{"android":"levelo://app?vid=c3ccfefb-c1f2-459b-aeea-f7492233dca7","ios":"levelo://app?vid=c3ccfefb-c1f2-459b-aeea-f7492233dca7"},"vehicle_type_id":"4","last_reported":1737716864,"current_range_meters":36800,"station_id":"ce4bhm92rcd13ifvqglg","pricing_plan_id":"cebpf4jnsgd1na2vs0mg"},{"bike_id":"7c78a755-c7f5-4f07-a96b-621451d47948","system_id":"levelo_inurba_marseille","lat":43.29901,"lon":5.43656,"is_reserved":false,"is_disabled":false,"rental_uris":{"android":"levelo://app?vid=7c78a755-c7f5-4f07-a96b-621451d47948","ios":"levelo://app?vid=7c78a755-c7f5-4f07-a96b-621451d47948"},"vehicle_type_id":"4","last_reported":1737716864,"current_range_meters":8000,"station_id":"ce4bhpp2rcd13ifvqhfg","pricing_plan_id":"cebpf4jnsgd1na2vs0mg"},{"bike_id":"62d1ba0d-b6b0-4ba9-ae78-a36d2971167d","system_id":"levelo_inurba_marseille","lat":43.26559,"lon":5.39016,"is_reserved":false,"is_disabled":false,"rental_uris":{"android":"levelo://app?vid=62d1ba0d-b6b0-4ba9-ae78-a36d2971167d","ios":"levelo://app?vid=62d1ba0d-b6b0-4ba9-ae78-a36d2971167d"},"vehicle_type_id":"4","last_reported":1737716864,"current_range_meters":12400,"station_id":"ce4bhe12rcd13ifvqf30","pricing_plan_id":"cebpf4jnsgd1na2vs0mg"},{"bike_id":"dd37f6b9-6262-45fa-8f49-512ebe1f5cb4","system_id":"levelo_inurba_marseille","lat":43.31359,"lon":5.38495,"is_reserved":false,"is_disabled":false,"rental_uris":{"android":"levelo://app?vid=dd37f6b9-6262-45fa-8f49-512ebe1f5cb4","ios":"levelo://app?vid=dd37f6b9-6262-45fa-8f49-512ebe1f5cb4"},"vehicle_type_id":"4","last_reported":1737716864,"current_range_meters":38800,"station_id":"ce4bgt92rcd13ifvqcf0","pricing_plan_id":"cebpf4jnsgd1na2vs0mg"},{"bike_id":"52725d5b-d78a-462a-86ac-0203434cbb0a","system_id":"levelo_inurba_marseille","lat":43.30249,"lon":5.40067,"is_reserved":false,"is_disabled":false,"rental_uris":{"android":"levelo://app?vid=52725d5b-d78a-462a-86ac-0203434cbb0a","ios":"levelo://app?vid=52725d5b-d78a-462a-86ac-0203434cbb0a"},"vehicle_type_id":"4","last_reported":1737716864,"current_range_meters":22800,"station_id":"ce4bgvh2rcd13ifvqcs0","pricing_plan_id":"cebpf4jnsgd1na2vs0mg"},{"bike_id":"43d90015-f0e6-4feb-bd4a-baa3bb4469a5","system_id":"levelo_inurba_marseille","lat":43.27835,"lon":5.39203,"is_reserved":false,"is_disabled":false,"rental_uris":{"android":"levelo://app?vid=43d90015-f0e6-4feb-bd4a-baa3bb4469a5","ios":"levelo://app?vid=43d90015-f0e6-4feb-bd4a-baa3bb4469a5"},"vehicle_type_id":"4","last_reported":1737716864,"current_range_meters":38000,"station_id":"ce4bhjp2rcd13ifvqga0","pricing_plan_id":"cebpf4jnsgd1na2vs0mg"},{"bike_id":"2847abcf-adf0-4895-b9b1-e268bc7774ce","system_id":"levelo_inurba_marseille","lat":43.27805,"lon":5.40715,"is_reserved":false,"is_disabled":false,"rental_uris":{"android":"levelo://app?vid=2847abcf-adf0-4895-b9b1-e268bc7774ce","ios":"levelo://app?vid=2847abcf-adf0-4895-b9b1-e268bc7774ce"},"vehicle_type_id":"4","last_reported":1737716864,"current_range_meters":38400,"station_id":"ce4bhnh2rcd13ifvqgtg","pricing_plan_id":"cebpf4jnsgd1na2vs0mg"},{"bike_id":"e50ea5c4-58a3-41b4-9282-3fae3034ca0c","system_id":"levelo_inurba_marseille","lat":43.28846,"lon":5.39323,"is_reserved":false,"is_disabled":false,"rental_uris":{"android":"levelo://app?vid=e50ea5c4-58a3-41b4-9282-3fae3034ca0c","ios":"levelo://app?vid=e50ea5c4-58a3-41b4-9282-3fae3034ca0c"},"vehicle_type_id":"4","last_reported":1737716864,"current_range_meters":38000,"station_id":"ce4bh2p2rcd13ifvqdi0","pricing_plan_id":"cebpf4jnsgd1na2vs0mg"},{"bike_id":"34df888f-0a1f-42ba-94a2-79f01c8f366c","system_id":"levelo_inurba_marseille","lat":43.31694,"lon":5.40475,"is_reserved":false,"is_disabled":false,"rental_uris":{"android":"levelo://app?vid=34df888f-0a1f-42ba-94a2-79f01c8f366c","ios":"levelo://app?vid=34df888f-0a1f-42ba-94a2-79f01c8f366c"},"vehicle_type_id":"4","last_reported":1737716864,"current_range_meters":12800,"station_id":"ce4bh012rcd13ifvqd00","pricing_plan_id":"cebpf4jnsgd1na2vs0mg"},{"bike_id":"35950abb-ca6c-4fc7-b68a-e99af7d7f124","system_id":"levelo_inurba_marseille","lat":43.30148,"lon":5.38087,"is_reserved":false,"is_disabled":false,"rental_uris":{"android":"levelo://app?vid=35950abb-ca6c-4fc7-b68a-e99af7d7f124","ios":"levelo://app?vid=35950abb-ca6c-4fc7-b68a-e99af7d7f124"},"vehicle_type_id":"4","last_reported":1737716864,"current_range_meters":23200,"station_id":"ce4bgjp2rcd13ifvqbh0","pricing_plan_id":"cebpf4jnsgd1na2vs0mg"},{"bike_id":"82fcb618-7e9a-4e2a-87fb-19bfc2ee8ca8","system_id":"levelo_inurba_marseille","lat":43.28561,"lon":5.39496,"is_reserved":false,"is_disabled":false,"rental_uris":{"android":"levelo://app?vid=82fcb618-7e9a-4e2a-87fb-19bfc2ee8ca8","ios":"levelo://app?vid=82fcb618-7e9a-4e2a-87fb-19bfc2ee8ca8"},"vehicle_type_id":"4","last_reported":1737716864,"current_range_meters":38800,"station_id":"ce4bh292rcd13ifvqdg0","pricing_plan_id":"cebpf4jnsgd1na2vs0mg"},{"bike_id":"1470ca42-04cc-4b23-81ca-1d82c6cc777e","system_id":"levelo_inurba_marseille","lat":43.26944,"lon":5.3864,"is_reserved":false,"is_disabled":false,"rental_uris":{"android":"levelo://app?vid=1470ca42-04cc-4b23-81ca-1d82c6cc777e","ios":"levelo://app?vid=1470ca42-04cc-4b23-81ca-1d82c6cc777e"},"vehicle_type_id":"4","last_reported":1737716864,"current_range_meters":38800,"station_id":"ce4bhh92rcd13ifvqfh0","pricing_plan_id":"cebpf4jnsgd1na2vs0mg"},{"bike_id":"03cc99db-08b3-40ad-a807-e42557d8f541","system_id":"levelo_inurba_marseille","lat":43.28855,"lon":5.39312,"is_reserved":false,"is_disabled":false,"rental_uris":{"android":"levelo://app?vid=03cc99db-08b3-40ad-a807-e42557d8f541","ios":"levelo://app?vid=03cc99db-08b3-40ad-a807-e42557d8f541"},"vehicle_type_id":"4","last_reported":1737716864,"current_range_meters":28400,"station_id":"ce4bh2p2rcd13ifvqdi0","pricing_plan_id":"cebpf4jnsgd1na2vs0mg"},{"bike_id":"0e6d53b6-e979-4bee-ac6f-75f7197e9de3","system_id":"levelo_inurba_marseille","lat":43.28617,"lon":5.35102,"is_reserved":false,"is_disabled":false,"rental_uris":{"android":"levelo://app?vid=0e6d53b6-e979-4bee-ac6f-75f7197e9de3","ios":"levelo://app?vid=0e6d53b6-e979-4bee-ac6f-75f7197e9de3"},"vehicle_type_id":"4","last_reported":1737716864,"current_range_meters":27600,"station_id":"ce4bhch2rcd13ifvqeug","pricing_plan_id":"cebpf4jnsgd1na2vs0mg"},{"bike_id":"43ff2777-f47b-4773-9c12-c370aa058105","system_id":"levelo_inurba_marseille","lat":43.25003,"lon":5.3894,"is_reserved":false,"is_disabled":false,"rental_uris":{"android":"levelo://app?vid=43ff2777-f47b-4773-9c12-c370aa058105","ios":"levelo://app?vid=43ff2777-f47b-4773-9c12-c370aa058105"},"vehicle_type_id":"4","last_reported":1737716864,"current_range_meters":38800,"station_id":"ce4bhgp2rcd13ifvqfd0","pricing_plan_id":"cebpf4jnsgd1na2vs0mg"},{"bike_id":"690de51c-c5a3-4f54-bfd3-61e961c6956e","system_id":"levelo_inurba_marseille","lat":43.29282,"lon":5.37445,"is_reserved":false,"is_disabled":false,"rental_uris":{"android":"levelo://app?vid=690de51c-c5a3-4f54-bfd3-61e961c6956e","ios":"levelo://app?vid=690de51c-c5a3-4f54-bfd3-61e961c6956e"},"vehicle_type_id":"4","last_reported":1737716864,"current_range_meters":34000,"station_id":"ce4bgi12rcd13ifvqb70","pricing_plan_id":"cebpf4jnsgd1na2vs0mg"},{"bike_id":"d227e879-6f0b-45af-9e4a-c8e8361f18a7","system_id":"levelo_inurba_marseille","lat":43.23153,"lon":5.43712,"is_reserved":false,"is_disabled":false,"rental_uris":{"android":"levelo://app?vid=d227e879-6f0b-45af-9e4a-c8e8361f18a7","ios":"levelo://app?vid=d227e879-6f0b-45af-9e4a-c8e8361f18a7"},"vehicle_type_id":"4","last_reported":1737716864,"current_range_meters":9600,"station_id":"ce4bhmp2rcd13ifvqgog","pricing_plan_id":"cebpf4jnsgd1na2vs0mg"},{"bike_id":"bd28a8d1-43a3-411b-8e89-e91fc33f5dc5","system_id":"levelo_inurba_marseille","lat":43.24987,"lon":5.38937,"is_reserved":false,"is_disabled":false,"rental_uris":{"android":"levelo://app?vid=bd28a8d1-43a3-411b-8e89-e91fc33f5dc5","ios":"levelo://app?vid=bd28a8d1-43a3-411b-8e89-e91fc33f5dc5"},"vehicle_type_id":"4","last_reported":1737716864,"current_range_meters":38800,"station_id":"ce4bhgp2rcd13ifvqfd0","pricing_plan_id":"cebpf4jnsgd1na2vs0mg"},{"bike_id":"4065662d-885f-4acf-ae71-f2cd999fc11e","system_id":"levelo_inurba_marseille","lat":43.29278,"lon":5.37455,"is_reserved":false,"is_disabled":false,"rental_uris":{"android":"levelo://app?vid=4065662d-885f-4acf-ae71-f2cd999fc11e","ios":"levelo://app?vid=4065662d-885f-4acf-ae71-f2cd999fc11e"},"vehicle_type_id":"4","last_reported":1737716864,"current_range_meters":39200,"station_id":"ce4bgi12rcd13ifvqb70","pricing_plan_id":"cebpf4jnsgd1na2vs0mg"},{"bike_id":"b4ccb44a-0229-4af3-ad55-d0a68583b684","system_id":"levelo_inurba_marseille","lat":43.29001,"lon":5.35607,"is_reserved":false,"is_disabled":false,"rental_uris":{"android":"levelo://app?vid=b4ccb44a-0229-4af3-ad55-d0a68583b684","ios":"levelo://app?vid=b4ccb44a-0229-4af3-ad55-d0a68583b684"},"vehicle_type_id":"4","last_reported":1737716864,"current_range_meters":6400,"station_id":"ce4bhb92rcd13ifvqen0","pricing_plan_id":"cebpf4jnsgd1na2vs0mg"},{"bike_id":"fa6415c6-150b-448b-9709-3aca739af766","system_id":"levelo_inurba_marseille","lat":43.30496,"lon":5.3786,"is_reserved":false,"is_disabled":false,"rental_uris":{"android":"levelo://app?vid=fa6415c6-150b-448b-9709-3aca739af766","ios":"levelo://app?vid=fa6415c6-150b-448b-9709-3aca739af766"},"vehicle_type_id":"4","last_reported":1737716864,"current_range_meters":34800,"station_id":"","pricing_plan_id":"cebpf4jnsgd1na2vs0mg"},{"bike_id":"de6fd782-7134-4e64-b9c3-cc2cfbe12552","system_id":"levelo_inurba_marseille","lat":43.31115,"lon":5.38837,"is_reserved":false,"is_disabled":false,"rental_uris":{"android":"levelo://app?vid=de6fd782-7134-4e64-b9c3-cc2cfbe12552","ios":"levelo://app?vid=de6fd782-7134-4e64-b9c3-cc2cfbe12552"},"vehicle_type_id":"4","last_reported":1737716864,"current_range_meters":32800,"station_id":"","pricing_plan_id":"cebpf4jnsgd1na2vs0mg"},{"bike_id":"13ff516e-16cf-4543-8540-9030b8b296b4","system_id":"levelo_inurba_marseille","lat":43.23191,"lon":5.35574,"is_reserved":false,"is_disabled":false,"rental_uris":{"android":"levelo://app?vid=13ff516e-16cf-4543-8540-9030b8b296b4","ios":"levelo://app?vid=13ff516e-16cf-4543-8540-9030b8b296b4"},"vehicle_type_id":"4","last_reported":1737716864,"current_range_meters":25600,"station_id":"ce4bhu92rcd13ifvqi70","pricing_plan_id":"cebpf4jnsgd1na2vs0mg"},{"bike_id":"38f1bf28-96e2-4929-83f0-f14ae15b6051","system_id":"levelo_inurba_marseille","lat":43.31036,"lon":5.42452,"is_reserved":false,"is_disabled":false,"rental_uris":{"android":"levelo://app?vid=38f1bf28-96e2-4929-83f0-f14ae15b6051","ios":"levelo://app?vid=38f1bf28-96e2-4929-83f0-f14ae15b6051"},"vehicle_type_id":"4","last_reported":1737716864,"current_range_meters":4800,"station_id":"ce4bhp92rcd13ifvqhag","pricing_plan_id":"cebpf4jnsgd1na2vs0mg"},{"bike_id":"492c07dc-b7d3-4558-a649-9d7e1f899b97","system_id":"levelo_inurba_marseille","lat":43.24084,"lon":5.37748,"is_reserved":false,"is_disabled":false,"rental_uris":{"android":"levelo://app?vid=492c07dc-b7d3-4558-a649-9d7e1f899b97","ios":"levelo://app?vid=492c07dc-b7d3-4558-a649-9d7e1f899b97"},"vehicle_type_id":"4","last_reported":1737716864,"current_range_meters":28000,"station_id":"ce4bhnp2rcd13ifvqgvg","pricing_plan_id":"cebpf4jnsgd1na2vs0mg"},{"bike_id":"8a151ccc-edf6-40ab-a6a3-42b4ac96f698","system_id":"levelo_inurba_marseille","lat":43.28275,"lon":5.35087,"is_reserved":false,"is_disabled":true,"rental_uris":{"android":"levelo://app?vid=8a151ccc-edf6-40ab-a6a3-42b4ac96f698","ios":"levelo://app?vid=8a151ccc-edf6-40ab-a6a3-42b4ac96f698"},"vehicle_type_id":"4","last_reported":1737716864,"current_range_meters":24400,"station_id":"ce4bhbp2rcd13ifvqerg","pricing_plan_id":"cebpf4jnsgd1na2vs0mg"},{"bike_id":"7f0b73c5-af9a-4c10-9ae6-a4a4e527bef1","system_id":"levelo_inurba_marseille","lat":43.25571,"lon":5.38247,"is_reserved":false,"is_disabled":false,"rental_uris":{"android":"levelo://app?vid=7f0b73c5-af9a-4c10-9ae6-a4a4e527bef1","ios":"levelo://app?vid=7f0b73c5-af9a-4c10-9ae6-a4a4e527bef1"},"vehicle_type_id":"4","last_reported":1737716864,"current_range_meters":26800,"station_id":"ce4bhih2rcd13ifvqfs0","pricing_plan_id":"cebpf4jnsgd1na2vs0mg"},{"bike_id":"d793b4cd-3d60-4b4b-8463-8a0e0497ff20","system_id":"levelo_inurba_marseille","lat":43.31076,"lon":5.42457,"is_reserved":false,"is_disabled":false,"rental_uris":{"android":"levelo://app?vid=d793b4cd-3d60-4b4b-8463-8a0e0497ff20","ios":"levelo://app?vid=d793b4cd-3d60-4b4b-8463-8a0e0497ff20"},"vehicle_type_id":"4","last_reported":1737716864,"current_range_meters":12000,"station_id":"ce4bhp92rcd13ifvqhag","pricing_plan_id":"cebpf4jnsgd1na2vs0mg"},{"bike_id":"c07ffe20-21f2-4b01-b153-b7e93fc6ba8d","system_id":"levelo_inurba_marseille","lat":43.31724,"lon":5.42403,"is_reserved":false,"is_disabled":true,"rental_uris":{"android":"levelo://app?vid=c07ffe20-21f2-4b01-b153-b7e93fc6ba8d","ios":"levelo://app?vid=c07ffe20-21f2-4b01-b153-b7e93fc6ba8d"},"vehicle_type_id":"4","last_reported":1737716864,"current_range_meters":1600,"station_id":"ce4bhp92rcd13ifvqhbg","pricing_plan_id":"cebpf4jnsgd1na2vs0mg"},{"bike_id":"5178f3b8-4850-44ff-ae1d-dcc1bc414688","system_id":"levelo_inurba_marseille","lat":43.30549,"lon":5.36544,"is_reserved":false,"is_disabled":false,"rental_uris":{"android":"levelo://app?vid=5178f3b8-4850-44ff-ae1d-dcc1bc414688","ios":"levelo://app?vid=5178f3b8-4850-44ff-ae1d-dcc1bc414688"},"vehicle_type_id":"4","last_reported":1737716864,"current_range_meters":37600,"station_id":"ce4bgs12rcd13ifvqcag","pricing_plan_id":"cebpf4jnsgd1na2vs0mg"},{"bike_id":"3b5db362-e586-4843-ac19-b18328203e89","system_id":"levelo_inurba_marseille","lat":43.30309,"lon":5.3689,"is_reserved":false,"is_disabled":false,"rental_uris":{"android":"levelo://app?vid=3b5db362-e586-4843-ac19-b18328203e89","ios":"levelo://app?vid=3b5db362-e586-4843-ac19-b18328203e89"},"vehicle_type_id":"4","last_reported":1737716864,"current_range_meters":29600,"station_id":"ce4bgqh2rcd13ifvqc5g","pricing_plan_id":"cebpf4jnsgd1na2vs0mg"},{"bike_id":"13b32e86-31e9-4b58-bf87-cbbd9b9f62d7","system_id":"levelo_inurba_marseille","lat":43.28479,"lon":5.38573,"is_reserved":false,"is_disabled":false,"rental_uris":{"android":"levelo://app?vid=13b32e86-31e9-4b58-bf87-cbbd9b9f62d7","ios":"levelo://app?vid=13b32e86-31e9-4b58-bf87-cbbd9b9f62d7"},"vehicle_type_id":"4","last_reported":1737716864,"current_range_meters":33600,"station_id":"ce4bh8p2rcd13ifvqeb0","pricing_plan_id":"cebpf4jnsgd1na2vs0mg"},{"bike_id":"7395b426-ae3f-4aae-a5ed-080fecf1fa10","system_id":"levelo_inurba_marseille","lat":43.27819,"lon":5.39216,"is_reserved":false,"is_disabled":false,"rental_uris":{"android":"levelo://app?vid=7395b426-ae3f-4aae-a5ed-080fecf1fa10","ios":"levelo://app?vid=7395b426-ae3f-4aae-a5ed-080fecf1fa10"},"vehicle_type_id":"4","last_reported":1737716864,"current_range_meters":22000,"station_id":"ce4bhjp2rcd13ifvqga0","pricing_plan_id":"cebpf4jnsgd1na2vs0mg"},{"bike_id":"d04f7cea-c0f0-4bfc-a0c7-6e2585e0e91a","system_id":"levelo_inurba_marseille","lat":43.27815,"lon":5.40721,"is_reserved":false,"is_disabled":false,"rental_uris":{"android":"levelo://app?vid=d04f7cea-c0f0-4bfc-a0c7-6e2585e0e91a","ios":"levelo://app?vid=d04f7cea-c0f0-4bfc-a0c7-6e2585e0e91a"},"vehicle_type_id":"4","last_reported":1737716864,"current_range_meters":36800,"station_id":"ce4bhnh2rcd13ifvqgtg","pricing_plan_id":"cebpf4jnsgd1na2vs0mg"},{"bike_id":"421d447e-f137-48f8-b50a-3cef6ba73d00","system_id":"levelo_inurba_marseille","lat":43.3236,"lon":5.36754,"is_reserved":false,"is_disabled":false,"rental_uris":{"android":"levelo://app?vid=421d447e-f137-48f8-b50a-3cef6ba73d00","ios":"levelo://app?vid=421d447e-f137-48f8-b50a-3cef6ba73d00"},"vehicle_type_id":"4","last_reported":1737716864,"current_range_meters":9600,"station_id":"ce4bhsh2rcd13ifvqi2g","pricing_plan_id":"cebpf4jnsgd1na2vs0mg"},{"bike_id":"4e03efb6-2921-480f-9991-f7a573272ffa","system_id":"levelo_inurba_marseille","lat":43.30937,"lon":5.39072,"is_reserved":false,"is_disabled":false,"rental_uris":{"android":"levelo://app?vid=4e03efb6-2921-480f-9991-f7a573272ffa","ios":"levelo://app?vid=4e03efb6-2921-480f-9991-f7a573272ffa"},"vehicle_type_id":"4","last_reported":1737716864,"current_range_meters":38000,"station_id":"ce4bgup2rcd13ifvqco0","pricing_plan_id":"cebpf4jnsgd1na2vs0mg"},{"bike_id":"4c8f7b91-aaea-44b8-ac2e-e40b14520531","system_id":"levelo_inurba_marseille","lat":43.24169,"lon":5.39712,"is_reserved":false,"is_disabled":false,"rental_uris":{"android":"levelo://app?vid=4c8f7b91-aaea-44b8-ac2e-e40b14520531","ios":"levelo://app?vid=4c8f7b91-aaea-44b8-ac2e-e40b14520531"},"vehicle_type_id":"4","last_reported":1737716864,"current_range_meters":19200,"station_id":"ce4bhn12rcd13ifvqgpg","pricing_plan_id":"cebpf4jnsgd1na2vs0mg"},{"bike_id":"75495e7c-20bd-4569-84c6-35df34ab244d","system_id":"levelo_inurba_marseille","lat":43.29888,"lon":5.43667,"is_reserved":false,"is_disabled":true,"rental_uris":{"android":"levelo://app?vid=75495e7c-20bd-4569-84c6-35df34ab244d","ios":"levelo://app?vid=75495e7c-20bd-4569-84c6-35df34ab244d"},"vehicle_type_id":"4","last_reported":1737716864,"current_range_meters":0,"station_id":"ce4bhpp2rcd13ifvqhfg","pricing_plan_id":"cebpf4jnsgd1na2vs0mg"},{"bike_id":"1796b40c-e9f9-41b3-b9c3-07b6f944e660","system_id":"levelo_inurba_marseille","lat":43.2993,"lon":5.36542,"is_reserved":false,"is_disabled":false,"rental_uris":{"android":"levelo://app?vid=1796b40c-e9f9-41b3-b9c3-07b6f944e660","ios":"levelo://app?vid=1796b40c-e9f9-41b3-b9c3-07b6f944e660"},"vehicle_type_id":"4","last_reported":1737716864,"current_range_meters":38000,"station_id":"ce4bgm92rcd13ifvqbr0","pricing_plan_id":"cebpf4jnsgd1na2vs0mg"},{"bike_id":"f78fd4fb-8ee7-4083-a40b-c012f8f853b8","system_id":"levelo_inurba_marseille","lat":43.33725,"lon":5.39186,"is_reserved":false,"is_disabled":false,"rental_uris":{"android":"levelo://app?vid=f78fd4fb-8ee7-4083-a40b-c012f8f853b8","ios":"levelo://app?vid=f78fd4fb-8ee7-4083-a40b-c012f8f853b8"},"vehicle_type_id":"4","last_reported":1737716864,"current_range_meters":38000,"station_id":"ce4bhr92rcd13ifvqhsg","pricing_plan_id":"cebpf4jnsgd1na2vs0mg"},{"bike_id":"2693e099-578a-4462-b03c-cb6a658dc0f3","system_id":"levelo_inurba_marseille","lat":43.29897,"lon":5.43673,"is_reserved":false,"is_disabled":false,"rental_uris":{"android":"levelo://app?vid=2693e099-578a-4462-b03c-cb6a658dc0f3","ios":"levelo://app?vid=2693e099-578a-4462-b03c-cb6a658dc0f3"},"vehicle_type_id":"4","last_reported":1737716864,"current_range_meters":38800,"station_id":"ce4bhpp2rcd13ifvqhfg","pricing_plan_id":"cebpf4jnsgd1na2vs0mg"},{"bike_id":"43fab1f2-fc5f-4ad2-a40c-6025ddcdd393","system_id":"levelo_inurba_marseille","lat":43.28925,"lon":5.36408,"is_reserved":false,"is_disabled":false,"rental_uris":{"android":"levelo://app?vid=43fab1f2-fc5f-4ad2-a40c-6025ddcdd393","ios":"levelo://app?vid=43fab1f2-fc5f-4ad2-a40c-6025ddcdd393"},"vehicle_type_id":"4","last_reported":1737716864,"current_range_meters":19200,"station_id":"ce4bhc92rcd13ifvqetg","pricing_plan_id":"cebpf4jnsgd1na2vs0mg"},{"bike_id":"8268d729-2aae-49c2-b294-a058b3384a59","system_id":"levelo_inurba_marseille","lat":43.29912,"lon":5.38136,"is_reserved":false,"is_disabled":false,"rental_uris":{"android":"levelo://app?vid=8268d729-2aae-49c2-b294-a058b3384a59","ios":"levelo://app?vid=8268d729-2aae-49c2-b294-a058b3384a59"},"vehicle_type_id":"4","last_reported":1737716864,"current_range_meters":36400,"station_id":"ce4bgj12rcd13ifvqbc0","pricing_plan_id":"cebpf4jnsgd1na2vs0mg"},{"bike_id":"0683b8fa-bf66-4a85-b23f-305b1ef8e2c5","system_id":"levelo_inurba_marseille","lat":43.2986,"lon":5.43695,"is_reserved":false,"is_disabled":false,"rental_uris":{"android":"levelo://app?vid=0683b8fa-bf66-4a85-b23f-305b1ef8e2c5","ios":"levelo://app?vid=0683b8fa-bf66-4a85-b23f-305b1ef8e2c5"},"vehicle_type_id":"4","last_reported":1737716864,"current_range_meters":2800,"station_id":"ce4bhpp2rcd13ifvqhfg","pricing_plan_id":"cebpf4jnsgd1na2vs0mg"},{"bike_id":"6724d907-def9-40c0-b439-a702b1be2699","system_id":"levelo_inurba_marseille","lat":43.31273,"lon":5.36739,"is_reserved":false,"is_disabled":false,"rental_uris":{"android":"levelo://app?vid=6724d907-def9-40c0-b439-a702b1be2699","ios":"levelo://app?vid=6724d907-def9-40c0-b439-a702b1be2699"},"vehicle_type_id":"4","last_reported":1737716864,"current_range_meters":19600,"station_id":"","pricing_plan_id":"cebpf4jnsgd1na2vs0mg"},{"bike_id":"0037a28a-7528-4e64-bbe2-ba25df2bb033","system_id":"levelo_inurba_marseille","lat":43.29305,"lon":5.37179,"is_reserved":false,"is_disabled":false,"rental_uris":{"android":"levelo://app?vid=0037a28a-7528-4e64-bbe2-ba25df2bb033","ios":"levelo://app?vid=0037a28a-7528-4e64-bbe2-ba25df2bb033"},"vehicle_type_id":"4","last_reported":1737716864,"current_range_meters":9200,"station_id":"ce4bgh92rcd13ifvqb40","pricing_plan_id":"cebpf4jnsgd1na2vs0mg"},{"bike_id":"3388642a-2768-4e0b-91a4-ecf8b2c22cb1","system_id":"levelo_inurba_marseille","lat":43.28563,"lon":5.39497,"is_reserved":false,"is_disabled":false,"rental_uris":{"android":"levelo://app?vid=3388642a-2768-4e0b-91a4-ecf8b2c22cb1","ios":"levelo://app?vid=3388642a-2768-4e0b-91a4-ecf8b2c22cb1"},"vehicle_type_id":"4","last_reported":1737716864,"current_range_meters":29600,"station_id":"ce4bh292rcd13ifvqdg0","pricing_plan_id":"cebpf4jnsgd1na2vs0mg"},{"bike_id":"55fa9a63-1046-4c0c-8d88-973abc543598","system_id":"levelo_inurba_marseille","lat":43.24996,"lon":5.38953,"is_reserved":false,"is_disabled":false,"rental_uris":{"android":"levelo://app?vid=55fa9a63-1046-4c0c-8d88-973abc543598","ios":"levelo://app?vid=55fa9a63-1046-4c0c-8d88-973abc543598"},"vehicle_type_id":"4","last_reported":1737716864,"current_range_meters":16000,"station_id":"ce4bhgp2rcd13ifvqfd0","pricing_plan_id":"cebpf4jnsgd1na2vs0mg"},{"bike_id":"776e3bd5-52ba-4861-9054-4a287de44a1a","system_id":"levelo_inurba_marseille","lat":43.274193,"lon":5.394134,"is_reserved":false,"is_disabled":false,"rental_uris":{"android":"levelo://app?vid=776e3bd5-52ba-4861-9054-4a287de44a1a","ios":"levelo://app?vid=776e3bd5-52ba-4861-9054-4a287de44a1a"},"vehicle_type_id":"4","last_reported":1737716864,"current_range_meters":38800,"station_id":"ce4bhdp2rcd13ifvqf20","pricing_plan_id":"cebpf4jnsgd1na2vs0mg"},{"bike_id":"531cf340-565f-4997-ab41-5a721938ed6a","system_id":"levelo_inurba_marseille","lat":43.27991,"lon":5.40006,"is_reserved":false,"is_disabled":false,"rental_uris":{"android":"levelo://app?vid=531cf340-565f-4997-ab41-5a721938ed6a","ios":"levelo://app?vid=531cf340-565f-4997-ab41-5a721938ed6a"},"vehicle_type_id":"4","last_reported":1737716864,"current_range_meters":6000,"station_id":"ce4bho92rcd13ifvqh4g","pricing_plan_id":"cebpf4jnsgd1na2vs0mg"},{"bike_id":"f3e1e0cc-e386-4335-a525-4da71585ccf5","system_id":"levelo_inurba_marseille","lat":43.32542,"lon":5.4145,"is_reserved":false,"is_disabled":false,"rental_uris":{"android":"levelo://app?vid=f3e1e0cc-e386-4335-a525-4da71585ccf5","ios":"levelo://app?vid=f3e1e0cc-e386-4335-a525-4da71585ccf5"},"vehicle_type_id":"4","last_reported":1737716864,"current_range_meters":6800,"station_id":"ce4bhq12rcd13ifvqhhg","pricing_plan_id":"cebpf4jnsgd1na2vs0mg"},{"bike_id":"cba064fd-960d-49db-9c3e-d44224ddb378","system_id":"levelo_inurba_marseille","lat":43.30946,"lon":5.39032,"is_reserved":false,"is_disabled":false,"rental_uris":{"android":"levelo://app?vid=cba064fd-960d-49db-9c3e-d44224ddb378","ios":"levelo://app?vid=cba064fd-960d-49db-9c3e-d44224ddb378"},"vehicle_type_id":"4","last_reported":1737716864,"current_range_meters":9600,"station_id":"ce4bgup2rcd13ifvqco0","pricing_plan_id":"cebpf4jnsgd1na2vs0mg"},{"bike_id":"8d2781c1-4b93-47a8-984b-20dcb7de2a0f","system_id":"levelo_inurba_marseille","lat":43.27808,"lon":5.4072,"is_reserved":false,"is_disabled":false,"rental_uris":{"android":"levelo://app?vid=8d2781c1-4b93-47a8-984b-20dcb7de2a0f","ios":"levelo://app?vid=8d2781c1-4b93-47a8-984b-20dcb7de2a0f"},"vehicle_type_id":"4","last_reported":1737716864,"current_range_meters":39200,"station_id":"ce4bhnh2rcd13ifvqgtg","pricing_plan_id":"cebpf4jnsgd1na2vs0mg"},{"bike_id":"6137de50-75c6-406e-bd6b-a91c9acf8b34","system_id":"levelo_inurba_marseille","lat":43.27408,"lon":5.394,"is_reserved":false,"is_disabled":false,"rental_uris":{"android":"levelo://app?vid=6137de50-75c6-406e-bd6b-a91c9acf8b34","ios":"levelo://app?vid=6137de50-75c6-406e-bd6b-a91c9acf8b34"},"vehicle_type_id":"4","last_reported":1737716864,"current_range_meters":38000,"station_id":"ce4bhdp2rcd13ifvqf20","pricing_plan_id":"cebpf4jnsgd1na2vs0mg"},{"bike_id":"a601e534-93bb-431d-9450-fb6c6c6a0b5d","system_id":"levelo_inurba_marseille","lat":43.30286,"lon":5.37701,"is_reserved":false,"is_disabled":false,"rental_uris":{"android":"levelo://app?vid=a601e534-93bb-431d-9450-fb6c6c6a0b5d","ios":"levelo://app?vid=a601e534-93bb-431d-9450-fb6c6c6a0b5d"},"vehicle_type_id":"4","last_reported":1737716864,"current_range_meters":38800,"station_id":"ce4bguh2rcd13ifvqcj0","pricing_plan_id":"cebpf4jnsgd1na2vs0mg"},{"bike_id":"6d37f43f-5c99-4e08-8087-4a8c6965a534","system_id":"levelo_inurba_marseille","lat":43.28409,"lon":5.3751,"is_reserved":false,"is_disabled":false,"rental_uris":{"android":"levelo://app?vid=6d37f43f-5c99-4e08-8087-4a8c6965a534","ios":"levelo://app?vid=6d37f43f-5c99-4e08-8087-4a8c6965a534"},"vehicle_type_id":"4","last_reported":1737716864,"current_range_meters":18800,"station_id":"ce4bh412rcd13ifvqds0","pricing_plan_id":"cebpf4jnsgd1na2vs0mg"},{"bike_id":"3530e1b0-6762-4cfd-8a4e-5635fcbed9b4","system_id":"levelo_inurba_marseille","lat":43.2737,"lon":5.36255,"is_reserved":false,"is_disabled":false,"rental_uris":{"android":"levelo://app?vid=3530e1b0-6762-4cfd-8a4e-5635fcbed9b4","ios":"levelo://app?vid=3530e1b0-6762-4cfd-8a4e-5635fcbed9b4"},"vehicle_type_id":"4","last_reported":1737716864,"current_range_meters":26000,"station_id":"ce4bhbh2rcd13ifvqeo0","pricing_plan_id":"cebpf4jnsgd1na2vs0mg"},{"bike_id":"dd1379ac-fee0-4691-b1d8-d8c9d6e9d55d","system_id":"levelo_inurba_marseille","lat":43.27813,"lon":5.4072,"is_reserved":false,"is_disabled":false,"rental_uris":{"android":"levelo://app?vid=dd1379ac-fee0-4691-b1d8-d8c9d6e9d55d","ios":"levelo://app?vid=dd1379ac-fee0-4691-b1d8-d8c9d6e9d55d"},"vehicle_type_id":"4","last_reported":1737716864,"current_range_meters":20800,"station_id":"ce4bhnh2rcd13ifvqgtg","pricing_plan_id":"cebpf4jnsgd1na2vs0mg"},{"bike_id":"4c4f250f-bd2f-4d27-9cb0-9af1e3584693","system_id":"levelo_inurba_marseille","lat":43.26681,"lon":5.38295,"is_reserved":false,"is_disabled":false,"rental_uris":{"android":"levelo://app?vid=4c4f250f-bd2f-4d27-9cb0-9af1e3584693","ios":"levelo://app?vid=4c4f250f-bd2f-4d27-9cb0-9af1e3584693"},"vehicle_type_id":"4","last_reported":1737716864,"current_range_meters":38800,"station_id":"ce4bhg92rcd13ifvqf90","pricing_plan_id":"cebpf4jnsgd1na2vs0mg"},{"bike_id":"e09caa60-26e5-4378-bd26-3e0764731d08","system_id":"levelo_inurba_marseille","lat":43.30876,"lon":5.36838,"is_reserved":false,"is_disabled":false,"rental_uris":{"android":"levelo://app?vid=e09caa60-26e5-4378-bd26-3e0764731d08","ios":"levelo://app?vid=e09caa60-26e5-4378-bd26-3e0764731d08"},"vehicle_type_id":"4","last_reported":1737716864,"current_range_meters":38800,"station_id":"ce4bgn92rcd13ifvqbvg","pricing_plan_id":"cebpf4jnsgd1na2vs0mg"},{"bike_id":"576b8657-d5e2-4d23-9b1e-461b2180cd28","system_id":"levelo_inurba_marseille","lat":43.22924,"lon":5.35395,"is_reserved":false,"is_disabled":false,"rental_uris":{"android":"levelo://app?vid=576b8657-d5e2-4d23-9b1e-461b2180cd28","ios":"levelo://app?vid=576b8657-d5e2-4d23-9b1e-461b2180cd28"},"vehicle_type_id":"4","last_reported":1737716864,"current_range_meters":39200,"station_id":"cpo3532slgdg3j2ikp40","pricing_plan_id":"cebpf4jnsgd1na2vs0mg"},{"bike_id":"6e2fda11-73b4-4686-a341-24f65351d68d","system_id":"levelo_inurba_marseille","lat":43.29706,"lon":5.37696,"is_reserved":false,"is_disabled":false,"rental_uris":{"android":"levelo://app?vid=6e2fda11-73b4-4686-a341-24f65351d68d","ios":"levelo://app?vid=6e2fda11-73b4-4686-a341-24f65351d68d"},"vehicle_type_id":"4","last_reported":1737716864,"current_range_meters":38400,"station_id":"ce4bgkh2rcd13ifvqbl0","pricing_plan_id":"cebpf4jnsgd1na2vs0mg"},{"bike_id":"96bdbf08-6986-488d-981c-3a67861b7491","system_id":"levelo_inurba_marseille","lat":43.27811,"lon":5.40715,"is_reserved":false,"is_disabled":false,"rental_uris":{"android":"levelo://app?vid=96bdbf08-6986-488d-981c-3a67861b7491","ios":"levelo://app?vid=96bdbf08-6986-488d-981c-3a67861b7491"},"vehicle_type_id":"4","last_reported":1737716864,"current_range_meters":38000,"station_id":"ce4bhnh2rcd13ifvqgtg","pricing_plan_id":"cebpf4jnsgd1na2vs0mg"},{"bike_id":"21a3400f-6f4c-4878-9167-d193e12aff92","system_id":"levelo_inurba_marseille","lat":43.26567,"lon":5.39038,"is_reserved":false,"is_disabled":false,"rental_uris":{"android":"levelo://app?vid=21a3400f-6f4c-4878-9167-d193e12aff92","ios":"levelo://app?vid=21a3400f-6f4c-4878-9167-d193e12aff92"},"vehicle_type_id":"4","last_reported":1737716864,"current_range_meters":12800,"station_id":"ce4bhe12rcd13ifvqf30","pricing_plan_id":"cebpf4jnsgd1na2vs0mg"},{"bike_id":"ad0f4505-3ad3-4518-bb21-e12b5dbd17b0","system_id":"levelo_inurba_marseille","lat":43.270563,"lon":5.422817,"is_reserved":false,"is_disabled":false,"rental_uris":{"android":"levelo://app?vid=ad0f4505-3ad3-4518-bb21-e12b5dbd17b0","ios":"levelo://app?vid=ad0f4505-3ad3-4518-bb21-e12b5dbd17b0"},"vehicle_type_id":"4","last_reported":1737716864,"current_range_meters":2800,"station_id":"ce4bhk92rcd13ifvqgb0","pricing_plan_id":"cebpf4jnsgd1na2vs0mg"},{"bike_id":"07f665a3-7872-4a25-937d-9ece60c5cbc2","system_id":"levelo_inurba_marseille","lat":43.30419,"lon":5.39756,"is_reserved":false,"is_disabled":false,"rental_uris":{"android":"levelo://app?vid=07f665a3-7872-4a25-937d-9ece60c5cbc2","ios":"levelo://app?vid=07f665a3-7872-4a25-937d-9ece60c5cbc2"},"vehicle_type_id":"4","last_reported":1737716864,"current_range_meters":4000,"station_id":"ce4bh092rcd13ifvqd20","pricing_plan_id":"cebpf4jnsgd1na2vs0mg"},{"bike_id":"2e7fb19f-61e4-49a4-8e44-d97f2d3e951d","system_id":"levelo_inurba_marseille","lat":43.29607,"lon":5.3776,"is_reserved":false,"is_disabled":false,"rental_uris":{"android":"levelo://app?vid=2e7fb19f-61e4-49a4-8e44-d97f2d3e951d","ios":"levelo://app?vid=2e7fb19f-61e4-49a4-8e44-d97f2d3e951d"},"vehicle_type_id":"4","last_reported":1737716864,"current_range_meters":20800,"station_id":"ce4bgi92rcd13ifvqb90","pricing_plan_id":"cebpf4jnsgd1na2vs0mg"},{"bike_id":"9232530a-222e-4d8b-bd35-14099127bb01","system_id":"levelo_inurba_marseille","lat":43.30955,"lon":5.36832,"is_reserved":false,"is_disabled":false,"rental_uris":{"android":"levelo://app?vid=9232530a-222e-4d8b-bd35-14099127bb01","ios":"levelo://app?vid=9232530a-222e-4d8b-bd35-14099127bb01"},"vehicle_type_id":"4","last_reported":1737716864,"current_range_meters":37600,"station_id":"","pricing_plan_id":"cebpf4jnsgd1na2vs0mg"},{"bike_id":"0c184a37-ed1e-49f8-9878-651470ae5991","system_id":"levelo_inurba_marseille","lat":43.2962,"lon":5.37179,"is_reserved":false,"is_disabled":false,"rental_uris":{"android":"levelo://app?vid=0c184a37-ed1e-49f8-9878-651470ae5991","ios":"levelo://app?vid=0c184a37-ed1e-49f8-9878-651470ae5991"},"vehicle_type_id":"4","last_reported":1737716864,"current_range_meters":17600,"station_id":"","pricing_plan_id":"cebpf4jnsgd1na2vs0mg"},{"bike_id":"a6ed32e1-5f77-48e1-a52f-af930b732239","system_id":"levelo_inurba_marseille","lat":43.31734,"lon":5.42385,"is_reserved":false,"is_disabled":false,"rental_uris":{"android":"levelo://app?vid=a6ed32e1-5f77-48e1-a52f-af930b732239","ios":"levelo://app?vid=a6ed32e1-5f77-48e1-a52f-af930b732239"},"vehicle_type_id":"4","last_reported":1737716864,"current_range_meters":38800,"station_id":"ce4bhp92rcd13ifvqhbg","pricing_plan_id":"cebpf4jnsgd1na2vs0mg"},{"bike_id":"be1e5b06-9292-4717-bc2c-bc61a83d1daa","system_id":"levelo_inurba_marseille","lat":43.27322,"lon":5.39083,"is_reserved":false,"is_disabled":false,"rental_uris":{"android":"levelo://app?vid=be1e5b06-9292-4717-bc2c-bc61a83d1daa","ios":"levelo://app?vid=be1e5b06-9292-4717-bc2c-bc61a83d1daa"},"vehicle_type_id":"4","last_reported":1737716864,"current_range_meters":20800,"station_id":"ce4bhgp2rcd13ifvqfe0","pricing_plan_id":"cebpf4jnsgd1na2vs0mg"},{"bike_id":"13dcfb35-10f9-4d6d-bd03-49c38db48b2a","system_id":"levelo_inurba_marseille","lat":43.27207,"lon":5.39152,"is_reserved":false,"is_disabled":false,"rental_uris":{"android":"levelo://app?vid=13dcfb35-10f9-4d6d-bd03-49c38db48b2a","ios":"levelo://app?vid=13dcfb35-10f9-4d6d-bd03-49c38db48b2a"},"vehicle_type_id":"4","last_reported":1737716864,"current_range_meters":14800,"station_id":"ce4bhhp2rcd13ifvqfm0","pricing_plan_id":"cebpf4jnsgd1na2vs0mg"},{"bike_id":"8e684fe1-e823-4367-81c0-b3c2dedc805b","system_id":"levelo_inurba_marseille","lat":43.29635,"lon":5.37208,"is_reserved":false,"is_disabled":false,"rental_uris":{"android":"levelo://app?vid=8e684fe1-e823-4367-81c0-b3c2dedc805b","ios":"levelo://app?vid=8e684fe1-e823-4367-81c0-b3c2dedc805b"},"vehicle_type_id":"4","last_reported":1737716864,"current_range_meters":39200,"station_id":"ce4bgnh2rcd13ifvqc0g","pricing_plan_id":"cebpf4jnsgd1na2vs0mg"},{"bike_id":"79ecf9c2-ce02-43e1-8f2c-03cc3cfcb469","system_id":"levelo_inurba_marseille","lat":43.24174,"lon":5.39722,"is_reserved":false,"is_disabled":false,"rental_uris":{"android":"levelo://app?vid=79ecf9c2-ce02-43e1-8f2c-03cc3cfcb469","ios":"levelo://app?vid=79ecf9c2-ce02-43e1-8f2c-03cc3cfcb469"},"vehicle_type_id":"4","last_reported":1737716864,"current_range_meters":38800,"station_id":"ce4bhn12rcd13ifvqgpg","pricing_plan_id":"cebpf4jnsgd1na2vs0mg"},{"bike_id":"38cecb84-5206-41a7-8433-708386c9370e","system_id":"levelo_inurba_marseille","lat":43.27181,"lon":5.39167,"is_reserved":false,"is_disabled":false,"rental_uris":{"android":"levelo://app?vid=38cecb84-5206-41a7-8433-708386c9370e","ios":"levelo://app?vid=38cecb84-5206-41a7-8433-708386c9370e"},"vehicle_type_id":"4","last_reported":1737716864,"current_range_meters":12400,"station_id":"ce4bhhp2rcd13ifvqfm0","pricing_plan_id":"cebpf4jnsgd1na2vs0mg"},{"bike_id":"d40934d9-951b-4d87-8c1d-052c0938548b","system_id":"levelo_inurba_marseille","lat":43.2884,"lon":5.39314,"is_reserved":false,"is_disabled":false,"rental_uris":{"android":"levelo://app?vid=d40934d9-951b-4d87-8c1d-052c0938548b","ios":"levelo://app?vid=d40934d9-951b-4d87-8c1d-052c0938548b"},"vehicle_type_id":"4","last_reported":1737716864,"current_range_meters":38800,"station_id":"ce4bh2p2rcd13ifvqdi0","pricing_plan_id":"cebpf4jnsgd1na2vs0mg"},{"bike_id":"a73496bd-5961-4148-9ae0-8c9a6018e57f","system_id":"levelo_inurba_marseille","lat":43.25932,"lon":5.40919,"is_reserved":false,"is_disabled":false,"rental_uris":{"android":"levelo://app?vid=a73496bd-5961-4148-9ae0-8c9a6018e57f","ios":"levelo://app?vid=a73496bd-5961-4148-9ae0-8c9a6018e57f"},"vehicle_type_id":"4","last_reported":1737716864,"current_range_meters":28000,"station_id":"ce4bhm92rcd13ifvqglg","pricing_plan_id":"cebpf4jnsgd1na2vs0mg"},{"bike_id":"23f0f08c-f221-4e06-adda-4742a4e15313","system_id":"levelo_inurba_marseille","lat":43.28422,"lon":5.34988,"is_reserved":false,"is_disabled":false,"rental_uris":{"android":"levelo://app?vid=23f0f08c-f221-4e06-adda-4742a4e15313","ios":"levelo://app?vid=23f0f08c-f221-4e06-adda-4742a4e15313"},"vehicle_type_id":"4","last_reported":1737716864,"current_range_meters":7200,"station_id":"ce4bhbh2rcd13ifvqepg","pricing_plan_id":"cebpf4jnsgd1na2vs0mg"},{"bike_id":"d6fdc357-5782-4129-a9a9-1ccea6a474aa","system_id":"levelo_inurba_marseille","lat":43.29515,"lon":5.37511,"is_reserved":false,"is_disabled":false,"rental_uris":{"android":"levelo://app?vid=d6fdc357-5782-4129-a9a9-1ccea6a474aa","ios":"levelo://app?vid=d6fdc357-5782-4129-a9a9-1ccea6a474aa"},"vehicle_type_id":"4","last_reported":1737716864,"current_range_meters":34000,"station_id":"ce4bgkp2rcd13ifvqbmg","pricing_plan_id":"cebpf4jnsgd1na2vs0mg"},{"bike_id":"8ac92fd6-82d2-4695-beda-f642473c5abf","system_id":"levelo_inurba_marseille","lat":43.29966,"lon":5.37174,"is_reserved":false,"is_disabled":false,"rental_uris":{"android":"levelo://app?vid=8ac92fd6-82d2-4695-beda-f642473c5abf","ios":"levelo://app?vid=8ac92fd6-82d2-4695-beda-f642473c5abf"},"vehicle_type_id":"4","last_reported":1737716864,"current_range_meters":30000,"station_id":"ce4bgr92rcd13ifvqc7g","pricing_plan_id":"cebpf4jnsgd1na2vs0mg"},