{"last_updated":1756159787,"ttl":60,"version":"2.2","data":{"bikes":[{"bike_id":"99fda54c-6ba5-460e-8f4f-4207fb66620e","system_id":"levelo_inurba_marseille","lat":43.31276,"lon":5.40166,"is_reserved":false,"is_disabled":false,"rental_uris":{"android":"levelo://app?vid=99fda54c-6ba5-460e-8f4f-4207fb66620e","ios":"levelo://app?vid=99fda54c-6ba5-460e-8f4f-4207fb66620e"},"vehicle_type_id":"4","last_reported":1756159787,"current_range_meters":2800,"station_id":"ce4bh092rcd13ifvqd30","pricing_plan_id":"cebpf4jnsgd1na2vs0mg"},{"bike_id":"b54d8ed5-780d-4d46-ab23-55c4d389674d","system_id":"levelo_inurba_marseille","lat":43.31674,"lon":5.3728,"is_reserved":false,"is_disabled":true,"rental_uris":{"android":"levelo://app?vid=b54d8ed5-780d-4d46-ab23-55c4d389674d","ios":"levelo://app?vid=b54d8ed5-780d-4d46-ab23-55c4d389674d"},"vehicle_type_id":"4","last_reported":1756159787,"current_range_meters":3200,"station_id":"","pricing_plan_id":"cebpf4jnsgd1na2vs0mg"},{"bike_id":"c82f170e-1266-4f52-b259-298435bfc163","system_id":"levelo_inurba_marseille","lat":43.28492,"lon":5.38559,"is_reserved":false,"is_disabled":true,"rental_uris":{"android":"levelo://app?vid=c82f170e-1266-4f52-b259-298435bfc163","ios":"levelo://app?vid=c82f170e-1266-4f52-b259-298435bfc163"},"vehicle_type_id":"4","last_reported":1756159787,"current_range_meters":3200,"station_id":"ce4bh8p2rcd13ifvqeb0","pricing_plan_id":"cebpf4jnsgd1na2vs0mg"},{"bike_id":"8059e22e-3d98-4200-bee2-ef559efb3eb9","system_id":"levelo_inurba_marseille","lat":43.21749,"lon":5.34606,"is_reserved":false,"is_disabled":true,"rental_uris":{"android":"levelo://app?vid=8059e22e-3d98-4200-bee2-ef559efb3eb9","ios":"levelo://app?vid=8059e22e-3d98-4200-bee2-ef559efb3eb9"},"vehicle_type_id":"4","last_reported":1756159787,"current_range_meters":3200,"station_id":"st_cvj6r9ubvosntc0bgbag","pricing_plan_id":"cebpf4jnsgd1na2vs0mg"},{"bike_id":"7adbac07-0a90-46d2-a401-d44336298bdb","system_id":"levelo_inurba_marseille","lat":43.30036,"lon":5.3755,"is_reserved":false,"is_disabled":false,"rental_uris":{"android":"levelo://app?vid=7adbac07-0a90-46d2-a401-d44336298bdb","ios":"levelo://app?vid=7adbac07-0a90-46d2-a401-d44336298bdb"},"vehicle_type_id":"4","last_reported":1756159787,"current_range_meters":3600,"station_id":"","pricing_plan_id":"cebpf4jnsgd1na2vs0mg"},{"bike_id":"e31e9df9-7cf4-4041-849a-55499646b54e","system_id":"levelo_inurba_marseille","lat":43.21201,"lon":5.35073,"is_reserved":false,"is_disabled":false,"rental_uris":{"android":"levelo://app?vid=e31e9df9-7cf4-4041-849a-55499646b54e","ios":"levelo://app?vid=e31e9df9-7cf4-4041-849a-55499646b54e"},"vehicle_type_id":"4","last_reported":1756159787,"current_range_meters":4000,"station_id":"st_cvj6sg6p6f1abm77japg","pricing_plan_id":"cebpf4jnsgd1na2vs0mg"},{"bike_id":"3a77f2d4-e94f-4b53-bdd4-c64d7b055973","system_id":"levelo_inurba_marseille","lat":43.27059,"lon":5.42274,"is_reserved":false,"is_disabled":false,"rental_uris":{"android":"levelo://app?vid=3a77f2d4-e94f-4b53-bdd4-c64d7b055973","ios":"levelo://app?vid=3a77f2d4-e94f-4b53-bdd4-c64d7b055973"},"vehicle_type_id":"4","last_reported":1756159787,"current_range_meters":4000,"station_id":"ce4bhk92rcd13ifvqgb0","pricing_plan_id":"cebpf4jnsgd1na2vs0mg"},{"bike_id":"ed59b77e-4265-4c70-bda3-d1a47126d7d3","system_id":"levelo_inurba_marseille","lat":43.25334,"lon":5.42167,"is_reserved":false,"is_disabled":false,"rental_uris":{"android":"levelo://app?vid=ed59b77e-4265-4c70-bda3-d1a47126d7d3","ios":"levelo://app?vid=ed59b77e-4265-4c70-bda3-d1a47126d7d3"},"vehicle_type_id":"4","last_reported":1756159787,"current_range_meters":4000,"station_id":"st_d2m65c5bi1j21697t3ng","pricing_plan_id":"cebpf4jnsgd1na2vs0mg"},{"bike_id":"4a532269-48cb-427e-b43b-efabb500b7dd","system_id":"levelo_inurba_marseille","lat":43.28696,"lon":5.39995,"is_reserved":false,"is_disabled":false,"rental_uris":{"android":"levelo://app?vid=4a532269-48cb-427e-b43b-efabb500b7dd","ios":"levelo://app?vid=4a532269-48cb-427e-b43b-efabb500b7dd"},"vehicle_type_id":"4","last_reported":1756159787,"current_range_meters":5600,"station_id":"ce4bho92rcd13ifvqh3g","pricing_plan_id":"cebpf4jnsgd1na2vs0mg"},{"bike_id":"bdfcbd9f-91ba-4aff-afdd-0d6c5d79a03f","system_id":"levelo_inurba_marseille","lat":43.24802,"lon":5.3745,"is_reserved":false,"is_disabled":true,"rental_uris":{"android":"levelo://app?vid=bdfcbd9f-91ba-4aff-afdd-0d6c5d79a03f","ios":"levelo://app?vid=bdfcbd9f-91ba-4aff-afdd-0d6c5d79a03f"},"vehicle_type_id":"4","last_reported":1756159787,"current_range_meters":5600,"station_id":"ce4bhgh2rcd13ifvqfb0","pricing_plan_id":"cebpf4jnsgd1na2vs0mg"},{"bike_id":"67ca4d0b-41f3-41a9-83f9-c38bc8743d21","system_id":"levelo_inurba_marseille","lat":43.28158,"lon":5.42685,"is_reserved":false,"is_disabled":false,"rental_uris":{"android":"levelo://app?vid=67ca4d0b-41f3-41a9-83f9-c38bc8743d21","ios":"levelo://app?vid=67ca4d0b-41f3-41a9-83f9-c38bc8743d21"},"vehicle_type_id":"4","last_reported":1756159787,"current_range_meters":6000,"station_id":"ce4bhnh2rcd13ifvqgug","pricing_plan_id":"cebpf4jnsgd1na2vs0mg"},{"bike_id":"dc87a039-7c6d-478a-afe7-e47db1d88996","system_id":"levelo_inurba_marseille","lat":43.21193,"lon":5.3512,"is_reserved":false,"is_disabled":false,"rental_uris":{"android":"levelo://app?vid=dc87a039-7c6d-478a-afe7-e47db1d88996","ios":"levelo://app?vid=dc87a039-7c6d-478a-afe7-e47db1d88996"},"vehicle_type_id":"4","last_reported":1756159787,"current_range_meters":6400,"station_id":"st_cvj6sg6p6f1abm77japg","pricing_plan_id":"cebpf4jnsgd1na2vs0mg"},{"bike_id":"158fe4a9-48cc-491f-95fd-2aa73bd55cc0","system_id":"levelo_inurba_marseille","lat":43.3057,"lon":5.36908,"is_reserved":false,"is_disabled":false,"rental_uris":{"android":"levelo://app?vid=158fe4a9-48cc-491f-95fd-2aa73bd55cc0","ios":"levelo://app?vid=158fe4a9-48cc-491f-95fd-2aa73bd55cc0"},"vehicle_type_id":"4","last_reported":1756159787,"current_range_meters":6400,"station_id":"","pricing_plan_id":"cebpf4jnsgd1na2vs0mg"},{"bike_id":"20351e7a-1741-4379-81be-5493e9f5ce23","system_id":"levelo_inurba_marseille","lat":43.23198,"lon":5.35556,"is_reserved":false,"is_disabled":false,"rental_uris":{"android":"levelo://app?vid=20351e7a-1741-4379-81be-5493e9f5ce23","ios":"levelo://app?vid=20351e7a-1741-4379-81be-5493e9f5ce23"},"vehicle_type_id":"4","last_reported":1756159787,"current_range_meters":6400,"station_id":"ce4bhu92rcd13ifvqi70","pricing_plan_id":"cebpf4jnsgd1na2vs0mg"},{"bike_id":"3fcb1ecf-014d-414b-8e46-6cb5a3a18d8d","system_id":"levelo_inurba_marseille","lat":43.27117,"lon":5.38726,"is_reserved":false,"is_disabled":false,"rental_uris":{"android":"levelo://app?vid=3fcb1ecf-014d-414b-8e46-6cb5a3a18d8d","ios":"levelo://app?vid=3fcb1ecf-014d-414b-8e46-6cb5a3a18d8d"},"vehicle_type_id":"4","last_reported":1756159787,"current_range_meters":6800,"station_id":"","pricing_plan_id":"cebpf4jnsgd1na2vs0mg"},{"bike_id":"0490c530-845d-44f9-bf75-09a8b4d2b9b9","system_id":"levelo_inurba_marseille","lat":43.29745,"lon":5.38064,"is_reserved":false,"is_disabled":true,"rental_uris":{"android":"levelo://app?vid=0490c530-845d-44f9-bf75-09a8b4d2b9b9","ios":"levelo://app?vid=0490c530-845d-44f9-bf75-09a8b4d2b9b9"},"vehicle_type_id":"4","last_reported":1756159787,"current_range_meters":6800,"station_id":"ce4bgip2rcd13ifvqbb0","pricing_plan_id":"cebpf4jnsgd1na2vs0mg"},{"bike_id":"8e3c1d96-db3d-493f-9f1f-6750dcd1e8bc","system_id":"levelo_inurba_marseille","lat":43.3275,"lon":5.38804,"is_reserved":false,"is_disabled":false,"rental_uris":{"android":"levelo://app?vid=8e3c1d96-db3d-493f-9f1f-6750dcd1e8bc","ios":"levelo://app?vid=8e3c1d96-db3d-493f-9f1f-6750dcd1e8bc"},"vehicle_type_id":"4","last_reported":1756159787,"current_range_meters":6800,"station_id":"","pricing_plan_id":"cebpf4jnsgd1na2vs0mg"},{"bike_id":"8278d03d-5584-48a8-a86a-7847a162c713","system_id":"levelo_inurba_marseille","lat":43.30897,"lon":5.38181,"is_reserved":false,"is_disabled":false,"rental_uris":{"android":"levelo://app?vid=8278d03d-5584-48a8-a86a-7847a162c713","ios":"levelo://app?vid=8278d03d-5584-48a8-a86a-7847a162c713"},"vehicle_type_id":"4","last_reported":1756159787,"current_range_meters":7200,"station_id":"","pricing_plan_id":"cebpf4jnsgd1na2vs0mg"},{"bike_id":"8b45733f-682c-4cfc-9d46-1204e0a36ebf","system_id":"levelo_inurba_marseille","lat":43.29064,"lon":5.40012,"is_reserved":false,"is_disabled":false,"rental_uris":{"android":"levelo://app?vid=8b45733f-682c-4cfc-9d46-1204e0a36ebf","ios":"levelo://app?vid=8b45733f-682c-4cfc-9d46-1204e0a36ebf"},"vehicle_type_id":"4","last_reported":1756159787,"current_range_meters":7200,"station_id":"ce4bh392rcd13ifvqdm0","pricing_plan_id":"cebpf4jnsgd1na2vs0mg"},{"bike_id":"c0db8c7c-7625-47de-915a-e9bb274b322b","system_id":"levelo_inurba_marseille","lat":43.30926,"lon":5.40144,"is_reserved":false,"is_disabled":false,"rental_uris":{"android":"levelo://app?vid=c0db8c7c-7625-47de-915a-e9bb274b322b","ios":"levelo://app?vid=c0db8c7c-7625-47de-915a-e9bb274b322b"},"vehicle_type_id":"4","last_reported":1756159787,"current_range_meters":7200,"station_id":"ce4bgvp2rcd13ifvqct0","pricing_plan_id":"cebpf4jnsgd1na2vs0mg"},{"bike_id":"9d12bc86-537a-4023-9cd9-23676cd80bf4","system_id":"levelo_inurba_marseille","lat":43.27937,"lon":5.41051,"is_reserved":false,"is_disabled":false,"rental_uris":{"android":"levelo://app?vid=9d12bc86-537a-4023-9cd9-23676cd80bf4","ios":"levelo://app?vid=9d12bc86-537a-4023-9cd9-23676cd80bf4"},"vehicle_type_id":"4","last_reported":1756159787,"current_range_meters":7200,"station_id":"ce4bhnp2rcd13ifvqh0g","pricing_plan_id":"cebpf4jnsgd1na2vs0mg"},{"bike_id":"b567829f-d8c9-4b06-9b96-c7f8ee845620","system_id":"levelo_inurba_marseille","lat":43.292641,"lon":5.408914,"is_reserved":false,"is_disabled":false,"rental_uris":{"android":"levelo://app?vid=b567829f-d8c9-4b06-9b96-c7f8ee845620","ios":"levelo://app?vid=b567829f-d8c9-4b06-9b96-c7f8ee845620"},"vehicle_type_id":"4","last_reported":1756159787,"current_range_meters":8000,"station_id":"ce4bh192rcd13ifvqdc0","pricing_plan_id":"cebpf4jnsgd1na2vs0mg"},{"bike_id":"a3ee7e5c-9cf7-43c5-93e5-2bc43df4e2a3","system_id":"levelo_inurba_marseille","lat":43.26546,"lon":5.40344,"is_reserved":false,"is_disabled":false,"rental_uris":{"android":"levelo://app?vid=a3ee7e5c-9cf7-43c5-93e5-2bc43df4e2a3","ios":"levelo://app?vid=a3ee7e5c-9cf7-43c5-93e5-2bc43df4e2a3"},"vehicle_type_id":"4","last_reported":1756159787,"current_range_meters":8400,"station_id":"ce4bhmp2rcd13ifvqgng","pricing_plan_id":"cebpf4jnsgd1na2vs0mg"},{"bike_id":"318a994a-51ff-465f-b40c-534a36bf7044","system_id":"levelo_inurba_marseille","lat":43.30162,"lon":5.38279,"is_reserved":false,"is_disabled":false,"rental_uris":{"android":"levelo://app?vid=318a994a-51ff-465f-b40c-534a36bf7044","ios":"levelo://app?vid=318a994a-51ff-465f-b40c-534a36bf7044"},"vehicle_type_id":"4","last_reported":1756159787,"current_range_meters":8400,"station_id":"","pricing_plan_id":"cebpf4jnsgd1na2vs0mg"},{"bike_id":"8518bded-4733-4e5e-9522-f030c96f848a","system_id":"levelo_inurba_marseille","lat":43.21196,"lon":5.35072,"is_reserved":false,"is_disabled":true,"rental_uris":{"android":"levelo://app?vid=8518bded-4733-4e5e-9522-f030c96f848a","ios":"levelo://app?vid=8518bded-4733-4e5e-9522-f030c96f848a"},"vehicle_type_id":"4","last_reported":1756159787,"current_range_meters":8400,"station_id":"","pricing_plan_id":"cebpf4jnsgd1na2vs0mg"},{"bike_id":"6776617a-b999-44b7-9832-11f541113410","system_id":"levelo_inurba_marseille","lat":43.24629,"lon":5.43147,"is_reserved":false,"is_disabled":false,"rental_uris":{"android":"levelo://app?vid=6776617a-b999-44b7-9832-11f541113410","ios":"levelo://app?vid=6776617a-b999-44b7-9832-11f541113410"},"vehicle_type_id":"4","last_reported":1756159787,"current_range_meters":8400,"station_id":"st_d2m6c4gdas8pm72e190g","pricing_plan_id":"cebpf4jnsgd1na2vs0mg"},{"bike_id":"fb0ecd7c-2c0f-42f1-9e73-9448c9893367","system_id":"levelo_inurba_marseille","lat":43.264802,"lon":5.370287,"is_reserved":false,"is_disabled":false,"rental_uris":{"android":"levelo://app?vid=fb0ecd7c-2c0f-42f1-9e73-9448c9893367","ios":"levelo://app?vid=fb0ecd7c-2c0f-42f1-9e73-9448c9893367"},"vehicle_type_id":"4","last_reported":1756159787,"current_range_meters":8800,"station_id":"","pricing_plan_id":"cebpf4jnsgd1na2vs0mg"},{"bike_id":"85d264b6-928d-4e94-b65e-d53a42b5cbab","system_id":"levelo_inurba_marseille","lat":43.292673,"lon":5.384386,"is_reserved":false,"is_disabled":false,"rental_uris":{"android":"levelo://app?vid=85d264b6-928d-4e94-b65e-d53a42b5cbab","ios":"levelo://app?vid=85d264b6-928d-4e94-b65e-d53a42b5cbab"},"vehicle_type_id":"4","last_reported":1756159787,"current_range_meters":8800,"station_id":"ce4bh692rcd13ifvqea0","pricing_plan_id":"cebpf4jnsgd1na2vs0mg"},{"bike_id":"a41ed767-86a3-4c0e-b4c3-5001edc7c784","system_id":"levelo_inurba_marseille","lat":43.28157,"lon":5.42648,"is_reserved":false,"is_disabled":false,"rental_uris":{"android":"levelo://app?vid=a41ed767-86a3-4c0e-b4c3-5001edc7c784","ios":"levelo://app?vid=a41ed767-86a3-4c0e-b4c3-5001edc7c784"},"vehicle_type_id":"4","last_reported":1756159787,"current_range_meters":8800,"station_id":"ce4bhnh2rcd13ifvqgug","pricing_plan_id":"cebpf4jnsgd1na2vs0mg"},{"bike_id":"f827924e-764d-464b-bd85-3fbe8fd49a38","system_id":"levelo_inurba_marseille","lat":43.28155,"lon":5.42651,"is_reserved":false,"is_disabled":false,"rental_uris":{"android":"levelo://app?vid=f827924e-764d-464b-bd85-3fbe8fd49a38","ios":"levelo://app?vid=f827924e-764d-464b-bd85-3fbe8fd49a38"},"vehicle_type_id":"4","last_reported":1756159787,"current_range_meters":9200,"station_id":"ce4bhnh2rcd13ifvqgug","pricing_plan_id":"cebpf4jnsgd1na2vs0mg"},{"bike_id":"4b47784a-5ba4-49c7-8eff-9b806c61b45b","system_id":"levelo_inurba_marseille","lat":43.29441,"lon":5.39763,"is_reserved":false,"is_disabled":false,"rental_uris":{"android":"levelo://app?vid=4b47784a-5ba4-49c7-8eff-9b806c61b45b","ios":"levelo://app?vid=4b47784a-5ba4-49c7-8eff-9b806c61b45b"},"vehicle_type_id":"4","last_reported":1756159787,"current_range_meters":9200,"station_id":"ce4bh3h2rcd13ifvqdo0","pricing_plan_id":"cebpf4jnsgd1na2vs0mg"},{"bike_id":"461999fd-44c1-455e-834d-df855ec61407","system_id":"levelo_inurba_marseille","lat":43.27079,"lon":5.42278,"is_reserved":false,"is_disabled":false,"rental_uris":{"android":"levelo://app?vid=461999fd-44c1-455e-834d-df855ec61407","ios":"levelo://app?vid=461999fd-44c1-455e-834d-df855ec61407"},"vehicle_type_id":"4","last_reported":1756159787,"current_range_meters":9200,"station_id":"ce4bhk92rcd13ifvqgb0","pricing_plan_id":"cebpf4jnsgd1na2vs0mg"},{"bike_id":"f6ea3250-5bfb-4676-a021-d7591ec86f25","system_id":"levelo_inurba_marseille","lat":43.25724,"lon":5.41106,"is_reserved":false,"is_disabled":false,"rental_uris":{"android":"levelo://app?vid=f6ea3250-5bfb-4676-a021-d7591ec86f25","ios":"levelo://app?vid=f6ea3250-5bfb-4676-a021-d7591ec86f25"},"vehicle_type_id":"4","last_reported":1756159787,"current_range_meters":9600,"station_id":"ce4bhkp2rcd13ifvqgd0","pricing_plan_id":"cebpf4jnsgd1na2vs0mg"},{"bike_id":"3169f60f-856c-4f75-96da-6a1109677bf0","system_id":"levelo_inurba_marseille","lat":43.29803,"lon":5.38107,"is_reserved":false,"is_disabled":false,"rental_uris":{"android":"levelo://app?vid=3169f60f-856c-4f75-96da-6a1109677bf0","ios":"levelo://app?vid=3169f60f-856c-4f75-96da-6a1109677bf0"},"vehicle_type_id":"4","last_reported":1756159787,"current_range_meters":9600,"station_id":"ce4bgip2rcd13ifvqbb0","pricing_plan_id":"cebpf4jnsgd1na2vs0mg"},{"bike_id":"4bb82f16-b125-4344-a8b4-8776bcd0d38e","system_id":"levelo_inurba_marseille","lat":43.2926,"lon":5.40906,"is_reserved":false,"is_disabled":false,"rental_uris":{"android":"levelo://app?vid=4bb82f16-b125-4344-a8b4-8776bcd0d38e","ios":"levelo://app?vid=4bb82f16-b125-4344-a8b4-8776bcd0d38e"},"vehicle_type_id":"4","last_reported":1756159787,"current_range_meters":10000,"station_id":"ce4bh192rcd13ifvqdc0","pricing_plan_id":"cebpf4jnsgd1na2vs0mg"},{"bike_id":"236f1a17-bd84-4b8e-977f-7df7d8cf402c","system_id":"levelo_inurba_marseille","lat":43.30807,"lon":5.43524,"is_reserved":false,"is_disabled":true,"rental_uris":{"android":"levelo://app?vid=236f1a17-bd84-4b8e-977f-7df7d8cf402c","ios":"levelo://app?vid=236f1a17-bd84-4b8e-977f-7df7d8cf402c"},"vehicle_type_id":"4","last_reported":1756159787,"current_range_meters":10000,"station_id":"ce4bhph2rcd13ifvqheg","pricing_plan_id":"cebpf4jnsgd1na2vs0mg"},{"bike_id":"9fd9bfdc-8b34-43c0-bc2d-e6c6f49f9499","system_id":"levelo_inurba_marseille","lat":43.29539,"lon":5.38545,"is_reserved":false,"is_disabled":false,"rental_uris":{"android":"levelo://app?vid=9fd9bfdc-8b34-43c0-bc2d-e6c6f49f9499","ios":"levelo://app?vid=9fd9bfdc-8b34-43c0-bc2d-e6c6f49f9499"},"vehicle_type_id":"4","last_reported":1756159787,"current_range_meters":10800,"station_id":"ce4bgih2rcd13ifvqba0","pricing_plan_id":"cebpf4jnsgd1na2vs0mg"},{"bike_id":"7203aa12-6f27-4868-bb54-60c3b620f3ff","system_id":"levelo_inurba_marseille","lat":43.29513,"lon":5.39412,"is_reserved":false,"is_disabled":true,"rental_uris":{"android":"levelo://app?vid=7203aa12-6f27-4868-bb54-60c3b620f3ff","ios":"levelo://app?vid=7203aa12-6f27-4868-bb54-60c3b620f3ff"},"vehicle_type_id":"4","last_reported":1756159787,"current_range_meters":10800,"station_id":"ce4bh292rcd13ifvqdf0","pricing_plan_id":"cebpf4jnsgd1na2vs0mg"},{"bike_id":"4df71f0f-c74e-4ac3-acf8-818e23b9a99b","system_id":"levelo_inurba_marseille","lat":43.2929,"lon":5.38563,"is_reserved":false,"is_disabled":false,"rental_uris":{"android":"levelo://app?vid=4df71f0f-c74e-4ac3-acf8-818e23b9a99b","ios":"levelo://app?vid=4df71f0f-c74e-4ac3-acf8-818e23b9a99b"},"vehicle_type_id":"4","last_reported":1756159787,"current_range_meters":10800,"station_id":"","pricing_plan_id":"cebpf4jnsgd1na2vs0mg"},{"bike_id":"dbdd3534-9e12-4e0b-a95a-e7db6454e82e","system_id":"levelo_inurba_marseille","lat":43.28727,"lon":5.37395,"is_reserved":false,"is_disabled":false,"rental_uris":{"android":"levelo://app?vid=dbdd3534-9e12-4e0b-a95a-e7db6454e82e","ios":"levelo://app?vid=dbdd3534-9e12-4e0b-a95a-e7db6454e82e"},"vehicle_type_id":"4","last_reported":1756159787,"current_range_meters":10800,"station_id":"ce4bh3p2rcd13ifvqdq0","pricing_plan_id":"cebpf4jnsgd1na2vs0mg"},{"bike_id":"2543e88f-4d93-464b-8382-8d9dee4891d3","system_id":"levelo_inurba_marseille","lat":43.25741,"lon":5.39423,"is_reserved":false,"is_disabled":false,"rental_uris":{"android":"levelo://app?vid=2543e88f-4d93-464b-8382-8d9dee4891d3","ios":"levelo://app?vid=2543e88f-4d93-464b-8382-8d9dee4891d3"},"vehicle_type_id":"4","last_reported":1756159787,"current_range_meters":10800,"station_id":"","pricing_plan_id":"cebpf4jnsgd1na2vs0mg"},{"bike_id":"4281bcb2-aaf4-40a8-b234-e03be0934e34","system_id":"levelo_inurba_marseille","lat":43.31997,"lon":5.38151,"is_reserved":false,"is_disabled":false,"rental_uris":{"android":"levelo://app?vid=4281bcb2-aaf4-40a8-b234-e03be0934e34","ios":"levelo://app?vid=4281bcb2-aaf4-40a8-b234-e03be0934e34"},"vehicle_type_id":"4","last_reported":1756159787,"current_range_meters":10800,"station_id":"ce4bhr12rcd13ifvqhpg","pricing_plan_id":"cebpf4jnsgd1na2vs0mg"},{"bike_id":"a4a408b3-aa81-4fa0-99b2-8d0a08e384bc","system_id":"levelo_inurba_marseille","lat":43.32098,"lon":5.36769,"is_reserved":false,"is_disabled":true,"rental_uris":{"android":"levelo://app?vid=a4a408b3-aa81-4fa0-99b2-8d0a08e384bc","ios":"levelo://app?vid=a4a408b3-aa81-4fa0-99b2-8d0a08e384bc"},"vehicle_type_id":"4","last_reported":1756159787,"current_range_meters":10800,"station_id":"ce4bhrh2rcd13ifvqhug","pricing_plan_id":"cebpf4jnsgd1na2vs0mg"},{"bike_id":"b0d6a657-c78e-47de-85ac-cbf4564acdcb","system_id":"levelo_inurba_marseille","lat":43.28153,"lon":5.42657,"is_reserved":false,"is_disabled":false,"rental_uris":{"android":"levelo://app?vid=b0d6a657-c78e-47de-85ac-cbf4564acdcb","ios":"levelo://app?vid=b0d6a657-c78e-47de-85ac-cbf4564acdcb"},"vehicle_type_id":"4","last_reported":1756159787,"current_range_meters":11200,"station_id":"ce4bhnh2rcd13ifvqgug","pricing_plan_id":"cebpf4jnsgd1na2vs0mg"},{"bike_id":"5bc159b2-6625-4331-8d47-866182c3fe54","system_id":"levelo_inurba_marseille","lat":43.2871,"lon":5.37384,"is_reserved":false,"is_disabled":false,"rental_uris":{"android":"levelo://app?vid=5bc159b2-6625-4331-8d47-866182c3fe54","ios":"levelo://app?vid=5bc159b2-6625-4331-8d47-866182c3fe54"},"vehicle_type_id":"4","last_reported":1756159787,"current_range_meters":11200,"station_id":"ce4bh3p2rcd13ifvqdq0","pricing_plan_id":"cebpf4jnsgd1na2vs0mg"},{"bike_id":"bdf9cdaf-1841-4395-9aa4-66303e07210c","system_id":"levelo_inurba_marseille","lat":43.28955,"lon":5.36653,"is_reserved":false,"is_disabled":false,"rental_uris":{"android":"levelo://app?vid=bdf9cdaf-1841-4395-9aa4-66303e07210c","ios":"levelo://app?vid=bdf9cdaf-1841-4395-9aa4-66303e07210c"},"vehicle_type_id":"4","last_reported":1756159787,"current_range_meters":11200,"station_id":"ce4bhap2rcd13ifvqek0","pricing_plan_id":"cebpf4jnsgd1na2vs0mg"},{"bike_id":"df75f1fa-75ae-4074-a5b6-5911a8c1b6a8","system_id":"levelo_inurba_marseille","lat":43.30752,"lon":5.37172,"is_reserved":false,"is_disabled":false,"rental_uris":{"android":"levelo://app?vid=df75f1fa-75ae-4074-a5b6-5911a8c1b6a8","ios":"levelo://app?vid=df75f1fa-75ae-4074-a5b6-5911a8c1b6a8"},"vehicle_type_id":"4","last_reported":1756159787,"current_range_meters":11200,"station_id":"","pricing_plan_id":"cebpf4jnsgd1na2vs0mg"},{"bike_id":"0af6b290-5595-49fb-a6ee-39c980f1a6e8","system_id":"levelo_inurba_marseille","lat":43.24652,"lon":5.38896,"is_reserved":false,"is_disabled":false,"rental_uris":{"android":"levelo://app?vid=0af6b290-5595-49fb-a6ee-39c980f1a6e8","ios":"levelo://app?vid=0af6b290-5595-49fb-a6ee-39c980f1a6e8"},"vehicle_type_id":"4","last_reported":1756159787,"current_range_meters":11600,"station_id":"ce4bhg12rcd13ifvqf60","pricing_plan_id":"cebpf4jnsgd1na2vs0mg"},{"bike_id":"7766c96f-aa3f-42f2-bc6d-bd785a715358","system_id":"levelo_inurba_marseille","lat":43.24547,"lon":5.39528,"is_reserved":false,"is_disabled":false,"rental_uris":{"android":"levelo://app?vid=7766c96f-aa3f-42f2-bc6d-bd785a715358","ios":"levelo://app?vid=7766c96f-aa3f-42f2-bc6d-bd785a715358"},"vehicle_type_id":"4","last_reported":1756159787,"current_range_meters":11600,"station_id":"ce4bhlp2rcd13ifvqgjg","pricing_plan_id":"cebpf4jnsgd1na2vs0mg"},{"bike_id":"1cd21559-399f-4936-b4ac-cb1d7223c9c3","system_id":"levelo_inurba_marseille","lat":43.24019,"lon":5.36283,"is_reserved":false,"is_disabled":false,"rental_uris":{"android":"levelo://app?vid=1cd21559-399f-4936-b4ac-cb1d7223c9c3","ios":"levelo://app?vid=1cd21559-399f-4936-b4ac-cb1d7223c9c3"},"vehicle_type_id":"4","last_reported":1756159787,"current_range_meters":11600,"station_id":"","pricing_plan_id":"cebpf4jnsgd1na2vs0mg"},{"bike_id":"5372f1fe-6bdb-48de-952a-7410d5eb9e37","system_id":"levelo_inurba_marseille","lat":43.29538,"lon":5.38535,"is_reserved":false,"is_disabled":false,"rental_uris":{"android":"levelo://app?vid=5372f1fe-6bdb-48de-952a-7410d5eb9e37","ios":"levelo://app?vid=5372f1fe-6bdb-48de-952a-7410d5eb9e37"},"vehicle_type_id":"4","last_reported":1756159787,"current_range_meters":11600,"station_id":"ce4bgih2rcd13ifvqba0","pricing_plan_id":"cebpf4jnsgd1na2vs0mg"},{"bike_id":"61fb239a-8f0d-41c7-a2c2-a45fd77cdd7d","system_id":"levelo_inurba_marseille","lat":43.31079,"lon":5.42464,"is_reserved":false,"is_disabled":false,"rental_uris":{"android":"levelo://app?vid=61fb239a-8f0d-41c7-a2c2-a45fd77cdd7d","ios":"levelo://app?vid=61fb239a-8f0d-41c7-a2c2-a45fd77cdd7d"},"vehicle_type_id":"4","last_reported":1756159787,"current_range_meters":12000,"station_id":"ce4bhp92rcd13ifvqhag","pricing_plan_id":"cebpf4jnsgd1na2vs0mg"},{"bike_id":"37ee34ea-f1e1-4241-a19a-4060e53b71a9","system_id":"levelo_inurba_marseille","lat":43.27371,"lon":5.3624,"is_reserved":false,"is_disabled":false,"rental_uris":{"android":"levelo://app?vid=37ee34ea-f1e1-4241-a19a-4060e53b71a9","ios":"levelo://app?vid=37ee34ea-f1e1-4241-a19a-4060e53b71a9"},"vehicle_type_id":"4","last_reported":1756159787,"current_range_meters":12000,"station_id":"ce4bhbh2rcd13ifvqeo0","pricing_plan_id":"cebpf4jnsgd1na2vs0mg"},{"bike_id":"86d2145b-16e9-4b8c-bae9-dbe8fd0fb2d3","system_id":"levelo_inurba_marseille","lat":43.31222,"lon":5.36858,"is_reserved":false,"is_disabled":false,"rental_uris":{"android":"levelo://app?vid=86d2145b-16e9-4b8c-bae9-dbe8fd0fb2d3","ios":"levelo://app?vid=86d2145b-16e9-4b8c-bae9-dbe8fd0fb2d3"},"vehicle_type_id":"4","last_reported":1756159787,"current_range_meters":12400,"station_id":"ce4bgl92rcd13ifvqbq0","pricing_plan_id":"cebpf4jnsgd1na2vs0mg"},{"bike_id":"d94a3e2d-afbd-4e20-9e99-a5beeae0f186","system_id":"levelo_inurba_marseille","lat":43.2815,"lon":5.4263,"is_reserved":false,"is_disabled":false,"rental_uris":{"android":"levelo://app?vid=d94a3e2d-afbd-4e20-9e99-a5beeae0f186","ios":"levelo://app?vid=d94a3e2d-afbd-4e20-9e99-a5beeae0f186"},"vehicle_type_id":"4","last_reported":1756159787,"current_range_meters":12400,"station_id":"ce4bhnh2rcd13ifvqgug","pricing_plan_id":"cebpf4jnsgd1na2vs0mg"},{"bike_id":"13ca7797-00d8-41a0-8d1a-2644e37419ca","system_id":"levelo_inurba_marseille","lat":43.286393,"lon":5.350816,"is_reserved":false,"is_disabled":true,"rental_uris":{"android":"levelo://app?vid=13ca7797-00d8-41a0-8d1a-2644e37419ca","ios":"levelo://app?vid=13ca7797-00d8-41a0-8d1a-2644e37419ca"},"vehicle_type_id":"4","last_reported":1756159787,"current_range_meters":12400,"station_id":"ce4bhch2rcd13ifvqeug","pricing_plan_id":"cebpf4jnsgd1na2vs0mg"},{"bike_id":"7189d6f5-1678-4c32-8153-93fc07bd4708","system_id":"levelo_inurba_marseille","lat":43.28698,"lon":5.39986,"is_reserved":false,"is_disabled":false,"rental_uris":{"android":"levelo://app?vid=7189d6f5-1678-4c32-8153-93fc07bd4708","ios":"levelo://app?vid=7189d6f5-1678-4c32-8153-93fc07bd4708"},"vehicle_type_id":"4","last_reported":1756159787,"current_range_meters":12400,"station_id":"ce4bho92rcd13ifvqh3g","pricing_plan_id":"cebpf4jnsgd1na2vs0mg"},{"bike_id":"01a29392-8b5c-42c8-9a48-f0ad02749a8b","system_id":"levelo_inurba_marseille","lat":43.27312,"lon":5.39126,"is_reserved":false,"is_disabled":true,"rental_uris":{"android":"levelo://app?vid=01a29392-8b5c-42c8-9a48-f0ad02749a8b","ios":"levelo://app?vid=01a29392-8b5c-42c8-9a48-f0ad02749a8b"},"vehicle_type_id":"4","last_reported":1756159787,"current_range_meters":12400,"station_id":"ce4bhgp2rcd13ifvqfe0","pricing_plan_id":"cebpf4jnsgd1na2vs0mg"},{"bike_id":"3f4a45cc-e5bb-4b35-88d4-61431d4f60e6","system_id":"levelo_inurba_marseille","lat":43.32906,"lon":5.39067,"is_reserved":false,"is_disabled":false,"rental_uris":{"android":"levelo://app?vid=3f4a45cc-e5bb-4b35-88d4-61431d4f60e6","ios":"levelo://app?vid=3f4a45cc-e5bb-4b35-88d4-61431d4f60e6"},"vehicle_type_id":"4","last_reported":1756159787,"current_range_meters":12800,"station_id":"","pricing_plan_id":"cebpf4jnsgd1na2vs0mg"},{"bike_id":"f1fe5379-1bdf-4970-ae21-6bf7f8fac95a","system_id":"levelo_inurba_marseille","lat":43.294877,"lon":5.378683,"is_reserved":false,"is_disabled":false,"rental_uris":{"android":"levelo://app?vid=f1fe5379-1bdf-4970-ae21-6bf7f8fac95a","ios":"levelo://app?vid=f1fe5379-1bdf-4970-ae21-6bf7f8fac95a"},"vehicle_type_id":"4","last_reported":1756159787,"current_range_meters":12800,"station_id":"","pricing_plan_id":"cebpf4jnsgd1na2vs0mg"},{"bike_id":"bd1562d8-14ab-4cec-b766-66e9e9a64fa6","system_id":"levelo_inurba_marseille","lat":43.25004,"lon":5.38922,"is_reserved":false,"is_disabled":false,"rental_uris":{"android":"levelo://app?vid=bd1562d8-14ab-4cec-b766-66e9e9a64fa6","ios":"levelo://app?vid=bd1562d8-14ab-4cec-b766-66e9e9a64fa6"},"vehicle_type_id":"4","last_reported":1756159787,"current_range_meters":12800,"station_id":"ce4bhgp2rcd13ifvqfd0","pricing_plan_id":"cebpf4jnsgd1na2vs0mg"},{"bike_id":"d0999127-b16f-4437-8178-2bcfe37baaed","system_id":"levelo_inurba_marseille","lat":43.27832,"lon":5.40724,"is_reserved":false,"is_disabled":false,"rental_uris":{"android":"levelo://app?vid=d0999127-b16f-4437-8178-2bcfe37baaed","ios":"levelo://app?vid=d0999127-b16f-4437-8178-2bcfe37baaed"},"vehicle_type_id":"4","last_reported":1756159787,"current_range_meters":12800,"station_id":"ce4bhnh2rcd13ifvqgtg","pricing_plan_id":"cebpf4jnsgd1na2vs0mg"},{"bike_id":"78c01866-7c31-4b0c-93fb-94177f5e298a","system_id":"levelo_inurba_marseille","lat":43.229468,"lon":5.353916,"is_reserved":false,"is_disabled":false,"rental_uris":{"android":"levelo://app?vid=78c01866-7c31-4b0c-93fb-94177f5e298a","ios":"levelo://app?vid=78c01866-7c31-4b0c-93fb-94177f5e298a"},"vehicle_type_id":"4","last_reported":1756159787,"current_range_meters":13600,"station_id":"cpo3532slgdg3j2ikp40","pricing_plan_id":"cebpf4jnsgd1na2vs0mg"},{"bike_id":"5ba2d190-af21-4270-8e2a-52173ed48b6f","system_id":"levelo_inurba_marseille","lat":43.27917,"lon":5.39576,"is_reserved":false,"is_disabled":false,"rental_uris":{"android":"levelo://app?vid=5ba2d190-af21-4270-8e2a-52173ed48b6f","ios":"levelo://app?vid=5ba2d190-af21-4270-8e2a-52173ed48b6f"},"vehicle_type_id":"4","last_reported":1756159787,"current_range_meters":13600,"station_id":"ce4bhf92rcd13ifvqf40","pricing_plan_id":"cebpf4jnsgd1na2vs0mg"},{"bike_id":"c47b2876-c564-417f-9d7f-97cdd2f94270","system_id":"levelo_inurba_marseille","lat":43.2417,"lon":5.36392,"is_reserved":false,"is_disabled":false,"rental_uris":{"android":"levelo://app?vid=c47b2876-c564-417f-9d7f-97cdd2f94270","ios":"levelo://app?vid=c47b2876-c564-417f-9d7f-97cdd2f94270"},"vehicle_type_id":"4","last_reported":1756159787,"current_range_meters":13600,"station_id":"cpo36qri1sfpv3e86is0","pricing_plan_id":"cebpf4jnsgd1na2vs0mg"},{"bike_id":"322142a9-6cb3-49c2-bb0e-0e2c0fda1e2e","system_id":"levelo_inurba_marseille","lat":43.32978,"lon":5.39029,"is_reserved":false,"is_disabled":false,"rental_uris":{"android":"levelo://app?vid=322142a9-6cb3-49c2-bb0e-0e2c0fda1e2e","ios":"levelo://app?vid=322142a9-6cb3-49c2-bb0e-0e2c0fda1e2e"},"vehicle_type_id":"4","last_reported":1756159787,"current_range_meters":13600,"station_id":"ce4bhr92rcd13ifvqhrg","pricing_plan_id":"cebpf4jnsgd1na2vs0mg"},{"bike_id":"161b023b-749b-4341-aafc-4b4374f405d6","system_id":"levelo_inurba_marseille","lat":43.30368,"lon":5.42486,"is_reserved":false,"is_disabled":false,"rental_uris":{"android":"levelo://app?vid=161b023b-749b-4341-aafc-4b4374f405d6","ios":"levelo://app?vid=161b023b-749b-4341-aafc-4b4374f405d6"},"vehicle_type_id":"4","last_reported":1756159787,"current_range_meters":14000,"station_id":"ce4bhoh2rcd13ifvqh6g","pricing_plan_id":"cebpf4jnsgd1na2vs0mg"},{"bike_id":"2cb3c564-fbdd-46e4-9a16-b8f4e6f31c63","system_id":"levelo_inurba_marseille","lat":43.26049,"lon":5.39404,"is_reserved":false,"is_disabled":true,"rental_uris":{"android":"levelo://app?vid=2cb3c564-fbdd-46e4-9a16-b8f4e6f31c63","ios":"levelo://app?vid=2cb3c564-fbdd-46e4-9a16-b8f4e6f31c63"},"vehicle_type_id":"4","last_reported":1756159787,"current_range_meters":14000,"station_id":"ce4bhh92rcd13ifvqfj0","pricing_plan_id":"cebpf4jnsgd1na2vs0mg"},{"bike_id":"28518127-acdb-46a6-aaca-50eb9f6059f9","system_id":"levelo_inurba_marseille","lat":43.31495,"lon":5.37308,"is_reserved":false,"is_disabled":false,"rental_uris":{"android":"levelo://app?vid=28518127-acdb-46a6-aaca-50eb9f6059f9","ios":"levelo://app?vid=28518127-acdb-46a6-aaca-50eb9f6059f9"},"vehicle_type_id":"4","last_reported":1756159787,"current_range_meters":14000,"station_id":"ce4bgt12rcd13ifvqcd0","pricing_plan_id":"cebpf4jnsgd1na2vs0mg"},{"bike_id":"c676dccd-ea96-467b-a7a4-8b7521ddd99d","system_id":"levelo_inurba_marseille","lat":43.2511,"lon":5.40326,"is_reserved":false,"is_disabled":false,"rental_uris":{"android":"levelo://app?vid=c676dccd-ea96-467b-a7a4-8b7521ddd99d","ios":"levelo://app?vid=c676dccd-ea96-467b-a7a4-8b7521ddd99d"},"vehicle_type_id":"4","last_reported":1756159787,"current_range_meters":14000,"station_id":"ce4bhlh2rcd13ifvqgig","pricing_plan_id":"cebpf4jnsgd1na2vs0mg"},{"bike_id":"f6ab8208-fdff-4e27-a025-d00fe690f9b7","system_id":"levelo_inurba_marseille","lat":43.2781,"lon":5.40711,"is_reserved":false,"is_disabled":false,"rental_uris":{"android":"levelo://app?vid=f6ab8208-fdff-4e27-a025-d00fe690f9b7","ios":"levelo://app?vid=f6ab8208-fdff-4e27-a025-d00fe690f9b7"},"vehicle_type_id":"4","last_reported":1756159787,"current_range_meters":14000,"station_id":"ce4bhnh2rcd13ifvqgtg","pricing_plan_id":"cebpf4jnsgd1na2vs0mg"},{"bike_id":"f1dba28a-7029-4f42-948a-cef022aeae97","system_id":"levelo_inurba_marseille","lat":43.30095,"lon":5.39073,"is_reserved":false,"is_disabled":false,"rental_uris":{"android":"levelo://app?vid=f1dba28a-7029-4f42-948a-cef022aeae97","ios":"levelo://app?vid=f1dba28a-7029-4f42-948a-cef022aeae97"},"vehicle_type_id":"4","last_reported":1756159787,"current_range_meters":14000,"station_id":"ce4bh192rcd13ifvqdb0","pricing_plan_id":"cebpf4jnsgd1na2vs0mg"},{"bike_id":"959685c0-6d9e-49e3-a405-c30ec1616e26","system_id":"levelo_inurba_marseille","lat":43.24649,"lon":5.38894,"is_reserved":false,"is_disabled":false,"rental_uris":{"android":"levelo://app?vid=959685c0-6d9e-49e3-a405-c30ec1616e26","ios":"levelo://app?vid=959685c0-6d9e-49e3-a405-c30ec1616e26"},"vehicle_type_id":"4","last_reported":1756159787,"current_range_meters":14000,"station_id":"ce4bhg12rcd13ifvqf60","pricing_plan_id":"cebpf4jnsgd1na2vs0mg"},{"bike_id":"8b09d6e8-3175-46a4-a882-3f13b9ad4be3","system_id":"levelo_inurba_marseille","lat":43.24635,"lon":5.4315,"is_reserved":false,"is_disabled":false,"rental_uris":{"android":"levelo://app?vid=8b09d6e8-3175-46a4-a882-3f13b9ad4be3","ios":"levelo://app?vid=8b09d6e8-3175-46a4-a882-3f13b9ad4be3"},"vehicle_type_id":"4","last_reported":1756159787,"current_range_meters":14000,"station_id":"st_d2m6c4gdas8pm72e190g","pricing_plan_id":"cebpf4jnsgd1na2vs0mg"},{"bike_id":"89f7b340-1be7-40f8-a3ee-1bb5c0729786","system_id":"levelo_inurba_marseille","lat":43.32524,"lon":5.41478,"is_reserved":false,"is_disabled":true,"rental_uris":{"android":"levelo://app?vid=89f7b340-1be7-40f8-a3ee-1bb5c0729786","ios":"levelo://app?vid=89f7b340-1be7-40f8-a3ee-1bb5c0729786"},"vehicle_type_id":"4","last_reported":1756159787,"current_range_meters":14000,"station_id":"ce4bhq12rcd13ifvqhhg","pricing_plan_id":"cebpf4jnsgd1na2vs0mg"},{"bike_id":"175d4d6c-90af-4fa7-a4f3-5bffbe2112bb","system_id":"levelo_inurba_marseille","lat":43.27213,"lon":5.39185,"is_reserved":false,"is_disabled":false,"rental_uris":{"android":"levelo://app?vid=175d4d6c-90af-4fa7-a4f3-5bffbe2112bb","ios":"levelo://app?vid=175d4d6c-90af-4fa7-a4f3-5bffbe2112bb"},"vehicle_type_id":"4","last_reported":1756159787,"current_range_meters":14400,"station_id":"ce4bhhp2rcd13ifvqfm0","pricing_plan_id":"cebpf4jnsgd1na2vs0mg"},{"bike_id":"fd4a67e8-6ee6-48ff-a9f2-0b08e1c025de","system_id":"levelo_inurba_marseille","lat":43.25118,"lon":5.40328,"is_reserved":false,"is_disabled":true,"rental_uris":{"android":"levelo://app?vid=fd4a67e8-6ee6-48ff-a9f2-0b08e1c025de","ios":"levelo://app?vid=fd4a67e8-6ee6-48ff-a9f2-0b08e1c025de"},"vehicle_type_id":"4","last_reported":1756159787,"current_range_meters":14400,"station_id":"ce4bhlh2rcd13ifvqgig","pricing_plan_id":"cebpf4jnsgd1na2vs0mg"},{"bike_id":"66fe0d3d-3f11-4f9b-b708-9233fa227550","system_id":"levelo_inurba_marseille","lat":43.31463,"lon":5.37385,"is_reserved":false,"is_disabled":false,"rental_uris":{"android":"levelo://app?vid=66fe0d3d-3f11-4f9b-b708-9233fa227550","ios":"levelo://app?vid=66fe0d3d-3f11-4f9b-b708-9233fa227550"},"vehicle_type_id":"4","last_reported":1756159787,"current_range_meters":14400,"station_id":"","pricing_plan_id":"cebpf4jnsgd1na2vs0mg"},{"bike_id":"999f1b99-11e2-4673-abf1-59581d0753f4","system_id":"levelo_inurba_marseille","lat":43.21757,"lon":5.34602,"is_reserved":false,"is_disabled":true,"rental_uris":{"android":"levelo://app?vid=999f1b99-11e2-4673-abf1-59581d0753f4","ios":"levelo://app?vid=999f1b99-11e2-4673-abf1-59581d0753f4"},"vehicle_type_id":"4","last_reported":1756159787,"current_range_meters":14400,"station_id":"st_cvj6r9ubvosntc0bgbag","pricing_plan_id":"cebpf4jnsgd1na2vs0mg"},{"bike_id":"ca68a09e-7a49-42de-bfe7-f4136abaacce","system_id":"levelo_inurba_marseille","lat":43.285269,"lon":5.372334,"is_reserved":false,"is_disabled":false,"rental_uris":{"android":"levelo://app?vid=ca68a09e-7a49-42de-bfe7-f4136abaacce","ios":"levelo://app?vid=ca68a09e-7a49-42de-bfe7-f4136abaacce"},"vehicle_type_id":"4","last_reported":1756159787,"current_range_meters":14400,"station_id":"","pricing_plan_id":"cebpf4jnsgd1na2vs0mg"},{"bike_id":"909f8a34-207c-47bc-a045-0789f6825cce","system_id":"levelo_inurba_marseille","lat":43.21749,"lon":5.34619,"is_reserved":false,"is_disabled":true,"rental_uris":{"android":"levelo://app?vid=909f8a34-207c-47bc-a045-0789f6825cce","ios":"levelo://app?vid=909f8a34-207c-47bc-a045-0789f6825cce"},"vehicle_type_id":"4","last_reported":1756159787,"current_range_meters":14400,"station_id":"st_cvj6r9ubvosntc0bgbag","pricing_plan_id":"cebpf4jnsgd1na2vs0mg"},{"bike_id":"b781a5a0-6633-425e-89d0-234145a32713","system_id":"levelo_inurba_marseille","lat":43.29595,"lon":5.38047,"is_reserved":false,"is_disabled":false,"rental_uris":{"android":"levelo://app?vid=b781a5a0-6633-425e-89d0-234145a32713","ios":"levelo://app?vid=b781a5a0-6633-425e-89d0-234145a32713"},"vehicle_type_id":"4","last_reported":1756159787,"current_range_meters":14400,"station_id":"ce4bgl12rcd13ifvqbo0","pricing_plan_id":"cebpf4jnsgd1na2vs0mg"},{"bike_id":"3e3169e7-1702-48fc-825b-2fcd7adf6998","system_id":"levelo_inurba_marseille","lat":43.31324,"lon":5.39698,"is_reserved":false,"is_disabled":false,"rental_uris":{"android":"levelo://app?vid=3e3169e7-1702-48fc-825b-2fcd7adf6998","ios":"levelo://app?vid=3e3169e7-1702-48fc-825b-2fcd7adf6998"},"vehicle_type_id":"4","last_reported":1756159787,"current_range_meters":14800,"station_id":"ce4bgvp2rcd13ifvqcu0","pricing_plan_id":"cebpf4jnsgd1na2vs0mg"},{"bike_id":"e8eb7a1e-ea14-4883-a1e0-2f92f1badc7e","system_id":"levelo_inurba_marseille","lat":43.31401,"lon":5.36899,"is_reserved":false,"is_disabled":false,"rental_uris":{"android":"levelo://app?vid=e8eb7a1e-ea14-4883-a1e0-2f92f1badc7e","ios":"levelo://app?vid=e8eb7a1e-ea14-4883-a1e0-2f92f1badc7e"},"vehicle_type_id":"4","last_reported":1756159787,"current_range_meters":14800,"station_id":"ce4bgl92rcd13ifvqbq0","pricing_plan_id":"cebpf4jnsgd1na2vs0mg"},{"bike_id":"c8f19ab0-2650-42bf-bf99-315bb14cecb1","system_id":"levelo_inurba_marseille","lat":43.3235,"lon":5.36725,"is_reserved":false,"is_disabled":false,"rental_uris":{"android":"levelo://app?vid=c8f19ab0-2650-42bf-bf99-315bb14cecb1","ios":"levelo://app?vid=c8f19ab0-2650-42bf-bf99-315bb14cecb1"},"vehicle_type_id":"4","last_reported":1756159787,"current_range_meters":14800,"station_id":"ce4bhsh2rcd13ifvqi2g","pricing_plan_id":"cebpf4jnsgd1na2vs0mg"},{"bike_id":"a14433c3-7aa9-4f80-9c97-d039e5623647","system_id":"levelo_inurba_marseille","lat":43.28702,"lon":5.37384,"is_reserved":false,"is_disabled":false,"rental_uris":{"android":"levelo://app?vid=a14433c3-7aa9-4f80-9c97-d039e5623647","ios":"levelo://app?vid=a14433c3-7aa9-4f80-9c97-d039e5623647"},"vehicle_type_id":"4","last_reported":1756159787,"current_range_meters":14800,"station_id":"ce4bh3p2rcd13ifvqdq0","pricing_plan_id":"cebpf4jnsgd1na2vs0mg"},{"bike_id":"775ebe74-e9df-4d46-9123-f2aaf95bd712","system_id":"levelo_inurba_marseille","lat":43.24804,"lon":5.37451,"is_reserved":false,"is_disabled":false,"rental_uris":{"android":"levelo://app?vid=775ebe74-e9df-4d46-9123-f2aaf95bd712","ios":"levelo://app?vid=775ebe74-e9df-4d46-9123-f2aaf95bd712"},"vehicle_type_id":"4","last_reported":1756159787,"current_range_meters":14800,"station_id":"ce4bhgh2rcd13ifvqfb0","pricing_plan_id":"cebpf4jnsgd1na2vs0mg"},{"bike_id":"a402f331-89e6-4f87-bad7-42037a547549","system_id":"levelo_inurba_marseille","lat":43.28333,"lon":5.38111,"is_reserved":false,"is_disabled":false,"rental_uris":{"android":"levelo://app?vid=a402f331-89e6-4f87-bad7-42037a547549","ios":"levelo://app?vid=a402f331-89e6-4f87-bad7-42037a547549"},"vehicle_type_id":"4","last_reported":1756159787,"current_range_meters":14800,"station_id":"ce4bh412rcd13ifvqdr0","pricing_plan_id":"cebpf4jnsgd1na2vs0mg"},{"bike_id":"268cd559-7a2d-4e5c-bedb-fd24d5efe9ac","system_id":"levelo_inurba_marseille","lat":43.32685,"lon":5.4099,"is_reserved":false,"is_disabled":false,"rental_uris":{"android":"levelo://app?vid=268cd559-7a2d-4e5c-bedb-fd24d5efe9ac","ios":"levelo://app?vid=268cd559-7a2d-4e5c-bedb-fd24d5efe9ac"},"vehicle_type_id":"4","last_reported":1756159787,"current_range_meters":14800,"station_id":"ce4bhpp2rcd13ifvqhgg","pricing_plan_id":"cebpf4jnsgd1na2vs0mg"},{"bike_id":"8857da2d-18c4-4517-ab0f-603ccd2730ac","system_id":"levelo_inurba_marseille","lat":43.3045,"lon":5.379,"is_reserved":false,"is_disabled":true,"rental_uris":{"android":"levelo://app?vid=8857da2d-18c4-4517-ab0f-603ccd2730ac","ios":"levelo://app?vid=8857da2d-18c4-4517-ab0f-603ccd2730ac"},"vehicle_type_id":"4","last_reported":1756159787,"current_range_meters":15200,"station_id":"ce4bgup2rcd13ifvqcn0","pricing_plan_id":"cebpf4jnsgd1na2vs0mg"},{"bike_id":"be11ee8e-d6e8-4b5a-9526-c98af2d376fa","system_id":"levelo_inurba_marseille","lat":43.28139,"lon":5.42681,"is_reserved":false,"is_disabled":false,"rental_uris":{"android":"levelo://app?vid=be11ee8e-d6e8-4b5a-9526-c98af2d376fa","ios":"levelo://app?vid=be11ee8e-d6e8-4b5a-9526-c98af2d376fa"},"vehicle_type_id":"4","last_reported":1756159787,"current_range_meters":15200,"station_id":"ce4bhnh2rcd13ifvqgug","pricing_plan_id":"cebpf4jnsgd1na2vs0mg"},{"bike_id":"1e717a90-c853-4831-a30a-21a593345e4c","system_id":"levelo_inurba_marseille","lat":43.28457,"lon":5.35898,"is_reserved":false,"is_disabled":false,"rental_uris":{"android":"levelo://app?vid=1e717a90-c853-4831-a30a-21a593345e4c","ios":"levelo://app?vid=1e717a90-c853-4831-a30a-21a593345e4c"},"vehicle_type_id":"4","last_reported":1756159787,"current_range_meters":15200,"station_id":"ce4bhah2rcd13ifvqei0","pricing_plan_id":"cebpf4jnsgd1na2vs0mg"},{"bike_id":"98c4a777-d08d-4499-b8f3-ad0ad80b1228","system_id":"levelo_inurba_marseille","lat":43.29808,"lon":5.38082,"is_reserved":false,"is_disabled":false,"rental_uris":{"android":"levelo://app?vid=98c4a777-d08d-4499-b8f3-ad0ad80b1228","ios":"levelo://app?vid=98c4a777-d08d-4499-b8f3-ad0ad80b1228"},"vehicle_type_id":"4","last_reported":1756159787,"current_range_meters":15200,"station_id":"ce4bgip2rcd13ifvqbb0","pricing_plan_id":"cebpf4jnsgd1na2vs0mg"},{"bike_id":"af732ca8-2cea-448a-9928-59e03d12656f","system_id":"levelo_inurba_marseille","lat":43.33582,"lon":5.35877,"is_reserved":false,"is_disabled":false,"rental_uris":{"android":"levelo://app?vid=af732ca8-2cea-448a-9928-59e03d12656f","ios":"levelo://app?vid=af732ca8-2cea-448a-9928-59e03d12656f"},"vehicle_type_id":"4","last_reported":1756159787,"current_range_meters":15200,"station_id":"","pricing_plan_id":"cebpf4jnsgd1na2vs0mg"},{"bike_id":"a610f857-6803-4aa7-8dc2-44ac01e95d58","system_id":"levelo_inurba_marseille","lat":43.28661,"lon":5.36352,"is_reserved":false,"is_disabled":false,"rental_uris":{"android":"levelo://app?vid=a610f857-6803-4aa7-8dc2-44ac01e95d58","ios":"levelo://app?vid=a610f857-6803-4aa7-8dc2-44ac01e95d58"},"vehicle_type_id":"4","last_reported":1756159787,"current_range_meters":15200,"station_id":"ce4bhah2rcd13ifvqej0","pricing_plan_id":"cebpf4jnsgd1na2vs0mg"},{"bike_id":"7b43efcb-8762-4c7d-8e32-a6fa51130619","system_id":"levelo_inurba_marseille","lat":43.28419,"lon":5.37514,"is_reserved":false,"is_disabled":false,"rental_uris":{"android":"levelo://app?vid=7b43efcb-8762-4c7d-8e32-a6fa51130619","ios":"levelo://app?vid=7b43efcb-8762-4c7d-8e32-a6fa51130619"},"vehicle_type_id":"4","last_reported":1756159787,"current_range_meters":15200,"station_id":"ce4bh412rcd13ifvqds0","pricing_plan_id":"cebpf4jnsgd1na2vs0mg"},{"bike_id":"e2b0f307-cfe9-4ad5-b104-d661fcb0d809","system_id":"levelo_inurba_marseille","lat":43.229239,"lon":5.353812,"is_reserved":false,"is_disabled":false,"rental_uris":{"android":"levelo://app?vid=e2b0f307-cfe9-4ad5-b104-d661fcb0d809","ios":"levelo://app?vid=e2b0f307-cfe9-4ad5-b104-d661fcb0d809"},"vehicle_type_id":"4","last_reported":1756159787,"current_range_meters":16000,"station_id":"cpo3532slgdg3j2ikp40","pricing_plan_id":"cebpf4jnsgd1na2vs0mg"},{"bike_id":"6030ebdc-126c-463d-a229-e3b8a84b3c35","system_id":"levelo_inurba_marseille","lat":43.29798,"lon":5.39342,"is_reserved":false,"is_disabled":false,"rental_uris":{"android":"levelo://app?vid=6030ebdc-126c-463d-a229-e3b8a84b3c35","ios":"levelo://app?vid=6030ebdc-126c-463d-a229-e3b8a84b3c35"},"vehicle_type_id":"4","last_reported":1756159787,"current_range_meters":16000,"station_id":"chh1huq6cuj3fo74tm60","pricing_plan_id":"cebpf4jnsgd1na2vs0mg"},{"bike_id":"278443b4-269a-4082-9316-7b2e5ce64d5e","system_id":"levelo_inurba_marseille","lat":43.25106,"lon":5.4033,"is_reserved":false,"is_disabled":true,"rental_uris":{"android":"levelo://app?vid=278443b4-269a-4082-9316-7b2e5ce64d5e","ios":"levelo://app?vid=278443b4-269a-4082-9316-7b2e5ce64d5e"},"vehicle_type_id":"4","last_reported":1756159787,"current_range_meters":16000,"station_id":"ce4bhlh2rcd13ifvqgig","pricing_plan_id":"cebpf4jnsgd1na2vs0mg"},{"bike_id":"e71013d2-dbe3-4826-8a5b-4baa1d2a4ed9","system_id":"levelo_inurba_marseille","lat":43.2928,"lon":5.40174,"is_reserved":false,"is_disabled":false,"rental_uris":{"android":"levelo://app?vid=e71013d2-dbe3-4826-8a5b-4baa1d2a4ed9","ios":"levelo://app?vid=e71013d2-dbe3-4826-8a5b-4baa1d2a4ed9"},"vehicle_type_id":"4","last_reported":1756159787,"current_range_meters":16000,"station_id":"","pricing_plan_id":"cebpf4jnsgd1na2vs0mg"},{"bike_id":"c30b301c-7f7b-494a-8ee4-1d6c5f9cce1b","system_id":"levelo_inurba_marseille","lat":43.28424,"lon":5.37485,"is_reserved":false,"is_disabled":true,"rental_uris":{"android":"levelo://app?vid=c30b301c-7f7b-494a-8ee4-1d6c5f9cce1b","ios":"levelo://app?vid=c30b301c-7f7b-494a-8ee4-1d6c5f9cce1b"},"vehicle_type_id":"4","last_reported":1756159787,"current_range_meters":16000,"station_id":"ce4bh412rcd13ifvqds0","pricing_plan_id":"cebpf4jnsgd1na2vs0mg"},{"bike_id":"8ea70c9a-6664-4e1d-9b58-499929bd3925","system_id":"levelo_inurba_marseille","lat":43.28719,"lon":5.37397,"is_reserved":false,"is_disabled":false,"rental_uris":{"android":"levelo://app?vid=8ea70c9a-6664-4e1d-9b58-499929bd3925","ios":"levelo://app?vid=8ea70c9a-6664-4e1d-9b58-499929bd3925"},"vehicle_type_id":"4","last_reported":1756159787,"current_range_meters":16000,"station_id":"ce4bh3p2rcd13ifvqdq0","pricing_plan_id":"cebpf4jnsgd1na2vs0mg"},{"bike_id":"643dbe3c-78ed-48c8-b230-3a389f8673b6","system_id":"levelo_inurba_marseille","lat":43.2872,"lon":5.3793,"is_reserved":false,"is_disabled":false,"rental_uris":{"android":"levelo://app?vid=643dbe3c-78ed-48c8-b230-3a389f8673b6","ios":"levelo://app?vid=643dbe3c-78ed-48c8-b230-3a389f8673b6"},"vehicle_type_id":"4","last_reported":1756159787,"current_range_meters":16000,"station_id":"ce4bh9p2rcd13ifvqec0","pricing_plan_id":"cebpf4jnsgd1na2vs0mg"},{"bike_id":"43e3b119-bc6d-43d6-bd47-b924c0bea29c","system_id":"levelo_inurba_marseille","lat":43.27945,"lon":5.41046,"is_reserved":false,"is_disabled":false,"rental_uris":{"android":"levelo://app?vid=43e3b119-bc6d-43d6-bd47-b924c0bea29c","ios":"levelo://app?vid=43e3b119-bc6d-43d6-bd47-b924c0bea29c"},"vehicle_type_id":"4","last_reported":1756159787,"current_range_meters":16000,"station_id":"ce4bhnp2rcd13ifvqh0g","pricing_plan_id":"cebpf4jnsgd1na2vs0mg"},{"bike_id":"3e130ff4-87da-4c51-a264-44d1f277fd66","system_id":"levelo_inurba_marseille","lat":43.32125,"lon":5.36726,"is_reserved":false,"is_disabled":false,"rental_uris":{"android":"levelo://app?vid=3e130ff4-87da-4c51-a264-44d1f277fd66","ios":"levelo://app?vid=3e130ff4-87da-4c51-a264-44d1f277fd66"},"vehicle_type_id":"4","last_reported":1756159787,"current_range_meters":16000,"station_id":"","pricing_plan_id":"cebpf4jnsgd1na2vs0mg"},{"bike_id":"6be30591-0a99-4a51-b5fb-adc6a4519459","system_id":"levelo_inurba_marseille","lat":43.25583,"lon":5.38246,"is_reserved":false,"is_disabled":false,"rental_uris":{"android":"levelo://app?vid=6be30591-0a99-4a51-b5fb-adc6a4519459","ios":"levelo://app?vid=6be30591-0a99-4a51-b5fb-adc6a4519459"},"vehicle_type_id":"4","last_reported":1756159787,"current_range_meters":16400,"station_id":"ce4bhih2rcd13ifvqfs0","pricing_plan_id":"cebpf4jnsgd1na2vs0mg"},{"bike_id":"b375d41b-9575-4c77-a6a9-d089747042e7","system_id":"levelo_inurba_marseille","lat":43.32273,"lon":5.36791,"is_reserved":false,"is_disabled":false,"rental_uris":{"android":"levelo://app?vid=b375d41b-9575-4c77-a6a9-d089747042e7","ios":"levelo://app?vid=b375d41b-9575-4c77-a6a9-d089747042e7"},"vehicle_type_id":"4","last_reported":1756159787,"current_range_meters":16400,"station_id":"","pricing_plan_id":"cebpf4jnsgd1na2vs0mg"},{"bike_id":"9c77b9b8-073e-4737-b3e8-33a6f7f80f6e","system_id":"levelo_inurba_marseille","lat":43.25,"lon":5.3892,"is_reserved":false,"is_disabled":false,"rental_uris":{"android":"levelo://app?vid=9c77b9b8-073e-4737-b3e8-33a6f7f80f6e","ios":"levelo://app?vid=9c77b9b8-073e-4737-b3e8-33a6f7f80f6e"},"vehicle_type_id":"4","last_reported":1756159787,"current_range_meters":16400,"station_id":"ce4bhgp2rcd13ifvqfd0","pricing_plan_id":"cebpf4jnsgd1na2vs0mg"},{"bike_id":"579ec967-0d20-4aa6-876f-64b0e7633fa6","system_id":"levelo_inurba_marseille","lat":43.29546,"lon":5.38548,"is_reserved":false,"is_disabled":false,"rental_uris":{"android":"levelo://app?vid=579ec967-0d20-4aa6-876f-64b0e7633fa6","ios":"levelo://app?vid=579ec967-0d20-4aa6-876f-64b0e7633fa6"},"vehicle_type_id":"4","last_reported":1756159787,"current_range_meters":16400,"station_id":"ce4bgih2rcd13ifvqba0","pricing_plan_id":"cebpf4jnsgd1na2vs0mg"},{"bike_id":"1ee55bf8-0332-46d8-a873-afb26ccc3d94","system_id":"levelo_inurba_marseille","lat":43.265589,"lon":5.390183,"is_reserved":false,"is_disabled":false,"rental_uris":{"android":"levelo://app?vid=1ee55bf8-0332-46d8-a873-afb26ccc3d94","ios":"levelo://app?vid=1ee55bf8-0332-46d8-a873-afb26ccc3d94"},"vehicle_type_id":"4","last_reported":1756159787,"current_range_meters":16400,"station_id":"ce4bhe12rcd13ifvqf30","pricing_plan_id":"cebpf4jnsgd1na2vs0mg"},{"bike_id":"8baf0c10-60f7-4c5f-b6db-cc324b5801b0","system_id":"levelo_inurba_marseille","lat":43.307878,"lon":5.376438,"is_reserved":false,"is_disabled":false,"rental_uris":{"android":"levelo://app?vid=8baf0c10-60f7-4c5f-b6db-cc324b5801b0","ios":"levelo://app?vid=8baf0c10-60f7-4c5f-b6db-cc324b5801b0"},"vehicle_type_id":"4","last_reported":1756159787,"current_range_meters":16400,"station_id":"ce4bgv92rcd13ifvqcq0","pricing_plan_id":"cebpf4jnsgd1na2vs0mg"},{"bike_id":"0d502687-08ef-4491-8893-8a03d8688be8","system_id":"levelo_inurba_marseille","lat":43.29606,"lon":5.36195,"is_reserved":false,"is_disabled":false,"rental_uris":{"android":"levelo://app?vid=0d502687-08ef-4491-8893-8a03d8688be8","ios":"levelo://app?vid=0d502687-08ef-4491-8893-8a03d8688be8"},"vehicle_type_id":"4","last_reported":1756159787,"current_range_meters":16400,"station_id":"","pricing_plan_id":"cebpf4jnsgd1na2vs0mg"},{"bike_id":"b36b4e79-4eed-4050-8588-e4b6181e90e7","system_id":"levelo_inurba_marseille","lat":43.23186,"lon":5.39993,"is_reserved":false,"is_disabled":false,"rental_uris":{"android":"levelo://app?vid=b36b4e79-4eed-4050-8588-e4b6181e90e7","ios":"levelo://app?vid=b36b4e79-4eed-4050-8588-e4b6181e90e7"},"vehicle_type_id":"4","last_reported":1756159787,"current_range_meters":16400,"station_id":"ce4bhn12rcd13ifvqgqg","pricing_plan_id":"cebpf4jnsgd1na2vs0mg"},{"bike_id":"7612c145-8535-4ccf-96ee-de62f40b9550","system_id":"levelo_inurba_marseille","lat":43.32373,"lon":5.38967,"is_reserved":false,"is_disabled":false,"rental_uris":{"android":"levelo://app?vid=7612c145-8535-4ccf-96ee-de62f40b9550","ios":"levelo://app?vid=7612c145-8535-4ccf-96ee-de62f40b9550"},"vehicle_type_id":"4","last_reported":1756159787,"current_range_meters":16400,"station_id":"","pricing_plan_id":"cebpf4jnsgd1na2vs0mg"},{"bike_id":"d8890a48-37ea-4a9d-9890-fccf52c8b289","system_id":"levelo_inurba_marseille","lat":43.29529,"lon":5.39037,"is_reserved":false,"is_disabled":false,"rental_uris":{"android":"levelo://app?vid=d8890a48-37ea-4a9d-9890-fccf52c8b289","ios":"levelo://app?vid=d8890a48-37ea-4a9d-9890-fccf52c8b289"},"vehicle_type_id":"4","last_reported":1756159787,"current_range_meters":16400,"station_id":"ce4bh3p2rcd13ifvqdp0","pricing_plan_id":"cebpf4jnsgd1na2vs0mg"},{"bike_id":"f84f46c8-243d-42cd-b308-2b289e4c09d3","system_id":"levelo_inurba_marseille","lat":43.334514,"lon":5.356717,"is_reserved":false,"is_disabled":false,"rental_uris":{"android":"levelo://app?vid=f84f46c8-243d-42cd-b308-2b289e4c09d3","ios":"levelo://app?vid=f84f46c8-243d-42cd-b308-2b289e4c09d3"},"vehicle_type_id":"4","last_reported":1756159787,"current_range_meters":16400,"station_id":"","pricing_plan_id":"cebpf4jnsgd1na2vs0mg"},{"bike_id":"29f7a212-aeba-4586-b026-8ceba1775990","system_id":"levelo_inurba_marseille","lat":43.31082,"lon":5.42442,"is_reserved":false,"is_disabled":false,"rental_uris":{"android":"levelo://app?vid=29f7a212-aeba-4586-b026-8ceba1775990","ios":"levelo://app?vid=29f7a212-aeba-4586-b026-8ceba1775990"},"vehicle_type_id":"4","last_reported":1756159787,"current_range_meters":16400,"station_id":"ce4bhp92rcd13ifvqhag","pricing_plan_id":"cebpf4jnsgd1na2vs0mg"},{"bike_id":"a0cc7492-b854-46c3-930d-3856e93b0571","system_id":"levelo_inurba_marseille","lat":43.29262,"lon":5.38439,"is_reserved":false,"is_disabled":false,"rental_uris":{"android":"levelo://app?vid=a0cc7492-b854-46c3-930d-3856e93b0571","ios":"levelo://app?vid=a0cc7492-b854-46c3-930d-3856e93b0571"},"vehicle_type_id":"4","last_reported":1756159787,"current_range_meters":16400,"station_id":"ce4bh692rcd13ifvqea0","pricing_plan_id":"cebpf4jnsgd1na2vs0mg"},{"bike_id":"fc44c56e-ee5a-45a6-935e-59b3ec343322","system_id":"levelo_inurba_marseille","lat":43.25109,"lon":5.40324,"is_reserved":false,"is_disabled":false,"rental_uris":{"android":"levelo://app?vid=fc44c56e-ee5a-45a6-935e-59b3ec343322","ios":"levelo://app?vid=fc44c56e-ee5a-45a6-935e-59b3ec343322"},"vehicle_type_id":"4","last_reported":1756159787,"current_range_meters":16400,"station_id":"ce4bhlh2rcd13ifvqgig","pricing_plan_id":"cebpf4jnsgd1na2vs0mg"},{"bike_id":"df00d23c-f251-4000-a7f0-91d5a6499b4c","system_id":"levelo_inurba_marseille","lat":43.29601,"lon":5.38087,"is_reserved":false,"is_disabled":false,"rental_uris":{"android":"levelo://app?vid=df00d23c-f251-4000-a7f0-91d5a6499b4c","ios":"levelo://app?vid=df00d23c-f251-4000-a7f0-91d5a6499b4c"},"vehicle_type_id":"4","last_reported":1756159787,"current_range_meters":16400,"station_id":"ce4bgl12rcd13ifvqbo0","pricing_plan_id":"cebpf4jnsgd1na2vs0mg"},{"bike_id":"43988c87-51ce-4992-a481-25f525deb229","system_id":"levelo_inurba_marseille","lat":43.30811,"lon":5.38171,"is_reserved":false,"is_disabled":false,"rental_uris":{"android":"levelo://app?vid=43988c87-51ce-4992-a481-25f525deb229","ios":"levelo://app?vid=43988c87-51ce-4992-a481-25f525deb229"},"vehicle_type_id":"4","last_reported":1756159787,"current_range_meters":16400,"station_id":"ce4bgt12rcd13ifvqce0","pricing_plan_id":"cebpf4jnsgd1na2vs0mg"},{"bike_id":"6fc2079e-5b3f-41c8-a7e3-90ecc13eb86c","system_id":"levelo_inurba_marseille","lat":43.3035,"lon":5.40439,"is_reserved":false,"is_disabled":false,"rental_uris":{"android":"levelo://app?vid=6fc2079e-5b3f-41c8-a7e3-90ecc13eb86c","ios":"levelo://app?vid=6fc2079e-5b3f-41c8-a7e3-90ecc13eb86c"},"vehicle_type_id":"4","last_reported":1756159787,"current_range_meters":16400,"station_id":"ce4bh012rcd13ifvqd10","pricing_plan_id":"cebpf4jnsgd1na2vs0mg"},{"bike_id":"34b05bf9-5565-47a9-a704-66fe97becf52","system_id":"levelo_inurba_marseille","lat":43.30598,"lon":5.3721,"is_reserved":false,"is_disabled":false,"rental_uris":{"android":"levelo://app?vid=34b05bf9-5565-47a9-a704-66fe97becf52","ios":"levelo://app?vid=34b05bf9-5565-47a9-a704-66fe97becf52"},"vehicle_type_id":"4","last_reported":1756159787,"current_range_meters":16800,"station_id":"ce4bgqh2rcd13ifvqc4g","pricing_plan_id":"cebpf4jnsgd1na2vs0mg"},{"bike_id":"9e570ae1-33db-425d-9529-cbab626f0414","system_id":"levelo_inurba_marseille","lat":43.31355,"lon":5.38484,"is_reserved":false,"is_disabled":false,"rental_uris":{"android":"levelo://app?vid=9e570ae1-33db-425d-9529-cbab626f0414","ios":"levelo://app?vid=9e570ae1-33db-425d-9529-cbab626f0414"},"vehicle_type_id":"4","last_reported":1756159787,"current_range_meters":16800,"station_id":"ce4bgt92rcd13ifvqcf0","pricing_plan_id":"cebpf4jnsgd1na2vs0mg"},{"bike_id":"50080086-5ad6-41c2-b993-d4f4d5e2439a","system_id":"levelo_inurba_marseille","lat":43.32853,"lon":5.39098,"is_reserved":false,"is_disabled":false,"rental_uris":{"android":"levelo://app?vid=50080086-5ad6-41c2-b993-d4f4d5e2439a","ios":"levelo://app?vid=50080086-5ad6-41c2-b993-d4f4d5e2439a"},"vehicle_type_id":"4","last_reported":1756159787,"current_range_meters":16800,"station_id":"ce4bhr92rcd13ifvqhrg","pricing_plan_id":"cebpf4jnsgd1na2vs0mg"},{"bike_id":"aa977a45-e946-4525-9cd1-e2a5ac5b0bcb","system_id":"levelo_inurba_marseille","lat":43.29282,"lon":5.40122,"is_reserved":false,"is_disabled":false,"rental_uris":{"android":"levelo://app?vid=aa977a45-e946-4525-9cd1-e2a5ac5b0bcb","ios":"levelo://app?vid=aa977a45-e946-4525-9cd1-e2a5ac5b0bcb"},"vehicle_type_id":"4","last_reported":1756159787,"current_range_meters":16800,"station_id":"ce4bh312rcd13ifvqdk0","pricing_plan_id":"cebpf4jnsgd1na2vs0mg"},{"bike_id":"646f9110-2a66-4564-9a7f-6b7d37387aba","system_id":"levelo_inurba_marseille","lat":43.29789,"lon":5.3934,"is_reserved":false,"is_disabled":false,"rental_uris":{"android":"levelo://app?vid=646f9110-2a66-4564-9a7f-6b7d37387aba","ios":"levelo://app?vid=646f9110-2a66-4564-9a7f-6b7d37387aba"},"vehicle_type_id":"4","last_reported":1756159787,"current_range_meters":16800,"station_id":"chh1huq6cuj3fo74tm60","pricing_plan_id":"cebpf4jnsgd1na2vs0mg"},{"bike_id":"e022ebb3-e2b1-4623-9b6a-f0e8d1502cf0","system_id":"levelo_inurba_marseille","lat":43.26223,"lon":5.40455,"is_reserved":false,"is_disabled":false,"rental_uris":{"android":"levelo://app?vid=e022ebb3-e2b1-4623-9b6a-f0e8d1502cf0","ios":"levelo://app?vid=e022ebb3-e2b1-4623-9b6a-f0e8d1502cf0"},"vehicle_type_id":"4","last_reported":1756159787,"current_range_meters":16800,"station_id":"ce4bhmh2rcd13ifvqgmg","pricing_plan_id":"cebpf4jnsgd1na2vs0mg"},{"bike_id":"c8cc20ec-2bd4-49c8-a936-de1642c2333c","system_id":"levelo_inurba_marseille","lat":43.30258,"lon":5.40077,"is_reserved":false,"is_disabled":false,"rental_uris":{"android":"levelo://app?vid=c8cc20ec-2bd4-49c8-a936-de1642c2333c","ios":"levelo://app?vid=c8cc20ec-2bd4-49c8-a936-de1642c2333c"},"vehicle_type_id":"4","last_reported":1756159787,"current_range_meters":16800,"station_id":"ce4bgvh2rcd13ifvqcs0","pricing_plan_id":"cebpf4jnsgd1na2vs0mg"},{"bike_id":"b891d3ff-c9da-40a4-99de-c8abd0aa5eb1","system_id":"levelo_inurba_marseille","lat":43.2438,"lon":5.37072,"is_reserved":false,"is_disabled":true,"rental_uris":{"android":"levelo://app?vid=b891d3ff-c9da-40a4-99de-c8abd0aa5eb1","ios":"levelo://app?vid=b891d3ff-c9da-40a4-99de-c8abd0aa5eb1"},"vehicle_type_id":"4","last_reported":1756159787,"current_range_meters":16800,"station_id":"ce4bhhh2rcd13ifvqfk0","pricing_plan_id":"cebpf4jnsgd1na2vs0mg"},{"bike_id":"2198d534-1e4e-4e7b-b2b3-d1e3dccee066","system_id":"levelo_inurba_marseille","lat":43.32117,"lon":5.36785,"is_reserved":false,"is_disabled":false,"rental_uris":{"android":"levelo://app?vid=2198d534-1e4e-4e7b-b2b3-d1e3dccee066","ios":"levelo://app?vid=2198d534-1e4e-4e7b-b2b3-d1e3dccee066"},"vehicle_type_id":"4","last_reported":1756159787,"current_range_meters":16800,"station_id":"ce4bhrh2rcd13ifvqhug","pricing_plan_id":"cebpf4jnsgd1na2vs0mg"},{"bike_id":"31fef4f9-2338-49d8-a486-1abcacc2b1f5","system_id":"levelo_inurba_marseille","lat":43.32336,"lon":5.40623,"is_reserved":false,"is_disabled":false,"rental_uris":{"android":"levelo://app?vid=31fef4f9-2338-49d8-a486-1abcacc2b1f5","ios":"levelo://app?vid=31fef4f9-2338-49d8-a486-1abcacc2b1f5"},"vehicle_type_id":"4","last_reported":1756159787,"current_range_meters":16800,"station_id":"ce4bhq92rcd13ifvqhjg","pricing_plan_id":"cebpf4jnsgd1na2vs0mg"},{"bike_id":"51842e17-ef10-4624-a23e-c8a182427991","system_id":"levelo_inurba_marseille","lat":43.31594,"lon":5.38202,"is_reserved":false,"is_disabled":false,"rental_uris":{"android":"levelo://app?vid=51842e17-ef10-4624-a23e-c8a182427991","ios":"levelo://app?vid=51842e17-ef10-4624-a23e-c8a182427991"},"vehicle_type_id":"4","last_reported":1756159787,"current_range_meters":16800,"station_id":"","pricing_plan_id":"cebpf4jnsgd1na2vs0mg"},{"bike_id":"5f9365e2-60dc-4158-a2c3-0e40911a7a32","system_id":"levelo_inurba_marseille","lat":43.33439,"lon":5.40051,"is_reserved":false,"is_disabled":false,"rental_uris":{"android":"levelo://app?vid=5f9365e2-60dc-4158-a2c3-0e40911a7a32","ios":"levelo://app?vid=5f9365e2-60dc-4158-a2c3-0e40911a7a32"},"vehicle_type_id":"4","last_reported":1756159787,"current_range_meters":16800,"station_id":"","pricing_plan_id":"cebpf4jnsgd1na2vs0mg"},{"bike_id":"db7d3d83-f39a-4469-8445-29697e69fec4","system_id":"levelo_inurba_marseille","lat":43.3224,"lon":5.38557,"is_reserved":false,"is_disabled":false,"rental_uris":{"android":"levelo://app?vid=db7d3d83-f39a-4469-8445-29697e69fec4","ios":"levelo://app?vid=db7d3d83-f39a-4469-8445-29697e69fec4"},"vehicle_type_id":"4","last_reported":1756159787,"current_range_meters":16800,"station_id":"","pricing_plan_id":"cebpf4jnsgd1na2vs0mg"},{"bike_id":"b92b68c3-c808-4f97-81eb-5fc5fbc4c9e6","system_id":"levelo_inurba_marseille","lat":43.2961,"lon":5.38098,"is_reserved":false,"is_disabled":false,"rental_uris":{"android":"levelo://app?vid=b92b68c3-c808-4f97-81eb-5fc5fbc4c9e6","ios":"levelo://app?vid=b92b68c3-c808-4f97-81eb-5fc5fbc4c9e6"},"vehicle_type_id":"4","last_reported":1756159787,"current_range_meters":16800,"station_id":"ce4bgl12rcd13ifvqbo0","pricing_plan_id":"cebpf4jnsgd1na2vs0mg"},{"bike_id":"8aa96da1-5e81-4713-98d1-a9fbd158fe4d","system_id":"levelo_inurba_marseille","lat":43.27561,"lon":5.3843,"is_reserved":false,"is_disabled":false,"rental_uris":{"android":"levelo://app?vid=8aa96da1-5e81-4713-98d1-a9fbd158fe4d","ios":"levelo://app?vid=8aa96da1-5e81-4713-98d1-a9fbd158fe4d"},"vehicle_type_id":"4","last_reported":1756159787,"current_range_meters":17200,"station_id":"ce4bhh92rcd13ifvqfi0","pricing_plan_id":"cebpf4jnsgd1na2vs0mg"},{"bike_id":"4464eccb-8cef-440f-8871-7a8f157bf59f","system_id":"levelo_inurba_marseille","lat":43.31118,"lon":5.37784,"is_reserved":false,"is_disabled":false,"rental_uris":{"android":"levelo://app?vid=4464eccb-8cef-440f-8871-7a8f157bf59f","ios":"levelo://app?vid=4464eccb-8cef-440f-8871-7a8f157bf59f"},"vehicle_type_id":"4","last_reported":1756159787,"current_range_meters":17200,"station_id":"ce4bgt92rcd13ifvqcg0","pricing_plan_id":"cebpf4jnsgd1na2vs0mg"},{"bike_id":"a15a1c44-718b-407d-acaa-0383628c87d7","system_id":"levelo_inurba_marseille","lat":43.32698,"lon":5.39208,"is_reserved":false,"is_disabled":false,"rental_uris":{"android":"levelo://app?vid=a15a1c44-718b-407d-acaa-0383628c87d7","ios":"levelo://app?vid=a15a1c44-718b-407d-acaa-0383628c87d7"},"vehicle_type_id":"4","last_reported":1756159787,"current_range_meters":17200,"station_id":"","pricing_plan_id":"cebpf4jnsgd1na2vs0mg"},{"bike_id":"f50e029c-78e4-4943-96e6-f587e062386c","system_id":"levelo_inurba_marseille","lat":43.31705,"lon":5.42422,"is_reserved":false,"is_disabled":false,"rental_uris":{"android":"levelo://app?vid=f50e029c-78e4-4943-96e6-f587e062386c","ios":"levelo://app?vid=f50e029c-78e4-4943-96e6-f587e062386c"},"vehicle_type_id":"4","last_reported":1756159787,"current_range_meters":17200,"station_id":"ce4bhp92rcd13ifvqhbg","pricing_plan_id":"cebpf4jnsgd1na2vs0mg"},{"bike_id":"45bc046a-ccea-4c00-b616-232704e6d7df","system_id":"levelo_inurba_marseille","lat":43.33048,"lon":5.3903,"is_reserved":false,"is_disabled":false,"rental_uris":{"android":"levelo://app?vid=45bc046a-ccea-4c00-b616-232704e6d7df","ios":"levelo://app?vid=45bc046a-ccea-4c00-b616-232704e6d7df"},"vehicle_type_id":"4","last_reported":1756159787,"current_range_meters":17200,"station_id":"ce4bhr92rcd13ifvqhrg","pricing_plan_id":"cebpf4jnsgd1na2vs0mg"},{"bike_id":"8712f85a-a105-41d0-8d5b-173a8d0d8c70","system_id":"levelo_inurba_marseille","lat":43.30437,"lon":5.38884,"is_reserved":false,"is_disabled":false,"rental_uris":{"android":"levelo://app?vid=8712f85a-a105-41d0-8d5b-173a8d0d8c70","ios":"levelo://app?vid=8712f85a-a105-41d0-8d5b-173a8d0d8c70"},"vehicle_type_id":"4","last_reported":1756159787,"current_range_meters":17200,"station_id":"ce4bgk12rcd13ifvqbi0","pricing_plan_id":"cebpf4jnsgd1na2vs0mg"},{"bike_id":"c52af379-7ffc-4800-a6f9-6e5ea70df2d5","system_id":"levelo_inurba_marseille","lat":43.24681,"lon":5.38159,"is_reserved":false,"is_disabled":false,"rental_uris":{"android":"levelo://app?vid=c52af379-7ffc-4800-a6f9-6e5ea70df2d5","ios":"levelo://app?vid=c52af379-7ffc-4800-a6f9-6e5ea70df2d5"},"vehicle_type_id":"4","last_reported":1756159787,"current_range_meters":17200,"station_id":"ce4bhih2rcd13ifvqfr0","pricing_plan_id":"cebpf4jnsgd1na2vs0mg"},{"bike_id":"96a0eeab-9497-4ad3-944b-4bedd9f0993a","system_id":"levelo_inurba_marseille","lat":43.324873,"lon":5.365782,"is_reserved":false,"is_disabled":true,"rental_uris":{"android":"levelo://app?vid=96a0eeab-9497-4ad3-944b-4bedd9f0993a","ios":"levelo://app?vid=96a0eeab-9497-4ad3-944b-4bedd9f0993a"},"vehicle_type_id":"4","last_reported":1756159787,"current_range_meters":17600,"station_id":"ce4bhs12rcd13ifvqhvg","pricing_plan_id":"cebpf4jnsgd1na2vs0mg"},{"bike_id":"72f6893b-e1a6-4741-aa57-e762849eda44","system_id":"levelo_inurba_marseille","lat":43.31784,"lon":5.39021,"is_reserved":false,"is_disabled":true,"rental_uris":{"android":"levelo://app?vid=72f6893b-e1a6-4741-aa57-e762849eda44","ios":"levelo://app?vid=72f6893b-e1a6-4741-aa57-e762849eda44"},"vehicle_type_id":"4","last_reported":1756159787,"current_range_meters":17600,"station_id":"ce4bhqp2rcd13ifvqhng","pricing_plan_id":"cebpf4jnsgd1na2vs0mg"},{"bike_id":"00749c5a-2954-4755-9f4f-2b966581ffb4","system_id":"levelo_inurba_marseille","lat":43.25,"lon":5.38941,"is_reserved":false,"is_disabled":false,"rental_uris":{"android":"levelo://app?vid=00749c5a-2954-4755-9f4f-2b966581ffb4","ios":"levelo://app?vid=00749c5a-2954-4755-9f4f-2b966581ffb4"},"vehicle_type_id":"4","last_reported":1756159787,"current_range_meters":17600,"station_id":"ce4bhgp2rcd13ifvqfd0","pricing_plan_id":"cebpf4jnsgd1na2vs0mg"},{"bike_id":"943d95a7-9535-411f-ba22-8068aaf6ac69","system_id":"levelo_inurba_marseille","lat":43.2958,"lon":5.38099,"is_reserved":false,"is_disabled":true,"rental_uris":{"android":"levelo://app?vid=943d95a7-9535-411f-ba22-8068aaf6ac69","ios":"levelo://app?vid=943d95a7-9535-411f-ba22-8068aaf6ac69"},"vehicle_type_id":"4","last_reported":1756159787,"current_range_meters":17600,"station_id":"ce4bgl12rcd13ifvqbo0","pricing_plan_id":"cebpf4jnsgd1na2vs0mg"},{"bike_id":"90106b61-39ba-4550-9728-cd6a51353a17","system_id":"levelo_inurba_marseille","lat":43.21198,"lon":5.35093,"is_reserved":false,"is_disabled":false,"rental_uris":{"android":"levelo://app?vid=90106b61-39ba-4550-9728-cd6a51353a17","ios":"levelo://app?vid=90106b61-39ba-4550-9728-cd6a51353a17"},"vehicle_type_id":"4","last_reported":1756159787,"current_range_meters":17600,"station_id":"st_cvj6sg6p6f1abm77japg","pricing_plan_id":"cebpf4jnsgd1na2vs0mg"},{"bike_id":"5af22e31-f422-4eab-907e-e70430da6cdb","system_id":"levelo_inurba_marseille","lat":43.298908,"lon":5.384825,"is_reserved":false,"is_disabled":false,"rental_uris":{"android":"levelo://app?vid=5af22e31-f422-4eab-907e-e70430da6cdb","ios":"levelo://app?vid=5af22e31-f422-4eab-907e-e70430da6cdb"},"vehicle_type_id":"4","last_reported":1756159787,"current_range_meters":16400,"station_id":"ce4bgih2rcd13ifvqba0","pricing_plan_id":"cebpf4jnsgd1na2vs0mg"},{"bike_id":"1c889b09-8cad-434d-bfd5-5f7e6198ad13","system_id":"levelo_inurba_marseille","lat":43.23208,"lon":5.39963,"is_reserved":false,"is_disabled":false,"rental_uris":{"android":"levelo://app?vid=1c889b09-8cad-434d-bfd5-5f7e6198ad13","ios":"levelo://app?vid=1c889b09-8cad-434d-bfd5-5f7e6198ad13"},"vehicle_type_id":"4","last_reported":1756159787,"current_range_meters":17600,"station_id":"ce4bhn12rcd13ifvqgqg","pricing_plan_id":"cebpf4jnsgd1na2vs0mg"},{"bike_id":"a26f5261-568d-460d-9855-d44099ff99f0","system_id":"levelo_inurba_marseille","lat":43.283602,"lon":5.386438,"is_reserved":false,"is_disabled":false,"rental_uris":{"android":"levelo://app?vid=a26f5261-568d-460d-9855-d44099ff99f0","ios":"levelo://app?vid=a26f5261-568d-460d-9855-d44099ff99f0"},"vehicle_type_id":"4","last_reported":1756159787,"current_range_meters":17600,"station_id":"ce4bh492rcd13ifvqdvg","pricing_plan_id":"cebpf4jnsgd1na2vs0mg"},{"bike_id":"52bc4315-a7c2-4586-a599-94c920651d09","system_id":"levelo_inurba_marseille","lat":43.2954,"lon":5.38539,"is_reserved":false,"is_disabled":false,"rental_uris":{"android":"levelo://app?vid=52bc4315-a7c2-4586-a599-94c920651d09","ios":"levelo://app?vid=52bc4315-a7c2-4586-a599-94c920651d09"},"vehicle_type_id":"4","last_reported":1756159787,"current_range_meters":18000,"station_id":"ce4bgih2rcd13ifvqba0","pricing_plan_id":"cebpf4jnsgd1na2vs0mg"},{"bike_id":"bc02a5a9-24a1-47e2-a1a2-98a74341ff43","system_id":"levelo_inurba_marseille","lat":43.26217,"lon":5.37439,"is_reserved":false,"is_disabled":false,"rental_uris":{"android":"levelo://app?vid=bc02a5a9-24a1-47e2-a1a2-98a74341ff43","ios":"levelo://app?vid=bc02a5a9-24a1-47e2-a1a2-98a74341ff43"},"vehicle_type_id":"4","last_reported":1756159787,"current_range_meters":18000,"station_id":"ce4bhgp2rcd13ifvqfc0","pricing_plan_id":"cebpf4jnsgd1na2vs0mg"},{"bike_id":"84d07858-c5f7-4661-885c-4d073483702d","system_id":"levelo_inurba_marseille","lat":43.29876,"lon":5.39731,"is_reserved":false,"is_disabled":false,"rental_uris":{"android":"levelo://app?vid=84d07858-c5f7-4661-885c-4d073483702d","ios":"levelo://app?vid=84d07858-c5f7-4661-885c-4d073483702d"},"vehicle_type_id":"4","last_reported":1756159787,"current_range_meters":18000,"station_id":"ce4bh0h2rcd13ifvqd50","pricing_plan_id":"cebpf4jnsgd1na2vs0mg"},{"bike_id":"f0c85809-eae3-4667-93f3-6a8b97e55bc3","system_id":"levelo_inurba_marseille","lat":43.28759,"lon":5.42935,"is_reserved":false,"is_disabled":false,"rental_uris":{"android":"levelo://app?vid=f0c85809-eae3-4667-93f3-6a8b97e55bc3","ios":"levelo://app?vid=f0c85809-eae3-4667-93f3-6a8b97e55bc3"},"vehicle_type_id":"4","last_reported":1756159787,"current_range_meters":18000,"station_id":"","pricing_plan_id":"cebpf4jnsgd1na2vs0mg"},{"bike_id":"ede3b0a3-5dde-4d38-b5e6-a55a4f1428bc","system_id":"levelo_inurba_marseille","lat":43.31491,"lon":5.3731,"is_reserved":false,"is_disabled":false,"rental_uris":{"android":"levelo://app?vid=ede3b0a3-5dde-4d38-b5e6-a55a4f1428bc","ios":"levelo://app?vid=ede3b0a3-5dde-4d38-b5e6-a55a4f1428bc"},"vehicle_type_id":"4","last_reported":1756159787,"current_range_meters":18000,"station_id":"ce4bgt12rcd13ifvqcd0","pricing_plan_id":"cebpf4jnsgd1na2vs0mg"},{"bike_id":"6ea4042e-31ac-46ff-92fb-d490e7c2b172","system_id":"levelo_inurba_marseille","lat":43.31324,"lon":5.39688,"is_reserved":false,"is_disabled":false,"rental_uris":{"android":"levelo://app?vid=6ea4042e-31ac-46ff-92fb-d490e7c2b172","ios":"levelo://app?vid=6ea4042e-31ac-46ff-92fb-d490e7c2b172"},"vehicle_type_id":"4","last_reported":1756159787,"current_range_meters":18000,"station_id":"ce4bgvp2rcd13ifvqcu0","pricing_plan_id":"cebpf4jnsgd1na2vs0mg"},{"bike_id":"96b831ad-46a8-4a91-bc52-948869fed356","system_id":"levelo_inurba_marseille","lat":43.27923,"lon":5.39576,"is_reserved":false,"is_disabled":false,"rental_uris":{"android":"levelo://app?vid=96b831ad-46a8-4a91-bc52-948869fed356","ios":"levelo://app?vid=96b831ad-46a8-4a91-bc52-948869fed356"},"vehicle_type_id":"4","last_reported":1756159787,"current_range_meters":18000,"station_id":"ce4bhf92rcd13ifvqf40","pricing_plan_id":"cebpf4jnsgd1na2vs0mg"},{"bike_id":"4b6d03d5-c489-44f5-894a-b511c0aa6886","system_id":"levelo_inurba_marseille","lat":43.29573,"lon":5.42298,"is_reserved":false,"is_disabled":false,"rental_uris":{"android":"levelo://app?vid=4b6d03d5-c489-44f5-894a-b511c0aa6886","ios":"levelo://app?vid=4b6d03d5-c489-44f5-894a-b511c0aa6886"},"vehicle_type_id":"4","last_reported":1756159787,"current_range_meters":18000,"station_id":"ce4bhph2rcd13ifvqhdg","pricing_plan_id":"cebpf4jnsgd1na2vs0mg"},{"bike_id":"2bede151-7a7f-4b87-aa7d-9c2554a5ad23","system_id":"levelo_inurba_marseille","lat":43.296,"lon":5.38102,"is_reserved":false,"is_disabled":false,"rental_uris":{"android":"levelo://app?vid=2bede151-7a7f-4b87-aa7d-9c2554a5ad23","ios":"levelo://app?vid=2bede151-7a7f-4b87-aa7d-9c2554a5ad23"},"vehicle_type_id":"4","last_reported":1756159787,"current_range_meters":18000,"station_id":"ce4bgl12rcd13ifvqbo0","pricing_plan_id":"cebpf4jnsgd1na2vs0mg"},{"bike_id":"b08d0d63-d495-4173-8c85-a055b48de9dc","system_id":"levelo_inurba_marseille","lat":43.29008,"lon":5.3561,"is_reserved":false,"is_disabled":true,"rental_uris":{"android":"levelo://app?vid=b08d0d63-d495-4173-8c85-a055b48de9dc","ios":"levelo://app?vid=b08d0d63-d495-4173-8c85-a055b48de9dc"},"vehicle_type_id":"4","last_reported":1756159787,"current_range_meters":18000,"station_id":"ce4bhb92rcd13ifvqen0","pricing_plan_id":"cebpf4jnsgd1na2vs0mg"},{"bike_id":"35e75433-5ab8-4e54-b75e-e9c5e810f2fe","system_id":"levelo_inurba_marseille","lat":43.29532,"lon":5.3855,"is_reserved":false,"is_disabled":false,"rental_uris":{"android":"levelo://app?vid=35e75433-5ab8-4e54-b75e-e9c5e810f2fe","ios":"levelo://app?vid=35e75433-5ab8-4e54-b75e-e9c5e810f2fe"},"vehicle_type_id":"4","last_reported":1756159787,"current_range_meters":18800,"station_id":"ce4bgih2rcd13ifvqba0","pricing_plan_id":"cebpf4jnsgd1na2vs0mg"},{"bike_id":"6eb4bfd2-933a-4e86-9c3d-f024618bb30f","system_id":"levelo_inurba_marseille","lat":43.30734,"lon":5.42435,"is_reserved":false,"is_disabled":false,"rental_uris":{"android":"levelo://app?vid=6eb4bfd2-933a-4e86-9c3d-f024618bb30f","ios":"levelo://app?vid=6eb4bfd2-933a-4e86-9c3d-f024618bb30f"},"vehicle_type_id":"4","last_reported":1756159787,"current_range_meters":18800,"station_id":"st_cvj6ca6bvosntc0bfgr0","pricing_plan_id":"cebpf4jnsgd1na2vs0mg"},{"bike_id":"826f9c0a-980b-43d8-bf4c-e43d77c221ed","system_id":"levelo_inurba_marseille","lat":43.23178,"lon":5.39987,"is_reserved":false,"is_disabled":false,"rental_uris":{"android":"levelo://app?vid=826f9c0a-980b-43d8-bf4c-e43d77c221ed","ios":"levelo://app?vid=826f9c0a-980b-43d8-bf4c-e43d77c221ed"},"vehicle_type_id":"4","last_reported":1756159787,"current_range_meters":18800,"station_id":"ce4bhn12rcd13ifvqgqg","pricing_plan_id":"cebpf4jnsgd1na2vs0mg"},{"bike_id":"f0400c37-c7f6-4929-b1ac-d92430ff6f2d","system_id":"levelo_inurba_marseille","lat":43.27633,"lon":5.39672,"is_reserved":false,"is_disabled":false,"rental_uris":{"android":"levelo://app?vid=f0400c37-c7f6-4929-b1ac-d92430ff6f2d","ios":"levelo://app?vid=f0400c37-c7f6-4929-b1ac-d92430ff6f2d"},"vehicle_type_id":"4","last_reported":1756159787,"current_range_meters":18800,"station_id":"","pricing_plan_id":"cebpf4jnsgd1na2vs0mg"},{"bike_id":"7415ee44-b784-4425-8885-4b31fadd6d10","system_id":"levelo_inurba_marseille","lat":43.295267,"lon":5.385551,"is_reserved":false,"is_disabled":false,"rental_uris":{"android":"levelo://app?vid=7415ee44-b784-4425-8885-4b31fadd6d10","ios":"levelo://app?vid=7415ee44-b784-4425-8885-4b31fadd6d10"},"vehicle_type_id":"4","last_reported":1756159787,"current_range_meters":18800,"station_id":"ce4bgih2rcd13ifvqba0","pricing_plan_id":"cebpf4jnsgd1na2vs0mg"},{"bike_id":"25005ec9-f891-41e5-8761-b371983667d5","system_id":"levelo_inurba_marseille","lat":43.28429,"lon":5.35,"is_reserved":false,"is_disabled":false,"rental_uris":{"android":"levelo://app?vid=25005ec9-f891-41e5-8761-b371983667d5","ios":"levelo://app?vid=25005ec9-f891-41e5-8761-b371983667d5"},"vehicle_type_id":"4","last_reported":1756159787,"current_range_meters":18800,"station_id":"ce4bhbh2rcd13ifvqepg","pricing_plan_id":"cebpf4jnsgd1na2vs0mg"},{"bike_id":"db84aae5-bd74-44c2-877e-c6a4b9a0199c","system_id":"levelo_inurba_marseille","lat":43.293198,"lon":5.371893,"is_reserved":false,"is_disabled":true,"rental_uris":{"android":"levelo://app?vid=db84aae5-bd74-44c2-877e-c6a4b9a0199c","ios":"levelo://app?vid=db84aae5-bd74-44c2-877e-c6a4b9a0199c"},"vehicle_type_id":"4","last_reported":1756159787,"current_range_meters":18800,"station_id":"ce4bgh92rcd13ifvqb40","pricing_plan_id":"cebpf4jnsgd1na2vs0mg"},{"bike_id":"150e78ac-a5f4-4248-9747-4c3d95090267","system_id":"levelo_inurba_marseille","lat":43.30931,"lon":5.4015,"is_reserved":false,"is_disabled":false,"rental_uris":{"android":"levelo://app?vid=150e78ac-a5f4-4248-9747-4c3d95090267","ios":"levelo://app?vid=150e78ac-a5f4-4248-9747-4c3d95090267"},"vehicle_type_id":"4","last_reported":1756159787,"current_range_meters":18800,"station_id":"ce4bgvp2rcd13ifvqct0","pricing_plan_id":"cebpf4jnsgd1na2vs0mg"},{"bike_id":"ff1cb3c0-6938-4213-b3d9-db0ef56b8bd3","system_id":"levelo_inurba_marseille","lat":43.31262,"lon":5.40167,"is_reserved":false,"is_disabled":false,"rental_uris":{"android":"levelo://app?vid=ff1cb3c0-6938-4213-b3d9-db0ef56b8bd3","ios":"levelo://app?vid=ff1cb3c0-6938-4213-b3d9-db0ef56b8bd3"},"vehicle_type_id":"4","last_reported":1756159787,"current_range_meters":18800,"station_id":"ce4bh092rcd13ifvqd30","pricing_plan_id":"cebpf4jnsgd1na2vs0mg"},{"bike_id":"547e9b96-9c55-431a-bfba-68a5bf6594bc","system_id":"levelo_inurba_marseille","lat":43.28994,"lon":5.35611,"is_reserved":false,"is_disabled":true,"rental_uris":{"android":"levelo://app?vid=547e9b96-9c55-431a-bfba-68a5bf6594bc","ios":"levelo://app?vid=547e9b96-9c55-431a-bfba-68a5bf6594bc"},"vehicle_type_id":"4","last_reported":1756159787,"current_range_meters":18800,"station_id":"ce4bhb92rcd13ifvqen0","pricing_plan_id":"cebpf4jnsgd1na2vs0mg"},{"bike_id":"bc4fabc1-49d3-4d30-ae41-26261331568a","system_id":"levelo_inurba_marseille","lat":43.28138,"lon":5.42656,"is_reserved":false,"is_disabled":false,"rental_uris":{"android":"levelo://app?vid=bc4fabc1-49d3-4d30-ae41-26261331568a","ios":"levelo://app?vid=bc4fabc1-49d3-4d30-ae41-26261331568a"},"vehicle_type_id":"4","last_reported":1756159787,"current_range_meters":18800,"station_id":"ce4bhnh2rcd13ifvqgug","pricing_plan_id":"cebpf4jnsgd1na2vs0mg"},{"bike_id":"c074df6b-f094-42e8-9430-f2f34f0ef1eb","system_id":"levelo_inurba_marseille","lat":43.29839,"lon":5.36308,"is_reserved":false,"is_disabled":true,"rental_uris":{"android":"levelo://app?vid=c074df6b-f094-42e8-9430-f2f34f0ef1eb","ios":"levelo://app?vid=c074df6b-f094-42e8-9430-f2f34f0ef1eb"},"vehicle_type_id":"4","last_reported":1756159787,"current_range_meters":18800,"station_id":"ce4bgpp2rcd13ifvqc3g","pricing_plan_id":"cebpf4jnsgd1na2vs0mg"},{"bike_id":"777a8c83-aed8-4881-84b6-34465956e738","system_id":"levelo_inurba_marseille","lat":43.25776,"lon":5.41085,"is_reserved":false,"is_disabled":false,"rental_uris":{"android":"levelo://app?vid=777a8c83-aed8-4881-84b6-34465956e738","ios":"levelo://app?vid=777a8c83-aed8-4881-84b6-34465956e738"},"vehicle_type_id":"4","last_reported":1756159787,"current_range_meters":18800,"station_id":"","pricing_plan_id":"cebpf4jnsgd1na2vs0mg"},{"bike_id":"507bfa7a-77ad-4faf-874f-5e94ad334f53","system_id":"levelo_inurba_marseille","lat":43.23186,"lon":5.39986,"is_reserved":false,"is_disabled":false,"rental_uris":{"android":"levelo://app?vid=507bfa7a-77ad-4faf-874f-5e94ad334f53","ios":"levelo://app?vid=507bfa7a-77ad-4faf-874f-5e94ad334f53"},"vehicle_type_id":"4","last_reported":1756159787,"current_range_meters":18800,"station_id":"ce4bhn12rcd13ifvqgqg","pricing_plan_id":"cebpf4jnsgd1na2vs0mg"},{"bike_id":"af744081-2681-4d1e-9525-a9843cca33d2","system_id":"levelo_inurba_marseille","lat":43.32523,"lon":5.36473,"is_reserved":false,"is_disabled":false,"rental_uris":{"android":"levelo://app?vid=af744081-2681-4d1e-9525-a9843cca33d2","ios":"levelo://app?vid=af744081-2681-4d1e-9525-a9843cca33d2"},"vehicle_type_id":"4","last_reported":1756159787,"current_range_meters":18800,"station_id":"","pricing_plan_id":"cebpf4jnsgd1na2vs0mg"},{"bike_id":"7a0f78c0-de72-441e-9980-f61fdfbfcdeb","system_id":"levelo_inurba_marseille","lat":43.30135,"lon":5.37388,"is_reserved":false,"is_disabled":false,"rental_uris":{"android":"levelo://app?vid=7a0f78c0-de72-441e-9980-f61fdfbfcdeb","ios":"levelo://app?vid=7a0f78c0-de72-441e-9980-f61fdfbfcdeb"},"vehicle_type_id":"4","last_reported":1756159787,"current_range_meters":19200,"station_id":"ce4bgs92rcd13ifvqcc0","pricing_plan_id":"cebpf4jnsgd1na2vs0mg"},{"bike_id":"67e8b54b-a1a6-4abf-820c-93867c6e5613","system_id":"levelo_inurba_marseille","lat":43.28462,"lon":5.35902,"is_reserved":false,"is_disabled":false,"rental_uris":{"android":"levelo://app?vid=67e8b54b-a1a6-4abf-820c-93867c6e5613","ios":"levelo://app?vid=67e8b54b-a1a6-4abf-820c-93867c6e5613"},"vehicle_type_id":"4","last_reported":1756159787,"current_range_meters":19200,"station_id":"ce4bhah2rcd13ifvqei0","pricing_plan_id":"cebpf4jnsgd1na2vs0mg"},{"bike_id":"de66a995-ebeb-45b9-b3d9-e37c2103b9b5","system_id":"levelo_inurba_marseille","lat":43.27176,"lon":5.4099,"is_reserved":false,"is_disabled":false,"rental_uris":{"android":"levelo://app?vid=de66a995-ebeb-45b9-b3d9-e37c2103b9b5","ios":"levelo://app?vid=de66a995-ebeb-45b9-b3d9-e37c2103b9b5"},"vehicle_type_id":"4","last_reported":1756159787,"current_range_meters":19200,"station_id":"ce4bhl12rcd13ifvqgf0","pricing_plan_id":"cebpf4jnsgd1na2vs0mg"},{"bike_id":"ab77e36b-7f1a-4b52-8895-f849bd2b9ef5","system_id":"levelo_inurba_marseille","lat":43.31327,"lon":5.39687,"is_reserved":false,"is_disabled":false,"rental_uris":{"android":"levelo://app?vid=ab77e36b-7f1a-4b52-8895-f849bd2b9ef5","ios":"levelo://app?vid=ab77e36b-7f1a-4b52-8895-f849bd2b9ef5"},"vehicle_type_id":"4","last_reported":1756159787,"current_range_meters":19200,"station_id":"ce4bgvp2rcd13ifvqcu0","pricing_plan_id":"cebpf4jnsgd1na2vs0mg"},{"bike_id":"a5e51e24-ab9a-41f2-b8a9-101abf1cf291","system_id":"levelo_inurba_marseille","lat":43.26054,"lon":5.39408,"is_reserved":false,"is_disabled":true,"rental_uris":{"android":"levelo://app?vid=a5e51e24-ab9a-41f2-b8a9-101abf1cf291","ios":"levelo://app?vid=a5e51e24-ab9a-41f2-b8a9-101abf1cf291"},"vehicle_type_id":"4","last_reported":1756159787,"current_range_meters":19200,"station_id":"ce4bhh92rcd13ifvqfj0","pricing_plan_id":"cebpf4jnsgd1na2vs0mg"},{"bike_id":"070c5c08-8102-4233-9aa2-6dc44cc7988e","system_id":"levelo_inurba_marseille","lat":43.30278,"lon":5.38412,"is_reserved":false,"is_disabled":false,"rental_uris":{"android":"levelo://app?vid=070c5c08-8102-4233-9aa2-6dc44cc7988e","ios":"levelo://app?vid=070c5c08-8102-4233-9aa2-6dc44cc7988e"},"vehicle_type_id":"4","last_reported":1756159787,"current_range_meters":19600,"station_id":"","pricing_plan_id":"cebpf4jnsgd1na2vs0mg"},{"bike_id":"39665dfe-0da4-401a-a163-a7c2423711a2","system_id":"levelo_inurba_marseille","lat":43.28703,"lon":5.3739,"is_reserved":false,"is_disabled":false,"rental_uris":{"android":"levelo://app?vid=39665dfe-0da4-401a-a163-a7c2423711a2","ios":"levelo://app?vid=39665dfe-0da4-401a-a163-a7c2423711a2"},"vehicle_type_id":"4","last_reported":1756159787,"current_range_meters":19600,"station_id":"ce4bh3p2rcd13ifvqdq0","pricing_plan_id":"cebpf4jnsgd1na2vs0mg"},{"bike_id":"12b52f93-1c3a-4d46-9ac3-2c24be81660a","system_id":"levelo_inurba_marseille","lat":43.2122,"lon":5.35084,"is_reserved":false,"is_disabled":false,"rental_uris":{"android":"levelo://app?vid=12b52f93-1c3a-4d46-9ac3-2c24be81660a","ios":"levelo://app?vid=12b52f93-1c3a-4d46-9ac3-2c24be81660a"},"vehicle_type_id":"4","last_reported":1756159787,"current_range_meters":19600,"station_id":"st_cvj6sg6p6f1abm77japg","pricing_plan_id":"cebpf4jnsgd1na2vs0mg"},{"bike_id":"7be24791-031e-4449-ae63-6f7c90c7de96","system_id":"levelo_inurba_marseille","lat":43.30661,"lon":5.40066,"is_reserved":false,"is_disabled":false,"rental_uris":{"android":"levelo://app?vid=7be24791-031e-4449-ae63-6f7c90c7de96","ios":"levelo://app?vid=7be24791-031e-4449-ae63-6f7c90c7de96"},"vehicle_type_id":"4","last_reported":1756159787,"current_range_meters":19600,"station_id":"ce4bh112rcd13ifvqda0","pricing_plan_id":"cebpf4jnsgd1na2vs0mg"},{"bike_id":"46f310ad-db88-4657-ac79-768fd2ce2217","system_id":"levelo_inurba_marseille","lat":43.2963,"lon":5.3768,"is_reserved":false,"is_disabled":true,"rental_uris":{"android":"levelo://app?vid=46f310ad-db88-4657-ac79-768fd2ce2217","ios":"levelo://app?vid=46f310ad-db88-4657-ac79-768fd2ce2217"},"vehicle_type_id":"4","last_reported":1756159787,"current_range_meters":19600,"station_id":"ce4bgi92rcd13ifvqb90","pricing_plan_id":"cebpf4jnsgd1na2vs0mg"},{"bike_id":"0005b112-9341-46f3-983d-4174eb3a8e0b","system_id":"levelo_inurba_marseille","lat":43.30303,"lon":5.39198,"is_reserved":false,"is_disabled":true,"rental_uris":{"android":"levelo://app?vid=0005b112-9341-46f3-983d-4174eb3a8e0b","ios":"levelo://app?vid=0005b112-9341-46f3-983d-4174eb3a8e0b"},"vehicle_type_id":"4","last_reported":1756159787,"current_range_meters":19600,"station_id":"ce4bgkh2rcd13ifvqbk0","pricing_plan_id":"cebpf4jnsgd1na2vs0mg"},{"bike_id":"1f8abda0-b398-458e-b1d4-8f630b737e5e","system_id":"levelo_inurba_marseille","lat":43.257237,"lon":5.411177,"is_reserved":false,"is_disabled":false,"rental_uris":{"android":"levelo://app?vid=1f8abda0-b398-458e-b1d4-8f630b737e5e","ios":"levelo://app?vid=1f8abda0-b398-458e-b1d4-8f630b737e5e"},"vehicle_type_id":"4","last_reported":1756159787,"current_range_meters":19600,"station_id":"ce4bhkp2rcd13ifvqgd0","pricing_plan_id":"cebpf4jnsgd1na2vs0mg"},{"bike_id":"1c9aa376-cf03-43e6-bd79-a69ad984688d","system_id":"levelo_inurba_marseille","lat":43.270762,"lon":5.422804,"is_reserved":false,"is_disabled":false,"rental_uris":{"android":"levelo://app?vid=1c9aa376-cf03-43e6-bd79-a69ad984688d","ios":"levelo://app?vid=1c9aa376-cf03-43e6-bd79-a69ad984688d"},"vehicle_type_id":"4","last_reported":1756159787,"current_range_meters":19600,"station_id":"ce4bhk92rcd13ifvqgb0","pricing_plan_id":"cebpf4jnsgd1na2vs0mg"},{"bike_id":"0c20445a-b9bc-41be-a08d-a1babc11530c","system_id":"levelo_inurba_marseille","lat":43.26211,"lon":5.37443,"is_reserved":false,"is_disabled":false,"rental_uris":{"android":"levelo://app?vid=0c20445a-b9bc-41be-a08d-a1babc11530c","ios":"levelo://app?vid=0c20445a-b9bc-41be-a08d-a1babc11530c"},"vehicle_type_id":"4","last_reported":1756159787,"current_range_meters":19600,"station_id":"ce4bhgp2rcd13ifvqfc0","pricing_plan_id":"cebpf4jnsgd1na2vs0mg"},{"bike_id":"9ff18348-555f-4cde-bb7b-dc1f37d18527","system_id":"levelo_inurba_marseille","lat":43.28356,"lon":5.38107,"is_reserved":false,"is_disabled":false,"rental_uris":{"android":"levelo://app?vid=9ff18348-555f-4cde-bb7b-dc1f37d18527","ios":"levelo://app?vid=9ff18348-555f-4cde-bb7b-dc1f37d18527"},"vehicle_type_id":"4","last_reported":1756159787,"current_range_meters":19600,"station_id":"ce4bh412rcd13ifvqdr0","pricing_plan_id":"cebpf4jnsgd1na2vs0mg"},{"bike_id":"d8eaf8ad-6c3f-4888-8227-c610affa2d19","system_id":"levelo_inurba_marseille","lat":43.301153,"lon":5.398854,"is_reserved":false,"is_disabled":true,"rental_uris":{"android":"levelo://app?vid=d8eaf8ad-6c3f-4888-8227-c610affa2d19","ios":"levelo://app?vid=d8eaf8ad-6c3f-4888-8227-c610affa2d19"},"vehicle_type_id":"4","last_reported":1756159787,"current_range_meters":19600,"station_id":"ce4bh0h2rcd13ifvqd40","pricing_plan_id":"cebpf4jnsgd1na2vs0mg"},{"bike_id":"49ffaf76-2d63-4912-9213-a93e204d614d","system_id":"levelo_inurba_marseille","lat":43.27671,"lon":5.38912,"is_reserved":false,"is_disabled":false,"rental_uris":{"android":"levelo://app?vid=49ffaf76-2d63-4912-9213-a93e204d614d","ios":"levelo://app?vid=49ffaf76-2d63-4912-9213-a93e204d614d"},"vehicle_type_id":"4","last_reported":1756159787,"current_range_meters":19600,"station_id":"ce4bhi12rcd13ifvqfo0","pricing_plan_id":"cebpf4jnsgd1na2vs0mg"},{"bike_id":"7bcee3a5-b2f0-40b3-ac35-58ad6f7aa7c7","system_id":"levelo_inurba_marseille","lat":43.28021,"lon":5.36551,"is_reserved":false,"is_disabled":false,"rental_uris":{"android":"levelo://app?vid=7bcee3a5-b2f0-40b3-ac35-58ad6f7aa7c7","ios":"levelo://app?vid=7bcee3a5-b2f0-40b3-ac35-58ad6f7aa7c7"},"vehicle_type_id":"4","last_reported":1756159787,"current_range_meters":19600,"station_id":"","pricing_plan_id":"cebpf4jnsgd1na2vs0mg"},{"bike_id":"a894d54c-2e8e-4f0d-8840-26f3adb2c9cf","system_id":"levelo_inurba_marseille","lat":43.29075,"lon":5.37174,"is_reserved":false,"is_disabled":false,"rental_uris":{"android":"levelo://app?vid=a894d54c-2e8e-4f0d-8840-26f3adb2c9cf","ios":"levelo://app?vid=a894d54c-2e8e-4f0d-8840-26f3adb2c9cf"},"vehicle_type_id":"4","last_reported":1756159787,"current_range_meters":19600,"station_id":"ce4bh5p2rcd13ifvqe4g","pricing_plan_id":"cebpf4jnsgd1na2vs0mg"},{"bike_id":"b999567b-fb99-4c3c-b2b0-ef1bc7a89235","system_id":"levelo_inurba_marseille","lat":43.30089,"lon":5.39075,"is_reserved":false,"is_disabled":false,"rental_uris":{"android":"levelo://app?vid=b999567b-fb99-4c3c-b2b0-ef1bc7a89235","ios":"levelo://app?vid=b999567b-fb99-4c3c-b2b0-ef1bc7a89235"},"vehicle_type_id":"4","last_reported":1756159787,"current_range_meters":19600,"station_id":"ce4bh192rcd13ifvqdb0","pricing_plan_id":"cebpf4jnsgd1na2vs0mg"},{"bike_id":"fd29ef02-0c4c-4676-a7e3-a84467b88cf7","system_id":"levelo_inurba_marseille","lat":43.28344,"lon":5.3808,"is_reserved":false,"is_disabled":true,"rental_uris":{"android":"levelo://app?vid=fd29ef02-0c4c-4676-a7e3-a84467b88cf7","ios":"levelo://app?vid=fd29ef02-0c4c-4676-a7e3-a84467b88cf7"},"vehicle_type_id":"4","last_reported":1756159787,"current_range_meters":19600,"station_id":"ce4bh412rcd13ifvqdr0","pricing_plan_id":"cebpf4jnsgd1na2vs0mg"},{"bike_id":"a9a13b98-7483-48a3-9d51-4c07de0df0d4","system_id":"levelo_inurba_marseille","lat":43.28854,"lon":5.39318,"is_reserved":false,"is_disabled":false,"rental_uris":{"android":"levelo://app?vid=a9a13b98-7483-48a3-9d51-4c07de0df0d4","ios":"levelo://app?vid=a9a13b98-7483-48a3-9d51-4c07de0df0d4"},"vehicle_type_id":"4","last_reported":1756159787,"current_range_meters":20000,"station_id":"ce4bh2p2rcd13ifvqdi0","pricing_plan_id":"cebpf4jnsgd1na2vs0mg"},{"bike_id":"534df56e-9c38-4341-9dfd-f105fa072c74","system_id":"levelo_inurba_marseille","lat":43.30127,"lon":5.39074,"is_reserved":false,"is_disabled":false,"rental_uris":{"android":"levelo://app?vid=534df56e-9c38-4341-9dfd-f105fa072c74","ios":"levelo://app?vid=534df56e-9c38-4341-9dfd-f105fa072c74"},"vehicle_type_id":"4","last_reported":1756159787,"current_range_meters":20000,"station_id":"ce4bh192rcd13ifvqdb0","pricing_plan_id":"cebpf4jnsgd1na2vs0mg"},{"bike_id":"b4330464-2203-4dca-a614-3112ed0839a1","system_id":"levelo_inurba_marseille","lat":43.28705,"lon":5.39984,"is_reserved":false,"is_disabled":false,"rental_uris":{"android":"levelo://app?vid=b4330464-2203-4dca-a614-3112ed0839a1","ios":"levelo://app?vid=b4330464-2203-4dca-a614-3112ed0839a1"},"vehicle_type_id":"4","last_reported":1756159787,"current_range_meters":20000,"station_id":"ce4bho92rcd13ifvqh3g","pricing_plan_id":"cebpf4jnsgd1na2vs0mg"},{"bike_id":"3d3a3d6b-602a-43b1-92fe-46f82ed00516","system_id":"levelo_inurba_marseille","lat":43.285734,"lon":5.394981,"is_reserved":false,"is_disabled":false,"rental_uris":{"android":"levelo://app?vid=3d3a3d6b-602a-43b1-92fe-46f82ed00516","ios":"levelo://app?vid=3d3a3d6b-602a-43b1-92fe-46f82ed00516"},"vehicle_type_id":"4","last_reported":1756159787,"current_range_meters":20000,"station_id":"ce4bh292rcd13ifvqdg0","pricing_plan_id":"cebpf4jnsgd1na2vs0mg"},{"bike_id":"f101968b-6033-4aaa-b37c-4e1f2550de08","system_id":"levelo_inurba_marseille","lat":43.30292,"lon":5.39214,"is_reserved":false,"is_disabled":false,"rental_uris":{"android":"levelo://app?vid=f101968b-6033-4aaa-b37c-4e1f2550de08","ios":"levelo://app?vid=f101968b-6033-4aaa-b37c-4e1f2550de08"},"vehicle_type_id":"4","last_reported":1756159787,"current_range_meters":20000,"station_id":"ce4bgkh2rcd13ifvqbk0","pricing_plan_id":"cebpf4jnsgd1na2vs0mg"},{"bike_id":"c7d10cd6-e3b6-4419-a59c-6a340496c3db","system_id":"levelo_inurba_marseille","lat":43.28852,"lon":5.39324,"is_reserved":false,"is_disabled":false,"rental_uris":{"android":"levelo://app?vid=c7d10cd6-e3b6-4419-a59c-6a340496c3db","ios":"levelo://app?vid=c7d10cd6-e3b6-4419-a59c-6a340496c3db"},"vehicle_type_id":"4","last_reported":1756159787,"current_range_meters":20000,"station_id":"ce4bh2p2rcd13ifvqdi0","pricing_plan_id":"cebpf4jnsgd1na2vs0mg"},{"bike_id":"b6769fe8-4c93-4d75-b2a3-a0ccd2ec704d","system_id":"levelo_inurba_marseille","lat":43.32505,"lon":5.36571,"is_reserved":false,"is_disabled":true,"rental_uris":{"android":"levelo://app?vid=b6769fe8-4c93-4d75-b2a3-a0ccd2ec704d","ios":"levelo://app?vid=b6769fe8-4c93-4d75-b2a3-a0ccd2ec704d"},"vehicle_type_id":"4","last_reported":1756159787,"current_range_meters":20000,"station_id":"ce4bhs12rcd13ifvqhvg","pricing_plan_id":"cebpf4jnsgd1na2vs0mg"},{"bike_id":"b3c100e0-7cd7-4b72-9ab8-0f576a4e1f3f","system_id":"levelo_inurba_marseille","lat":43.2895,"lon":5.36397,"is_reserved":false,"is_disabled":false,"rental_uris":{"android":"levelo://app?vid=b3c100e0-7cd7-4b72-9ab8-0f576a4e1f3f","ios":"levelo://app?vid=b3c100e0-7cd7-4b72-9ab8-0f576a4e1f3f"},"vehicle_type_id":"4","last_reported":1756159787,"current_range_meters":20000,"station_id":"ce4bhc92rcd13ifvqetg","pricing_plan_id":"cebpf4jnsgd1na2vs0mg"},{"bike_id":"21c37970-c9a1-4ed2-b171-97ab7e4a15a1","system_id":"levelo_inurba_marseille","lat":43.28944,"lon":5.36397,"is_reserved":false,"is_disabled":false,"rental_uris":{"android":"levelo://app?vid=21c37970-c9a1-4ed2-b171-97ab7e4a15a1","ios":"levelo://app?vid=21c37970-c9a1-4ed2-b171-97ab7e4a15a1"},"vehicle_type_id":"4","last_reported":1756159787,"current_range_meters":20400,"station_id":"ce4bhc92rcd13ifvqetg","pricing_plan_id":"cebpf4jnsgd1na2vs0mg"},{"bike_id":"3dff11d5-3872-4ffe-8cce-b5631d6c6058","system_id":"levelo_inurba_marseille","lat":43.32702,"lon":5.39219,"is_reserved":false,"is_disabled":false,"rental_uris":{"android":"levelo://app?vid=3dff11d5-3872-4ffe-8cce-b5631d6c6058","ios":"levelo://app?vid=3dff11d5-3872-4ffe-8cce-b5631d6c6058"},"vehicle_type_id":"4","last_reported":1756159787,"current_range_meters":20400,"station_id":"","pricing_plan_id":"cebpf4jnsgd1na2vs0mg"},{"bike_id":"13a64b89-655a-4f93-b6c0-bcdff73f4a27","system_id":"levelo_inurba_marseille","lat":43.29717,"lon":5.36604,"is_reserved":false,"is_disabled":false,"rental_uris":{"android":"levelo://app?vid=13a64b89-655a-4f93-b6c0-bcdff73f4a27","ios":"levelo://app?vid=13a64b89-655a-4f93-b6c0-bcdff73f4a27"},"vehicle_type_id":"4","last_reported":1756159787,"current_range_meters":20400,"station_id":"ce4bgn12rcd13ifvqbt0","pricing_plan_id":"cebpf4jnsgd1na2vs0mg"},{"bike_id":"22d37b03-64c1-44b3-a429-9f0476ecd808","system_id":"levelo_inurba_marseille","lat":43.29652,"lon":5.37507,"is_reserved":false,"is_disabled":false,"rental_uris":{"android":"levelo://app?vid=22d37b03-64c1-44b3-a429-9f0476ecd808","ios":"levelo://app?vid=22d37b03-64c1-44b3-a429-9f0476ecd808"},"vehicle_type_id":"4","last_reported":1756159787,"current_range_meters":20400,"station_id":"","pricing_plan_id":"cebpf4jnsgd1na2vs0mg"},{"bike_id":"9f504e60-59ed-408a-bbc4-8023cc0a4488","system_id":"levelo_inurba_marseille","lat":43.2894,"lon":5.36639,"is_reserved":false,"is_disabled":false,"rental_uris":{"android":"levelo://app?vid=9f504e60-59ed-408a-bbc4-8023cc0a4488","ios":"levelo://app?vid=9f504e60-59ed-408a-bbc4-8023cc0a4488"},"vehicle_type_id":"4","last_reported":1756159787,"current_range_meters":20400,"station_id":"ce4bhap2rcd13ifvqek0","pricing_plan_id":"cebpf4jnsgd1na2vs0mg"},{"bike_id":"162441e5-2e3b-4dc8-93f8-80ae2457d49c","system_id":"levelo_inurba_marseille","lat":43.28101,"lon":5.37854,"is_reserved":false,"is_disabled":true,"rental_uris":{"android":"levelo://app?vid=162441e5-2e3b-4dc8-93f8-80ae2457d49c","ios":"levelo://app?vid=162441e5-2e3b-4dc8-93f8-80ae2457d49c"},"vehicle_type_id":"4","last_reported":1756159787,"current_range_meters":20800,"station_id":"ce4bha12rcd13ifvqee0","pricing_plan_id":"cebpf4jnsgd1na2vs0mg"},{"bike_id":"e547c313-2392-4b5e-b97f-660cb3df95b4","system_id":"levelo_inurba_marseille","lat":43.26033,"lon":5.37546,"is_reserved":false,"is_disabled":false,"rental_uris":{"android":"levelo://app?vid=e547c313-2392-4b5e-b97f-660cb3df95b4","ios":"levelo://app?vid=e547c313-2392-4b5e-b97f-660cb3df95b4"},"vehicle_type_id":"4","last_reported":1756159787,"current_range_meters":20800,"station_id":"ce4bhgh2rcd13ifvqfa0","pricing_plan_id":"cebpf4jnsgd1na2vs0mg"},{"bike_id":"c521bf79-f50a-4594-af3a-4a8af984b289","system_id":"levelo_inurba_marseille","lat":43.30638,"lon":5.401,"is_reserved":false,"is_disabled":false,"rental_uris":{"android":"levelo://app?vid=c521bf79-f50a-4594-af3a-4a8af984b289","ios":"levelo://app?vid=c521bf79-f50a-4594-af3a-4a8af984b289"},"vehicle_type_id":"4","last_reported":1756159787,"current_range_meters":20800,"station_id":"ce4bh112rcd13ifvqda0","pricing_plan_id":"cebpf4jnsgd1na2vs0mg"},{"bike_id":"37415c4c-6902-4725-bd68-fd8e14dfcd7b","system_id":"levelo_inurba_marseille","lat":43.31069,"lon":5.38359,"is_reserved":false,"is_disabled":false,"rental_uris":{"android":"levelo://app?vid=37415c4c-6902-4725-bd68-fd8e14dfcd7b","ios":"levelo://app?vid=37415c4c-6902-4725-bd68-fd8e14dfcd7b"},"vehicle_type_id":"4","last_reported":1756159787,"current_range_meters":20800,"station_id":"ce4bgv92rcd13ifvqcr0","pricing_plan_id":"cebpf4jnsgd1na2vs0mg"},{"bike_id":"0ee329fa-d181-4774-99d7-504535030df1","system_id":"levelo_inurba_marseille","lat":43.291979,"lon":5.385466,"is_reserved":false,"is_disabled":false,"rental_uris":{"android":"levelo://app?vid=0ee329fa-d181-4774-99d7-504535030df1","ios":"levelo://app?vid=0ee329fa-d181-4774-99d7-504535030df1"},"vehicle_type_id":"4","last_reported":1756159787,"current_range_meters":20800,"station_id":"","pricing_plan_id":"cebpf4jnsgd1na2vs0mg"},{"bike_id":"819eee7a-7a3b-436f-8d28-7c4bae46dbf4","system_id":"levelo_inurba_marseille","lat":43.24678,"lon":5.38153,"is_reserved":false,"is_disabled":false,"rental_uris":{"android":"levelo://app?vid=819eee7a-7a3b-436f-8d28-7c4bae46dbf4","ios":"levelo://app?vid=819eee7a-7a3b-436f-8d28-7c4bae46dbf4"},"vehicle_type_id":"4","last_reported":1756159787,"current_range_meters":20800,"station_id":"ce4bhih2rcd13ifvqfr0","pricing_plan_id":"cebpf4jnsgd1na2vs0mg"},{"bike_id":"fd0865b3-af49-4c3e-86f4-49934bd2d289","system_id":"levelo_inurba_marseille","lat":43.29717,"lon":5.36624,"is_reserved":false,"is_disabled":true,"rental_uris":{"android":"levelo://app?vid=fd0865b3-af49-4c3e-86f4-49934bd2d289","ios":"levelo://app?vid=fd0865b3-af49-4c3e-86f4-49934bd2d289"},"vehicle_type_id":"4","last_reported":1756159787,"current_range_meters":20800,"station_id":"ce4bgn12rcd13ifvqbt0","pricing_plan_id":"cebpf4jnsgd1na2vs0mg"},{"bike_id":"4dd066a3-5039-4c08-96e4-92ee4cbb306d","system_id":"levelo_inurba_marseille","lat":43.23208,"lon":5.3555,"is_reserved":false,"is_disabled":false,"rental_uris":{"android":"levelo://app?vid=4dd066a3-5039-4c08-96e4-92ee4cbb306d","ios":"levelo://app?vid=4dd066a3-5039-4c08-96e4-92ee4cbb306d"},"vehicle_type_id":"4","last_reported":1756159787,"current_range_meters":20800,"station_id":"ce4bhu92rcd13ifvqi70","pricing_plan_id":"cebpf4jnsgd1na2vs0mg"},{"bike_id":"01475f28-2a66-4fe3-a338-cba308225507","system_id":"levelo_inurba_marseille","lat":43.298775,"lon":5.397257,"is_reserved":false,"is_disabled":false,"rental_uris":{"android":"levelo://app?vid=01475f28-2a66-4fe3-a338-cba308225507","ios":"levelo://app?vid=01475f28-2a66-4fe3-a338-cba308225507"},"vehicle_type_id":"4","last_reported":1756159787,"current_range_meters":21600,"station_id":"","pricing_plan_id":"cebpf4jnsgd1na2vs0mg"},{"bike_id":"abaf99ca-5823-4460-ba5c-ff01280743d0","system_id":"levelo_inurba_marseille","lat":43.2707,"lon":5.42273,"is_reserved":false,"is_disabled":false,"rental_uris":{"android":"levelo://app?vid=abaf99ca-5823-4460-ba5c-ff01280743d0","ios":"levelo://app?vid=abaf99ca-5823-4460-ba5c-ff01280743d0"},"vehicle_type_id":"4","last_reported":1756159787,"current_range_meters":21600,"station_id":"ce4bhk92rcd13ifvqgb0","pricing_plan_id":"cebpf4jnsgd1na2vs0mg"},