{"last_updated":1732796303,"ttl":60,"version":"2.2","data":{"bikes":[{"bike_id":"2a75e0b5-ea55-47da-90e1-27ddaec067b7","system_id":"levelo_inurba_marseille","lat":43.30139,"lon":5.37417,"is_reserved":false,"is_disabled":false,"rental_uris":{"android":"levelo://app?vid=2a75e0b5-ea55-47da-90e1-27ddaec067b7","ios":"levelo://app?vid=2a75e0b5-ea55-47da-90e1-27ddaec067b7"},"vehicle_type_id":"4","last_reported":1732796304,"current_range_meters":11200,"station_id":"ce4bgs92rcd13ifvqcc0","pricing_plan_id":"cebpf4jnsgd1na2vs0mg"},{"bike_id":"ee1334df-1740-439e-9bec-74a4a76b8830","system_id":"levelo_inurba_marseille","lat":43.30238,"lon":5.40066,"is_reserved":false,"is_disabled":false,"rental_uris":{"android":"levelo://app?vid=ee1334df-1740-439e-9bec-74a4a76b8830","ios":"levelo://app?vid=ee1334df-1740-439e-9bec-74a4a76b8830"},"vehicle_type_id":"4","last_reported":1732796304,"current_range_meters":28000,"station_id":"ce4bgvh2rcd13ifvqcs0","pricing_plan_id":"cebpf4jnsgd1na2vs0mg"},{"bike_id":"927924fc-8a74-47c2-8b69-b7e14b1090b9","system_id":"levelo_inurba_marseille","lat":43.27811,"lon":5.40719,"is_reserved":false,"is_disabled":true,"rental_uris":{"android":"levelo://app?vid=927924fc-8a74-47c2-8b69-b7e14b1090b9","ios":"levelo://app?vid=927924fc-8a74-47c2-8b69-b7e14b1090b9"},"vehicle_type_id":"4","last_reported":1732796304,"current_range_meters":10000,"station_id":"ce4bhnh2rcd13ifvqgtg","pricing_plan_id":"cebpf4jnsgd1na2vs0mg"},{"bike_id":"b856c8b4-412d-4c25-bdd4-e6b29aed04cb","system_id":"levelo_inurba_marseille","lat":43.22932,"lon":5.35379,"is_reserved":false,"is_disabled":false,"rental_uris":{"android":"levelo://app?vid=b856c8b4-412d-4c25-bdd4-e6b29aed04cb","ios":"levelo://app?vid=b856c8b4-412d-4c25-bdd4-e6b29aed04cb"},"vehicle_type_id":"4","last_reported":1732796304,"current_range_meters":39200,"station_id":"cpo3532slgdg3j2ikp40","pricing_plan_id":"cebpf4jnsgd1na2vs0mg"},{"bike_id":"863c9696-d78b-4e98-be5f-966913ade150","system_id":"levelo_inurba_marseille","lat":43.26936,"lon":5.38919,"is_reserved":false,"is_disabled":false,"rental_uris":{"android":"levelo://app?vid=863c9696-d78b-4e98-be5f-966913ade150","ios":"levelo://app?vid=863c9696-d78b-4e98-be5f-966913ade150"},"vehicle_type_id":"4","last_reported":1732796304,"current_range_meters":39200,"station_id":"ce4bhhh2rcd13ifvqfl0","pricing_plan_id":"cebpf4jnsgd1na2vs0mg"},{"bike_id":"5b88791c-5474-4c17-8542-3e41ea5a4e1a","system_id":"levelo_inurba_marseille","lat":43.26061,"lon":5.39396,"is_reserved":false,"is_disabled":false,"rental_uris":{"android":"levelo://app?vid=5b88791c-5474-4c17-8542-3e41ea5a4e1a","ios":"levelo://app?vid=5b88791c-5474-4c17-8542-3e41ea5a4e1a"},"vehicle_type_id":"4","last_reported":1732796304,"current_range_meters":37600,"station_id":"ce4bhh92rcd13ifvqfj0","pricing_plan_id":"cebpf4jnsgd1na2vs0mg"},{"bike_id":"c5ff18b6-982d-44aa-9672-f8f08b5f2aad","system_id":"levelo_inurba_marseille","lat":43.24064,"lon":5.37757,"is_reserved":false,"is_disabled":true,"rental_uris":{"android":"levelo://app?vid=c5ff18b6-982d-44aa-9672-f8f08b5f2aad","ios":"levelo://app?vid=c5ff18b6-982d-44aa-9672-f8f08b5f2aad"},"vehicle_type_id":"4","last_reported":1732796304,"current_range_meters":13600,"station_id":"","pricing_plan_id":"cebpf4jnsgd1na2vs0mg"},{"bike_id":"890f737b-cd69-4ea1-b121-1a499e00f5b8","system_id":"levelo_inurba_marseille","lat":43.27061,"lon":5.42282,"is_reserved":false,"is_disabled":false,"rental_uris":{"android":"levelo://app?vid=890f737b-cd69-4ea1-b121-1a499e00f5b8","ios":"levelo://app?vid=890f737b-cd69-4ea1-b121-1a499e00f5b8"},"vehicle_type_id":"4","last_reported":1732796304,"current_range_meters":27600,"station_id":"ce4bhk92rcd13ifvqgb0","pricing_plan_id":"cebpf4jnsgd1na2vs0mg"},{"bike_id":"88740c56-e146-4945-8045-2c9f1daf0885","system_id":"levelo_inurba_marseille","lat":43.26805,"lon":5.40269,"is_reserved":false,"is_disabled":false,"rental_uris":{"android":"levelo://app?vid=88740c56-e146-4945-8045-2c9f1daf0885","ios":"levelo://app?vid=88740c56-e146-4945-8045-2c9f1daf0885"},"vehicle_type_id":"4","last_reported":1732796304,"current_range_meters":18800,"station_id":"ce501612rcd8frsf0b60","pricing_plan_id":"cebpf4jnsgd1na2vs0mg"},{"bike_id":"77b626a1-68f2-40cc-9a31-d2fd0887602e","system_id":"levelo_inurba_marseille","lat":43.29736,"lon":5.37694,"is_reserved":false,"is_disabled":false,"rental_uris":{"android":"levelo://app?vid=77b626a1-68f2-40cc-9a31-d2fd0887602e","ios":"levelo://app?vid=77b626a1-68f2-40cc-9a31-d2fd0887602e"},"vehicle_type_id":"4","last_reported":1732796304,"current_range_meters":22800,"station_id":"ce4bgkh2rcd13ifvqbl0","pricing_plan_id":"cebpf4jnsgd1na2vs0mg"},{"bike_id":"8bec8f8f-8e8f-479d-93b3-99dfcb93e7f3","system_id":"levelo_inurba_marseille","lat":43.29214,"lon":5.39339,"is_reserved":false,"is_disabled":false,"rental_uris":{"android":"levelo://app?vid=8bec8f8f-8e8f-479d-93b3-99dfcb93e7f3","ios":"levelo://app?vid=8bec8f8f-8e8f-479d-93b3-99dfcb93e7f3"},"vehicle_type_id":"4","last_reported":1732796304,"current_range_meters":35600,"station_id":"ce4bh192rcd13ifvqdd0","pricing_plan_id":"cebpf4jnsgd1na2vs0mg"},{"bike_id":"45c81944-5465-4d01-94cd-a63ab4552e6c","system_id":"levelo_inurba_marseille","lat":43.2931,"lon":5.37466,"is_reserved":false,"is_disabled":false,"rental_uris":{"android":"levelo://app?vid=45c81944-5465-4d01-94cd-a63ab4552e6c","ios":"levelo://app?vid=45c81944-5465-4d01-94cd-a63ab4552e6c"},"vehicle_type_id":"4","last_reported":1732796304,"current_range_meters":8800,"station_id":"ce4bgi12rcd13ifvqb70","pricing_plan_id":"cebpf4jnsgd1na2vs0mg"},{"bike_id":"02f937c3-681a-41c4-a04e-d4667e8340e1","system_id":"levelo_inurba_marseille","lat":43.2959,"lon":5.36689,"is_reserved":false,"is_disabled":false,"rental_uris":{"android":"levelo://app?vid=02f937c3-681a-41c4-a04e-d4667e8340e1","ios":"levelo://app?vid=02f937c3-681a-41c4-a04e-d4667e8340e1"},"vehicle_type_id":"4","last_reported":1732796304,"current_range_meters":33600,"station_id":"ce4bgph2rcd13ifvqc2g","pricing_plan_id":"cebpf4jnsgd1na2vs0mg"},{"bike_id":"a6f0a701-774f-4015-81b6-faad2dc96f8b","system_id":"levelo_inurba_marseille","lat":43.32364,"lon":5.38884,"is_reserved":false,"is_disabled":false,"rental_uris":{"android":"levelo://app?vid=a6f0a701-774f-4015-81b6-faad2dc96f8b","ios":"levelo://app?vid=a6f0a701-774f-4015-81b6-faad2dc96f8b"},"vehicle_type_id":"4","last_reported":1732796304,"current_range_meters":2800,"station_id":"ce4bhqp2rcd13ifvqhog","pricing_plan_id":"cebpf4jnsgd1na2vs0mg"},{"bike_id":"ce15a521-8a1d-47b7-92c8-091ca367d00e","system_id":"levelo_inurba_marseille","lat":43.3368,"lon":5.37194,"is_reserved":false,"is_disabled":false,"rental_uris":{"android":"levelo://app?vid=ce15a521-8a1d-47b7-92c8-091ca367d00e","ios":"levelo://app?vid=ce15a521-8a1d-47b7-92c8-091ca367d00e"},"vehicle_type_id":"4","last_reported":1732796304,"current_range_meters":38000,"station_id":"","pricing_plan_id":"cebpf4jnsgd1na2vs0mg"},{"bike_id":"6f6a2a2a-466a-48ad-b705-d5887c808530","system_id":"levelo_inurba_marseille","lat":43.26934,"lon":5.3892,"is_reserved":false,"is_disabled":false,"rental_uris":{"android":"levelo://app?vid=6f6a2a2a-466a-48ad-b705-d5887c808530","ios":"levelo://app?vid=6f6a2a2a-466a-48ad-b705-d5887c808530"},"vehicle_type_id":"4","last_reported":1732796304,"current_range_meters":39200,"station_id":"ce4bhhh2rcd13ifvqfl0","pricing_plan_id":"cebpf4jnsgd1na2vs0mg"},{"bike_id":"908a91b4-f74f-4175-9a94-be2178948b1b","system_id":"levelo_inurba_marseille","lat":43.25931,"lon":5.40911,"is_reserved":false,"is_disabled":true,"rental_uris":{"android":"levelo://app?vid=908a91b4-f74f-4175-9a94-be2178948b1b","ios":"levelo://app?vid=908a91b4-f74f-4175-9a94-be2178948b1b"},"vehicle_type_id":"4","last_reported":1732796304,"current_range_meters":0,"station_id":"ce4bhm92rcd13ifvqglg","pricing_plan_id":"cebpf4jnsgd1na2vs0mg"},{"bike_id":"5dbbc3f0-b8fd-412d-b235-12a3dc71308c","system_id":"levelo_inurba_marseille","lat":43.27682,"lon":5.38885,"is_reserved":false,"is_disabled":false,"rental_uris":{"android":"levelo://app?vid=5dbbc3f0-b8fd-412d-b235-12a3dc71308c","ios":"levelo://app?vid=5dbbc3f0-b8fd-412d-b235-12a3dc71308c"},"vehicle_type_id":"4","last_reported":1732796304,"current_range_meters":20800,"station_id":"ce4bhi12rcd13ifvqfo0","pricing_plan_id":"cebpf4jnsgd1na2vs0mg"},{"bike_id":"180da631-95ee-4f14-9139-5b67e7401de6","system_id":"levelo_inurba_marseille","lat":43.2848,"lon":5.38415,"is_reserved":false,"is_disabled":false,"rental_uris":{"android":"levelo://app?vid=180da631-95ee-4f14-9139-5b67e7401de6","ios":"levelo://app?vid=180da631-95ee-4f14-9139-5b67e7401de6"},"vehicle_type_id":"4","last_reported":1732796304,"current_range_meters":36400,"station_id":"ce4bh512rcd13ifvqe3g","pricing_plan_id":"cebpf4jnsgd1na2vs0mg"},{"bike_id":"ff9a1ec5-be80-43ec-9b6e-d2bb637a4f30","system_id":"levelo_inurba_marseille","lat":43.28705,"lon":5.39989,"is_reserved":false,"is_disabled":true,"rental_uris":{"android":"levelo://app?vid=ff9a1ec5-be80-43ec-9b6e-d2bb637a4f30","ios":"levelo://app?vid=ff9a1ec5-be80-43ec-9b6e-d2bb637a4f30"},"vehicle_type_id":"4","last_reported":1732796304,"current_range_meters":36000,"station_id":"ce4bho92rcd13ifvqh3g","pricing_plan_id":"cebpf4jnsgd1na2vs0mg"},{"bike_id":"6f7949e1-de87-4a49-8620-fec27e04447f","system_id":"levelo_inurba_marseille","lat":43.3374,"lon":5.39169,"is_reserved":false,"is_disabled":false,"rental_uris":{"android":"levelo://app?vid=6f7949e1-de87-4a49-8620-fec27e04447f","ios":"levelo://app?vid=6f7949e1-de87-4a49-8620-fec27e04447f"},"vehicle_type_id":"4","last_reported":1732796304,"current_range_meters":35600,"station_id":"ce4bhr92rcd13ifvqhsg","pricing_plan_id":"cebpf4jnsgd1na2vs0mg"},{"bike_id":"20d189c2-44b0-421b-b279-ac991de94ac5","system_id":"levelo_inurba_marseille","lat":43.28819,"lon":5.35543,"is_reserved":false,"is_disabled":false,"rental_uris":{"android":"levelo://app?vid=20d189c2-44b0-421b-b279-ac991de94ac5","ios":"levelo://app?vid=20d189c2-44b0-421b-b279-ac991de94ac5"},"vehicle_type_id":"4","last_reported":1732796304,"current_range_meters":22000,"station_id":"","pricing_plan_id":"cebpf4jnsgd1na2vs0mg"},{"bike_id":"2f0cb11d-2f6f-49b3-9f8d-4f2c839a038d","system_id":"levelo_inurba_marseille","lat":43.30143,"lon":5.37426,"is_reserved":false,"is_disabled":false,"rental_uris":{"android":"levelo://app?vid=2f0cb11d-2f6f-49b3-9f8d-4f2c839a038d","ios":"levelo://app?vid=2f0cb11d-2f6f-49b3-9f8d-4f2c839a038d"},"vehicle_type_id":"4","last_reported":1732796304,"current_range_meters":38800,"station_id":"ce4bgs92rcd13ifvqcc0","pricing_plan_id":"cebpf4jnsgd1na2vs0mg"},{"bike_id":"8035e00b-0c1a-42ea-a613-33d98eefcc7f","system_id":"levelo_inurba_marseille","lat":43.24545,"lon":5.39527,"is_reserved":false,"is_disabled":false,"rental_uris":{"android":"levelo://app?vid=8035e00b-0c1a-42ea-a613-33d98eefcc7f","ios":"levelo://app?vid=8035e00b-0c1a-42ea-a613-33d98eefcc7f"},"vehicle_type_id":"4","last_reported":1732796304,"current_range_meters":5600,"station_id":"ce4bhlp2rcd13ifvqgjg","pricing_plan_id":"cebpf4jnsgd1na2vs0mg"},{"bike_id":"27da9bf1-a2e8-426b-acc7-134169cebef6","system_id":"levelo_inurba_marseille","lat":43.25493,"lon":5.37654,"is_reserved":false,"is_disabled":false,"rental_uris":{"android":"levelo://app?vid=27da9bf1-a2e8-426b-acc7-134169cebef6","ios":"levelo://app?vid=27da9bf1-a2e8-426b-acc7-134169cebef6"},"vehicle_type_id":"4","last_reported":1732796304,"current_range_meters":37600,"station_id":"ce4bhh12rcd13ifvqff0","pricing_plan_id":"cebpf4jnsgd1na2vs0mg"},{"bike_id":"4eb855f4-0c33-4e46-b9c3-fb652c131a25","system_id":"levelo_inurba_marseille","lat":43.26777,"lon":5.3942,"is_reserved":false,"is_disabled":true,"rental_uris":{"android":"levelo://app?vid=4eb855f4-0c33-4e46-b9c3-fb652c131a25","ios":"levelo://app?vid=4eb855f4-0c33-4e46-b9c3-fb652c131a25"},"vehicle_type_id":"4","last_reported":1732796304,"current_range_meters":800,"station_id":"ce4bhh12rcd13ifvqfg0","pricing_plan_id":"cebpf4jnsgd1na2vs0mg"},{"bike_id":"f402e771-2188-40a2-8795-f47b902edbdf","system_id":"levelo_inurba_marseille","lat":43.25722,"lon":5.41107,"is_reserved":false,"is_disabled":false,"rental_uris":{"android":"levelo://app?vid=f402e771-2188-40a2-8795-f47b902edbdf","ios":"levelo://app?vid=f402e771-2188-40a2-8795-f47b902edbdf"},"vehicle_type_id":"4","last_reported":1732796304,"current_range_meters":27200,"station_id":"ce4bhkp2rcd13ifvqgd0","pricing_plan_id":"cebpf4jnsgd1na2vs0mg"},{"bike_id":"66b0e58a-178d-47d6-bbe7-3a54277b88dc","system_id":"levelo_inurba_marseille","lat":43.24168,"lon":5.36398,"is_reserved":false,"is_disabled":false,"rental_uris":{"android":"levelo://app?vid=66b0e58a-178d-47d6-bbe7-3a54277b88dc","ios":"levelo://app?vid=66b0e58a-178d-47d6-bbe7-3a54277b88dc"},"vehicle_type_id":"4","last_reported":1732796304,"current_range_meters":26000,"station_id":"cpo36qri1sfpv3e86is0","pricing_plan_id":"cebpf4jnsgd1na2vs0mg"},{"bike_id":"51ab8de7-971c-4ec8-bdf4-409a39628c87","system_id":"levelo_inurba_marseille","lat":43.24072,"lon":5.37764,"is_reserved":false,"is_disabled":true,"rental_uris":{"android":"levelo://app?vid=51ab8de7-971c-4ec8-bdf4-409a39628c87","ios":"levelo://app?vid=51ab8de7-971c-4ec8-bdf4-409a39628c87"},"vehicle_type_id":"4","last_reported":1732796304,"current_range_meters":7200,"station_id":"ce4bhnp2rcd13ifvqgvg","pricing_plan_id":"cebpf4jnsgd1na2vs0mg"},{"bike_id":"5249c720-4ecf-407f-95ee-f4da1041dcb5","system_id":"levelo_inurba_marseille","lat":43.26685,"lon":5.38276,"is_reserved":false,"is_disabled":true,"rental_uris":{"android":"levelo://app?vid=5249c720-4ecf-407f-95ee-f4da1041dcb5","ios":"levelo://app?vid=5249c720-4ecf-407f-95ee-f4da1041dcb5"},"vehicle_type_id":"4","last_reported":1732796304,"current_range_meters":29600,"station_id":"ce4bhg92rcd13ifvqf90","pricing_plan_id":"cebpf4jnsgd1na2vs0mg"},{"bike_id":"b1422ff8-74e2-4dc1-94ac-a145ceea1d5e","system_id":"levelo_inurba_marseille","lat":43.32367,"lon":5.3675,"is_reserved":false,"is_disabled":false,"rental_uris":{"android":"levelo://app?vid=b1422ff8-74e2-4dc1-94ac-a145ceea1d5e","ios":"levelo://app?vid=b1422ff8-74e2-4dc1-94ac-a145ceea1d5e"},"vehicle_type_id":"4","last_reported":1732796304,"current_range_meters":14400,"station_id":"ce4bhsh2rcd13ifvqi2g","pricing_plan_id":"cebpf4jnsgd1na2vs0mg"},{"bike_id":"4709c438-f4af-415a-a919-d27302b75dca","system_id":"levelo_inurba_marseille","lat":43.23196,"lon":5.35553,"is_reserved":false,"is_disabled":false,"rental_uris":{"android":"levelo://app?vid=4709c438-f4af-415a-a919-d27302b75dca","ios":"levelo://app?vid=4709c438-f4af-415a-a919-d27302b75dca"},"vehicle_type_id":"4","last_reported":1732796304,"current_range_meters":39200,"station_id":"ce4bhu92rcd13ifvqi70","pricing_plan_id":"cebpf4jnsgd1na2vs0mg"},{"bike_id":"2b921899-1359-49b6-a793-ffb9ef50e656","system_id":"levelo_inurba_marseille","lat":43.29616,"lon":5.37701,"is_reserved":false,"is_disabled":true,"rental_uris":{"android":"levelo://app?vid=2b921899-1359-49b6-a793-ffb9ef50e656","ios":"levelo://app?vid=2b921899-1359-49b6-a793-ffb9ef50e656"},"vehicle_type_id":"4","last_reported":1732796304,"current_range_meters":37600,"station_id":"ce4bgi92rcd13ifvqb90","pricing_plan_id":"cebpf4jnsgd1na2vs0mg"},{"bike_id":"eccc2b38-428e-448c-a061-33d23a7d1135","system_id":"levelo_inurba_marseille","lat":43.30185,"lon":5.36605,"is_reserved":false,"is_disabled":false,"rental_uris":{"android":"levelo://app?vid=eccc2b38-428e-448c-a061-33d23a7d1135","ios":"levelo://app?vid=eccc2b38-428e-448c-a061-33d23a7d1135"},"vehicle_type_id":"4","last_reported":1732796304,"current_range_meters":39200,"station_id":"ce4bgrh2rcd13ifvqc8g","pricing_plan_id":"cebpf4jnsgd1na2vs0mg"},{"bike_id":"9829457d-ec1e-44f7-a513-cb3474ffb5e7","system_id":"levelo_inurba_marseille","lat":43.337444,"lon":5.374475,"is_reserved":false,"is_disabled":false,"rental_uris":{"android":"levelo://app?vid=9829457d-ec1e-44f7-a513-cb3474ffb5e7","ios":"levelo://app?vid=9829457d-ec1e-44f7-a513-cb3474ffb5e7"},"vehicle_type_id":"4","last_reported":1732796304,"current_range_meters":36800,"station_id":"","pricing_plan_id":"cebpf4jnsgd1na2vs0mg"},{"bike_id":"e68b29d6-57c2-4e82-b64e-5c0e5453674f","system_id":"levelo_inurba_marseille","lat":43.23153,"lon":5.43709,"is_reserved":false,"is_disabled":false,"rental_uris":{"android":"levelo://app?vid=e68b29d6-57c2-4e82-b64e-5c0e5453674f","ios":"levelo://app?vid=e68b29d6-57c2-4e82-b64e-5c0e5453674f"},"vehicle_type_id":"4","last_reported":1732796304,"current_range_meters":7200,"station_id":"ce4bhmp2rcd13ifvqgog","pricing_plan_id":"cebpf4jnsgd1na2vs0mg"},{"bike_id":"869146c7-107f-4a8d-a9de-076457eea766","system_id":"levelo_inurba_marseille","lat":43.21672,"lon":5.34639,"is_reserved":false,"is_disabled":false,"rental_uris":{"android":"levelo://app?vid=869146c7-107f-4a8d-a9de-076457eea766","ios":"levelo://app?vid=869146c7-107f-4a8d-a9de-076457eea766"},"vehicle_type_id":"4","last_reported":1732796304,"current_range_meters":10800,"station_id":"","pricing_plan_id":"cebpf4jnsgd1na2vs0mg"},{"bike_id":"b8f46e0e-fb8b-45c0-82ed-2c919bfcc6ab","system_id":"levelo_inurba_marseille","lat":43.29522,"lon":5.37508,"is_reserved":false,"is_disabled":true,"rental_uris":{"android":"levelo://app?vid=b8f46e0e-fb8b-45c0-82ed-2c919bfcc6ab","ios":"levelo://app?vid=b8f46e0e-fb8b-45c0-82ed-2c919bfcc6ab"},"vehicle_type_id":"4","last_reported":1732796304,"current_range_meters":38800,"station_id":"ce4bgkp2rcd13ifvqbmg","pricing_plan_id":"cebpf4jnsgd1na2vs0mg"},{"bike_id":"013c3408-b53f-4b33-b442-b78dc4660140","system_id":"levelo_inurba_marseille","lat":43.23152,"lon":5.43726,"is_reserved":false,"is_disabled":true,"rental_uris":{"android":"levelo://app?vid=013c3408-b53f-4b33-b442-b78dc4660140","ios":"levelo://app?vid=013c3408-b53f-4b33-b442-b78dc4660140"},"vehicle_type_id":"4","last_reported":1732796304,"current_range_meters":0,"station_id":"ce4bhmp2rcd13ifvqgog","pricing_plan_id":"cebpf4jnsgd1na2vs0mg"},{"bike_id":"bad8df67-3fb4-43fd-9717-71c817718be5","system_id":"levelo_inurba_marseille","lat":43.32538,"lon":5.41423,"is_reserved":false,"is_disabled":true,"rental_uris":{"android":"levelo://app?vid=bad8df67-3fb4-43fd-9717-71c817718be5","ios":"levelo://app?vid=bad8df67-3fb4-43fd-9717-71c817718be5"},"vehicle_type_id":"4","last_reported":1732796304,"current_range_meters":0,"station_id":"ce4bhq12rcd13ifvqhhg","pricing_plan_id":"cebpf4jnsgd1na2vs0mg"},{"bike_id":"ba42425a-0721-479b-9a66-d8c274c36766","system_id":"levelo_inurba_marseille","lat":43.30192,"lon":5.36621,"is_reserved":false,"is_disabled":false,"rental_uris":{"android":"levelo://app?vid=ba42425a-0721-479b-9a66-d8c274c36766","ios":"levelo://app?vid=ba42425a-0721-479b-9a66-d8c274c36766"},"vehicle_type_id":"4","last_reported":1732796304,"current_range_meters":35600,"station_id":"ce4bgrh2rcd13ifvqc8g","pricing_plan_id":"cebpf4jnsgd1na2vs0mg"},{"bike_id":"13748854-c7ec-4486-bb35-86cbf66f8ec7","system_id":"levelo_inurba_marseille","lat":43.23152,"lon":5.43703,"is_reserved":false,"is_disabled":true,"rental_uris":{"android":"levelo://app?vid=13748854-c7ec-4486-bb35-86cbf66f8ec7","ios":"levelo://app?vid=13748854-c7ec-4486-bb35-86cbf66f8ec7"},"vehicle_type_id":"4","last_reported":1732796304,"current_range_meters":0,"station_id":"ce4bhmp2rcd13ifvqgog","pricing_plan_id":"cebpf4jnsgd1na2vs0mg"},{"bike_id":"95ae37b5-add4-404e-b606-18569c489f38","system_id":"levelo_inurba_marseille","lat":43.23153,"lon":5.43706,"is_reserved":false,"is_disabled":false,"rental_uris":{"android":"levelo://app?vid=95ae37b5-add4-404e-b606-18569c489f38","ios":"levelo://app?vid=95ae37b5-add4-404e-b606-18569c489f38"},"vehicle_type_id":"4","last_reported":1732796304,"current_range_meters":14400,"station_id":"ce4bhmp2rcd13ifvqgog","pricing_plan_id":"cebpf4jnsgd1na2vs0mg"},{"bike_id":"8e2041ad-6bf5-4186-becc-025de1939b87","system_id":"levelo_inurba_marseille","lat":43.28466,"lon":5.35893,"is_reserved":false,"is_disabled":true,"rental_uris":{"android":"levelo://app?vid=8e2041ad-6bf5-4186-becc-025de1939b87","ios":"levelo://app?vid=8e2041ad-6bf5-4186-becc-025de1939b87"},"vehicle_type_id":"4","last_reported":1732796304,"current_range_meters":15200,"station_id":"ce4bhah2rcd13ifvqei0","pricing_plan_id":"cebpf4jnsgd1na2vs0mg"},{"bike_id":"48c2dbc1-ad49-4478-8b64-0a977ec80904","system_id":"levelo_inurba_marseille","lat":43.29021,"lon":5.38127,"is_reserved":false,"is_disabled":false,"rental_uris":{"android":"levelo://app?vid=48c2dbc1-ad49-4478-8b64-0a977ec80904","ios":"levelo://app?vid=48c2dbc1-ad49-4478-8b64-0a977ec80904"},"vehicle_type_id":"4","last_reported":1732796304,"current_range_meters":11600,"station_id":"ce4bh4p2rcd13ifvqe1g","pricing_plan_id":"cebpf4jnsgd1na2vs0mg"},{"bike_id":"67a2c73e-2bc8-4e53-bcda-c8c0504ffcab","system_id":"levelo_inurba_marseille","lat":43.29635,"lon":5.40596,"is_reserved":false,"is_disabled":false,"rental_uris":{"android":"levelo://app?vid=67a2c73e-2bc8-4e53-bcda-c8c0504ffcab","ios":"levelo://app?vid=67a2c73e-2bc8-4e53-bcda-c8c0504ffcab"},"vehicle_type_id":"4","last_reported":1732796304,"current_range_meters":18800,"station_id":"ce4bh0h2rcd13ifvqd60","pricing_plan_id":"cebpf4jnsgd1na2vs0mg"},{"bike_id":"4d4c884f-6933-49c0-8899-f9856d90f44d","system_id":"levelo_inurba_marseille","lat":43.29748,"lon":5.37971,"is_reserved":false,"is_disabled":true,"rental_uris":{"android":"levelo://app?vid=4d4c884f-6933-49c0-8899-f9856d90f44d","ios":"levelo://app?vid=4d4c884f-6933-49c0-8899-f9856d90f44d"},"vehicle_type_id":"4","last_reported":1732796304,"current_range_meters":0,"station_id":"","pricing_plan_id":"cebpf4jnsgd1na2vs0mg"},{"bike_id":"65d2562a-5a68-462e-941e-29c998025e60","system_id":"levelo_inurba_marseille","lat":43.24166,"lon":5.36395,"is_reserved":false,"is_disabled":false,"rental_uris":{"android":"levelo://app?vid=65d2562a-5a68-462e-941e-29c998025e60","ios":"levelo://app?vid=65d2562a-5a68-462e-941e-29c998025e60"},"vehicle_type_id":"4","last_reported":1732796304,"current_range_meters":8800,"station_id":"cpo36qri1sfpv3e86is0","pricing_plan_id":"cebpf4jnsgd1na2vs0mg"},{"bike_id":"11580c77-e09c-4bc9-9c7b-27ac2c3bb11e","system_id":"levelo_inurba_marseille","lat":43.30259,"lon":5.40082,"is_reserved":false,"is_disabled":false,"rental_uris":{"android":"levelo://app?vid=11580c77-e09c-4bc9-9c7b-27ac2c3bb11e","ios":"levelo://app?vid=11580c77-e09c-4bc9-9c7b-27ac2c3bb11e"},"vehicle_type_id":"4","last_reported":1732796304,"current_range_meters":9200,"station_id":"ce4bgvh2rcd13ifvqcs0","pricing_plan_id":"cebpf4jnsgd1na2vs0mg"},{"bike_id":"4894c727-1aef-4102-8da4-46fe4ad247b9","system_id":"levelo_inurba_marseille","lat":43.30145,"lon":5.39856,"is_reserved":false,"is_disabled":false,"rental_uris":{"android":"levelo://app?vid=4894c727-1aef-4102-8da4-46fe4ad247b9","ios":"levelo://app?vid=4894c727-1aef-4102-8da4-46fe4ad247b9"},"vehicle_type_id":"4","last_reported":1732796304,"current_range_meters":39200,"station_id":"ce4bh0h2rcd13ifvqd40","pricing_plan_id":"cebpf4jnsgd1na2vs0mg"},{"bike_id":"9009be37-c6b1-406b-b0a8-fbab355f715e","system_id":"levelo_inurba_marseille","lat":43.33762,"lon":5.37493,"is_reserved":false,"is_disabled":false,"rental_uris":{"android":"levelo://app?vid=9009be37-c6b1-406b-b0a8-fbab355f715e","ios":"levelo://app?vid=9009be37-c6b1-406b-b0a8-fbab355f715e"},"vehicle_type_id":"4","last_reported":1732796304,"current_range_meters":36800,"station_id":"","pricing_plan_id":"cebpf4jnsgd1na2vs0mg"},{"bike_id":"f036ea2e-96a3-4f76-99f7-7f3c5e6948be","system_id":"levelo_inurba_marseille","lat":43.27172,"lon":5.40989,"is_reserved":false,"is_disabled":false,"rental_uris":{"android":"levelo://app?vid=f036ea2e-96a3-4f76-99f7-7f3c5e6948be","ios":"levelo://app?vid=f036ea2e-96a3-4f76-99f7-7f3c5e6948be"},"vehicle_type_id":"4","last_reported":1732796304,"current_range_meters":38000,"station_id":"ce4bhl12rcd13ifvqgf0","pricing_plan_id":"cebpf4jnsgd1na2vs0mg"},{"bike_id":"0a11c91e-bbdc-4b0b-9f27-4cd7a145fce3","system_id":"levelo_inurba_marseille","lat":43.254692,"lon":5.376588,"is_reserved":false,"is_disabled":false,"rental_uris":{"android":"levelo://app?vid=0a11c91e-bbdc-4b0b-9f27-4cd7a145fce3","ios":"levelo://app?vid=0a11c91e-bbdc-4b0b-9f27-4cd7a145fce3"},"vehicle_type_id":"4","last_reported":1732796304,"current_range_meters":35600,"station_id":"ce4bhh12rcd13ifvqff0","pricing_plan_id":"cebpf4jnsgd1na2vs0mg"},{"bike_id":"dad09c6f-2611-4c34-9738-7e2a9fb47005","system_id":"levelo_inurba_marseille","lat":43.26056,"lon":5.39395,"is_reserved":false,"is_disabled":false,"rental_uris":{"android":"levelo://app?vid=dad09c6f-2611-4c34-9738-7e2a9fb47005","ios":"levelo://app?vid=dad09c6f-2611-4c34-9738-7e2a9fb47005"},"vehicle_type_id":"4","last_reported":1732796304,"current_range_meters":38000,"station_id":"ce4bhh92rcd13ifvqfj0","pricing_plan_id":"cebpf4jnsgd1na2vs0mg"},{"bike_id":"de93f962-86a2-4563-b1b9-8b6483fb8202","system_id":"levelo_inurba_marseille","lat":43.27918,"lon":5.39579,"is_reserved":false,"is_disabled":false,"rental_uris":{"android":"levelo://app?vid=de93f962-86a2-4563-b1b9-8b6483fb8202","ios":"levelo://app?vid=de93f962-86a2-4563-b1b9-8b6483fb8202"},"vehicle_type_id":"4","last_reported":1732796304,"current_range_meters":36000,"station_id":"ce4bhf92rcd13ifvqf40","pricing_plan_id":"cebpf4jnsgd1na2vs0mg"},{"bike_id":"76dc66cd-d442-4a4a-b16f-0d620ab6b768","system_id":"levelo_inurba_marseille","lat":43.2606,"lon":5.394,"is_reserved":false,"is_disabled":false,"rental_uris":{"android":"levelo://app?vid=76dc66cd-d442-4a4a-b16f-0d620ab6b768","ios":"levelo://app?vid=76dc66cd-d442-4a4a-b16f-0d620ab6b768"},"vehicle_type_id":"4","last_reported":1732796304,"current_range_meters":30800,"station_id":"ce4bhh92rcd13ifvqfj0","pricing_plan_id":"cebpf4jnsgd1na2vs0mg"},{"bike_id":"c8ec8766-7d46-4894-a612-ffece75c0618","system_id":"levelo_inurba_marseille","lat":43.27919,"lon":5.39593,"is_reserved":false,"is_disabled":false,"rental_uris":{"android":"levelo://app?vid=c8ec8766-7d46-4894-a612-ffece75c0618","ios":"levelo://app?vid=c8ec8766-7d46-4894-a612-ffece75c0618"},"vehicle_type_id":"4","last_reported":1732796304,"current_range_meters":28400,"station_id":"ce4bhf92rcd13ifvqf40","pricing_plan_id":"cebpf4jnsgd1na2vs0mg"},{"bike_id":"42de811a-cba4-4199-a11d-f49e387e53f2","system_id":"levelo_inurba_marseille","lat":43.30541,"lon":5.36703,"is_reserved":false,"is_disabled":false,"rental_uris":{"android":"levelo://app?vid=42de811a-cba4-4199-a11d-f49e387e53f2","ios":"levelo://app?vid=42de811a-cba4-4199-a11d-f49e387e53f2"},"vehicle_type_id":"4","last_reported":1732796304,"current_range_meters":30800,"station_id":"ce4bgrp2rcd13ifvqc9g","pricing_plan_id":"cebpf4jnsgd1na2vs0mg"},{"bike_id":"2c1f78d7-443a-49a8-b893-537bb7c5b702","system_id":"levelo_inurba_marseille","lat":43.29037,"lon":5.3757,"is_reserved":false,"is_disabled":true,"rental_uris":{"android":"levelo://app?vid=2c1f78d7-443a-49a8-b893-537bb7c5b702","ios":"levelo://app?vid=2c1f78d7-443a-49a8-b893-537bb7c5b702"},"vehicle_type_id":"4","last_reported":1732796304,"current_range_meters":24800,"station_id":"ce4bh692rcd13ifvqe90","pricing_plan_id":"cebpf4jnsgd1na2vs0mg"},{"bike_id":"7c1b4caa-ad10-4248-afa4-847c1d45dcbd","system_id":"levelo_inurba_marseille","lat":43.25927,"lon":5.40906,"is_reserved":false,"is_disabled":false,"rental_uris":{"android":"levelo://app?vid=7c1b4caa-ad10-4248-afa4-847c1d45dcbd","ios":"levelo://app?vid=7c1b4caa-ad10-4248-afa4-847c1d45dcbd"},"vehicle_type_id":"4","last_reported":1732796304,"current_range_meters":25200,"station_id":"ce4bhm92rcd13ifvqglg","pricing_plan_id":"cebpf4jnsgd1na2vs0mg"},{"bike_id":"95c39abd-631b-4674-8877-bb71fdbca347","system_id":"levelo_inurba_marseille","lat":43.29607,"lon":5.37715,"is_reserved":false,"is_disabled":true,"rental_uris":{"android":"levelo://app?vid=95c39abd-631b-4674-8877-bb71fdbca347","ios":"levelo://app?vid=95c39abd-631b-4674-8877-bb71fdbca347"},"vehicle_type_id":"4","last_reported":1732796304,"current_range_meters":0,"station_id":"ce4bgi92rcd13ifvqb90","pricing_plan_id":"cebpf4jnsgd1na2vs0mg"},{"bike_id":"35637c9f-d6c4-4d75-82b5-13284fd1c1f7","system_id":"levelo_inurba_marseille","lat":43.30473,"lon":5.366,"is_reserved":false,"is_disabled":false,"rental_uris":{"android":"levelo://app?vid=35637c9f-d6c4-4d75-82b5-13284fd1c1f7","ios":"levelo://app?vid=35637c9f-d6c4-4d75-82b5-13284fd1c1f7"},"vehicle_type_id":"4","last_reported":1732796304,"current_range_meters":30000,"station_id":"","pricing_plan_id":"cebpf4jnsgd1na2vs0mg"},{"bike_id":"df1919fe-5865-46fa-9ab6-059b74a4fb31","system_id":"levelo_inurba_marseille","lat":43.23146,"lon":5.43707,"is_reserved":false,"is_disabled":false,"rental_uris":{"android":"levelo://app?vid=df1919fe-5865-46fa-9ab6-059b74a4fb31","ios":"levelo://app?vid=df1919fe-5865-46fa-9ab6-059b74a4fb31"},"vehicle_type_id":"4","last_reported":1732796304,"current_range_meters":27600,"station_id":"ce4bhmp2rcd13ifvqgog","pricing_plan_id":"cebpf4jnsgd1na2vs0mg"},{"bike_id":"467aac97-b6d7-4bb6-95e6-059fee124da6","system_id":"levelo_inurba_marseille","lat":43.29905,"lon":5.38155,"is_reserved":false,"is_disabled":false,"rental_uris":{"android":"levelo://app?vid=467aac97-b6d7-4bb6-95e6-059fee124da6","ios":"levelo://app?vid=467aac97-b6d7-4bb6-95e6-059fee124da6"},"vehicle_type_id":"4","last_reported":1732796304,"current_range_meters":11200,"station_id":"ce4bgj12rcd13ifvqbc0","pricing_plan_id":"cebpf4jnsgd1na2vs0mg"},{"bike_id":"1dee5398-ece1-4217-b5b9-984f22c2ff59","system_id":"levelo_inurba_marseille","lat":43.29267,"lon":5.38433,"is_reserved":false,"is_disabled":true,"rental_uris":{"android":"levelo://app?vid=1dee5398-ece1-4217-b5b9-984f22c2ff59","ios":"levelo://app?vid=1dee5398-ece1-4217-b5b9-984f22c2ff59"},"vehicle_type_id":"4","last_reported":1732796304,"current_range_meters":0,"station_id":"ce4bh692rcd13ifvqea0","pricing_plan_id":"cebpf4jnsgd1na2vs0mg"},{"bike_id":"9eb87aeb-5405-4cdd-8436-ca718eaa7f7d","system_id":"levelo_inurba_marseille","lat":43.27918,"lon":5.39572,"is_reserved":false,"is_disabled":false,"rental_uris":{"android":"levelo://app?vid=9eb87aeb-5405-4cdd-8436-ca718eaa7f7d","ios":"levelo://app?vid=9eb87aeb-5405-4cdd-8436-ca718eaa7f7d"},"vehicle_type_id":"4","last_reported":1732796304,"current_range_meters":21600,"station_id":"ce4bhf92rcd13ifvqf40","pricing_plan_id":"cebpf4jnsgd1na2vs0mg"},{"bike_id":"9fc055bc-6776-43af-a085-abb08b33ad2d","system_id":"levelo_inurba_marseille","lat":43.28404,"lon":5.37514,"is_reserved":false,"is_disabled":false,"rental_uris":{"android":"levelo://app?vid=9fc055bc-6776-43af-a085-abb08b33ad2d","ios":"levelo://app?vid=9fc055bc-6776-43af-a085-abb08b33ad2d"},"vehicle_type_id":"4","last_reported":1732796304,"current_range_meters":34800,"station_id":"ce4bh412rcd13ifvqds0","pricing_plan_id":"cebpf4jnsgd1na2vs0mg"},{"bike_id":"4ab0f91e-d121-450e-b1fb-2424862c44ba","system_id":"levelo_inurba_marseille","lat":43.29299,"lon":5.37465,"is_reserved":false,"is_disabled":false,"rental_uris":{"android":"levelo://app?vid=4ab0f91e-d121-450e-b1fb-2424862c44ba","ios":"levelo://app?vid=4ab0f91e-d121-450e-b1fb-2424862c44ba"},"vehicle_type_id":"4","last_reported":1732796304,"current_range_meters":8000,"station_id":"ce4bgi12rcd13ifvqb70","pricing_plan_id":"cebpf4jnsgd1na2vs0mg"},{"bike_id":"8865b31a-2279-430c-9a34-3ceeb68419a6","system_id":"levelo_inurba_marseille","lat":43.29552,"lon":5.42282,"is_reserved":false,"is_disabled":false,"rental_uris":{"android":"levelo://app?vid=8865b31a-2279-430c-9a34-3ceeb68419a6","ios":"levelo://app?vid=8865b31a-2279-430c-9a34-3ceeb68419a6"},"vehicle_type_id":"4","last_reported":1732796304,"current_range_meters":26800,"station_id":"ce4bhph2rcd13ifvqhdg","pricing_plan_id":"cebpf4jnsgd1na2vs0mg"},{"bike_id":"0d6ad86a-d679-4803-96ca-14041613c9a8","system_id":"levelo_inurba_marseille","lat":43.29842,"lon":5.36262,"is_reserved":false,"is_disabled":false,"rental_uris":{"android":"levelo://app?vid=0d6ad86a-d679-4803-96ca-14041613c9a8","ios":"levelo://app?vid=0d6ad86a-d679-4803-96ca-14041613c9a8"},"vehicle_type_id":"4","last_reported":1732796304,"current_range_meters":28800,"station_id":"ce4bgpp2rcd13ifvqc3g","pricing_plan_id":"cebpf4jnsgd1na2vs0mg"},{"bike_id":"51398210-3c12-4b6a-8447-e8168ecd05b9","system_id":"levelo_inurba_marseille","lat":43.27972,"lon":5.38736,"is_reserved":false,"is_disabled":true,"rental_uris":{"android":"levelo://app?vid=51398210-3c12-4b6a-8447-e8168ecd05b9","ios":"levelo://app?vid=51398210-3c12-4b6a-8447-e8168ecd05b9"},"vehicle_type_id":"4","last_reported":1732796304,"current_range_meters":2800,"station_id":"ce4bhg12rcd13ifvqf80","pricing_plan_id":"cebpf4jnsgd1na2vs0mg"},{"bike_id":"39b04c21-6a6a-40a7-a489-741c2b67c9bd","system_id":"levelo_inurba_marseille","lat":43.337232,"lon":5.391903,"is_reserved":false,"is_disabled":false,"rental_uris":{"android":"levelo://app?vid=39b04c21-6a6a-40a7-a489-741c2b67c9bd","ios":"levelo://app?vid=39b04c21-6a6a-40a7-a489-741c2b67c9bd"},"vehicle_type_id":"4","last_reported":1732796304,"current_range_meters":38800,"station_id":"ce4bhr92rcd13ifvqhsg","pricing_plan_id":"cebpf4jnsgd1na2vs0mg"},{"bike_id":"e982ffc9-2dc0-4846-a17a-adafad30b5cf","system_id":"levelo_inurba_marseille","lat":43.27838,"lon":5.3921,"is_reserved":false,"is_disabled":false,"rental_uris":{"android":"levelo://app?vid=e982ffc9-2dc0-4846-a17a-adafad30b5cf","ios":"levelo://app?vid=e982ffc9-2dc0-4846-a17a-adafad30b5cf"},"vehicle_type_id":"4","last_reported":1732796304,"current_range_meters":38800,"station_id":"ce4bhjp2rcd13ifvqga0","pricing_plan_id":"cebpf4jnsgd1na2vs0mg"},{"bike_id":"3db9631a-7f11-4c43-9ba5-635b4338619f","system_id":"levelo_inurba_marseille","lat":43.29259,"lon":5.38436,"is_reserved":false,"is_disabled":false,"rental_uris":{"android":"levelo://app?vid=3db9631a-7f11-4c43-9ba5-635b4338619f","ios":"levelo://app?vid=3db9631a-7f11-4c43-9ba5-635b4338619f"},"vehicle_type_id":"4","last_reported":1732796304,"current_range_meters":30000,"station_id":"ce4bh692rcd13ifvqea0","pricing_plan_id":"cebpf4jnsgd1na2vs0mg"},{"bike_id":"5d63a013-db17-43dc-bd8d-bc2b66f59bbd","system_id":"levelo_inurba_marseille","lat":43.27946,"lon":5.41055,"is_reserved":false,"is_disabled":false,"rental_uris":{"android":"levelo://app?vid=5d63a013-db17-43dc-bd8d-bc2b66f59bbd","ios":"levelo://app?vid=5d63a013-db17-43dc-bd8d-bc2b66f59bbd"},"vehicle_type_id":"4","last_reported":1732796304,"current_range_meters":12400,"station_id":"ce4bhnp2rcd13ifvqh0g","pricing_plan_id":"cebpf4jnsgd1na2vs0mg"},{"bike_id":"53acd5a8-ce0f-41f0-96bc-8786e46cf6d2","system_id":"levelo_inurba_marseille","lat":43.27995,"lon":5.41667,"is_reserved":false,"is_disabled":true,"rental_uris":{"android":"levelo://app?vid=53acd5a8-ce0f-41f0-96bc-8786e46cf6d2","ios":"levelo://app?vid=53acd5a8-ce0f-41f0-96bc-8786e46cf6d2"},"vehicle_type_id":"4","last_reported":1732796304,"current_range_meters":800,"station_id":"ce4bho12rcd13ifvqh1g","pricing_plan_id":"cebpf4jnsgd1na2vs0mg"},{"bike_id":"6e18f822-85da-4d28-8896-95adca068a84","system_id":"levelo_inurba_marseille","lat":43.30595,"lon":5.37232,"is_reserved":false,"is_disabled":false,"rental_uris":{"android":"levelo://app?vid=6e18f822-85da-4d28-8896-95adca068a84","ios":"levelo://app?vid=6e18f822-85da-4d28-8896-95adca068a84"},"vehicle_type_id":"4","last_reported":1732796304,"current_range_meters":32400,"station_id":"ce4bgqh2rcd13ifvqc4g","pricing_plan_id":"cebpf4jnsgd1na2vs0mg"},{"bike_id":"16259231-83f4-4c0b-b4de-0dcb1d03ab7a","system_id":"levelo_inurba_marseille","lat":43.337444,"lon":5.374475,"is_reserved":false,"is_disabled":false,"rental_uris":{"android":"levelo://app?vid=16259231-83f4-4c0b-b4de-0dcb1d03ab7a","ios":"levelo://app?vid=16259231-83f4-4c0b-b4de-0dcb1d03ab7a"},"vehicle_type_id":"4","last_reported":1732796304,"current_range_meters":37600,"station_id":"","pricing_plan_id":"cebpf4jnsgd1na2vs0mg"},{"bike_id":"7b7c7bfd-7bf7-4539-80ec-4a417d8dfd62","system_id":"levelo_inurba_marseille","lat":43.29781,"lon":5.39333,"is_reserved":false,"is_disabled":false,"rental_uris":{"android":"levelo://app?vid=7b7c7bfd-7bf7-4539-80ec-4a417d8dfd62","ios":"levelo://app?vid=7b7c7bfd-7bf7-4539-80ec-4a417d8dfd62"},"vehicle_type_id":"4","last_reported":1732796304,"current_range_meters":25200,"station_id":"chh1huq6cuj3fo74tm60","pricing_plan_id":"cebpf4jnsgd1na2vs0mg"},{"bike_id":"387edc87-4aa6-428b-b685-9bf1cfd8674e","system_id":"levelo_inurba_marseille","lat":43.30136,"lon":5.39857,"is_reserved":false,"is_disabled":false,"rental_uris":{"android":"levelo://app?vid=387edc87-4aa6-428b-b685-9bf1cfd8674e","ios":"levelo://app?vid=387edc87-4aa6-428b-b685-9bf1cfd8674e"},"vehicle_type_id":"4","last_reported":1732796304,"current_range_meters":30000,"station_id":"ce4bh0h2rcd13ifvqd40","pricing_plan_id":"cebpf4jnsgd1na2vs0mg"},{"bike_id":"220ce8bf-6055-439a-932f-70112f24c52b","system_id":"levelo_inurba_marseille","lat":43.32111,"lon":5.36768,"is_reserved":false,"is_disabled":false,"rental_uris":{"android":"levelo://app?vid=220ce8bf-6055-439a-932f-70112f24c52b","ios":"levelo://app?vid=220ce8bf-6055-439a-932f-70112f24c52b"},"vehicle_type_id":"4","last_reported":1732796304,"current_range_meters":10800,"station_id":"ce4bhrh2rcd13ifvqhug","pricing_plan_id":"cebpf4jnsgd1na2vs0mg"},{"bike_id":"2b0c3bf2-dfe9-4c66-ae42-dc17f597faa2","system_id":"levelo_inurba_marseille","lat":43.27948,"lon":5.41052,"is_reserved":false,"is_disabled":false,"rental_uris":{"android":"levelo://app?vid=2b0c3bf2-dfe9-4c66-ae42-dc17f597faa2","ios":"levelo://app?vid=2b0c3bf2-dfe9-4c66-ae42-dc17f597faa2"},"vehicle_type_id":"4","last_reported":1732796304,"current_range_meters":7200,"station_id":"ce4bhnp2rcd13ifvqh0g","pricing_plan_id":"cebpf4jnsgd1na2vs0mg"},{"bike_id":"a3671314-194f-49ad-ad3a-9bf1b446be31","system_id":"levelo_inurba_marseille","lat":43.26561,"lon":5.37293,"is_reserved":false,"is_disabled":false,"rental_uris":{"android":"levelo://app?vid=a3671314-194f-49ad-ad3a-9bf1b446be31","ios":"levelo://app?vid=a3671314-194f-49ad-ad3a-9bf1b446be31"},"vehicle_type_id":"4","last_reported":1732796304,"current_range_meters":16400,"station_id":"ce4bhg12rcd13ifvqf70","pricing_plan_id":"cebpf4jnsgd1na2vs0mg"},{"bike_id":"0b8f5291-bb3d-4461-9705-5b4dedbd6f61","system_id":"levelo_inurba_marseille","lat":43.28945,"lon":5.36643,"is_reserved":false,"is_disabled":false,"rental_uris":{"android":"levelo://app?vid=0b8f5291-bb3d-4461-9705-5b4dedbd6f61","ios":"levelo://app?vid=0b8f5291-bb3d-4461-9705-5b4dedbd6f61"},"vehicle_type_id":"4","last_reported":1732796304,"current_range_meters":22400,"station_id":"ce4bhap2rcd13ifvqek0","pricing_plan_id":"cebpf4jnsgd1na2vs0mg"},{"bike_id":"6c249655-915a-4718-aa6c-13df1c973bb6","system_id":"levelo_inurba_marseille","lat":43.3011,"lon":5.39171,"is_reserved":false,"is_disabled":false,"rental_uris":{"android":"levelo://app?vid=6c249655-915a-4718-aa6c-13df1c973bb6","ios":"levelo://app?vid=6c249655-915a-4718-aa6c-13df1c973bb6"},"vehicle_type_id":"4","last_reported":1732796304,"current_range_meters":8800,"station_id":"","pricing_plan_id":"cebpf4jnsgd1na2vs0mg"},{"bike_id":"fa3cc2c8-e552-4d78-8b53-b0029dd3141b","system_id":"levelo_inurba_marseille","lat":43.27205,"lon":5.39172,"is_reserved":false,"is_disabled":true,"rental_uris":{"android":"levelo://app?vid=fa3cc2c8-e552-4d78-8b53-b0029dd3141b","ios":"levelo://app?vid=fa3cc2c8-e552-4d78-8b53-b0029dd3141b"},"vehicle_type_id":"4","last_reported":1732796304,"current_range_meters":0,"station_id":"ce4bhhp2rcd13ifvqfm0","pricing_plan_id":"cebpf4jnsgd1na2vs0mg"},{"bike_id":"9ba17297-6532-486f-9ea1-b03ac5b99084","system_id":"levelo_inurba_marseille","lat":43.31766,"lon":5.38995,"is_reserved":false,"is_disabled":false,"rental_uris":{"android":"levelo://app?vid=9ba17297-6532-486f-9ea1-b03ac5b99084","ios":"levelo://app?vid=9ba17297-6532-486f-9ea1-b03ac5b99084"},"vehicle_type_id":"4","last_reported":1732796304,"current_range_meters":6800,"station_id":"ce4bhqp2rcd13ifvqhng","pricing_plan_id":"cebpf4jnsgd1na2vs0mg"},{"bike_id":"fab79947-e52f-48a0-9e1b-09c103b132db","system_id":"levelo_inurba_marseille","lat":43.25496,"lon":5.3766,"is_reserved":false,"is_disabled":false,"rental_uris":{"android":"levelo://app?vid=fab79947-e52f-48a0-9e1b-09c103b132db","ios":"levelo://app?vid=fab79947-e52f-48a0-9e1b-09c103b132db"},"vehicle_type_id":"4","last_reported":1732796304,"current_range_meters":30000,"station_id":"ce4bhh12rcd13ifvqff0","pricing_plan_id":"cebpf4jnsgd1na2vs0mg"},{"bike_id":"1cd78e3c-eca2-430e-a00b-3450b52eb373","system_id":"levelo_inurba_marseille","lat":43.22931,"lon":5.35377,"is_reserved":false,"is_disabled":false,"rental_uris":{"android":"levelo://app?vid=1cd78e3c-eca2-430e-a00b-3450b52eb373","ios":"levelo://app?vid=1cd78e3c-eca2-430e-a00b-3450b52eb373"},"vehicle_type_id":"4","last_reported":1732796304,"current_range_meters":33200,"station_id":"cpo3532slgdg3j2ikp40","pricing_plan_id":"cebpf4jnsgd1na2vs0mg"},{"bike_id":"127855e3-e3a6-4951-8bd5-b0460daa807b","system_id":"levelo_inurba_marseille","lat":43.30555,"lon":5.36562,"is_reserved":false,"is_disabled":false,"rental_uris":{"android":"levelo://app?vid=127855e3-e3a6-4951-8bd5-b0460daa807b","ios":"levelo://app?vid=127855e3-e3a6-4951-8bd5-b0460daa807b"},"vehicle_type_id":"4","last_reported":1732796304,"current_range_meters":38800,"station_id":"ce4bgs12rcd13ifvqcag","pricing_plan_id":"cebpf4jnsgd1na2vs0mg"},{"bike_id":"97b5cb36-b472-4883-96c2-5ac6765d6623","system_id":"levelo_inurba_marseille","lat":43.28336,"lon":5.3811,"is_reserved":false,"is_disabled":false,"rental_uris":{"android":"levelo://app?vid=97b5cb36-b472-4883-96c2-5ac6765d6623","ios":"levelo://app?vid=97b5cb36-b472-4883-96c2-5ac6765d6623"},"vehicle_type_id":"4","last_reported":1732796304,"current_range_meters":38800,"station_id":"ce4bh412rcd13ifvqdr0","pricing_plan_id":"cebpf4jnsgd1na2vs0mg"},{"bike_id":"8781107a-bca3-4fb5-8e13-c1a0e84595bc","system_id":"levelo_inurba_marseille","lat":43.27071,"lon":5.42269,"is_reserved":false,"is_disabled":false,"rental_uris":{"android":"levelo://app?vid=8781107a-bca3-4fb5-8e13-c1a0e84595bc","ios":"levelo://app?vid=8781107a-bca3-4fb5-8e13-c1a0e84595bc"},"vehicle_type_id":"4","last_reported":1732796304,"current_range_meters":8400,"station_id":"ce4bhk92rcd13ifvqgb0","pricing_plan_id":"cebpf4jnsgd1na2vs0mg"},{"bike_id":"e6060ef1-391a-480c-81fb-1d41a4490686","system_id":"levelo_inurba_marseille","lat":43.3091,"lon":5.3685,"is_reserved":false,"is_disabled":false,"rental_uris":{"android":"levelo://app?vid=e6060ef1-391a-480c-81fb-1d41a4490686","ios":"levelo://app?vid=e6060ef1-391a-480c-81fb-1d41a4490686"},"vehicle_type_id":"4","last_reported":1732796304,"current_range_meters":9600,"station_id":"ce4bgn92rcd13ifvqbvg","pricing_plan_id":"cebpf4jnsgd1na2vs0mg"},{"bike_id":"e0e31d9f-dce4-4588-8474-561c2167787f","system_id":"levelo_inurba_marseille","lat":43.25085,"lon":5.39523,"is_reserved":false,"is_disabled":false,"rental_uris":{"android":"levelo://app?vid=e0e31d9f-dce4-4588-8474-561c2167787f","ios":"levelo://app?vid=e0e31d9f-dce4-4588-8474-561c2167787f"},"vehicle_type_id":"4","last_reported":1732796304,"current_range_meters":28000,"station_id":"ce4bhm12rcd13ifvqgkg","pricing_plan_id":"cebpf4jnsgd1na2vs0mg"},{"bike_id":"3c57578b-ae7f-4bed-8133-7346a7d078f8","system_id":"levelo_inurba_marseille","lat":43.29973,"lon":5.38488,"is_reserved":false,"is_disabled":false,"rental_uris":{"android":"levelo://app?vid=3c57578b-ae7f-4bed-8133-7346a7d078f8","ios":"levelo://app?vid=3c57578b-ae7f-4bed-8133-7346a7d078f8"},"vehicle_type_id":"4","last_reported":1732796304,"current_range_meters":38800,"station_id":"ce4bgj92rcd13ifvqbd0","pricing_plan_id":"cebpf4jnsgd1na2vs0mg"},{"bike_id":"fa8a9680-c70c-422f-8033-c66e027a8587","system_id":"levelo_inurba_marseille","lat":43.30462,"lon":5.3791,"is_reserved":false,"is_disabled":true,"rental_uris":{"android":"levelo://app?vid=fa8a9680-c70c-422f-8033-c66e027a8587","ios":"levelo://app?vid=fa8a9680-c70c-422f-8033-c66e027a8587"},"vehicle_type_id":"4","last_reported":1732796304,"current_range_meters":36800,"station_id":"ce4bgup2rcd13ifvqcn0","pricing_plan_id":"cebpf4jnsgd1na2vs0mg"},{"bike_id":"08b51c95-4e77-4807-a865-5ecf5be3e8c8","system_id":"levelo_inurba_marseille","lat":43.27806,"lon":5.40707,"is_reserved":false,"is_disabled":false,"rental_uris":{"android":"levelo://app?vid=08b51c95-4e77-4807-a865-5ecf5be3e8c8","ios":"levelo://app?vid=08b51c95-4e77-4807-a865-5ecf5be3e8c8"},"vehicle_type_id":"4","last_reported":1732796304,"current_range_meters":38800,"station_id":"ce4bhnh2rcd13ifvqgtg","pricing_plan_id":"cebpf4jnsgd1na2vs0mg"},{"bike_id":"3dd27f14-51ec-4d1e-8d64-1ea7632555f3","system_id":"levelo_inurba_marseille","lat":43.32106,"lon":5.36784,"is_reserved":false,"is_disabled":false,"rental_uris":{"android":"levelo://app?vid=3dd27f14-51ec-4d1e-8d64-1ea7632555f3","ios":"levelo://app?vid=3dd27f14-51ec-4d1e-8d64-1ea7632555f3"},"vehicle_type_id":"4","last_reported":1732796304,"current_range_meters":36400,"station_id":"ce4bhrh2rcd13ifvqhug","pricing_plan_id":"cebpf4jnsgd1na2vs0mg"},{"bike_id":"ef7faf07-a670-4e15-b564-bded5c7ce834","system_id":"levelo_inurba_marseille","lat":43.32354,"lon":5.36752,"is_reserved":false,"is_disabled":false,"rental_uris":{"android":"levelo://app?vid=ef7faf07-a670-4e15-b564-bded5c7ce834","ios":"levelo://app?vid=ef7faf07-a670-4e15-b564-bded5c7ce834"},"vehicle_type_id":"4","last_reported":1732796304,"current_range_meters":37600,"station_id":"ce4bhsh2rcd13ifvqi2g","pricing_plan_id":"cebpf4jnsgd1na2vs0mg"},{"bike_id":"a81f9b4e-91a8-466e-a59a-fc27f42959de","system_id":"levelo_inurba_marseille","lat":43.27838,"lon":5.39206,"is_reserved":false,"is_disabled":false,"rental_uris":{"android":"levelo://app?vid=a81f9b4e-91a8-466e-a59a-fc27f42959de","ios":"levelo://app?vid=a81f9b4e-91a8-466e-a59a-fc27f42959de"},"vehicle_type_id":"4","last_reported":1732796304,"current_range_meters":38800,"station_id":"ce4bhjp2rcd13ifvqga0","pricing_plan_id":"cebpf4jnsgd1na2vs0mg"},{"bike_id":"7acf64e6-102c-4b24-bfca-4cd2f2ab9f83","system_id":"levelo_inurba_marseille","lat":43.3054,"lon":5.36534,"is_reserved":false,"is_disabled":false,"rental_uris":{"android":"levelo://app?vid=7acf64e6-102c-4b24-bfca-4cd2f2ab9f83","ios":"levelo://app?vid=7acf64e6-102c-4b24-bfca-4cd2f2ab9f83"},"vehicle_type_id":"4","last_reported":1732796304,"current_range_meters":38400,"station_id":"","pricing_plan_id":"cebpf4jnsgd1na2vs0mg"},{"bike_id":"2e95a691-d7d8-426b-8dba-47b6b56c6a41","system_id":"levelo_inurba_marseille","lat":43.28151,"lon":5.42641,"is_reserved":false,"is_disabled":true,"rental_uris":{"android":"levelo://app?vid=2e95a691-d7d8-426b-8dba-47b6b56c6a41","ios":"levelo://app?vid=2e95a691-d7d8-426b-8dba-47b6b56c6a41"},"vehicle_type_id":"4","last_reported":1732796304,"current_range_meters":1600,"station_id":"ce4bhnh2rcd13ifvqgug","pricing_plan_id":"cebpf4jnsgd1na2vs0mg"},{"bike_id":"aa262170-281b-4556-817d-784dc19f9c9b","system_id":"levelo_inurba_marseille","lat":43.32501,"lon":5.36533,"is_reserved":false,"is_disabled":false,"rental_uris":{"android":"levelo://app?vid=aa262170-281b-4556-817d-784dc19f9c9b","ios":"levelo://app?vid=aa262170-281b-4556-817d-784dc19f9c9b"},"vehicle_type_id":"4","last_reported":1732796304,"current_range_meters":38800,"station_id":"ce4bhs12rcd13ifvqhvg","pricing_plan_id":"cebpf4jnsgd1na2vs0mg"},{"bike_id":"18916ba6-c544-4e23-8928-cffb6b7c9398","system_id":"levelo_inurba_marseille","lat":43.26683,"lon":5.38269,"is_reserved":false,"is_disabled":false,"rental_uris":{"android":"levelo://app?vid=18916ba6-c544-4e23-8928-cffb6b7c9398","ios":"levelo://app?vid=18916ba6-c544-4e23-8928-cffb6b7c9398"},"vehicle_type_id":"4","last_reported":1732796304,"current_range_meters":15200,"station_id":"ce4bhg92rcd13ifvqf90","pricing_plan_id":"cebpf4jnsgd1na2vs0mg"},{"bike_id":"a3328f51-471e-4d99-8706-f1c1c032d4e5","system_id":"levelo_inurba_marseille","lat":43.28963,"lon":5.37831,"is_reserved":false,"is_disabled":false,"rental_uris":{"android":"levelo://app?vid=a3328f51-471e-4d99-8706-f1c1c032d4e5","ios":"levelo://app?vid=a3328f51-471e-4d99-8706-f1c1c032d4e5"},"vehicle_type_id":"4","last_reported":1732796304,"current_range_meters":24800,"station_id":"ce4bh9p2rcd13ifvqed0","pricing_plan_id":"cebpf4jnsgd1na2vs0mg"},{"bike_id":"081b7042-3e8e-45f4-a00b-32912a173d68","system_id":"levelo_inurba_marseille","lat":43.29303,"lon":5.3746,"is_reserved":false,"is_disabled":false,"rental_uris":{"android":"levelo://app?vid=081b7042-3e8e-45f4-a00b-32912a173d68","ios":"levelo://app?vid=081b7042-3e8e-45f4-a00b-32912a173d68"},"vehicle_type_id":"4","last_reported":1732796304,"current_range_meters":36400,"station_id":"ce4bgi12rcd13ifvqb70","pricing_plan_id":"cebpf4jnsgd1na2vs0mg"},{"bike_id":"2b676a0b-49b5-43cb-9e70-4d77a0b798fd","system_id":"levelo_inurba_marseille","lat":43.30663,"lon":5.36805,"is_reserved":false,"is_disabled":false,"rental_uris":{"android":"levelo://app?vid=2b676a0b-49b5-43cb-9e70-4d77a0b798fd","ios":"levelo://app?vid=2b676a0b-49b5-43cb-9e70-4d77a0b798fd"},"vehicle_type_id":"4","last_reported":1732796304,"current_range_meters":32000,"station_id":"","pricing_plan_id":"cebpf4jnsgd1na2vs0mg"},{"bike_id":"e51b2acb-d883-446b-9ce9-347608453ece","system_id":"levelo_inurba_marseille","lat":43.22928,"lon":5.35375,"is_reserved":false,"is_disabled":false,"rental_uris":{"android":"levelo://app?vid=e51b2acb-d883-446b-9ce9-347608453ece","ios":"levelo://app?vid=e51b2acb-d883-446b-9ce9-347608453ece"},"vehicle_type_id":"4","last_reported":1732796304,"current_range_meters":32000,"station_id":"cpo3532slgdg3j2ikp40","pricing_plan_id":"cebpf4jnsgd1na2vs0mg"},{"bike_id":"b7d76cc0-ffc0-422a-85a3-3e01e184650f","system_id":"levelo_inurba_marseille","lat":43.29094,"lon":5.3813,"is_reserved":false,"is_disabled":false,"rental_uris":{"android":"levelo://app?vid=b7d76cc0-ffc0-422a-85a3-3e01e184650f","ios":"levelo://app?vid=b7d76cc0-ffc0-422a-85a3-3e01e184650f"},"vehicle_type_id":"4","last_reported":1732796304,"current_range_meters":8000,"station_id":"ce4bh512rcd13ifvqe2g","pricing_plan_id":"cebpf4jnsgd1na2vs0mg"},{"bike_id":"f5f4e3ff-5939-4058-95e9-0ce7505e213c","system_id":"levelo_inurba_marseille","lat":43.32478,"lon":5.36566,"is_reserved":false,"is_disabled":false,"rental_uris":{"android":"levelo://app?vid=f5f4e3ff-5939-4058-95e9-0ce7505e213c","ios":"levelo://app?vid=f5f4e3ff-5939-4058-95e9-0ce7505e213c"},"vehicle_type_id":"4","last_reported":1732796304,"current_range_meters":13600,"station_id":"ce4bhs12rcd13ifvqhvg","pricing_plan_id":"cebpf4jnsgd1na2vs0mg"},{"bike_id":"6a4001d6-d444-4013-81f0-795a143d0522","system_id":"levelo_inurba_marseille","lat":43.30151,"lon":5.38774,"is_reserved":false,"is_disabled":true,"rental_uris":{"android":"levelo://app?vid=6a4001d6-d444-4013-81f0-795a143d0522","ios":"levelo://app?vid=6a4001d6-d444-4013-81f0-795a143d0522"},"vehicle_type_id":"4","last_reported":1732796304,"current_range_meters":28000,"station_id":"ce4bghh2rcd13ifvqb60","pricing_plan_id":"cebpf4jnsgd1na2vs0mg"},{"bike_id":"afe7eef4-b234-4de6-b573-de73847ca045","system_id":"levelo_inurba_marseille","lat":43.2655,"lon":5.37284,"is_reserved":false,"is_disabled":true,"rental_uris":{"android":"levelo://app?vid=afe7eef4-b234-4de6-b573-de73847ca045","ios":"levelo://app?vid=afe7eef4-b234-4de6-b573-de73847ca045"},"vehicle_type_id":"4","last_reported":1732796304,"current_range_meters":0,"station_id":"ce4bhg12rcd13ifvqf70","pricing_plan_id":"cebpf4jnsgd1na2vs0mg"},{"bike_id":"36c2e099-818d-4574-9908-042aa295646a","system_id":"levelo_inurba_marseille","lat":43.25941,"lon":5.409,"is_reserved":false,"is_disabled":true,"rental_uris":{"android":"levelo://app?vid=36c2e099-818d-4574-9908-042aa295646a","ios":"levelo://app?vid=36c2e099-818d-4574-9908-042aa295646a"},"vehicle_type_id":"4","last_reported":1732796304,"current_range_meters":38800,"station_id":"ce4bhm92rcd13ifvqglg","pricing_plan_id":"cebpf4jnsgd1na2vs0mg"},{"bike_id":"f7f3756c-1ec7-4782-9c87-6273f87b6774","system_id":"levelo_inurba_marseille","lat":43.337444,"lon":5.374475,"is_reserved":false,"is_disabled":true,"rental_uris":{"android":"levelo://app?vid=f7f3756c-1ec7-4782-9c87-6273f87b6774","ios":"levelo://app?vid=f7f3756c-1ec7-4782-9c87-6273f87b6774"},"vehicle_type_id":"4","last_reported":1732796304,"current_range_meters":10800,"station_id":"","pricing_plan_id":"cebpf4jnsgd1na2vs0mg"},{"bike_id":"44692518-f307-4d34-bde3-20456f8e1767","system_id":"levelo_inurba_marseille","lat":43.27416,"lon":5.39006,"is_reserved":false,"is_disabled":false,"rental_uris":{"android":"levelo://app?vid=44692518-f307-4d34-bde3-20456f8e1767","ios":"levelo://app?vid=44692518-f307-4d34-bde3-20456f8e1767"},"vehicle_type_id":"4","last_reported":1732796304,"current_range_meters":29600,"station_id":"","pricing_plan_id":"cebpf4jnsgd1na2vs0mg"},{"bike_id":"430d73dc-83ac-47d5-b7fe-54b172661338","system_id":"levelo_inurba_marseille","lat":43.25112,"lon":5.4032,"is_reserved":false,"is_disabled":false,"rental_uris":{"android":"levelo://app?vid=430d73dc-83ac-47d5-b7fe-54b172661338","ios":"levelo://app?vid=430d73dc-83ac-47d5-b7fe-54b172661338"},"vehicle_type_id":"4","last_reported":1732796304,"current_range_meters":4000,"station_id":"ce4bhlh2rcd13ifvqgig","pricing_plan_id":"cebpf4jnsgd1na2vs0mg"},{"bike_id":"c2fa67ab-c54a-4f53-9403-06dbb317af48","system_id":"levelo_inurba_marseille","lat":43.25498,"lon":5.37651,"is_reserved":false,"is_disabled":false,"rental_uris":{"android":"levelo://app?vid=c2fa67ab-c54a-4f53-9403-06dbb317af48","ios":"levelo://app?vid=c2fa67ab-c54a-4f53-9403-06dbb317af48"},"vehicle_type_id":"4","last_reported":1732796304,"current_range_meters":18000,"station_id":"ce4bhh12rcd13ifvqff0","pricing_plan_id":"cebpf4jnsgd1na2vs0mg"},{"bike_id":"1f3fce59-8a74-44f2-b989-7ad8feb15f1a","system_id":"levelo_inurba_marseille","lat":43.25495,"lon":5.37655,"is_reserved":false,"is_disabled":false,"rental_uris":{"android":"levelo://app?vid=1f3fce59-8a74-44f2-b989-7ad8feb15f1a","ios":"levelo://app?vid=1f3fce59-8a74-44f2-b989-7ad8feb15f1a"},"vehicle_type_id":"4","last_reported":1732796304,"current_range_meters":28000,"station_id":"ce4bhh12rcd13ifvqff0","pricing_plan_id":"cebpf4jnsgd1na2vs0mg"},{"bike_id":"464dd3db-600f-45e6-8f7a-d494c55c3e14","system_id":"levelo_inurba_marseille","lat":43.25105,"lon":5.40323,"is_reserved":false,"is_disabled":true,"rental_uris":{"android":"levelo://app?vid=464dd3db-600f-45e6-8f7a-d494c55c3e14","ios":"levelo://app?vid=464dd3db-600f-45e6-8f7a-d494c55c3e14"},"vehicle_type_id":"4","last_reported":1732796304,"current_range_meters":1200,"station_id":"ce4bhlh2rcd13ifvqgig","pricing_plan_id":"cebpf4jnsgd1na2vs0mg"},{"bike_id":"400b2d52-e3aa-4292-bf64-ff3865f815c1","system_id":"levelo_inurba_marseille","lat":43.30306,"lon":5.36892,"is_reserved":false,"is_disabled":false,"rental_uris":{"android":"levelo://app?vid=400b2d52-e3aa-4292-bf64-ff3865f815c1","ios":"levelo://app?vid=400b2d52-e3aa-4292-bf64-ff3865f815c1"},"vehicle_type_id":"4","last_reported":1732796304,"current_range_meters":34000,"station_id":"ce4bgqh2rcd13ifvqc5g","pricing_plan_id":"cebpf4jnsgd1na2vs0mg"},{"bike_id":"df744899-6467-4a2d-8132-101284d5d795","system_id":"levelo_inurba_marseille","lat":43.278293,"lon":5.391997,"is_reserved":false,"is_disabled":false,"rental_uris":{"android":"levelo://app?vid=df744899-6467-4a2d-8132-101284d5d795","ios":"levelo://app?vid=df744899-6467-4a2d-8132-101284d5d795"},"vehicle_type_id":"4","last_reported":1732796304,"current_range_meters":32800,"station_id":"ce4bhjp2rcd13ifvqga0","pricing_plan_id":"cebpf4jnsgd1na2vs0mg"},{"bike_id":"bc6040f1-df60-4d6f-99de-06d4962fb67a","system_id":"levelo_inurba_marseille","lat":43.30139,"lon":5.37424,"is_reserved":false,"is_disabled":false,"rental_uris":{"android":"levelo://app?vid=bc6040f1-df60-4d6f-99de-06d4962fb67a","ios":"levelo://app?vid=bc6040f1-df60-4d6f-99de-06d4962fb67a"},"vehicle_type_id":"4","last_reported":1732796304,"current_range_meters":14800,"station_id":"ce4bgs92rcd13ifvqcc0","pricing_plan_id":"cebpf4jnsgd1na2vs0mg"},{"bike_id":"a5909545-3e09-4859-9fda-9ffe4e6e4883","system_id":"levelo_inurba_marseille","lat":43.23067,"lon":5.35489,"is_reserved":false,"is_disabled":false,"rental_uris":{"android":"levelo://app?vid=a5909545-3e09-4859-9fda-9ffe4e6e4883","ios":"levelo://app?vid=a5909545-3e09-4859-9fda-9ffe4e6e4883"},"vehicle_type_id":"4","last_reported":1732796304,"current_range_meters":23200,"station_id":"cpo3342slgdg3j2ifvpg","pricing_plan_id":"cebpf4jnsgd1na2vs0mg"},{"bike_id":"8481bfc0-25c0-4c55-9a13-9b5d84ce645f","system_id":"levelo_inurba_marseille","lat":43.26976,"lon":5.38947,"is_reserved":false,"is_disabled":false,"rental_uris":{"android":"levelo://app?vid=8481bfc0-25c0-4c55-9a13-9b5d84ce645f","ios":"levelo://app?vid=8481bfc0-25c0-4c55-9a13-9b5d84ce645f"},"vehicle_type_id":"4","last_reported":1732796304,"current_range_meters":32400,"station_id":"ce4bhhh2rcd13ifvqfl0","pricing_plan_id":"cebpf4jnsgd1na2vs0mg"},{"bike_id":"1cd8d8c2-d5fc-4c8b-90eb-5d03ca0779ff","system_id":"levelo_inurba_marseille","lat":43.29923,"lon":5.36548,"is_reserved":false,"is_disabled":false,"rental_uris":{"android":"levelo://app?vid=1cd8d8c2-d5fc-4c8b-90eb-5d03ca0779ff","ios":"levelo://app?vid=1cd8d8c2-d5fc-4c8b-90eb-5d03ca0779ff"},"vehicle_type_id":"4","last_reported":1732796304,"current_range_meters":20400,"station_id":"ce4bgm92rcd13ifvqbr0","pricing_plan_id":"cebpf4jnsgd1na2vs0mg"},{"bike_id":"636c38c7-b57f-44ef-879f-37f296bc8e0a","system_id":"levelo_inurba_marseille","lat":43.32103,"lon":5.36784,"is_reserved":false,"is_disabled":false,"rental_uris":{"android":"levelo://app?vid=636c38c7-b57f-44ef-879f-37f296bc8e0a","ios":"levelo://app?vid=636c38c7-b57f-44ef-879f-37f296bc8e0a"},"vehicle_type_id":"4","last_reported":1732796304,"current_range_meters":18800,"station_id":"ce4bhrh2rcd13ifvqhug","pricing_plan_id":"cebpf4jnsgd1na2vs0mg"},{"bike_id":"5bb8cf62-0150-4ee3-b4f2-70f8ee9dbb8a","system_id":"levelo_inurba_marseille","lat":43.26206,"lon":5.37439,"is_reserved":false,"is_disabled":false,"rental_uris":{"android":"levelo://app?vid=5bb8cf62-0150-4ee3-b4f2-70f8ee9dbb8a","ios":"levelo://app?vid=5bb8cf62-0150-4ee3-b4f2-70f8ee9dbb8a"},"vehicle_type_id":"4","last_reported":1732796304,"current_range_meters":28000,"station_id":"ce4bhgp2rcd13ifvqfc0","pricing_plan_id":"cebpf4jnsgd1na2vs0mg"},{"bike_id":"ae934905-edbe-426a-b615-778d21c28ba5","system_id":"levelo_inurba_marseille","lat":43.313536,"lon":5.367118,"is_reserved":false,"is_disabled":false,"rental_uris":{"android":"levelo://app?vid=ae934905-edbe-426a-b615-778d21c28ba5","ios":"levelo://app?vid=ae934905-edbe-426a-b615-778d21c28ba5"},"vehicle_type_id":"4","last_reported":1732796304,"current_range_meters":38800,"station_id":"ce4bgr92rcd13ifvqc6g","pricing_plan_id":"cebpf4jnsgd1na2vs0mg"},{"bike_id":"e5951ee3-4a5a-4ebb-b469-096c5188dfa3","system_id":"levelo_inurba_marseille","lat":43.23191,"lon":5.35555,"is_reserved":false,"is_disabled":false,"rental_uris":{"android":"levelo://app?vid=e5951ee3-4a5a-4ebb-b469-096c5188dfa3","ios":"levelo://app?vid=e5951ee3-4a5a-4ebb-b469-096c5188dfa3"},"vehicle_type_id":"4","last_reported":1732796304,"current_range_meters":28000,"station_id":"ce4bhu92rcd13ifvqi70","pricing_plan_id":"cebpf4jnsgd1na2vs0mg"},{"bike_id":"551079ac-62f6-4029-9579-63ffc464325f","system_id":"levelo_inurba_marseille","lat":43.23225,"lon":5.35543,"is_reserved":false,"is_disabled":false,"rental_uris":{"android":"levelo://app?vid=551079ac-62f6-4029-9579-63ffc464325f","ios":"levelo://app?vid=551079ac-62f6-4029-9579-63ffc464325f"},"vehicle_type_id":"4","last_reported":1732796304,"current_range_meters":38800,"station_id":"ce4bhu92rcd13ifvqi70","pricing_plan_id":"cebpf4jnsgd1na2vs0mg"},{"bike_id":"cbe0d9ab-f4b9-49c0-9298-050cb9cbc18d","system_id":"levelo_inurba_marseille","lat":43.2408,"lon":5.37763,"is_reserved":false,"is_disabled":false,"rental_uris":{"android":"levelo://app?vid=cbe0d9ab-f4b9-49c0-9298-050cb9cbc18d","ios":"levelo://app?vid=cbe0d9ab-f4b9-49c0-9298-050cb9cbc18d"},"vehicle_type_id":"4","last_reported":1732796304,"current_range_meters":19200,"station_id":"ce4bhnp2rcd13ifvqgvg","pricing_plan_id":"cebpf4jnsgd1na2vs0mg"},{"bike_id":"6c948e9c-d5b3-4fe5-a918-1bd2f7c83b02","system_id":"levelo_inurba_marseille","lat":43.3211,"lon":5.36771,"is_reserved":false,"is_disabled":false,"rental_uris":{"android":"levelo://app?vid=6c948e9c-d5b3-4fe5-a918-1bd2f7c83b02","ios":"levelo://app?vid=6c948e9c-d5b3-4fe5-a918-1bd2f7c83b02"},"vehicle_type_id":"4","last_reported":1732796304,"current_range_meters":8400,"station_id":"ce4bhrh2rcd13ifvqhug","pricing_plan_id":"cebpf4jnsgd1na2vs0mg"},{"bike_id":"81d5315b-ecf8-4a90-acd8-dcf42a7aa5bc","system_id":"levelo_inurba_marseille","lat":43.2749,"lon":5.42456,"is_reserved":false,"is_disabled":true,"rental_uris":{"android":"levelo://app?vid=81d5315b-ecf8-4a90-acd8-dcf42a7aa5bc","ios":"levelo://app?vid=81d5315b-ecf8-4a90-acd8-dcf42a7aa5bc"},"vehicle_type_id":"4","last_reported":1732796304,"current_range_meters":0,"station_id":"ce4bhn92rcd13ifvqgrg","pricing_plan_id":"cebpf4jnsgd1na2vs0mg"},{"bike_id":"06c43732-24fc-4711-a85d-11ac2daa38ba","system_id":"levelo_inurba_marseille","lat":43.30469,"lon":5.37915,"is_reserved":false,"is_disabled":false,"rental_uris":{"android":"levelo://app?vid=06c43732-24fc-4711-a85d-11ac2daa38ba","ios":"levelo://app?vid=06c43732-24fc-4711-a85d-11ac2daa38ba"},"vehicle_type_id":"4","last_reported":1732796304,"current_range_meters":28000,"station_id":"ce4bgup2rcd13ifvqcn0","pricing_plan_id":"cebpf4jnsgd1na2vs0mg"},{"bike_id":"4fadface-1536-4d4a-ba8b-fa07eea2d686","system_id":"levelo_inurba_marseille","lat":43.279353,"lon":5.410427,"is_reserved":false,"is_disabled":false,"rental_uris":{"android":"levelo://app?vid=4fadface-1536-4d4a-ba8b-fa07eea2d686","ios":"levelo://app?vid=4fadface-1536-4d4a-ba8b-fa07eea2d686"},"vehicle_type_id":"4","last_reported":1732796304,"current_range_meters":33200,"station_id":"ce4bhnp2rcd13ifvqh0g","pricing_plan_id":"cebpf4jnsgd1na2vs0mg"},{"bike_id":"22b3929f-f9eb-4ea9-862c-2301fb498736","system_id":"levelo_inurba_marseille","lat":43.24805,"lon":5.3746,"is_reserved":false,"is_disabled":false,"rental_uris":{"android":"levelo://app?vid=22b3929f-f9eb-4ea9-862c-2301fb498736","ios":"levelo://app?vid=22b3929f-f9eb-4ea9-862c-2301fb498736"},"vehicle_type_id":"4","last_reported":1732796304,"current_range_meters":39200,"station_id":"ce4bhgh2rcd13ifvqfb0","pricing_plan_id":"cebpf4jnsgd1na2vs0mg"},{"bike_id":"45ba5f73-ec93-4f07-a828-0cb625a1ae35","system_id":"levelo_inurba_marseille","lat":43.27067,"lon":5.42273,"is_reserved":false,"is_disabled":true,"rental_uris":{"android":"levelo://app?vid=45ba5f73-ec93-4f07-a828-0cb625a1ae35","ios":"levelo://app?vid=45ba5f73-ec93-4f07-a828-0cb625a1ae35"},"vehicle_type_id":"4","last_reported":1732796304,"current_range_meters":2800,"station_id":"ce4bhk92rcd13ifvqgb0","pricing_plan_id":"cebpf4jnsgd1na2vs0mg"},{"bike_id":"001d9fcc-222d-4ae9-a90b-62418c738c73","system_id":"levelo_inurba_marseille","lat":43.27047,"lon":5.40265,"is_reserved":false,"is_disabled":false,"rental_uris":{"android":"levelo://app?vid=001d9fcc-222d-4ae9-a90b-62418c738c73","ios":"levelo://app?vid=001d9fcc-222d-4ae9-a90b-62418c738c73"},"vehicle_type_id":"4","last_reported":1732796304,"current_range_meters":6800,"station_id":"ce4bhk92rcd13ifvqgc0","pricing_plan_id":"cebpf4jnsgd1na2vs0mg"},{"bike_id":"3cadd369-1736-4a17-aec0-717db3df6c0f","system_id":"levelo_inurba_marseille","lat":43.265567,"lon":5.372853,"is_reserved":false,"is_disabled":true,"rental_uris":{"android":"levelo://app?vid=3cadd369-1736-4a17-aec0-717db3df6c0f","ios":"levelo://app?vid=3cadd369-1736-4a17-aec0-717db3df6c0f"},"vehicle_type_id":"4","last_reported":1732796304,"current_range_meters":0,"station_id":"ce4bhg12rcd13ifvqf70","pricing_plan_id":"cebpf4jnsgd1na2vs0mg"},{"bike_id":"bfa7c1a2-f54e-402a-a2db-4de6455ffddf","system_id":"levelo_inurba_marseille","lat":43.32477,"lon":5.3656,"is_reserved":false,"is_disabled":false,"rental_uris":{"android":"levelo://app?vid=bfa7c1a2-f54e-402a-a2db-4de6455ffddf","ios":"levelo://app?vid=bfa7c1a2-f54e-402a-a2db-4de6455ffddf"},"vehicle_type_id":"4","last_reported":1732796304,"current_range_meters":8800,"station_id":"ce4bhs12rcd13ifvqhvg","pricing_plan_id":"cebpf4jnsgd1na2vs0mg"},{"bike_id":"e14587dc-7f13-44f8-abd4-ea0dfa860ab0","system_id":"levelo_inurba_marseille","lat":43.32483,"lon":5.36572,"is_reserved":false,"is_disabled":true,"rental_uris":{"android":"levelo://app?vid=e14587dc-7f13-44f8-abd4-ea0dfa860ab0","ios":"levelo://app?vid=e14587dc-7f13-44f8-abd4-ea0dfa860ab0"},"vehicle_type_id":"4","last_reported":1732796304,"current_range_meters":800,"station_id":"ce4bhs12rcd13ifvqhvg","pricing_plan_id":"cebpf4jnsgd1na2vs0mg"},{"bike_id":"9b767232-5c2b-49ff-b0f6-3592aae87a3d","system_id":"levelo_inurba_marseille","lat":43.23155,"lon":5.43706,"is_reserved":false,"is_disabled":false,"rental_uris":{"android":"levelo://app?vid=9b767232-5c2b-49ff-b0f6-3592aae87a3d","ios":"levelo://app?vid=9b767232-5c2b-49ff-b0f6-3592aae87a3d"},"vehicle_type_id":"4","last_reported":1732796304,"current_range_meters":9200,"station_id":"ce4bhmp2rcd13ifvqgog","pricing_plan_id":"cebpf4jnsgd1na2vs0mg"},{"bike_id":"dc87c326-700a-4406-b562-6e0a2f16a630","system_id":"levelo_inurba_marseille","lat":43.2984,"lon":5.36264,"is_reserved":false,"is_disabled":false,"rental_uris":{"android":"levelo://app?vid=dc87c326-700a-4406-b562-6e0a2f16a630","ios":"levelo://app?vid=dc87c326-700a-4406-b562-6e0a2f16a630"},"vehicle_type_id":"4","last_reported":1732796304,"current_range_meters":30400,"station_id":"ce4bgpp2rcd13ifvqc3g","pricing_plan_id":"cebpf4jnsgd1na2vs0mg"},{"bike_id":"2ca9b125-76bc-4385-b8ad-d95195d7e386","system_id":"levelo_inurba_marseille","lat":43.299773,"lon":5.371812,"is_reserved":false,"is_disabled":false,"rental_uris":{"android":"levelo://app?vid=2ca9b125-76bc-4385-b8ad-d95195d7e386","ios":"levelo://app?vid=2ca9b125-76bc-4385-b8ad-d95195d7e386"},"vehicle_type_id":"4","last_reported":1732796304,"current_range_meters":5600,"station_id":"ce4bgr92rcd13ifvqc7g","pricing_plan_id":"cebpf4jnsgd1na2vs0mg"},{"bike_id":"60f23062-e767-482f-8b25-2ef722ca2fc5","system_id":"levelo_inurba_marseille","lat":43.34142,"lon":5.40914,"is_reserved":false,"is_disabled":true,"rental_uris":{"android":"levelo://app?vid=60f23062-e767-482f-8b25-2ef722ca2fc5","ios":"levelo://app?vid=60f23062-e767-482f-8b25-2ef722ca2fc5"},"vehicle_type_id":"4","last_reported":1732796304,"current_range_meters":2800,"station_id":"ce4bhqh2rcd13ifvqhlg","pricing_plan_id":"cebpf4jnsgd1na2vs0mg"},{"bike_id":"43746d86-8a13-4845-9faf-ae69b548d714","system_id":"levelo_inurba_marseille","lat":43.29459,"lon":5.37917,"is_reserved":false,"is_disabled":true,"rental_uris":{"android":"levelo://app?vid=43746d86-8a13-4845-9faf-ae69b548d714","ios":"levelo://app?vid=43746d86-8a13-4845-9faf-ae69b548d714"},"vehicle_type_id":"4","last_reported":1732796304,"current_range_meters":0,"station_id":"","pricing_plan_id":"cebpf4jnsgd1na2vs0mg"},{"bike_id":"cea419d5-9bbc-44b0-87d2-ea55fd4752be","system_id":"levelo_inurba_marseille","lat":43.23146,"lon":5.43716,"is_reserved":false,"is_disabled":true,"rental_uris":{"android":"levelo://app?vid=cea419d5-9bbc-44b0-87d2-ea55fd4752be","ios":"levelo://app?vid=cea419d5-9bbc-44b0-87d2-ea55fd4752be"},"vehicle_type_id":"4","last_reported":1732796304,"current_range_meters":0,"station_id":"ce4bhmp2rcd13ifvqgog","pricing_plan_id":"cebpf4jnsgd1na2vs0mg"},{"bike_id":"3002b5ae-e75d-444e-9af6-8f918421da0e","system_id":"levelo_inurba_marseille","lat":43.26214,"lon":5.3744,"is_reserved":false,"is_disabled":false,"rental_uris":{"android":"levelo://app?vid=3002b5ae-e75d-444e-9af6-8f918421da0e","ios":"levelo://app?vid=3002b5ae-e75d-444e-9af6-8f918421da0e"},"vehicle_type_id":"4","last_reported":1732796304,"current_range_meters":8800,"station_id":"ce4bhgp2rcd13ifvqfc0","pricing_plan_id":"cebpf4jnsgd1na2vs0mg"},{"bike_id":"493e69bc-180e-41ac-9372-c813b9214afc","system_id":"levelo_inurba_marseille","lat":43.337444,"lon":5.374475,"is_reserved":false,"is_disabled":true,"rental_uris":{"android":"levelo://app?vid=493e69bc-180e-41ac-9372-c813b9214afc","ios":"levelo://app?vid=493e69bc-180e-41ac-9372-c813b9214afc"},"vehicle_type_id":"4","last_reported":1732796304,"current_range_meters":33600,"station_id":"","pricing_plan_id":"cebpf4jnsgd1na2vs0mg"},{"bike_id":"df76b7bf-b879-4e94-9796-439ee296ef0a","system_id":"levelo_inurba_marseille","lat":43.22926,"lon":5.35377,"is_reserved":false,"is_disabled":false,"rental_uris":{"android":"levelo://app?vid=df76b7bf-b879-4e94-9796-439ee296ef0a","ios":"levelo://app?vid=df76b7bf-b879-4e94-9796-439ee296ef0a"},"vehicle_type_id":"4","last_reported":1732796304,"current_range_meters":32000,"station_id":"cpo3532slgdg3j2ikp40","pricing_plan_id":"cebpf4jnsgd1na2vs0mg"},{"bike_id":"a1866733-f85e-459b-b865-8985ab5b8cb5","system_id":"levelo_inurba_marseille","lat":43.24384,"lon":5.37053,"is_reserved":false,"is_disabled":false,"rental_uris":{"android":"levelo://app?vid=a1866733-f85e-459b-b865-8985ab5b8cb5","ios":"levelo://app?vid=a1866733-f85e-459b-b865-8985ab5b8cb5"},"vehicle_type_id":"4","last_reported":1732796304,"current_range_meters":9200,"station_id":"ce4bhhh2rcd13ifvqfk0","pricing_plan_id":"cebpf4jnsgd1na2vs0mg"},{"bike_id":"cdc90ebd-95d6-4376-a349-3395a0e260d7","system_id":"levelo_inurba_marseille","lat":43.27989,"lon":5.4167,"is_reserved":false,"is_disabled":false,"rental_uris":{"android":"levelo://app?vid=cdc90ebd-95d6-4376-a349-3395a0e260d7","ios":"levelo://app?vid=cdc90ebd-95d6-4376-a349-3395a0e260d7"},"vehicle_type_id":"4","last_reported":1732796304,"current_range_meters":30800,"station_id":"ce4bho12rcd13ifvqh1g","pricing_plan_id":"cebpf4jnsgd1na2vs0mg"},{"bike_id":"42f4e685-2b6f-45da-b7dd-73e74f8c66d0","system_id":"levelo_inurba_marseille","lat":43.25492,"lon":5.37654,"is_reserved":false,"is_disabled":false,"rental_uris":{"android":"levelo://app?vid=42f4e685-2b6f-45da-b7dd-73e74f8c66d0","ios":"levelo://app?vid=42f4e685-2b6f-45da-b7dd-73e74f8c66d0"},"vehicle_type_id":"4","last_reported":1732796304,"current_range_meters":36800,"station_id":"ce4bhh12rcd13ifvqff0","pricing_plan_id":"cebpf4jnsgd1na2vs0mg"},{"bike_id":"c4e839b1-de4e-4459-be58-ea314e925326","system_id":"levelo_inurba_marseille","lat":43.27917,"lon":5.39578,"is_reserved":false,"is_disabled":false,"rental_uris":{"android":"levelo://app?vid=c4e839b1-de4e-4459-be58-ea314e925326","ios":"levelo://app?vid=c4e839b1-de4e-4459-be58-ea314e925326"},"vehicle_type_id":"4","last_reported":1732796304,"current_range_meters":29600,"station_id":"ce4bhf92rcd13ifvqf40","pricing_plan_id":"cebpf4jnsgd1na2vs0mg"},{"bike_id":"8760fb0b-849d-427b-b795-c549e8fb0480","system_id":"levelo_inurba_marseille","lat":43.2512,"lon":5.40314,"is_reserved":false,"is_disabled":false,"rental_uris":{"android":"levelo://app?vid=8760fb0b-849d-427b-b795-c549e8fb0480","ios":"levelo://app?vid=8760fb0b-849d-427b-b795-c549e8fb0480"},"vehicle_type_id":"4","last_reported":1732796304,"current_range_meters":28800,"station_id":"ce4bhlh2rcd13ifvqgig","pricing_plan_id":"cebpf4jnsgd1na2vs0mg"},{"bike_id":"334802f9-02ac-41be-8df3-96a040cbca24","system_id":"levelo_inurba_marseille","lat":43.24081,"lon":5.37742,"is_reserved":false,"is_disabled":false,"rental_uris":{"android":"levelo://app?vid=334802f9-02ac-41be-8df3-96a040cbca24","ios":"levelo://app?vid=334802f9-02ac-41be-8df3-96a040cbca24"},"vehicle_type_id":"4","last_reported":1732796304,"current_range_meters":22800,"station_id":"ce4bhnp2rcd13ifvqgvg","pricing_plan_id":"cebpf4jnsgd1na2vs0mg"},{"bike_id":"65d5403a-f2c8-4713-83e3-e0bbccd672ba","system_id":"levelo_inurba_marseille","lat":43.25497,"lon":5.37645,"is_reserved":false,"is_disabled":true,"rental_uris":{"android":"levelo://app?vid=65d5403a-f2c8-4713-83e3-e0bbccd672ba","ios":"levelo://app?vid=65d5403a-f2c8-4713-83e3-e0bbccd672ba"},"vehicle_type_id":"4","last_reported":1732796304,"current_range_meters":800,"station_id":"ce4bhh12rcd13ifvqff0","pricing_plan_id":"cebpf4jnsgd1na2vs0mg"},{"bike_id":"8e4fc7bb-fccf-4550-846f-6e004dcdff9a","system_id":"levelo_inurba_marseille","lat":43.313417,"lon":5.367123,"is_reserved":false,"is_disabled":true,"rental_uris":{"android":"levelo://app?vid=8e4fc7bb-fccf-4550-846f-6e004dcdff9a","ios":"levelo://app?vid=8e4fc7bb-fccf-4550-846f-6e004dcdff9a"},"vehicle_type_id":"4","last_reported":1732796304,"current_range_meters":0,"station_id":"ce4bgr92rcd13ifvqc6g","pricing_plan_id":"cebpf4jnsgd1na2vs0mg"},{"bike_id":"c7c8eb9f-a72f-46cc-a7d7-36fb49eb8a83","system_id":"levelo_inurba_marseille","lat":43.337444,"lon":5.374475,"is_reserved":false,"is_disabled":true,"rental_uris":{"android":"levelo://app?vid=c7c8eb9f-a72f-46cc-a7d7-36fb49eb8a83","ios":"levelo://app?vid=c7c8eb9f-a72f-46cc-a7d7-36fb49eb8a83"},"vehicle_type_id":"4","last_reported":1732796304,"current_range_meters":0,"station_id":"","pricing_plan_id":"cebpf4jnsgd1na2vs0mg"},{"bike_id":"2e3afc51-0c9e-4eec-8816-0268003cd5d5","system_id":"levelo_inurba_marseille","lat":43.26553,"lon":5.37287,"is_reserved":false,"is_disabled":true,"rental_uris":{"android":"levelo://app?vid=2e3afc51-0c9e-4eec-8816-0268003cd5d5","ios":"levelo://app?vid=2e3afc51-0c9e-4eec-8816-0268003cd5d5"},"vehicle_type_id":"4","last_reported":1732796304,"current_range_meters":1600,"station_id":"ce4bhg12rcd13ifvqf70","pricing_plan_id":"cebpf4jnsgd1na2vs0mg"},{"bike_id":"73237246-d3c1-43bc-bad7-8e44028b6f2d","system_id":"levelo_inurba_marseille","lat":43.2318,"lon":5.39984,"is_reserved":false,"is_disabled":false,"rental_uris":{"android":"levelo://app?vid=73237246-d3c1-43bc-bad7-8e44028b6f2d","ios":"levelo://app?vid=73237246-d3c1-43bc-bad7-8e44028b6f2d"},"vehicle_type_id":"4","last_reported":1732796304,"current_range_meters":30400,"station_id":"ce4bhn12rcd13ifvqgqg","pricing_plan_id":"cebpf4jnsgd1na2vs0mg"},{"bike_id":"b4f0c7bb-6382-4ae2-bc10-252fc6662ce6","system_id":"levelo_inurba_marseille","lat":43.22932,"lon":5.35374,"is_reserved":false,"is_disabled":false,"rental_uris":{"android":"levelo://app?vid=b4f0c7bb-6382-4ae2-bc10-252fc6662ce6","ios":"levelo://app?vid=b4f0c7bb-6382-4ae2-bc10-252fc6662ce6"},"vehicle_type_id":"4","last_reported":1732796304,"current_range_meters":38800,"station_id":"cpo3532slgdg3j2ikp40","pricing_plan_id":"cebpf4jnsgd1na2vs0mg"},{"bike_id":"fc4d15f5-6256-45a3-90d6-77bb4c676955","system_id":"levelo_inurba_marseille","lat":43.296284,"lon":5.377877,"is_reserved":false,"is_disabled":true,"rental_uris":{"android":"levelo://app?vid=fc4d15f5-6256-45a3-90d6-77bb4c676955","ios":"levelo://app?vid=fc4d15f5-6256-45a3-90d6-77bb4c676955"},"vehicle_type_id":"4","last_reported":1732796304,"current_range_meters":33600,"station_id":"","pricing_plan_id":"cebpf4jnsgd1na2vs0mg"},{"bike_id":"8a6d2d87-b63e-4f2d-a6bb-a798f0427308","system_id":"levelo_inurba_marseille","lat":43.27809,"lon":5.40713,"is_reserved":false,"is_disabled":true,"rental_uris":{"android":"levelo://app?vid=8a6d2d87-b63e-4f2d-a6bb-a798f0427308","ios":"levelo://app?vid=8a6d2d87-b63e-4f2d-a6bb-a798f0427308"},"vehicle_type_id":"4","last_reported":1732796304,"current_range_meters":38400,"station_id":"ce4bhnh2rcd13ifvqgtg","pricing_plan_id":"cebpf4jnsgd1na2vs0mg"},{"bike_id":"c88f8730-1176-4717-97e2-17c27b15274f","system_id":"levelo_inurba_marseille","lat":43.23195,"lon":5.35545,"is_reserved":false,"is_disabled":true,"rental_uris":{"android":"levelo://app?vid=c88f8730-1176-4717-97e2-17c27b15274f","ios":"levelo://app?vid=c88f8730-1176-4717-97e2-17c27b15274f"},"vehicle_type_id":"4","last_reported":1732796304,"current_range_meters":0,"station_id":"ce4bhu92rcd13ifvqi70","pricing_plan_id":"cebpf4jnsgd1na2vs0mg"},{"bike_id":"038863f9-e8b3-4c91-893a-ed35cd6f8a50","system_id":"levelo_inurba_marseille","lat":43.30244,"lon":5.40048,"is_reserved":false,"is_disabled":false,"rental_uris":{"android":"levelo://app?vid=038863f9-e8b3-4c91-893a-ed35cd6f8a50","ios":"levelo://app?vid=038863f9-e8b3-4c91-893a-ed35cd6f8a50"},"vehicle_type_id":"4","last_reported":1732796304,"current_range_meters":30400,"station_id":"ce4bgvh2rcd13ifvqcs0","pricing_plan_id":"cebpf4jnsgd1na2vs0mg"},{"bike_id":"945b597d-b543-4da7-b399-193747953a10","system_id":"levelo_inurba_marseille","lat":43.31072,"lon":5.38346,"is_reserved":false,"is_disabled":true,"rental_uris":{"android":"levelo://app?vid=945b597d-b543-4da7-b399-193747953a10","ios":"levelo://app?vid=945b597d-b543-4da7-b399-193747953a10"},"vehicle_type_id":"4","last_reported":1732796304,"current_range_meters":19600,"station_id":"ce4bgv92rcd13ifvqcr0","pricing_plan_id":"cebpf4jnsgd1na2vs0mg"},{"bike_id":"5cb3f96c-39c8-4262-aa10-8c37a17036ad","system_id":"levelo_inurba_marseille","lat":43.27381,"lon":5.36262,"is_reserved":false,"is_disabled":false,"rental_uris":{"android":"levelo://app?vid=5cb3f96c-39c8-4262-aa10-8c37a17036ad","ios":"levelo://app?vid=5cb3f96c-39c8-4262-aa10-8c37a17036ad"},"vehicle_type_id":"4","last_reported":1732796304,"current_range_meters":13600,"station_id":"ce4bhbh2rcd13ifvqeo0","pricing_plan_id":"cebpf4jnsgd1na2vs0mg"},{"bike_id":"b6ed1910-de57-401d-8b1d-af35755f9004","system_id":"levelo_inurba_marseille","lat":43.2794,"lon":5.4106,"is_reserved":false,"is_disabled":true,"rental_uris":{"android":"levelo://app?vid=b6ed1910-de57-401d-8b1d-af35755f9004","ios":"levelo://app?vid=b6ed1910-de57-401d-8b1d-af35755f9004"},"vehicle_type_id":"4","last_reported":1732796304,"current_range_meters":30000,"station_id":"ce4bhnp2rcd13ifvqh0g","pricing_plan_id":"cebpf4jnsgd1na2vs0mg"},{"bike_id":"32a151d9-7005-40eb-a8f7-814ea7e149e3","system_id":"levelo_inurba_marseille","lat":43.30515,"lon":5.36553,"is_reserved":false,"is_disabled":false,"rental_uris":{"android":"levelo://app?vid=32a151d9-7005-40eb-a8f7-814ea7e149e3","ios":"levelo://app?vid=32a151d9-7005-40eb-a8f7-814ea7e149e3"},"vehicle_type_id":"4","last_reported":1732796304,"current_range_meters":38400,"station_id":"ce4bgs12rcd13ifvqcag","pricing_plan_id":"cebpf4jnsgd1na2vs0mg"},{"bike_id":"b2b1613c-c0ea-4df3-8351-506bf3d82861","system_id":"levelo_inurba_marseille","lat":43.28722,"lon":5.37945,"is_reserved":false,"is_disabled":false,"rental_uris":{"android":"levelo://app?vid=b2b1613c-c0ea-4df3-8351-506bf3d82861","ios":"levelo://app?vid=b2b1613c-c0ea-4df3-8351-506bf3d82861"},"vehicle_type_id":"4","last_reported":1732796304,"current_range_meters":31200,"station_id":"ce4bh9p2rcd13ifvqec0","pricing_plan_id":"cebpf4jnsgd1na2vs0mg"},{"bike_id":"c0c814f8-5da5-485f-b863-3458dcd8a348","system_id":"levelo_inurba_marseille","lat":43.24546,"lon":5.39535,"is_reserved":false,"is_disabled":false,"rental_uris":{"android":"levelo://app?vid=c0c814f8-5da5-485f-b863-3458dcd8a348","ios":"levelo://app?vid=c0c814f8-5da5-485f-b863-3458dcd8a348"},"vehicle_type_id":"4","last_reported":1732796304,"current_range_meters":28800,"station_id":"ce4bhlp2rcd13ifvqgjg","pricing_plan_id":"cebpf4jnsgd1na2vs0mg"},{"bike_id":"db2e0437-a857-49a0-b78e-a4dcfbb76cf0","system_id":"levelo_inurba_marseille","lat":43.25468,"lon":5.3768,"is_reserved":false,"is_disabled":false,"rental_uris":{"android":"levelo://app?vid=db2e0437-a857-49a0-b78e-a4dcfbb76cf0","ios":"levelo://app?vid=db2e0437-a857-49a0-b78e-a4dcfbb76cf0"},"vehicle_type_id":"4","last_reported":1732796304,"current_range_meters":24800,"station_id":"ce4bhh12rcd13ifvqff0","pricing_plan_id":"cebpf4jnsgd1na2vs0mg"},{"bike_id":"f8eea443-be3e-473c-9d8d-9a1815ed4035","system_id":"levelo_inurba_marseille","lat":43.30435,"lon":5.38879,"is_reserved":false,"is_disabled":false,"rental_uris":{"android":"levelo://app?vid=f8eea443-be3e-473c-9d8d-9a1815ed4035","ios":"levelo://app?vid=f8eea443-be3e-473c-9d8d-9a1815ed4035"},"vehicle_type_id":"4","last_reported":1732796304,"current_range_meters":27600,"station_id":"ce4bgk12rcd13ifvqbi0","pricing_plan_id":"cebpf4jnsgd1na2vs0mg"},{"bike_id":"e54f0174-c7bd-4711-b39d-83487d0a1cd5","system_id":"levelo_inurba_marseille","lat":43.29548,"lon":5.42261,"is_reserved":false,"is_disabled":false,"rental_uris":{"android":"levelo://app?vid=e54f0174-c7bd-4711-b39d-83487d0a1cd5","ios":"levelo://app?vid=e54f0174-c7bd-4711-b39d-83487d0a1cd5"},"vehicle_type_id":"4","last_reported":1732796304,"current_range_meters":40000,"station_id":"ce4bhph2rcd13ifvqhdg","pricing_plan_id":"cebpf4jnsgd1na2vs0mg"},{"bike_id":"e346be1f-cb6c-4e2a-aa7c-fddf98fe41bc","system_id":"levelo_inurba_marseille","lat":43.27171,"lon":5.40991,"is_reserved":false,"is_disabled":false,"rental_uris":{"android":"levelo://app?vid=e346be1f-cb6c-4e2a-aa7c-fddf98fe41bc","ios":"levelo://app?vid=e346be1f-cb6c-4e2a-aa7c-fddf98fe41bc"},"vehicle_type_id":"4","last_reported":1732796304,"current_range_meters":38800,"station_id":"ce4bhl12rcd13ifvqgf0","pricing_plan_id":"cebpf4jnsgd1na2vs0mg"},{"bike_id":"b5197730-5c88-4cb2-95d3-6be8a3ad5be5","system_id":"levelo_inurba_marseille","lat":43.24073,"lon":5.37761,"is_reserved":false,"is_disabled":false,"rental_uris":{"android":"levelo://app?vid=b5197730-5c88-4cb2-95d3-6be8a3ad5be5","ios":"levelo://app?vid=b5197730-5c88-4cb2-95d3-6be8a3ad5be5"},"vehicle_type_id":"4","last_reported":1732796304,"current_range_meters":6400,"station_id":"ce4bhnp2rcd13ifvqgvg","pricing_plan_id":"cebpf4jnsgd1na2vs0mg"},{"bike_id":"e97aca33-bcc2-43e5-9fef-e6b8698987e4","system_id":"levelo_inurba_marseille","lat":43.2867,"lon":5.36345,"is_reserved":false,"is_disabled":false,"rental_uris":{"android":"levelo://app?vid=e97aca33-bcc2-43e5-9fef-e6b8698987e4","ios":"levelo://app?vid=e97aca33-bcc2-43e5-9fef-e6b8698987e4"},"vehicle_type_id":"4","last_reported":1732796304,"current_range_meters":23200,"station_id":"ce4bhah2rcd13ifvqej0","pricing_plan_id":"cebpf4jnsgd1na2vs0mg"},{"bike_id":"c96d526d-f464-4b8b-883c-d6997b8d0a9e","system_id":"levelo_inurba_marseille","lat":43.31355,"lon":5.38504,"is_reserved":false,"is_disabled":false,"rental_uris":{"android":"levelo://app?vid=c96d526d-f464-4b8b-883c-d6997b8d0a9e","ios":"levelo://app?vid=c96d526d-f464-4b8b-883c-d6997b8d0a9e"},"vehicle_type_id":"4","last_reported":1732796304,"current_range_meters":24400,"station_id":"ce4bgt92rcd13ifvqcf0","pricing_plan_id":"cebpf4jnsgd1na2vs0mg"},{"bike_id":"0e45148f-1a7e-42d3-9cc8-08bc63689057","system_id":"levelo_inurba_marseille","lat":43.23197,"lon":5.35557,"is_reserved":false,"is_disabled":false,"rental_uris":{"android":"levelo://app?vid=0e45148f-1a7e-42d3-9cc8-08bc63689057","ios":"levelo://app?vid=0e45148f-1a7e-42d3-9cc8-08bc63689057"},"vehicle_type_id":"4","last_reported":1732796304,"current_range_meters":8400,"station_id":"ce4bhu92rcd13ifvqi70","pricing_plan_id":"cebpf4jnsgd1na2vs0mg"},{"bike_id":"5aee8f34-f29b-4446-a958-d36daab9b202","system_id":"levelo_inurba_marseille","lat":43.23144,"lon":5.43721,"is_reserved":false,"is_disabled":true,"rental_uris":{"android":"levelo://app?vid=5aee8f34-f29b-4446-a958-d36daab9b202","ios":"levelo://app?vid=5aee8f34-f29b-4446-a958-d36daab9b202"},"vehicle_type_id":"4","last_reported":1732796304,"current_range_meters":0,"station_id":"ce4bhmp2rcd13ifvqgog","pricing_plan_id":"cebpf4jnsgd1na2vs0mg"},{"bike_id":"e4a3ee64-8c9f-47fa-ba19-5213f5308e81","system_id":"levelo_inurba_marseille","lat":43.27209,"lon":5.39194,"is_reserved":false,"is_disabled":true,"rental_uris":{"android":"levelo://app?vid=e4a3ee64-8c9f-47fa-ba19-5213f5308e81","ios":"levelo://app?vid=e4a3ee64-8c9f-47fa-ba19-5213f5308e81"},"vehicle_type_id":"4","last_reported":1732796304,"current_range_meters":400,"station_id":"ce4bhhp2rcd13ifvqfm0","pricing_plan_id":"cebpf4jnsgd1na2vs0mg"},{"bike_id":"fb108bc1-da32-455c-a9dd-7f878c0efda0","system_id":"levelo_inurba_marseille","lat":43.28617,"lon":5.35104,"is_reserved":false,"is_disabled":false,"rental_uris":{"android":"levelo://app?vid=fb108bc1-da32-455c-a9dd-7f878c0efda0","ios":"levelo://app?vid=fb108bc1-da32-455c-a9dd-7f878c0efda0"},"vehicle_type_id":"4","last_reported":1732796304,"current_range_meters":30000,"station_id":"ce4bhch2rcd13ifvqeug","pricing_plan_id":"cebpf4jnsgd1na2vs0mg"},{"bike_id":"6130fae6-d732-41e4-bff2-a0628f47cf0b","system_id":"levelo_inurba_marseille","lat":43.32369,"lon":5.41187,"is_reserved":false,"is_disabled":false,"rental_uris":{"android":"levelo://app?vid=6130fae6-d732-41e4-bff2-a0628f47cf0b","ios":"levelo://app?vid=6130fae6-d732-41e4-bff2-a0628f47cf0b"},"vehicle_type_id":"4","last_reported":1732796304,"current_range_meters":29600,"station_id":"","pricing_plan_id":"cebpf4jnsgd1na2vs0mg"},{"bike_id":"87b938c7-f6f3-401a-bf2a-2ffc8779c060","system_id":"levelo_inurba_marseille","lat":43.23155,"lon":5.43716,"is_reserved":false,"is_disabled":false,"rental_uris":{"android":"levelo://app?vid=87b938c7-f6f3-401a-bf2a-2ffc8779c060","ios":"levelo://app?vid=87b938c7-f6f3-401a-bf2a-2ffc8779c060"},"vehicle_type_id":"4","last_reported":1732796304,"current_range_meters":4800,"station_id":"ce4bhmp2rcd13ifvqgog","pricing_plan_id":"cebpf4jnsgd1na2vs0mg"},{"bike_id":"6f8f7372-ecd4-442e-95dd-7b099b7e1a39","system_id":"levelo_inurba_marseille","lat":43.29892,"lon":5.43661,"is_reserved":false,"is_disabled":false,"rental_uris":{"android":"levelo://app?vid=6f8f7372-ecd4-442e-95dd-7b099b7e1a39","ios":"levelo://app?vid=6f8f7372-ecd4-442e-95dd-7b099b7e1a39"},"vehicle_type_id":"4","last_reported":1732796304,"current_range_meters":39200,"station_id":"ce4bhpp2rcd13ifvqhfg","pricing_plan_id":"cebpf4jnsgd1na2vs0mg"},{"bike_id":"6f1b1c0c-675d-4520-bd03-0a1aeb27151e","system_id":"levelo_inurba_marseille","lat":43.31755,"lon":5.39018,"is_reserved":false,"is_disabled":false,"rental_uris":{"android":"levelo://app?vid=6f1b1c0c-675d-4520-bd03-0a1aeb27151e","ios":"levelo://app?vid=6f1b1c0c-675d-4520-bd03-0a1aeb27151e"},"vehicle_type_id":"4","last_reported":1732796304,"current_range_meters":38000,"station_id":"ce4bhqp2rcd13ifvqhng","pricing_plan_id":"cebpf4jnsgd1na2vs0mg"},{"bike_id":"1a604e2d-d970-4078-b846-48a93cb14fc7","system_id":"levelo_inurba_marseille","lat":43.30543,"lon":5.36698,"is_reserved":false,"is_disabled":false,"rental_uris":{"android":"levelo://app?vid=1a604e2d-d970-4078-b846-48a93cb14fc7","ios":"levelo://app?vid=1a604e2d-d970-4078-b846-48a93cb14fc7"},"vehicle_type_id":"4","last_reported":1732796304,"current_range_meters":38800,"station_id":"ce4bgrp2rcd13ifvqc9g","pricing_plan_id":"cebpf4jnsgd1na2vs0mg"},{"bike_id":"1e4c9e6b-f878-428d-96f3-ed27aa3ec197","system_id":"levelo_inurba_marseille","lat":43.30137,"lon":5.38771,"is_reserved":false,"is_disabled":false,"rental_uris":{"android":"levelo://app?vid=1e4c9e6b-f878-428d-96f3-ed27aa3ec197","ios":"levelo://app?vid=1e4c9e6b-f878-428d-96f3-ed27aa3ec197"},"vehicle_type_id":"4","last_reported":1732796304,"current_range_meters":38800,"station_id":"ce4bghh2rcd13ifvqb60","pricing_plan_id":"cebpf4jnsgd1na2vs0mg"},{"bike_id":"9e944db9-d48e-4848-b5fa-4af701aee80b","system_id":"levelo_inurba_marseille","lat":48.80797,"lon":2.40127,"is_reserved":false,"is_disabled":true,"rental_uris":{"android":"levelo://app?vid=9e944db9-d48e-4848-b5fa-4af701aee80b","ios":"levelo://app?vid=9e944db9-d48e-4848-b5fa-4af701aee80b"},"vehicle_type_id":"4","last_reported":1732796304,"current_range_meters":24000,"station_id":"","pricing_plan_id":"cebpf4jnsgd1na2vs0mg"},{"bike_id":"1705e2db-14b1-4380-9583-16ab6cd25fc6","system_id":"levelo_inurba_marseille","lat":43.29559,"lon":5.42292,"is_reserved":false,"is_disabled":false,"rental_uris":{"android":"levelo://app?vid=1705e2db-14b1-4380-9583-16ab6cd25fc6","ios":"levelo://app?vid=1705e2db-14b1-4380-9583-16ab6cd25fc6"},"vehicle_type_id":"4","last_reported":1732796304,"current_range_meters":33600,"station_id":"ce4bhph2rcd13ifvqhdg","pricing_plan_id":"cebpf4jnsgd1na2vs0mg"},{"bike_id":"853dce9c-704d-4c69-8665-fee2463ece47","system_id":"levelo_inurba_marseille","lat":43.32366,"lon":5.38878,"is_reserved":false,"is_disabled":false,"rental_uris":{"android":"levelo://app?vid=853dce9c-704d-4c69-8665-fee2463ece47","ios":"levelo://app?vid=853dce9c-704d-4c69-8665-fee2463ece47"},"vehicle_type_id":"4","last_reported":1732796304,"current_range_meters":38000,"station_id":"ce4bhqp2rcd13ifvqhog","pricing_plan_id":"cebpf4jnsgd1na2vs0mg"},{"bike_id":"9f131acf-0dc0-4bb5-afd1-e7d3c47ab64a","system_id":"levelo_inurba_marseille","lat":43.28274,"lon":5.35068,"is_reserved":false,"is_disabled":true,"rental_uris":{"android":"levelo://app?vid=9f131acf-0dc0-4bb5-afd1-e7d3c47ab64a","ios":"levelo://app?vid=9f131acf-0dc0-4bb5-afd1-e7d3c47ab64a"},"vehicle_type_id":"4","last_reported":1732796304,"current_range_meters":8000,"station_id":"ce4bhbp2rcd13ifvqerg","pricing_plan_id":"cebpf4jnsgd1na2vs0mg"},{"bike_id":"49c427a7-6d64-48f8-af87-cca7515744ad","system_id":"levelo_inurba_marseille","lat":43.28351,"lon":5.38105,"is_reserved":false,"is_disabled":false,"rental_uris":{"android":"levelo://app?vid=49c427a7-6d64-48f8-af87-cca7515744ad","ios":"levelo://app?vid=49c427a7-6d64-48f8-af87-cca7515744ad"},"vehicle_type_id":"4","last_reported":1732796304,"current_range_meters":3600,"station_id":"ce4bh412rcd13ifvqdr0","pricing_plan_id":"cebpf4jnsgd1na2vs0mg"},{"bike_id":"0c7feb86-de66-422e-831b-c66322c6ef18","system_id":"levelo_inurba_marseille","lat":43.30809,"lon":5.38137,"is_reserved":false,"is_disabled":false,"rental_uris":{"android":"levelo://app?vid=0c7feb86-de66-422e-831b-c66322c6ef18","ios":"levelo://app?vid=0c7feb86-de66-422e-831b-c66322c6ef18"},"vehicle_type_id":"4","last_reported":1732796304,"current_range_meters":17600,"station_id":"ce4bgt12rcd13ifvqce0","pricing_plan_id":"cebpf4jnsgd1na2vs0mg"},{"bike_id":"1130996c-ba07-491b-a538-69e310f93db2","system_id":"levelo_inurba_marseille","lat":43.27372,"lon":5.36258,"is_reserved":false,"is_disabled":false,"rental_uris":{"android":"levelo://app?vid=1130996c-ba07-491b-a538-69e310f93db2","ios":"levelo://app?vid=1130996c-ba07-491b-a538-69e310f93db2"},"vehicle_type_id":"4","last_reported":1732796304,"current_range_meters":38800,"station_id":"ce4bhbh2rcd13ifvqeo0","pricing_plan_id":"cebpf4jnsgd1na2vs0mg"},{"bike_id":"42082d0a-1655-4f43-9c22-24bee70e05aa","system_id":"levelo_inurba_marseille","lat":43.33761,"lon":5.37454,"is_reserved":false,"is_disabled":false,"rental_uris":{"android":"levelo://app?vid=42082d0a-1655-4f43-9c22-24bee70e05aa","ios":"levelo://app?vid=42082d0a-1655-4f43-9c22-24bee70e05aa"},"vehicle_type_id":"4","last_reported":1732796304,"current_range_meters":24800,"station_id":"","pricing_plan_id":"cebpf4jnsgd1na2vs0mg"},{"bike_id":"7a3c8073-4799-43ae-8cbb-c96d441ba2c2","system_id":"levelo_inurba_marseille","lat":43.3081,"lon":5.38161,"is_reserved":false,"is_disabled":true,"rental_uris":{"android":"levelo://app?vid=7a3c8073-4799-43ae-8cbb-c96d441ba2c2","ios":"levelo://app?vid=7a3c8073-4799-43ae-8cbb-c96d441ba2c2"},"vehicle_type_id":"4","last_reported":1732796304,"current_range_meters":0,"station_id":"ce4bgt12rcd13ifvqce0","pricing_plan_id":"cebpf4jnsgd1na2vs0mg"},{"bike_id":"a5d56ce9-fbe7-47d0-ba4f-9b29802d1a13","system_id":"levelo_inurba_marseille","lat":43.27837,"lon":5.39209,"is_reserved":false,"is_disabled":false,"rental_uris":{"android":"levelo://app?vid=a5d56ce9-fbe7-47d0-ba4f-9b29802d1a13","ios":"levelo://app?vid=a5d56ce9-fbe7-47d0-ba4f-9b29802d1a13"},"vehicle_type_id":"4","last_reported":1732796304,"current_range_meters":36000,"station_id":"ce4bhjp2rcd13ifvqga0","pricing_plan_id":"cebpf4jnsgd1na2vs0mg"},{"bike_id":"1d53b8a4-d427-47ed-a67e-5baca0b22496","system_id":"levelo_inurba_marseille","lat":43.295726,"lon":5.375079,"is_reserved":false,"is_disabled":true,"rental_uris":{"android":"levelo://app?vid=1d53b8a4-d427-47ed-a67e-5baca0b22496","ios":"levelo://app?vid=1d53b8a4-d427-47ed-a67e-5baca0b22496"},"vehicle_type_id":"4","last_reported":1732796304,"current_range_meters":38800,"station_id":"ce4bgh92rcd13ifvqb50","pricing_plan_id":"cebpf4jnsgd1na2vs0mg"},{"bike_id":"09f3a18e-2b29-48e9-849f-05b8444c2d04","system_id":"levelo_inurba_marseille","lat":43.28857,"lon":5.35848,"is_reserved":false,"is_disabled":false,"rental_uris":{"android":"levelo://app?vid=09f3a18e-2b29-48e9-849f-05b8444c2d04","ios":"levelo://app?vid=09f3a18e-2b29-48e9-849f-05b8444c2d04"},"vehicle_type_id":"4","last_reported":1732796304,"current_range_meters":33200,"station_id":"ce4bhb12rcd13ifvqem0","pricing_plan_id":"cebpf4jnsgd1na2vs0mg"},{"bike_id":"617d0220-e70a-479c-a975-2b4daa5c4166","system_id":"levelo_inurba_marseille","lat":43.23152,"lon":5.43716,"is_reserved":false,"is_disabled":true,"rental_uris":{"android":"levelo://app?vid=617d0220-e70a-479c-a975-2b4daa5c4166","ios":"levelo://app?vid=617d0220-e70a-479c-a975-2b4daa5c4166"},"vehicle_type_id":"4","last_reported":1732796304,"current_range_meters":0,"station_id":"ce4bhmp2rcd13ifvqgog","pricing_plan_id":"cebpf4jnsgd1na2vs0mg"},{"bike_id":"40018b31-c67e-42ac-a399-afcd3dbd2b6d","system_id":"levelo_inurba_marseille","lat":43.24546,"lon":5.39523,"is_reserved":false,"is_disabled":false,"rental_uris":{"android":"levelo://app?vid=40018b31-c67e-42ac-a399-afcd3dbd2b6d","ios":"levelo://app?vid=40018b31-c67e-42ac-a399-afcd3dbd2b6d"},"vehicle_type_id":"4","last_reported":1732796304,"current_range_meters":38800,"station_id":"ce4bhlp2rcd13ifvqgjg","pricing_plan_id":"cebpf4jnsgd1na2vs0mg"},{"bike_id":"cf49fd94-d96d-4acd-8e86-931973c40e36","system_id":"levelo_inurba_marseille","lat":43.28859,"lon":5.35841,"is_reserved":false,"is_disabled":false,"rental_uris":{"android":"levelo://app?vid=cf49fd94-d96d-4acd-8e86-931973c40e36","ios":"levelo://app?vid=cf49fd94-d96d-4acd-8e86-931973c40e36"},"vehicle_type_id":"4","last_reported":1732796304,"current_range_meters":6400,"station_id":"ce4bhb12rcd13ifvqem0","pricing_plan_id":"cebpf4jnsgd1na2vs0mg"},{"bike_id":"d2289974-116d-482a-ae34-decbb8437587","system_id":"levelo_inurba_marseille","lat":43.25493,"lon":5.3765,"is_reserved":false,"is_disabled":false,"rental_uris":{"android":"levelo://app?vid=d2289974-116d-482a-ae34-decbb8437587","ios":"levelo://app?vid=d2289974-116d-482a-ae34-decbb8437587"},"vehicle_type_id":"4","last_reported":1732796304,"current_range_meters":28400,"station_id":"ce4bhh12rcd13ifvqff0","pricing_plan_id":"cebpf4jnsgd1na2vs0mg"},{"bike_id":"5481ba4b-fa13-4e61-b8f9-95d380e91c18","system_id":"levelo_inurba_marseille","lat":43.26801,"lon":5.40269,"is_reserved":false,"is_disabled":false,"rental_uris":{"android":"levelo://app?vid=5481ba4b-fa13-4e61-b8f9-95d380e91c18","ios":"levelo://app?vid=5481ba4b-fa13-4e61-b8f9-95d380e91c18"},"vehicle_type_id":"4","last_reported":1732796304,"current_range_meters":6800,"station_id":"ce501612rcd8frsf0b60","pricing_plan_id":"cebpf4jnsgd1na2vs0mg"},{"bike_id":"faea8d71-f3a3-4a33-b384-df1e043ec4e1","system_id":"levelo_inurba_marseille","lat":43.26485,"lon":5.3956,"is_reserved":false,"is_disabled":false,"rental_uris":{"android":"levelo://app?vid=faea8d71-f3a3-4a33-b384-df1e043ec4e1","ios":"levelo://app?vid=faea8d71-f3a3-4a33-b384-df1e043ec4e1"},"vehicle_type_id":"4","last_reported":1732796304,"current_range_meters":10000,"station_id":"ce4bhi12rcd13ifvqfq0","pricing_plan_id":"cebpf4jnsgd1na2vs0mg"},{"bike_id":"bbf8cec9-4abf-436a-b487-118101adf6dd","system_id":"levelo_inurba_marseille","lat":43.28951,"lon":5.36398,"is_reserved":false,"is_disabled":false,"rental_uris":{"android":"levelo://app?vid=bbf8cec9-4abf-436a-b487-118101adf6dd","ios":"levelo://app?vid=bbf8cec9-4abf-436a-b487-118101adf6dd"},"vehicle_type_id":"4","last_reported":1732796304,"current_range_meters":3600,"station_id":"ce4bhc92rcd13ifvqetg","pricing_plan_id":"cebpf4jnsgd1na2vs0mg"},{"bike_id":"b4d58e23-01ae-4c65-b568-c25ecb787930","system_id":"levelo_inurba_marseille","lat":43.265332,"lon":5.393641,"is_reserved":false,"is_disabled":true,"rental_uris":{"android":"levelo://app?vid=b4d58e23-01ae-4c65-b568-c25ecb787930","ios":"levelo://app?vid=b4d58e23-01ae-4c65-b568-c25ecb787930"},"vehicle_type_id":"4","last_reported":1732796304,"current_range_meters":0,"station_id":"","pricing_plan_id":"cebpf4jnsgd1na2vs0mg"},{"bike_id":"1ff660a4-5255-4a59-ae53-042e65a2f4a8","system_id":"levelo_inurba_marseille","lat":43.3207,"lon":5.41538,"is_reserved":false,"is_disabled":false,"rental_uris":{"android":"levelo://app?vid=1ff660a4-5255-4a59-ae53-042e65a2f4a8","ios":"levelo://app?vid=1ff660a4-5255-4a59-ae53-042e65a2f4a8"},"vehicle_type_id":"4","last_reported":1732796304,"current_range_meters":18800,"station_id":"ce4bhq92rcd13ifvqhkg","pricing_plan_id":"cebpf4jnsgd1na2vs0mg"},{"bike_id":"29bfd9ad-0365-4b6b-9f4a-b320e49f4b13","system_id":"levelo_inurba_marseille","lat":43.337444,"lon":5.374475,"is_reserved":false,"is_disabled":false,"rental_uris":{"android":"levelo://app?vid=29bfd9ad-0365-4b6b-9f4a-b320e49f4b13","ios":"levelo://app?vid=29bfd9ad-0365-4b6b-9f4a-b320e49f4b13"},"vehicle_type_id":"4","last_reported":1732796304,"current_range_meters":28000,"station_id":"","pricing_plan_id":"cebpf4jnsgd1na2vs0mg"},{"bike_id":"c344d59a-51d1-47da-b97f-1bc39ff3eae8","system_id":"levelo_inurba_marseille","lat":43.30466,"lon":5.36606,"is_reserved":false,"is_disabled":false,"rental_uris":{"android":"levelo://app?vid=c344d59a-51d1-47da-b97f-1bc39ff3eae8","ios":"levelo://app?vid=c344d59a-51d1-47da-b97f-1bc39ff3eae8"},"vehicle_type_id":"4","last_reported":1732796304,"current_range_meters":35600,"station_id":"","pricing_plan_id":"cebpf4jnsgd1na2vs0mg"},{"bike_id":"ec7f3dcd-d045-43d6-9da4-38976298d97b","system_id":"levelo_inurba_marseille","lat":43.29523,"lon":5.39403,"is_reserved":false,"is_disabled":false,"rental_uris":{"android":"levelo://app?vid=ec7f3dcd-d045-43d6-9da4-38976298d97b","ios":"levelo://app?vid=ec7f3dcd-d045-43d6-9da4-38976298d97b"},"vehicle_type_id":"4","last_reported":1732796304,"current_range_meters":34800,"station_id":"ce4bh292rcd13ifvqdf0","pricing_plan_id":"cebpf4jnsgd1na2vs0mg"},{"bike_id":"bf254e08-9ca7-407d-b611-dc92d8c8f2b4","system_id":"levelo_inurba_marseille","lat":43.250012,"lon":5.389305,"is_reserved":false,"is_disabled":false,"rental_uris":{"android":"levelo://app?vid=bf254e08-9ca7-407d-b611-dc92d8c8f2b4","ios":"levelo://app?vid=bf254e08-9ca7-407d-b611-dc92d8c8f2b4"},"vehicle_type_id":"4","last_reported":1732796304,"current_range_meters":7200,"station_id":"ce4bhgp2rcd13ifvqfd0","pricing_plan_id":"cebpf4jnsgd1na2vs0mg"},{"bike_id":"5df56a47-47ee-41a8-a84f-6d6cb0e240a4","system_id":"levelo_inurba_marseille","lat":43.32291,"lon":5.38269,"is_reserved":false,"is_disabled":false,"rental_uris":{"android":"levelo://app?vid=5df56a47-47ee-41a8-a84f-6d6cb0e240a4","ios":"levelo://app?vid=5df56a47-47ee-41a8-a84f-6d6cb0e240a4"},"vehicle_type_id":"4","last_reported":1732796304,"current_range_meters":38800,"station_id":"ce4bhr12rcd13ifvqhqg","pricing_plan_id":"cebpf4jnsgd1na2vs0mg"},{"bike_id":"5090afa9-2f30-4836-a9c2-d8743ee0afae","system_id":"levelo_inurba_marseille","lat":43.305525,"lon":5.365349,"is_reserved":false,"is_disabled":false,"rental_uris":{"android":"levelo://app?vid=5090afa9-2f30-4836-a9c2-d8743ee0afae","ios":"levelo://app?vid=5090afa9-2f30-4836-a9c2-d8743ee0afae"},"vehicle_type_id":"4","last_reported":1732796304,"current_range_meters":20000,"station_id":"ce4bgs12rcd13ifvqcag","pricing_plan_id":"cebpf4jnsgd1na2vs0mg"},{"bike_id":"0318a033-6aad-4cce-bc14-7c3c06053755","system_id":"levelo_inurba_marseille","lat":43.2953,"lon":5.38549,"is_reserved":false,"is_disabled":false,"rental_uris":{"android":"levelo://app?vid=0318a033-6aad-4cce-bc14-7c3c06053755","ios":"levelo://app?vid=0318a033-6aad-4cce-bc14-7c3c06053755"},"vehicle_type_id":"4","last_reported":1732796304,"current_range_meters":1600,"station_id":"ce4bgih2rcd13ifvqba0","pricing_plan_id":"cebpf4jnsgd1na2vs0mg"},{"bike_id":"416fe9e8-d395-49ca-b9ab-8a0938bafbb8","system_id":"levelo_inurba_marseille","lat":43.30308,"lon":5.3689,"is_reserved":false,"is_disabled":true,"rental_uris":{"android":"levelo://app?vid=416fe9e8-d395-49ca-b9ab-8a0938bafbb8","ios":"levelo://app?vid=416fe9e8-d395-49ca-b9ab-8a0938bafbb8"},"vehicle_type_id":"4","last_reported":1732796304,"current_range_meters":400,"station_id":"ce4bgqh2rcd13ifvqc5g","pricing_plan_id":"cebpf4jnsgd1na2vs0mg"},{"bike_id":"9ec0867e-5ed5-437e-967e-3fb26c9d59cb","system_id":"levelo_inurba_marseille","lat":43.27621,"lon":5.38922,"is_reserved":false,"is_disabled":true,"rental_uris":{"android":"levelo://app?vid=9ec0867e-5ed5-437e-967e-3fb26c9d59cb","ios":"levelo://app?vid=9ec0867e-5ed5-437e-967e-3fb26c9d59cb"},"vehicle_type_id":"4","last_reported":1732796304,"current_range_meters":0,"station_id":"ce4bhi12rcd13ifvqfo0","pricing_plan_id":"cebpf4jnsgd1na2vs0mg"},{"bike_id":"e5246a46-d24e-4f2b-9b0f-51d610307d6f","system_id":"levelo_inurba_marseille","lat":43.231536,"lon":5.437148,"is_reserved":false,"is_disabled":false,"rental_uris":{"android":"levelo://app?vid=e5246a46-d24e-4f2b-9b0f-51d610307d6f","ios":"levelo://app?vid=e5246a46-d24e-4f2b-9b0f-51d610307d6f"},"vehicle_type_id":"4","last_reported":1732796304,"current_range_meters":16400,"station_id":"","pricing_plan_id":"cebpf4jnsgd1na2vs0mg"},