{"last_updated":1745871054,"ttl":60,"version":"2.2","data":{"bikes":[{"bike_id":"d0908897-833e-4899-81b6-688c24299a17","system_id":"levelo_inurba_marseille","lat":43.24995,"lon":5.38933,"is_reserved":false,"is_disabled":false,"rental_uris":{"android":"levelo://app?vid=d0908897-833e-4899-81b6-688c24299a17","ios":"levelo://app?vid=d0908897-833e-4899-81b6-688c24299a17"},"vehicle_type_id":"4","last_reported":1745871054,"current_range_meters":2000,"station_id":"ce4bhgp2rcd13ifvqfd0","pricing_plan_id":"cebpf4jnsgd1na2vs0mg"},{"bike_id":"427c9354-fd08-4583-af6a-912a4d2a5f91","system_id":"levelo_inurba_marseille","lat":43.27682,"lon":5.38883,"is_reserved":false,"is_disabled":true,"rental_uris":{"android":"levelo://app?vid=427c9354-fd08-4583-af6a-912a4d2a5f91","ios":"levelo://app?vid=427c9354-fd08-4583-af6a-912a4d2a5f91"},"vehicle_type_id":"4","last_reported":1745871054,"current_range_meters":3200,"station_id":"ce4bhi12rcd13ifvqfo0","pricing_plan_id":"cebpf4jnsgd1na2vs0mg"},{"bike_id":"74677f28-3596-4c5b-98de-ba4120a70f9d","system_id":"levelo_inurba_marseille","lat":43.25645,"lon":5.41184,"is_reserved":false,"is_disabled":false,"rental_uris":{"android":"levelo://app?vid=74677f28-3596-4c5b-98de-ba4120a70f9d","ios":"levelo://app?vid=74677f28-3596-4c5b-98de-ba4120a70f9d"},"vehicle_type_id":"4","last_reported":1745871054,"current_range_meters":3200,"station_id":"","pricing_plan_id":"cebpf4jnsgd1na2vs0mg"},{"bike_id":"a2a86ca1-65c9-460e-91d0-7de99ed83b62","system_id":"levelo_inurba_marseille","lat":43.2656,"lon":5.37295,"is_reserved":false,"is_disabled":true,"rental_uris":{"android":"levelo://app?vid=a2a86ca1-65c9-460e-91d0-7de99ed83b62","ios":"levelo://app?vid=a2a86ca1-65c9-460e-91d0-7de99ed83b62"},"vehicle_type_id":"4","last_reported":1745871054,"current_range_meters":3600,"station_id":"ce4bhg12rcd13ifvqf70","pricing_plan_id":"cebpf4jnsgd1na2vs0mg"},{"bike_id":"525202d3-9abd-420b-aefd-dd54ac27ef04","system_id":"levelo_inurba_marseille","lat":43.24069,"lon":5.37763,"is_reserved":false,"is_disabled":false,"rental_uris":{"android":"levelo://app?vid=525202d3-9abd-420b-aefd-dd54ac27ef04","ios":"levelo://app?vid=525202d3-9abd-420b-aefd-dd54ac27ef04"},"vehicle_type_id":"4","last_reported":1745871054,"current_range_meters":4000,"station_id":"ce4bhnp2rcd13ifvqgvg","pricing_plan_id":"cebpf4jnsgd1na2vs0mg"},{"bike_id":"dd90a0fe-c1ad-4f45-86b5-0beb6afea24c","system_id":"levelo_inurba_marseille","lat":43.29174,"lon":5.37153,"is_reserved":false,"is_disabled":false,"rental_uris":{"android":"levelo://app?vid=dd90a0fe-c1ad-4f45-86b5-0beb6afea24c","ios":"levelo://app?vid=dd90a0fe-c1ad-4f45-86b5-0beb6afea24c"},"vehicle_type_id":"4","last_reported":1745871054,"current_range_meters":4400,"station_id":"ce4bha92rcd13ifvqeh0","pricing_plan_id":"cebpf4jnsgd1na2vs0mg"},{"bike_id":"f62c08cd-4620-4739-a857-99492abdf253","system_id":"levelo_inurba_marseille","lat":43.26554,"lon":5.37371,"is_reserved":false,"is_disabled":false,"rental_uris":{"android":"levelo://app?vid=f62c08cd-4620-4739-a857-99492abdf253","ios":"levelo://app?vid=f62c08cd-4620-4739-a857-99492abdf253"},"vehicle_type_id":"4","last_reported":1745871054,"current_range_meters":4800,"station_id":"ce4bhg12rcd13ifvqf70","pricing_plan_id":"cebpf4jnsgd1na2vs0mg"},{"bike_id":"d9cd1294-5d0b-43d3-9258-deda946961d1","system_id":"levelo_inurba_marseille","lat":43.22502,"lon":5.34799,"is_reserved":false,"is_disabled":true,"rental_uris":{"android":"levelo://app?vid=d9cd1294-5d0b-43d3-9258-deda946961d1","ios":"levelo://app?vid=d9cd1294-5d0b-43d3-9258-deda946961d1"},"vehicle_type_id":"4","last_reported":1745871054,"current_range_meters":4800,"station_id":"st_cvj5dfep6f1abm77gieg","pricing_plan_id":"cebpf4jnsgd1na2vs0mg"},{"bike_id":"ef5a622e-aa0a-4359-b3fd-ef466748c455","system_id":"levelo_inurba_marseille","lat":43.23194,"lon":5.35539,"is_reserved":false,"is_disabled":false,"rental_uris":{"android":"levelo://app?vid=ef5a622e-aa0a-4359-b3fd-ef466748c455","ios":"levelo://app?vid=ef5a622e-aa0a-4359-b3fd-ef466748c455"},"vehicle_type_id":"4","last_reported":1745871054,"current_range_meters":4800,"station_id":"ce4bhu92rcd13ifvqi70","pricing_plan_id":"cebpf4jnsgd1na2vs0mg"},{"bike_id":"5c634152-8612-498f-bc6f-93b4d5da1eff","system_id":"levelo_inurba_marseille","lat":43.28039,"lon":5.3695,"is_reserved":false,"is_disabled":false,"rental_uris":{"android":"levelo://app?vid=5c634152-8612-498f-bc6f-93b4d5da1eff","ios":"levelo://app?vid=5c634152-8612-498f-bc6f-93b4d5da1eff"},"vehicle_type_id":"4","last_reported":1745871054,"current_range_meters":4800,"station_id":"ce4bha12rcd13ifvqef0","pricing_plan_id":"cebpf4jnsgd1na2vs0mg"},{"bike_id":"cbec0076-95d0-4f8f-8339-66de29997492","system_id":"levelo_inurba_marseille","lat":43.25564,"lon":5.38264,"is_reserved":false,"is_disabled":false,"rental_uris":{"android":"levelo://app?vid=cbec0076-95d0-4f8f-8339-66de29997492","ios":"levelo://app?vid=cbec0076-95d0-4f8f-8339-66de29997492"},"vehicle_type_id":"4","last_reported":1745871054,"current_range_meters":5600,"station_id":"ce4bhih2rcd13ifvqfs0","pricing_plan_id":"cebpf4jnsgd1na2vs0mg"},{"bike_id":"41a7b988-578e-46cb-b00f-40a8f842ac3d","system_id":"levelo_inurba_marseille","lat":43.3152,"lon":5.38038,"is_reserved":false,"is_disabled":false,"rental_uris":{"android":"levelo://app?vid=41a7b988-578e-46cb-b00f-40a8f842ac3d","ios":"levelo://app?vid=41a7b988-578e-46cb-b00f-40a8f842ac3d"},"vehicle_type_id":"4","last_reported":1745871054,"current_range_meters":5600,"station_id":"ce4bhsp2rcd13ifvqi50","pricing_plan_id":"cebpf4jnsgd1na2vs0mg"},{"bike_id":"eabc659d-49bd-4061-af98-20052a80f1d8","system_id":"levelo_inurba_marseille","lat":43.24657,"lon":5.38152,"is_reserved":false,"is_disabled":false,"rental_uris":{"android":"levelo://app?vid=eabc659d-49bd-4061-af98-20052a80f1d8","ios":"levelo://app?vid=eabc659d-49bd-4061-af98-20052a80f1d8"},"vehicle_type_id":"4","last_reported":1745871054,"current_range_meters":5600,"station_id":"ce4bhih2rcd13ifvqfr0","pricing_plan_id":"cebpf4jnsgd1na2vs0mg"},{"bike_id":"476d5457-f8ed-4790-ba4f-941ab585cf7b","system_id":"levelo_inurba_marseille","lat":43.26542,"lon":5.37291,"is_reserved":false,"is_disabled":false,"rental_uris":{"android":"levelo://app?vid=476d5457-f8ed-4790-ba4f-941ab585cf7b","ios":"levelo://app?vid=476d5457-f8ed-4790-ba4f-941ab585cf7b"},"vehicle_type_id":"4","last_reported":1745871054,"current_range_meters":5600,"station_id":"ce4bhg12rcd13ifvqf70","pricing_plan_id":"cebpf4jnsgd1na2vs0mg"},{"bike_id":"eaefeeba-3b8f-4c93-8000-5db3650c6760","system_id":"levelo_inurba_marseille","lat":43.28146,"lon":5.42649,"is_reserved":false,"is_disabled":false,"rental_uris":{"android":"levelo://app?vid=eaefeeba-3b8f-4c93-8000-5db3650c6760","ios":"levelo://app?vid=eaefeeba-3b8f-4c93-8000-5db3650c6760"},"vehicle_type_id":"4","last_reported":1745871054,"current_range_meters":6000,"station_id":"ce4bhnh2rcd13ifvqgug","pricing_plan_id":"cebpf4jnsgd1na2vs0mg"},{"bike_id":"91559d40-e5ec-4b09-aee0-3dda98bb0b91","system_id":"levelo_inurba_marseille","lat":43.29707,"lon":5.37028,"is_reserved":false,"is_disabled":false,"rental_uris":{"android":"levelo://app?vid=91559d40-e5ec-4b09-aee0-3dda98bb0b91","ios":"levelo://app?vid=91559d40-e5ec-4b09-aee0-3dda98bb0b91"},"vehicle_type_id":"4","last_reported":1745871054,"current_range_meters":6400,"station_id":"","pricing_plan_id":"cebpf4jnsgd1na2vs0mg"},{"bike_id":"8ae79fb7-0582-444e-8dab-1d22e31e0f2e","system_id":"levelo_inurba_marseille","lat":43.2395,"lon":5.36625,"is_reserved":false,"is_disabled":false,"rental_uris":{"android":"levelo://app?vid=8ae79fb7-0582-444e-8dab-1d22e31e0f2e","ios":"levelo://app?vid=8ae79fb7-0582-444e-8dab-1d22e31e0f2e"},"vehicle_type_id":"4","last_reported":1745871054,"current_range_meters":6400,"station_id":"ce4bhi12rcd13ifvqfp0","pricing_plan_id":"cebpf4jnsgd1na2vs0mg"},{"bike_id":"5cf37c7e-c3ed-4a02-b872-ba1b00adc3b4","system_id":"levelo_inurba_marseille","lat":43.24622,"lon":5.38946,"is_reserved":false,"is_disabled":false,"rental_uris":{"android":"levelo://app?vid=5cf37c7e-c3ed-4a02-b872-ba1b00adc3b4","ios":"levelo://app?vid=5cf37c7e-c3ed-4a02-b872-ba1b00adc3b4"},"vehicle_type_id":"4","last_reported":1745871054,"current_range_meters":6400,"station_id":"ce4bhg12rcd13ifvqf60","pricing_plan_id":"cebpf4jnsgd1na2vs0mg"},{"bike_id":"61ffaa74-f23c-450f-a9ee-eb45d749f9a5","system_id":"levelo_inurba_marseille","lat":43.24671,"lon":5.38164,"is_reserved":false,"is_disabled":false,"rental_uris":{"android":"levelo://app?vid=61ffaa74-f23c-450f-a9ee-eb45d749f9a5","ios":"levelo://app?vid=61ffaa74-f23c-450f-a9ee-eb45d749f9a5"},"vehicle_type_id":"4","last_reported":1745871054,"current_range_meters":6400,"station_id":"ce4bhih2rcd13ifvqfr0","pricing_plan_id":"cebpf4jnsgd1na2vs0mg"},{"bike_id":"b07e66e3-411a-43bc-a892-224d0faf0693","system_id":"levelo_inurba_marseille","lat":43.27794,"lon":5.40714,"is_reserved":false,"is_disabled":false,"rental_uris":{"android":"levelo://app?vid=b07e66e3-411a-43bc-a892-224d0faf0693","ios":"levelo://app?vid=b07e66e3-411a-43bc-a892-224d0faf0693"},"vehicle_type_id":"4","last_reported":1745871054,"current_range_meters":6400,"station_id":"ce4bhnh2rcd13ifvqgtg","pricing_plan_id":"cebpf4jnsgd1na2vs0mg"},{"bike_id":"8d38b2b6-0732-40bb-ac18-2e6bde0b1452","system_id":"levelo_inurba_marseille","lat":43.31717,"lon":5.3731,"is_reserved":false,"is_disabled":false,"rental_uris":{"android":"levelo://app?vid=8d38b2b6-0732-40bb-ac18-2e6bde0b1452","ios":"levelo://app?vid=8d38b2b6-0732-40bb-ac18-2e6bde0b1452"},"vehicle_type_id":"4","last_reported":1745871054,"current_range_meters":6800,"station_id":"","pricing_plan_id":"cebpf4jnsgd1na2vs0mg"},{"bike_id":"94b35a8a-cd39-44fb-8d12-1bc8cd19b4e5","system_id":"levelo_inurba_marseille","lat":43.30437,"lon":5.39741,"is_reserved":false,"is_disabled":false,"rental_uris":{"android":"levelo://app?vid=94b35a8a-cd39-44fb-8d12-1bc8cd19b4e5","ios":"levelo://app?vid=94b35a8a-cd39-44fb-8d12-1bc8cd19b4e5"},"vehicle_type_id":"4","last_reported":1745871054,"current_range_meters":6400,"station_id":"ce4bh092rcd13ifvqd20","pricing_plan_id":"cebpf4jnsgd1na2vs0mg"},{"bike_id":"6d1acc7b-68f5-40b4-95c5-b072f55360b8","system_id":"levelo_inurba_marseille","lat":43.31492,"lon":5.37305,"is_reserved":false,"is_disabled":false,"rental_uris":{"android":"levelo://app?vid=6d1acc7b-68f5-40b4-95c5-b072f55360b8","ios":"levelo://app?vid=6d1acc7b-68f5-40b4-95c5-b072f55360b8"},"vehicle_type_id":"4","last_reported":1745871054,"current_range_meters":7200,"station_id":"ce4bgt12rcd13ifvqcd0","pricing_plan_id":"cebpf4jnsgd1na2vs0mg"},{"bike_id":"0a517d7d-bb03-4045-93fb-30603024ae86","system_id":"levelo_inurba_marseille","lat":43.23224,"lon":5.35555,"is_reserved":false,"is_disabled":false,"rental_uris":{"android":"levelo://app?vid=0a517d7d-bb03-4045-93fb-30603024ae86","ios":"levelo://app?vid=0a517d7d-bb03-4045-93fb-30603024ae86"},"vehicle_type_id":"4","last_reported":1745871054,"current_range_meters":7200,"station_id":"ce4bhu92rcd13ifvqi70","pricing_plan_id":"cebpf4jnsgd1na2vs0mg"},{"bike_id":"2170e8a2-0b50-454a-a8c3-90edc68a4e7f","system_id":"levelo_inurba_marseille","lat":43.22928,"lon":5.35383,"is_reserved":false,"is_disabled":false,"rental_uris":{"android":"levelo://app?vid=2170e8a2-0b50-454a-a8c3-90edc68a4e7f","ios":"levelo://app?vid=2170e8a2-0b50-454a-a8c3-90edc68a4e7f"},"vehicle_type_id":"4","last_reported":1745871054,"current_range_meters":7200,"station_id":"cpo3532slgdg3j2ikp40","pricing_plan_id":"cebpf4jnsgd1na2vs0mg"},{"bike_id":"4141a4ac-c499-4bea-ac60-899e617d90d3","system_id":"levelo_inurba_marseille","lat":43.24403,"lon":5.37078,"is_reserved":false,"is_disabled":false,"rental_uris":{"android":"levelo://app?vid=4141a4ac-c499-4bea-ac60-899e617d90d3","ios":"levelo://app?vid=4141a4ac-c499-4bea-ac60-899e617d90d3"},"vehicle_type_id":"4","last_reported":1745871054,"current_range_meters":7200,"station_id":"ce4bhhh2rcd13ifvqfk0","pricing_plan_id":"cebpf4jnsgd1na2vs0mg"},{"bike_id":"a4c8a335-745b-4d95-97e0-7bac3cb18549","system_id":"levelo_inurba_marseille","lat":43.281,"lon":5.39847,"is_reserved":false,"is_disabled":false,"rental_uris":{"android":"levelo://app?vid=a4c8a335-745b-4d95-97e0-7bac3cb18549","ios":"levelo://app?vid=a4c8a335-745b-4d95-97e0-7bac3cb18549"},"vehicle_type_id":"4","last_reported":1745871054,"current_range_meters":7200,"station_id":"","pricing_plan_id":"cebpf4jnsgd1na2vs0mg"},{"bike_id":"1db14274-463d-4180-bece-00dba6656848","system_id":"levelo_inurba_marseille","lat":43.23955,"lon":5.36633,"is_reserved":false,"is_disabled":false,"rental_uris":{"android":"levelo://app?vid=1db14274-463d-4180-bece-00dba6656848","ios":"levelo://app?vid=1db14274-463d-4180-bece-00dba6656848"},"vehicle_type_id":"4","last_reported":1745871054,"current_range_meters":7200,"station_id":"ce4bhi12rcd13ifvqfp0","pricing_plan_id":"cebpf4jnsgd1na2vs0mg"},{"bike_id":"51c1adc9-7cd7-4ffb-971e-7b36309eb47d","system_id":"levelo_inurba_marseille","lat":43.31044,"lon":5.36579,"is_reserved":false,"is_disabled":false,"rental_uris":{"android":"levelo://app?vid=51c1adc9-7cd7-4ffb-971e-7b36309eb47d","ios":"levelo://app?vid=51c1adc9-7cd7-4ffb-971e-7b36309eb47d"},"vehicle_type_id":"4","last_reported":1745871054,"current_range_meters":7200,"station_id":"","pricing_plan_id":"cebpf4jnsgd1na2vs0mg"},{"bike_id":"12ff57d2-9141-4bd6-a477-076088ce0d74","system_id":"levelo_inurba_marseille","lat":43.23179,"lon":5.39988,"is_reserved":false,"is_disabled":false,"rental_uris":{"android":"levelo://app?vid=12ff57d2-9141-4bd6-a477-076088ce0d74","ios":"levelo://app?vid=12ff57d2-9141-4bd6-a477-076088ce0d74"},"vehicle_type_id":"4","last_reported":1745871054,"current_range_meters":6800,"station_id":"ce4bhn12rcd13ifvqgqg","pricing_plan_id":"cebpf4jnsgd1na2vs0mg"},{"bike_id":"59f6b8a5-9a4d-4f93-882c-fa6684eb7537","system_id":"levelo_inurba_marseille","lat":43.27673,"lon":5.38918,"is_reserved":false,"is_disabled":true,"rental_uris":{"android":"levelo://app?vid=59f6b8a5-9a4d-4f93-882c-fa6684eb7537","ios":"levelo://app?vid=59f6b8a5-9a4d-4f93-882c-fa6684eb7537"},"vehicle_type_id":"4","last_reported":1745871054,"current_range_meters":8000,"station_id":"ce4bhi12rcd13ifvqfo0","pricing_plan_id":"cebpf4jnsgd1na2vs0mg"},{"bike_id":"cb83e692-a341-4b1d-8259-cf15f2012a8c","system_id":"levelo_inurba_marseille","lat":43.25818,"lon":5.39438,"is_reserved":false,"is_disabled":false,"rental_uris":{"android":"levelo://app?vid=cb83e692-a341-4b1d-8259-cf15f2012a8c","ios":"levelo://app?vid=cb83e692-a341-4b1d-8259-cf15f2012a8c"},"vehicle_type_id":"4","last_reported":1745871054,"current_range_meters":8000,"station_id":"ce4bhip2rcd13ifvqft0","pricing_plan_id":"cebpf4jnsgd1na2vs0mg"},{"bike_id":"3e175c3c-1ca1-4548-8c70-d93cde8b2f53","system_id":"levelo_inurba_marseille","lat":43.30941,"lon":5.3903,"is_reserved":false,"is_disabled":false,"rental_uris":{"android":"levelo://app?vid=3e175c3c-1ca1-4548-8c70-d93cde8b2f53","ios":"levelo://app?vid=3e175c3c-1ca1-4548-8c70-d93cde8b2f53"},"vehicle_type_id":"4","last_reported":1745871054,"current_range_meters":8000,"station_id":"ce4bgup2rcd13ifvqco0","pricing_plan_id":"cebpf4jnsgd1na2vs0mg"},{"bike_id":"aec336d6-9939-4bb1-9969-16430941df15","system_id":"levelo_inurba_marseille","lat":43.27911,"lon":5.39574,"is_reserved":false,"is_disabled":false,"rental_uris":{"android":"levelo://app?vid=aec336d6-9939-4bb1-9969-16430941df15","ios":"levelo://app?vid=aec336d6-9939-4bb1-9969-16430941df15"},"vehicle_type_id":"4","last_reported":1745871054,"current_range_meters":8000,"station_id":"ce4bhf92rcd13ifvqf40","pricing_plan_id":"cebpf4jnsgd1na2vs0mg"},{"bike_id":"01d01d6d-11e7-4e65-a9db-c5420cff0fe0","system_id":"levelo_inurba_marseille","lat":43.27617,"lon":5.36114,"is_reserved":false,"is_disabled":false,"rental_uris":{"android":"levelo://app?vid=01d01d6d-11e7-4e65-a9db-c5420cff0fe0","ios":"levelo://app?vid=01d01d6d-11e7-4e65-a9db-c5420cff0fe0"},"vehicle_type_id":"4","last_reported":1745871054,"current_range_meters":8000,"station_id":"ce4bgj92rcd13ifvqbe0","pricing_plan_id":"cebpf4jnsgd1na2vs0mg"},{"bike_id":"e1ef7779-f616-4090-9537-0dbbd9412472","system_id":"levelo_inurba_marseille","lat":43.24523,"lon":5.395,"is_reserved":false,"is_disabled":false,"rental_uris":{"android":"levelo://app?vid=e1ef7779-f616-4090-9537-0dbbd9412472","ios":"levelo://app?vid=e1ef7779-f616-4090-9537-0dbbd9412472"},"vehicle_type_id":"4","last_reported":1745871054,"current_range_meters":8400,"station_id":"ce4bhlp2rcd13ifvqgjg","pricing_plan_id":"cebpf4jnsgd1na2vs0mg"},{"bike_id":"679a1104-bb2f-4313-81ae-490e909d7dd6","system_id":"levelo_inurba_marseille","lat":43.29599,"lon":5.37689,"is_reserved":false,"is_disabled":true,"rental_uris":{"android":"levelo://app?vid=679a1104-bb2f-4313-81ae-490e909d7dd6","ios":"levelo://app?vid=679a1104-bb2f-4313-81ae-490e909d7dd6"},"vehicle_type_id":"4","last_reported":1745871054,"current_range_meters":8400,"station_id":"ce4bgi92rcd13ifvqb90","pricing_plan_id":"cebpf4jnsgd1na2vs0mg"},{"bike_id":"0fec8a14-9d02-46c1-bd6a-7bd8b25a08d8","system_id":"levelo_inurba_marseille","lat":43.28846,"lon":5.39316,"is_reserved":false,"is_disabled":false,"rental_uris":{"android":"levelo://app?vid=0fec8a14-9d02-46c1-bd6a-7bd8b25a08d8","ios":"levelo://app?vid=0fec8a14-9d02-46c1-bd6a-7bd8b25a08d8"},"vehicle_type_id":"4","last_reported":1745871054,"current_range_meters":8400,"station_id":"ce4bh2p2rcd13ifvqdi0","pricing_plan_id":"cebpf4jnsgd1na2vs0mg"},{"bike_id":"88bdb2f4-e1da-4537-b456-3eeaaf068564","system_id":"levelo_inurba_marseille","lat":43.30417,"lon":5.39746,"is_reserved":false,"is_disabled":false,"rental_uris":{"android":"levelo://app?vid=88bdb2f4-e1da-4537-b456-3eeaaf068564","ios":"levelo://app?vid=88bdb2f4-e1da-4537-b456-3eeaaf068564"},"vehicle_type_id":"4","last_reported":1745871054,"current_range_meters":8400,"station_id":"ce4bh092rcd13ifvqd20","pricing_plan_id":"cebpf4jnsgd1na2vs0mg"},{"bike_id":"26deac1f-c435-40bc-9469-9ae0b266bb77","system_id":"levelo_inurba_marseille","lat":43.30193,"lon":5.38434,"is_reserved":false,"is_disabled":false,"rental_uris":{"android":"levelo://app?vid=26deac1f-c435-40bc-9469-9ae0b266bb77","ios":"levelo://app?vid=26deac1f-c435-40bc-9469-9ae0b266bb77"},"vehicle_type_id":"4","last_reported":1745871054,"current_range_meters":8400,"station_id":"","pricing_plan_id":"cebpf4jnsgd1na2vs0mg"},{"bike_id":"a927ad15-b129-4085-9072-8cc54f2c8cf2","system_id":"levelo_inurba_marseille","lat":43.320439,"lon":5.367609,"is_reserved":false,"is_disabled":false,"rental_uris":{"android":"levelo://app?vid=a927ad15-b129-4085-9072-8cc54f2c8cf2","ios":"levelo://app?vid=a927ad15-b129-4085-9072-8cc54f2c8cf2"},"vehicle_type_id":"4","last_reported":1745871054,"current_range_meters":8400,"station_id":"ce4bhrh2rcd13ifvqhug","pricing_plan_id":"cebpf4jnsgd1na2vs0mg"},{"bike_id":"1f60866e-1eaf-44dc-8e9a-4dca75cf6c04","system_id":"levelo_inurba_marseille","lat":43.32363,"lon":5.38889,"is_reserved":false,"is_disabled":false,"rental_uris":{"android":"levelo://app?vid=1f60866e-1eaf-44dc-8e9a-4dca75cf6c04","ios":"levelo://app?vid=1f60866e-1eaf-44dc-8e9a-4dca75cf6c04"},"vehicle_type_id":"4","last_reported":1745871054,"current_range_meters":8400,"station_id":"ce4bhqp2rcd13ifvqhog","pricing_plan_id":"cebpf4jnsgd1na2vs0mg"},{"bike_id":"af4f0c69-e62d-4155-b1d1-a67b45271ae1","system_id":"levelo_inurba_marseille","lat":43.24741,"lon":5.41229,"is_reserved":false,"is_disabled":false,"rental_uris":{"android":"levelo://app?vid=af4f0c69-e62d-4155-b1d1-a67b45271ae1","ios":"levelo://app?vid=af4f0c69-e62d-4155-b1d1-a67b45271ae1"},"vehicle_type_id":"4","last_reported":1745871054,"current_range_meters":8800,"station_id":"","pricing_plan_id":"cebpf4jnsgd1na2vs0mg"},{"bike_id":"37462fd3-bd44-40e0-8a59-f04677802edf","system_id":"levelo_inurba_marseille","lat":43.2468,"lon":5.38157,"is_reserved":false,"is_disabled":false,"rental_uris":{"android":"levelo://app?vid=37462fd3-bd44-40e0-8a59-f04677802edf","ios":"levelo://app?vid=37462fd3-bd44-40e0-8a59-f04677802edf"},"vehicle_type_id":"4","last_reported":1745871054,"current_range_meters":8800,"station_id":"ce4bhih2rcd13ifvqfr0","pricing_plan_id":"cebpf4jnsgd1na2vs0mg"},{"bike_id":"b9022854-efe3-4bc0-8b29-6580553b1d4b","system_id":"levelo_inurba_marseille","lat":43.2694,"lon":5.40254,"is_reserved":false,"is_disabled":false,"rental_uris":{"android":"levelo://app?vid=b9022854-efe3-4bc0-8b29-6580553b1d4b","ios":"levelo://app?vid=b9022854-efe3-4bc0-8b29-6580553b1d4b"},"vehicle_type_id":"4","last_reported":1745871054,"current_range_meters":8800,"station_id":"cjm6bp8fraef2m0cb0m0","pricing_plan_id":"cebpf4jnsgd1na2vs0mg"},{"bike_id":"c9a86ac7-7b19-40e0-8204-2ba2f18392ef","system_id":"levelo_inurba_marseille","lat":43.298635,"lon":5.397258,"is_reserved":false,"is_disabled":true,"rental_uris":{"android":"levelo://app?vid=c9a86ac7-7b19-40e0-8204-2ba2f18392ef","ios":"levelo://app?vid=c9a86ac7-7b19-40e0-8204-2ba2f18392ef"},"vehicle_type_id":"4","last_reported":1745871054,"current_range_meters":8800,"station_id":"","pricing_plan_id":"cebpf4jnsgd1na2vs0mg"},{"bike_id":"57a41005-dba4-4995-a65d-3cc07a95ba9a","system_id":"levelo_inurba_marseille","lat":43.30205,"lon":5.39463,"is_reserved":false,"is_disabled":true,"rental_uris":{"android":"levelo://app?vid=57a41005-dba4-4995-a65d-3cc07a95ba9a","ios":"levelo://app?vid=57a41005-dba4-4995-a65d-3cc07a95ba9a"},"vehicle_type_id":"4","last_reported":1745871054,"current_range_meters":8800,"station_id":"ce4bh0p2rcd13ifvqd70","pricing_plan_id":"cebpf4jnsgd1na2vs0mg"},{"bike_id":"f69a0eff-5096-4e20-8aed-ccc7e08a03e6","system_id":"levelo_inurba_marseille","lat":43.30899,"lon":5.39668,"is_reserved":false,"is_disabled":false,"rental_uris":{"android":"levelo://app?vid=f69a0eff-5096-4e20-8aed-ccc7e08a03e6","ios":"levelo://app?vid=f69a0eff-5096-4e20-8aed-ccc7e08a03e6"},"vehicle_type_id":"4","last_reported":1745871054,"current_range_meters":9200,"station_id":"ce4bh012rcd13ifvqcv0","pricing_plan_id":"cebpf4jnsgd1na2vs0mg"},{"bike_id":"e6d77530-cec4-4eb5-8c74-cac47d4adfa9","system_id":"levelo_inurba_marseille","lat":43.27944,"lon":5.41037,"is_reserved":false,"is_disabled":false,"rental_uris":{"android":"levelo://app?vid=e6d77530-cec4-4eb5-8c74-cac47d4adfa9","ios":"levelo://app?vid=e6d77530-cec4-4eb5-8c74-cac47d4adfa9"},"vehicle_type_id":"4","last_reported":1745871054,"current_range_meters":9200,"station_id":"ce4bhnp2rcd13ifvqh0g","pricing_plan_id":"cebpf4jnsgd1na2vs0mg"},{"bike_id":"c2380613-1576-47db-9817-a29fad74989f","system_id":"levelo_inurba_marseille","lat":43.29272,"lon":5.40123,"is_reserved":false,"is_disabled":false,"rental_uris":{"android":"levelo://app?vid=c2380613-1576-47db-9817-a29fad74989f","ios":"levelo://app?vid=c2380613-1576-47db-9817-a29fad74989f"},"vehicle_type_id":"4","last_reported":1745871054,"current_range_meters":9200,"station_id":"ce4bh312rcd13ifvqdk0","pricing_plan_id":"cebpf4jnsgd1na2vs0mg"},{"bike_id":"a7163810-2fee-4f07-bc17-d96aabf9a498","system_id":"levelo_inurba_marseille","lat":43.30796,"lon":5.4353,"is_reserved":false,"is_disabled":false,"rental_uris":{"android":"levelo://app?vid=a7163810-2fee-4f07-bc17-d96aabf9a498","ios":"levelo://app?vid=a7163810-2fee-4f07-bc17-d96aabf9a498"},"vehicle_type_id":"4","last_reported":1745871054,"current_range_meters":9200,"station_id":"ce4bhph2rcd13ifvqheg","pricing_plan_id":"cebpf4jnsgd1na2vs0mg"},{"bike_id":"1f9dc5e7-d300-44b7-b4e8-03a60cba3df9","system_id":"levelo_inurba_marseille","lat":43.30595,"lon":5.37209,"is_reserved":false,"is_disabled":false,"rental_uris":{"android":"levelo://app?vid=1f9dc5e7-d300-44b7-b4e8-03a60cba3df9","ios":"levelo://app?vid=1f9dc5e7-d300-44b7-b4e8-03a60cba3df9"},"vehicle_type_id":"4","last_reported":1745871054,"current_range_meters":9200,"station_id":"ce4bgqh2rcd13ifvqc4g","pricing_plan_id":"cebpf4jnsgd1na2vs0mg"},{"bike_id":"989d6667-c8a0-4220-a0e4-fbf6dc38167f","system_id":"levelo_inurba_marseille","lat":43.30791,"lon":5.38157,"is_reserved":false,"is_disabled":false,"rental_uris":{"android":"levelo://app?vid=989d6667-c8a0-4220-a0e4-fbf6dc38167f","ios":"levelo://app?vid=989d6667-c8a0-4220-a0e4-fbf6dc38167f"},"vehicle_type_id":"4","last_reported":1745871054,"current_range_meters":9600,"station_id":"ce4bgt12rcd13ifvqce0","pricing_plan_id":"cebpf4jnsgd1na2vs0mg"},{"bike_id":"32eca611-111c-4689-bb0d-8c20e0341828","system_id":"levelo_inurba_marseille","lat":43.25569,"lon":5.38254,"is_reserved":false,"is_disabled":false,"rental_uris":{"android":"levelo://app?vid=32eca611-111c-4689-bb0d-8c20e0341828","ios":"levelo://app?vid=32eca611-111c-4689-bb0d-8c20e0341828"},"vehicle_type_id":"4","last_reported":1745871054,"current_range_meters":9600,"station_id":"ce4bhih2rcd13ifvqfs0","pricing_plan_id":"cebpf4jnsgd1na2vs0mg"},{"bike_id":"0601db71-6a78-497f-b205-23cf0bd13a21","system_id":"levelo_inurba_marseille","lat":43.27712,"lon":5.36273,"is_reserved":false,"is_disabled":false,"rental_uris":{"android":"levelo://app?vid=0601db71-6a78-497f-b205-23cf0bd13a21","ios":"levelo://app?vid=0601db71-6a78-497f-b205-23cf0bd13a21"},"vehicle_type_id":"4","last_reported":1745871054,"current_range_meters":9600,"station_id":"","pricing_plan_id":"cebpf4jnsgd1na2vs0mg"},{"bike_id":"ce2acb9b-3791-4000-822d-c542d629429b","system_id":"levelo_inurba_marseille","lat":43.26107,"lon":5.41474,"is_reserved":false,"is_disabled":false,"rental_uris":{"android":"levelo://app?vid=ce2acb9b-3791-4000-822d-c542d629429b","ios":"levelo://app?vid=ce2acb9b-3791-4000-822d-c542d629429b"},"vehicle_type_id":"4","last_reported":1745871054,"current_range_meters":10000,"station_id":"","pricing_plan_id":"cebpf4jnsgd1na2vs0mg"},{"bike_id":"d38d985e-d694-4554-b759-756004511f6d","system_id":"levelo_inurba_marseille","lat":43.30187,"lon":5.36625,"is_reserved":false,"is_disabled":false,"rental_uris":{"android":"levelo://app?vid=d38d985e-d694-4554-b759-756004511f6d","ios":"levelo://app?vid=d38d985e-d694-4554-b759-756004511f6d"},"vehicle_type_id":"4","last_reported":1745871054,"current_range_meters":10000,"station_id":"ce4bgrh2rcd13ifvqc8g","pricing_plan_id":"cebpf4jnsgd1na2vs0mg"},{"bike_id":"1cf63bd9-d13d-4781-8167-f45afc711709","system_id":"levelo_inurba_marseille","lat":43.26262,"lon":5.40399,"is_reserved":false,"is_disabled":false,"rental_uris":{"android":"levelo://app?vid=1cf63bd9-d13d-4781-8167-f45afc711709","ios":"levelo://app?vid=1cf63bd9-d13d-4781-8167-f45afc711709"},"vehicle_type_id":"4","last_reported":1745871054,"current_range_meters":10000,"station_id":"","pricing_plan_id":"cebpf4jnsgd1na2vs0mg"},{"bike_id":"05145c84-b9e3-47c2-91f6-efba0dd3a65c","system_id":"levelo_inurba_marseille","lat":43.25016,"lon":5.38914,"is_reserved":false,"is_disabled":true,"rental_uris":{"android":"levelo://app?vid=05145c84-b9e3-47c2-91f6-efba0dd3a65c","ios":"levelo://app?vid=05145c84-b9e3-47c2-91f6-efba0dd3a65c"},"vehicle_type_id":"4","last_reported":1745871054,"current_range_meters":10000,"station_id":"ce4bhgp2rcd13ifvqfd0","pricing_plan_id":"cebpf4jnsgd1na2vs0mg"},{"bike_id":"65880236-2a1c-461e-990f-2bacb3124152","system_id":"levelo_inurba_marseille","lat":43.28149,"lon":5.42642,"is_reserved":false,"is_disabled":false,"rental_uris":{"android":"levelo://app?vid=65880236-2a1c-461e-990f-2bacb3124152","ios":"levelo://app?vid=65880236-2a1c-461e-990f-2bacb3124152"},"vehicle_type_id":"4","last_reported":1745871054,"current_range_meters":10800,"station_id":"ce4bhnh2rcd13ifvqgug","pricing_plan_id":"cebpf4jnsgd1na2vs0mg"},{"bike_id":"664362af-2469-4bb3-a41d-adba18172c74","system_id":"levelo_inurba_marseille","lat":43.2902,"lon":5.38633,"is_reserved":false,"is_disabled":false,"rental_uris":{"android":"levelo://app?vid=664362af-2469-4bb3-a41d-adba18172c74","ios":"levelo://app?vid=664362af-2469-4bb3-a41d-adba18172c74"},"vehicle_type_id":"4","last_reported":1745871054,"current_range_meters":10800,"station_id":"ce4bh4p2rcd13ifvqe0g","pricing_plan_id":"cebpf4jnsgd1na2vs0mg"},{"bike_id":"138e2c40-34b0-4ea6-a4e5-649e9029ce80","system_id":"levelo_inurba_marseille","lat":43.29489,"lon":5.38545,"is_reserved":false,"is_disabled":false,"rental_uris":{"android":"levelo://app?vid=138e2c40-34b0-4ea6-a4e5-649e9029ce80","ios":"levelo://app?vid=138e2c40-34b0-4ea6-a4e5-649e9029ce80"},"vehicle_type_id":"4","last_reported":1745871054,"current_range_meters":10800,"station_id":"ce4bgih2rcd13ifvqba0","pricing_plan_id":"cebpf4jnsgd1na2vs0mg"},{"bike_id":"e5b4b90d-e268-4de2-98f4-f6d0513f8801","system_id":"levelo_inurba_marseille","lat":43.26568,"lon":5.42203,"is_reserved":false,"is_disabled":false,"rental_uris":{"android":"levelo://app?vid=e5b4b90d-e268-4de2-98f4-f6d0513f8801","ios":"levelo://app?vid=e5b4b90d-e268-4de2-98f4-f6d0513f8801"},"vehicle_type_id":"4","last_reported":1745871054,"current_range_meters":10800,"station_id":"","pricing_plan_id":"cebpf4jnsgd1na2vs0mg"},{"bike_id":"8181d28f-5328-4613-8382-4ac501ef0ce3","system_id":"levelo_inurba_marseille","lat":43.31526,"lon":5.38917,"is_reserved":false,"is_disabled":false,"rental_uris":{"android":"levelo://app?vid=8181d28f-5328-4613-8382-4ac501ef0ce3","ios":"levelo://app?vid=8181d28f-5328-4613-8382-4ac501ef0ce3"},"vehicle_type_id":"4","last_reported":1745871054,"current_range_meters":10800,"station_id":"","pricing_plan_id":"cebpf4jnsgd1na2vs0mg"},{"bike_id":"e0fe11ff-3615-47db-8f84-f7a3a3e04b01","system_id":"levelo_inurba_marseille","lat":43.24076,"lon":5.3777,"is_reserved":false,"is_disabled":false,"rental_uris":{"android":"levelo://app?vid=e0fe11ff-3615-47db-8f84-f7a3a3e04b01","ios":"levelo://app?vid=e0fe11ff-3615-47db-8f84-f7a3a3e04b01"},"vehicle_type_id":"4","last_reported":1745871054,"current_range_meters":10800,"station_id":"ce4bhnp2rcd13ifvqgvg","pricing_plan_id":"cebpf4jnsgd1na2vs0mg"},{"bike_id":"85de7641-0020-4819-b11d-e5310ad5b29b","system_id":"levelo_inurba_marseille","lat":43.31692,"lon":5.3775,"is_reserved":false,"is_disabled":false,"rental_uris":{"android":"levelo://app?vid=85de7641-0020-4819-b11d-e5310ad5b29b","ios":"levelo://app?vid=85de7641-0020-4819-b11d-e5310ad5b29b"},"vehicle_type_id":"4","last_reported":1745871054,"current_range_meters":11200,"station_id":"ce4bgth2rcd13ifvqch0","pricing_plan_id":"cebpf4jnsgd1na2vs0mg"},{"bike_id":"b8f1e865-f933-479a-a5c5-3d763b3979d4","system_id":"levelo_inurba_marseille","lat":43.278134,"lon":5.388041,"is_reserved":false,"is_disabled":false,"rental_uris":{"android":"levelo://app?vid=b8f1e865-f933-479a-a5c5-3d763b3979d4","ios":"levelo://app?vid=b8f1e865-f933-479a-a5c5-3d763b3979d4"},"vehicle_type_id":"4","last_reported":1745871054,"current_range_meters":11200,"station_id":"ce4bhgp2rcd13ifvqfe0","pricing_plan_id":"cebpf4jnsgd1na2vs0mg"},{"bike_id":"57e4b7ec-8a10-4450-a9ed-dcc98d9c2b08","system_id":"levelo_inurba_marseille","lat":43.3149,"lon":5.37298,"is_reserved":false,"is_disabled":false,"rental_uris":{"android":"levelo://app?vid=57e4b7ec-8a10-4450-a9ed-dcc98d9c2b08","ios":"levelo://app?vid=57e4b7ec-8a10-4450-a9ed-dcc98d9c2b08"},"vehicle_type_id":"4","last_reported":1745871054,"current_range_meters":11200,"station_id":"ce4bgt12rcd13ifvqcd0","pricing_plan_id":"cebpf4jnsgd1na2vs0mg"},{"bike_id":"3566469e-5adf-4ae7-9fad-25ede3e08c1b","system_id":"levelo_inurba_marseille","lat":43.29261,"lon":5.384246,"is_reserved":false,"is_disabled":true,"rental_uris":{"android":"levelo://app?vid=3566469e-5adf-4ae7-9fad-25ede3e08c1b","ios":"levelo://app?vid=3566469e-5adf-4ae7-9fad-25ede3e08c1b"},"vehicle_type_id":"4","last_reported":1745871054,"current_range_meters":11200,"station_id":"ce4bh692rcd13ifvqea0","pricing_plan_id":"cebpf4jnsgd1na2vs0mg"},{"bike_id":"86c0598b-4818-471f-9a8b-081ecdc96572","system_id":"levelo_inurba_marseille","lat":43.25577,"lon":5.38235,"is_reserved":false,"is_disabled":false,"rental_uris":{"android":"levelo://app?vid=86c0598b-4818-471f-9a8b-081ecdc96572","ios":"levelo://app?vid=86c0598b-4818-471f-9a8b-081ecdc96572"},"vehicle_type_id":"4","last_reported":1745871054,"current_range_meters":11600,"station_id":"ce4bhih2rcd13ifvqfs0","pricing_plan_id":"cebpf4jnsgd1na2vs0mg"},{"bike_id":"d8d47326-1ddc-4bf8-a8bb-7e909248fe72","system_id":"levelo_inurba_marseille","lat":43.2606,"lon":5.39396,"is_reserved":false,"is_disabled":false,"rental_uris":{"android":"levelo://app?vid=d8d47326-1ddc-4bf8-a8bb-7e909248fe72","ios":"levelo://app?vid=d8d47326-1ddc-4bf8-a8bb-7e909248fe72"},"vehicle_type_id":"4","last_reported":1745871054,"current_range_meters":11600,"station_id":"ce4bhh92rcd13ifvqfj0","pricing_plan_id":"cebpf4jnsgd1na2vs0mg"},{"bike_id":"114074cb-6bca-4123-b1e8-66d0b2aadd4b","system_id":"levelo_inurba_marseille","lat":43.29516,"lon":5.39402,"is_reserved":false,"is_disabled":false,"rental_uris":{"android":"levelo://app?vid=114074cb-6bca-4123-b1e8-66d0b2aadd4b","ios":"levelo://app?vid=114074cb-6bca-4123-b1e8-66d0b2aadd4b"},"vehicle_type_id":"4","last_reported":1745871054,"current_range_meters":11600,"station_id":"ce4bh292rcd13ifvqdf0","pricing_plan_id":"cebpf4jnsgd1na2vs0mg"},{"bike_id":"4a059a2d-b3a6-4e0b-9fd3-b714abc8d3bb","system_id":"levelo_inurba_marseille","lat":43.32006,"lon":5.38151,"is_reserved":false,"is_disabled":true,"rental_uris":{"android":"levelo://app?vid=4a059a2d-b3a6-4e0b-9fd3-b714abc8d3bb","ios":"levelo://app?vid=4a059a2d-b3a6-4e0b-9fd3-b714abc8d3bb"},"vehicle_type_id":"4","last_reported":1745871054,"current_range_meters":11600,"station_id":"ce4bhr12rcd13ifvqhpg","pricing_plan_id":"cebpf4jnsgd1na2vs0mg"},{"bike_id":"f8527f98-9dba-4767-9c49-2ee5632fd2af","system_id":"levelo_inurba_marseille","lat":43.27836,"lon":5.40732,"is_reserved":false,"is_disabled":true,"rental_uris":{"android":"levelo://app?vid=f8527f98-9dba-4767-9c49-2ee5632fd2af","ios":"levelo://app?vid=f8527f98-9dba-4767-9c49-2ee5632fd2af"},"vehicle_type_id":"4","last_reported":1745871054,"current_range_meters":11600,"station_id":"ce4bhnh2rcd13ifvqgtg","pricing_plan_id":"cebpf4jnsgd1na2vs0mg"},{"bike_id":"0c419854-a6ff-4417-91cc-0cb300342e81","system_id":"levelo_inurba_marseille","lat":43.28827,"lon":5.39313,"is_reserved":false,"is_disabled":false,"rental_uris":{"android":"levelo://app?vid=0c419854-a6ff-4417-91cc-0cb300342e81","ios":"levelo://app?vid=0c419854-a6ff-4417-91cc-0cb300342e81"},"vehicle_type_id":"4","last_reported":1745871054,"current_range_meters":11600,"station_id":"ce4bh2p2rcd13ifvqdi0","pricing_plan_id":"cebpf4jnsgd1na2vs0mg"},{"bike_id":"ec39f74a-f9d7-49fa-b961-97420ac55e71","system_id":"levelo_inurba_marseille","lat":43.242981,"lon":5.378963,"is_reserved":false,"is_disabled":false,"rental_uris":{"android":"levelo://app?vid=ec39f74a-f9d7-49fa-b961-97420ac55e71","ios":"levelo://app?vid=ec39f74a-f9d7-49fa-b961-97420ac55e71"},"vehicle_type_id":"4","last_reported":1745871054,"current_range_meters":11600,"station_id":"cjm6bp8fraef2m0cb0m0","pricing_plan_id":"cebpf4jnsgd1na2vs0mg"},{"bike_id":"dacbba50-691c-4c1b-8e2b-35e4dc6754f9","system_id":"levelo_inurba_marseille","lat":43.23959,"lon":5.36625,"is_reserved":false,"is_disabled":false,"rental_uris":{"android":"levelo://app?vid=dacbba50-691c-4c1b-8e2b-35e4dc6754f9","ios":"levelo://app?vid=dacbba50-691c-4c1b-8e2b-35e4dc6754f9"},"vehicle_type_id":"4","last_reported":1745871054,"current_range_meters":12000,"station_id":"ce4bhi12rcd13ifvqfp0","pricing_plan_id":"cebpf4jnsgd1na2vs0mg"},{"bike_id":"7d0ed464-70fe-4f3e-a2bf-7998923fe770","system_id":"levelo_inurba_marseille","lat":43.29006,"lon":5.35612,"is_reserved":false,"is_disabled":false,"rental_uris":{"android":"levelo://app?vid=7d0ed464-70fe-4f3e-a2bf-7998923fe770","ios":"levelo://app?vid=7d0ed464-70fe-4f3e-a2bf-7998923fe770"},"vehicle_type_id":"4","last_reported":1745871054,"current_range_meters":12000,"station_id":"ce4bhb92rcd13ifvqen0","pricing_plan_id":"cebpf4jnsgd1na2vs0mg"},{"bike_id":"011653b7-9ac5-4020-bac8-f2643b6f4f30","system_id":"levelo_inurba_marseille","lat":43.30324,"lon":5.40448,"is_reserved":false,"is_disabled":false,"rental_uris":{"android":"levelo://app?vid=011653b7-9ac5-4020-bac8-f2643b6f4f30","ios":"levelo://app?vid=011653b7-9ac5-4020-bac8-f2643b6f4f30"},"vehicle_type_id":"4","last_reported":1745871054,"current_range_meters":12000,"station_id":"ce4bh012rcd13ifvqd10","pricing_plan_id":"cebpf4jnsgd1na2vs0mg"},{"bike_id":"ab4612c3-85f5-4cb4-9ce2-46373d9c1c69","system_id":"levelo_inurba_marseille","lat":43.257854,"lon":5.386164,"is_reserved":false,"is_disabled":false,"rental_uris":{"android":"levelo://app?vid=ab4612c3-85f5-4cb4-9ce2-46373d9c1c69","ios":"levelo://app?vid=ab4612c3-85f5-4cb4-9ce2-46373d9c1c69"},"vehicle_type_id":"4","last_reported":1745871054,"current_range_meters":12000,"station_id":"","pricing_plan_id":"cebpf4jnsgd1na2vs0mg"},{"bike_id":"542e4c77-c00f-4dc1-948f-3ae01228baaa","system_id":"levelo_inurba_marseille","lat":43.24072,"lon":5.37752,"is_reserved":false,"is_disabled":false,"rental_uris":{"android":"levelo://app?vid=542e4c77-c00f-4dc1-948f-3ae01228baaa","ios":"levelo://app?vid=542e4c77-c00f-4dc1-948f-3ae01228baaa"},"vehicle_type_id":"4","last_reported":1745871054,"current_range_meters":12000,"station_id":"ce4bhnp2rcd13ifvqgvg","pricing_plan_id":"cebpf4jnsgd1na2vs0mg"},{"bike_id":"6242f143-06d6-4fad-bae2-f8138a179039","system_id":"levelo_inurba_marseille","lat":43.26226,"lon":5.40447,"is_reserved":false,"is_disabled":false,"rental_uris":{"android":"levelo://app?vid=6242f143-06d6-4fad-bae2-f8138a179039","ios":"levelo://app?vid=6242f143-06d6-4fad-bae2-f8138a179039"},"vehicle_type_id":"4","last_reported":1745871054,"current_range_meters":12400,"station_id":"ce4bhmh2rcd13ifvqgmg","pricing_plan_id":"cebpf4jnsgd1na2vs0mg"},{"bike_id":"20d410f8-8f48-44fc-b81f-a6598afbfddb","system_id":"levelo_inurba_marseille","lat":43.32346,"lon":5.40621,"is_reserved":false,"is_disabled":false,"rental_uris":{"android":"levelo://app?vid=20d410f8-8f48-44fc-b81f-a6598afbfddb","ios":"levelo://app?vid=20d410f8-8f48-44fc-b81f-a6598afbfddb"},"vehicle_type_id":"4","last_reported":1745871054,"current_range_meters":12400,"station_id":"ce4bhq92rcd13ifvqhjg","pricing_plan_id":"cebpf4jnsgd1na2vs0mg"},{"bike_id":"a6c80b0c-536c-4a45-884f-2e1d125500ab","system_id":"levelo_inurba_marseille","lat":43.22509,"lon":5.3478,"is_reserved":false,"is_disabled":false,"rental_uris":{"android":"levelo://app?vid=a6c80b0c-536c-4a45-884f-2e1d125500ab","ios":"levelo://app?vid=a6c80b0c-536c-4a45-884f-2e1d125500ab"},"vehicle_type_id":"4","last_reported":1745871054,"current_range_meters":12800,"station_id":"st_cvj5dfep6f1abm77gieg","pricing_plan_id":"cebpf4jnsgd1na2vs0mg"},{"bike_id":"76fea2bd-0c06-4c4b-9f18-f70f8a4ce552","system_id":"levelo_inurba_marseille","lat":43.27674,"lon":5.38869,"is_reserved":false,"is_disabled":false,"rental_uris":{"android":"levelo://app?vid=76fea2bd-0c06-4c4b-9f18-f70f8a4ce552","ios":"levelo://app?vid=76fea2bd-0c06-4c4b-9f18-f70f8a4ce552"},"vehicle_type_id":"4","last_reported":1745871054,"current_range_meters":12400,"station_id":"ce4bhi12rcd13ifvqfo0","pricing_plan_id":"cebpf4jnsgd1na2vs0mg"},{"bike_id":"a273dd95-99e2-4bb8-bee8-19cb9b13f516","system_id":"levelo_inurba_marseille","lat":43.299,"lon":5.436621,"is_reserved":false,"is_disabled":false,"rental_uris":{"android":"levelo://app?vid=a273dd95-99e2-4bb8-bee8-19cb9b13f516","ios":"levelo://app?vid=a273dd95-99e2-4bb8-bee8-19cb9b13f516"},"vehicle_type_id":"4","last_reported":1745871054,"current_range_meters":12800,"station_id":"ce4bhpp2rcd13ifvqhfg","pricing_plan_id":"cebpf4jnsgd1na2vs0mg"},{"bike_id":"8badacf7-3955-4aa6-82fa-5b0b05935c4a","system_id":"levelo_inurba_marseille","lat":43.31332,"lon":5.39691,"is_reserved":false,"is_disabled":false,"rental_uris":{"android":"levelo://app?vid=8badacf7-3955-4aa6-82fa-5b0b05935c4a","ios":"levelo://app?vid=8badacf7-3955-4aa6-82fa-5b0b05935c4a"},"vehicle_type_id":"4","last_reported":1745871054,"current_range_meters":12800,"station_id":"ce4bgvp2rcd13ifvqcu0","pricing_plan_id":"cebpf4jnsgd1na2vs0mg"},{"bike_id":"ece702d0-e9e0-4400-bd16-9dbedd6cb12d","system_id":"levelo_inurba_marseille","lat":43.24803,"lon":5.37451,"is_reserved":false,"is_disabled":false,"rental_uris":{"android":"levelo://app?vid=ece702d0-e9e0-4400-bd16-9dbedd6cb12d","ios":"levelo://app?vid=ece702d0-e9e0-4400-bd16-9dbedd6cb12d"},"vehicle_type_id":"4","last_reported":1745871054,"current_range_meters":12400,"station_id":"ce4bhgh2rcd13ifvqfb0","pricing_plan_id":"cebpf4jnsgd1na2vs0mg"},{"bike_id":"4a4bdf03-1c65-44d2-9cb9-b2165021edbb","system_id":"levelo_inurba_marseille","lat":43.28015,"lon":5.39997,"is_reserved":false,"is_disabled":false,"rental_uris":{"android":"levelo://app?vid=4a4bdf03-1c65-44d2-9cb9-b2165021edbb","ios":"levelo://app?vid=4a4bdf03-1c65-44d2-9cb9-b2165021edbb"},"vehicle_type_id":"4","last_reported":1745871054,"current_range_meters":13600,"station_id":"ce4bho92rcd13ifvqh4g","pricing_plan_id":"cebpf4jnsgd1na2vs0mg"},{"bike_id":"6b88ae52-4470-4609-9540-2ec7e9358c2c","system_id":"levelo_inurba_marseille","lat":43.23961,"lon":5.36645,"is_reserved":false,"is_disabled":false,"rental_uris":{"android":"levelo://app?vid=6b88ae52-4470-4609-9540-2ec7e9358c2c","ios":"levelo://app?vid=6b88ae52-4470-4609-9540-2ec7e9358c2c"},"vehicle_type_id":"4","last_reported":1745871054,"current_range_meters":13600,"station_id":"ce4bhi12rcd13ifvqfp0","pricing_plan_id":"cebpf4jnsgd1na2vs0mg"},{"bike_id":"45deb0cd-fd01-439c-9171-622b8bb2c716","system_id":"levelo_inurba_marseille","lat":43.25009,"lon":5.38892,"is_reserved":false,"is_disabled":false,"rental_uris":{"android":"levelo://app?vid=45deb0cd-fd01-439c-9171-622b8bb2c716","ios":"levelo://app?vid=45deb0cd-fd01-439c-9171-622b8bb2c716"},"vehicle_type_id":"4","last_reported":1745871054,"current_range_meters":13600,"station_id":"ce4bhgp2rcd13ifvqfd0","pricing_plan_id":"cebpf4jnsgd1na2vs0mg"},{"bike_id":"e0b7f679-3c66-4779-967c-b0fd269e1e73","system_id":"levelo_inurba_marseille","lat":43.29977,"lon":5.38489,"is_reserved":false,"is_disabled":false,"rental_uris":{"android":"levelo://app?vid=e0b7f679-3c66-4779-967c-b0fd269e1e73","ios":"levelo://app?vid=e0b7f679-3c66-4779-967c-b0fd269e1e73"},"vehicle_type_id":"4","last_reported":1745871054,"current_range_meters":13600,"station_id":"ce4bgj92rcd13ifvqbd0","pricing_plan_id":"cebpf4jnsgd1na2vs0mg"},{"bike_id":"89cf9720-1124-4ed8-8870-4683b15dc8b3","system_id":"levelo_inurba_marseille","lat":43.28001,"lon":5.40003,"is_reserved":false,"is_disabled":false,"rental_uris":{"android":"levelo://app?vid=89cf9720-1124-4ed8-8870-4683b15dc8b3","ios":"levelo://app?vid=89cf9720-1124-4ed8-8870-4683b15dc8b3"},"vehicle_type_id":"4","last_reported":1745871054,"current_range_meters":14000,"station_id":"ce4bho92rcd13ifvqh4g","pricing_plan_id":"cebpf4jnsgd1na2vs0mg"},{"bike_id":"bb2fb823-cca0-4151-83b8-6f777be4e557","system_id":"levelo_inurba_marseille","lat":43.29318,"lon":5.37172,"is_reserved":false,"is_disabled":false,"rental_uris":{"android":"levelo://app?vid=bb2fb823-cca0-4151-83b8-6f777be4e557","ios":"levelo://app?vid=bb2fb823-cca0-4151-83b8-6f777be4e557"},"vehicle_type_id":"4","last_reported":1745871054,"current_range_meters":14000,"station_id":"ce4bgh92rcd13ifvqb40","pricing_plan_id":"cebpf4jnsgd1na2vs0mg"},{"bike_id":"b3da7448-854a-4cff-86cc-386dbf40cc30","system_id":"levelo_inurba_marseille","lat":43.31229,"lon":5.38143,"is_reserved":false,"is_disabled":false,"rental_uris":{"android":"levelo://app?vid=b3da7448-854a-4cff-86cc-386dbf40cc30","ios":"levelo://app?vid=b3da7448-854a-4cff-86cc-386dbf40cc30"},"vehicle_type_id":"4","last_reported":1745871054,"current_range_meters":14000,"station_id":"","pricing_plan_id":"cebpf4jnsgd1na2vs0mg"},{"bike_id":"a17dfbc6-c24a-4f6f-a28a-8c7675d89f62","system_id":"levelo_inurba_marseille","lat":43.30424,"lon":5.41271,"is_reserved":false,"is_disabled":true,"rental_uris":{"android":"levelo://app?vid=a17dfbc6-c24a-4f6f-a28a-8c7675d89f62","ios":"levelo://app?vid=a17dfbc6-c24a-4f6f-a28a-8c7675d89f62"},"vehicle_type_id":"4","last_reported":1745871054,"current_range_meters":14000,"station_id":"ce4bhop2rcd13ifvqh8g","pricing_plan_id":"cebpf4jnsgd1na2vs0mg"},{"bike_id":"f7de7479-45c0-4c25-bdd1-a2c17c0f8b8f","system_id":"levelo_inurba_marseille","lat":43.23961,"lon":5.36633,"is_reserved":false,"is_disabled":false,"rental_uris":{"android":"levelo://app?vid=f7de7479-45c0-4c25-bdd1-a2c17c0f8b8f","ios":"levelo://app?vid=f7de7479-45c0-4c25-bdd1-a2c17c0f8b8f"},"vehicle_type_id":"4","last_reported":1745871054,"current_range_meters":14400,"station_id":"ce4bhi12rcd13ifvqfp0","pricing_plan_id":"cebpf4jnsgd1na2vs0mg"},{"bike_id":"685a9e55-8c79-4043-9011-6b5336a86651","system_id":"levelo_inurba_marseille","lat":43.2573,"lon":5.41106,"is_reserved":false,"is_disabled":false,"rental_uris":{"android":"levelo://app?vid=685a9e55-8c79-4043-9011-6b5336a86651","ios":"levelo://app?vid=685a9e55-8c79-4043-9011-6b5336a86651"},"vehicle_type_id":"4","last_reported":1745871054,"current_range_meters":14000,"station_id":"ce4bhkp2rcd13ifvqgd0","pricing_plan_id":"cebpf4jnsgd1na2vs0mg"},{"bike_id":"c24b3c75-89ed-45ac-9bbd-9775c29dd7b1","system_id":"levelo_inurba_marseille","lat":43.2943,"lon":5.39746,"is_reserved":false,"is_disabled":false,"rental_uris":{"android":"levelo://app?vid=c24b3c75-89ed-45ac-9bbd-9775c29dd7b1","ios":"levelo://app?vid=c24b3c75-89ed-45ac-9bbd-9775c29dd7b1"},"vehicle_type_id":"4","last_reported":1745871054,"current_range_meters":14400,"station_id":"ce4bh3h2rcd13ifvqdo0","pricing_plan_id":"cebpf4jnsgd1na2vs0mg"},{"bike_id":"220d8616-f521-4d6f-8a4b-dbfaf2b5c2ab","system_id":"levelo_inurba_marseille","lat":43.29549,"lon":5.42275,"is_reserved":false,"is_disabled":false,"rental_uris":{"android":"levelo://app?vid=220d8616-f521-4d6f-8a4b-dbfaf2b5c2ab","ios":"levelo://app?vid=220d8616-f521-4d6f-8a4b-dbfaf2b5c2ab"},"vehicle_type_id":"4","last_reported":1745871054,"current_range_meters":14400,"station_id":"ce4bhph2rcd13ifvqhdg","pricing_plan_id":"cebpf4jnsgd1na2vs0mg"},{"bike_id":"28894e81-ede6-4351-84e3-e6b48081a345","system_id":"levelo_inurba_marseille","lat":43.33434,"lon":5.40055,"is_reserved":false,"is_disabled":false,"rental_uris":{"android":"levelo://app?vid=28894e81-ede6-4351-84e3-e6b48081a345","ios":"levelo://app?vid=28894e81-ede6-4351-84e3-e6b48081a345"},"vehicle_type_id":"4","last_reported":1745871054,"current_range_meters":14800,"station_id":"","pricing_plan_id":"cebpf4jnsgd1na2vs0mg"},{"bike_id":"64b4a0f6-eb4e-4a58-a49c-c2fdffc72cda","system_id":"levelo_inurba_marseille","lat":43.27542,"lon":5.3842,"is_reserved":false,"is_disabled":true,"rental_uris":{"android":"levelo://app?vid=64b4a0f6-eb4e-4a58-a49c-c2fdffc72cda","ios":"levelo://app?vid=64b4a0f6-eb4e-4a58-a49c-c2fdffc72cda"},"vehicle_type_id":"4","last_reported":1745871054,"current_range_meters":14800,"station_id":"ce4bhh92rcd13ifvqfi0","pricing_plan_id":"cebpf4jnsgd1na2vs0mg"},{"bike_id":"b3d7cca2-7d35-4030-8d40-4a8257616573","system_id":"levelo_inurba_marseille","lat":43.22519,"lon":5.34787,"is_reserved":false,"is_disabled":false,"rental_uris":{"android":"levelo://app?vid=b3d7cca2-7d35-4030-8d40-4a8257616573","ios":"levelo://app?vid=b3d7cca2-7d35-4030-8d40-4a8257616573"},"vehicle_type_id":"4","last_reported":1745871054,"current_range_meters":14800,"station_id":"st_cvj5dfep6f1abm77gieg","pricing_plan_id":"cebpf4jnsgd1na2vs0mg"},{"bike_id":"fb511a7c-3cee-4eb5-91f8-52dd69716b84","system_id":"levelo_inurba_marseille","lat":43.28691,"lon":5.37424,"is_reserved":false,"is_disabled":false,"rental_uris":{"android":"levelo://app?vid=fb511a7c-3cee-4eb5-91f8-52dd69716b84","ios":"levelo://app?vid=fb511a7c-3cee-4eb5-91f8-52dd69716b84"},"vehicle_type_id":"4","last_reported":1745871054,"current_range_meters":14400,"station_id":"ce4bh3p2rcd13ifvqdq0","pricing_plan_id":"cebpf4jnsgd1na2vs0mg"},{"bike_id":"897b5757-2241-462b-82d1-ecc7be1f9062","system_id":"levelo_inurba_marseille","lat":43.2651,"lon":5.39531,"is_reserved":false,"is_disabled":false,"rental_uris":{"android":"levelo://app?vid=897b5757-2241-462b-82d1-ecc7be1f9062","ios":"levelo://app?vid=897b5757-2241-462b-82d1-ecc7be1f9062"},"vehicle_type_id":"4","last_reported":1745871054,"current_range_meters":14800,"station_id":"ce4bhi12rcd13ifvqfq0","pricing_plan_id":"cebpf4jnsgd1na2vs0mg"},{"bike_id":"32d3a518-9b99-4040-9bc6-2e1515ccaeef","system_id":"levelo_inurba_marseille","lat":43.29621,"lon":5.37712,"is_reserved":false,"is_disabled":false,"rental_uris":{"android":"levelo://app?vid=32d3a518-9b99-4040-9bc6-2e1515ccaeef","ios":"levelo://app?vid=32d3a518-9b99-4040-9bc6-2e1515ccaeef"},"vehicle_type_id":"4","last_reported":1745871054,"current_range_meters":15200,"station_id":"ce4bgi92rcd13ifvqb90","pricing_plan_id":"cebpf4jnsgd1na2vs0mg"},{"bike_id":"d58e03bb-19b9-469a-bcd7-0c3ce91d40b5","system_id":"levelo_inurba_marseille","lat":43.213436,"lon":5.349632,"is_reserved":false,"is_disabled":false,"rental_uris":{"android":"levelo://app?vid=d58e03bb-19b9-469a-bcd7-0c3ce91d40b5","ios":"levelo://app?vid=d58e03bb-19b9-469a-bcd7-0c3ce91d40b5"},"vehicle_type_id":"4","last_reported":1745871054,"current_range_meters":15200,"station_id":"","pricing_plan_id":"cebpf4jnsgd1na2vs0mg"},{"bike_id":"ba90a969-30c4-442a-956b-16f739f0a91b","system_id":"levelo_inurba_marseille","lat":43.28662,"lon":5.36354,"is_reserved":false,"is_disabled":false,"rental_uris":{"android":"levelo://app?vid=ba90a969-30c4-442a-956b-16f739f0a91b","ios":"levelo://app?vid=ba90a969-30c4-442a-956b-16f739f0a91b"},"vehicle_type_id":"4","last_reported":1745871054,"current_range_meters":15200,"station_id":"ce4bhah2rcd13ifvqej0","pricing_plan_id":"cebpf4jnsgd1na2vs0mg"},{"bike_id":"fc39ec7e-6437-414a-ab52-86c81dd4e2df","system_id":"levelo_inurba_marseille","lat":43.34694,"lon":5.34689,"is_reserved":false,"is_disabled":false,"rental_uris":{"android":"levelo://app?vid=fc39ec7e-6437-414a-ab52-86c81dd4e2df","ios":"levelo://app?vid=fc39ec7e-6437-414a-ab52-86c81dd4e2df"},"vehicle_type_id":"4","last_reported":1745871054,"current_range_meters":15200,"station_id":"","pricing_plan_id":"cebpf4jnsgd1na2vs0mg"},{"bike_id":"923f8501-7d40-44db-85bf-a51b2ea797ac","system_id":"levelo_inurba_marseille","lat":43.27022,"lon":5.40218,"is_reserved":false,"is_disabled":true,"rental_uris":{"android":"levelo://app?vid=923f8501-7d40-44db-85bf-a51b2ea797ac","ios":"levelo://app?vid=923f8501-7d40-44db-85bf-a51b2ea797ac"},"vehicle_type_id":"4","last_reported":1745871054,"current_range_meters":15200,"station_id":"ce4bhk92rcd13ifvqgc0","pricing_plan_id":"cebpf4jnsgd1na2vs0mg"},{"bike_id":"f7aef08c-344d-4e25-9a67-8102308fde89","system_id":"levelo_inurba_marseille","lat":43.31755,"lon":5.39013,"is_reserved":false,"is_disabled":false,"rental_uris":{"android":"levelo://app?vid=f7aef08c-344d-4e25-9a67-8102308fde89","ios":"levelo://app?vid=f7aef08c-344d-4e25-9a67-8102308fde89"},"vehicle_type_id":"4","last_reported":1745871054,"current_range_meters":14800,"station_id":"ce4bhqp2rcd13ifvqhng","pricing_plan_id":"cebpf4jnsgd1na2vs0mg"},{"bike_id":"49f3cb50-67d9-4699-9f1c-2a0578b9879f","system_id":"levelo_inurba_marseille","lat":43.29029,"lon":5.38632,"is_reserved":false,"is_disabled":false,"rental_uris":{"android":"levelo://app?vid=49f3cb50-67d9-4699-9f1c-2a0578b9879f","ios":"levelo://app?vid=49f3cb50-67d9-4699-9f1c-2a0578b9879f"},"vehicle_type_id":"4","last_reported":1745871054,"current_range_meters":15200,"station_id":"ce4bh4p2rcd13ifvqe0g","pricing_plan_id":"cebpf4jnsgd1na2vs0mg"},{"bike_id":"72ab39d5-4be9-4c08-ab02-7d5bd997a63a","system_id":"levelo_inurba_marseille","lat":43.26798,"lon":5.40276,"is_reserved":false,"is_disabled":false,"rental_uris":{"android":"levelo://app?vid=72ab39d5-4be9-4c08-ab02-7d5bd997a63a","ios":"levelo://app?vid=72ab39d5-4be9-4c08-ab02-7d5bd997a63a"},"vehicle_type_id":"4","last_reported":1745871054,"current_range_meters":16000,"station_id":"ce501612rcd8frsf0b60","pricing_plan_id":"cebpf4jnsgd1na2vs0mg"},{"bike_id":"b7ca510d-1171-4ecc-996c-224d46372e70","system_id":"levelo_inurba_marseille","lat":43.32358,"lon":5.38887,"is_reserved":false,"is_disabled":false,"rental_uris":{"android":"levelo://app?vid=b7ca510d-1171-4ecc-996c-224d46372e70","ios":"levelo://app?vid=b7ca510d-1171-4ecc-996c-224d46372e70"},"vehicle_type_id":"4","last_reported":1745871054,"current_range_meters":16000,"station_id":"ce4bhqp2rcd13ifvqhog","pricing_plan_id":"cebpf4jnsgd1na2vs0mg"},{"bike_id":"a640b5aa-9396-4827-8f57-dd7ffd2f1a84","system_id":"levelo_inurba_marseille","lat":43.297754,"lon":5.381029,"is_reserved":false,"is_disabled":true,"rental_uris":{"android":"levelo://app?vid=a640b5aa-9396-4827-8f57-dd7ffd2f1a84","ios":"levelo://app?vid=a640b5aa-9396-4827-8f57-dd7ffd2f1a84"},"vehicle_type_id":"4","last_reported":1745871054,"current_range_meters":16000,"station_id":"ce4bgip2rcd13ifvqbb0","pricing_plan_id":"cebpf4jnsgd1na2vs0mg"},{"bike_id":"53c5c8dd-fe15-4077-b48a-b489ee28763b","system_id":"levelo_inurba_marseille","lat":43.284058,"lon":5.374991,"is_reserved":false,"is_disabled":false,"rental_uris":{"android":"levelo://app?vid=53c5c8dd-fe15-4077-b48a-b489ee28763b","ios":"levelo://app?vid=53c5c8dd-fe15-4077-b48a-b489ee28763b"},"vehicle_type_id":"4","last_reported":1745871054,"current_range_meters":16000,"station_id":"ce4bh412rcd13ifvqds0","pricing_plan_id":"cebpf4jnsgd1na2vs0mg"},{"bike_id":"a958bd06-9a50-497e-aef9-55e910bf12d1","system_id":"levelo_inurba_marseille","lat":43.29921,"lon":5.38134,"is_reserved":false,"is_disabled":true,"rental_uris":{"android":"levelo://app?vid=a958bd06-9a50-497e-aef9-55e910bf12d1","ios":"levelo://app?vid=a958bd06-9a50-497e-aef9-55e910bf12d1"},"vehicle_type_id":"4","last_reported":1745871054,"current_range_meters":16000,"station_id":"ce4bgj12rcd13ifvqbc0","pricing_plan_id":"cebpf4jnsgd1na2vs0mg"},{"bike_id":"5d12ee4a-52f1-4f1a-af38-ad7a19a5a489","system_id":"levelo_inurba_marseille","lat":43.30544,"lon":5.36531,"is_reserved":false,"is_disabled":true,"rental_uris":{"android":"levelo://app?vid=5d12ee4a-52f1-4f1a-af38-ad7a19a5a489","ios":"levelo://app?vid=5d12ee4a-52f1-4f1a-af38-ad7a19a5a489"},"vehicle_type_id":"4","last_reported":1745871054,"current_range_meters":16000,"station_id":"ce4bgs12rcd13ifvqcag","pricing_plan_id":"cebpf4jnsgd1na2vs0mg"},{"bike_id":"1c71dd62-5c1a-42e0-8da7-81eceebfb73e","system_id":"levelo_inurba_marseille","lat":43.211904,"lon":5.350782,"is_reserved":false,"is_disabled":false,"rental_uris":{"android":"levelo://app?vid=1c71dd62-5c1a-42e0-8da7-81eceebfb73e","ios":"levelo://app?vid=1c71dd62-5c1a-42e0-8da7-81eceebfb73e"},"vehicle_type_id":"4","last_reported":1745871054,"current_range_meters":16000,"station_id":"st_cvj6sg6p6f1abm77japg","pricing_plan_id":"cebpf4jnsgd1na2vs0mg"},{"bike_id":"1946eb44-0410-4268-86dc-28ee477e76eb","system_id":"levelo_inurba_marseille","lat":43.303234,"lon":5.404371,"is_reserved":false,"is_disabled":false,"rental_uris":{"android":"levelo://app?vid=1946eb44-0410-4268-86dc-28ee477e76eb","ios":"levelo://app?vid=1946eb44-0410-4268-86dc-28ee477e76eb"},"vehicle_type_id":"4","last_reported":1745871054,"current_range_meters":16400,"station_id":"ce4bh012rcd13ifvqd10","pricing_plan_id":"cebpf4jnsgd1na2vs0mg"},{"bike_id":"d62a9712-2f28-476a-85ea-ebd8364f363e","system_id":"levelo_inurba_marseille","lat":43.30303,"lon":5.36896,"is_reserved":false,"is_disabled":false,"rental_uris":{"android":"levelo://app?vid=d62a9712-2f28-476a-85ea-ebd8364f363e","ios":"levelo://app?vid=d62a9712-2f28-476a-85ea-ebd8364f363e"},"vehicle_type_id":"4","last_reported":1745871054,"current_range_meters":16400,"station_id":"ce4bgqh2rcd13ifvqc5g","pricing_plan_id":"cebpf4jnsgd1na2vs0mg"},{"bike_id":"c561163e-a003-49a9-bf4f-8ad31b0bbaac","system_id":"levelo_inurba_marseille","lat":43.25722,"lon":5.41847,"is_reserved":false,"is_disabled":false,"rental_uris":{"android":"levelo://app?vid=c561163e-a003-49a9-bf4f-8ad31b0bbaac","ios":"levelo://app?vid=c561163e-a003-49a9-bf4f-8ad31b0bbaac"},"vehicle_type_id":"4","last_reported":1745871054,"current_range_meters":16400,"station_id":"","pricing_plan_id":"cebpf4jnsgd1na2vs0mg"},{"bike_id":"d62ddf27-5b02-45fd-bd0c-48edab448e0e","system_id":"levelo_inurba_marseille","lat":43.32366,"lon":5.38885,"is_reserved":false,"is_disabled":false,"rental_uris":{"android":"levelo://app?vid=d62ddf27-5b02-45fd-bd0c-48edab448e0e","ios":"levelo://app?vid=d62ddf27-5b02-45fd-bd0c-48edab448e0e"},"vehicle_type_id":"4","last_reported":1745871054,"current_range_meters":16400,"station_id":"ce4bhqp2rcd13ifvqhog","pricing_plan_id":"cebpf4jnsgd1na2vs0mg"},{"bike_id":"a7e6a976-4e76-45c0-ac05-e24b51081421","system_id":"levelo_inurba_marseille","lat":43.28477,"lon":5.38417,"is_reserved":false,"is_disabled":false,"rental_uris":{"android":"levelo://app?vid=a7e6a976-4e76-45c0-ac05-e24b51081421","ios":"levelo://app?vid=a7e6a976-4e76-45c0-ac05-e24b51081421"},"vehicle_type_id":"4","last_reported":1745871054,"current_range_meters":16400,"station_id":"ce4bh512rcd13ifvqe3g","pricing_plan_id":"cebpf4jnsgd1na2vs0mg"},{"bike_id":"90ec756e-7d75-44ae-9837-bcc6f8c453df","system_id":"levelo_inurba_marseille","lat":43.23189,"lon":5.35558,"is_reserved":false,"is_disabled":false,"rental_uris":{"android":"levelo://app?vid=90ec756e-7d75-44ae-9837-bcc6f8c453df","ios":"levelo://app?vid=90ec756e-7d75-44ae-9837-bcc6f8c453df"},"vehicle_type_id":"4","last_reported":1745871054,"current_range_meters":16400,"station_id":"ce4bhu92rcd13ifvqi70","pricing_plan_id":"cebpf4jnsgd1na2vs0mg"},{"bike_id":"97f1d209-c90b-4355-9417-46a4bf181cbd","system_id":"levelo_inurba_marseille","lat":43.287351,"lon":5.379539,"is_reserved":false,"is_disabled":false,"rental_uris":{"android":"levelo://app?vid=97f1d209-c90b-4355-9417-46a4bf181cbd","ios":"levelo://app?vid=97f1d209-c90b-4355-9417-46a4bf181cbd"},"vehicle_type_id":"4","last_reported":1745871054,"current_range_meters":16400,"station_id":"ce4bh9p2rcd13ifvqec0","pricing_plan_id":"cebpf4jnsgd1na2vs0mg"},{"bike_id":"888538ce-4dc3-4f2e-8404-8ea4d633e1aa","system_id":"levelo_inurba_marseille","lat":43.26174,"lon":5.37454,"is_reserved":false,"is_disabled":true,"rental_uris":{"android":"levelo://app?vid=888538ce-4dc3-4f2e-8404-8ea4d633e1aa","ios":"levelo://app?vid=888538ce-4dc3-4f2e-8404-8ea4d633e1aa"},"vehicle_type_id":"4","last_reported":1745871054,"current_range_meters":16400,"station_id":"ce4bhgp2rcd13ifvqfc0","pricing_plan_id":"cebpf4jnsgd1na2vs0mg"},{"bike_id":"a0f3a2b8-941d-4e7c-aa67-27d608896f05","system_id":"levelo_inurba_marseille","lat":43.30588,"lon":5.39336,"is_reserved":false,"is_disabled":false,"rental_uris":{"android":"levelo://app?vid=a0f3a2b8-941d-4e7c-aa67-27d608896f05","ios":"levelo://app?vid=a0f3a2b8-941d-4e7c-aa67-27d608896f05"},"vehicle_type_id":"4","last_reported":1745871054,"current_range_meters":16400,"station_id":"ce4bh0p2rcd13ifvqd80","pricing_plan_id":"cebpf4jnsgd1na2vs0mg"},{"bike_id":"4ad15dee-99b7-4349-a896-d4198381a217","system_id":"levelo_inurba_marseille","lat":43.28446,"lon":5.39202,"is_reserved":false,"is_disabled":false,"rental_uris":{"android":"levelo://app?vid=4ad15dee-99b7-4349-a896-d4198381a217","ios":"levelo://app?vid=4ad15dee-99b7-4349-a896-d4198381a217"},"vehicle_type_id":"4","last_reported":1745871054,"current_range_meters":16800,"station_id":"ce4bhoh2rcd13ifvqh5g","pricing_plan_id":"cebpf4jnsgd1na2vs0mg"},{"bike_id":"489415b8-9254-45c1-b00c-e7554d56755c","system_id":"levelo_inurba_marseille","lat":43.245323,"lon":5.412101,"is_reserved":false,"is_disabled":false,"rental_uris":{"android":"levelo://app?vid=489415b8-9254-45c1-b00c-e7554d56755c","ios":"levelo://app?vid=489415b8-9254-45c1-b00c-e7554d56755c"},"vehicle_type_id":"4","last_reported":1745871054,"current_range_meters":16800,"station_id":"","pricing_plan_id":"cebpf4jnsgd1na2vs0mg"},{"bike_id":"00876a2e-6ff0-4dcb-ba4f-870a85b98823","system_id":"levelo_inurba_marseille","lat":43.30878,"lon":5.39641,"is_reserved":false,"is_disabled":false,"rental_uris":{"android":"levelo://app?vid=00876a2e-6ff0-4dcb-ba4f-870a85b98823","ios":"levelo://app?vid=00876a2e-6ff0-4dcb-ba4f-870a85b98823"},"vehicle_type_id":"4","last_reported":1745871054,"current_range_meters":16800,"station_id":"ce4bh012rcd13ifvqcv0","pricing_plan_id":"cebpf4jnsgd1na2vs0mg"},{"bike_id":"0152c1f9-7fe0-4ca8-baa7-28760592a88b","system_id":"levelo_inurba_marseille","lat":43.25093,"lon":5.40334,"is_reserved":false,"is_disabled":false,"rental_uris":{"android":"levelo://app?vid=0152c1f9-7fe0-4ca8-baa7-28760592a88b","ios":"levelo://app?vid=0152c1f9-7fe0-4ca8-baa7-28760592a88b"},"vehicle_type_id":"4","last_reported":1745871054,"current_range_meters":16800,"station_id":"ce4bhlh2rcd13ifvqgig","pricing_plan_id":"cebpf4jnsgd1na2vs0mg"},{"bike_id":"39f18c8b-df43-4308-a98e-40efc694b971","system_id":"levelo_inurba_marseille","lat":43.24088,"lon":5.37778,"is_reserved":false,"is_disabled":false,"rental_uris":{"android":"levelo://app?vid=39f18c8b-df43-4308-a98e-40efc694b971","ios":"levelo://app?vid=39f18c8b-df43-4308-a98e-40efc694b971"},"vehicle_type_id":"4","last_reported":1745871054,"current_range_meters":16800,"station_id":"ce4bhnp2rcd13ifvqgvg","pricing_plan_id":"cebpf4jnsgd1na2vs0mg"},{"bike_id":"745aeef0-0392-4c38-9bb8-49908c8a7e56","system_id":"levelo_inurba_marseille","lat":43.24803,"lon":5.37453,"is_reserved":false,"is_disabled":false,"rental_uris":{"android":"levelo://app?vid=745aeef0-0392-4c38-9bb8-49908c8a7e56","ios":"levelo://app?vid=745aeef0-0392-4c38-9bb8-49908c8a7e56"},"vehicle_type_id":"4","last_reported":1745871054,"current_range_meters":16800,"station_id":"ce4bhgh2rcd13ifvqfb0","pricing_plan_id":"cebpf4jnsgd1na2vs0mg"},{"bike_id":"b4dd8af2-7f1d-43cf-a0f9-c258d69d8595","system_id":"levelo_inurba_marseille","lat":43.30614,"lon":5.37216,"is_reserved":false,"is_disabled":false,"rental_uris":{"android":"levelo://app?vid=b4dd8af2-7f1d-43cf-a0f9-c258d69d8595","ios":"levelo://app?vid=b4dd8af2-7f1d-43cf-a0f9-c258d69d8595"},"vehicle_type_id":"4","last_reported":1745871054,"current_range_meters":17200,"station_id":"ce4bgqh2rcd13ifvqc4g","pricing_plan_id":"cebpf4jnsgd1na2vs0mg"},{"bike_id":"266bdb5d-0985-42c5-8f74-ad95738fffc9","system_id":"levelo_inurba_marseille","lat":43.29197,"lon":5.39321,"is_reserved":false,"is_disabled":false,"rental_uris":{"android":"levelo://app?vid=266bdb5d-0985-42c5-8f74-ad95738fffc9","ios":"levelo://app?vid=266bdb5d-0985-42c5-8f74-ad95738fffc9"},"vehicle_type_id":"4","last_reported":1745871054,"current_range_meters":17200,"station_id":"ce4bh192rcd13ifvqdd0","pricing_plan_id":"cebpf4jnsgd1na2vs0mg"},{"bike_id":"9366d0f7-d227-4995-badb-e85de9ed01d7","system_id":"levelo_inurba_marseille","lat":43.317,"lon":5.378087,"is_reserved":false,"is_disabled":true,"rental_uris":{"android":"levelo://app?vid=9366d0f7-d227-4995-badb-e85de9ed01d7","ios":"levelo://app?vid=9366d0f7-d227-4995-badb-e85de9ed01d7"},"vehicle_type_id":"4","last_reported":1745871054,"current_range_meters":17200,"station_id":"","pricing_plan_id":"cebpf4jnsgd1na2vs0mg"},{"bike_id":"f0e3aec9-922a-4fa0-87ae-130851eefc1a","system_id":"levelo_inurba_marseille","lat":43.312702,"lon":5.401656,"is_reserved":false,"is_disabled":false,"rental_uris":{"android":"levelo://app?vid=f0e3aec9-922a-4fa0-87ae-130851eefc1a","ios":"levelo://app?vid=f0e3aec9-922a-4fa0-87ae-130851eefc1a"},"vehicle_type_id":"4","last_reported":1745871054,"current_range_meters":17200,"station_id":"ce4bh092rcd13ifvqd30","pricing_plan_id":"cebpf4jnsgd1na2vs0mg"},{"bike_id":"9173922a-f107-41af-a094-25f7cf17a35b","system_id":"levelo_inurba_marseille","lat":43.24068,"lon":5.37737,"is_reserved":false,"is_disabled":true,"rental_uris":{"android":"levelo://app?vid=9173922a-f107-41af-a094-25f7cf17a35b","ios":"levelo://app?vid=9173922a-f107-41af-a094-25f7cf17a35b"},"vehicle_type_id":"4","last_reported":1745871054,"current_range_meters":17200,"station_id":"ce4bhnp2rcd13ifvqgvg","pricing_plan_id":"cebpf4jnsgd1na2vs0mg"},{"bike_id":"b4d37835-56e0-41de-b2d8-a8150a631b31","system_id":"levelo_inurba_marseille","lat":43.279946,"lon":5.41662,"is_reserved":false,"is_disabled":false,"rental_uris":{"android":"levelo://app?vid=b4d37835-56e0-41de-b2d8-a8150a631b31","ios":"levelo://app?vid=b4d37835-56e0-41de-b2d8-a8150a631b31"},"vehicle_type_id":"4","last_reported":1745871054,"current_range_meters":16800,"station_id":"ce4bho12rcd13ifvqh1g","pricing_plan_id":"cebpf4jnsgd1na2vs0mg"},{"bike_id":"51a23cac-fee3-4c80-b30d-a0a0886ec9ca","system_id":"levelo_inurba_marseille","lat":43.29575,"lon":5.39968,"is_reserved":false,"is_disabled":false,"rental_uris":{"android":"levelo://app?vid=51a23cac-fee3-4c80-b30d-a0a0886ec9ca","ios":"levelo://app?vid=51a23cac-fee3-4c80-b30d-a0a0886ec9ca"},"vehicle_type_id":"4","last_reported":1745871054,"current_range_meters":17200,"station_id":"ce4bh312rcd13ifvqdj0","pricing_plan_id":"cebpf4jnsgd1na2vs0mg"},{"bike_id":"3b3961e2-c4b6-4bd3-bc21-e0e73f5effc0","system_id":"levelo_inurba_marseille","lat":43.31492,"lon":5.37302,"is_reserved":false,"is_disabled":false,"rental_uris":{"android":"levelo://app?vid=3b3961e2-c4b6-4bd3-bc21-e0e73f5effc0","ios":"levelo://app?vid=3b3961e2-c4b6-4bd3-bc21-e0e73f5effc0"},"vehicle_type_id":"4","last_reported":1745871054,"current_range_meters":17200,"station_id":"ce4bgt12rcd13ifvqcd0","pricing_plan_id":"cebpf4jnsgd1na2vs0mg"},{"bike_id":"cfdbbfdc-3480-404d-908b-4db64a2559b4","system_id":"levelo_inurba_marseille","lat":43.25684,"lon":5.41109,"is_reserved":false,"is_disabled":false,"rental_uris":{"android":"levelo://app?vid=cfdbbfdc-3480-404d-908b-4db64a2559b4","ios":"levelo://app?vid=cfdbbfdc-3480-404d-908b-4db64a2559b4"},"vehicle_type_id":"4","last_reported":1745871054,"current_range_meters":17200,"station_id":"ce4bhkp2rcd13ifvqgd0","pricing_plan_id":"cebpf4jnsgd1na2vs0mg"},{"bike_id":"0e029be7-dc71-4b12-9a63-21358668bf5b","system_id":"levelo_inurba_marseille","lat":43.32656,"lon":5.40991,"is_reserved":false,"is_disabled":false,"rental_uris":{"android":"levelo://app?vid=0e029be7-dc71-4b12-9a63-21358668bf5b","ios":"levelo://app?vid=0e029be7-dc71-4b12-9a63-21358668bf5b"},"vehicle_type_id":"4","last_reported":1745871054,"current_range_meters":17200,"station_id":"ce4bhpp2rcd13ifvqhgg","pricing_plan_id":"cebpf4jnsgd1na2vs0mg"},{"bike_id":"70fbc956-14ce-4f94-8c06-1dcde704840a","system_id":"levelo_inurba_marseille","lat":43.27657,"lon":5.38941,"is_reserved":false,"is_disabled":true,"rental_uris":{"android":"levelo://app?vid=70fbc956-14ce-4f94-8c06-1dcde704840a","ios":"levelo://app?vid=70fbc956-14ce-4f94-8c06-1dcde704840a"},"vehicle_type_id":"4","last_reported":1745871054,"current_range_meters":17600,"station_id":"ce4bhi12rcd13ifvqfo0","pricing_plan_id":"cebpf4jnsgd1na2vs0mg"},{"bike_id":"dfb76b7c-83f3-457b-a60f-1c543d8cdcc6","system_id":"levelo_inurba_marseille","lat":43.25506,"lon":5.3766,"is_reserved":false,"is_disabled":false,"rental_uris":{"android":"levelo://app?vid=dfb76b7c-83f3-457b-a60f-1c543d8cdcc6","ios":"levelo://app?vid=dfb76b7c-83f3-457b-a60f-1c543d8cdcc6"},"vehicle_type_id":"4","last_reported":1745871054,"current_range_meters":17200,"station_id":"ce4bhh12rcd13ifvqff0","pricing_plan_id":"cebpf4jnsgd1na2vs0mg"},{"bike_id":"deed26e0-38c0-4649-8c17-b059ae7e40b8","system_id":"levelo_inurba_marseille","lat":43.33605,"lon":5.40997,"is_reserved":false,"is_disabled":false,"rental_uris":{"android":"levelo://app?vid=deed26e0-38c0-4649-8c17-b059ae7e40b8","ios":"levelo://app?vid=deed26e0-38c0-4649-8c17-b059ae7e40b8"},"vehicle_type_id":"4","last_reported":1745871054,"current_range_meters":17200,"station_id":"ce4bhqh2rcd13ifvqhmg","pricing_plan_id":"cebpf4jnsgd1na2vs0mg"},{"bike_id":"0dc31473-de03-42e6-bb5e-0878cf3c02e8","system_id":"levelo_inurba_marseille","lat":43.29623,"lon":5.37157,"is_reserved":false,"is_disabled":false,"rental_uris":{"android":"levelo://app?vid=0dc31473-de03-42e6-bb5e-0878cf3c02e8","ios":"levelo://app?vid=0dc31473-de03-42e6-bb5e-0878cf3c02e8"},"vehicle_type_id":"4","last_reported":1745871054,"current_range_meters":17600,"station_id":"ce4bgnh2rcd13ifvqc0g","pricing_plan_id":"cebpf4jnsgd1na2vs0mg"},{"bike_id":"2a9a4ab6-8999-4c68-bfd6-b1c3fd498f51","system_id":"levelo_inurba_marseille","lat":43.29561,"lon":5.39963,"is_reserved":false,"is_disabled":false,"rental_uris":{"android":"levelo://app?vid=2a9a4ab6-8999-4c68-bfd6-b1c3fd498f51","ios":"levelo://app?vid=2a9a4ab6-8999-4c68-bfd6-b1c3fd498f51"},"vehicle_type_id":"4","last_reported":1745871054,"current_range_meters":17600,"station_id":"ce4bh312rcd13ifvqdj0","pricing_plan_id":"cebpf4jnsgd1na2vs0mg"},{"bike_id":"466e19f3-f0cf-4658-ba82-6b70dfacc6b3","system_id":"levelo_inurba_marseille","lat":43.28338,"lon":5.38086,"is_reserved":false,"is_disabled":false,"rental_uris":{"android":"levelo://app?vid=466e19f3-f0cf-4658-ba82-6b70dfacc6b3","ios":"levelo://app?vid=466e19f3-f0cf-4658-ba82-6b70dfacc6b3"},"vehicle_type_id":"4","last_reported":1745871054,"current_range_meters":17600,"station_id":"ce4bh412rcd13ifvqdr0","pricing_plan_id":"cebpf4jnsgd1na2vs0mg"},{"bike_id":"20c4a211-768a-4bbe-8723-9e9071897261","system_id":"levelo_inurba_marseille","lat":43.29521,"lon":5.38547,"is_reserved":false,"is_disabled":false,"rental_uris":{"android":"levelo://app?vid=20c4a211-768a-4bbe-8723-9e9071897261","ios":"levelo://app?vid=20c4a211-768a-4bbe-8723-9e9071897261"},"vehicle_type_id":"4","last_reported":1745871054,"current_range_meters":17600,"station_id":"ce4bgih2rcd13ifvqba0","pricing_plan_id":"cebpf4jnsgd1na2vs0mg"},{"bike_id":"53354e29-f270-4266-8b36-4a975b0ffb6d","system_id":"levelo_inurba_marseille","lat":43.29564,"lon":5.39973,"is_reserved":false,"is_disabled":false,"rental_uris":{"android":"levelo://app?vid=53354e29-f270-4266-8b36-4a975b0ffb6d","ios":"levelo://app?vid=53354e29-f270-4266-8b36-4a975b0ffb6d"},"vehicle_type_id":"4","last_reported":1745871054,"current_range_meters":18000,"station_id":"ce4bh312rcd13ifvqdj0","pricing_plan_id":"cebpf4jnsgd1na2vs0mg"},{"bike_id":"a439637d-dbae-491d-93f2-642ad200cd8c","system_id":"levelo_inurba_marseille","lat":43.28307,"lon":5.38683,"is_reserved":false,"is_disabled":false,"rental_uris":{"android":"levelo://app?vid=a439637d-dbae-491d-93f2-642ad200cd8c","ios":"levelo://app?vid=a439637d-dbae-491d-93f2-642ad200cd8c"},"vehicle_type_id":"4","last_reported":1745871054,"current_range_meters":18000,"station_id":"","pricing_plan_id":"cebpf4jnsgd1na2vs0mg"},{"bike_id":"2b96729e-b9ee-4d40-9e9d-d49bad2044e1","system_id":"levelo_inurba_marseille","lat":43.30275,"lon":5.37691,"is_reserved":false,"is_disabled":false,"rental_uris":{"android":"levelo://app?vid=2b96729e-b9ee-4d40-9e9d-d49bad2044e1","ios":"levelo://app?vid=2b96729e-b9ee-4d40-9e9d-d49bad2044e1"},"vehicle_type_id":"4","last_reported":1745871054,"current_range_meters":17600,"station_id":"ce4bguh2rcd13ifvqcj0","pricing_plan_id":"cebpf4jnsgd1na2vs0mg"},{"bike_id":"3a7f6ce1-05cf-4b62-8be2-0e0e6392f98c","system_id":"levelo_inurba_marseille","lat":43.29197,"lon":5.39329,"is_reserved":false,"is_disabled":false,"rental_uris":{"android":"levelo://app?vid=3a7f6ce1-05cf-4b62-8be2-0e0e6392f98c","ios":"levelo://app?vid=3a7f6ce1-05cf-4b62-8be2-0e0e6392f98c"},"vehicle_type_id":"4","last_reported":1745871054,"current_range_meters":18000,"station_id":"ce4bh192rcd13ifvqdd0","pricing_plan_id":"cebpf4jnsgd1na2vs0mg"},{"bike_id":"ab566342-f92c-435a-a238-04939b89345b","system_id":"levelo_inurba_marseille","lat":43.29615,"lon":5.38072,"is_reserved":false,"is_disabled":true,"rental_uris":{"android":"levelo://app?vid=ab566342-f92c-435a-a238-04939b89345b","ios":"levelo://app?vid=ab566342-f92c-435a-a238-04939b89345b"},"vehicle_type_id":"4","last_reported":1745871054,"current_range_meters":18000,"station_id":"ce4bgl12rcd13ifvqbo0","pricing_plan_id":"cebpf4jnsgd1na2vs0mg"},{"bike_id":"4f793177-3c41-4f88-96d3-b9a7ceb41fe6","system_id":"levelo_inurba_marseille","lat":43.32325,"lon":5.38884,"is_reserved":false,"is_disabled":false,"rental_uris":{"android":"levelo://app?vid=4f793177-3c41-4f88-96d3-b9a7ceb41fe6","ios":"levelo://app?vid=4f793177-3c41-4f88-96d3-b9a7ceb41fe6"},"vehicle_type_id":"4","last_reported":1745871054,"current_range_meters":18000,"station_id":"ce4bhqp2rcd13ifvqhog","pricing_plan_id":"cebpf4jnsgd1na2vs0mg"},{"bike_id":"bdddaa28-2496-4a86-8126-f0d942937669","system_id":"levelo_inurba_marseille","lat":43.32089,"lon":5.36767,"is_reserved":false,"is_disabled":false,"rental_uris":{"android":"levelo://app?vid=bdddaa28-2496-4a86-8126-f0d942937669","ios":"levelo://app?vid=bdddaa28-2496-4a86-8126-f0d942937669"},"vehicle_type_id":"4","last_reported":1745871054,"current_range_meters":18800,"station_id":"ce4bhrh2rcd13ifvqhug","pricing_plan_id":"cebpf4jnsgd1na2vs0mg"},{"bike_id":"d5bcaa38-e142-4c16-be8f-f84303a7c28a","system_id":"levelo_inurba_marseille","lat":43.27997,"lon":5.41645,"is_reserved":false,"is_disabled":true,"rental_uris":{"android":"levelo://app?vid=d5bcaa38-e142-4c16-be8f-f84303a7c28a","ios":"levelo://app?vid=d5bcaa38-e142-4c16-be8f-f84303a7c28a"},"vehicle_type_id":"4","last_reported":1745871054,"current_range_meters":18800,"station_id":"ce4bho12rcd13ifvqh1g","pricing_plan_id":"cebpf4jnsgd1na2vs0mg"},{"bike_id":"182df13e-43ad-4986-8a2b-7cf25f397309","system_id":"levelo_inurba_marseille","lat":43.29533,"lon":5.38557,"is_reserved":false,"is_disabled":false,"rental_uris":{"android":"levelo://app?vid=182df13e-43ad-4986-8a2b-7cf25f397309","ios":"levelo://app?vid=182df13e-43ad-4986-8a2b-7cf25f397309"},"vehicle_type_id":"4","last_reported":1745871054,"current_range_meters":18800,"station_id":"ce4bgih2rcd13ifvqba0","pricing_plan_id":"cebpf4jnsgd1na2vs0mg"},{"bike_id":"f8e0a7b1-43aa-44c5-a746-f96213f317fe","system_id":"levelo_inurba_marseille","lat":43.29026,"lon":5.38638,"is_reserved":false,"is_disabled":false,"rental_uris":{"android":"levelo://app?vid=f8e0a7b1-43aa-44c5-a746-f96213f317fe","ios":"levelo://app?vid=f8e0a7b1-43aa-44c5-a746-f96213f317fe"},"vehicle_type_id":"4","last_reported":1745871054,"current_range_meters":18000,"station_id":"ce4bh4p2rcd13ifvqe0g","pricing_plan_id":"cebpf4jnsgd1na2vs0mg"},{"bike_id":"d7eb4c21-e6ac-4376-9f48-749418c4409c","system_id":"levelo_inurba_marseille","lat":43.33598,"lon":5.40993,"is_reserved":false,"is_disabled":false,"rental_uris":{"android":"levelo://app?vid=d7eb4c21-e6ac-4376-9f48-749418c4409c","ios":"levelo://app?vid=d7eb4c21-e6ac-4376-9f48-749418c4409c"},"vehicle_type_id":"4","last_reported":1745871054,"current_range_meters":18800,"station_id":"ce4bhqh2rcd13ifvqhmg","pricing_plan_id":"cebpf4jnsgd1na2vs0mg"},{"bike_id":"07693e24-7000-4fd3-8fe1-8644dd3f1e08","system_id":"levelo_inurba_marseille","lat":43.27395,"lon":5.38965,"is_reserved":false,"is_disabled":false,"rental_uris":{"android":"levelo://app?vid=07693e24-7000-4fd3-8fe1-8644dd3f1e08","ios":"levelo://app?vid=07693e24-7000-4fd3-8fe1-8644dd3f1e08"},"vehicle_type_id":"4","last_reported":1745871054,"current_range_meters":18800,"station_id":"","pricing_plan_id":"cebpf4jnsgd1na2vs0mg"},{"bike_id":"30e585b6-a1a7-4d47-a9c6-d0ac4b00d0db","system_id":"levelo_inurba_marseille","lat":43.321147,"lon":5.367757,"is_reserved":false,"is_disabled":false,"rental_uris":{"android":"levelo://app?vid=30e585b6-a1a7-4d47-a9c6-d0ac4b00d0db","ios":"levelo://app?vid=30e585b6-a1a7-4d47-a9c6-d0ac4b00d0db"},"vehicle_type_id":"4","last_reported":1745871054,"current_range_meters":19200,"station_id":"ce4bhrh2rcd13ifvqhug","pricing_plan_id":"cebpf4jnsgd1na2vs0mg"},{"bike_id":"8d0c13c4-ff84-4666-b6c3-b65f4758999c","system_id":"levelo_inurba_marseille","lat":43.30557,"lon":5.36529,"is_reserved":false,"is_disabled":false,"rental_uris":{"android":"levelo://app?vid=8d0c13c4-ff84-4666-b6c3-b65f4758999c","ios":"levelo://app?vid=8d0c13c4-ff84-4666-b6c3-b65f4758999c"},"vehicle_type_id":"4","last_reported":1745871054,"current_range_meters":19200,"station_id":"ce4bgs12rcd13ifvqcag","pricing_plan_id":"cebpf4jnsgd1na2vs0mg"},{"bike_id":"9267afdc-d248-46a0-944e-4d92a0ccbb5f","system_id":"levelo_inurba_marseille","lat":43.28464,"lon":5.38418,"is_reserved":false,"is_disabled":false,"rental_uris":{"android":"levelo://app?vid=9267afdc-d248-46a0-944e-4d92a0ccbb5f","ios":"levelo://app?vid=9267afdc-d248-46a0-944e-4d92a0ccbb5f"},"vehicle_type_id":"4","last_reported":1745871054,"current_range_meters":18800,"station_id":"ce4bh512rcd13ifvqe3g","pricing_plan_id":"cebpf4jnsgd1na2vs0mg"},{"bike_id":"ae50c1de-8c80-4ad2-a1d9-2fbb08d50e7b","system_id":"levelo_inurba_marseille","lat":43.25736,"lon":5.41095,"is_reserved":false,"is_disabled":true,"rental_uris":{"android":"levelo://app?vid=ae50c1de-8c80-4ad2-a1d9-2fbb08d50e7b","ios":"levelo://app?vid=ae50c1de-8c80-4ad2-a1d9-2fbb08d50e7b"},"vehicle_type_id":"4","last_reported":1745871054,"current_range_meters":19200,"station_id":"ce4bhkp2rcd13ifvqgd0","pricing_plan_id":"cebpf4jnsgd1na2vs0mg"},{"bike_id":"6106a89b-72f1-4407-9419-6bbd8337b802","system_id":"levelo_inurba_marseille","lat":43.29275,"lon":5.40125,"is_reserved":false,"is_disabled":false,"rental_uris":{"android":"levelo://app?vid=6106a89b-72f1-4407-9419-6bbd8337b802","ios":"levelo://app?vid=6106a89b-72f1-4407-9419-6bbd8337b802"},"vehicle_type_id":"4","last_reported":1745871054,"current_range_meters":19200,"station_id":"ce4bh312rcd13ifvqdk0","pricing_plan_id":"cebpf4jnsgd1na2vs0mg"},{"bike_id":"317663e9-2948-484d-9e17-48a7dbe78a22","system_id":"levelo_inurba_marseille","lat":43.25123,"lon":5.40332,"is_reserved":false,"is_disabled":false,"rental_uris":{"android":"levelo://app?vid=317663e9-2948-484d-9e17-48a7dbe78a22","ios":"levelo://app?vid=317663e9-2948-484d-9e17-48a7dbe78a22"},"vehicle_type_id":"4","last_reported":1745871054,"current_range_meters":19200,"station_id":"ce4bhlh2rcd13ifvqgig","pricing_plan_id":"cebpf4jnsgd1na2vs0mg"},{"bike_id":"1a1053d1-98ec-4d72-948b-51df34916cc7","system_id":"levelo_inurba_marseille","lat":43.29799,"lon":5.39335,"is_reserved":false,"is_disabled":false,"rental_uris":{"android":"levelo://app?vid=1a1053d1-98ec-4d72-948b-51df34916cc7","ios":"levelo://app?vid=1a1053d1-98ec-4d72-948b-51df34916cc7"},"vehicle_type_id":"4","last_reported":1745871054,"current_range_meters":19200,"station_id":"chh1huq6cuj3fo74tm60","pricing_plan_id":"cebpf4jnsgd1na2vs0mg"},{"bike_id":"ae2f5ee9-f574-446c-b0f1-3387947241da","system_id":"levelo_inurba_marseille","lat":43.25723,"lon":5.41104,"is_reserved":false,"is_disabled":false,"rental_uris":{"android":"levelo://app?vid=ae2f5ee9-f574-446c-b0f1-3387947241da","ios":"levelo://app?vid=ae2f5ee9-f574-446c-b0f1-3387947241da"},"vehicle_type_id":"4","last_reported":1745871054,"current_range_meters":19600,"station_id":"ce4bhkp2rcd13ifvqgd0","pricing_plan_id":"cebpf4jnsgd1na2vs0mg"},{"bike_id":"62ea5d5b-ee6f-42b7-9cd0-c945fcac7364","system_id":"levelo_inurba_marseille","lat":43.30818,"lon":5.43548,"is_reserved":false,"is_disabled":false,"rental_uris":{"android":"levelo://app?vid=62ea5d5b-ee6f-42b7-9cd0-c945fcac7364","ios":"levelo://app?vid=62ea5d5b-ee6f-42b7-9cd0-c945fcac7364"},"vehicle_type_id":"4","last_reported":1745871054,"current_range_meters":19600,"station_id":"ce4bhph2rcd13ifvqheg","pricing_plan_id":"cebpf4jnsgd1na2vs0mg"},{"bike_id":"14c40bbc-ec5d-436d-9173-4d6aa10e2ff5","system_id":"levelo_inurba_marseille","lat":43.23965,"lon":5.3663,"is_reserved":false,"is_disabled":false,"rental_uris":{"android":"levelo://app?vid=14c40bbc-ec5d-436d-9173-4d6aa10e2ff5","ios":"levelo://app?vid=14c40bbc-ec5d-436d-9173-4d6aa10e2ff5"},"vehicle_type_id":"4","last_reported":1745871054,"current_range_meters":19600,"station_id":"ce4bhi12rcd13ifvqfp0","pricing_plan_id":"cebpf4jnsgd1na2vs0mg"},{"bike_id":"cf9e813c-0f90-4de1-aa2c-73429940d1f8","system_id":"levelo_inurba_marseille","lat":43.28359,"lon":5.38097,"is_reserved":false,"is_disabled":false,"rental_uris":{"android":"levelo://app?vid=cf9e813c-0f90-4de1-aa2c-73429940d1f8","ios":"levelo://app?vid=cf9e813c-0f90-4de1-aa2c-73429940d1f8"},"vehicle_type_id":"4","last_reported":1745871054,"current_range_meters":19200,"station_id":"ce4bh412rcd13ifvqdr0","pricing_plan_id":"cebpf4jnsgd1na2vs0mg"},{"bike_id":"9f901cbd-2ccb-4242-afa7-987accf5d8e1","system_id":"levelo_inurba_marseille","lat":43.3109,"lon":5.42428,"is_reserved":false,"is_disabled":false,"rental_uris":{"android":"levelo://app?vid=9f901cbd-2ccb-4242-afa7-987accf5d8e1","ios":"levelo://app?vid=9f901cbd-2ccb-4242-afa7-987accf5d8e1"},"vehicle_type_id":"4","last_reported":1745871054,"current_range_meters":19600,"station_id":"ce4bhp92rcd13ifvqhag","pricing_plan_id":"cebpf4jnsgd1na2vs0mg"},{"bike_id":"6028b1e6-7384-438e-b3bf-95af60bd192e","system_id":"levelo_inurba_marseille","lat":43.31552,"lon":5.38033,"is_reserved":false,"is_disabled":false,"rental_uris":{"android":"levelo://app?vid=6028b1e6-7384-438e-b3bf-95af60bd192e","ios":"levelo://app?vid=6028b1e6-7384-438e-b3bf-95af60bd192e"},"vehicle_type_id":"4","last_reported":1745871054,"current_range_meters":19600,"station_id":"ce4bhsp2rcd13ifvqi50","pricing_plan_id":"cebpf4jnsgd1na2vs0mg"},{"bike_id":"ffb85f70-e6b2-46fd-b9f5-fd1b7162e65c","system_id":"levelo_inurba_marseille","lat":43.29608,"lon":5.37728,"is_reserved":false,"is_disabled":false,"rental_uris":{"android":"levelo://app?vid=ffb85f70-e6b2-46fd-b9f5-fd1b7162e65c","ios":"levelo://app?vid=ffb85f70-e6b2-46fd-b9f5-fd1b7162e65c"},"vehicle_type_id":"4","last_reported":1745871054,"current_range_meters":19200,"station_id":"ce4bgi92rcd13ifvqb90","pricing_plan_id":"cebpf4jnsgd1na2vs0mg"},{"bike_id":"e613b32f-f172-4786-918d-07c059da9c6f","system_id":"levelo_inurba_marseille","lat":43.2991,"lon":5.37445,"is_reserved":false,"is_disabled":false,"rental_uris":{"android":"levelo://app?vid=e613b32f-f172-4786-918d-07c059da9c6f","ios":"levelo://app?vid=e613b32f-f172-4786-918d-07c059da9c6f"},"vehicle_type_id":"4","last_reported":1745871054,"current_range_meters":19200,"station_id":"ce4bgjh2rcd13ifvqbg0","pricing_plan_id":"cebpf4jnsgd1na2vs0mg"},{"bike_id":"50b5da2f-3a79-425d-9a03-6248036b4ea9","system_id":"levelo_inurba_marseille","lat":43.25099,"lon":5.39533,"is_reserved":false,"is_disabled":false,"rental_uris":{"android":"levelo://app?vid=50b5da2f-3a79-425d-9a03-6248036b4ea9","ios":"levelo://app?vid=50b5da2f-3a79-425d-9a03-6248036b4ea9"},"vehicle_type_id":"4","last_reported":1745871054,"current_range_meters":19600,"station_id":"ce4bhm12rcd13ifvqgkg","pricing_plan_id":"cebpf4jnsgd1na2vs0mg"},{"bike_id":"82fb0603-caa4-41aa-82ca-75e6cc5207e4","system_id":"levelo_inurba_marseille","lat":43.33047,"lon":5.39058,"is_reserved":false,"is_disabled":false,"rental_uris":{"android":"levelo://app?vid=82fb0603-caa4-41aa-82ca-75e6cc5207e4","ios":"levelo://app?vid=82fb0603-caa4-41aa-82ca-75e6cc5207e4"},"vehicle_type_id":"4","last_reported":1745871054,"current_range_meters":19600,"station_id":"ce4bhr92rcd13ifvqhrg","pricing_plan_id":"cebpf4jnsgd1na2vs0mg"},{"bike_id":"f771a545-16b0-41dd-b3bf-3d33a3b0b762","system_id":"levelo_inurba_marseille","lat":43.32345,"lon":5.40649,"is_reserved":false,"is_disabled":false,"rental_uris":{"android":"levelo://app?vid=f771a545-16b0-41dd-b3bf-3d33a3b0b762","ios":"levelo://app?vid=f771a545-16b0-41dd-b3bf-3d33a3b0b762"},"vehicle_type_id":"4","last_reported":1745871054,"current_range_meters":19600,"station_id":"ce4bhq92rcd13ifvqhjg","pricing_plan_id":"cebpf4jnsgd1na2vs0mg"},{"bike_id":"61144dfe-675f-4e9a-9e34-e211c9859fc4","system_id":"levelo_inurba_marseille","lat":43.250909,"lon":5.395177,"is_reserved":false,"is_disabled":false,"rental_uris":{"android":"levelo://app?vid=61144dfe-675f-4e9a-9e34-e211c9859fc4","ios":"levelo://app?vid=61144dfe-675f-4e9a-9e34-e211c9859fc4"},"vehicle_type_id":"4","last_reported":1745871054,"current_range_meters":19600,"station_id":"ce4bhm12rcd13ifvqgkg","pricing_plan_id":"cebpf4jnsgd1na2vs0mg"},{"bike_id":"81aece3e-9f0b-4924-a39b-e9642698790f","system_id":"levelo_inurba_marseille","lat":43.32666,"lon":5.40989,"is_reserved":false,"is_disabled":false,"rental_uris":{"android":"levelo://app?vid=81aece3e-9f0b-4924-a39b-e9642698790f","ios":"levelo://app?vid=81aece3e-9f0b-4924-a39b-e9642698790f"},"vehicle_type_id":"4","last_reported":1745871054,"current_range_meters":20000,"station_id":"ce4bhpp2rcd13ifvqhgg","pricing_plan_id":"cebpf4jnsgd1na2vs0mg"},{"bike_id":"6aa7c79a-2de3-414f-a7f3-f2bb626fcbbf","system_id":"levelo_inurba_marseille","lat":43.31112,"lon":5.3777,"is_reserved":false,"is_disabled":false,"rental_uris":{"android":"levelo://app?vid=6aa7c79a-2de3-414f-a7f3-f2bb626fcbbf","ios":"levelo://app?vid=6aa7c79a-2de3-414f-a7f3-f2bb626fcbbf"},"vehicle_type_id":"4","last_reported":1745871054,"current_range_meters":20000,"station_id":"ce4bgt92rcd13ifvqcg0","pricing_plan_id":"cebpf4jnsgd1na2vs0mg"},{"bike_id":"900006cd-4ca8-4340-9b3d-a55f3eb4f0da","system_id":"levelo_inurba_marseille","lat":43.28063,"lon":5.39668,"is_reserved":false,"is_disabled":false,"rental_uris":{"android":"levelo://app?vid=900006cd-4ca8-4340-9b3d-a55f3eb4f0da","ios":"levelo://app?vid=900006cd-4ca8-4340-9b3d-a55f3eb4f0da"},"vehicle_type_id":"4","last_reported":1745871054,"current_range_meters":20000,"station_id":"ce4bho12rcd13ifvqh2g","pricing_plan_id":"cebpf4jnsgd1na2vs0mg"},{"bike_id":"e902df82-3f4e-4be2-82fa-374a8ba1fc49","system_id":"levelo_inurba_marseille","lat":43.29956,"lon":5.39791,"is_reserved":false,"is_disabled":false,"rental_uris":{"android":"levelo://app?vid=e902df82-3f4e-4be2-82fa-374a8ba1fc49","ios":"levelo://app?vid=e902df82-3f4e-4be2-82fa-374a8ba1fc49"},"vehicle_type_id":"4","last_reported":1745871054,"current_range_meters":20000,"station_id":"","pricing_plan_id":"cebpf4jnsgd1na2vs0mg"},{"bike_id":"e5ed4b9f-a593-4eaa-958e-5a9cc9463064","system_id":"levelo_inurba_marseille","lat":43.30545,"lon":5.36546,"is_reserved":false,"is_disabled":false,"rental_uris":{"android":"levelo://app?vid=e5ed4b9f-a593-4eaa-958e-5a9cc9463064","ios":"levelo://app?vid=e5ed4b9f-a593-4eaa-958e-5a9cc9463064"},"vehicle_type_id":"4","last_reported":1745871054,"current_range_meters":20000,"station_id":"ce4bgs12rcd13ifvqcag","pricing_plan_id":"cebpf4jnsgd1na2vs0mg"},{"bike_id":"47f4846f-cdfb-41c0-92c2-dc30d6e34d09","system_id":"levelo_inurba_marseille","lat":43.27948,"lon":5.41043,"is_reserved":false,"is_disabled":false,"rental_uris":{"android":"levelo://app?vid=47f4846f-cdfb-41c0-92c2-dc30d6e34d09","ios":"levelo://app?vid=47f4846f-cdfb-41c0-92c2-dc30d6e34d09"},"vehicle_type_id":"4","last_reported":1745871054,"current_range_meters":20000,"station_id":"ce4bhnp2rcd13ifvqh0g","pricing_plan_id":"cebpf4jnsgd1na2vs0mg"},{"bike_id":"a9e73118-aca0-4279-a09d-0250c87a2cbd","system_id":"levelo_inurba_marseille","lat":43.25119,"lon":5.40315,"is_reserved":false,"is_disabled":false,"rental_uris":{"android":"levelo://app?vid=a9e73118-aca0-4279-a09d-0250c87a2cbd","ios":"levelo://app?vid=a9e73118-aca0-4279-a09d-0250c87a2cbd"},"vehicle_type_id":"4","last_reported":1745871054,"current_range_meters":20000,"station_id":"ce4bhlh2rcd13ifvqgig","pricing_plan_id":"cebpf4jnsgd1na2vs0mg"},{"bike_id":"c74ec761-669f-4658-b547-9b5d786270a4","system_id":"levelo_inurba_marseille","lat":43.29514,"lon":5.37527,"is_reserved":false,"is_disabled":false,"rental_uris":{"android":"levelo://app?vid=c74ec761-669f-4658-b547-9b5d786270a4","ios":"levelo://app?vid=c74ec761-669f-4658-b547-9b5d786270a4"},"vehicle_type_id":"4","last_reported":1745871054,"current_range_meters":20000,"station_id":"ce4bgkp2rcd13ifvqbmg","pricing_plan_id":"cebpf4jnsgd1na2vs0mg"},{"bike_id":"1ff7221b-8e1e-4dce-9e57-4aed861ca4b9","system_id":"levelo_inurba_marseille","lat":43.3374,"lon":5.39179,"is_reserved":false,"is_disabled":false,"rental_uris":{"android":"levelo://app?vid=1ff7221b-8e1e-4dce-9e57-4aed861ca4b9","ios":"levelo://app?vid=1ff7221b-8e1e-4dce-9e57-4aed861ca4b9"},"vehicle_type_id":"4","last_reported":1745871054,"current_range_meters":20000,"station_id":"ce4bhr92rcd13ifvqhsg","pricing_plan_id":"cebpf4jnsgd1na2vs0mg"},{"bike_id":"b2861b2d-3b9e-4211-a006-ecf419331232","system_id":"levelo_inurba_marseille","lat":43.29506,"lon":5.39394,"is_reserved":false,"is_disabled":false,"rental_uris":{"android":"levelo://app?vid=b2861b2d-3b9e-4211-a006-ecf419331232","ios":"levelo://app?vid=b2861b2d-3b9e-4211-a006-ecf419331232"},"vehicle_type_id":"4","last_reported":1745871054,"current_range_meters":20400,"station_id":"ce4bh292rcd13ifvqdf0","pricing_plan_id":"cebpf4jnsgd1na2vs0mg"},{"bike_id":"ddd8d837-5485-4cd3-bebb-3543252a61a8","system_id":"levelo_inurba_marseille","lat":43.28715,"lon":5.37934,"is_reserved":false,"is_disabled":false,"rental_uris":{"android":"levelo://app?vid=ddd8d837-5485-4cd3-bebb-3543252a61a8","ios":"levelo://app?vid=ddd8d837-5485-4cd3-bebb-3543252a61a8"},"vehicle_type_id":"4","last_reported":1745871054,"current_range_meters":20400,"station_id":"ce4bh9p2rcd13ifvqec0","pricing_plan_id":"cebpf4jnsgd1na2vs0mg"},{"bike_id":"0e0a538e-679b-4410-add3-c268d24629d9","system_id":"levelo_inurba_marseille","lat":43.29253,"lon":5.38451,"is_reserved":false,"is_disabled":false,"rental_uris":{"android":"levelo://app?vid=0e0a538e-679b-4410-add3-c268d24629d9","ios":"levelo://app?vid=0e0a538e-679b-4410-add3-c268d24629d9"},"vehicle_type_id":"4","last_reported":1745871054,"current_range_meters":20400,"station_id":"ce4bh692rcd13ifvqea0","pricing_plan_id":"cebpf4jnsgd1na2vs0mg"},{"bike_id":"378fc2b8-c6d6-426c-8027-bdb51186bb6c","system_id":"levelo_inurba_marseille","lat":43.29153,"lon":5.37168,"is_reserved":false,"is_disabled":false,"rental_uris":{"android":"levelo://app?vid=378fc2b8-c6d6-426c-8027-bdb51186bb6c","ios":"levelo://app?vid=378fc2b8-c6d6-426c-8027-bdb51186bb6c"},"vehicle_type_id":"4","last_reported":1745871054,"current_range_meters":20000,"station_id":"ce4bha92rcd13ifvqeh0","pricing_plan_id":"cebpf4jnsgd1na2vs0mg"},{"bike_id":"b0567bdd-487d-4772-80a3-65ffbd2928ab","system_id":"levelo_inurba_marseille","lat":43.26064,"lon":5.39396,"is_reserved":false,"is_disabled":false,"rental_uris":{"android":"levelo://app?vid=b0567bdd-487d-4772-80a3-65ffbd2928ab","ios":"levelo://app?vid=b0567bdd-487d-4772-80a3-65ffbd2928ab"},"vehicle_type_id":"4","last_reported":1745871054,"current_range_meters":20400,"station_id":"ce4bhh92rcd13ifvqfj0","pricing_plan_id":"cebpf4jnsgd1na2vs0mg"},{"bike_id":"37630d4f-abe1-4ef3-97e2-22868d113cc0","system_id":"levelo_inurba_marseille","lat":43.295267,"lon":5.39395,"is_reserved":false,"is_disabled":false,"rental_uris":{"android":"levelo://app?vid=37630d4f-abe1-4ef3-97e2-22868d113cc0","ios":"levelo://app?vid=37630d4f-abe1-4ef3-97e2-22868d113cc0"},"vehicle_type_id":"4","last_reported":1745871054,"current_range_meters":20800,"station_id":"ce4bh292rcd13ifvqdf0","pricing_plan_id":"cebpf4jnsgd1na2vs0mg"},{"bike_id":"73bdaf62-584c-4aef-b388-35b847199721","system_id":"levelo_inurba_marseille","lat":43.280299,"lon":5.369364,"is_reserved":false,"is_disabled":false,"rental_uris":{"android":"levelo://app?vid=73bdaf62-584c-4aef-b388-35b847199721","ios":"levelo://app?vid=73bdaf62-584c-4aef-b388-35b847199721"},"vehicle_type_id":"4","last_reported":1745871054,"current_range_meters":20800,"station_id":"ce4bha12rcd13ifvqef0","pricing_plan_id":"cebpf4jnsgd1na2vs0mg"},{"bike_id":"8eac2f6d-0fb4-43f7-9943-2c46ada82c04","system_id":"levelo_inurba_marseille","lat":43.284193,"lon":5.349765,"is_reserved":false,"is_disabled":false,"rental_uris":{"android":"levelo://app?vid=8eac2f6d-0fb4-43f7-9943-2c46ada82c04","ios":"levelo://app?vid=8eac2f6d-0fb4-43f7-9943-2c46ada82c04"},"vehicle_type_id":"4","last_reported":1745871054,"current_range_meters":20800,"station_id":"ce4bhbh2rcd13ifvqepg","pricing_plan_id":"cebpf4jnsgd1na2vs0mg"},{"bike_id":"b400b635-ddfb-4fc0-8874-f9394f1d48a5","system_id":"levelo_inurba_marseille","lat":43.28457,"lon":5.35888,"is_reserved":false,"is_disabled":false,"rental_uris":{"android":"levelo://app?vid=b400b635-ddfb-4fc0-8874-f9394f1d48a5","ios":"levelo://app?vid=b400b635-ddfb-4fc0-8874-f9394f1d48a5"},"vehicle_type_id":"4","last_reported":1745871054,"current_range_meters":20800,"station_id":"ce4bhah2rcd13ifvqei0","pricing_plan_id":"cebpf4jnsgd1na2vs0mg"},{"bike_id":"cc297878-984d-468b-83e4-04bbae9bd73b","system_id":"levelo_inurba_marseille","lat":43.30895,"lon":5.39655,"is_reserved":false,"is_disabled":false,"rental_uris":{"android":"levelo://app?vid=cc297878-984d-468b-83e4-04bbae9bd73b","ios":"levelo://app?vid=cc297878-984d-468b-83e4-04bbae9bd73b"},"vehicle_type_id":"4","last_reported":1745871054,"current_range_meters":20800,"station_id":"ce4bh012rcd13ifvqcv0","pricing_plan_id":"cebpf4jnsgd1na2vs0mg"},{"bike_id":"5df24d1c-866f-4b59-b9aa-a5c3694e8384","system_id":"levelo_inurba_marseille","lat":43.308939,"lon":5.396629,"is_reserved":false,"is_disabled":false,"rental_uris":{"android":"levelo://app?vid=5df24d1c-866f-4b59-b9aa-a5c3694e8384","ios":"levelo://app?vid=5df24d1c-866f-4b59-b9aa-a5c3694e8384"},"vehicle_type_id":"4","last_reported":1745871054,"current_range_meters":20800,"station_id":"ce4bh012rcd13ifvqcv0","pricing_plan_id":"cebpf4jnsgd1na2vs0mg"},{"bike_id":"1eecfb39-b550-4ec7-bb58-e2d9ab82678d","system_id":"levelo_inurba_marseille","lat":43.2323,"lon":5.35508,"is_reserved":false,"is_disabled":false,"rental_uris":{"android":"levelo://app?vid=1eecfb39-b550-4ec7-bb58-e2d9ab82678d","ios":"levelo://app?vid=1eecfb39-b550-4ec7-bb58-e2d9ab82678d"},"vehicle_type_id":"4","last_reported":1745871054,"current_range_meters":21600,"station_id":"ce4bhu92rcd13ifvqi70","pricing_plan_id":"cebpf4jnsgd1na2vs0mg"},{"bike_id":"076b9379-cb11-4f7f-98b1-4d74f313faaa","system_id":"levelo_inurba_marseille","lat":43.31822,"lon":5.37371,"is_reserved":false,"is_disabled":false,"rental_uris":{"android":"levelo://app?vid=076b9379-cb11-4f7f-98b1-4d74f313faaa","ios":"levelo://app?vid=076b9379-cb11-4f7f-98b1-4d74f313faaa"},"vehicle_type_id":"4","last_reported":1745871054,"current_range_meters":21600,"station_id":"","pricing_plan_id":"cebpf4jnsgd1na2vs0mg"},{"bike_id":"4f65a322-8575-4fcf-9be4-b0ed30c109c4","system_id":"levelo_inurba_marseille","lat":43.28732,"lon":5.36112,"is_reserved":false,"is_disabled":false,"rental_uris":{"android":"levelo://app?vid=4f65a322-8575-4fcf-9be4-b0ed30c109c4","ios":"levelo://app?vid=4f65a322-8575-4fcf-9be4-b0ed30c109c4"},"vehicle_type_id":"4","last_reported":1745871054,"current_range_meters":21600,"station_id":"cki0cbj6b192h4jlfktg","pricing_plan_id":"cebpf4jnsgd1na2vs0mg"},{"bike_id":"b8f527bc-ba67-459b-a13e-0cb0d5f9ea1b","system_id":"levelo_inurba_marseille","lat":43.2895,"lon":5.39619,"is_reserved":false,"is_disabled":false,"rental_uris":{"android":"levelo://app?vid=b8f527bc-ba67-459b-a13e-0cb0d5f9ea1b","ios":"levelo://app?vid=b8f527bc-ba67-459b-a13e-0cb0d5f9ea1b"},"vehicle_type_id":"4","last_reported":1745871054,"current_range_meters":21600,"station_id":"ce4bh3h2rcd13ifvqdn0","pricing_plan_id":"cebpf4jnsgd1na2vs0mg"},{"bike_id":"0200abdd-06d0-46c2-a10c-d26c9d82513f","system_id":"levelo_inurba_marseille","lat":43.29859,"lon":5.39774,"is_reserved":false,"is_disabled":false,"rental_uris":{"android":"levelo://app?vid=0200abdd-06d0-46c2-a10c-d26c9d82513f","ios":"levelo://app?vid=0200abdd-06d0-46c2-a10c-d26c9d82513f"},"vehicle_type_id":"4","last_reported":1745871054,"current_range_meters":22000,"station_id":"ce4bh0h2rcd13ifvqd50","pricing_plan_id":"cebpf4jnsgd1na2vs0mg"},{"bike_id":"5c34ffa5-6b56-440f-a0cd-8732e79ed890","system_id":"levelo_inurba_marseille","lat":43.29255,"lon":5.3845,"is_reserved":false,"is_disabled":false,"rental_uris":{"android":"levelo://app?vid=5c34ffa5-6b56-440f-a0cd-8732e79ed890","ios":"levelo://app?vid=5c34ffa5-6b56-440f-a0cd-8732e79ed890"},"vehicle_type_id":"4","last_reported":1745871054,"current_range_meters":22000,"station_id":"ce4bh692rcd13ifvqea0","pricing_plan_id":"cebpf4jnsgd1na2vs0mg"},{"bike_id":"f8eefd2b-9703-43a1-a8c4-0a36487dbee7","system_id":"levelo_inurba_marseille","lat":43.2782,"lon":5.40711,"is_reserved":false,"is_disabled":false,"rental_uris":{"android":"levelo://app?vid=f8eefd2b-9703-43a1-a8c4-0a36487dbee7","ios":"levelo://app?vid=f8eefd2b-9703-43a1-a8c4-0a36487dbee7"},"vehicle_type_id":"4","last_reported":1745871054,"current_range_meters":22000,"station_id":"ce4bhnh2rcd13ifvqgtg","pricing_plan_id":"cebpf4jnsgd1na2vs0mg"},{"bike_id":"1bf71c50-9589-48d0-9706-6b51642a1849","system_id":"levelo_inurba_marseille","lat":43.26795,"lon":5.39411,"is_reserved":false,"is_disabled":false,"rental_uris":{"android":"levelo://app?vid=1bf71c50-9589-48d0-9706-6b51642a1849","ios":"levelo://app?vid=1bf71c50-9589-48d0-9706-6b51642a1849"},"vehicle_type_id":"4","last_reported":1745871054,"current_range_meters":21600,"station_id":"ce4bhh12rcd13ifvqfg0","pricing_plan_id":"cebpf4jnsgd1na2vs0mg"},{"bike_id":"9acd9494-157c-40f3-845b-fea13bce0535","system_id":"levelo_inurba_marseille","lat":43.28846,"lon":5.39339,"is_reserved":false,"is_disabled":false,"rental_uris":{"android":"levelo://app?vid=9acd9494-157c-40f3-845b-fea13bce0535","ios":"levelo://app?vid=9acd9494-157c-40f3-845b-fea13bce0535"},"vehicle_type_id":"4","last_reported":1745871054,"current_range_meters":22400,"station_id":"ce4bh2p2rcd13ifvqdi0","pricing_plan_id":"cebpf4jnsgd1na2vs0mg"},{"bike_id":"947c0352-481b-40ce-8899-8f8abd2ef309","system_id":"levelo_inurba_marseille","lat":43.2808,"lon":5.39663,"is_reserved":false,"is_disabled":false,"rental_uris":{"android":"levelo://app?vid=947c0352-481b-40ce-8899-8f8abd2ef309","ios":"levelo://app?vid=947c0352-481b-40ce-8899-8f8abd2ef309"},"vehicle_type_id":"4","last_reported":1745871054,"current_range_meters":22000,"station_id":"ce4bho12rcd13ifvqh2g","pricing_plan_id":"cebpf4jnsgd1na2vs0mg"},{"bike_id":"940b7320-b328-4afe-85a6-d4d069ced16a","system_id":"levelo_inurba_marseille","lat":43.309,"lon":5.40146,"is_reserved":false,"is_disabled":true,"rental_uris":{"android":"levelo://app?vid=940b7320-b328-4afe-85a6-d4d069ced16a","ios":"levelo://app?vid=940b7320-b328-4afe-85a6-d4d069ced16a"},"vehicle_type_id":"4","last_reported":1745871054,"current_range_meters":22400,"station_id":"ce4bgvp2rcd13ifvqct0","pricing_plan_id":"cebpf4jnsgd1na2vs0mg"},{"bike_id":"9113428b-d6d7-4924-8bdb-7175380717b7","system_id":"levelo_inurba_marseille","lat":43.25726,"lon":5.4111,"is_reserved":false,"is_disabled":false,"rental_uris":{"android":"levelo://app?vid=9113428b-d6d7-4924-8bdb-7175380717b7","ios":"levelo://app?vid=9113428b-d6d7-4924-8bdb-7175380717b7"},"vehicle_type_id":"4","last_reported":1745871054,"current_range_meters":22400,"station_id":"ce4bhkp2rcd13ifvqgd0","pricing_plan_id":"cebpf4jnsgd1na2vs0mg"},{"bike_id":"b26a0b33-650f-4f7b-8536-58a942167ba4","system_id":"levelo_inurba_marseille","lat":43.231948,"lon":5.355538,"is_reserved":false,"is_disabled":false,"rental_uris":{"android":"levelo://app?vid=b26a0b33-650f-4f7b-8536-58a942167ba4","ios":"levelo://app?vid=b26a0b33-650f-4f7b-8536-58a942167ba4"},"vehicle_type_id":"4","last_reported":1745871054,"current_range_meters":22400,"station_id":"ce4bhu92rcd13ifvqi70","pricing_plan_id":"cebpf4jnsgd1na2vs0mg"},{"bike_id":"639a8685-dd60-4055-9b8b-8e5783c51e7a","system_id":"levelo_inurba_marseille","lat":43.29166,"lon":5.39353,"is_reserved":false,"is_disabled":false,"rental_uris":{"android":"levelo://app?vid=639a8685-dd60-4055-9b8b-8e5783c51e7a","ios":"levelo://app?vid=639a8685-dd60-4055-9b8b-8e5783c51e7a"},"vehicle_type_id":"4","last_reported":1745871054,"current_range_meters":22400,"station_id":"","pricing_plan_id":"cebpf4jnsgd1na2vs0mg"},{"bike_id":"e4e76b6b-2fc7-4916-aa21-7cec24c0e4e8","system_id":"levelo_inurba_marseille","lat":43.27954,"lon":5.38669,"is_reserved":false,"is_disabled":true,"rental_uris":{"android":"levelo://app?vid=e4e76b6b-2fc7-4916-aa21-7cec24c0e4e8","ios":"levelo://app?vid=e4e76b6b-2fc7-4916-aa21-7cec24c0e4e8"},"vehicle_type_id":"4","last_reported":1745871054,"current_range_meters":22400,"station_id":"ce4bhg12rcd13ifvqf80","pricing_plan_id":"cebpf4jnsgd1na2vs0mg"},{"bike_id":"a4d84cb8-6860-44ea-85de-d66185be58e0","system_id":"levelo_inurba_marseille","lat":43.3058,"lon":5.38427,"is_reserved":false,"is_disabled":true,"rental_uris":{"android":"levelo://app?vid=a4d84cb8-6860-44ea-85de-d66185be58e0","ios":"levelo://app?vid=a4d84cb8-6860-44ea-85de-d66185be58e0"},"vehicle_type_id":"4","last_reported":1745871054,"current_range_meters":22400,"station_id":"ce4bgg92rcd13ifvqb30","pricing_plan_id":"cebpf4jnsgd1na2vs0mg"},{"bike_id":"d53e0de5-ed31-4d18-8706-ebbcdf410a43","system_id":"levelo_inurba_marseille","lat":43.25082,"lon":5.39514,"is_reserved":false,"is_disabled":false,"rental_uris":{"android":"levelo://app?vid=d53e0de5-ed31-4d18-8706-ebbcdf410a43","ios":"levelo://app?vid=d53e0de5-ed31-4d18-8706-ebbcdf410a43"},"vehicle_type_id":"4","last_reported":1745871054,"current_range_meters":22400,"station_id":"ce4bhm12rcd13ifvqgkg","pricing_plan_id":"cebpf4jnsgd1na2vs0mg"},{"bike_id":"fce2c520-92d3-4d18-810b-8d643fc15a1a","system_id":"levelo_inurba_marseille","lat":43.2306,"lon":5.35493,"is_reserved":false,"is_disabled":false,"rental_uris":{"android":"levelo://app?vid=fce2c520-92d3-4d18-810b-8d643fc15a1a","ios":"levelo://app?vid=fce2c520-92d3-4d18-810b-8d643fc15a1a"},