{"last_updated":1743030563,"ttl":60,"version":"2.2","data":{"bikes":[{"bike_id":"a45fca58-1372-40ee-a6ce-28e65063fce9","system_id":"levelo_inurba_marseille","lat":43.30249,"lon":5.40067,"is_reserved":false,"is_disabled":false,"rental_uris":{"android":"levelo://app?vid=a45fca58-1372-40ee-a6ce-28e65063fce9","ios":"levelo://app?vid=a45fca58-1372-40ee-a6ce-28e65063fce9"},"vehicle_type_id":"4","last_reported":1743030563,"current_range_meters":2800,"station_id":"ce4bgvh2rcd13ifvqcs0","pricing_plan_id":"cebpf4jnsgd1na2vs0mg"},{"bike_id":"03908684-304c-46cb-8098-7d26df555d11","system_id":"levelo_inurba_marseille","lat":43.29269,"lon":5.40122,"is_reserved":false,"is_disabled":false,"rental_uris":{"android":"levelo://app?vid=03908684-304c-46cb-8098-7d26df555d11","ios":"levelo://app?vid=03908684-304c-46cb-8098-7d26df555d11"},"vehicle_type_id":"4","last_reported":1743030563,"current_range_meters":2800,"station_id":"ce4bh312rcd13ifvqdk0","pricing_plan_id":"cebpf4jnsgd1na2vs0mg"},{"bike_id":"2705e886-d6a3-4caf-8706-bd0c95791cd9","system_id":"levelo_inurba_marseille","lat":43.290924,"lon":5.381139,"is_reserved":false,"is_disabled":false,"rental_uris":{"android":"levelo://app?vid=2705e886-d6a3-4caf-8706-bd0c95791cd9","ios":"levelo://app?vid=2705e886-d6a3-4caf-8706-bd0c95791cd9"},"vehicle_type_id":"4","last_reported":1743030563,"current_range_meters":2800,"station_id":"ce4bhc92rcd13ifvqetg","pricing_plan_id":"cebpf4jnsgd1na2vs0mg"},{"bike_id":"cd20d16a-032a-4ea7-a430-255e9d8a59c5","system_id":"levelo_inurba_marseille","lat":43.28299,"lon":5.40781,"is_reserved":false,"is_disabled":false,"rental_uris":{"android":"levelo://app?vid=cd20d16a-032a-4ea7-a430-255e9d8a59c5","ios":"levelo://app?vid=cd20d16a-032a-4ea7-a430-255e9d8a59c5"},"vehicle_type_id":"4","last_reported":1743030563,"current_range_meters":2800,"station_id":"","pricing_plan_id":"cebpf4jnsgd1na2vs0mg"},{"bike_id":"3a466008-14fb-43b8-ac9d-451d08a39ab2","system_id":"levelo_inurba_marseille","lat":43.31119,"lon":5.37763,"is_reserved":false,"is_disabled":false,"rental_uris":{"android":"levelo://app?vid=3a466008-14fb-43b8-ac9d-451d08a39ab2","ios":"levelo://app?vid=3a466008-14fb-43b8-ac9d-451d08a39ab2"},"vehicle_type_id":"4","last_reported":1743030563,"current_range_meters":3200,"station_id":"ce4bgt92rcd13ifvqcg0","pricing_plan_id":"cebpf4jnsgd1na2vs0mg"},{"bike_id":"34d00949-70af-4db9-b4ee-15e5de1e5f33","system_id":"levelo_inurba_marseille","lat":43.27206,"lon":5.39188,"is_reserved":false,"is_disabled":false,"rental_uris":{"android":"levelo://app?vid=34d00949-70af-4db9-b4ee-15e5de1e5f33","ios":"levelo://app?vid=34d00949-70af-4db9-b4ee-15e5de1e5f33"},"vehicle_type_id":"4","last_reported":1743030563,"current_range_meters":3600,"station_id":"ce4bhhp2rcd13ifvqfm0","pricing_plan_id":"cebpf4jnsgd1na2vs0mg"},{"bike_id":"60572ac8-f8fa-4090-a8da-a05557d22647","system_id":"levelo_inurba_marseille","lat":43.33602,"lon":5.41005,"is_reserved":false,"is_disabled":true,"rental_uris":{"android":"levelo://app?vid=60572ac8-f8fa-4090-a8da-a05557d22647","ios":"levelo://app?vid=60572ac8-f8fa-4090-a8da-a05557d22647"},"vehicle_type_id":"4","last_reported":1743030563,"current_range_meters":3600,"station_id":"ce4bhqh2rcd13ifvqhmg","pricing_plan_id":"cebpf4jnsgd1na2vs0mg"},{"bike_id":"e05575c3-3348-48d7-851b-0c2b66186f57","system_id":"levelo_inurba_marseille","lat":43.294281,"lon":5.374093,"is_reserved":false,"is_disabled":false,"rental_uris":{"android":"levelo://app?vid=e05575c3-3348-48d7-851b-0c2b66186f57","ios":"levelo://app?vid=e05575c3-3348-48d7-851b-0c2b66186f57"},"vehicle_type_id":"4","last_reported":1743030563,"current_range_meters":3600,"station_id":"ce4bgi12rcd13ifvqb70","pricing_plan_id":"cebpf4jnsgd1na2vs0mg"},{"bike_id":"e1c0f517-dee2-4e0c-8b09-99e55dd1bcd7","system_id":"levelo_inurba_marseille","lat":43.29844,"lon":5.40424,"is_reserved":false,"is_disabled":false,"rental_uris":{"android":"levelo://app?vid=e1c0f517-dee2-4e0c-8b09-99e55dd1bcd7","ios":"levelo://app?vid=e1c0f517-dee2-4e0c-8b09-99e55dd1bcd7"},"vehicle_type_id":"4","last_reported":1743030563,"current_range_meters":3600,"station_id":"ce4bh112rcd13ifvqd90","pricing_plan_id":"cebpf4jnsgd1na2vs0mg"},{"bike_id":"fc507e55-7fe6-4d81-87c3-bf8e75d99534","system_id":"levelo_inurba_marseille","lat":43.2482,"lon":5.37465,"is_reserved":false,"is_disabled":false,"rental_uris":{"android":"levelo://app?vid=fc507e55-7fe6-4d81-87c3-bf8e75d99534","ios":"levelo://app?vid=fc507e55-7fe6-4d81-87c3-bf8e75d99534"},"vehicle_type_id":"4","last_reported":1743030563,"current_range_meters":3600,"station_id":"ce4bhgh2rcd13ifvqfb0","pricing_plan_id":"cebpf4jnsgd1na2vs0mg"},{"bike_id":"1a557375-33ff-4ee9-ae7b-a63c1ed92998","system_id":"levelo_inurba_marseille","lat":43.289796,"lon":5.400991,"is_reserved":false,"is_disabled":false,"rental_uris":{"android":"levelo://app?vid=1a557375-33ff-4ee9-ae7b-a63c1ed92998","ios":"levelo://app?vid=1a557375-33ff-4ee9-ae7b-a63c1ed92998"},"vehicle_type_id":"4","last_reported":1743030563,"current_range_meters":3600,"station_id":"ce4bh392rcd13ifvqdm0","pricing_plan_id":"cebpf4jnsgd1na2vs0mg"},{"bike_id":"430c3b2f-ce28-466f-bf46-972a037d9be1","system_id":"levelo_inurba_marseille","lat":43.25828,"lon":5.39434,"is_reserved":false,"is_disabled":false,"rental_uris":{"android":"levelo://app?vid=430c3b2f-ce28-466f-bf46-972a037d9be1","ios":"levelo://app?vid=430c3b2f-ce28-466f-bf46-972a037d9be1"},"vehicle_type_id":"4","last_reported":1743030563,"current_range_meters":4000,"station_id":"ce4bhip2rcd13ifvqft0","pricing_plan_id":"cebpf4jnsgd1na2vs0mg"},{"bike_id":"f393c367-4b1a-4822-a11c-2fc8e333083c","system_id":"levelo_inurba_marseille","lat":43.24656,"lon":5.38885,"is_reserved":false,"is_disabled":false,"rental_uris":{"android":"levelo://app?vid=f393c367-4b1a-4822-a11c-2fc8e333083c","ios":"levelo://app?vid=f393c367-4b1a-4822-a11c-2fc8e333083c"},"vehicle_type_id":"4","last_reported":1743030563,"current_range_meters":4000,"station_id":"ce4bhg12rcd13ifvqf60","pricing_plan_id":"cebpf4jnsgd1na2vs0mg"},{"bike_id":"a9c99d83-0759-483c-a6a3-bf37c98df50d","system_id":"levelo_inurba_marseille","lat":43.28471,"lon":5.35888,"is_reserved":false,"is_disabled":false,"rental_uris":{"android":"levelo://app?vid=a9c99d83-0759-483c-a6a3-bf37c98df50d","ios":"levelo://app?vid=a9c99d83-0759-483c-a6a3-bf37c98df50d"},"vehicle_type_id":"4","last_reported":1743030563,"current_range_meters":4000,"station_id":"ce4bhah2rcd13ifvqei0","pricing_plan_id":"cebpf4jnsgd1na2vs0mg"},{"bike_id":"31a7aebb-7a2e-4025-b611-786a6829ec28","system_id":"levelo_inurba_marseille","lat":43.29557,"lon":5.4229,"is_reserved":false,"is_disabled":false,"rental_uris":{"android":"levelo://app?vid=31a7aebb-7a2e-4025-b611-786a6829ec28","ios":"levelo://app?vid=31a7aebb-7a2e-4025-b611-786a6829ec28"},"vehicle_type_id":"4","last_reported":1743030563,"current_range_meters":4000,"station_id":"ce4bhph2rcd13ifvqhdg","pricing_plan_id":"cebpf4jnsgd1na2vs0mg"},{"bike_id":"d9513bf5-f255-462a-a7d5-c6e6b011af31","system_id":"levelo_inurba_marseille","lat":43.27824,"lon":5.40722,"is_reserved":false,"is_disabled":true,"rental_uris":{"android":"levelo://app?vid=d9513bf5-f255-462a-a7d5-c6e6b011af31","ios":"levelo://app?vid=d9513bf5-f255-462a-a7d5-c6e6b011af31"},"vehicle_type_id":"4","last_reported":1743030563,"current_range_meters":4000,"station_id":"ce4bhnh2rcd13ifvqgtg","pricing_plan_id":"cebpf4jnsgd1na2vs0mg"},{"bike_id":"4052a4fe-cdb6-44df-ab96-b92919aad8f9","system_id":"levelo_inurba_marseille","lat":43.28407,"lon":5.3751,"is_reserved":false,"is_disabled":false,"rental_uris":{"android":"levelo://app?vid=4052a4fe-cdb6-44df-ab96-b92919aad8f9","ios":"levelo://app?vid=4052a4fe-cdb6-44df-ab96-b92919aad8f9"},"vehicle_type_id":"4","last_reported":1743030563,"current_range_meters":4000,"station_id":"ce4bh412rcd13ifvqds0","pricing_plan_id":"cebpf4jnsgd1na2vs0mg"},{"bike_id":"07eafe05-e601-47a0-9efb-2a554adf99af","system_id":"levelo_inurba_marseille","lat":43.29074,"lon":5.36951,"is_reserved":false,"is_disabled":false,"rental_uris":{"android":"levelo://app?vid=07eafe05-e601-47a0-9efb-2a554adf99af","ios":"levelo://app?vid=07eafe05-e601-47a0-9efb-2a554adf99af"},"vehicle_type_id":"4","last_reported":1743030563,"current_range_meters":4000,"station_id":"","pricing_plan_id":"cebpf4jnsgd1na2vs0mg"},{"bike_id":"4621f39e-ea2e-480f-bc78-72aa4a0322d1","system_id":"levelo_inurba_marseille","lat":43.251197,"lon":5.403213,"is_reserved":false,"is_disabled":false,"rental_uris":{"android":"levelo://app?vid=4621f39e-ea2e-480f-bc78-72aa4a0322d1","ios":"levelo://app?vid=4621f39e-ea2e-480f-bc78-72aa4a0322d1"},"vehicle_type_id":"4","last_reported":1743030563,"current_range_meters":4000,"station_id":"ce4bhlh2rcd13ifvqgig","pricing_plan_id":"cebpf4jnsgd1na2vs0mg"},{"bike_id":"c8abf1f1-d770-428d-ba65-f20b0414993c","system_id":"levelo_inurba_marseille","lat":43.30131,"lon":5.38774,"is_reserved":false,"is_disabled":false,"rental_uris":{"android":"levelo://app?vid=c8abf1f1-d770-428d-ba65-f20b0414993c","ios":"levelo://app?vid=c8abf1f1-d770-428d-ba65-f20b0414993c"},"vehicle_type_id":"4","last_reported":1743030563,"current_range_meters":4000,"station_id":"ce4bghh2rcd13ifvqb60","pricing_plan_id":"cebpf4jnsgd1na2vs0mg"},{"bike_id":"c987315b-c2f4-4cef-9907-a198f1f04f5a","system_id":"levelo_inurba_marseille","lat":43.28001,"lon":5.40026,"is_reserved":false,"is_disabled":false,"rental_uris":{"android":"levelo://app?vid=c987315b-c2f4-4cef-9907-a198f1f04f5a","ios":"levelo://app?vid=c987315b-c2f4-4cef-9907-a198f1f04f5a"},"vehicle_type_id":"4","last_reported":1743030563,"current_range_meters":4400,"station_id":"ce4bho92rcd13ifvqh4g","pricing_plan_id":"cebpf4jnsgd1na2vs0mg"},{"bike_id":"7d944d2b-bdbb-4dfe-b8d5-68d8eb03245d","system_id":"levelo_inurba_marseille","lat":43.24657,"lon":5.38889,"is_reserved":false,"is_disabled":false,"rental_uris":{"android":"levelo://app?vid=7d944d2b-bdbb-4dfe-b8d5-68d8eb03245d","ios":"levelo://app?vid=7d944d2b-bdbb-4dfe-b8d5-68d8eb03245d"},"vehicle_type_id":"4","last_reported":1743030563,"current_range_meters":4400,"station_id":"ce4bhg12rcd13ifvqf60","pricing_plan_id":"cebpf4jnsgd1na2vs0mg"},{"bike_id":"1f5e709d-c27d-4647-80aa-22f510a1a0fd","system_id":"levelo_inurba_marseille","lat":43.2319,"lon":5.39989,"is_reserved":false,"is_disabled":false,"rental_uris":{"android":"levelo://app?vid=1f5e709d-c27d-4647-80aa-22f510a1a0fd","ios":"levelo://app?vid=1f5e709d-c27d-4647-80aa-22f510a1a0fd"},"vehicle_type_id":"4","last_reported":1743030563,"current_range_meters":4400,"station_id":"ce4bhn12rcd13ifvqgqg","pricing_plan_id":"cebpf4jnsgd1na2vs0mg"},{"bike_id":"34e390d6-6118-4f00-8ddc-7ba657684840","system_id":"levelo_inurba_marseille","lat":43.309363,"lon":5.401383,"is_reserved":false,"is_disabled":false,"rental_uris":{"android":"levelo://app?vid=34e390d6-6118-4f00-8ddc-7ba657684840","ios":"levelo://app?vid=34e390d6-6118-4f00-8ddc-7ba657684840"},"vehicle_type_id":"4","last_reported":1743030563,"current_range_meters":4800,"station_id":"ce4bgvp2rcd13ifvqct0","pricing_plan_id":"cebpf4jnsgd1na2vs0mg"},{"bike_id":"0b792fd1-4611-4b05-b1d5-0145989d2dc8","system_id":"levelo_inurba_marseille","lat":43.25815,"lon":5.39431,"is_reserved":false,"is_disabled":false,"rental_uris":{"android":"levelo://app?vid=0b792fd1-4611-4b05-b1d5-0145989d2dc8","ios":"levelo://app?vid=0b792fd1-4611-4b05-b1d5-0145989d2dc8"},"vehicle_type_id":"4","last_reported":1743030563,"current_range_meters":4800,"station_id":"ce4bhip2rcd13ifvqft0","pricing_plan_id":"cebpf4jnsgd1na2vs0mg"},{"bike_id":"57a6abfb-896f-41e2-9388-89f299aae192","system_id":"levelo_inurba_marseille","lat":43.29872,"lon":5.38901,"is_reserved":false,"is_disabled":false,"rental_uris":{"android":"levelo://app?vid=57a6abfb-896f-41e2-9388-89f299aae192","ios":"levelo://app?vid=57a6abfb-896f-41e2-9388-89f299aae192"},"vehicle_type_id":"4","last_reported":1743030563,"current_range_meters":4800,"station_id":"ce4bh392rcd13ifvqdl0","pricing_plan_id":"cebpf4jnsgd1na2vs0mg"},{"bike_id":"ea058543-5b6a-48af-855d-c8588b5d0075","system_id":"levelo_inurba_marseille","lat":43.28159,"lon":5.42659,"is_reserved":false,"is_disabled":false,"rental_uris":{"android":"levelo://app?vid=ea058543-5b6a-48af-855d-c8588b5d0075","ios":"levelo://app?vid=ea058543-5b6a-48af-855d-c8588b5d0075"},"vehicle_type_id":"4","last_reported":1743030563,"current_range_meters":4800,"station_id":"ce4bhnh2rcd13ifvqgug","pricing_plan_id":"cebpf4jnsgd1na2vs0mg"},{"bike_id":"77823725-c761-49bc-902c-64c32b686ae7","system_id":"levelo_inurba_marseille","lat":43.230621,"lon":5.354905,"is_reserved":false,"is_disabled":false,"rental_uris":{"android":"levelo://app?vid=77823725-c761-49bc-902c-64c32b686ae7","ios":"levelo://app?vid=77823725-c761-49bc-902c-64c32b686ae7"},"vehicle_type_id":"4","last_reported":1743030563,"current_range_meters":4800,"station_id":"cpo3342slgdg3j2ifvpg","pricing_plan_id":"cebpf4jnsgd1na2vs0mg"},{"bike_id":"885d99e2-17a6-4538-a4be-5c3403f78714","system_id":"levelo_inurba_marseille","lat":43.28615,"lon":5.35103,"is_reserved":false,"is_disabled":false,"rental_uris":{"android":"levelo://app?vid=885d99e2-17a6-4538-a4be-5c3403f78714","ios":"levelo://app?vid=885d99e2-17a6-4538-a4be-5c3403f78714"},"vehicle_type_id":"4","last_reported":1743030563,"current_range_meters":4800,"station_id":"ce4bhch2rcd13ifvqeug","pricing_plan_id":"cebpf4jnsgd1na2vs0mg"},{"bike_id":"7e628bd8-f74d-4310-8492-8512d6f315fe","system_id":"levelo_inurba_marseille","lat":43.23178,"lon":5.40012,"is_reserved":false,"is_disabled":false,"rental_uris":{"android":"levelo://app?vid=7e628bd8-f74d-4310-8492-8512d6f315fe","ios":"levelo://app?vid=7e628bd8-f74d-4310-8492-8512d6f315fe"},"vehicle_type_id":"4","last_reported":1743030563,"current_range_meters":4800,"station_id":"ce4bhn12rcd13ifvqgqg","pricing_plan_id":"cebpf4jnsgd1na2vs0mg"},{"bike_id":"4dabedb6-4ac2-4418-b41e-052a07320db7","system_id":"levelo_inurba_marseille","lat":43.27809,"lon":5.4071,"is_reserved":false,"is_disabled":false,"rental_uris":{"android":"levelo://app?vid=4dabedb6-4ac2-4418-b41e-052a07320db7","ios":"levelo://app?vid=4dabedb6-4ac2-4418-b41e-052a07320db7"},"vehicle_type_id":"4","last_reported":1743030563,"current_range_meters":4800,"station_id":"ce4bhnh2rcd13ifvqgtg","pricing_plan_id":"cebpf4jnsgd1na2vs0mg"},{"bike_id":"1166a390-5ee0-4599-b63d-b09cb15c0001","system_id":"levelo_inurba_marseille","lat":43.24081,"lon":5.37755,"is_reserved":false,"is_disabled":false,"rental_uris":{"android":"levelo://app?vid=1166a390-5ee0-4599-b63d-b09cb15c0001","ios":"levelo://app?vid=1166a390-5ee0-4599-b63d-b09cb15c0001"},"vehicle_type_id":"4","last_reported":1743030563,"current_range_meters":5600,"station_id":"ce4bhnp2rcd13ifvqgvg","pricing_plan_id":"cebpf4jnsgd1na2vs0mg"},{"bike_id":"3cd9b5bc-fba0-4545-94d0-e86f3d302f0f","system_id":"levelo_inurba_marseille","lat":43.28167,"lon":5.42655,"is_reserved":false,"is_disabled":false,"rental_uris":{"android":"levelo://app?vid=3cd9b5bc-fba0-4545-94d0-e86f3d302f0f","ios":"levelo://app?vid=3cd9b5bc-fba0-4545-94d0-e86f3d302f0f"},"vehicle_type_id":"4","last_reported":1743030563,"current_range_meters":5600,"station_id":"ce4bhnh2rcd13ifvqgug","pricing_plan_id":"cebpf4jnsgd1na2vs0mg"},{"bike_id":"33d12302-ab8b-4f13-924f-dac00f82faa1","system_id":"levelo_inurba_marseille","lat":43.288421,"lon":5.393138,"is_reserved":false,"is_disabled":false,"rental_uris":{"android":"levelo://app?vid=33d12302-ab8b-4f13-924f-dac00f82faa1","ios":"levelo://app?vid=33d12302-ab8b-4f13-924f-dac00f82faa1"},"vehicle_type_id":"4","last_reported":1743030563,"current_range_meters":5600,"station_id":"","pricing_plan_id":"cebpf4jnsgd1na2vs0mg"},{"bike_id":"054613ea-f6f8-4bc5-9db6-662a488460db","system_id":"levelo_inurba_marseille","lat":43.30207,"lon":5.39457,"is_reserved":false,"is_disabled":false,"rental_uris":{"android":"levelo://app?vid=054613ea-f6f8-4bc5-9db6-662a488460db","ios":"levelo://app?vid=054613ea-f6f8-4bc5-9db6-662a488460db"},"vehicle_type_id":"4","last_reported":1743030563,"current_range_meters":5600,"station_id":"ce4bh0p2rcd13ifvqd70","pricing_plan_id":"cebpf4jnsgd1na2vs0mg"},{"bike_id":"02ad8c22-e081-411e-88d5-20a7dac6d9a6","system_id":"levelo_inurba_marseille","lat":43.29911,"lon":5.36549,"is_reserved":false,"is_disabled":false,"rental_uris":{"android":"levelo://app?vid=02ad8c22-e081-411e-88d5-20a7dac6d9a6","ios":"levelo://app?vid=02ad8c22-e081-411e-88d5-20a7dac6d9a6"},"vehicle_type_id":"4","last_reported":1743030563,"current_range_meters":5600,"station_id":"ce4bgm92rcd13ifvqbr0","pricing_plan_id":"cebpf4jnsgd1na2vs0mg"},{"bike_id":"1925ac1a-e266-4b70-bcd4-8f623f9c5dbf","system_id":"levelo_inurba_marseille","lat":43.291962,"lon":5.393236,"is_reserved":false,"is_disabled":false,"rental_uris":{"android":"levelo://app?vid=1925ac1a-e266-4b70-bcd4-8f623f9c5dbf","ios":"levelo://app?vid=1925ac1a-e266-4b70-bcd4-8f623f9c5dbf"},"vehicle_type_id":"4","last_reported":1743030563,"current_range_meters":5600,"station_id":"ce4bh412rcd13ifvqdr0","pricing_plan_id":"cebpf4jnsgd1na2vs0mg"},{"bike_id":"ac16162e-9eb6-40a2-ae8b-a763f64ec361","system_id":"levelo_inurba_marseille","lat":43.29016,"lon":5.35619,"is_reserved":false,"is_disabled":true,"rental_uris":{"android":"levelo://app?vid=ac16162e-9eb6-40a2-ae8b-a763f64ec361","ios":"levelo://app?vid=ac16162e-9eb6-40a2-ae8b-a763f64ec361"},"vehicle_type_id":"4","last_reported":1743030563,"current_range_meters":6000,"station_id":"ce4bhb92rcd13ifvqen0","pricing_plan_id":"cebpf4jnsgd1na2vs0mg"},{"bike_id":"296040a5-83d3-401f-bb56-905b6b06c03d","system_id":"levelo_inurba_marseille","lat":43.25823,"lon":5.39434,"is_reserved":false,"is_disabled":false,"rental_uris":{"android":"levelo://app?vid=296040a5-83d3-401f-bb56-905b6b06c03d","ios":"levelo://app?vid=296040a5-83d3-401f-bb56-905b6b06c03d"},"vehicle_type_id":"4","last_reported":1743030563,"current_range_meters":6000,"station_id":"ce4bhip2rcd13ifvqft0","pricing_plan_id":"cebpf4jnsgd1na2vs0mg"},{"bike_id":"5aaac380-ba77-4ed5-aced-d797d5b86f53","system_id":"levelo_inurba_marseille","lat":43.30861,"lon":5.37799,"is_reserved":false,"is_disabled":false,"rental_uris":{"android":"levelo://app?vid=5aaac380-ba77-4ed5-aced-d797d5b86f53","ios":"levelo://app?vid=5aaac380-ba77-4ed5-aced-d797d5b86f53"},"vehicle_type_id":"4","last_reported":1743030563,"current_range_meters":6000,"station_id":"","pricing_plan_id":"cebpf4jnsgd1na2vs0mg"},{"bike_id":"48822a6e-9863-438b-b433-8ccb3f8db96d","system_id":"levelo_inurba_marseille","lat":43.31693,"lon":5.37669,"is_reserved":false,"is_disabled":true,"rental_uris":{"android":"levelo://app?vid=48822a6e-9863-438b-b433-8ccb3f8db96d","ios":"levelo://app?vid=48822a6e-9863-438b-b433-8ccb3f8db96d"},"vehicle_type_id":"4","last_reported":1743030563,"current_range_meters":6000,"station_id":"","pricing_plan_id":"cebpf4jnsgd1na2vs0mg"},{"bike_id":"0788e1d6-3faa-4904-aa13-a4684654e25e","system_id":"levelo_inurba_marseille","lat":43.29208,"lon":5.37622,"is_reserved":false,"is_disabled":false,"rental_uris":{"android":"levelo://app?vid=0788e1d6-3faa-4904-aa13-a4684654e25e","ios":"levelo://app?vid=0788e1d6-3faa-4904-aa13-a4684654e25e"},"vehicle_type_id":"4","last_reported":1743030563,"current_range_meters":6400,"station_id":"ce4bgi12rcd13ifvqb80","pricing_plan_id":"cebpf4jnsgd1na2vs0mg"},{"bike_id":"ead8f017-caa8-45b4-af35-a8f9330451ca","system_id":"levelo_inurba_marseille","lat":43.31122,"lon":5.37755,"is_reserved":false,"is_disabled":false,"rental_uris":{"android":"levelo://app?vid=ead8f017-caa8-45b4-af35-a8f9330451ca","ios":"levelo://app?vid=ead8f017-caa8-45b4-af35-a8f9330451ca"},"vehicle_type_id":"4","last_reported":1743030563,"current_range_meters":6400,"station_id":"ce4bgt92rcd13ifvqcg0","pricing_plan_id":"cebpf4jnsgd1na2vs0mg"},{"bike_id":"d9111c2b-a9f6-4ad0-9287-ccc39bc8e79a","system_id":"levelo_inurba_marseille","lat":43.30306,"lon":5.36885,"is_reserved":false,"is_disabled":false,"rental_uris":{"android":"levelo://app?vid=d9111c2b-a9f6-4ad0-9287-ccc39bc8e79a","ios":"levelo://app?vid=d9111c2b-a9f6-4ad0-9287-ccc39bc8e79a"},"vehicle_type_id":"4","last_reported":1743030563,"current_range_meters":6400,"station_id":"ce4bgqh2rcd13ifvqc5g","pricing_plan_id":"cebpf4jnsgd1na2vs0mg"},{"bike_id":"a6460627-511d-44ea-a912-da2085b0a119","system_id":"levelo_inurba_marseille","lat":43.294188,"lon":5.386108,"is_reserved":false,"is_disabled":true,"rental_uris":{"android":"levelo://app?vid=a6460627-511d-44ea-a912-da2085b0a119","ios":"levelo://app?vid=a6460627-511d-44ea-a912-da2085b0a119"},"vehicle_type_id":"4","last_reported":1743030563,"current_range_meters":6400,"station_id":"ce4bh2h2rcd13ifvqdh0","pricing_plan_id":"cebpf4jnsgd1na2vs0mg"},{"bike_id":"d5804ad3-33e7-454e-b7d4-322b214049f7","system_id":"levelo_inurba_marseille","lat":43.2466,"lon":5.38155,"is_reserved":false,"is_disabled":false,"rental_uris":{"android":"levelo://app?vid=d5804ad3-33e7-454e-b7d4-322b214049f7","ios":"levelo://app?vid=d5804ad3-33e7-454e-b7d4-322b214049f7"},"vehicle_type_id":"4","last_reported":1743030563,"current_range_meters":6400,"station_id":"ce4bhih2rcd13ifvqfr0","pricing_plan_id":"cebpf4jnsgd1na2vs0mg"},{"bike_id":"8b0643ce-934f-49d4-aae3-32dc3ec1ff83","system_id":"levelo_inurba_marseille","lat":43.28161,"lon":5.42658,"is_reserved":false,"is_disabled":false,"rental_uris":{"android":"levelo://app?vid=8b0643ce-934f-49d4-aae3-32dc3ec1ff83","ios":"levelo://app?vid=8b0643ce-934f-49d4-aae3-32dc3ec1ff83"},"vehicle_type_id":"4","last_reported":1743030563,"current_range_meters":6400,"station_id":"ce4bhnh2rcd13ifvqgug","pricing_plan_id":"cebpf4jnsgd1na2vs0mg"},{"bike_id":"9601d59f-89ef-43d4-96ab-0586b4d92927","system_id":"levelo_inurba_marseille","lat":43.27811,"lon":5.40719,"is_reserved":false,"is_disabled":false,"rental_uris":{"android":"levelo://app?vid=9601d59f-89ef-43d4-96ab-0586b4d92927","ios":"levelo://app?vid=9601d59f-89ef-43d4-96ab-0586b4d92927"},"vehicle_type_id":"4","last_reported":1743030563,"current_range_meters":6400,"station_id":"ce4bhnh2rcd13ifvqgtg","pricing_plan_id":"cebpf4jnsgd1na2vs0mg"},{"bike_id":"35f1432b-c929-4f89-82cf-51b4fa739eb0","system_id":"levelo_inurba_marseille","lat":43.28042,"lon":5.36936,"is_reserved":false,"is_disabled":false,"rental_uris":{"android":"levelo://app?vid=35f1432b-c929-4f89-82cf-51b4fa739eb0","ios":"levelo://app?vid=35f1432b-c929-4f89-82cf-51b4fa739eb0"},"vehicle_type_id":"4","last_reported":1743030563,"current_range_meters":6400,"station_id":"ce4bha12rcd13ifvqef0","pricing_plan_id":"cebpf4jnsgd1na2vs0mg"},{"bike_id":"6475070d-ae28-48e1-9301-66ed1b344477","system_id":"levelo_inurba_marseille","lat":43.27972,"lon":5.40055,"is_reserved":false,"is_disabled":false,"rental_uris":{"android":"levelo://app?vid=6475070d-ae28-48e1-9301-66ed1b344477","ios":"levelo://app?vid=6475070d-ae28-48e1-9301-66ed1b344477"},"vehicle_type_id":"4","last_reported":1743030563,"current_range_meters":6400,"station_id":"ce4bho92rcd13ifvqh4g","pricing_plan_id":"cebpf4jnsgd1na2vs0mg"},{"bike_id":"3caf9297-9162-427d-b86d-54632f9b80d9","system_id":"levelo_inurba_marseille","lat":43.27815,"lon":5.40708,"is_reserved":false,"is_disabled":false,"rental_uris":{"android":"levelo://app?vid=3caf9297-9162-427d-b86d-54632f9b80d9","ios":"levelo://app?vid=3caf9297-9162-427d-b86d-54632f9b80d9"},"vehicle_type_id":"4","last_reported":1743030563,"current_range_meters":6400,"station_id":"ce4bhnh2rcd13ifvqgtg","pricing_plan_id":"cebpf4jnsgd1na2vs0mg"},{"bike_id":"589f1146-20bc-4a88-9ab7-60ee275b3000","system_id":"levelo_inurba_marseille","lat":43.29731,"lon":5.38012,"is_reserved":false,"is_disabled":false,"rental_uris":{"android":"levelo://app?vid=589f1146-20bc-4a88-9ab7-60ee275b3000","ios":"levelo://app?vid=589f1146-20bc-4a88-9ab7-60ee275b3000"},"vehicle_type_id":"4","last_reported":1743030563,"current_range_meters":6800,"station_id":"","pricing_plan_id":"cebpf4jnsgd1na2vs0mg"},{"bike_id":"9e414f59-5d13-4847-984b-695d5e36104b","system_id":"levelo_inurba_marseille","lat":43.27876,"lon":5.41219,"is_reserved":false,"is_disabled":false,"rental_uris":{"android":"levelo://app?vid=9e414f59-5d13-4847-984b-695d5e36104b","ios":"levelo://app?vid=9e414f59-5d13-4847-984b-695d5e36104b"},"vehicle_type_id":"4","last_reported":1743030563,"current_range_meters":6800,"station_id":"","pricing_plan_id":"cebpf4jnsgd1na2vs0mg"},{"bike_id":"01cb7222-7d71-483e-ae2f-d33513a45a1e","system_id":"levelo_inurba_marseille","lat":43.29301,"lon":5.37171,"is_reserved":false,"is_disabled":false,"rental_uris":{"android":"levelo://app?vid=01cb7222-7d71-483e-ae2f-d33513a45a1e","ios":"levelo://app?vid=01cb7222-7d71-483e-ae2f-d33513a45a1e"},"vehicle_type_id":"4","last_reported":1743030563,"current_range_meters":6800,"station_id":"ce4bgh92rcd13ifvqb40","pricing_plan_id":"cebpf4jnsgd1na2vs0mg"},{"bike_id":"44156654-a4cf-4f20-b992-8a27bbcc69ed","system_id":"levelo_inurba_marseille","lat":43.23192,"lon":5.39987,"is_reserved":false,"is_disabled":true,"rental_uris":{"android":"levelo://app?vid=44156654-a4cf-4f20-b992-8a27bbcc69ed","ios":"levelo://app?vid=44156654-a4cf-4f20-b992-8a27bbcc69ed"},"vehicle_type_id":"4","last_reported":1743030563,"current_range_meters":6800,"station_id":"ce4bhn12rcd13ifvqgqg","pricing_plan_id":"cebpf4jnsgd1na2vs0mg"},{"bike_id":"01bcb2f5-8344-46f6-b91e-61d5c61b0275","system_id":"levelo_inurba_marseille","lat":43.27921,"lon":5.39568,"is_reserved":false,"is_disabled":false,"rental_uris":{"android":"levelo://app?vid=01bcb2f5-8344-46f6-b91e-61d5c61b0275","ios":"levelo://app?vid=01bcb2f5-8344-46f6-b91e-61d5c61b0275"},"vehicle_type_id":"4","last_reported":1743030563,"current_range_meters":6800,"station_id":"ce4bhf92rcd13ifvqf40","pricing_plan_id":"cebpf4jnsgd1na2vs0mg"},{"bike_id":"fc2186a3-9143-4ddc-a7af-47ab8ad9a861","system_id":"levelo_inurba_marseille","lat":43.31127,"lon":5.37775,"is_reserved":false,"is_disabled":false,"rental_uris":{"android":"levelo://app?vid=fc2186a3-9143-4ddc-a7af-47ab8ad9a861","ios":"levelo://app?vid=fc2186a3-9143-4ddc-a7af-47ab8ad9a861"},"vehicle_type_id":"4","last_reported":1743030563,"current_range_meters":6800,"station_id":"ce4bgt92rcd13ifvqcg0","pricing_plan_id":"cebpf4jnsgd1na2vs0mg"},{"bike_id":"067247e0-a27c-4e52-9052-c6b9eea5c7f4","system_id":"levelo_inurba_marseille","lat":43.31422,"lon":5.37457,"is_reserved":false,"is_disabled":false,"rental_uris":{"android":"levelo://app?vid=067247e0-a27c-4e52-9052-c6b9eea5c7f4","ios":"levelo://app?vid=067247e0-a27c-4e52-9052-c6b9eea5c7f4"},"vehicle_type_id":"4","last_reported":1743030563,"current_range_meters":6800,"station_id":"","pricing_plan_id":"cebpf4jnsgd1na2vs0mg"},{"bike_id":"3789873a-1dd9-4f31-847a-52f0d7019a2f","system_id":"levelo_inurba_marseille","lat":43.2397,"lon":5.36648,"is_reserved":false,"is_disabled":false,"rental_uris":{"android":"levelo://app?vid=3789873a-1dd9-4f31-847a-52f0d7019a2f","ios":"levelo://app?vid=3789873a-1dd9-4f31-847a-52f0d7019a2f"},"vehicle_type_id":"4","last_reported":1743030563,"current_range_meters":6800,"station_id":"ce4bhi12rcd13ifvqfp0","pricing_plan_id":"cebpf4jnsgd1na2vs0mg"},{"bike_id":"308ec19f-b75d-4169-9e70-bb5e6ffe4a06","system_id":"levelo_inurba_marseille","lat":43.28486,"lon":5.39511,"is_reserved":false,"is_disabled":false,"rental_uris":{"android":"levelo://app?vid=308ec19f-b75d-4169-9e70-bb5e6ffe4a06","ios":"levelo://app?vid=308ec19f-b75d-4169-9e70-bb5e6ffe4a06"},"vehicle_type_id":"4","last_reported":1743030563,"current_range_meters":6800,"station_id":"","pricing_plan_id":"cebpf4jnsgd1na2vs0mg"},{"bike_id":"ecfbe1b6-91a4-4967-b2f4-1915901f3187","system_id":"levelo_inurba_marseille","lat":43.31779,"lon":5.39,"is_reserved":false,"is_disabled":false,"rental_uris":{"android":"levelo://app?vid=ecfbe1b6-91a4-4967-b2f4-1915901f3187","ios":"levelo://app?vid=ecfbe1b6-91a4-4967-b2f4-1915901f3187"},"vehicle_type_id":"4","last_reported":1743030563,"current_range_meters":7200,"station_id":"ce4bhqp2rcd13ifvqhng","pricing_plan_id":"cebpf4jnsgd1na2vs0mg"},{"bike_id":"2094bf05-617a-407a-906e-e37bb5a2c126","system_id":"levelo_inurba_marseille","lat":43.26547,"lon":5.37293,"is_reserved":false,"is_disabled":false,"rental_uris":{"android":"levelo://app?vid=2094bf05-617a-407a-906e-e37bb5a2c126","ios":"levelo://app?vid=2094bf05-617a-407a-906e-e37bb5a2c126"},"vehicle_type_id":"4","last_reported":1743030563,"current_range_meters":7200,"station_id":"ce4bhg12rcd13ifvqf70","pricing_plan_id":"cebpf4jnsgd1na2vs0mg"},{"bike_id":"b5faf136-f27b-45e3-95d7-3f66d590d87b","system_id":"levelo_inurba_marseille","lat":43.2792,"lon":5.39575,"is_reserved":false,"is_disabled":false,"rental_uris":{"android":"levelo://app?vid=b5faf136-f27b-45e3-95d7-3f66d590d87b","ios":"levelo://app?vid=b5faf136-f27b-45e3-95d7-3f66d590d87b"},"vehicle_type_id":"4","last_reported":1743030563,"current_range_meters":7200,"station_id":"ce4bhf92rcd13ifvqf40","pricing_plan_id":"cebpf4jnsgd1na2vs0mg"},{"bike_id":"a5fb06d1-c469-4515-9522-548b956fd2b3","system_id":"levelo_inurba_marseille","lat":43.317567,"lon":5.390168,"is_reserved":false,"is_disabled":false,"rental_uris":{"android":"levelo://app?vid=a5fb06d1-c469-4515-9522-548b956fd2b3","ios":"levelo://app?vid=a5fb06d1-c469-4515-9522-548b956fd2b3"},"vehicle_type_id":"4","last_reported":1743030563,"current_range_meters":7200,"station_id":"ce4bhqp2rcd13ifvqhng","pricing_plan_id":"cebpf4jnsgd1na2vs0mg"},{"bike_id":"bf24ded8-23e1-417c-b5d8-5c062c9776ae","system_id":"levelo_inurba_marseille","lat":43.23192,"lon":5.39983,"is_reserved":false,"is_disabled":false,"rental_uris":{"android":"levelo://app?vid=bf24ded8-23e1-417c-b5d8-5c062c9776ae","ios":"levelo://app?vid=bf24ded8-23e1-417c-b5d8-5c062c9776ae"},"vehicle_type_id":"4","last_reported":1743030563,"current_range_meters":7200,"station_id":"ce4bhn12rcd13ifvqgqg","pricing_plan_id":"cebpf4jnsgd1na2vs0mg"},{"bike_id":"c4868829-ef31-43be-b652-5b89b71ba699","system_id":"levelo_inurba_marseille","lat":43.31327,"lon":5.39688,"is_reserved":false,"is_disabled":false,"rental_uris":{"android":"levelo://app?vid=c4868829-ef31-43be-b652-5b89b71ba699","ios":"levelo://app?vid=c4868829-ef31-43be-b652-5b89b71ba699"},"vehicle_type_id":"4","last_reported":1743030563,"current_range_meters":7200,"station_id":"ce4bgvp2rcd13ifvqcu0","pricing_plan_id":"cebpf4jnsgd1na2vs0mg"},{"bike_id":"2b7cb951-03a2-4661-9ae4-4caf1591ddb1","system_id":"levelo_inurba_marseille","lat":43.26227,"lon":5.40487,"is_reserved":false,"is_disabled":false,"rental_uris":{"android":"levelo://app?vid=2b7cb951-03a2-4661-9ae4-4caf1591ddb1","ios":"levelo://app?vid=2b7cb951-03a2-4661-9ae4-4caf1591ddb1"},"vehicle_type_id":"4","last_reported":1743030563,"current_range_meters":7200,"station_id":"ce4bhmh2rcd13ifvqgmg","pricing_plan_id":"cebpf4jnsgd1na2vs0mg"},{"bike_id":"63014678-39e4-40a2-9cd0-6c6c95631cbc","system_id":"levelo_inurba_marseille","lat":43.317,"lon":5.40453,"is_reserved":false,"is_disabled":false,"rental_uris":{"android":"levelo://app?vid=63014678-39e4-40a2-9cd0-6c6c95631cbc","ios":"levelo://app?vid=63014678-39e4-40a2-9cd0-6c6c95631cbc"},"vehicle_type_id":"4","last_reported":1743030563,"current_range_meters":7200,"station_id":"ce4bh012rcd13ifvqd00","pricing_plan_id":"cebpf4jnsgd1na2vs0mg"},{"bike_id":"ee28380f-2566-499f-8ab8-5a75cb1ed72f","system_id":"levelo_inurba_marseille","lat":43.288329,"lon":5.393258,"is_reserved":false,"is_disabled":true,"rental_uris":{"android":"levelo://app?vid=ee28380f-2566-499f-8ab8-5a75cb1ed72f","ios":"levelo://app?vid=ee28380f-2566-499f-8ab8-5a75cb1ed72f"},"vehicle_type_id":"4","last_reported":1743030563,"current_range_meters":7200,"station_id":"","pricing_plan_id":"cebpf4jnsgd1na2vs0mg"},{"bike_id":"a9224951-222b-443e-bc8d-d29a2a307ffb","system_id":"levelo_inurba_marseille","lat":43.29294,"lon":5.36832,"is_reserved":false,"is_disabled":false,"rental_uris":{"android":"levelo://app?vid=a9224951-222b-443e-bc8d-d29a2a307ffb","ios":"levelo://app?vid=a9224951-222b-443e-bc8d-d29a2a307ffb"},"vehicle_type_id":"4","last_reported":1743030563,"current_range_meters":8000,"station_id":"ce4bhbp2rcd13ifvqesg","pricing_plan_id":"cebpf4jnsgd1na2vs0mg"},{"bike_id":"ab67bdb5-4dc4-4cad-b2e7-e7b3ec2373b6","system_id":"levelo_inurba_marseille","lat":43.29879,"lon":5.39722,"is_reserved":false,"is_disabled":false,"rental_uris":{"android":"levelo://app?vid=ab67bdb5-4dc4-4cad-b2e7-e7b3ec2373b6","ios":"levelo://app?vid=ab67bdb5-4dc4-4cad-b2e7-e7b3ec2373b6"},"vehicle_type_id":"4","last_reported":1743030563,"current_range_meters":7200,"station_id":"ce4bh0h2rcd13ifvqd50","pricing_plan_id":"cebpf4jnsgd1na2vs0mg"},{"bike_id":"494edb5c-8886-472a-b4b2-0033adc0ccbd","system_id":"levelo_inurba_marseille","lat":43.23191,"lon":5.39985,"is_reserved":false,"is_disabled":false,"rental_uris":{"android":"levelo://app?vid=494edb5c-8886-472a-b4b2-0033adc0ccbd","ios":"levelo://app?vid=494edb5c-8886-472a-b4b2-0033adc0ccbd"},"vehicle_type_id":"4","last_reported":1743030563,"current_range_meters":7200,"station_id":"ce4bhn12rcd13ifvqgqg","pricing_plan_id":"cebpf4jnsgd1na2vs0mg"},{"bike_id":"48b22196-dfdb-4640-ab3c-714796f453cf","system_id":"levelo_inurba_marseille","lat":43.29574,"lon":5.3998,"is_reserved":false,"is_disabled":false,"rental_uris":{"android":"levelo://app?vid=48b22196-dfdb-4640-ab3c-714796f453cf","ios":"levelo://app?vid=48b22196-dfdb-4640-ab3c-714796f453cf"},"vehicle_type_id":"4","last_reported":1743030563,"current_range_meters":7200,"station_id":"ce4bh312rcd13ifvqdj0","pricing_plan_id":"cebpf4jnsgd1na2vs0mg"},{"bike_id":"e40ca3db-9cd3-4e7c-a6c9-9922c73b5079","system_id":"levelo_inurba_marseille","lat":43.30377,"lon":5.42485,"is_reserved":false,"is_disabled":false,"rental_uris":{"android":"levelo://app?vid=e40ca3db-9cd3-4e7c-a6c9-9922c73b5079","ios":"levelo://app?vid=e40ca3db-9cd3-4e7c-a6c9-9922c73b5079"},"vehicle_type_id":"4","last_reported":1743030563,"current_range_meters":8000,"station_id":"ce4bhoh2rcd13ifvqh6g","pricing_plan_id":"cebpf4jnsgd1na2vs0mg"},{"bike_id":"a9e24147-abcf-40d5-89e4-44742210fa24","system_id":"levelo_inurba_marseille","lat":43.28665,"lon":5.36356,"is_reserved":false,"is_disabled":false,"rental_uris":{"android":"levelo://app?vid=a9e24147-abcf-40d5-89e4-44742210fa24","ios":"levelo://app?vid=a9e24147-abcf-40d5-89e4-44742210fa24"},"vehicle_type_id":"4","last_reported":1743030563,"current_range_meters":8000,"station_id":"ce4bhah2rcd13ifvqej0","pricing_plan_id":"cebpf4jnsgd1na2vs0mg"},{"bike_id":"4d6d8a3e-5cdb-4d7b-bbad-abcfee7897a7","system_id":"levelo_inurba_marseille","lat":43.28033,"lon":5.36955,"is_reserved":false,"is_disabled":false,"rental_uris":{"android":"levelo://app?vid=4d6d8a3e-5cdb-4d7b-bbad-abcfee7897a7","ios":"levelo://app?vid=4d6d8a3e-5cdb-4d7b-bbad-abcfee7897a7"},"vehicle_type_id":"4","last_reported":1743030563,"current_range_meters":8000,"station_id":"ce4bha12rcd13ifvqef0","pricing_plan_id":"cebpf4jnsgd1na2vs0mg"},{"bike_id":"ba928e2c-172e-4d95-afa4-8dab7a73bb9a","system_id":"levelo_inurba_marseille","lat":43.30945,"lon":5.39597,"is_reserved":false,"is_disabled":false,"rental_uris":{"android":"levelo://app?vid=ba928e2c-172e-4d95-afa4-8dab7a73bb9a","ios":"levelo://app?vid=ba928e2c-172e-4d95-afa4-8dab7a73bb9a"},"vehicle_type_id":"4","last_reported":1743030563,"current_range_meters":8000,"station_id":"","pricing_plan_id":"cebpf4jnsgd1na2vs0mg"},{"bike_id":"34867fc1-83ab-4cc9-a360-a50d2251ec10","system_id":"levelo_inurba_marseille","lat":43.28692,"lon":5.38654,"is_reserved":false,"is_disabled":false,"rental_uris":{"android":"levelo://app?vid=34867fc1-83ab-4cc9-a360-a50d2251ec10","ios":"levelo://app?vid=34867fc1-83ab-4cc9-a360-a50d2251ec10"},"vehicle_type_id":"4","last_reported":1743030563,"current_range_meters":8000,"station_id":"ce4bh492rcd13ifvqdug","pricing_plan_id":"cebpf4jnsgd1na2vs0mg"},{"bike_id":"4f715ae9-6c61-4ea7-84e2-ec21588066d3","system_id":"levelo_inurba_marseille","lat":43.268063,"lon":5.40263,"is_reserved":false,"is_disabled":false,"rental_uris":{"android":"levelo://app?vid=4f715ae9-6c61-4ea7-84e2-ec21588066d3","ios":"levelo://app?vid=4f715ae9-6c61-4ea7-84e2-ec21588066d3"},"vehicle_type_id":"4","last_reported":1743030563,"current_range_meters":8000,"station_id":"ce501612rcd8frsf0b60","pricing_plan_id":"cebpf4jnsgd1na2vs0mg"},{"bike_id":"f331f4a0-921f-47e2-bc64-3b6ed88b17e3","system_id":"levelo_inurba_marseille","lat":43.27174,"lon":5.40995,"is_reserved":false,"is_disabled":false,"rental_uris":{"android":"levelo://app?vid=f331f4a0-921f-47e2-bc64-3b6ed88b17e3","ios":"levelo://app?vid=f331f4a0-921f-47e2-bc64-3b6ed88b17e3"},"vehicle_type_id":"4","last_reported":1743030563,"current_range_meters":8000,"station_id":"ce4bhl12rcd13ifvqgf0","pricing_plan_id":"cebpf4jnsgd1na2vs0mg"},{"bike_id":"45473374-eabb-4db3-bd6c-f156d2935509","system_id":"levelo_inurba_marseille","lat":43.26791,"lon":5.4026,"is_reserved":false,"is_disabled":false,"rental_uris":{"android":"levelo://app?vid=45473374-eabb-4db3-bd6c-f156d2935509","ios":"levelo://app?vid=45473374-eabb-4db3-bd6c-f156d2935509"},"vehicle_type_id":"4","last_reported":1743030563,"current_range_meters":8000,"station_id":"ce501612rcd8frsf0b60","pricing_plan_id":"cebpf4jnsgd1na2vs0mg"},{"bike_id":"98c7ca61-6b4e-4129-ad44-4943fd2074d6","system_id":"levelo_inurba_marseille","lat":43.22929,"lon":5.353808,"is_reserved":false,"is_disabled":false,"rental_uris":{"android":"levelo://app?vid=98c7ca61-6b4e-4129-ad44-4943fd2074d6","ios":"levelo://app?vid=98c7ca61-6b4e-4129-ad44-4943fd2074d6"},"vehicle_type_id":"4","last_reported":1743030563,"current_range_meters":8000,"station_id":"cpo3532slgdg3j2ikp40","pricing_plan_id":"cebpf4jnsgd1na2vs0mg"},{"bike_id":"500ae4ba-0f8b-4234-ad47-d0f7e3ee77fd","system_id":"levelo_inurba_marseille","lat":43.29092,"lon":5.38169,"is_reserved":false,"is_disabled":true,"rental_uris":{"android":"levelo://app?vid=500ae4ba-0f8b-4234-ad47-d0f7e3ee77fd","ios":"levelo://app?vid=500ae4ba-0f8b-4234-ad47-d0f7e3ee77fd"},"vehicle_type_id":"4","last_reported":1743030563,"current_range_meters":8000,"station_id":"ce4bho12rcd13ifvqh1g","pricing_plan_id":"cebpf4jnsgd1na2vs0mg"},{"bike_id":"cbb04385-b733-4245-8069-e7d5530c1471","system_id":"levelo_inurba_marseille","lat":43.31116,"lon":5.3777,"is_reserved":false,"is_disabled":false,"rental_uris":{"android":"levelo://app?vid=cbb04385-b733-4245-8069-e7d5530c1471","ios":"levelo://app?vid=cbb04385-b733-4245-8069-e7d5530c1471"},"vehicle_type_id":"4","last_reported":1743030563,"current_range_meters":8000,"station_id":"ce4bgt92rcd13ifvqcg0","pricing_plan_id":"cebpf4jnsgd1na2vs0mg"},{"bike_id":"9c66cc15-0096-423b-bdc5-f6e3c74078ab","system_id":"levelo_inurba_marseille","lat":43.31207,"lon":5.37858,"is_reserved":false,"is_disabled":false,"rental_uris":{"android":"levelo://app?vid=9c66cc15-0096-423b-bdc5-f6e3c74078ab","ios":"levelo://app?vid=9c66cc15-0096-423b-bdc5-f6e3c74078ab"},"vehicle_type_id":"4","last_reported":1743030563,"current_range_meters":8000,"station_id":"","pricing_plan_id":"cebpf4jnsgd1na2vs0mg"},{"bike_id":"ab5f8c47-7bc7-40a2-b08d-72006dab1816","system_id":"levelo_inurba_marseille","lat":43.29536,"lon":5.39035,"is_reserved":false,"is_disabled":false,"rental_uris":{"android":"levelo://app?vid=ab5f8c47-7bc7-40a2-b08d-72006dab1816","ios":"levelo://app?vid=ab5f8c47-7bc7-40a2-b08d-72006dab1816"},"vehicle_type_id":"4","last_reported":1743030563,"current_range_meters":8000,"station_id":"ce4bh3p2rcd13ifvqdp0","pricing_plan_id":"cebpf4jnsgd1na2vs0mg"},{"bike_id":"88753d84-9812-452a-aaa2-0098815422ab","system_id":"levelo_inurba_marseille","lat":43.3088,"lon":5.37192,"is_reserved":false,"is_disabled":false,"rental_uris":{"android":"levelo://app?vid=88753d84-9812-452a-aaa2-0098815422ab","ios":"levelo://app?vid=88753d84-9812-452a-aaa2-0098815422ab"},"vehicle_type_id":"4","last_reported":1743030563,"current_range_meters":8000,"station_id":"ce4bguh2rcd13ifvqckg","pricing_plan_id":"cebpf4jnsgd1na2vs0mg"},{"bike_id":"a1dcf5bc-54fc-45f7-9928-5cf9485d7c58","system_id":"levelo_inurba_marseille","lat":43.23186,"lon":5.39994,"is_reserved":false,"is_disabled":false,"rental_uris":{"android":"levelo://app?vid=a1dcf5bc-54fc-45f7-9928-5cf9485d7c58","ios":"levelo://app?vid=a1dcf5bc-54fc-45f7-9928-5cf9485d7c58"},"vehicle_type_id":"4","last_reported":1743030563,"current_range_meters":8000,"station_id":"ce4bhn12rcd13ifvqgqg","pricing_plan_id":"cebpf4jnsgd1na2vs0mg"},{"bike_id":"41e5f267-ce12-4d49-85f8-a37604430f8e","system_id":"levelo_inurba_marseille","lat":43.229389,"lon":5.353744,"is_reserved":false,"is_disabled":false,"rental_uris":{"android":"levelo://app?vid=41e5f267-ce12-4d49-85f8-a37604430f8e","ios":"levelo://app?vid=41e5f267-ce12-4d49-85f8-a37604430f8e"},"vehicle_type_id":"4","last_reported":1743030563,"current_range_meters":8000,"station_id":"cpo3532slgdg3j2ikp40","pricing_plan_id":"cebpf4jnsgd1na2vs0mg"},{"bike_id":"bb0a4d83-0e37-4dfa-938b-228bbf7033c9","system_id":"levelo_inurba_marseille","lat":43.290369,"lon":5.3996,"is_reserved":false,"is_disabled":false,"rental_uris":{"android":"levelo://app?vid=bb0a4d83-0e37-4dfa-938b-228bbf7033c9","ios":"levelo://app?vid=bb0a4d83-0e37-4dfa-938b-228bbf7033c9"},"vehicle_type_id":"4","last_reported":1743030563,"current_range_meters":8000,"station_id":"ce4bh392rcd13ifvqdm0","pricing_plan_id":"cebpf4jnsgd1na2vs0mg"},{"bike_id":"a01a2189-8b32-4968-87fa-f3888542280a","system_id":"levelo_inurba_marseille","lat":43.28694,"lon":5.37402,"is_reserved":false,"is_disabled":false,"rental_uris":{"android":"levelo://app?vid=a01a2189-8b32-4968-87fa-f3888542280a","ios":"levelo://app?vid=a01a2189-8b32-4968-87fa-f3888542280a"},"vehicle_type_id":"4","last_reported":1743030563,"current_range_meters":8400,"station_id":"ce4bh3p2rcd13ifvqdq0","pricing_plan_id":"cebpf4jnsgd1na2vs0mg"},{"bike_id":"da3d6c27-2c27-4041-b2d5-91965cb51916","system_id":"levelo_inurba_marseille","lat":43.26227,"lon":5.40464,"is_reserved":false,"is_disabled":false,"rental_uris":{"android":"levelo://app?vid=da3d6c27-2c27-4041-b2d5-91965cb51916","ios":"levelo://app?vid=da3d6c27-2c27-4041-b2d5-91965cb51916"},"vehicle_type_id":"4","last_reported":1743030563,"current_range_meters":8400,"station_id":"ce4bhmh2rcd13ifvqgmg","pricing_plan_id":"cebpf4jnsgd1na2vs0mg"},{"bike_id":"8a9602e7-e6f2-4dac-845f-cea224e49dd5","system_id":"levelo_inurba_marseille","lat":43.230638,"lon":5.354916,"is_reserved":false,"is_disabled":false,"rental_uris":{"android":"levelo://app?vid=8a9602e7-e6f2-4dac-845f-cea224e49dd5","ios":"levelo://app?vid=8a9602e7-e6f2-4dac-845f-cea224e49dd5"},"vehicle_type_id":"4","last_reported":1743030563,"current_range_meters":8400,"station_id":"cpo3342slgdg3j2ifvpg","pricing_plan_id":"cebpf4jnsgd1na2vs0mg"},{"bike_id":"01cbffb0-3fb0-4769-96f8-4c2dd20b8277","system_id":"levelo_inurba_marseille","lat":43.28548,"lon":5.40586,"is_reserved":false,"is_disabled":false,"rental_uris":{"android":"levelo://app?vid=01cbffb0-3fb0-4769-96f8-4c2dd20b8277","ios":"levelo://app?vid=01cbffb0-3fb0-4769-96f8-4c2dd20b8277"},"vehicle_type_id":"4","last_reported":1743030563,"current_range_meters":8400,"station_id":"","pricing_plan_id":"cebpf4jnsgd1na2vs0mg"},{"bike_id":"f091d87e-c883-41f6-952e-e46142e70564","system_id":"levelo_inurba_marseille","lat":43.28621,"lon":5.3511,"is_reserved":false,"is_disabled":false,"rental_uris":{"android":"levelo://app?vid=f091d87e-c883-41f6-952e-e46142e70564","ios":"levelo://app?vid=f091d87e-c883-41f6-952e-e46142e70564"},"vehicle_type_id":"4","last_reported":1743030563,"current_range_meters":8400,"station_id":"ce4bhch2rcd13ifvqeug","pricing_plan_id":"cebpf4jnsgd1na2vs0mg"},{"bike_id":"974f5876-effd-44d0-911c-76ea7a107a8c","system_id":"levelo_inurba_marseille","lat":43.333593,"lon":5.359833,"is_reserved":false,"is_disabled":false,"rental_uris":{"android":"levelo://app?vid=974f5876-effd-44d0-911c-76ea7a107a8c","ios":"levelo://app?vid=974f5876-effd-44d0-911c-76ea7a107a8c"},"vehicle_type_id":"4","last_reported":1743030563,"current_range_meters":8400,"station_id":"","pricing_plan_id":"cebpf4jnsgd1na2vs0mg"},{"bike_id":"01f4262b-bc44-4c46-ba8c-e293e5d3d64c","system_id":"levelo_inurba_marseille","lat":43.28624,"lon":5.351,"is_reserved":false,"is_disabled":false,"rental_uris":{"android":"levelo://app?vid=01f4262b-bc44-4c46-ba8c-e293e5d3d64c","ios":"levelo://app?vid=01f4262b-bc44-4c46-ba8c-e293e5d3d64c"},"vehicle_type_id":"4","last_reported":1743030563,"current_range_meters":8400,"station_id":"ce4bhch2rcd13ifvqeug","pricing_plan_id":"cebpf4jnsgd1na2vs0mg"},{"bike_id":"8f31d6e7-5863-4e72-b0e6-c45778a4a425","system_id":"levelo_inurba_marseille","lat":43.29731,"lon":5.37671,"is_reserved":false,"is_disabled":false,"rental_uris":{"android":"levelo://app?vid=8f31d6e7-5863-4e72-b0e6-c45778a4a425","ios":"levelo://app?vid=8f31d6e7-5863-4e72-b0e6-c45778a4a425"},"vehicle_type_id":"4","last_reported":1743030563,"current_range_meters":8400,"station_id":"ce4bgkh2rcd13ifvqbl0","pricing_plan_id":"cebpf4jnsgd1na2vs0mg"},{"bike_id":"86bc8c82-6b58-4e19-b23c-900d5ff731fa","system_id":"levelo_inurba_marseille","lat":43.3197,"lon":5.37099,"is_reserved":false,"is_disabled":false,"rental_uris":{"android":"levelo://app?vid=86bc8c82-6b58-4e19-b23c-900d5ff731fa","ios":"levelo://app?vid=86bc8c82-6b58-4e19-b23c-900d5ff731fa"},"vehicle_type_id":"4","last_reported":1743030563,"current_range_meters":8400,"station_id":"","pricing_plan_id":"cebpf4jnsgd1na2vs0mg"},{"bike_id":"b30d442b-7284-44ac-87ce-821b5a0ec057","system_id":"levelo_inurba_marseille","lat":43.32572,"lon":5.36532,"is_reserved":false,"is_disabled":false,"rental_uris":{"android":"levelo://app?vid=b30d442b-7284-44ac-87ce-821b5a0ec057","ios":"levelo://app?vid=b30d442b-7284-44ac-87ce-821b5a0ec057"},"vehicle_type_id":"4","last_reported":1743030563,"current_range_meters":8800,"station_id":"","pricing_plan_id":"cebpf4jnsgd1na2vs0mg"},{"bike_id":"ac227b8d-11e6-4a65-9136-f9cbd67e61e3","system_id":"levelo_inurba_marseille","lat":43.31057,"lon":5.38362,"is_reserved":false,"is_disabled":false,"rental_uris":{"android":"levelo://app?vid=ac227b8d-11e6-4a65-9136-f9cbd67e61e3","ios":"levelo://app?vid=ac227b8d-11e6-4a65-9136-f9cbd67e61e3"},"vehicle_type_id":"4","last_reported":1743030563,"current_range_meters":8800,"station_id":"ce4bgv92rcd13ifvqcr0","pricing_plan_id":"cebpf4jnsgd1na2vs0mg"},{"bike_id":"40c6a433-8b8f-4963-93f1-4b8322344100","system_id":"levelo_inurba_marseille","lat":43.28424,"lon":5.34992,"is_reserved":false,"is_disabled":false,"rental_uris":{"android":"levelo://app?vid=40c6a433-8b8f-4963-93f1-4b8322344100","ios":"levelo://app?vid=40c6a433-8b8f-4963-93f1-4b8322344100"},"vehicle_type_id":"4","last_reported":1743030563,"current_range_meters":8800,"station_id":"ce4bhbh2rcd13ifvqepg","pricing_plan_id":"cebpf4jnsgd1na2vs0mg"},{"bike_id":"c80aa782-5a1c-49dc-82a9-5a6684179a01","system_id":"levelo_inurba_marseille","lat":43.28104,"lon":5.37831,"is_reserved":false,"is_disabled":false,"rental_uris":{"android":"levelo://app?vid=c80aa782-5a1c-49dc-82a9-5a6684179a01","ios":"levelo://app?vid=c80aa782-5a1c-49dc-82a9-5a6684179a01"},"vehicle_type_id":"4","last_reported":1743030563,"current_range_meters":8800,"station_id":"ce4bha12rcd13ifvqee0","pricing_plan_id":"cebpf4jnsgd1na2vs0mg"},{"bike_id":"887a7784-c70b-46f8-9882-d03745b5c9eb","system_id":"levelo_inurba_marseille","lat":43.31115,"lon":5.37788,"is_reserved":false,"is_disabled":false,"rental_uris":{"android":"levelo://app?vid=887a7784-c70b-46f8-9882-d03745b5c9eb","ios":"levelo://app?vid=887a7784-c70b-46f8-9882-d03745b5c9eb"},"vehicle_type_id":"4","last_reported":1743030563,"current_range_meters":8800,"station_id":"ce4bgt92rcd13ifvqcg0","pricing_plan_id":"cebpf4jnsgd1na2vs0mg"},{"bike_id":"0a6002c5-2e94-419c-9846-07e4397e2530","system_id":"levelo_inurba_marseille","lat":43.25834,"lon":5.39434,"is_reserved":false,"is_disabled":false,"rental_uris":{"android":"levelo://app?vid=0a6002c5-2e94-419c-9846-07e4397e2530","ios":"levelo://app?vid=0a6002c5-2e94-419c-9846-07e4397e2530"},"vehicle_type_id":"4","last_reported":1743030563,"current_range_meters":8800,"station_id":"ce4bhip2rcd13ifvqft0","pricing_plan_id":"cebpf4jnsgd1na2vs0mg"},{"bike_id":"da155e19-5157-4f97-8747-0c15b0609608","system_id":"levelo_inurba_marseille","lat":43.25736,"lon":5.41125,"is_reserved":false,"is_disabled":false,"rental_uris":{"android":"levelo://app?vid=da155e19-5157-4f97-8747-0c15b0609608","ios":"levelo://app?vid=da155e19-5157-4f97-8747-0c15b0609608"},"vehicle_type_id":"4","last_reported":1743030563,"current_range_meters":8800,"station_id":"ce4bhkp2rcd13ifvqgd0","pricing_plan_id":"cebpf4jnsgd1na2vs0mg"},{"bike_id":"26c95be6-8955-419b-b506-8f03b71ec17d","system_id":"levelo_inurba_marseille","lat":43.326628,"lon":5.409916,"is_reserved":false,"is_disabled":false,"rental_uris":{"android":"levelo://app?vid=26c95be6-8955-419b-b506-8f03b71ec17d","ios":"levelo://app?vid=26c95be6-8955-419b-b506-8f03b71ec17d"},"vehicle_type_id":"4","last_reported":1743030563,"current_range_meters":8800,"station_id":"ce4bhpp2rcd13ifvqhgg","pricing_plan_id":"cebpf4jnsgd1na2vs0mg"},{"bike_id":"f35517ac-eefa-426f-a0d4-2d08f2ce4ebf","system_id":"levelo_inurba_marseille","lat":43.29265,"lon":5.37604,"is_reserved":false,"is_disabled":true,"rental_uris":{"android":"levelo://app?vid=f35517ac-eefa-426f-a0d4-2d08f2ce4ebf","ios":"levelo://app?vid=f35517ac-eefa-426f-a0d4-2d08f2ce4ebf"},"vehicle_type_id":"4","last_reported":1743030563,"current_range_meters":9200,"station_id":"ce4bgi12rcd13ifvqb80","pricing_plan_id":"cebpf4jnsgd1na2vs0mg"},{"bike_id":"d45a2f6c-957b-46cd-bd89-ee8e58d1536e","system_id":"levelo_inurba_marseille","lat":43.2773,"lon":5.40781,"is_reserved":false,"is_disabled":false,"rental_uris":{"android":"levelo://app?vid=d45a2f6c-957b-46cd-bd89-ee8e58d1536e","ios":"levelo://app?vid=d45a2f6c-957b-46cd-bd89-ee8e58d1536e"},"vehicle_type_id":"4","last_reported":1743030563,"current_range_meters":9200,"station_id":"","pricing_plan_id":"cebpf4jnsgd1na2vs0mg"},{"bike_id":"84a7a785-5392-42bc-8088-fb903bcc7f5c","system_id":"levelo_inurba_marseille","lat":43.23062,"lon":5.35489,"is_reserved":false,"is_disabled":false,"rental_uris":{"android":"levelo://app?vid=84a7a785-5392-42bc-8088-fb903bcc7f5c","ios":"levelo://app?vid=84a7a785-5392-42bc-8088-fb903bcc7f5c"},"vehicle_type_id":"4","last_reported":1743030563,"current_range_meters":9200,"station_id":"cpo3342slgdg3j2ifvpg","pricing_plan_id":"cebpf4jnsgd1na2vs0mg"},{"bike_id":"3ebcb0b0-3bd6-455e-9b12-2091542e2b7d","system_id":"levelo_inurba_marseille","lat":43.31446,"lon":5.37371,"is_reserved":false,"is_disabled":false,"rental_uris":{"android":"levelo://app?vid=3ebcb0b0-3bd6-455e-9b12-2091542e2b7d","ios":"levelo://app?vid=3ebcb0b0-3bd6-455e-9b12-2091542e2b7d"},"vehicle_type_id":"4","last_reported":1743030563,"current_range_meters":9200,"station_id":"","pricing_plan_id":"cebpf4jnsgd1na2vs0mg"},{"bike_id":"53a15092-dc0b-4f5e-a815-b536f0c4d137","system_id":"levelo_inurba_marseille","lat":43.289531,"lon":5.36623,"is_reserved":false,"is_disabled":false,"rental_uris":{"android":"levelo://app?vid=53a15092-dc0b-4f5e-a815-b536f0c4d137","ios":"levelo://app?vid=53a15092-dc0b-4f5e-a815-b536f0c4d137"},"vehicle_type_id":"4","last_reported":1743030563,"current_range_meters":9200,"station_id":"ce4bhap2rcd13ifvqek0","pricing_plan_id":"cebpf4jnsgd1na2vs0mg"},{"bike_id":"6493a410-ba38-4b48-997d-2b0a0413cba6","system_id":"levelo_inurba_marseille","lat":43.30894,"lon":5.3963,"is_reserved":false,"is_disabled":false,"rental_uris":{"android":"levelo://app?vid=6493a410-ba38-4b48-997d-2b0a0413cba6","ios":"levelo://app?vid=6493a410-ba38-4b48-997d-2b0a0413cba6"},"vehicle_type_id":"4","last_reported":1743030563,"current_range_meters":9200,"station_id":"ce4bh012rcd13ifvqcv0","pricing_plan_id":"cebpf4jnsgd1na2vs0mg"},{"bike_id":"7072dc47-ccf8-4fd0-a2ab-982be2a2b61f","system_id":"levelo_inurba_marseille","lat":43.258249,"lon":5.394372,"is_reserved":false,"is_disabled":false,"rental_uris":{"android":"levelo://app?vid=7072dc47-ccf8-4fd0-a2ab-982be2a2b61f","ios":"levelo://app?vid=7072dc47-ccf8-4fd0-a2ab-982be2a2b61f"},"vehicle_type_id":"4","last_reported":1743030563,"current_range_meters":8800,"station_id":"ce4bh9p2rcd13ifvqec0","pricing_plan_id":"cebpf4jnsgd1na2vs0mg"},{"bike_id":"434c3a2c-ae70-4bc5-828d-d60fb5859f24","system_id":"levelo_inurba_marseille","lat":43.31078,"lon":5.38351,"is_reserved":false,"is_disabled":false,"rental_uris":{"android":"levelo://app?vid=434c3a2c-ae70-4bc5-828d-d60fb5859f24","ios":"levelo://app?vid=434c3a2c-ae70-4bc5-828d-d60fb5859f24"},"vehicle_type_id":"4","last_reported":1743030563,"current_range_meters":9200,"station_id":"ce4bgv92rcd13ifvqcr0","pricing_plan_id":"cebpf4jnsgd1na2vs0mg"},{"bike_id":"dd8a2f73-7e5c-4be8-bbdb-bc2d2f080d10","system_id":"levelo_inurba_marseille","lat":43.30088,"lon":5.39089,"is_reserved":false,"is_disabled":false,"rental_uris":{"android":"levelo://app?vid=dd8a2f73-7e5c-4be8-bbdb-bc2d2f080d10","ios":"levelo://app?vid=dd8a2f73-7e5c-4be8-bbdb-bc2d2f080d10"},"vehicle_type_id":"4","last_reported":1743030563,"current_range_meters":9200,"station_id":"ce4bh192rcd13ifvqdb0","pricing_plan_id":"cebpf4jnsgd1na2vs0mg"},{"bike_id":"80420c83-94fc-4929-a66b-5fc6f7c139bd","system_id":"levelo_inurba_marseille","lat":43.28353,"lon":5.38103,"is_reserved":false,"is_disabled":false,"rental_uris":{"android":"levelo://app?vid=80420c83-94fc-4929-a66b-5fc6f7c139bd","ios":"levelo://app?vid=80420c83-94fc-4929-a66b-5fc6f7c139bd"},"vehicle_type_id":"4","last_reported":1743030563,"current_range_meters":9200,"station_id":"ce4bh412rcd13ifvqdr0","pricing_plan_id":"cebpf4jnsgd1na2vs0mg"},{"bike_id":"ccdfac36-22da-4f2d-bd50-7bf147cc0fff","system_id":"levelo_inurba_marseille","lat":43.29922,"lon":5.43663,"is_reserved":false,"is_disabled":false,"rental_uris":{"android":"levelo://app?vid=ccdfac36-22da-4f2d-bd50-7bf147cc0fff","ios":"levelo://app?vid=ccdfac36-22da-4f2d-bd50-7bf147cc0fff"},"vehicle_type_id":"4","last_reported":1743030563,"current_range_meters":9600,"station_id":"ce4bhpp2rcd13ifvqhfg","pricing_plan_id":"cebpf4jnsgd1na2vs0mg"},{"bike_id":"c6760871-6fc1-4414-8469-9dedd0326558","system_id":"levelo_inurba_marseille","lat":43.28952,"lon":5.3639,"is_reserved":false,"is_disabled":false,"rental_uris":{"android":"levelo://app?vid=c6760871-6fc1-4414-8469-9dedd0326558","ios":"levelo://app?vid=c6760871-6fc1-4414-8469-9dedd0326558"},"vehicle_type_id":"4","last_reported":1743030563,"current_range_meters":9600,"station_id":"ce4bhc92rcd13ifvqetg","pricing_plan_id":"cebpf4jnsgd1na2vs0mg"},{"bike_id":"83490f64-aa62-4240-91b0-0dc5e05f1bcb","system_id":"levelo_inurba_marseille","lat":43.31116,"lon":5.37783,"is_reserved":false,"is_disabled":false,"rental_uris":{"android":"levelo://app?vid=83490f64-aa62-4240-91b0-0dc5e05f1bcb","ios":"levelo://app?vid=83490f64-aa62-4240-91b0-0dc5e05f1bcb"},"vehicle_type_id":"4","last_reported":1743030563,"current_range_meters":9600,"station_id":"ce4bgt92rcd13ifvqcg0","pricing_plan_id":"cebpf4jnsgd1na2vs0mg"},{"bike_id":"152ae64a-fbba-4a6b-8dec-5c2f4312a76e","system_id":"levelo_inurba_marseille","lat":43.308184,"lon":5.376783,"is_reserved":false,"is_disabled":false,"rental_uris":{"android":"levelo://app?vid=152ae64a-fbba-4a6b-8dec-5c2f4312a76e","ios":"levelo://app?vid=152ae64a-fbba-4a6b-8dec-5c2f4312a76e"},"vehicle_type_id":"4","last_reported":1743030563,"current_range_meters":9600,"station_id":"ce4bgv92rcd13ifvqcq0","pricing_plan_id":"cebpf4jnsgd1na2vs0mg"},{"bike_id":"c9ca11e0-31fe-4de3-9a06-a47672bcdf83","system_id":"levelo_inurba_marseille","lat":43.25116,"lon":5.40329,"is_reserved":false,"is_disabled":false,"rental_uris":{"android":"levelo://app?vid=c9ca11e0-31fe-4de3-9a06-a47672bcdf83","ios":"levelo://app?vid=c9ca11e0-31fe-4de3-9a06-a47672bcdf83"},"vehicle_type_id":"4","last_reported":1743030563,"current_range_meters":9600,"station_id":"ce4bhlh2rcd13ifvqgig","pricing_plan_id":"cebpf4jnsgd1na2vs0mg"},{"bike_id":"cdd4299d-7666-4580-9d2b-ea5987058994","system_id":"levelo_inurba_marseille","lat":43.30937,"lon":5.40152,"is_reserved":false,"is_disabled":false,"rental_uris":{"android":"levelo://app?vid=cdd4299d-7666-4580-9d2b-ea5987058994","ios":"levelo://app?vid=cdd4299d-7666-4580-9d2b-ea5987058994"},"vehicle_type_id":"4","last_reported":1743030563,"current_range_meters":9600,"station_id":"ce4bgvp2rcd13ifvqct0","pricing_plan_id":"cebpf4jnsgd1na2vs0mg"},{"bike_id":"818cfe2a-3205-453a-a960-4ebf1f298656","system_id":"levelo_inurba_marseille","lat":43.2669,"lon":5.38262,"is_reserved":false,"is_disabled":true,"rental_uris":{"android":"levelo://app?vid=818cfe2a-3205-453a-a960-4ebf1f298656","ios":"levelo://app?vid=818cfe2a-3205-453a-a960-4ebf1f298656"},"vehicle_type_id":"4","last_reported":1743030563,"current_range_meters":9600,"station_id":"ce4bhg92rcd13ifvqf90","pricing_plan_id":"cebpf4jnsgd1na2vs0mg"},{"bike_id":"0dcafc33-413c-4c3d-a435-5640f82af9f4","system_id":"levelo_inurba_marseille","lat":43.30882,"lon":5.39639,"is_reserved":false,"is_disabled":false,"rental_uris":{"android":"levelo://app?vid=0dcafc33-413c-4c3d-a435-5640f82af9f4","ios":"levelo://app?vid=0dcafc33-413c-4c3d-a435-5640f82af9f4"},"vehicle_type_id":"4","last_reported":1743030563,"current_range_meters":9600,"station_id":"ce4bh012rcd13ifvqcv0","pricing_plan_id":"cebpf4jnsgd1na2vs0mg"},{"bike_id":"1f832459-222b-42fa-b88e-b9eccf46e63a","system_id":"levelo_inurba_marseille","lat":43.28854,"lon":5.35863,"is_reserved":false,"is_disabled":false,"rental_uris":{"android":"levelo://app?vid=1f832459-222b-42fa-b88e-b9eccf46e63a","ios":"levelo://app?vid=1f832459-222b-42fa-b88e-b9eccf46e63a"},"vehicle_type_id":"4","last_reported":1743030563,"current_range_meters":9600,"station_id":"ce4bhb12rcd13ifvqem0","pricing_plan_id":"cebpf4jnsgd1na2vs0mg"},{"bike_id":"85d0fa0c-b5b9-41cd-ba43-951901672dab","system_id":"levelo_inurba_marseille","lat":43.25589,"lon":5.38993,"is_reserved":false,"is_disabled":false,"rental_uris":{"android":"levelo://app?vid=85d0fa0c-b5b9-41cd-ba43-951901672dab","ios":"levelo://app?vid=85d0fa0c-b5b9-41cd-ba43-951901672dab"},"vehicle_type_id":"4","last_reported":1743030563,"current_range_meters":10000,"station_id":"","pricing_plan_id":"cebpf4jnsgd1na2vs0mg"},{"bike_id":"629dc58e-f1fa-4c78-b496-582f20ae1d69","system_id":"levelo_inurba_marseille","lat":43.23152,"lon":5.43722,"is_reserved":false,"is_disabled":false,"rental_uris":{"android":"levelo://app?vid=629dc58e-f1fa-4c78-b496-582f20ae1d69","ios":"levelo://app?vid=629dc58e-f1fa-4c78-b496-582f20ae1d69"},"vehicle_type_id":"4","last_reported":1743030563,"current_range_meters":10000,"station_id":"ce4bhmp2rcd13ifvqgog","pricing_plan_id":"cebpf4jnsgd1na2vs0mg"},{"bike_id":"f408b4d4-0f69-4a55-bf3a-3c3c8e1647f7","system_id":"levelo_inurba_marseille","lat":43.23195,"lon":5.40007,"is_reserved":false,"is_disabled":false,"rental_uris":{"android":"levelo://app?vid=f408b4d4-0f69-4a55-bf3a-3c3c8e1647f7","ios":"levelo://app?vid=f408b4d4-0f69-4a55-bf3a-3c3c8e1647f7"},"vehicle_type_id":"4","last_reported":1743030563,"current_range_meters":10000,"station_id":"ce4bhn12rcd13ifvqgqg","pricing_plan_id":"cebpf4jnsgd1na2vs0mg"},{"bike_id":"545812e7-3882-4d12-8395-ca516c30e2b7","system_id":"levelo_inurba_marseille","lat":43.30255,"lon":5.40057,"is_reserved":false,"is_disabled":false,"rental_uris":{"android":"levelo://app?vid=545812e7-3882-4d12-8395-ca516c30e2b7","ios":"levelo://app?vid=545812e7-3882-4d12-8395-ca516c30e2b7"},"vehicle_type_id":"4","last_reported":1743030563,"current_range_meters":10000,"station_id":"ce4bgvh2rcd13ifvqcs0","pricing_plan_id":"cebpf4jnsgd1na2vs0mg"},{"bike_id":"402cc30d-39ca-4056-ad42-effd69fbd9c9","system_id":"levelo_inurba_marseille","lat":43.24072,"lon":5.37741,"is_reserved":false,"is_disabled":false,"rental_uris":{"android":"levelo://app?vid=402cc30d-39ca-4056-ad42-effd69fbd9c9","ios":"levelo://app?vid=402cc30d-39ca-4056-ad42-effd69fbd9c9"},"vehicle_type_id":"4","last_reported":1743030563,"current_range_meters":10000,"station_id":"ce4bhnp2rcd13ifvqgvg","pricing_plan_id":"cebpf4jnsgd1na2vs0mg"},{"bike_id":"dd171651-cf19-4821-89cf-8fe2350fa345","system_id":"levelo_inurba_marseille","lat":43.28857,"lon":5.39318,"is_reserved":false,"is_disabled":false,"rental_uris":{"android":"levelo://app?vid=dd171651-cf19-4821-89cf-8fe2350fa345","ios":"levelo://app?vid=dd171651-cf19-4821-89cf-8fe2350fa345"},"vehicle_type_id":"4","last_reported":1743030563,"current_range_meters":10000,"station_id":"ce4bh2p2rcd13ifvqdi0","pricing_plan_id":"cebpf4jnsgd1na2vs0mg"},{"bike_id":"6ab6b099-574d-454a-84a7-96bb5f8025c5","system_id":"levelo_inurba_marseille","lat":43.31169,"lon":5.38715,"is_reserved":false,"is_disabled":false,"rental_uris":{"android":"levelo://app?vid=6ab6b099-574d-454a-84a7-96bb5f8025c5","ios":"levelo://app?vid=6ab6b099-574d-454a-84a7-96bb5f8025c5"},"vehicle_type_id":"4","last_reported":1743030563,"current_range_meters":10800,"station_id":"ce4bgv12rcd13ifvqcp0","pricing_plan_id":"cebpf4jnsgd1na2vs0mg"},{"bike_id":"40046afd-c6aa-43ea-88bd-183a4d2ec61c","system_id":"levelo_inurba_marseille","lat":43.31609,"lon":5.41665,"is_reserved":false,"is_disabled":false,"rental_uris":{"android":"levelo://app?vid=40046afd-c6aa-43ea-88bd-183a4d2ec61c","ios":"levelo://app?vid=40046afd-c6aa-43ea-88bd-183a4d2ec61c"},"vehicle_type_id":"4","last_reported":1743030563,"current_range_meters":10800,"station_id":"","pricing_plan_id":"cebpf4jnsgd1na2vs0mg"},{"bike_id":"9f590b40-24ae-445e-8068-dc8ceebb8738","system_id":"levelo_inurba_marseille","lat":43.23958,"lon":5.36656,"is_reserved":false,"is_disabled":false,"rental_uris":{"android":"levelo://app?vid=9f590b40-24ae-445e-8068-dc8ceebb8738","ios":"levelo://app?vid=9f590b40-24ae-445e-8068-dc8ceebb8738"},"vehicle_type_id":"4","last_reported":1743030563,"current_range_meters":10800,"station_id":"ce4bhi12rcd13ifvqfp0","pricing_plan_id":"cebpf4jnsgd1na2vs0mg"},{"bike_id":"ad3a09d6-8194-4bae-a5b1-51b443e279f8","system_id":"levelo_inurba_marseille","lat":43.22941,"lon":5.3538,"is_reserved":false,"is_disabled":false,"rental_uris":{"android":"levelo://app?vid=ad3a09d6-8194-4bae-a5b1-51b443e279f8","ios":"levelo://app?vid=ad3a09d6-8194-4bae-a5b1-51b443e279f8"},"vehicle_type_id":"4","last_reported":1743030563,"current_range_meters":10800,"station_id":"cpo3532slgdg3j2ikp40","pricing_plan_id":"cebpf4jnsgd1na2vs0mg"},{"bike_id":"4e9b5af3-e87b-4dd4-8126-31fc6ff4e2f5","system_id":"levelo_inurba_marseille","lat":43.28845,"lon":5.35847,"is_reserved":false,"is_disabled":false,"rental_uris":{"android":"levelo://app?vid=4e9b5af3-e87b-4dd4-8126-31fc6ff4e2f5","ios":"levelo://app?vid=4e9b5af3-e87b-4dd4-8126-31fc6ff4e2f5"},"vehicle_type_id":"4","last_reported":1743030563,"current_range_meters":10800,"station_id":"ce4bhb12rcd13ifvqem0","pricing_plan_id":"cebpf4jnsgd1na2vs0mg"},{"bike_id":"ee527ed9-d26c-4e8d-b008-038b46dba415","system_id":"levelo_inurba_marseille","lat":43.32001,"lon":5.38158,"is_reserved":false,"is_disabled":false,"rental_uris":{"android":"levelo://app?vid=ee527ed9-d26c-4e8d-b008-038b46dba415","ios":"levelo://app?vid=ee527ed9-d26c-4e8d-b008-038b46dba415"},"vehicle_type_id":"4","last_reported":1743030563,"current_range_meters":10800,"station_id":"ce4bhr12rcd13ifvqhpg","pricing_plan_id":"cebpf4jnsgd1na2vs0mg"},{"bike_id":"00ccdc21-1544-425b-979c-c904f6636454","system_id":"levelo_inurba_marseille","lat":43.30555,"lon":5.38428,"is_reserved":false,"is_disabled":true,"rental_uris":{"android":"levelo://app?vid=00ccdc21-1544-425b-979c-c904f6636454","ios":"levelo://app?vid=00ccdc21-1544-425b-979c-c904f6636454"},"vehicle_type_id":"4","last_reported":1743030563,"current_range_meters":10800,"station_id":"ce4bgg92rcd13ifvqb30","pricing_plan_id":"cebpf4jnsgd1na2vs0mg"},{"bike_id":"59a81975-3ccd-45d3-b034-018afc9fe0c6","system_id":"levelo_inurba_marseille","lat":43.27987,"lon":5.40056,"is_reserved":false,"is_disabled":false,"rental_uris":{"android":"levelo://app?vid=59a81975-3ccd-45d3-b034-018afc9fe0c6","ios":"levelo://app?vid=59a81975-3ccd-45d3-b034-018afc9fe0c6"},"vehicle_type_id":"4","last_reported":1743030563,"current_range_meters":10800,"station_id":"ce4bho92rcd13ifvqh4g","pricing_plan_id":"cebpf4jnsgd1na2vs0mg"},{"bike_id":"af7f26d5-d01f-4be5-9949-83b0d976cb8f","system_id":"levelo_inurba_marseille","lat":43.30935,"lon":5.4014,"is_reserved":false,"is_disabled":false,"rental_uris":{"android":"levelo://app?vid=af7f26d5-d01f-4be5-9949-83b0d976cb8f","ios":"levelo://app?vid=af7f26d5-d01f-4be5-9949-83b0d976cb8f"},"vehicle_type_id":"4","last_reported":1743030563,"current_range_meters":10800,"station_id":"ce4bgvp2rcd13ifvqct0","pricing_plan_id":"cebpf4jnsgd1na2vs0mg"},{"bike_id":"3c5787b5-b19e-44e8-8bde-9f1422949a25","system_id":"levelo_inurba_marseille","lat":43.31887,"lon":5.40737,"is_reserved":false,"is_disabled":false,"rental_uris":{"android":"levelo://app?vid=3c5787b5-b19e-44e8-8bde-9f1422949a25","ios":"levelo://app?vid=3c5787b5-b19e-44e8-8bde-9f1422949a25"},"vehicle_type_id":"4","last_reported":1743030563,"current_range_meters":10800,"station_id":"ce4bhq12rcd13ifvqhig","pricing_plan_id":"cebpf4jnsgd1na2vs0mg"},{"bike_id":"b9ab712c-57dc-45bf-b4d6-b9ecdf6edd13","system_id":"levelo_inurba_marseille","lat":43.28928,"lon":5.38392,"is_reserved":false,"is_disabled":false,"rental_uris":{"android":"levelo://app?vid=b9ab712c-57dc-45bf-b4d6-b9ecdf6edd13","ios":"levelo://app?vid=b9ab712c-57dc-45bf-b4d6-b9ecdf6edd13"},"vehicle_type_id":"4","last_reported":1743030563,"current_range_meters":10800,"station_id":"ce4bh612rcd13ifvqe6g","pricing_plan_id":"cebpf4jnsgd1na2vs0mg"},{"bike_id":"eadcf468-9c9a-4414-a6d7-6609dd96d017","system_id":"levelo_inurba_marseille","lat":43.28949,"lon":5.36414,"is_reserved":false,"is_disabled":false,"rental_uris":{"android":"levelo://app?vid=eadcf468-9c9a-4414-a6d7-6609dd96d017","ios":"levelo://app?vid=eadcf468-9c9a-4414-a6d7-6609dd96d017"},"vehicle_type_id":"4","last_reported":1743030563,"current_range_meters":10800,"station_id":"ce4bhc92rcd13ifvqetg","pricing_plan_id":"cebpf4jnsgd1na2vs0mg"},{"bike_id":"da02046a-e8be-4732-a814-bea47c0457a4","system_id":"levelo_inurba_marseille","lat":43.31097,"lon":5.38348,"is_reserved":false,"is_disabled":true,"rental_uris":{"android":"levelo://app?vid=da02046a-e8be-4732-a814-bea47c0457a4","ios":"levelo://app?vid=da02046a-e8be-4732-a814-bea47c0457a4"},"vehicle_type_id":"4","last_reported":1743030563,"current_range_meters":10800,"station_id":"ce4bgv92rcd13ifvqcr0","pricing_plan_id":"cebpf4jnsgd1na2vs0mg"},{"bike_id":"c352e1ed-78ed-468e-8b79-af654a4f6177","system_id":"levelo_inurba_marseille","lat":43.28854,"lon":5.3932,"is_reserved":false,"is_disabled":false,"rental_uris":{"android":"levelo://app?vid=c352e1ed-78ed-468e-8b79-af654a4f6177","ios":"levelo://app?vid=c352e1ed-78ed-468e-8b79-af654a4f6177"},"vehicle_type_id":"4","last_reported":1743030563,"current_range_meters":10800,"station_id":"ce4bh2p2rcd13ifvqdi0","pricing_plan_id":"cebpf4jnsgd1na2vs0mg"},{"bike_id":"2f69c259-678f-4dc6-9847-fd43204ee42a","system_id":"levelo_inurba_marseille","lat":43.25085,"lon":5.3952,"is_reserved":false,"is_disabled":false,"rental_uris":{"android":"levelo://app?vid=2f69c259-678f-4dc6-9847-fd43204ee42a","ios":"levelo://app?vid=2f69c259-678f-4dc6-9847-fd43204ee42a"},"vehicle_type_id":"4","last_reported":1743030563,"current_range_meters":10800,"station_id":"ce4bhm12rcd13ifvqgkg","pricing_plan_id":"cebpf4jnsgd1na2vs0mg"},{"bike_id":"04146b82-3b61-4336-b474-7fb27e97d80e","system_id":"levelo_inurba_marseille","lat":43.28024,"lon":5.36949,"is_reserved":false,"is_disabled":false,"rental_uris":{"android":"levelo://app?vid=04146b82-3b61-4336-b474-7fb27e97d80e","ios":"levelo://app?vid=04146b82-3b61-4336-b474-7fb27e97d80e"},"vehicle_type_id":"4","last_reported":1743030563,"current_range_meters":11200,"station_id":"ce4bha12rcd13ifvqef0","pricing_plan_id":"cebpf4jnsgd1na2vs0mg"},{"bike_id":"0efa9a85-a950-471a-88a8-073f5726d25d","system_id":"levelo_inurba_marseille","lat":43.29251,"lon":5.3844,"is_reserved":false,"is_disabled":true,"rental_uris":{"android":"levelo://app?vid=0efa9a85-a950-471a-88a8-073f5726d25d","ios":"levelo://app?vid=0efa9a85-a950-471a-88a8-073f5726d25d"},"vehicle_type_id":"4","last_reported":1743030563,"current_range_meters":11200,"station_id":"ce4bh692rcd13ifvqea0","pricing_plan_id":"cebpf4jnsgd1na2vs0mg"},{"bike_id":"7ecdf1eb-1860-4582-8c16-fac7ab531f07","system_id":"levelo_inurba_marseille","lat":43.31316,"lon":5.39696,"is_reserved":false,"is_disabled":false,"rental_uris":{"android":"levelo://app?vid=7ecdf1eb-1860-4582-8c16-fac7ab531f07","ios":"levelo://app?vid=7ecdf1eb-1860-4582-8c16-fac7ab531f07"},"vehicle_type_id":"4","last_reported":1743030563,"current_range_meters":11200,"station_id":"ce4bgvp2rcd13ifvqcu0","pricing_plan_id":"cebpf4jnsgd1na2vs0mg"},{"bike_id":"72ff2873-eb3d-4526-97dc-a6ed38586447","system_id":"levelo_inurba_marseille","lat":43.278226,"lon":5.407182,"is_reserved":false,"is_disabled":false,"rental_uris":{"android":"levelo://app?vid=72ff2873-eb3d-4526-97dc-a6ed38586447","ios":"levelo://app?vid=72ff2873-eb3d-4526-97dc-a6ed38586447"},"vehicle_type_id":"4","last_reported":1743030563,"current_range_meters":11200,"station_id":"ce4bhnh2rcd13ifvqgtg","pricing_plan_id":"cebpf4jnsgd1na2vs0mg"},{"bike_id":"36fba024-c9eb-4ff6-a35c-b55c3c0dda63","system_id":"levelo_inurba_marseille","lat":43.24674,"lon":5.38152,"is_reserved":false,"is_disabled":false,"rental_uris":{"android":"levelo://app?vid=36fba024-c9eb-4ff6-a35c-b55c3c0dda63","ios":"levelo://app?vid=36fba024-c9eb-4ff6-a35c-b55c3c0dda63"},"vehicle_type_id":"4","last_reported":1743030563,"current_range_meters":11200,"station_id":"ce4bhih2rcd13ifvqfr0","pricing_plan_id":"cebpf4jnsgd1na2vs0mg"},{"bike_id":"46abc687-cc63-467d-9328-afe177712ecf","system_id":"levelo_inurba_marseille","lat":43.30862,"lon":5.39672,"is_reserved":false,"is_disabled":false,"rental_uris":{"android":"levelo://app?vid=46abc687-cc63-467d-9328-afe177712ecf","ios":"levelo://app?vid=46abc687-cc63-467d-9328-afe177712ecf"},"vehicle_type_id":"4","last_reported":1743030563,"current_range_meters":11200,"station_id":"ce4bh012rcd13ifvqcv0","pricing_plan_id":"cebpf4jnsgd1na2vs0mg"},{"bike_id":"46bc7627-5963-437b-83ed-b3f9497370e8","system_id":"levelo_inurba_marseille","lat":43.299085,"lon":5.43662,"is_reserved":false,"is_disabled":false,"rental_uris":{"android":"levelo://app?vid=46bc7627-5963-437b-83ed-b3f9497370e8","ios":"levelo://app?vid=46bc7627-5963-437b-83ed-b3f9497370e8"},"vehicle_type_id":"4","last_reported":1743030563,"current_range_meters":11200,"station_id":"ce4bhpp2rcd13ifvqhfg","pricing_plan_id":"cebpf4jnsgd1na2vs0mg"},{"bike_id":"3b2e9843-b1c3-484f-9767-13bc20f0e0c2","system_id":"levelo_inurba_marseille","lat":43.2943,"lon":5.38578,"is_reserved":false,"is_disabled":false,"rental_uris":{"android":"levelo://app?vid=3b2e9843-b1c3-484f-9767-13bc20f0e0c2","ios":"levelo://app?vid=3b2e9843-b1c3-484f-9767-13bc20f0e0c2"},"vehicle_type_id":"4","last_reported":1743030563,"current_range_meters":11200,"station_id":"ce4bh2h2rcd13ifvqdh0","pricing_plan_id":"cebpf4jnsgd1na2vs0mg"},{"bike_id":"51812073-3de2-4905-a6fe-d16858cfd436","system_id":"levelo_inurba_marseille","lat":43.2977,"lon":5.39396,"is_reserved":false,"is_disabled":false,"rental_uris":{"android":"levelo://app?vid=51812073-3de2-4905-a6fe-d16858cfd436","ios":"levelo://app?vid=51812073-3de2-4905-a6fe-d16858cfd436"},"vehicle_type_id":"4","last_reported":1743030563,"current_range_meters":11200,"station_id":"chh1huq6cuj3fo74tm60","pricing_plan_id":"cebpf4jnsgd1na2vs0mg"},{"bike_id":"81f38ba2-245e-46e2-a32a-b658925f22e6","system_id":"levelo_inurba_marseille","lat":43.31327,"lon":5.39691,"is_reserved":false,"is_disabled":false,"rental_uris":{"android":"levelo://app?vid=81f38ba2-245e-46e2-a32a-b658925f22e6","ios":"levelo://app?vid=81f38ba2-245e-46e2-a32a-b658925f22e6"},"vehicle_type_id":"4","last_reported":1743030563,"current_range_meters":11200,"station_id":"ce4bgvp2rcd13ifvqcu0","pricing_plan_id":"cebpf4jnsgd1na2vs0mg"},{"bike_id":"c06478ed-7318-40b2-8459-0a3e5a6c5127","system_id":"levelo_inurba_marseille","lat":43.30216,"lon":5.39481,"is_reserved":false,"is_disabled":false,"rental_uris":{"android":"levelo://app?vid=c06478ed-7318-40b2-8459-0a3e5a6c5127","ios":"levelo://app?vid=c06478ed-7318-40b2-8459-0a3e5a6c5127"},"vehicle_type_id":"4","last_reported":1743030563,"current_range_meters":11200,"station_id":"ce4bh0p2rcd13ifvqd70","pricing_plan_id":"cebpf4jnsgd1na2vs0mg"},{"bike_id":"8e6e3bce-7dca-4d93-b80d-7989d287a91c","system_id":"levelo_inurba_marseille","lat":43.25023,"lon":5.38937,"is_reserved":false,"is_disabled":false,"rental_uris":{"android":"levelo://app?vid=8e6e3bce-7dca-4d93-b80d-7989d287a91c","ios":"levelo://app?vid=8e6e3bce-7dca-4d93-b80d-7989d287a91c"},"vehicle_type_id":"4","last_reported":1743030563,"current_range_meters":11200,"station_id":"ce4bhgp2rcd13ifvqfd0","pricing_plan_id":"cebpf4jnsgd1na2vs0mg"},{"bike_id":"bc730583-7b91-42f4-af40-6154b03ad6ac","system_id":"levelo_inurba_marseille","lat":43.30947,"lon":5.40129,"is_reserved":false,"is_disabled":false,"rental_uris":{"android":"levelo://app?vid=bc730583-7b91-42f4-af40-6154b03ad6ac","ios":"levelo://app?vid=bc730583-7b91-42f4-af40-6154b03ad6ac"},"vehicle_type_id":"4","last_reported":1743030563,"current_range_meters":11600,"station_id":"ce4bgvp2rcd13ifvqct0","pricing_plan_id":"cebpf4jnsgd1na2vs0mg"},{"bike_id":"01b65fe0-477b-43d3-b293-656978e0ca44","system_id":"levelo_inurba_marseille","lat":43.28664,"lon":5.36357,"is_reserved":false,"is_disabled":false,"rental_uris":{"android":"levelo://app?vid=01b65fe0-477b-43d3-b293-656978e0ca44","ios":"levelo://app?vid=01b65fe0-477b-43d3-b293-656978e0ca44"},"vehicle_type_id":"4","last_reported":1743030563,"current_range_meters":11600,"station_id":"ce4bhah2rcd13ifvqej0","pricing_plan_id":"cebpf4jnsgd1na2vs0mg"},{"bike_id":"40cdd24c-62ce-4570-9b9b-59f9bc4ad149","system_id":"levelo_inurba_marseille","lat":43.30931,"lon":5.40142,"is_reserved":false,"is_disabled":false,"rental_uris":{"android":"levelo://app?vid=40cdd24c-62ce-4570-9b9b-59f9bc4ad149","ios":"levelo://app?vid=40cdd24c-62ce-4570-9b9b-59f9bc4ad149"},"vehicle_type_id":"4","last_reported":1743030563,"current_range_meters":11600,"station_id":"ce4bgvp2rcd13ifvqct0","pricing_plan_id":"cebpf4jnsgd1na2vs0mg"},{"bike_id":"88d6965b-35b9-4a77-bbe7-48f3936aa54f","system_id":"levelo_inurba_marseille","lat":43.27202,"lon":5.41007,"is_reserved":false,"is_disabled":false,"rental_uris":{"android":"levelo://app?vid=88d6965b-35b9-4a77-bbe7-48f3936aa54f","ios":"levelo://app?vid=88d6965b-35b9-4a77-bbe7-48f3936aa54f"},"vehicle_type_id":"4","last_reported":1743030563,"current_range_meters":11600,"station_id":"ce4bhl12rcd13ifvqgf0","pricing_plan_id":"cebpf4jnsgd1na2vs0mg"},{"bike_id":"78e8f626-0a9f-4882-bad8-878b14e48f92","system_id":"levelo_inurba_marseille","lat":43.28453,"lon":5.35882,"is_reserved":false,"is_disabled":false,"rental_uris":{"android":"levelo://app?vid=78e8f626-0a9f-4882-bad8-878b14e48f92","ios":"levelo://app?vid=78e8f626-0a9f-4882-bad8-878b14e48f92"},"vehicle_type_id":"4","last_reported":1743030563,"current_range_meters":11600,"station_id":"ce4bhah2rcd13ifvqei0","pricing_plan_id":"cebpf4jnsgd1na2vs0mg"},{"bike_id":"ecbc6532-c0a4-4c26-8397-4c53c3bf0145","system_id":"levelo_inurba_marseille","lat":43.29643,"lon":5.4061,"is_reserved":false,"is_disabled":false,"rental_uris":{"android":"levelo://app?vid=ecbc6532-c0a4-4c26-8397-4c53c3bf0145","ios":"levelo://app?vid=ecbc6532-c0a4-4c26-8397-4c53c3bf0145"},"vehicle_type_id":"4","last_reported":1743030563,"current_range_meters":11600,"station_id":"ce4bh0h2rcd13ifvqd60","pricing_plan_id":"cebpf4jnsgd1na2vs0mg"},{"bike_id":"334a7325-0661-4838-9731-7399e636f180","system_id":"levelo_inurba_marseille","lat":43.27614,"lon":5.38864,"is_reserved":false,"is_disabled":false,"rental_uris":{"android":"levelo://app?vid=334a7325-0661-4838-9731-7399e636f180","ios":"levelo://app?vid=334a7325-0661-4838-9731-7399e636f180"},"vehicle_type_id":"4","last_reported":1743030563,"current_range_meters":11600,"station_id":"ce4bhi12rcd13ifvqfo0","pricing_plan_id":"cebpf4jnsgd1na2vs0mg"},{"bike_id":"92ebc5a6-0d9f-45da-9a83-4dce7e1f76a7","system_id":"levelo_inurba_marseille","lat":43.31165,"lon":5.38727,"is_reserved":false,"is_disabled":false,"rental_uris":{"android":"levelo://app?vid=92ebc5a6-0d9f-45da-9a83-4dce7e1f76a7","ios":"levelo://app?vid=92ebc5a6-0d9f-45da-9a83-4dce7e1f76a7"},"vehicle_type_id":"4","last_reported":1743030563,"current_range_meters":11600,"station_id":"ce4bgv12rcd13ifvqcp0","pricing_plan_id":"cebpf4jnsgd1na2vs0mg"},{"bike_id":"7a3dc8a9-b060-4ba6-9653-7b31fcad2624","system_id":"levelo_inurba_marseille","lat":43.29512,"lon":5.39403,"is_reserved":false,"is_disabled":false,"rental_uris":{"android":"levelo://app?vid=7a3dc8a9-b060-4ba6-9653-7b31fcad2624","ios":"levelo://app?vid=7a3dc8a9-b060-4ba6-9653-7b31fcad2624"},"vehicle_type_id":"4","last_reported":1743030563,"current_range_meters":11600,"station_id":"ce4bh292rcd13ifvqdf0","pricing_plan_id":"cebpf4jnsgd1na2vs0mg"},{"bike_id":"d47f8a08-fdba-472b-b4b8-90ef98ee48e2","system_id":"levelo_inurba_marseille","lat":43.30527,"lon":5.38428,"is_reserved":false,"is_disabled":false,"rental_uris":{"android":"levelo://app?vid=d47f8a08-fdba-472b-b4b8-90ef98ee48e2","ios":"levelo://app?vid=d47f8a08-fdba-472b-b4b8-90ef98ee48e2"},"vehicle_type_id":"4","last_reported":1743030563,"current_range_meters":12000,"station_id":"ce4bgg92rcd13ifvqb30","pricing_plan_id":"cebpf4jnsgd1na2vs0mg"},{"bike_id":"56986a0e-2950-47f8-8cb0-732f2c87953c","system_id":"levelo_inurba_marseille","lat":43.26673,"lon":5.38254,"is_reserved":false,"is_disabled":false,"rental_uris":{"android":"levelo://app?vid=56986a0e-2950-47f8-8cb0-732f2c87953c","ios":"levelo://app?vid=56986a0e-2950-47f8-8cb0-732f2c87953c"},"vehicle_type_id":"4","last_reported":1743030563,"current_range_meters":12000,"station_id":"ce4bhg92rcd13ifvqf90","pricing_plan_id":"cebpf4jnsgd1na2vs0mg"},{"bike_id":"c83f3ed5-6716-4830-8a73-acfbdfedf2d0","system_id":"levelo_inurba_marseille","lat":43.27956,"lon":5.38709,"is_reserved":false,"is_disabled":false,"rental_uris":{"android":"levelo://app?vid=c83f3ed5-6716-4830-8a73-acfbdfedf2d0","ios":"levelo://app?vid=c83f3ed5-6716-4830-8a73-acfbdfedf2d0"},"vehicle_type_id":"4","last_reported":1743030563,"current_range_meters":12000,"station_id":"ce4bhg12rcd13ifvqf80","pricing_plan_id":"cebpf4jnsgd1na2vs0mg"},{"bike_id":"ca583a80-73a4-4ecc-8334-76dd5e8c6108","system_id":"levelo_inurba_marseille","lat":43.301453,"lon":5.380805,"is_reserved":false,"is_disabled":false,"rental_uris":{"android":"levelo://app?vid=ca583a80-73a4-4ecc-8334-76dd5e8c6108","ios":"levelo://app?vid=ca583a80-73a4-4ecc-8334-76dd5e8c6108"},"vehicle_type_id":"4","last_reported":1743030563,"current_range_meters":12000,"station_id":"ce4bh192rcd13ifvqdd0","pricing_plan_id":"cebpf4jnsgd1na2vs0mg"},{"bike_id":"5d97e6db-29aa-4dc3-a913-dd5ff76e3f8c","system_id":"levelo_inurba_marseille","lat":43.29421,"lon":5.386118,"is_reserved":false,"is_disabled":true,"rental_uris":{"android":"levelo://app?vid=5d97e6db-29aa-4dc3-a913-dd5ff76e3f8c","ios":"levelo://app?vid=5d97e6db-29aa-4dc3-a913-dd5ff76e3f8c"},"vehicle_type_id":"4","last_reported":1743030563,"current_range_meters":12400,"station_id":"ce4bh2h2rcd13ifvqdh0","pricing_plan_id":"cebpf4jnsgd1na2vs0mg"},{"bike_id":"1eaf6ce4-66c4-4c7b-afea-653680f1ffe5","system_id":"levelo_inurba_marseille","lat":43.30544,"lon":5.38417,"is_reserved":false,"is_disabled":false,"rental_uris":{"android":"levelo://app?vid=1eaf6ce4-66c4-4c7b-afea-653680f1ffe5","ios":"levelo://app?vid=1eaf6ce4-66c4-4c7b-afea-653680f1ffe5"},"vehicle_type_id":"4","last_reported":1743030563,"current_range_meters":12400,"station_id":"ce4bgg92rcd13ifvqb30","pricing_plan_id":"cebpf4jnsgd1na2vs0mg"},{"bike_id":"3a0c3c70-f897-42ea-adff-ea251c315b1a","system_id":"levelo_inurba_marseille","lat":43.31352,"lon":5.38487,"is_reserved":false,"is_disabled":false,"rental_uris":{"android":"levelo://app?vid=3a0c3c70-f897-42ea-adff-ea251c315b1a","ios":"levelo://app?vid=3a0c3c70-f897-42ea-adff-ea251c315b1a"},"vehicle_type_id":"4","last_reported":1743030563,"current_range_meters":12400,"station_id":"ce4bgt92rcd13ifvqcf0","pricing_plan_id":"cebpf4jnsgd1na2vs0mg"},{"bike_id":"c78da9a2-101e-42b9-8412-e94531de750c","system_id":"levelo_inurba_marseille","lat":43.30247,"lon":5.40067,"is_reserved":false,"is_disabled":false,"rental_uris":{"android":"levelo://app?vid=c78da9a2-101e-42b9-8412-e94531de750c","ios":"levelo://app?vid=c78da9a2-101e-42b9-8412-e94531de750c"},"vehicle_type_id":"4","last_reported":1743030563,"current_range_meters":12400,"station_id":"ce4bgvh2rcd13ifvqcs0","pricing_plan_id":"cebpf4jnsgd1na2vs0mg"},{"bike_id":"c18155db-65c7-4d5a-8c5b-923eb75c675d","system_id":"levelo_inurba_marseille","lat":43.32108,"lon":5.36767,"is_reserved":false,"is_disabled":false,"rental_uris":{"android":"levelo://app?vid=c18155db-65c7-4d5a-8c5b-923eb75c675d","ios":"levelo://app?vid=c18155db-65c7-4d5a-8c5b-923eb75c675d"},"vehicle_type_id":"4","last_reported":1743030563,"current_range_meters":12400,"station_id":"ce4bhrh2rcd13ifvqhug","pricing_plan_id":"cebpf4jnsgd1na2vs0mg"},{"bike_id":"5ca9ac81-53c9-444a-ab66-71f3af25a779","system_id":"levelo_inurba_marseille","lat":43.28009,"lon":5.4004,"is_reserved":false,"is_disabled":false,"rental_uris":{"android":"levelo://app?vid=5ca9ac81-53c9-444a-ab66-71f3af25a779","ios":"levelo://app?vid=5ca9ac81-53c9-444a-ab66-71f3af25a779"},"vehicle_type_id":"4","last_reported":1743030563,"current_range_meters":12400,"station_id":"ce4bho92rcd13ifvqh4g","pricing_plan_id":"cebpf4jnsgd1na2vs0mg"},{"bike_id":"71a2a3e4-736d-4eb5-b31f-32762bd6b8c3","system_id":"levelo_inurba_marseille","lat":43.29307,"lon":5.36946,"is_reserved":false,"is_disabled":false,"rental_uris":{"android":"levelo://app?vid=71a2a3e4-736d-4eb5-b31f-32762bd6b8c3","ios":"levelo://app?vid=71a2a3e4-736d-4eb5-b31f-32762bd6b8c3"},"vehicle_type_id":"4","last_reported":1743030563,"current_range_meters":12400,"station_id":"","pricing_plan_id":"cebpf4jnsgd1na2vs0mg"},{"bike_id":"6f1a4c35-2f00-4faa-b039-6440525bf2e4","system_id":"levelo_inurba_marseille","lat":43.29801,"lon":5.404112,"is_reserved":false,"is_disabled":false,"rental_uris":{"android":"levelo://app?vid=6f1a4c35-2f00-4faa-b039-6440525bf2e4","ios":"levelo://app?vid=6f1a4c35-2f00-4faa-b039-6440525bf2e4"},"vehicle_type_id":"4","last_reported":1743030563,"current_range_meters":12400,"station_id":"ce4bh112rcd13ifvqd90","pricing_plan_id":"cebpf4jnsgd1na2vs0mg"},{"bike_id":"ac866314-bf9d-4107-90af-1e6eff8175de","system_id":"levelo_inurba_marseille","lat":43.316803,"lon":5.404802,"is_reserved":false,"is_disabled":false,"rental_uris":{"android":"levelo://app?vid=ac866314-bf9d-4107-90af-1e6eff8175de","ios":"levelo://app?vid=ac866314-bf9d-4107-90af-1e6eff8175de"},"vehicle_type_id":"4","last_reported":1743030563,"current_range_meters":12800,"station_id":"ce4bh4p2rcd13ifvqe0g","pricing_plan_id":"cebpf4jnsgd1na2vs0mg"},{"bike_id":"fd5dbdf0-15bd-4c71-8811-b8dab185850d","system_id":"levelo_inurba_marseille","lat":43.289268,"lon":5.384047,"is_reserved":false,"is_disabled":false,"rental_uris":{"android":"levelo://app?vid=fd5dbdf0-15bd-4c71-8811-b8dab185850d","ios":"levelo://app?vid=fd5dbdf0-15bd-4c71-8811-b8dab185850d"},"vehicle_type_id":"4","last_reported":1743030563,"current_range_meters":12800,"station_id":"ce4bh612rcd13ifvqe6g","pricing_plan_id":"cebpf4jnsgd1na2vs0mg"},{"bike_id":"0ac88cdf-dd3a-494f-aaa5-2b24d1ce393f","system_id":"levelo_inurba_marseille","lat":43.23188,"lon":5.35651,"is_reserved":false,"is_disabled":false,"rental_uris":{"android":"levelo://app?vid=0ac88cdf-dd3a-494f-aaa5-2b24d1ce393f","ios":"levelo://app?vid=0ac88cdf-dd3a-494f-aaa5-2b24d1ce393f"},"vehicle_type_id":"4","last_reported":1743030563,"current_range_meters":12800,"station_id":"ce4bhu92rcd13ifvqi70","pricing_plan_id":"cebpf4jnsgd1na2vs0mg"},{"bike_id":"8ace7717-c45a-48f1-9668-531396bc867c","system_id":"levelo_inurba_marseille","lat":43.27813,"lon":5.40695,"is_reserved":false,"is_disabled":false,"rental_uris":{"android":"levelo://app?vid=8ace7717-c45a-48f1-9668-531396bc867c","ios":"levelo://app?vid=8ace7717-c45a-48f1-9668-531396bc867c"},"vehicle_type_id":"4","last_reported":1743030563,"current_range_meters":12800,"station_id":"ce4bhnh2rcd13ifvqgtg","pricing_plan_id":"cebpf4jnsgd1na2vs0mg"},{"bike_id":"a3e33307-29fc-40c5-8f9e-ebcba62a2490","system_id":"levelo_inurba_marseille","lat":43.31398,"lon":5.39795,"is_reserved":false,"is_disabled":false,"rental_uris":{"android":"levelo://app?vid=a3e33307-29fc-40c5-8f9e-ebcba62a2490","ios":"levelo://app?vid=a3e33307-29fc-40c5-8f9e-ebcba62a2490"},"vehicle_type_id":"4","last_reported":1743030563,"current_range_meters":13600,"station_id":"ce4bgvp2rcd13ifvqcu0","pricing_plan_id":"cebpf4jnsgd1na2vs0mg"},{"bike_id":"395c8128-6668-4fea-a2a8-183582182c86","system_id":"levelo_inurba_marseille","lat":43.248163,"lon":5.37449,"is_reserved":false,"is_disabled":false,"rental_uris":{"android":"levelo://app?vid=395c8128-6668-4fea-a2a8-183582182c86","ios":"levelo://app?vid=395c8128-6668-4fea-a2a8-183582182c86"},"vehicle_type_id":"4","last_reported":1743030563,"current_range_meters":13600,"station_id":"ce4bhgh2rcd13ifvqfb0","pricing_plan_id":"cebpf4jnsgd1na2vs0mg"},{"bike_id":"6e208957-05d3-430b-8247-5e3338f51f57","system_id":"levelo_inurba_marseille","lat":43.299018,"lon":5.381334,"is_reserved":false,"is_disabled":true,"rental_uris":{"android":"levelo://app?vid=6e208957-05d3-430b-8247-5e3338f51f57","ios":"levelo://app?vid=6e208957-05d3-430b-8247-5e3338f51f57"},"vehicle_type_id":"4","last_reported":1743030563,"current_range_meters":13600,"station_id":"ce4bgj12rcd13ifvqbc0","pricing_plan_id":"cebpf4jnsgd1na2vs0mg"},{"bike_id":"ae1cb044-1267-46d3-955d-17f27576ac8f","system_id":"levelo_inurba_marseille","lat":43.28692,"lon":5.37394,"is_reserved":false,"is_disabled":false,"rental_uris":{"android":"levelo://app?vid=ae1cb044-1267-46d3-955d-17f27576ac8f","ios":"levelo://app?vid=ae1cb044-1267-46d3-955d-17f27576ac8f"},"vehicle_type_id":"4","last_reported":1743030563,"current_range_meters":13600,"station_id":"ce4bh3p2rcd13ifvqdq0","pricing_plan_id":"cebpf4jnsgd1na2vs0mg"},{"bike_id":"66e58a5f-3028-4234-b1e9-9dba949dad9d","system_id":"levelo_inurba_marseille","lat":43.31165,"lon":5.38725,"is_reserved":false,"is_disabled":false,"rental_uris":{"android":"levelo://app?vid=66e58a5f-3028-4234-b1e9-9dba949dad9d","ios":"levelo://app?vid=66e58a5f-3028-4234-b1e9-9dba949dad9d"},"vehicle_type_id":"4","last_reported":1743030563,"current_range_meters":13600,"station_id":"ce4bgv12rcd13ifvqcp0","pricing_plan_id":"cebpf4jnsgd1na2vs0mg"},{"bike_id":"75c7187b-7cb5-4136-b180-795a32bcbe1d","system_id":"levelo_inurba_marseille","lat":43.27974,"lon":5.38589,"is_reserved":false,"is_disabled":true,"rental_uris":{"android":"levelo://app?vid=75c7187b-7cb5-4136-b180-795a32bcbe1d","ios":"levelo://app?vid=75c7187b-7cb5-4136-b180-795a32bcbe1d"},"vehicle_type_id":"4","last_reported":1743030563,"current_range_meters":13600,"station_id":"","pricing_plan_id":"cebpf4jnsgd1na2vs0mg"},{"bike_id":"1b036368-9f49-48a1-b87f-7e268d514fd1","system_id":"levelo_inurba_marseille","lat":43.28942,"lon":5.36408,"is_reserved":false,"is_disabled":false,"rental_uris":{"android":"levelo://app?vid=1b036368-9f49-48a1-b87f-7e268d514fd1","ios":"levelo://app?vid=1b036368-9f49-48a1-b87f-7e268d514fd1"},"vehicle_type_id":"4","last_reported":1743030563,"current_range_meters":13600,"station_id":"ce4bhc92rcd13ifvqetg","pricing_plan_id":"cebpf4jnsgd1na2vs0mg"},{"bike_id":"181b29e9-16fe-4559-9b24-eb1130bfc90a","system_id":"levelo_inurba_marseille","lat":43.2835,"lon":5.3812,"is_reserved":false,"is_disabled":false,"rental_uris":{"android":"levelo://app?vid=181b29e9-16fe-4559-9b24-eb1130bfc90a","ios":"levelo://app?vid=181b29e9-16fe-4559-9b24-eb1130bfc90a"},"vehicle_type_id":"4","last_reported":1743030563,"current_range_meters":13600,"station_id":"ce4bh412rcd13ifvqdr0","pricing_plan_id":"cebpf4jnsgd1na2vs0mg"},{"bike_id":"5c845d19-7a6c-4d08-bc49-add0672bea86","system_id":"levelo_inurba_marseille","lat":43.30878,"lon":5.39636,"is_reserved":false,"is_disabled":false,"rental_uris":{"android":"levelo://app?vid=5c845d19-7a6c-4d08-bc49-add0672bea86","ios":"levelo://app?vid=5c845d19-7a6c-4d08-bc49-add0672bea86"},"vehicle_type_id":"4","last_reported":1743030563,"current_range_meters":13600,"station_id":"ce4bh012rcd13ifvqcv0","pricing_plan_id":"cebpf4jnsgd1na2vs0mg"},{"bike_id":"03fcd15e-64d1-4236-82cf-6968047d6073","system_id":"levelo_inurba_marseille","lat":43.30806,"lon":5.38143,"is_reserved":false,"is_disabled":false,"rental_uris":{"android":"levelo://app?vid=03fcd15e-64d1-4236-82cf-6968047d6073","ios":"levelo://app?vid=03fcd15e-64d1-4236-82cf-6968047d6073"},"vehicle_type_id":"4","last_reported":1743030563,"current_range_meters":14000,"station_id":"ce4bgt12rcd13ifvqce0","pricing_plan_id":"cebpf4jnsgd1na2vs0mg"},{"bike_id":"e8cd2b3b-7a12-414d-9bce-90fb23119b1b","system_id":"levelo_inurba_marseille","lat":43.29621,"lon":5.37161,"is_reserved":false,"is_disabled":false,"rental_uris":{"android":"levelo://app?vid=e8cd2b3b-7a12-414d-9bce-90fb23119b1b","ios":"levelo://app?vid=e8cd2b3b-7a12-414d-9bce-90fb23119b1b"},"vehicle_type_id":"4","last_reported":1743030563,"current_range_meters":14000,"station_id":"ce4bgnh2rcd13ifvqc0g","pricing_plan_id":"cebpf4jnsgd1na2vs0mg"},{"bike_id":"f27f4e2d-79ee-4ac0-a91a-21e079f77825","system_id":"levelo_inurba_marseille","lat":43.32013,"lon":5.38147,"is_reserved":false,"is_disabled":false,"rental_uris":{"android":"levelo://app?vid=f27f4e2d-79ee-4ac0-a91a-21e079f77825","ios":"levelo://app?vid=f27f4e2d-79ee-4ac0-a91a-21e079f77825"},"vehicle_type_id":"4","last_reported":1743030563,"current_range_meters":14000,"station_id":"ce4bhr12rcd13ifvqhpg","pricing_plan_id":"cebpf4jnsgd1na2vs0mg"},{"bike_id":"379879bf-1f7f-45f5-9cac-b09d574b3620","system_id":"levelo_inurba_marseille","lat":43.278175,"lon":5.40712,"is_reserved":false,"is_disabled":false,"rental_uris":{"android":"levelo://app?vid=379879bf-1f7f-45f5-9cac-b09d574b3620","ios":"levelo://app?vid=379879bf-1f7f-45f5-9cac-b09d574b3620"},"vehicle_type_id":"4","last_reported":1743030563,"current_range_meters":14000,"station_id":"ce4bhnh2rcd13ifvqgtg","pricing_plan_id":"cebpf4jnsgd1na2vs0mg"},{"bike_id":"a775bff2-22ab-4135-bf19-be293c4a554e","system_id":"levelo_inurba_marseille","lat":43.278236,"lon":5.407264,"is_reserved":false,"is_disabled":false,"rental_uris":{"android":"levelo://app?vid=a775bff2-22ab-4135-bf19-be293c4a554e","ios":"levelo://app?vid=a775bff2-22ab-4135-bf19-be293c4a554e"},"vehicle_type_id":"4","last_reported":1743030563,"current_range_meters":14000,"station_id":"ce4bhnh2rcd13ifvqgtg","pricing_plan_id":"cebpf4jnsgd1na2vs0mg"},{"bike_id":"fc8e8371-f4e9-4721-bc19-563801e389dc","system_id":"levelo_inurba_marseille","lat":43.337444,"lon":5.374475,"is_reserved":false,"is_disabled":false,"rental_uris":{"android":"levelo://app?vid=fc8e8371-f4e9-4721-bc19-563801e389dc","ios":"levelo://app?vid=fc8e8371-f4e9-4721-bc19-563801e389dc"},"vehicle_type_id":"4","last_reported":1743030563,"current_range_meters":14000,"station_id":"","pricing_plan_id":"cebpf4jnsgd1na2vs0mg"},{"bike_id":"6d1a4408-f3fb-461d-b18d-a5d8df7692e3","system_id":"levelo_inurba_marseille","lat":43.30927,"lon":5.40169,"is_reserved":false,"is_disabled":false,"rental_uris":{"android":"levelo://app?vid=6d1a4408-f3fb-461d-b18d-a5d8df7692e3","ios":"levelo://app?vid=6d1a4408-f3fb-461d-b18d-a5d8df7692e3"},"vehicle_type_id":"4","last_reported":1743030563,"current_range_meters":14000,"station_id":"ce4bgvp2rcd13ifvqct0","pricing_plan_id":"cebpf4jnsgd1na2vs0mg"},{"bike_id":"688f11bd-1c2b-44dc-a361-c45ea1323bb7","system_id":"levelo_inurba_marseille","lat":43.29926,"lon":5.38979,"is_reserved":false,"is_disabled":false,"rental_uris":{"android":"levelo://app?vid=688f11bd-1c2b-44dc-a361-c45ea1323bb7","ios":"levelo://app?vid=688f11bd-1c2b-44dc-a361-c45ea1323bb7"},"vehicle_type_id":"4","last_reported":1743030563,"current_range_meters":14400,"station_id":"","pricing_plan_id":"cebpf4jnsgd1na2vs0mg"},{"bike_id":"25c93242-72e6-4525-aea7-7d96e2cd1825","system_id":"levelo_inurba_marseille","lat":43.33065,"lon":5.40826,"is_reserved":false,"is_disabled":false,"rental_uris":{"android":"levelo://app?vid=25c93242-72e6-4525-aea7-7d96e2cd1825","ios":"levelo://app?vid=25c93242-72e6-4525-aea7-7d96e2cd1825"},"vehicle_type_id":"4","last_reported":1743030563,"current_range_meters":14400,"station_id":"","pricing_plan_id":"cebpf4jnsgd1na2vs0mg"},{"bike_id":"1d53529c-ce96-4513-83b9-d3552e9a37c2","system_id":"levelo_inurba_marseille","lat":43.27832,"lon":5.39202,"is_reserved":false,"is_disabled":false,"rental_uris":{"android":"levelo://app?vid=1d53529c-ce96-4513-83b9-d3552e9a37c2","ios":"levelo://app?vid=1d53529c-ce96-4513-83b9-d3552e9a37c2"},"vehicle_type_id":"4","last_reported":1743030563,"current_range_meters":14400,"station_id":"ce4bhjp2rcd13ifvqga0","pricing_plan_id":"cebpf4jnsgd1na2vs0mg"},{"bike_id":"64f0ea86-1180-4755-95e1-3cbc9c8d4cf5","system_id":"levelo_inurba_marseille","lat":43.33001,"lon":5.43844,"is_reserved":false,"is_disabled":true,"rental_uris":{"android":"levelo://app?vid=64f0ea86-1180-4755-95e1-3cbc9c8d4cf5","ios":"levelo://app?vid=64f0ea86-1180-4755-95e1-3cbc9c8d4cf5"},"vehicle_type_id":"4","last_reported":1743030563,"current_range_meters":14400,"station_id":"","pricing_plan_id":"cebpf4jnsgd1na2vs0mg"},{"bike_id":"5018a59b-b386-4e99-b26c-192a8f1ed783","system_id":"levelo_inurba_marseille","lat":43.33337,"lon":5.35912,"is_reserved":false,"is_disabled":false,"rental_uris":{"android":"levelo://app?vid=5018a59b-b386-4e99-b26c-192a8f1ed783","ios":"levelo://app?vid=5018a59b-b386-4e99-b26c-192a8f1ed783"},"vehicle_type_id":"4","last_reported":1743030563,"current_range_meters":14400,"station_id":"","pricing_plan_id":"cebpf4jnsgd1na2vs0mg"},{"bike_id":"0f234e82-6eca-409d-9cb7-b29704ec3547","system_id":"levelo_inurba_marseille","lat":43.28729,"lon":5.36077,"is_reserved":false,"is_disabled":false,"rental_uris":{"android":"levelo://app?vid=0f234e82-6eca-409d-9cb7-b29704ec3547","ios":"levelo://app?vid=0f234e82-6eca-409d-9cb7-b29704ec3547"},"vehicle_type_id":"4","last_reported":1743030563,"current_range_meters":14400,"station_id":"cki0cbj6b192h4jlfktg","pricing_plan_id":"cebpf4jnsgd1na2vs0mg"},{"bike_id":"65115fdd-1593-40c0-a495-94b3eedd57f8","system_id":"levelo_inurba_marseille","lat":43.24182,"lon":5.39719,"is_reserved":false,"is_disabled":false,"rental_uris":{"android":"levelo://app?vid=65115fdd-1593-40c0-a495-94b3eedd57f8","ios":"levelo://app?vid=65115fdd-1593-40c0-a495-94b3eedd57f8"},"vehicle_type_id":"4","last_reported":1743030563,"current_range_meters":14400,"station_id":"ce4bhn12rcd13ifvqgpg","pricing_plan_id":"cebpf4jnsgd1na2vs0mg"},{"bike_id":"46b47c1c-82d2-41b5-906b-0ef08dcc5da4","system_id":"levelo_inurba_marseille","lat":43.28466,"lon":5.35891,"is_reserved":false,"is_disabled":false,"rental_uris":{"android":"levelo://app?vid=46b47c1c-82d2-41b5-906b-0ef08dcc5da4","ios":"levelo://app?vid=46b47c1c-82d2-41b5-906b-0ef08dcc5da4"},"vehicle_type_id":"4","last_reported":1743030563,"current_range_meters":14800,"station_id":"ce4bhah2rcd13ifvqei0","pricing_plan_id":"cebpf4jnsgd1na2vs0mg"},{"bike_id":"ca065ff7-f860-4005-abf8-f85634523014","system_id":"levelo_inurba_marseille","lat":43.29535,"lon":5.39042,"is_reserved":false,"is_disabled":false,"rental_uris":{"android":"levelo://app?vid=ca065ff7-f860-4005-abf8-f85634523014","ios":"levelo://app?vid=ca065ff7-f860-4005-abf8-f85634523014"},"vehicle_type_id":"4","last_reported":1743030563,"current_range_meters":14800,"station_id":"ce4bh3p2rcd13ifvqdp0","pricing_plan_id":"cebpf4jnsgd1na2vs0mg"},{"bike_id":"80766474-85c0-44c4-a66d-af0f869abe8a","system_id":"levelo_inurba_marseille","lat":43.28102,"lon":5.37841,"is_reserved":false,"is_disabled":false,"rental_uris":{"android":"levelo://app?vid=80766474-85c0-44c4-a66d-af0f869abe8a","ios":"levelo://app?vid=80766474-85c0-44c4-a66d-af0f869abe8a"},"vehicle_type_id":"4","last_reported":1743030563,"current_range_meters":14800,"station_id":"ce4bha12rcd13ifvqee0","pricing_plan_id":"cebpf4jnsgd1na2vs0mg"},{"bike_id":"884b4fbf-bc25-4fea-bc7a-ca84f8ba4382","system_id":"levelo_inurba_marseille","lat":43.278286,"lon":5.39213,"is_reserved":false,"is_disabled":false,"rental_uris":{"android":"levelo://app?vid=884b4fbf-bc25-4fea-bc7a-ca84f8ba4382","ios":"levelo://app?vid=884b4fbf-bc25-4fea-bc7a-ca84f8ba4382"},"vehicle_type_id":"4","last_reported":1743030563,"current_range_meters":14400,"station_id":"ce4bhjp2rcd13ifvqga0","pricing_plan_id":"cebpf4jnsgd1na2vs0mg"},{"bike_id":"2fe546b8-fa69-42c4-ae8f-4b3f4b863d6b","system_id":"levelo_inurba_marseille","lat":43.28157,"lon":5.42647,"is_reserved":false,"is_disabled":false,"rental_uris":{"android":"levelo://app?vid=2fe546b8-fa69-42c4-ae8f-4b3f4b863d6b","ios":"levelo://app?vid=2fe546b8-fa69-42c4-ae8f-4b3f4b863d6b"},"vehicle_type_id":"4","last_reported":1743030563,"current_range_meters":14800,"station_id":"ce4bhnh2rcd13ifvqgug","pricing_plan_id":"cebpf4jnsgd1na2vs0mg"},{"bike_id":"f408f3ed-0fd5-4cd6-9bae-7da3a4cf8142","system_id":"levelo_inurba_marseille","lat":43.29728,"lon":5.36637,"is_reserved":false,"is_disabled":false,"rental_uris":{"android":"levelo://app?vid=f408f3ed-0fd5-4cd6-9bae-7da3a4cf8142","ios":"levelo://app?vid=f408f3ed-0fd5-4cd6-9bae-7da3a4cf8142"},"vehicle_type_id":"4","last_reported":1743030563,"current_range_meters":15200,"station_id":"ce4bgn12rcd13ifvqbt0","pricing_plan_id":"cebpf4jnsgd1na2vs0mg"},{"bike_id":"12de2a5d-af1a-406f-ae29-1792c23b418c","system_id":"levelo_inurba_marseille","lat":43.28413,"lon":5.34961,"is_reserved":false,"is_disabled":true,"rental_uris":{"android":"levelo://app?vid=12de2a5d-af1a-406f-ae29-1792c23b418c","ios":"levelo://app?vid=12de2a5d-af1a-406f-ae29-1792c23b418c"},"vehicle_type_id":"4","last_reported":1743030563,"current_range_meters":15200,"station_id":"ce4bhbh2rcd13ifvqepg","pricing_plan_id":"cebpf4jnsgd1na2vs0mg"},{"bike_id":"3db941ec-b056-48c9-99db-c4785bb67972","system_id":"levelo_inurba_marseille","lat":43.28714,"lon":5.40022,"is_reserved":false,"is_disabled":false,"rental_uris":{"android":"levelo://app?vid=3db941ec-b056-48c9-99db-c4785bb67972","ios":"levelo://app?vid=3db941ec-b056-48c9-99db-c4785bb67972"},"vehicle_type_id":"4","last_reported":1743030563,"current_range_meters":15200,"station_id":"ce4bho92rcd13ifvqh3g","pricing_plan_id":"cebpf4jnsgd1na2vs0mg"},{"bike_id":"3794eee4-f755-48a0-8699-76dca7fff8ee","system_id":"levelo_inurba_marseille","lat":43.21267,"lon":5.35405,"is_reserved":false,"is_disabled":false,"rental_uris":{"android":"levelo://app?vid=3794eee4-f755-48a0-8699-76dca7fff8ee","ios":"levelo://app?vid=3794eee4-f755-48a0-8699-76dca7fff8ee"},"vehicle_type_id":"4","last_reported":1743030563,"current_range_meters":15200,"station_id":"","pricing_plan_id":"cebpf4jnsgd1na2vs0mg"},{"bike_id":"e40bdbf0-10a4-4e55-b88e-4d56263e83cb","system_id":"levelo_inurba_marseille","lat":43.28708,"lon":5.39986,"is_reserved":false,"is_disabled":false,"rental_uris":{"android":"levelo://app?vid=e40bdbf0-10a4-4e55-b88e-4d56263e83cb","ios":"levelo://app?vid=e40bdbf0-10a4-4e55-b88e-4d56263e83cb"},"vehicle_type_id":"4","last_reported":1743030563,"current_range_meters":15200,"station_id":"ce4bho92rcd13ifvqh3g","pricing_plan_id":"cebpf4jnsgd1na2vs0mg"},{"bike_id":"d42dd391-4cd2-4308-8c57-800648546c51","system_id":"levelo_inurba_marseille","lat":43.31688,"lon":5.40473,"is_reserved":false,"is_disabled":false,"rental_uris":{"android":"levelo://app?vid=d42dd391-4cd2-4308-8c57-800648546c51","ios":"levelo://app?vid=d42dd391-4cd2-4308-8c57-800648546c51"},"vehicle_type_id":"4","last_reported":1743030563,"current_range_meters":15200,"station_id":"ce4bh012rcd13ifvqd00","pricing_plan_id":"cebpf4jnsgd1na2vs0mg"},{"bike_id":"e0bad167-aca7-478d-87c3-67be004ef81f","system_id":"levelo_inurba_marseille","lat":43.28846,"lon":5.39326,"is_reserved":false,"is_disabled":false,"rental_uris":{"android":"levelo://app?vid=e0bad167-aca7-478d-87c3-67be004ef81f","ios":"levelo://app?vid=e0bad167-aca7-478d-87c3-67be004ef81f"},"vehicle_type_id":"4","last_reported":1743030563,"current_range_meters":15200,"station_id":"ce4bh2p2rcd13ifvqdi0","pricing_plan_id":"cebpf4jnsgd1na2vs0mg"},{"bike_id":"4bc6d656-cec5-4197-b8aa-2089609b81be","system_id":"levelo_inurba_marseille","lat":43.30795,"lon":5.38163,"is_reserved":false,"is_disabled":false,"rental_uris":{"android":"levelo://app?vid=4bc6d656-cec5-4197-b8aa-2089609b81be","ios":"levelo://app?vid=4bc6d656-cec5-4197-b8aa-2089609b81be"},"vehicle_type_id":"4","last_reported":1743030563,"current_range_meters":15200,"station_id":"ce4bgt12rcd13ifvqce0","pricing_plan_id":"cebpf4jnsgd1na2vs0mg"},