{"last_updated":1752340120,"ttl":60,"version":"2.2","data":{"bikes":[{"bike_id":"70904a8e-489c-4a4b-8021-744d8da743b9","system_id":"levelo_inurba_marseille","lat":43.24664,"lon":5.3816,"is_reserved":false,"is_disabled":false,"rental_uris":{"android":"levelo://app?vid=70904a8e-489c-4a4b-8021-744d8da743b9","ios":"levelo://app?vid=70904a8e-489c-4a4b-8021-744d8da743b9"},"vehicle_type_id":"4","last_reported":1752340120,"current_range_meters":3200,"station_id":"ce4bhih2rcd13ifvqfr0","pricing_plan_id":"cebpf4jnsgd1na2vs0mg"},{"bike_id":"f0d11c55-903f-44db-b64b-c904cb20d481","system_id":"levelo_inurba_marseille","lat":43.29781,"lon":5.3711,"is_reserved":false,"is_disabled":false,"rental_uris":{"android":"levelo://app?vid=f0d11c55-903f-44db-b64b-c904cb20d481","ios":"levelo://app?vid=f0d11c55-903f-44db-b64b-c904cb20d481"},"vehicle_type_id":"4","last_reported":1752340120,"current_range_meters":3200,"station_id":"ce4bgop2rcd13ifvqc1g","pricing_plan_id":"cebpf4jnsgd1na2vs0mg"},{"bike_id":"3de465af-10dc-4fce-afa7-ca99fd734ee2","system_id":"levelo_inurba_marseille","lat":43.31082,"lon":5.42429,"is_reserved":false,"is_disabled":false,"rental_uris":{"android":"levelo://app?vid=3de465af-10dc-4fce-afa7-ca99fd734ee2","ios":"levelo://app?vid=3de465af-10dc-4fce-afa7-ca99fd734ee2"},"vehicle_type_id":"4","last_reported":1752340120,"current_range_meters":3200,"station_id":"ce4bhp92rcd13ifvqhag","pricing_plan_id":"cebpf4jnsgd1na2vs0mg"},{"bike_id":"7b104484-ae7b-4050-bd2a-ff3300aa92e7","system_id":"levelo_inurba_marseille","lat":43.30545,"lon":5.365609,"is_reserved":false,"is_disabled":true,"rental_uris":{"android":"levelo://app?vid=7b104484-ae7b-4050-bd2a-ff3300aa92e7","ios":"levelo://app?vid=7b104484-ae7b-4050-bd2a-ff3300aa92e7"},"vehicle_type_id":"4","last_reported":1752340120,"current_range_meters":3600,"station_id":"ce4bgs12rcd13ifvqcag","pricing_plan_id":"cebpf4jnsgd1na2vs0mg"},{"bike_id":"7b415349-857d-44ad-8926-b7a6edaa3a39","system_id":"levelo_inurba_marseille","lat":43.32549,"lon":5.41445,"is_reserved":false,"is_disabled":false,"rental_uris":{"android":"levelo://app?vid=7b415349-857d-44ad-8926-b7a6edaa3a39","ios":"levelo://app?vid=7b415349-857d-44ad-8926-b7a6edaa3a39"},"vehicle_type_id":"4","last_reported":1752340120,"current_range_meters":3200,"station_id":"ce4bhq12rcd13ifvqhhg","pricing_plan_id":"cebpf4jnsgd1na2vs0mg"},{"bike_id":"0608d800-097b-4f70-a518-7bebbd73d51f","system_id":"levelo_inurba_marseille","lat":43.31358,"lon":5.3848,"is_reserved":false,"is_disabled":true,"rental_uris":{"android":"levelo://app?vid=0608d800-097b-4f70-a518-7bebbd73d51f","ios":"levelo://app?vid=0608d800-097b-4f70-a518-7bebbd73d51f"},"vehicle_type_id":"4","last_reported":1752340120,"current_range_meters":3600,"station_id":"ce4bgt92rcd13ifvqcf0","pricing_plan_id":"cebpf4jnsgd1na2vs0mg"},{"bike_id":"7b33f566-36dc-4a15-b6f5-da60a5cfa68f","system_id":"levelo_inurba_marseille","lat":43.30151,"lon":5.38085,"is_reserved":false,"is_disabled":false,"rental_uris":{"android":"levelo://app?vid=7b33f566-36dc-4a15-b6f5-da60a5cfa68f","ios":"levelo://app?vid=7b33f566-36dc-4a15-b6f5-da60a5cfa68f"},"vehicle_type_id":"4","last_reported":1752340120,"current_range_meters":3200,"station_id":"ce4bgjp2rcd13ifvqbh0","pricing_plan_id":"cebpf4jnsgd1na2vs0mg"},{"bike_id":"0a23ef88-5cfb-4789-9363-71fce9edd6fb","system_id":"levelo_inurba_marseille","lat":43.28939,"lon":5.39636,"is_reserved":false,"is_disabled":false,"rental_uris":{"android":"levelo://app?vid=0a23ef88-5cfb-4789-9363-71fce9edd6fb","ios":"levelo://app?vid=0a23ef88-5cfb-4789-9363-71fce9edd6fb"},"vehicle_type_id":"4","last_reported":1752340120,"current_range_meters":3600,"station_id":"ce4bh3h2rcd13ifvqdn0","pricing_plan_id":"cebpf4jnsgd1na2vs0mg"},{"bike_id":"3d517fce-b306-4f19-af45-b28c90fbeab7","system_id":"levelo_inurba_marseille","lat":43.27981,"lon":5.38735,"is_reserved":false,"is_disabled":false,"rental_uris":{"android":"levelo://app?vid=3d517fce-b306-4f19-af45-b28c90fbeab7","ios":"levelo://app?vid=3d517fce-b306-4f19-af45-b28c90fbeab7"},"vehicle_type_id":"4","last_reported":1752340120,"current_range_meters":3600,"station_id":"ce4bhg12rcd13ifvqf80","pricing_plan_id":"cebpf4jnsgd1na2vs0mg"},{"bike_id":"86cb15d6-00ee-454d-860d-369179ece1b7","system_id":"levelo_inurba_marseille","lat":43.28729,"lon":5.37936,"is_reserved":false,"is_disabled":false,"rental_uris":{"android":"levelo://app?vid=86cb15d6-00ee-454d-860d-369179ece1b7","ios":"levelo://app?vid=86cb15d6-00ee-454d-860d-369179ece1b7"},"vehicle_type_id":"4","last_reported":1752340120,"current_range_meters":4000,"station_id":"ce4bh9p2rcd13ifvqec0","pricing_plan_id":"cebpf4jnsgd1na2vs0mg"},{"bike_id":"8807ce24-f57f-4234-8368-316456e886da","system_id":"levelo_inurba_marseille","lat":43.287018,"lon":5.399896,"is_reserved":false,"is_disabled":false,"rental_uris":{"android":"levelo://app?vid=8807ce24-f57f-4234-8368-316456e886da","ios":"levelo://app?vid=8807ce24-f57f-4234-8368-316456e886da"},"vehicle_type_id":"4","last_reported":1752340120,"current_range_meters":4400,"station_id":"","pricing_plan_id":"cebpf4jnsgd1na2vs0mg"},{"bike_id":"75d42979-999d-4790-9c6c-6944dae41789","system_id":"levelo_inurba_marseille","lat":43.296997,"lon":5.37685,"is_reserved":false,"is_disabled":false,"rental_uris":{"android":"levelo://app?vid=75d42979-999d-4790-9c6c-6944dae41789","ios":"levelo://app?vid=75d42979-999d-4790-9c6c-6944dae41789"},"vehicle_type_id":"4","last_reported":1752340120,"current_range_meters":4400,"station_id":"","pricing_plan_id":"cebpf4jnsgd1na2vs0mg"},{"bike_id":"f441ca75-952f-425b-aaf4-ceb630d3a62b","system_id":"levelo_inurba_marseille","lat":43.30188,"lon":5.366162,"is_reserved":false,"is_disabled":false,"rental_uris":{"android":"levelo://app?vid=f441ca75-952f-425b-aaf4-ceb630d3a62b","ios":"levelo://app?vid=f441ca75-952f-425b-aaf4-ceb630d3a62b"},"vehicle_type_id":"4","last_reported":1752340120,"current_range_meters":4800,"station_id":"ce4bgrh2rcd13ifvqc8g","pricing_plan_id":"cebpf4jnsgd1na2vs0mg"},{"bike_id":"ffea768b-86fa-4db3-920c-46cbaced9940","system_id":"levelo_inurba_marseille","lat":43.27378,"lon":5.36245,"is_reserved":false,"is_disabled":false,"rental_uris":{"android":"levelo://app?vid=ffea768b-86fa-4db3-920c-46cbaced9940","ios":"levelo://app?vid=ffea768b-86fa-4db3-920c-46cbaced9940"},"vehicle_type_id":"4","last_reported":1752340120,"current_range_meters":6000,"station_id":"ce4bhbh2rcd13ifvqeo0","pricing_plan_id":"cebpf4jnsgd1na2vs0mg"},{"bike_id":"c4cb91f3-21de-4fc5-9c62-bcf13ddf8388","system_id":"levelo_inurba_marseille","lat":43.26583,"lon":5.39026,"is_reserved":false,"is_disabled":true,"rental_uris":{"android":"levelo://app?vid=c4cb91f3-21de-4fc5-9c62-bcf13ddf8388","ios":"levelo://app?vid=c4cb91f3-21de-4fc5-9c62-bcf13ddf8388"},"vehicle_type_id":"4","last_reported":1752340120,"current_range_meters":6400,"station_id":"ce4bhe12rcd13ifvqf30","pricing_plan_id":"cebpf4jnsgd1na2vs0mg"},{"bike_id":"2346baa2-6b00-45fd-b408-226d9322baeb","system_id":"levelo_inurba_marseille","lat":43.32364,"lon":5.38881,"is_reserved":false,"is_disabled":false,"rental_uris":{"android":"levelo://app?vid=2346baa2-6b00-45fd-b408-226d9322baeb","ios":"levelo://app?vid=2346baa2-6b00-45fd-b408-226d9322baeb"},"vehicle_type_id":"4","last_reported":1752340120,"current_range_meters":6400,"station_id":"ce4bhqp2rcd13ifvqhog","pricing_plan_id":"cebpf4jnsgd1na2vs0mg"},{"bike_id":"9165fdbe-f921-4205-b431-03d81710317f","system_id":"levelo_inurba_marseille","lat":43.28707,"lon":5.39981,"is_reserved":false,"is_disabled":false,"rental_uris":{"android":"levelo://app?vid=9165fdbe-f921-4205-b431-03d81710317f","ios":"levelo://app?vid=9165fdbe-f921-4205-b431-03d81710317f"},"vehicle_type_id":"4","last_reported":1752340120,"current_range_meters":6000,"station_id":"ce4bho92rcd13ifvqh3g","pricing_plan_id":"cebpf4jnsgd1na2vs0mg"},{"bike_id":"f179940c-bbd8-4d37-934c-25c6289a52f7","system_id":"levelo_inurba_marseille","lat":43.29971,"lon":5.38484,"is_reserved":false,"is_disabled":false,"rental_uris":{"android":"levelo://app?vid=f179940c-bbd8-4d37-934c-25c6289a52f7","ios":"levelo://app?vid=f179940c-bbd8-4d37-934c-25c6289a52f7"},"vehicle_type_id":"4","last_reported":1752340120,"current_range_meters":6800,"station_id":"ce4bgj92rcd13ifvqbd0","pricing_plan_id":"cebpf4jnsgd1na2vs0mg"},{"bike_id":"4036f3ab-530d-4af6-87a2-e61d4b4c3d1c","system_id":"levelo_inurba_marseille","lat":43.25501,"lon":5.3765,"is_reserved":false,"is_disabled":false,"rental_uris":{"android":"levelo://app?vid=4036f3ab-530d-4af6-87a2-e61d4b4c3d1c","ios":"levelo://app?vid=4036f3ab-530d-4af6-87a2-e61d4b4c3d1c"},"vehicle_type_id":"4","last_reported":1752340120,"current_range_meters":6800,"station_id":"ce4bhh12rcd13ifvqff0","pricing_plan_id":"cebpf4jnsgd1na2vs0mg"},{"bike_id":"32b0ccb2-8dc9-400d-9a86-1a820506301c","system_id":"levelo_inurba_marseille","lat":43.32476,"lon":5.36559,"is_reserved":false,"is_disabled":false,"rental_uris":{"android":"levelo://app?vid=32b0ccb2-8dc9-400d-9a86-1a820506301c","ios":"levelo://app?vid=32b0ccb2-8dc9-400d-9a86-1a820506301c"},"vehicle_type_id":"4","last_reported":1752340120,"current_range_meters":0,"station_id":"ce4bhs12rcd13ifvqhvg","pricing_plan_id":"cebpf4jnsgd1na2vs0mg"},{"bike_id":"f27eeb92-a4ec-4b76-a444-4ffdc9ebb9fd","system_id":"levelo_inurba_marseille","lat":43.25122,"lon":5.40312,"is_reserved":false,"is_disabled":false,"rental_uris":{"android":"levelo://app?vid=f27eeb92-a4ec-4b76-a444-4ffdc9ebb9fd","ios":"levelo://app?vid=f27eeb92-a4ec-4b76-a444-4ffdc9ebb9fd"},"vehicle_type_id":"4","last_reported":1752340120,"current_range_meters":7200,"station_id":"ce4bhlh2rcd13ifvqgig","pricing_plan_id":"cebpf4jnsgd1na2vs0mg"},{"bike_id":"1ceec549-6ad2-421a-badb-0935dd9a8c7f","system_id":"levelo_inurba_marseille","lat":43.23968,"lon":5.36631,"is_reserved":false,"is_disabled":false,"rental_uris":{"android":"levelo://app?vid=1ceec549-6ad2-421a-badb-0935dd9a8c7f","ios":"levelo://app?vid=1ceec549-6ad2-421a-badb-0935dd9a8c7f"},"vehicle_type_id":"4","last_reported":1752340120,"current_range_meters":7200,"station_id":"ce4bhi12rcd13ifvqfp0","pricing_plan_id":"cebpf4jnsgd1na2vs0mg"},{"bike_id":"aec8715b-7dbb-4e40-b171-c4c0bebc56fb","system_id":"levelo_inurba_marseille","lat":43.289385,"lon":5.396329,"is_reserved":false,"is_disabled":false,"rental_uris":{"android":"levelo://app?vid=aec8715b-7dbb-4e40-b171-c4c0bebc56fb","ios":"levelo://app?vid=aec8715b-7dbb-4e40-b171-c4c0bebc56fb"},"vehicle_type_id":"4","last_reported":1752340120,"current_range_meters":7200,"station_id":"ce4bh3h2rcd13ifvqdn0","pricing_plan_id":"cebpf4jnsgd1na2vs0mg"},{"bike_id":"42280712-9176-47d2-862f-df469a930ed2","system_id":"levelo_inurba_marseille","lat":43.26947,"lon":5.38618,"is_reserved":false,"is_disabled":false,"rental_uris":{"android":"levelo://app?vid=42280712-9176-47d2-862f-df469a930ed2","ios":"levelo://app?vid=42280712-9176-47d2-862f-df469a930ed2"},"vehicle_type_id":"4","last_reported":1752340120,"current_range_meters":7200,"station_id":"ce4bhh92rcd13ifvqfh0","pricing_plan_id":"cebpf4jnsgd1na2vs0mg"},{"bike_id":"cb9282c9-0a04-426f-af4a-9dc494a82650","system_id":"levelo_inurba_marseille","lat":43.225037,"lon":5.347922,"is_reserved":false,"is_disabled":false,"rental_uris":{"android":"levelo://app?vid=cb9282c9-0a04-426f-af4a-9dc494a82650","ios":"levelo://app?vid=cb9282c9-0a04-426f-af4a-9dc494a82650"},"vehicle_type_id":"4","last_reported":1752340120,"current_range_meters":7200,"station_id":"","pricing_plan_id":"cebpf4jnsgd1na2vs0mg"},{"bike_id":"534ed68d-5ceb-43a8-968b-be30f01dfa74","system_id":"levelo_inurba_marseille","lat":43.28228,"lon":5.39034,"is_reserved":false,"is_disabled":false,"rental_uris":{"android":"levelo://app?vid=534ed68d-5ceb-43a8-968b-be30f01dfa74","ios":"levelo://app?vid=534ed68d-5ceb-43a8-968b-be30f01dfa74"},"vehicle_type_id":"4","last_reported":1752340120,"current_range_meters":8000,"station_id":"","pricing_plan_id":"cebpf4jnsgd1na2vs0mg"},{"bike_id":"4a11f37c-0725-404d-9ff6-465a32dd51c2","system_id":"levelo_inurba_marseille","lat":43.26196,"lon":5.37447,"is_reserved":false,"is_disabled":false,"rental_uris":{"android":"levelo://app?vid=4a11f37c-0725-404d-9ff6-465a32dd51c2","ios":"levelo://app?vid=4a11f37c-0725-404d-9ff6-465a32dd51c2"},"vehicle_type_id":"4","last_reported":1752340120,"current_range_meters":8000,"station_id":"ce4bhgp2rcd13ifvqfc0","pricing_plan_id":"cebpf4jnsgd1na2vs0mg"},{"bike_id":"3062f1aa-0d52-4103-b46f-9ad9a7fabca9","system_id":"levelo_inurba_marseille","lat":43.23963,"lon":5.36624,"is_reserved":false,"is_disabled":false,"rental_uris":{"android":"levelo://app?vid=3062f1aa-0d52-4103-b46f-9ad9a7fabca9","ios":"levelo://app?vid=3062f1aa-0d52-4103-b46f-9ad9a7fabca9"},"vehicle_type_id":"4","last_reported":1752340120,"current_range_meters":8000,"station_id":"ce4bhi12rcd13ifvqfp0","pricing_plan_id":"cebpf4jnsgd1na2vs0mg"},{"bike_id":"74ee3ae1-5722-4334-91c4-319ac3d68591","system_id":"levelo_inurba_marseille","lat":43.29978,"lon":5.38509,"is_reserved":false,"is_disabled":false,"rental_uris":{"android":"levelo://app?vid=74ee3ae1-5722-4334-91c4-319ac3d68591","ios":"levelo://app?vid=74ee3ae1-5722-4334-91c4-319ac3d68591"},"vehicle_type_id":"4","last_reported":1752340120,"current_range_meters":8000,"station_id":"ce4bgj92rcd13ifvqbd0","pricing_plan_id":"cebpf4jnsgd1na2vs0mg"},{"bike_id":"cfdba7b7-6a03-4d87-94e4-24ad2bc2ea83","system_id":"levelo_inurba_marseille","lat":43.28417,"lon":5.37505,"is_reserved":false,"is_disabled":false,"rental_uris":{"android":"levelo://app?vid=cfdba7b7-6a03-4d87-94e4-24ad2bc2ea83","ios":"levelo://app?vid=cfdba7b7-6a03-4d87-94e4-24ad2bc2ea83"},"vehicle_type_id":"4","last_reported":1752340120,"current_range_meters":8000,"station_id":"ce4bh412rcd13ifvqds0","pricing_plan_id":"cebpf4jnsgd1na2vs0mg"},{"bike_id":"264b57b4-e066-4ad8-a5c0-e9ee07aa6d0d","system_id":"levelo_inurba_marseille","lat":43.30312,"lon":5.39202,"is_reserved":false,"is_disabled":false,"rental_uris":{"android":"levelo://app?vid=264b57b4-e066-4ad8-a5c0-e9ee07aa6d0d","ios":"levelo://app?vid=264b57b4-e066-4ad8-a5c0-e9ee07aa6d0d"},"vehicle_type_id":"4","last_reported":1752340120,"current_range_meters":8000,"station_id":"ce4bgkh2rcd13ifvqbk0","pricing_plan_id":"cebpf4jnsgd1na2vs0mg"},{"bike_id":"9557170c-a1e7-4778-9b88-a5da03655029","system_id":"levelo_inurba_marseille","lat":43.25507,"lon":5.37657,"is_reserved":false,"is_disabled":false,"rental_uris":{"android":"levelo://app?vid=9557170c-a1e7-4778-9b88-a5da03655029","ios":"levelo://app?vid=9557170c-a1e7-4778-9b88-a5da03655029"},"vehicle_type_id":"4","last_reported":1752340120,"current_range_meters":8000,"station_id":"ce4bhh12rcd13ifvqff0","pricing_plan_id":"cebpf4jnsgd1na2vs0mg"},{"bike_id":"849e6770-7b75-4b24-ada7-adeb62a527aa","system_id":"levelo_inurba_marseille","lat":43.29256,"lon":5.36633,"is_reserved":false,"is_disabled":false,"rental_uris":{"android":"levelo://app?vid=849e6770-7b75-4b24-ada7-adeb62a527aa","ios":"levelo://app?vid=849e6770-7b75-4b24-ada7-adeb62a527aa"},"vehicle_type_id":"4","last_reported":1752340120,"current_range_meters":8000,"station_id":"","pricing_plan_id":"cebpf4jnsgd1na2vs0mg"},{"bike_id":"6cefb425-a782-4896-8654-54504beb1fe8","system_id":"levelo_inurba_marseille","lat":43.28944,"lon":5.36394,"is_reserved":false,"is_disabled":false,"rental_uris":{"android":"levelo://app?vid=6cefb425-a782-4896-8654-54504beb1fe8","ios":"levelo://app?vid=6cefb425-a782-4896-8654-54504beb1fe8"},"vehicle_type_id":"4","last_reported":1752340120,"current_range_meters":8400,"station_id":"ce4bhc92rcd13ifvqetg","pricing_plan_id":"cebpf4jnsgd1na2vs0mg"},{"bike_id":"2ec6f96f-72c9-4da1-94b2-e7e8692a7da7","system_id":"levelo_inurba_marseille","lat":43.3098,"lon":5.40159,"is_reserved":false,"is_disabled":false,"rental_uris":{"android":"levelo://app?vid=2ec6f96f-72c9-4da1-94b2-e7e8692a7da7","ios":"levelo://app?vid=2ec6f96f-72c9-4da1-94b2-e7e8692a7da7"},"vehicle_type_id":"4","last_reported":1752340120,"current_range_meters":8400,"station_id":"ce4bgvp2rcd13ifvqct0","pricing_plan_id":"cebpf4jnsgd1na2vs0mg"},{"bike_id":"9bd939d1-be66-472c-b481-a0e5c37204ba","system_id":"levelo_inurba_marseille","lat":43.29028,"lon":5.38129,"is_reserved":false,"is_disabled":false,"rental_uris":{"android":"levelo://app?vid=9bd939d1-be66-472c-b481-a0e5c37204ba","ios":"levelo://app?vid=9bd939d1-be66-472c-b481-a0e5c37204ba"},"vehicle_type_id":"4","last_reported":1752340120,"current_range_meters":8400,"station_id":"ce4bh4p2rcd13ifvqe1g","pricing_plan_id":"cebpf4jnsgd1na2vs0mg"},{"bike_id":"9a721a67-800d-41fb-b2c2-3309f63164c3","system_id":"levelo_inurba_marseille","lat":43.21187,"lon":5.35074,"is_reserved":false,"is_disabled":false,"rental_uris":{"android":"levelo://app?vid=9a721a67-800d-41fb-b2c2-3309f63164c3","ios":"levelo://app?vid=9a721a67-800d-41fb-b2c2-3309f63164c3"},"vehicle_type_id":"4","last_reported":1752340120,"current_range_meters":8400,"station_id":"st_cvj6sg6p6f1abm77japg","pricing_plan_id":"cebpf4jnsgd1na2vs0mg"},{"bike_id":"2f0ba75c-aff3-43f4-857b-fc7c66f4e426","system_id":"levelo_inurba_marseille","lat":43.30961,"lon":5.39029,"is_reserved":false,"is_disabled":true,"rental_uris":{"android":"levelo://app?vid=2f0ba75c-aff3-43f4-857b-fc7c66f4e426","ios":"levelo://app?vid=2f0ba75c-aff3-43f4-857b-fc7c66f4e426"},"vehicle_type_id":"4","last_reported":1752340120,"current_range_meters":8800,"station_id":"ce4bgup2rcd13ifvqco0","pricing_plan_id":"cebpf4jnsgd1na2vs0mg"},{"bike_id":"854d5dbd-9ed2-47cd-9380-9348e08a193d","system_id":"levelo_inurba_marseille","lat":43.29905,"lon":5.37473,"is_reserved":false,"is_disabled":false,"rental_uris":{"android":"levelo://app?vid=854d5dbd-9ed2-47cd-9380-9348e08a193d","ios":"levelo://app?vid=854d5dbd-9ed2-47cd-9380-9348e08a193d"},"vehicle_type_id":"4","last_reported":1752340120,"current_range_meters":9200,"station_id":"ce4bgjh2rcd13ifvqbg0","pricing_plan_id":"cebpf4jnsgd1na2vs0mg"},{"bike_id":"595e9351-a7ce-45de-8995-771f7d9fe86e","system_id":"levelo_inurba_marseille","lat":43.309243,"lon":5.378088,"is_reserved":false,"is_disabled":false,"rental_uris":{"android":"levelo://app?vid=595e9351-a7ce-45de-8995-771f7d9fe86e","ios":"levelo://app?vid=595e9351-a7ce-45de-8995-771f7d9fe86e"},"vehicle_type_id":"4","last_reported":1752340120,"current_range_meters":9200,"station_id":"","pricing_plan_id":"cebpf4jnsgd1na2vs0mg"},{"bike_id":"e3a75ee9-c614-467b-8cc2-f813bcef2ab1","system_id":"levelo_inurba_marseille","lat":43.33743,"lon":5.3919,"is_reserved":false,"is_disabled":false,"rental_uris":{"android":"levelo://app?vid=e3a75ee9-c614-467b-8cc2-f813bcef2ab1","ios":"levelo://app?vid=e3a75ee9-c614-467b-8cc2-f813bcef2ab1"},"vehicle_type_id":"4","last_reported":1752340120,"current_range_meters":9200,"station_id":"ce4bhr92rcd13ifvqhsg","pricing_plan_id":"cebpf4jnsgd1na2vs0mg"},{"bike_id":"29c45498-3d6e-4591-8151-160d6751c077","system_id":"levelo_inurba_marseille","lat":43.23186,"lon":5.39989,"is_reserved":false,"is_disabled":false,"rental_uris":{"android":"levelo://app?vid=29c45498-3d6e-4591-8151-160d6751c077","ios":"levelo://app?vid=29c45498-3d6e-4591-8151-160d6751c077"},"vehicle_type_id":"4","last_reported":1752340120,"current_range_meters":9200,"station_id":"ce4bhn12rcd13ifvqgqg","pricing_plan_id":"cebpf4jnsgd1na2vs0mg"},{"bike_id":"fcb8808f-2291-472b-bcc2-48f2e9de67da","system_id":"levelo_inurba_marseille","lat":43.28937,"lon":5.36637,"is_reserved":false,"is_disabled":false,"rental_uris":{"android":"levelo://app?vid=fcb8808f-2291-472b-bcc2-48f2e9de67da","ios":"levelo://app?vid=fcb8808f-2291-472b-bcc2-48f2e9de67da"},"vehicle_type_id":"4","last_reported":1752340120,"current_range_meters":9200,"station_id":"ce4bhap2rcd13ifvqek0","pricing_plan_id":"cebpf4jnsgd1na2vs0mg"},{"bike_id":"097106d7-0dc8-4152-8540-cae0e1de8dea","system_id":"levelo_inurba_marseille","lat":43.21191,"lon":5.3506,"is_reserved":false,"is_disabled":false,"rental_uris":{"android":"levelo://app?vid=097106d7-0dc8-4152-8540-cae0e1de8dea","ios":"levelo://app?vid=097106d7-0dc8-4152-8540-cae0e1de8dea"},"vehicle_type_id":"4","last_reported":1752340120,"current_range_meters":9600,"station_id":"st_cvj6sg6p6f1abm77japg","pricing_plan_id":"cebpf4jnsgd1na2vs0mg"},{"bike_id":"e3818bfd-0664-4747-95a3-9f52793f9808","system_id":"levelo_inurba_marseille","lat":43.30262,"lon":5.40077,"is_reserved":false,"is_disabled":false,"rental_uris":{"android":"levelo://app?vid=e3818bfd-0664-4747-95a3-9f52793f9808","ios":"levelo://app?vid=e3818bfd-0664-4747-95a3-9f52793f9808"},"vehicle_type_id":"4","last_reported":1752340120,"current_range_meters":9600,"station_id":"ce4bgvh2rcd13ifvqcs0","pricing_plan_id":"cebpf4jnsgd1na2vs0mg"},{"bike_id":"e2f752da-e901-4d34-aac3-db6a029fa1cc","system_id":"levelo_inurba_marseille","lat":43.24811,"lon":5.37456,"is_reserved":false,"is_disabled":false,"rental_uris":{"android":"levelo://app?vid=e2f752da-e901-4d34-aac3-db6a029fa1cc","ios":"levelo://app?vid=e2f752da-e901-4d34-aac3-db6a029fa1cc"},"vehicle_type_id":"4","last_reported":1752340120,"current_range_meters":9600,"station_id":"ce4bhgh2rcd13ifvqfb0","pricing_plan_id":"cebpf4jnsgd1na2vs0mg"},{"bike_id":"faa51e9f-f04e-46a1-bbda-a42cdac5a6b3","system_id":"levelo_inurba_marseille","lat":43.29199,"lon":5.35793,"is_reserved":false,"is_disabled":false,"rental_uris":{"android":"levelo://app?vid=faa51e9f-f04e-46a1-bbda-a42cdac5a6b3","ios":"levelo://app?vid=faa51e9f-f04e-46a1-bbda-a42cdac5a6b3"},"vehicle_type_id":"4","last_reported":1752340120,"current_range_meters":10000,"station_id":"ce4bhb12rcd13ifvqel0","pricing_plan_id":"cebpf4jnsgd1na2vs0mg"},{"bike_id":"46cacac0-84b7-4c70-a453-a1cb8250fb4d","system_id":"levelo_inurba_marseille","lat":43.33794,"lon":5.37421,"is_reserved":false,"is_disabled":false,"rental_uris":{"android":"levelo://app?vid=46cacac0-84b7-4c70-a453-a1cb8250fb4d","ios":"levelo://app?vid=46cacac0-84b7-4c70-a453-a1cb8250fb4d"},"vehicle_type_id":"4","last_reported":1752340120,"current_range_meters":10000,"station_id":"","pricing_plan_id":"cebpf4jnsgd1na2vs0mg"},{"bike_id":"df61839a-7a72-4634-9960-e8ea0d9a8d35","system_id":"levelo_inurba_marseille","lat":43.239474,"lon":5.366089,"is_reserved":false,"is_disabled":true,"rental_uris":{"android":"levelo://app?vid=df61839a-7a72-4634-9960-e8ea0d9a8d35","ios":"levelo://app?vid=df61839a-7a72-4634-9960-e8ea0d9a8d35"},"vehicle_type_id":"4","last_reported":1752340120,"current_range_meters":10000,"station_id":"","pricing_plan_id":"cebpf4jnsgd1na2vs0mg"},{"bike_id":"75bb1dd6-50a7-47a9-9e4b-6b29bd46237a","system_id":"levelo_inurba_marseille","lat":43.21238,"lon":5.35069,"is_reserved":false,"is_disabled":false,"rental_uris":{"android":"levelo://app?vid=75bb1dd6-50a7-47a9-9e4b-6b29bd46237a","ios":"levelo://app?vid=75bb1dd6-50a7-47a9-9e4b-6b29bd46237a"},"vehicle_type_id":"4","last_reported":1752340120,"current_range_meters":10000,"station_id":"","pricing_plan_id":"cebpf4jnsgd1na2vs0mg"},{"bike_id":"9dbd7bad-ca30-43ae-8d8f-a597179d5b51","system_id":"levelo_inurba_marseille","lat":43.28033,"lon":5.36984,"is_reserved":false,"is_disabled":true,"rental_uris":{"android":"levelo://app?vid=9dbd7bad-ca30-43ae-8d8f-a597179d5b51","ios":"levelo://app?vid=9dbd7bad-ca30-43ae-8d8f-a597179d5b51"},"vehicle_type_id":"4","last_reported":1752340120,"current_range_meters":10000,"station_id":"ce4bha12rcd13ifvqef0","pricing_plan_id":"cebpf4jnsgd1na2vs0mg"},{"bike_id":"8929c1bf-fd4d-44e4-aa66-b3eb6538c998","system_id":"levelo_inurba_marseille","lat":43.28635,"lon":5.42951,"is_reserved":false,"is_disabled":false,"rental_uris":{"android":"levelo://app?vid=8929c1bf-fd4d-44e4-aa66-b3eb6538c998","ios":"levelo://app?vid=8929c1bf-fd4d-44e4-aa66-b3eb6538c998"},"vehicle_type_id":"4","last_reported":1752340120,"current_range_meters":10800,"station_id":"","pricing_plan_id":"cebpf4jnsgd1na2vs0mg"},{"bike_id":"8c829577-a2d1-4282-927d-43cb6ee1b80a","system_id":"levelo_inurba_marseille","lat":43.293409,"lon":5.383835,"is_reserved":false,"is_disabled":false,"rental_uris":{"android":"levelo://app?vid=8c829577-a2d1-4282-927d-43cb6ee1b80a","ios":"levelo://app?vid=8c829577-a2d1-4282-927d-43cb6ee1b80a"},"vehicle_type_id":"4","last_reported":1752340120,"current_range_meters":10800,"station_id":"","pricing_plan_id":"cebpf4jnsgd1na2vs0mg"},{"bike_id":"21f51f77-8b78-488b-a42e-44d2a504cf11","system_id":"levelo_inurba_marseille","lat":43.2416,"lon":5.364,"is_reserved":false,"is_disabled":true,"rental_uris":{"android":"levelo://app?vid=21f51f77-8b78-488b-a42e-44d2a504cf11","ios":"levelo://app?vid=21f51f77-8b78-488b-a42e-44d2a504cf11"},"vehicle_type_id":"4","last_reported":1752340120,"current_range_meters":10800,"station_id":"cpo36qri1sfpv3e86is0","pricing_plan_id":"cebpf4jnsgd1na2vs0mg"},{"bike_id":"84354819-8236-4362-9c3b-c8ac10037362","system_id":"levelo_inurba_marseille","lat":43.2983,"lon":5.3828,"is_reserved":false,"is_disabled":false,"rental_uris":{"android":"levelo://app?vid=84354819-8236-4362-9c3b-c8ac10037362","ios":"levelo://app?vid=84354819-8236-4362-9c3b-c8ac10037362"},"vehicle_type_id":"4","last_reported":1752340120,"current_range_meters":11200,"station_id":"","pricing_plan_id":"cebpf4jnsgd1na2vs0mg"},{"bike_id":"8c67ce76-396e-4dab-aef6-26e08d9d2089","system_id":"levelo_inurba_marseille","lat":43.309087,"lon":5.368534,"is_reserved":false,"is_disabled":false,"rental_uris":{"android":"levelo://app?vid=8c67ce76-396e-4dab-aef6-26e08d9d2089","ios":"levelo://app?vid=8c67ce76-396e-4dab-aef6-26e08d9d2089"},"vehicle_type_id":"4","last_reported":1752340120,"current_range_meters":11200,"station_id":"ce4bgn92rcd13ifvqbvg","pricing_plan_id":"cebpf4jnsgd1na2vs0mg"},{"bike_id":"b0acdd29-d79f-412d-8f93-5f6abb4004e6","system_id":"levelo_inurba_marseille","lat":43.2963,"lon":5.37712,"is_reserved":false,"is_disabled":false,"rental_uris":{"android":"levelo://app?vid=b0acdd29-d79f-412d-8f93-5f6abb4004e6","ios":"levelo://app?vid=b0acdd29-d79f-412d-8f93-5f6abb4004e6"},"vehicle_type_id":"4","last_reported":1752340120,"current_range_meters":11200,"station_id":"ce4bgi92rcd13ifvqb90","pricing_plan_id":"cebpf4jnsgd1na2vs0mg"},{"bike_id":"18077cac-6240-4574-aa41-e0d6d67308ec","system_id":"levelo_inurba_marseille","lat":43.276211,"lon":5.361051,"is_reserved":false,"is_disabled":false,"rental_uris":{"android":"levelo://app?vid=18077cac-6240-4574-aa41-e0d6d67308ec","ios":"levelo://app?vid=18077cac-6240-4574-aa41-e0d6d67308ec"},"vehicle_type_id":"4","last_reported":1752340120,"current_range_meters":11200,"station_id":"ce4bgj92rcd13ifvqbe0","pricing_plan_id":"cebpf4jnsgd1na2vs0mg"},{"bike_id":"7ec627c0-d217-460a-bbb0-c8f39b10fbfc","system_id":"levelo_inurba_marseille","lat":43.31753,"lon":5.39015,"is_reserved":false,"is_disabled":false,"rental_uris":{"android":"levelo://app?vid=7ec627c0-d217-460a-bbb0-c8f39b10fbfc","ios":"levelo://app?vid=7ec627c0-d217-460a-bbb0-c8f39b10fbfc"},"vehicle_type_id":"4","last_reported":1752340120,"current_range_meters":11200,"station_id":"ce4bhqp2rcd13ifvqhng","pricing_plan_id":"cebpf4jnsgd1na2vs0mg"},{"bike_id":"ebb3482e-c633-402a-b25d-061a587895e4","system_id":"levelo_inurba_marseille","lat":43.27969,"lon":5.38754,"is_reserved":false,"is_disabled":false,"rental_uris":{"android":"levelo://app?vid=ebb3482e-c633-402a-b25d-061a587895e4","ios":"levelo://app?vid=ebb3482e-c633-402a-b25d-061a587895e4"},"vehicle_type_id":"4","last_reported":1752340120,"current_range_meters":11200,"station_id":"ce4bhg12rcd13ifvqf80","pricing_plan_id":"cebpf4jnsgd1na2vs0mg"},{"bike_id":"c453155a-5220-48fc-922b-600ca54f8ab5","system_id":"levelo_inurba_marseille","lat":43.286698,"lon":5.363377,"is_reserved":false,"is_disabled":true,"rental_uris":{"android":"levelo://app?vid=c453155a-5220-48fc-922b-600ca54f8ab5","ios":"levelo://app?vid=c453155a-5220-48fc-922b-600ca54f8ab5"},"vehicle_type_id":"4","last_reported":1752340120,"current_range_meters":11200,"station_id":"ce4bhah2rcd13ifvqej0","pricing_plan_id":"cebpf4jnsgd1na2vs0mg"},{"bike_id":"fa85d569-6633-4520-be1a-806d1a374cb2","system_id":"levelo_inurba_marseille","lat":43.23189,"lon":5.39982,"is_reserved":false,"is_disabled":false,"rental_uris":{"android":"levelo://app?vid=fa85d569-6633-4520-be1a-806d1a374cb2","ios":"levelo://app?vid=fa85d569-6633-4520-be1a-806d1a374cb2"},"vehicle_type_id":"4","last_reported":1752340120,"current_range_meters":6000,"station_id":"ce4bhn12rcd13ifvqgqg","pricing_plan_id":"cebpf4jnsgd1na2vs0mg"},{"bike_id":"c8066270-d106-4148-b5b7-09008fa5fbb1","system_id":"levelo_inurba_marseille","lat":43.3031,"lon":5.36889,"is_reserved":false,"is_disabled":false,"rental_uris":{"android":"levelo://app?vid=c8066270-d106-4148-b5b7-09008fa5fbb1","ios":"levelo://app?vid=c8066270-d106-4148-b5b7-09008fa5fbb1"},"vehicle_type_id":"4","last_reported":1752340120,"current_range_meters":11600,"station_id":"ce4bgqh2rcd13ifvqc5g","pricing_plan_id":"cebpf4jnsgd1na2vs0mg"},{"bike_id":"f70d4eb7-0483-4b22-b4af-6857c0805839","system_id":"levelo_inurba_marseille","lat":43.29918,"lon":5.3814,"is_reserved":false,"is_disabled":true,"rental_uris":{"android":"levelo://app?vid=f70d4eb7-0483-4b22-b4af-6857c0805839","ios":"levelo://app?vid=f70d4eb7-0483-4b22-b4af-6857c0805839"},"vehicle_type_id":"4","last_reported":1752340120,"current_range_meters":11600,"station_id":"ce4bgj12rcd13ifvqbc0","pricing_plan_id":"cebpf4jnsgd1na2vs0mg"},{"bike_id":"61198919-e72c-4fce-bc96-126627987dc0","system_id":"levelo_inurba_marseille","lat":43.2959,"lon":5.37873,"is_reserved":false,"is_disabled":false,"rental_uris":{"android":"levelo://app?vid=61198919-e72c-4fce-bc96-126627987dc0","ios":"levelo://app?vid=61198919-e72c-4fce-bc96-126627987dc0"},"vehicle_type_id":"4","last_reported":1752340120,"current_range_meters":11600,"station_id":"","pricing_plan_id":"cebpf4jnsgd1na2vs0mg"},{"bike_id":"315a5a68-06bd-4863-bd7c-2a501238c465","system_id":"levelo_inurba_marseille","lat":43.29297,"lon":5.37463,"is_reserved":false,"is_disabled":false,"rental_uris":{"android":"levelo://app?vid=315a5a68-06bd-4863-bd7c-2a501238c465","ios":"levelo://app?vid=315a5a68-06bd-4863-bd7c-2a501238c465"},"vehicle_type_id":"4","last_reported":1752340120,"current_range_meters":11600,"station_id":"ce4bgi12rcd13ifvqb70","pricing_plan_id":"cebpf4jnsgd1na2vs0mg"},{"bike_id":"dbba3321-20c7-4989-a7b5-ea9ab2c4b3e8","system_id":"levelo_inurba_marseille","lat":43.261935,"lon":5.374477,"is_reserved":false,"is_disabled":false,"rental_uris":{"android":"levelo://app?vid=dbba3321-20c7-4989-a7b5-ea9ab2c4b3e8","ios":"levelo://app?vid=dbba3321-20c7-4989-a7b5-ea9ab2c4b3e8"},"vehicle_type_id":"4","last_reported":1752340120,"current_range_meters":11600,"station_id":"ce4bhgp2rcd13ifvqfc0","pricing_plan_id":"cebpf4jnsgd1na2vs0mg"},{"bike_id":"7fd9175b-a3d2-41ef-aaae-9001592737f3","system_id":"levelo_inurba_marseille","lat":43.29695,"lon":5.37293,"is_reserved":false,"is_disabled":false,"rental_uris":{"android":"levelo://app?vid=7fd9175b-a3d2-41ef-aaae-9001592737f3","ios":"levelo://app?vid=7fd9175b-a3d2-41ef-aaae-9001592737f3"},"vehicle_type_id":"4","last_reported":1752340120,"current_range_meters":11600,"station_id":"ce4bgk12rcd13ifvqbj0","pricing_plan_id":"cebpf4jnsgd1na2vs0mg"},{"bike_id":"aaaf3e0b-dcbc-47fc-8a66-ef9abebfb1e3","system_id":"levelo_inurba_marseille","lat":43.28426,"lon":5.34984,"is_reserved":false,"is_disabled":false,"rental_uris":{"android":"levelo://app?vid=aaaf3e0b-dcbc-47fc-8a66-ef9abebfb1e3","ios":"levelo://app?vid=aaaf3e0b-dcbc-47fc-8a66-ef9abebfb1e3"},"vehicle_type_id":"4","last_reported":1752340120,"current_range_meters":12000,"station_id":"ce4bhbh2rcd13ifvqepg","pricing_plan_id":"cebpf4jnsgd1na2vs0mg"},{"bike_id":"ffe907d6-7ed9-401c-9d9c-e32dcd8dda6d","system_id":"levelo_inurba_marseille","lat":43.292668,"lon":5.384443,"is_reserved":false,"is_disabled":false,"rental_uris":{"android":"levelo://app?vid=ffe907d6-7ed9-401c-9d9c-e32dcd8dda6d","ios":"levelo://app?vid=ffe907d6-7ed9-401c-9d9c-e32dcd8dda6d"},"vehicle_type_id":"4","last_reported":1752340120,"current_range_meters":12000,"station_id":"ce4bh692rcd13ifvqea0","pricing_plan_id":"cebpf4jnsgd1na2vs0mg"},{"bike_id":"ab6cb234-c8d6-4ce4-ab4f-b14b364484d3","system_id":"levelo_inurba_marseille","lat":43.30147,"lon":5.38103,"is_reserved":false,"is_disabled":false,"rental_uris":{"android":"levelo://app?vid=ab6cb234-c8d6-4ce4-ab4f-b14b364484d3","ios":"levelo://app?vid=ab6cb234-c8d6-4ce4-ab4f-b14b364484d3"},"vehicle_type_id":"4","last_reported":1752340120,"current_range_meters":12000,"station_id":"ce4bgjp2rcd13ifvqbh0","pricing_plan_id":"cebpf4jnsgd1na2vs0mg"},{"bike_id":"e646e481-a4d6-4b85-b84d-3edc06745025","system_id":"levelo_inurba_marseille","lat":43.30612,"lon":5.39352,"is_reserved":false,"is_disabled":true,"rental_uris":{"android":"levelo://app?vid=e646e481-a4d6-4b85-b84d-3edc06745025","ios":"levelo://app?vid=e646e481-a4d6-4b85-b84d-3edc06745025"},"vehicle_type_id":"4","last_reported":1752340120,"current_range_meters":12000,"station_id":"ce4bh0p2rcd13ifvqd80","pricing_plan_id":"cebpf4jnsgd1na2vs0mg"},{"bike_id":"c2e08e84-57db-4576-ba23-ed48dd56ca5a","system_id":"levelo_inurba_marseille","lat":43.27813,"lon":5.40703,"is_reserved":false,"is_disabled":false,"rental_uris":{"android":"levelo://app?vid=c2e08e84-57db-4576-ba23-ed48dd56ca5a","ios":"levelo://app?vid=c2e08e84-57db-4576-ba23-ed48dd56ca5a"},"vehicle_type_id":"4","last_reported":1752340120,"current_range_meters":12400,"station_id":"ce4bhnh2rcd13ifvqgtg","pricing_plan_id":"cebpf4jnsgd1na2vs0mg"},{"bike_id":"036f5b4d-0498-41f3-92cb-f26dd868847e","system_id":"levelo_inurba_marseille","lat":43.30143,"lon":5.38078,"is_reserved":false,"is_disabled":false,"rental_uris":{"android":"levelo://app?vid=036f5b4d-0498-41f3-92cb-f26dd868847e","ios":"levelo://app?vid=036f5b4d-0498-41f3-92cb-f26dd868847e"},"vehicle_type_id":"4","last_reported":1752340120,"current_range_meters":12400,"station_id":"ce4bgjp2rcd13ifvqbh0","pricing_plan_id":"cebpf4jnsgd1na2vs0mg"},{"bike_id":"21a57e85-e254-4500-a792-a97fa1cc4eaa","system_id":"levelo_inurba_marseille","lat":43.28458,"lon":5.35879,"is_reserved":false,"is_disabled":false,"rental_uris":{"android":"levelo://app?vid=21a57e85-e254-4500-a792-a97fa1cc4eaa","ios":"levelo://app?vid=21a57e85-e254-4500-a792-a97fa1cc4eaa"},"vehicle_type_id":"4","last_reported":1752340120,"current_range_meters":12400,"station_id":"ce4bhah2rcd13ifvqei0","pricing_plan_id":"cebpf4jnsgd1na2vs0mg"},{"bike_id":"a9513ae4-7d38-43d1-aaa3-b3e790a36aef","system_id":"levelo_inurba_marseille","lat":43.34141,"lon":5.40909,"is_reserved":false,"is_disabled":false,"rental_uris":{"android":"levelo://app?vid=a9513ae4-7d38-43d1-aaa3-b3e790a36aef","ios":"levelo://app?vid=a9513ae4-7d38-43d1-aaa3-b3e790a36aef"},"vehicle_type_id":"4","last_reported":1752340120,"current_range_meters":12400,"station_id":"ce4bhqh2rcd13ifvqhlg","pricing_plan_id":"cebpf4jnsgd1na2vs0mg"},{"bike_id":"f814ed79-f1e3-440c-b156-f7a409e5edab","system_id":"levelo_inurba_marseille","lat":43.31115,"lon":5.4242,"is_reserved":false,"is_disabled":false,"rental_uris":{"android":"levelo://app?vid=f814ed79-f1e3-440c-b156-f7a409e5edab","ios":"levelo://app?vid=f814ed79-f1e3-440c-b156-f7a409e5edab"},"vehicle_type_id":"4","last_reported":1752340120,"current_range_meters":12800,"station_id":"ce4bhp92rcd13ifvqhag","pricing_plan_id":"cebpf4jnsgd1na2vs0mg"},{"bike_id":"900be135-a0d8-4039-befc-34a15c7dd3f3","system_id":"levelo_inurba_marseille","lat":43.2942,"lon":5.3863,"is_reserved":false,"is_disabled":false,"rental_uris":{"android":"levelo://app?vid=900be135-a0d8-4039-befc-34a15c7dd3f3","ios":"levelo://app?vid=900be135-a0d8-4039-befc-34a15c7dd3f3"},"vehicle_type_id":"4","last_reported":1752340120,"current_range_meters":12800,"station_id":"ce4bh2h2rcd13ifvqdh0","pricing_plan_id":"cebpf4jnsgd1na2vs0mg"},{"bike_id":"492a0ca2-8253-4040-a2a9-a7e1fa0bf110","system_id":"levelo_inurba_marseille","lat":43.29914,"lon":5.38137,"is_reserved":false,"is_disabled":false,"rental_uris":{"android":"levelo://app?vid=492a0ca2-8253-4040-a2a9-a7e1fa0bf110","ios":"levelo://app?vid=492a0ca2-8253-4040-a2a9-a7e1fa0bf110"},"vehicle_type_id":"4","last_reported":1752340120,"current_range_meters":12800,"station_id":"ce4bgj12rcd13ifvqbc0","pricing_plan_id":"cebpf4jnsgd1na2vs0mg"},{"bike_id":"c816310d-8ff0-4290-b10a-aad431dd902c","system_id":"levelo_inurba_marseille","lat":43.21761,"lon":5.34627,"is_reserved":false,"is_disabled":true,"rental_uris":{"android":"levelo://app?vid=c816310d-8ff0-4290-b10a-aad431dd902c","ios":"levelo://app?vid=c816310d-8ff0-4290-b10a-aad431dd902c"},"vehicle_type_id":"4","last_reported":1752340120,"current_range_meters":13600,"station_id":"st_cvj6r9ubvosntc0bgbag","pricing_plan_id":"cebpf4jnsgd1na2vs0mg"},{"bike_id":"ee5338dd-18a1-4b48-a5b0-f8c72f7b1319","system_id":"levelo_inurba_marseille","lat":43.31883,"lon":5.36789,"is_reserved":false,"is_disabled":false,"rental_uris":{"android":"levelo://app?vid=ee5338dd-18a1-4b48-a5b0-f8c72f7b1319","ios":"levelo://app?vid=ee5338dd-18a1-4b48-a5b0-f8c72f7b1319"},"vehicle_type_id":"4","last_reported":1752340120,"current_range_meters":13600,"station_id":"","pricing_plan_id":"cebpf4jnsgd1na2vs0mg"},{"bike_id":"ad3a92a9-aac6-4694-a2f3-20c935fef2b6","system_id":"levelo_inurba_marseille","lat":43.292986,"lon":5.374656,"is_reserved":false,"is_disabled":false,"rental_uris":{"android":"levelo://app?vid=ad3a92a9-aac6-4694-a2f3-20c935fef2b6","ios":"levelo://app?vid=ad3a92a9-aac6-4694-a2f3-20c935fef2b6"},"vehicle_type_id":"4","last_reported":1752340120,"current_range_meters":13600,"station_id":"","pricing_plan_id":"cebpf4jnsgd1na2vs0mg"},{"bike_id":"5a1aa169-e8de-4c42-8232-f9cf794c57f1","system_id":"levelo_inurba_marseille","lat":43.21198,"lon":5.3507,"is_reserved":false,"is_disabled":false,"rental_uris":{"android":"levelo://app?vid=5a1aa169-e8de-4c42-8232-f9cf794c57f1","ios":"levelo://app?vid=5a1aa169-e8de-4c42-8232-f9cf794c57f1"},"vehicle_type_id":"4","last_reported":1752340120,"current_range_meters":13600,"station_id":"st_cvj6sg6p6f1abm77japg","pricing_plan_id":"cebpf4jnsgd1na2vs0mg"},{"bike_id":"447e9f75-d46f-4d25-becc-c8623688d901","system_id":"levelo_inurba_marseille","lat":43.29582,"lon":5.375,"is_reserved":false,"is_disabled":false,"rental_uris":{"android":"levelo://app?vid=447e9f75-d46f-4d25-becc-c8623688d901","ios":"levelo://app?vid=447e9f75-d46f-4d25-becc-c8623688d901"},"vehicle_type_id":"4","last_reported":1752340120,"current_range_meters":13600,"station_id":"ce4bgh92rcd13ifvqb50","pricing_plan_id":"cebpf4jnsgd1na2vs0mg"},{"bike_id":"ce3b7c35-fd06-4c6c-af57-25b5524398ea","system_id":"levelo_inurba_marseille","lat":43.28286,"lon":5.3507,"is_reserved":false,"is_disabled":false,"rental_uris":{"android":"levelo://app?vid=ce3b7c35-fd06-4c6c-af57-25b5524398ea","ios":"levelo://app?vid=ce3b7c35-fd06-4c6c-af57-25b5524398ea"},"vehicle_type_id":"4","last_reported":1752340120,"current_range_meters":14000,"station_id":"ce4bhbp2rcd13ifvqerg","pricing_plan_id":"cebpf4jnsgd1na2vs0mg"},{"bike_id":"9cbd59ea-eb40-4635-a7e6-68d0ec5d1b21","system_id":"levelo_inurba_marseille","lat":43.26946,"lon":5.40249,"is_reserved":false,"is_disabled":false,"rental_uris":{"android":"levelo://app?vid=9cbd59ea-eb40-4635-a7e6-68d0ec5d1b21","ios":"levelo://app?vid=9cbd59ea-eb40-4635-a7e6-68d0ec5d1b21"},"vehicle_type_id":"4","last_reported":1752340120,"current_range_meters":14000,"station_id":"cjm6bp8fraef2m0cb0m0","pricing_plan_id":"cebpf4jnsgd1na2vs0mg"},{"bike_id":"35940318-161c-41b3-a083-9d6c8ec32d6a","system_id":"levelo_inurba_marseille","lat":43.29532,"lon":5.38538,"is_reserved":false,"is_disabled":false,"rental_uris":{"android":"levelo://app?vid=35940318-161c-41b3-a083-9d6c8ec32d6a","ios":"levelo://app?vid=35940318-161c-41b3-a083-9d6c8ec32d6a"},"vehicle_type_id":"4","last_reported":1752340120,"current_range_meters":14000,"station_id":"ce4bgih2rcd13ifvqba0","pricing_plan_id":"cebpf4jnsgd1na2vs0mg"},{"bike_id":"470d1e9d-8c05-40b8-a6b2-039f183b9f6a","system_id":"levelo_inurba_marseille","lat":43.231965,"lon":5.355547,"is_reserved":false,"is_disabled":true,"rental_uris":{"android":"levelo://app?vid=470d1e9d-8c05-40b8-a6b2-039f183b9f6a","ios":"levelo://app?vid=470d1e9d-8c05-40b8-a6b2-039f183b9f6a"},"vehicle_type_id":"4","last_reported":1752340120,"current_range_meters":14000,"station_id":"ce4bhu92rcd13ifvqi70","pricing_plan_id":"cebpf4jnsgd1na2vs0mg"},{"bike_id":"4ab59cdc-8b57-4e43-ab39-09949ea9fe4e","system_id":"levelo_inurba_marseille","lat":43.2885,"lon":5.39351,"is_reserved":false,"is_disabled":false,"rental_uris":{"android":"levelo://app?vid=4ab59cdc-8b57-4e43-ab39-09949ea9fe4e","ios":"levelo://app?vid=4ab59cdc-8b57-4e43-ab39-09949ea9fe4e"},"vehicle_type_id":"4","last_reported":1752340120,"current_range_meters":14400,"station_id":"","pricing_plan_id":"cebpf4jnsgd1na2vs0mg"},{"bike_id":"fbacda24-025c-4da3-b3df-def6e9ee4c00","system_id":"levelo_inurba_marseille","lat":43.286539,"lon":5.36355,"is_reserved":false,"is_disabled":false,"rental_uris":{"android":"levelo://app?vid=fbacda24-025c-4da3-b3df-def6e9ee4c00","ios":"levelo://app?vid=fbacda24-025c-4da3-b3df-def6e9ee4c00"},"vehicle_type_id":"4","last_reported":1752340120,"current_range_meters":14400,"station_id":"ce4bhah2rcd13ifvqej0","pricing_plan_id":"cebpf4jnsgd1na2vs0mg"},{"bike_id":"8664ad74-5e06-48d6-b211-0a4357a72a29","system_id":"levelo_inurba_marseille","lat":43.280393,"lon":5.369395,"is_reserved":false,"is_disabled":false,"rental_uris":{"android":"levelo://app?vid=8664ad74-5e06-48d6-b211-0a4357a72a29","ios":"levelo://app?vid=8664ad74-5e06-48d6-b211-0a4357a72a29"},"vehicle_type_id":"4","last_reported":1752340120,"current_range_meters":14400,"station_id":"ce4bha12rcd13ifvqef0","pricing_plan_id":"cebpf4jnsgd1na2vs0mg"},{"bike_id":"7f02047d-a6cd-43f4-a617-996f2b9a8bc8","system_id":"levelo_inurba_marseille","lat":43.32376,"lon":5.36754,"is_reserved":false,"is_disabled":false,"rental_uris":{"android":"levelo://app?vid=7f02047d-a6cd-43f4-a617-996f2b9a8bc8","ios":"levelo://app?vid=7f02047d-a6cd-43f4-a617-996f2b9a8bc8"},"vehicle_type_id":"4","last_reported":1752340120,"current_range_meters":14400,"station_id":"ce4bhsh2rcd13ifvqi2g","pricing_plan_id":"cebpf4jnsgd1na2vs0mg"},{"bike_id":"b697d361-9706-4bef-9100-05237b3be629","system_id":"levelo_inurba_marseille","lat":43.27376,"lon":5.36254,"is_reserved":false,"is_disabled":false,"rental_uris":{"android":"levelo://app?vid=b697d361-9706-4bef-9100-05237b3be629","ios":"levelo://app?vid=b697d361-9706-4bef-9100-05237b3be629"},"vehicle_type_id":"4","last_reported":1752340120,"current_range_meters":14800,"station_id":"ce4bhbh2rcd13ifvqeo0","pricing_plan_id":"cebpf4jnsgd1na2vs0mg"},{"bike_id":"f65e4b5b-c0e0-4b9f-b6b5-cab4cbd0f2a7","system_id":"levelo_inurba_marseille","lat":43.28987,"lon":5.37829,"is_reserved":false,"is_disabled":false,"rental_uris":{"android":"levelo://app?vid=f65e4b5b-c0e0-4b9f-b6b5-cab4cbd0f2a7","ios":"levelo://app?vid=f65e4b5b-c0e0-4b9f-b6b5-cab4cbd0f2a7"},"vehicle_type_id":"4","last_reported":1752340120,"current_range_meters":14800,"station_id":"ce4bh9p2rcd13ifvqed0","pricing_plan_id":"cebpf4jnsgd1na2vs0mg"},{"bike_id":"e4765748-2c3c-4c56-bd2f-43911dc59a3f","system_id":"levelo_inurba_marseille","lat":43.32337,"lon":5.40622,"is_reserved":false,"is_disabled":false,"rental_uris":{"android":"levelo://app?vid=e4765748-2c3c-4c56-bd2f-43911dc59a3f","ios":"levelo://app?vid=e4765748-2c3c-4c56-bd2f-43911dc59a3f"},"vehicle_type_id":"4","last_reported":1752340120,"current_range_meters":14800,"station_id":"ce4bhq92rcd13ifvqhjg","pricing_plan_id":"cebpf4jnsgd1na2vs0mg"},{"bike_id":"0d05e84d-10fa-41da-b241-9cfd8aee4666","system_id":"levelo_inurba_marseille","lat":43.28275,"lon":5.35061,"is_reserved":false,"is_disabled":false,"rental_uris":{"android":"levelo://app?vid=0d05e84d-10fa-41da-b241-9cfd8aee4666","ios":"levelo://app?vid=0d05e84d-10fa-41da-b241-9cfd8aee4666"},"vehicle_type_id":"4","last_reported":1752340120,"current_range_meters":14800,"station_id":"ce4bhbp2rcd13ifvqerg","pricing_plan_id":"cebpf4jnsgd1na2vs0mg"},{"bike_id":"ed6cc946-b101-40da-a0d5-71b31ffe7832","system_id":"levelo_inurba_marseille","lat":43.25497,"lon":5.37649,"is_reserved":false,"is_disabled":false,"rental_uris":{"android":"levelo://app?vid=ed6cc946-b101-40da-a0d5-71b31ffe7832","ios":"levelo://app?vid=ed6cc946-b101-40da-a0d5-71b31ffe7832"},"vehicle_type_id":"4","last_reported":1752340120,"current_range_meters":14400,"station_id":"ce4bhh12rcd13ifvqff0","pricing_plan_id":"cebpf4jnsgd1na2vs0mg"},{"bike_id":"737ead6f-e608-42f1-8a55-8949c954e8e3","system_id":"levelo_inurba_marseille","lat":43.21222,"lon":5.35067,"is_reserved":false,"is_disabled":false,"rental_uris":{"android":"levelo://app?vid=737ead6f-e608-42f1-8a55-8949c954e8e3","ios":"levelo://app?vid=737ead6f-e608-42f1-8a55-8949c954e8e3"},"vehicle_type_id":"4","last_reported":1752340120,"current_range_meters":14800,"station_id":"st_cvj6sg6p6f1abm77japg","pricing_plan_id":"cebpf4jnsgd1na2vs0mg"},{"bike_id":"5e5a439c-b01b-4697-96ca-0044c52fa333","system_id":"levelo_inurba_marseille","lat":43.30301,"lon":5.39219,"is_reserved":false,"is_disabled":false,"rental_uris":{"android":"levelo://app?vid=5e5a439c-b01b-4697-96ca-0044c52fa333","ios":"levelo://app?vid=5e5a439c-b01b-4697-96ca-0044c52fa333"},"vehicle_type_id":"4","last_reported":1752340120,"current_range_meters":15200,"station_id":"ce4bgkh2rcd13ifvqbk0","pricing_plan_id":"cebpf4jnsgd1na2vs0mg"},{"bike_id":"d7d851de-d966-47dc-9bd8-1a9ae0c433a4","system_id":"levelo_inurba_marseille","lat":43.225055,"lon":5.347843,"is_reserved":false,"is_disabled":false,"rental_uris":{"android":"levelo://app?vid=d7d851de-d966-47dc-9bd8-1a9ae0c433a4","ios":"levelo://app?vid=d7d851de-d966-47dc-9bd8-1a9ae0c433a4"},"vehicle_type_id":"4","last_reported":1752340120,"current_range_meters":15200,"station_id":"","pricing_plan_id":"cebpf4jnsgd1na2vs0mg"},{"bike_id":"51890362-46b0-4ee7-9f02-afbf036d064e","system_id":"levelo_inurba_marseille","lat":43.21204,"lon":5.3505,"is_reserved":false,"is_disabled":false,"rental_uris":{"android":"levelo://app?vid=51890362-46b0-4ee7-9f02-afbf036d064e","ios":"levelo://app?vid=51890362-46b0-4ee7-9f02-afbf036d064e"},"vehicle_type_id":"4","last_reported":1752340120,"current_range_meters":15200,"station_id":"st_cvj6sg6p6f1abm77japg","pricing_plan_id":"cebpf4jnsgd1na2vs0mg"},{"bike_id":"d3eb6ebc-944c-4672-ad0e-46dbd50d6295","system_id":"levelo_inurba_marseille","lat":43.26217,"lon":5.3744,"is_reserved":false,"is_disabled":false,"rental_uris":{"android":"levelo://app?vid=d3eb6ebc-944c-4672-ad0e-46dbd50d6295","ios":"levelo://app?vid=d3eb6ebc-944c-4672-ad0e-46dbd50d6295"},"vehicle_type_id":"4","last_reported":1752340120,"current_range_meters":15200,"station_id":"ce4bhgp2rcd13ifvqfc0","pricing_plan_id":"cebpf4jnsgd1na2vs0mg"},{"bike_id":"34e7f93c-c892-4b6d-b726-78e8129cf585","system_id":"levelo_inurba_marseille","lat":43.28437,"lon":5.3498,"is_reserved":false,"is_disabled":false,"rental_uris":{"android":"levelo://app?vid=34e7f93c-c892-4b6d-b726-78e8129cf585","ios":"levelo://app?vid=34e7f93c-c892-4b6d-b726-78e8129cf585"},"vehicle_type_id":"4","last_reported":1752340120,"current_range_meters":16000,"station_id":"ce4bhbh2rcd13ifvqepg","pricing_plan_id":"cebpf4jnsgd1na2vs0mg"},{"bike_id":"01ec080a-2072-40fe-8f02-ee71150e5d55","system_id":"levelo_inurba_marseille","lat":43.29276,"lon":5.36832,"is_reserved":false,"is_disabled":false,"rental_uris":{"android":"levelo://app?vid=01ec080a-2072-40fe-8f02-ee71150e5d55","ios":"levelo://app?vid=01ec080a-2072-40fe-8f02-ee71150e5d55"},"vehicle_type_id":"4","last_reported":1752340120,"current_range_meters":16000,"station_id":"ce4bhbp2rcd13ifvqesg","pricing_plan_id":"cebpf4jnsgd1na2vs0mg"},{"bike_id":"00bc0b3b-e317-4a17-a011-a3a9a29d816a","system_id":"levelo_inurba_marseille","lat":43.211993,"lon":5.350682,"is_reserved":false,"is_disabled":false,"rental_uris":{"android":"levelo://app?vid=00bc0b3b-e317-4a17-a011-a3a9a29d816a","ios":"levelo://app?vid=00bc0b3b-e317-4a17-a011-a3a9a29d816a"},"vehicle_type_id":"4","last_reported":1752340120,"current_range_meters":16000,"station_id":"st_cvj6sg6p6f1abm77japg","pricing_plan_id":"cebpf4jnsgd1na2vs0mg"},{"bike_id":"f46a2d62-8a11-46d0-96a8-65f79cb6dce9","system_id":"levelo_inurba_marseille","lat":43.29238,"lon":5.36043,"is_reserved":false,"is_disabled":false,"rental_uris":{"android":"levelo://app?vid=f46a2d62-8a11-46d0-96a8-65f79cb6dce9","ios":"levelo://app?vid=f46a2d62-8a11-46d0-96a8-65f79cb6dce9"},"vehicle_type_id":"4","last_reported":1752340120,"current_range_meters":16000,"station_id":"ce4bhbh2rcd13ifvqeqg","pricing_plan_id":"cebpf4jnsgd1na2vs0mg"},{"bike_id":"b59abc13-3ce4-4852-b64e-5c578ce71136","system_id":"levelo_inurba_marseille","lat":43.23196,"lon":5.3555,"is_reserved":false,"is_disabled":false,"rental_uris":{"android":"levelo://app?vid=b59abc13-3ce4-4852-b64e-5c578ce71136","ios":"levelo://app?vid=b59abc13-3ce4-4852-b64e-5c578ce71136"},"vehicle_type_id":"4","last_reported":1752340120,"current_range_meters":16000,"station_id":"ce4bhu92rcd13ifvqi70","pricing_plan_id":"cebpf4jnsgd1na2vs0mg"},{"bike_id":"49801dc2-618a-44b8-84ae-416cd87fdbe9","system_id":"levelo_inurba_marseille","lat":43.33767,"lon":5.37471,"is_reserved":false,"is_disabled":false,"rental_uris":{"android":"levelo://app?vid=49801dc2-618a-44b8-84ae-416cd87fdbe9","ios":"levelo://app?vid=49801dc2-618a-44b8-84ae-416cd87fdbe9"},"vehicle_type_id":"4","last_reported":1752340120,"current_range_meters":16000,"station_id":"","pricing_plan_id":"cebpf4jnsgd1na2vs0mg"},{"bike_id":"a0137104-c9f4-434a-a5e3-80725cd5a2b4","system_id":"levelo_inurba_marseille","lat":43.211949,"lon":5.350872,"is_reserved":false,"is_disabled":false,"rental_uris":{"android":"levelo://app?vid=a0137104-c9f4-434a-a5e3-80725cd5a2b4","ios":"levelo://app?vid=a0137104-c9f4-434a-a5e3-80725cd5a2b4"},"vehicle_type_id":"4","last_reported":1752340120,"current_range_meters":16000,"station_id":"st_cvj6sg6p6f1abm77japg","pricing_plan_id":"cebpf4jnsgd1na2vs0mg"},{"bike_id":"d277fdb5-aa42-4b76-b471-348c08370b06","system_id":"levelo_inurba_marseille","lat":43.23193,"lon":5.35552,"is_reserved":false,"is_disabled":false,"rental_uris":{"android":"levelo://app?vid=d277fdb5-aa42-4b76-b471-348c08370b06","ios":"levelo://app?vid=d277fdb5-aa42-4b76-b471-348c08370b06"},"vehicle_type_id":"4","last_reported":1752340120,"current_range_meters":16400,"station_id":"ce4bhu92rcd13ifvqi70","pricing_plan_id":"cebpf4jnsgd1na2vs0mg"},{"bike_id":"aab98c4b-ec08-4f1b-b06b-b81b97f81d2b","system_id":"levelo_inurba_marseille","lat":43.27074,"lon":5.42304,"is_reserved":false,"is_disabled":false,"rental_uris":{"android":"levelo://app?vid=aab98c4b-ec08-4f1b-b06b-b81b97f81d2b","ios":"levelo://app?vid=aab98c4b-ec08-4f1b-b06b-b81b97f81d2b"},"vehicle_type_id":"4","last_reported":1752340120,"current_range_meters":16400,"station_id":"ce4bhk92rcd13ifvqgb0","pricing_plan_id":"cebpf4jnsgd1na2vs0mg"},{"bike_id":"23884536-5695-475a-ae31-33433608e6a7","system_id":"levelo_inurba_marseille","lat":43.232,"lon":5.35566,"is_reserved":false,"is_disabled":false,"rental_uris":{"android":"levelo://app?vid=23884536-5695-475a-ae31-33433608e6a7","ios":"levelo://app?vid=23884536-5695-475a-ae31-33433608e6a7"},"vehicle_type_id":"4","last_reported":1752340120,"current_range_meters":16400,"station_id":"ce4bhu92rcd13ifvqi70","pricing_plan_id":"cebpf4jnsgd1na2vs0mg"},{"bike_id":"8b37f03f-f226-4bbc-8648-b109da7ba145","system_id":"levelo_inurba_marseille","lat":43.30536,"lon":5.366999,"is_reserved":false,"is_disabled":false,"rental_uris":{"android":"levelo://app?vid=8b37f03f-f226-4bbc-8648-b109da7ba145","ios":"levelo://app?vid=8b37f03f-f226-4bbc-8648-b109da7ba145"},"vehicle_type_id":"4","last_reported":1752340120,"current_range_meters":16400,"station_id":"","pricing_plan_id":"cebpf4jnsgd1na2vs0mg"},{"bike_id":"54c42649-7aa4-4934-92f3-a23a386f7d15","system_id":"levelo_inurba_marseille","lat":43.24173,"lon":5.36401,"is_reserved":false,"is_disabled":false,"rental_uris":{"android":"levelo://app?vid=54c42649-7aa4-4934-92f3-a23a386f7d15","ios":"levelo://app?vid=54c42649-7aa4-4934-92f3-a23a386f7d15"},"vehicle_type_id":"4","last_reported":1752340120,"current_range_meters":16400,"station_id":"cpo36qri1sfpv3e86is0","pricing_plan_id":"cebpf4jnsgd1na2vs0mg"},{"bike_id":"019a63b9-12f4-4507-ab38-47b0ae20bdce","system_id":"levelo_inurba_marseille","lat":43.305474,"lon":5.36729,"is_reserved":false,"is_disabled":false,"rental_uris":{"android":"levelo://app?vid=019a63b9-12f4-4507-ab38-47b0ae20bdce","ios":"levelo://app?vid=019a63b9-12f4-4507-ab38-47b0ae20bdce"},"vehicle_type_id":"4","last_reported":1752340120,"current_range_meters":16000,"station_id":"ce4bgrp2rcd13ifvqc9g","pricing_plan_id":"cebpf4jnsgd1na2vs0mg"},{"bike_id":"f23760ff-ab61-4853-aa67-28aac93822c1","system_id":"levelo_inurba_marseille","lat":43.337444,"lon":5.374475,"is_reserved":false,"is_disabled":false,"rental_uris":{"android":"levelo://app?vid=f23760ff-ab61-4853-aa67-28aac93822c1","ios":"levelo://app?vid=f23760ff-ab61-4853-aa67-28aac93822c1"},"vehicle_type_id":"4","last_reported":1752340120,"current_range_meters":16400,"station_id":"","pricing_plan_id":"cebpf4jnsgd1na2vs0mg"},{"bike_id":"95f98176-4a32-45c2-9cfd-b6e788a0b954","system_id":"levelo_inurba_marseille","lat":43.26579,"lon":5.3905,"is_reserved":false,"is_disabled":false,"rental_uris":{"android":"levelo://app?vid=95f98176-4a32-45c2-9cfd-b6e788a0b954","ios":"levelo://app?vid=95f98176-4a32-45c2-9cfd-b6e788a0b954"},"vehicle_type_id":"4","last_reported":1752340120,"current_range_meters":16400,"station_id":"ce4bhe12rcd13ifvqf30","pricing_plan_id":"cebpf4jnsgd1na2vs0mg"},{"bike_id":"ed5dc694-4b77-48bd-8ade-fd0cff5dcdb7","system_id":"levelo_inurba_marseille","lat":43.27834,"lon":5.39209,"is_reserved":false,"is_disabled":false,"rental_uris":{"android":"levelo://app?vid=ed5dc694-4b77-48bd-8ade-fd0cff5dcdb7","ios":"levelo://app?vid=ed5dc694-4b77-48bd-8ade-fd0cff5dcdb7"},"vehicle_type_id":"4","last_reported":1752340120,"current_range_meters":16400,"station_id":"ce4bhjp2rcd13ifvqga0","pricing_plan_id":"cebpf4jnsgd1na2vs0mg"},{"bike_id":"3829da93-d12d-44bb-a340-c17fad24cc5e","system_id":"levelo_inurba_marseille","lat":43.25823,"lon":5.39438,"is_reserved":false,"is_disabled":false,"rental_uris":{"android":"levelo://app?vid=3829da93-d12d-44bb-a340-c17fad24cc5e","ios":"levelo://app?vid=3829da93-d12d-44bb-a340-c17fad24cc5e"},"vehicle_type_id":"4","last_reported":1752340120,"current_range_meters":16400,"station_id":"ce4bhip2rcd13ifvqft0","pricing_plan_id":"cebpf4jnsgd1na2vs0mg"},{"bike_id":"57692aae-9841-41ad-bc01-254866eaf8b0","system_id":"levelo_inurba_marseille","lat":43.32344,"lon":5.40616,"is_reserved":false,"is_disabled":false,"rental_uris":{"android":"levelo://app?vid=57692aae-9841-41ad-bc01-254866eaf8b0","ios":"levelo://app?vid=57692aae-9841-41ad-bc01-254866eaf8b0"},"vehicle_type_id":"4","last_reported":1752340120,"current_range_meters":16800,"station_id":"ce4bhq92rcd13ifvqhjg","pricing_plan_id":"cebpf4jnsgd1na2vs0mg"},{"bike_id":"6e41bc9b-d721-4d0e-a930-a8546720d456","system_id":"levelo_inurba_marseille","lat":43.26557,"lon":5.37267,"is_reserved":false,"is_disabled":false,"rental_uris":{"android":"levelo://app?vid=6e41bc9b-d721-4d0e-a930-a8546720d456","ios":"levelo://app?vid=6e41bc9b-d721-4d0e-a930-a8546720d456"},"vehicle_type_id":"4","last_reported":1752340120,"current_range_meters":16800,"station_id":"ce4bhg12rcd13ifvqf70","pricing_plan_id":"cebpf4jnsgd1na2vs0mg"},{"bike_id":"3637b673-14d3-4268-8ce8-6a91a8354607","system_id":"levelo_inurba_marseille","lat":43.30092,"lon":5.39064,"is_reserved":false,"is_disabled":false,"rental_uris":{"android":"levelo://app?vid=3637b673-14d3-4268-8ce8-6a91a8354607","ios":"levelo://app?vid=3637b673-14d3-4268-8ce8-6a91a8354607"},"vehicle_type_id":"4","last_reported":1752340120,"current_range_meters":16800,"station_id":"ce4bh192rcd13ifvqdb0","pricing_plan_id":"cebpf4jnsgd1na2vs0mg"},{"bike_id":"b74832bb-6449-48c5-8077-0bfb2b852778","system_id":"levelo_inurba_marseille","lat":43.28424,"lon":5.34983,"is_reserved":false,"is_disabled":false,"rental_uris":{"android":"levelo://app?vid=b74832bb-6449-48c5-8077-0bfb2b852778","ios":"levelo://app?vid=b74832bb-6449-48c5-8077-0bfb2b852778"},"vehicle_type_id":"4","last_reported":1752340120,"current_range_meters":17200,"station_id":"ce4bhbh2rcd13ifvqepg","pricing_plan_id":"cebpf4jnsgd1na2vs0mg"},{"bike_id":"6d3f299a-d341-49bc-a1f9-7534528d9b67","system_id":"levelo_inurba_marseille","lat":43.23186,"lon":5.35558,"is_reserved":false,"is_disabled":false,"rental_uris":{"android":"levelo://app?vid=6d3f299a-d341-49bc-a1f9-7534528d9b67","ios":"levelo://app?vid=6d3f299a-d341-49bc-a1f9-7534528d9b67"},"vehicle_type_id":"4","last_reported":1752340120,"current_range_meters":17200,"station_id":"ce4bhu92rcd13ifvqi70","pricing_plan_id":"cebpf4jnsgd1na2vs0mg"},{"bike_id":"844b44b6-4e33-4917-878d-a3c647561239","system_id":"levelo_inurba_marseille","lat":43.307371,"lon":5.424608,"is_reserved":false,"is_disabled":false,"rental_uris":{"android":"levelo://app?vid=844b44b6-4e33-4917-878d-a3c647561239","ios":"levelo://app?vid=844b44b6-4e33-4917-878d-a3c647561239"},"vehicle_type_id":"4","last_reported":1752340120,"current_range_meters":17200,"station_id":"st_cvj6ca6bvosntc0bfgr0","pricing_plan_id":"cebpf4jnsgd1na2vs0mg"},{"bike_id":"4b8da722-ee9e-48a4-a5e5-3a8a10364708","system_id":"levelo_inurba_marseille","lat":43.31236,"lon":5.37832,"is_reserved":false,"is_disabled":false,"rental_uris":{"android":"levelo://app?vid=4b8da722-ee9e-48a4-a5e5-3a8a10364708","ios":"levelo://app?vid=4b8da722-ee9e-48a4-a5e5-3a8a10364708"},"vehicle_type_id":"4","last_reported":1752340120,"current_range_meters":17200,"station_id":"","pricing_plan_id":"cebpf4jnsgd1na2vs0mg"},{"bike_id":"a44f68aa-b920-4eb6-845e-df1183944a6b","system_id":"levelo_inurba_marseille","lat":43.28565,"lon":5.35062,"is_reserved":false,"is_disabled":true,"rental_uris":{"android":"levelo://app?vid=a44f68aa-b920-4eb6-845e-df1183944a6b","ios":"levelo://app?vid=a44f68aa-b920-4eb6-845e-df1183944a6b"},"vehicle_type_id":"4","last_reported":1752340120,"current_range_meters":17200,"station_id":"","pricing_plan_id":"cebpf4jnsgd1na2vs0mg"},{"bike_id":"e2ce6e8a-ef9f-4211-8776-042780e4931d","system_id":"levelo_inurba_marseille","lat":43.28429,"lon":5.3499,"is_reserved":false,"is_disabled":true,"rental_uris":{"android":"levelo://app?vid=e2ce6e8a-ef9f-4211-8776-042780e4931d","ios":"levelo://app?vid=e2ce6e8a-ef9f-4211-8776-042780e4931d"},"vehicle_type_id":"4","last_reported":1752340120,"current_range_meters":17200,"station_id":"ce4bhbh2rcd13ifvqepg","pricing_plan_id":"cebpf4jnsgd1na2vs0mg"},{"bike_id":"ee7999b2-527d-4eb9-88da-6ef9e157f4a3","system_id":"levelo_inurba_marseille","lat":43.29531,"lon":5.38567,"is_reserved":false,"is_disabled":false,"rental_uris":{"android":"levelo://app?vid=ee7999b2-527d-4eb9-88da-6ef9e157f4a3","ios":"levelo://app?vid=ee7999b2-527d-4eb9-88da-6ef9e157f4a3"},"vehicle_type_id":"4","last_reported":1752340120,"current_range_meters":17600,"station_id":"ce4bgih2rcd13ifvqba0","pricing_plan_id":"cebpf4jnsgd1na2vs0mg"},{"bike_id":"dd63fb38-3bb9-46c9-871f-5eeaf1e325bc","system_id":"levelo_inurba_marseille","lat":43.29259,"lon":5.38442,"is_reserved":false,"is_disabled":false,"rental_uris":{"android":"levelo://app?vid=dd63fb38-3bb9-46c9-871f-5eeaf1e325bc","ios":"levelo://app?vid=dd63fb38-3bb9-46c9-871f-5eeaf1e325bc"},"vehicle_type_id":"4","last_reported":1752340120,"current_range_meters":17600,"station_id":"ce4bh692rcd13ifvqea0","pricing_plan_id":"cebpf4jnsgd1na2vs0mg"},{"bike_id":"3bf713d8-73a7-4f5f-9156-c54230104284","system_id":"levelo_inurba_marseille","lat":43.289465,"lon":5.396398,"is_reserved":false,"is_disabled":false,"rental_uris":{"android":"levelo://app?vid=3bf713d8-73a7-4f5f-9156-c54230104284","ios":"levelo://app?vid=3bf713d8-73a7-4f5f-9156-c54230104284"},"vehicle_type_id":"4","last_reported":1752340120,"current_range_meters":17600,"station_id":"ce4bh3h2rcd13ifvqdn0","pricing_plan_id":"cebpf4jnsgd1na2vs0mg"},{"bike_id":"6929fb00-76b7-4628-94e6-66764dec48b6","system_id":"levelo_inurba_marseille","lat":43.28434,"lon":5.34972,"is_reserved":false,"is_disabled":false,"rental_uris":{"android":"levelo://app?vid=6929fb00-76b7-4628-94e6-66764dec48b6","ios":"levelo://app?vid=6929fb00-76b7-4628-94e6-66764dec48b6"},"vehicle_type_id":"4","last_reported":1752340120,"current_range_meters":17600,"station_id":"ce4bhbh2rcd13ifvqepg","pricing_plan_id":"cebpf4jnsgd1na2vs0mg"},{"bike_id":"f36bad63-c225-4f59-878f-028d7059b783","system_id":"levelo_inurba_marseille","lat":43.28311,"lon":5.35078,"is_reserved":false,"is_disabled":false,"rental_uris":{"android":"levelo://app?vid=f36bad63-c225-4f59-878f-028d7059b783","ios":"levelo://app?vid=f36bad63-c225-4f59-878f-028d7059b783"},"vehicle_type_id":"4","last_reported":1752340120,"current_range_meters":17600,"station_id":"ce4bhbp2rcd13ifvqerg","pricing_plan_id":"cebpf4jnsgd1na2vs0mg"},{"bike_id":"a258dc86-7c84-4445-ad0e-265b9f56cb91","system_id":"levelo_inurba_marseille","lat":43.29575,"lon":5.4227,"is_reserved":false,"is_disabled":false,"rental_uris":{"android":"levelo://app?vid=a258dc86-7c84-4445-ad0e-265b9f56cb91","ios":"levelo://app?vid=a258dc86-7c84-4445-ad0e-265b9f56cb91"},"vehicle_type_id":"4","last_reported":1752340120,"current_range_meters":17600,"station_id":"ce4bhph2rcd13ifvqhdg","pricing_plan_id":"cebpf4jnsgd1na2vs0mg"},{"bike_id":"8874886d-77b9-4d55-979f-076542d860bf","system_id":"levelo_inurba_marseille","lat":43.23164,"lon":5.39993,"is_reserved":false,"is_disabled":false,"rental_uris":{"android":"levelo://app?vid=8874886d-77b9-4d55-979f-076542d860bf","ios":"levelo://app?vid=8874886d-77b9-4d55-979f-076542d860bf"},"vehicle_type_id":"4","last_reported":1752340120,"current_range_meters":17600,"station_id":"ce4bhn12rcd13ifvqgqg","pricing_plan_id":"cebpf4jnsgd1na2vs0mg"},{"bike_id":"3d640471-8203-4b9e-8c16-d2a98a33816d","system_id":"levelo_inurba_marseille","lat":43.25438,"lon":5.3816,"is_reserved":false,"is_disabled":false,"rental_uris":{"android":"levelo://app?vid=3d640471-8203-4b9e-8c16-d2a98a33816d","ios":"levelo://app?vid=3d640471-8203-4b9e-8c16-d2a98a33816d"},"vehicle_type_id":"4","last_reported":1752340120,"current_range_meters":17600,"station_id":"","pricing_plan_id":"cebpf4jnsgd1na2vs0mg"},{"bike_id":"66bc7fe6-c3da-43c0-afe1-a6bdaf2c5a79","system_id":"levelo_inurba_marseille","lat":43.21249,"lon":5.35076,"is_reserved":false,"is_disabled":false,"rental_uris":{"android":"levelo://app?vid=66bc7fe6-c3da-43c0-afe1-a6bdaf2c5a79","ios":"levelo://app?vid=66bc7fe6-c3da-43c0-afe1-a6bdaf2c5a79"},"vehicle_type_id":"4","last_reported":1752340120,"current_range_meters":17600,"station_id":"","pricing_plan_id":"cebpf4jnsgd1na2vs0mg"},{"bike_id":"f9404114-b2cc-4f82-86f4-175c9d085c7f","system_id":"levelo_inurba_marseille","lat":43.29934,"lon":5.36554,"is_reserved":false,"is_disabled":false,"rental_uris":{"android":"levelo://app?vid=f9404114-b2cc-4f82-86f4-175c9d085c7f","ios":"levelo://app?vid=f9404114-b2cc-4f82-86f4-175c9d085c7f"},"vehicle_type_id":"4","last_reported":1752340120,"current_range_meters":17600,"station_id":"ce4bgm92rcd13ifvqbr0","pricing_plan_id":"cebpf4jnsgd1na2vs0mg"},{"bike_id":"f9924005-c8ac-4086-8e25-9a21391f65ea","system_id":"levelo_inurba_marseille","lat":43.211906,"lon":5.350801,"is_reserved":false,"is_disabled":false,"rental_uris":{"android":"levelo://app?vid=f9924005-c8ac-4086-8e25-9a21391f65ea","ios":"levelo://app?vid=f9924005-c8ac-4086-8e25-9a21391f65ea"},"vehicle_type_id":"4","last_reported":1752340120,"current_range_meters":18000,"station_id":"st_cvj6sg6p6f1abm77japg","pricing_plan_id":"cebpf4jnsgd1na2vs0mg"},{"bike_id":"2afd10ce-5f23-4122-9c7a-a3416be941b2","system_id":"levelo_inurba_marseille","lat":43.260439,"lon":5.375664,"is_reserved":false,"is_disabled":true,"rental_uris":{"android":"levelo://app?vid=2afd10ce-5f23-4122-9c7a-a3416be941b2","ios":"levelo://app?vid=2afd10ce-5f23-4122-9c7a-a3416be941b2"},"vehicle_type_id":"4","last_reported":1752340120,"current_range_meters":18000,"station_id":"ce4bhgh2rcd13ifvqfa0","pricing_plan_id":"cebpf4jnsgd1na2vs0mg"},{"bike_id":"5217076d-ea7e-4c2f-a878-b60c6ebd0d55","system_id":"levelo_inurba_marseille","lat":43.2971,"lon":5.36613,"is_reserved":false,"is_disabled":false,"rental_uris":{"android":"levelo://app?vid=5217076d-ea7e-4c2f-a878-b60c6ebd0d55","ios":"levelo://app?vid=5217076d-ea7e-4c2f-a878-b60c6ebd0d55"},"vehicle_type_id":"4","last_reported":1752340120,"current_range_meters":15200,"station_id":"ce4bgn12rcd13ifvqbt0","pricing_plan_id":"cebpf4jnsgd1na2vs0mg"},{"bike_id":"7048b274-bb73-4f78-bd84-2dffe4927289","system_id":"levelo_inurba_marseille","lat":43.29803,"lon":5.39349,"is_reserved":false,"is_disabled":true,"rental_uris":{"android":"levelo://app?vid=7048b274-bb73-4f78-bd84-2dffe4927289","ios":"levelo://app?vid=7048b274-bb73-4f78-bd84-2dffe4927289"},"vehicle_type_id":"4","last_reported":1752340120,"current_range_meters":18000,"station_id":"chh1huq6cuj3fo74tm60","pricing_plan_id":"cebpf4jnsgd1na2vs0mg"},{"bike_id":"6b24281b-8627-4cc6-8164-9baa9ceda8d0","system_id":"levelo_inurba_marseille","lat":43.28437,"lon":5.34981,"is_reserved":false,"is_disabled":false,"rental_uris":{"android":"levelo://app?vid=6b24281b-8627-4cc6-8164-9baa9ceda8d0","ios":"levelo://app?vid=6b24281b-8627-4cc6-8164-9baa9ceda8d0"},"vehicle_type_id":"4","last_reported":1752340120,"current_range_meters":18000,"station_id":"ce4bhbh2rcd13ifvqepg","pricing_plan_id":"cebpf4jnsgd1na2vs0mg"},{"bike_id":"d8d4cd6b-d88f-4cc5-971c-93348e88d768","system_id":"levelo_inurba_marseille","lat":43.32115,"lon":5.36764,"is_reserved":false,"is_disabled":false,"rental_uris":{"android":"levelo://app?vid=d8d4cd6b-d88f-4cc5-971c-93348e88d768","ios":"levelo://app?vid=d8d4cd6b-d88f-4cc5-971c-93348e88d768"},"vehicle_type_id":"4","last_reported":1752340120,"current_range_meters":18000,"station_id":"ce4bhrh2rcd13ifvqhug","pricing_plan_id":"cebpf4jnsgd1na2vs0mg"},{"bike_id":"e6ea4081-7605-4a3b-a8fc-ff7b1eb2aa91","system_id":"levelo_inurba_marseille","lat":43.28707,"lon":5.39986,"is_reserved":false,"is_disabled":false,"rental_uris":{"android":"levelo://app?vid=e6ea4081-7605-4a3b-a8fc-ff7b1eb2aa91","ios":"levelo://app?vid=e6ea4081-7605-4a3b-a8fc-ff7b1eb2aa91"},"vehicle_type_id":"4","last_reported":1752340120,"current_range_meters":18800,"station_id":"ce4bho92rcd13ifvqh3g","pricing_plan_id":"cebpf4jnsgd1na2vs0mg"},{"bike_id":"6db2d44d-c7ca-41ac-b814-ccca58d47fae","system_id":"levelo_inurba_marseille","lat":43.26221,"lon":5.37455,"is_reserved":false,"is_disabled":false,"rental_uris":{"android":"levelo://app?vid=6db2d44d-c7ca-41ac-b814-ccca58d47fae","ios":"levelo://app?vid=6db2d44d-c7ca-41ac-b814-ccca58d47fae"},"vehicle_type_id":"4","last_reported":1752340120,"current_range_meters":18800,"station_id":"ce4bhgp2rcd13ifvqfc0","pricing_plan_id":"cebpf4jnsgd1na2vs0mg"},{"bike_id":"8bc65b40-0f7a-4db0-bab7-834d249697b6","system_id":"levelo_inurba_marseille","lat":43.28446,"lon":5.34977,"is_reserved":false,"is_disabled":false,"rental_uris":{"android":"levelo://app?vid=8bc65b40-0f7a-4db0-bab7-834d249697b6","ios":"levelo://app?vid=8bc65b40-0f7a-4db0-bab7-834d249697b6"},"vehicle_type_id":"4","last_reported":1752340120,"current_range_meters":18800,"station_id":"ce4bhbh2rcd13ifvqepg","pricing_plan_id":"cebpf4jnsgd1na2vs0mg"},{"bike_id":"96eab653-fff1-41cd-bcbd-417d9feda892","system_id":"levelo_inurba_marseille","lat":43.241873,"lon":5.397243,"is_reserved":false,"is_disabled":false,"rental_uris":{"android":"levelo://app?vid=96eab653-fff1-41cd-bcbd-417d9feda892","ios":"levelo://app?vid=96eab653-fff1-41cd-bcbd-417d9feda892"},"vehicle_type_id":"4","last_reported":1752340120,"current_range_meters":18800,"station_id":"ce4bhn12rcd13ifvqgpg","pricing_plan_id":"cebpf4jnsgd1na2vs0mg"},{"bike_id":"a215a6e1-ca35-47ba-819d-c1058e756467","system_id":"levelo_inurba_marseille","lat":43.3028,"lon":5.37714,"is_reserved":false,"is_disabled":false,"rental_uris":{"android":"levelo://app?vid=a215a6e1-ca35-47ba-819d-c1058e756467","ios":"levelo://app?vid=a215a6e1-ca35-47ba-819d-c1058e756467"},"vehicle_type_id":"4","last_reported":1752340120,"current_range_meters":18000,"station_id":"ce4bguh2rcd13ifvqcj0","pricing_plan_id":"cebpf4jnsgd1na2vs0mg"},{"bike_id":"2789363d-6c32-4f54-a6f0-e032059a9c8e","system_id":"levelo_inurba_marseille","lat":43.2439,"lon":5.37054,"is_reserved":false,"is_disabled":false,"rental_uris":{"android":"levelo://app?vid=2789363d-6c32-4f54-a6f0-e032059a9c8e","ios":"levelo://app?vid=2789363d-6c32-4f54-a6f0-e032059a9c8e"},"vehicle_type_id":"4","last_reported":1752340120,"current_range_meters":18800,"station_id":"ce4bhhh2rcd13ifvqfk0","pricing_plan_id":"cebpf4jnsgd1na2vs0mg"},{"bike_id":"dd1dce40-79fb-422e-93b9-c4c2606db301","system_id":"levelo_inurba_marseille","lat":43.26207,"lon":5.37928,"is_reserved":false,"is_disabled":false,"rental_uris":{"android":"levelo://app?vid=dd1dce40-79fb-422e-93b9-c4c2606db301","ios":"levelo://app?vid=dd1dce40-79fb-422e-93b9-c4c2606db301"},"vehicle_type_id":"4","last_reported":1752340120,"current_range_meters":18000,"station_id":"ce4bhjp2rcd13ifvqg90","pricing_plan_id":"cebpf4jnsgd1na2vs0mg"},{"bike_id":"8fded4dc-a791-4469-9810-b8cc18ed5c3b","system_id":"levelo_inurba_marseille","lat":43.29192,"lon":5.35803,"is_reserved":false,"is_disabled":false,"rental_uris":{"android":"levelo://app?vid=8fded4dc-a791-4469-9810-b8cc18ed5c3b","ios":"levelo://app?vid=8fded4dc-a791-4469-9810-b8cc18ed5c3b"},"vehicle_type_id":"4","last_reported":1752340120,"current_range_meters":18000,"station_id":"ce4bhb12rcd13ifvqel0","pricing_plan_id":"cebpf4jnsgd1na2vs0mg"},{"bike_id":"c0e1cefb-0cdc-4b15-903d-f653930b62e8","system_id":"levelo_inurba_marseille","lat":43.28434,"lon":5.34978,"is_reserved":false,"is_disabled":false,"rental_uris":{"android":"levelo://app?vid=c0e1cefb-0cdc-4b15-903d-f653930b62e8","ios":"levelo://app?vid=c0e1cefb-0cdc-4b15-903d-f653930b62e8"},"vehicle_type_id":"4","last_reported":1752340120,"current_range_meters":18800,"station_id":"ce4bhbh2rcd13ifvqepg","pricing_plan_id":"cebpf4jnsgd1na2vs0mg"},{"bike_id":"c1d0629c-eaee-41e7-8c10-68b0ec1b077d","system_id":"levelo_inurba_marseille","lat":43.32972,"lon":5.388882,"is_reserved":false,"is_disabled":false,"rental_uris":{"android":"levelo://app?vid=c1d0629c-eaee-41e7-8c10-68b0ec1b077d","ios":"levelo://app?vid=c1d0629c-eaee-41e7-8c10-68b0ec1b077d"},"vehicle_type_id":"4","last_reported":1752340120,"current_range_meters":18800,"station_id":"ce4bhr92rcd13ifvqhrg","pricing_plan_id":"cebpf4jnsgd1na2vs0mg"},{"bike_id":"e859ada5-710f-4038-b243-10bae77306c2","system_id":"levelo_inurba_marseille","lat":43.31365,"lon":5.384966,"is_reserved":false,"is_disabled":false,"rental_uris":{"android":"levelo://app?vid=e859ada5-710f-4038-b243-10bae77306c2","ios":"levelo://app?vid=e859ada5-710f-4038-b243-10bae77306c2"},"vehicle_type_id":"4","last_reported":1752340120,"current_range_meters":18800,"station_id":"ce4bgt92rcd13ifvqcf0","pricing_plan_id":"cebpf4jnsgd1na2vs0mg"},{"bike_id":"d89e827e-b2f2-4ba5-a976-a487e64c32a5","system_id":"levelo_inurba_marseille","lat":43.241842,"lon":5.397205,"is_reserved":false,"is_disabled":false,"rental_uris":{"android":"levelo://app?vid=d89e827e-b2f2-4ba5-a976-a487e64c32a5","ios":"levelo://app?vid=d89e827e-b2f2-4ba5-a976-a487e64c32a5"},"vehicle_type_id":"4","last_reported":1752340120,"current_range_meters":18800,"station_id":"ce4bhn12rcd13ifvqgpg","pricing_plan_id":"cebpf4jnsgd1na2vs0mg"},{"bike_id":"e4d974df-b419-4971-98fa-b312bbfd76d9","system_id":"levelo_inurba_marseille","lat":43.29224,"lon":5.36069,"is_reserved":false,"is_disabled":false,"rental_uris":{"android":"levelo://app?vid=e4d974df-b419-4971-98fa-b312bbfd76d9","ios":"levelo://app?vid=e4d974df-b419-4971-98fa-b312bbfd76d9"},"vehicle_type_id":"4","last_reported":1752340120,"current_range_meters":19200,"station_id":"ce4bhbh2rcd13ifvqeqg","pricing_plan_id":"cebpf4jnsgd1na2vs0mg"},{"bike_id":"9b40dc73-509b-4d2f-8a27-44696719b175","system_id":"levelo_inurba_marseille","lat":43.270684,"lon":5.422703,"is_reserved":false,"is_disabled":false,"rental_uris":{"android":"levelo://app?vid=9b40dc73-509b-4d2f-8a27-44696719b175","ios":"levelo://app?vid=9b40dc73-509b-4d2f-8a27-44696719b175"},"vehicle_type_id":"4","last_reported":1752340120,"current_range_meters":19200,"station_id":"ce4bhk92rcd13ifvqgb0","pricing_plan_id":"cebpf4jnsgd1na2vs0mg"},{"bike_id":"4f1f1a3a-5b7b-4553-9843-68ea335f1704","system_id":"levelo_inurba_marseille","lat":43.27954,"lon":5.38697,"is_reserved":false,"is_disabled":false,"rental_uris":{"android":"levelo://app?vid=4f1f1a3a-5b7b-4553-9843-68ea335f1704","ios":"levelo://app?vid=4f1f1a3a-5b7b-4553-9843-68ea335f1704"},"vehicle_type_id":"4","last_reported":1752340120,"current_range_meters":18800,"station_id":"ce4bhg12rcd13ifvqf80","pricing_plan_id":"cebpf4jnsgd1na2vs0mg"},{"bike_id":"f4ad43e9-63b1-491c-b287-a776f7e07542","system_id":"levelo_inurba_marseille","lat":43.29,"lon":5.35613,"is_reserved":false,"is_disabled":false,"rental_uris":{"android":"levelo://app?vid=f4ad43e9-63b1-491c-b287-a776f7e07542","ios":"levelo://app?vid=f4ad43e9-63b1-491c-b287-a776f7e07542"},"vehicle_type_id":"4","last_reported":1752340120,"current_range_meters":19200,"station_id":"ce4bhb92rcd13ifvqen0","pricing_plan_id":"cebpf4jnsgd1na2vs0mg"},{"bike_id":"e09248dc-f3f8-437b-9870-7d2e6336703c","system_id":"levelo_inurba_marseille","lat":43.26567,"lon":5.3727,"is_reserved":false,"is_disabled":false,"rental_uris":{"android":"levelo://app?vid=e09248dc-f3f8-437b-9870-7d2e6336703c","ios":"levelo://app?vid=e09248dc-f3f8-437b-9870-7d2e6336703c"},"vehicle_type_id":"4","last_reported":1752340120,"current_range_meters":19200,"station_id":"ce4bhg12rcd13ifvqf70","pricing_plan_id":"cebpf4jnsgd1na2vs0mg"},{"bike_id":"f895d8d6-5719-4123-b6c2-ed6b1bf015e1","system_id":"levelo_inurba_marseille","lat":43.28423,"lon":5.34979,"is_reserved":false,"is_disabled":false,"rental_uris":{"android":"levelo://app?vid=f895d8d6-5719-4123-b6c2-ed6b1bf015e1","ios":"levelo://app?vid=f895d8d6-5719-4123-b6c2-ed6b1bf015e1"},"vehicle_type_id":"4","last_reported":1752340120,"current_range_meters":19200,"station_id":"ce4bhbh2rcd13ifvqepg","pricing_plan_id":"cebpf4jnsgd1na2vs0mg"},{"bike_id":"9f90c3c2-23b0-4c65-a8e8-9310214da196","system_id":"levelo_inurba_marseille","lat":43.307303,"lon":5.424353,"is_reserved":false,"is_disabled":false,"rental_uris":{"android":"levelo://app?vid=9f90c3c2-23b0-4c65-a8e8-9310214da196","ios":"levelo://app?vid=9f90c3c2-23b0-4c65-a8e8-9310214da196"},"vehicle_type_id":"4","last_reported":1752340120,"current_range_meters":19600,"station_id":"st_cvj6ca6bvosntc0bfgr0","pricing_plan_id":"cebpf4jnsgd1na2vs0mg"},{"bike_id":"de60112a-5cdf-4d86-9a61-1ddaed807604","system_id":"levelo_inurba_marseille","lat":43.30932,"lon":5.36832,"is_reserved":false,"is_disabled":false,"rental_uris":{"android":"levelo://app?vid=de60112a-5cdf-4d86-9a61-1ddaed807604","ios":"levelo://app?vid=de60112a-5cdf-4d86-9a61-1ddaed807604"},"vehicle_type_id":"4","last_reported":1752340120,"current_range_meters":19600,"station_id":"","pricing_plan_id":"cebpf4jnsgd1na2vs0mg"},{"bike_id":"fe3cab64-21b9-4f11-a86c-409680d20d3a","system_id":"levelo_inurba_marseille","lat":43.30606,"lon":5.37227,"is_reserved":false,"is_disabled":false,"rental_uris":{"android":"levelo://app?vid=fe3cab64-21b9-4f11-a86c-409680d20d3a","ios":"levelo://app?vid=fe3cab64-21b9-4f11-a86c-409680d20d3a"},"vehicle_type_id":"4","last_reported":1752340120,"current_range_meters":19200,"station_id":"ce4bgqh2rcd13ifvqc4g","pricing_plan_id":"cebpf4jnsgd1na2vs0mg"},{"bike_id":"fc1a915c-c35a-4017-83fb-64435cc1f601","system_id":"levelo_inurba_marseille","lat":43.28078,"lon":5.39654,"is_reserved":false,"is_disabled":false,"rental_uris":{"android":"levelo://app?vid=fc1a915c-c35a-4017-83fb-64435cc1f601","ios":"levelo://app?vid=fc1a915c-c35a-4017-83fb-64435cc1f601"},"vehicle_type_id":"4","last_reported":1752340120,"current_range_meters":19600,"station_id":"ce4bho12rcd13ifvqh2g","pricing_plan_id":"cebpf4jnsgd1na2vs0mg"},{"bike_id":"d9cf1285-9847-4ab3-8a74-8babf2bc4dc6","system_id":"levelo_inurba_marseille","lat":43.29594,"lon":5.38095,"is_reserved":false,"is_disabled":false,"rental_uris":{"android":"levelo://app?vid=d9cf1285-9847-4ab3-8a74-8babf2bc4dc6","ios":"levelo://app?vid=d9cf1285-9847-4ab3-8a74-8babf2bc4dc6"},"vehicle_type_id":"4","last_reported":1752340120,"current_range_meters":20000,"station_id":"ce4bgl12rcd13ifvqbo0","pricing_plan_id":"cebpf4jnsgd1na2vs0mg"},{"bike_id":"353b3d94-d878-469f-9a9d-0ce9964df18e","system_id":"levelo_inurba_marseille","lat":43.23174,"lon":5.39973,"is_reserved":false,"is_disabled":false,"rental_uris":{"android":"levelo://app?vid=353b3d94-d878-469f-9a9d-0ce9964df18e","ios":"levelo://app?vid=353b3d94-d878-469f-9a9d-0ce9964df18e"},"vehicle_type_id":"4","last_reported":1752340120,"current_range_meters":19600,"station_id":"ce4bhn12rcd13ifvqgqg","pricing_plan_id":"cebpf4jnsgd1na2vs0mg"},{"bike_id":"3ddb6d3f-6e11-4a20-95ed-3b1d52ce7226","system_id":"levelo_inurba_marseille","lat":43.2843,"lon":5.34968,"is_reserved":false,"is_disabled":false,"rental_uris":{"android":"levelo://app?vid=3ddb6d3f-6e11-4a20-95ed-3b1d52ce7226","ios":"levelo://app?vid=3ddb6d3f-6e11-4a20-95ed-3b1d52ce7226"},"vehicle_type_id":"4","last_reported":1752340120,"current_range_meters":20000,"station_id":"ce4bhbh2rcd13ifvqepg","pricing_plan_id":"cebpf4jnsgd1na2vs0mg"},{"bike_id":"f3694977-649f-4d34-8dc1-5bb42b5553e1","system_id":"levelo_inurba_marseille","lat":43.30791,"lon":5.37656,"is_reserved":false,"is_disabled":false,"rental_uris":{"android":"levelo://app?vid=f3694977-649f-4d34-8dc1-5bb42b5553e1","ios":"levelo://app?vid=f3694977-649f-4d34-8dc1-5bb42b5553e1"},"vehicle_type_id":"4","last_reported":1752340120,"current_range_meters":20000,"station_id":"ce4bgv92rcd13ifvqcq0","pricing_plan_id":"cebpf4jnsgd1na2vs0mg"},{"bike_id":"6296ab41-5a0f-44fa-8ff5-0ac16775bc74","system_id":"levelo_inurba_marseille","lat":43.28613,"lon":5.351,"is_reserved":false,"is_disabled":true,"rental_uris":{"android":"levelo://app?vid=6296ab41-5a0f-44fa-8ff5-0ac16775bc74","ios":"levelo://app?vid=6296ab41-5a0f-44fa-8ff5-0ac16775bc74"},"vehicle_type_id":"4","last_reported":1752340120,"current_range_meters":20000,"station_id":"ce4bhch2rcd13ifvqeug","pricing_plan_id":"cebpf4jnsgd1na2vs0mg"},{"bike_id":"9bfc7d3d-4e60-4f8a-9c32-ef3d0e77ec5b","system_id":"levelo_inurba_marseille","lat":43.21197,"lon":5.35065,"is_reserved":false,"is_disabled":false,"rental_uris":{"android":"levelo://app?vid=9bfc7d3d-4e60-4f8a-9c32-ef3d0e77ec5b","ios":"levelo://app?vid=9bfc7d3d-4e60-4f8a-9c32-ef3d0e77ec5b"},"vehicle_type_id":"4","last_reported":1752340120,"current_range_meters":20000,"station_id":"st_cvj6sg6p6f1abm77japg","pricing_plan_id":"cebpf4jnsgd1na2vs0mg"},{"bike_id":"1eba7795-b02b-4cb9-ac04-d12a19a9da8a","system_id":"levelo_inurba_marseille","lat":43.2842,"lon":5.35,"is_reserved":false,"is_disabled":false,"rental_uris":{"android":"levelo://app?vid=1eba7795-b02b-4cb9-ac04-d12a19a9da8a","ios":"levelo://app?vid=1eba7795-b02b-4cb9-ac04-d12a19a9da8a"},"vehicle_type_id":"4","last_reported":1752340120,"current_range_meters":20400,"station_id":"ce4bhbh2rcd13ifvqepg","pricing_plan_id":"cebpf4jnsgd1na2vs0mg"},{"bike_id":"e1b53900-c592-46fc-9e72-c51f38e41c34","system_id":"levelo_inurba_marseille","lat":43.2739,"lon":5.36247,"is_reserved":false,"is_disabled":false,"rental_uris":{"android":"levelo://app?vid=e1b53900-c592-46fc-9e72-c51f38e41c34","ios":"levelo://app?vid=e1b53900-c592-46fc-9e72-c51f38e41c34"},"vehicle_type_id":"4","last_reported":1752340120,"current_range_meters":20400,"station_id":"ce4bhbh2rcd13ifvqeo0","pricing_plan_id":"cebpf4jnsgd1na2vs0mg"},{"bike_id":"916e11e7-7c72-4b4e-a8ad-659b7cc3d16d","system_id":"levelo_inurba_marseille","lat":43.29255,"lon":5.36632,"is_reserved":false,"is_disabled":false,"rental_uris":{"android":"levelo://app?vid=916e11e7-7c72-4b4e-a8ad-659b7cc3d16d","ios":"levelo://app?vid=916e11e7-7c72-4b4e-a8ad-659b7cc3d16d"},"vehicle_type_id":"4","last_reported":1752340120,"current_range_meters":20400,"station_id":"","pricing_plan_id":"cebpf4jnsgd1na2vs0mg"},{"bike_id":"f5a47db5-6fb2-46bd-a2de-efa4ad13bf60","system_id":"levelo_inurba_marseille","lat":43.21217,"lon":5.35058,"is_reserved":false,"is_disabled":false,"rental_uris":{"android":"levelo://app?vid=f5a47db5-6fb2-46bd-a2de-efa4ad13bf60","ios":"levelo://app?vid=f5a47db5-6fb2-46bd-a2de-efa4ad13bf60"},"vehicle_type_id":"4","last_reported":1752340120,"current_range_meters":20400,"station_id":"st_cvj6sg6p6f1abm77japg","pricing_plan_id":"cebpf4jnsgd1na2vs0mg"},{"bike_id":"58375fde-ca97-4dab-be52-59caf98323d3","system_id":"levelo_inurba_marseille","lat":43.26568,"lon":5.37283,"is_reserved":false,"is_disabled":true,"rental_uris":{"android":"levelo://app?vid=58375fde-ca97-4dab-be52-59caf98323d3","ios":"levelo://app?vid=58375fde-ca97-4dab-be52-59caf98323d3"},"vehicle_type_id":"4","last_reported":1752340120,"current_range_meters":20400,"station_id":"ce4bhg12rcd13ifvqf70","pricing_plan_id":"cebpf4jnsgd1na2vs0mg"},{"bike_id":"af90ae74-83f3-40ef-9a67-d85772f2391a","system_id":"levelo_inurba_marseille","lat":43.2397,"lon":5.36614,"is_reserved":false,"is_disabled":false,"rental_uris":{"android":"levelo://app?vid=af90ae74-83f3-40ef-9a67-d85772f2391a","ios":"levelo://app?vid=af90ae74-83f3-40ef-9a67-d85772f2391a"},"vehicle_type_id":"4","last_reported":1752340120,"current_range_meters":20400,"station_id":"ce4bhi12rcd13ifvqfp0","pricing_plan_id":"cebpf4jnsgd1na2vs0mg"},{"bike_id":"cc6260c7-e588-42d7-afef-96c409802ccc","system_id":"levelo_inurba_marseille","lat":43.212,"lon":5.35066,"is_reserved":false,"is_disabled":false,"rental_uris":{"android":"levelo://app?vid=cc6260c7-e588-42d7-afef-96c409802ccc","ios":"levelo://app?vid=cc6260c7-e588-42d7-afef-96c409802ccc"},"vehicle_type_id":"4","last_reported":1752340120,"current_range_meters":20400,"station_id":"st_cvj6sg6p6f1abm77japg","pricing_plan_id":"cebpf4jnsgd1na2vs0mg"},{"bike_id":"e08f8f8a-5438-47de-b654-7ca4be210465","system_id":"levelo_inurba_marseille","lat":43.24809,"lon":5.37457,"is_reserved":false,"is_disabled":false,"rental_uris":{"android":"levelo://app?vid=e08f8f8a-5438-47de-b654-7ca4be210465","ios":"levelo://app?vid=e08f8f8a-5438-47de-b654-7ca4be210465"},"vehicle_type_id":"4","last_reported":1752340120,"current_range_meters":20400,"station_id":"ce4bhgh2rcd13ifvqfb0","pricing_plan_id":"cebpf4jnsgd1na2vs0mg"},{"bike_id":"898a8167-cefc-40cc-b91e-2d07128672b5","system_id":"levelo_inurba_marseille","lat":43.31179,"lon":5.38708,"is_reserved":false,"is_disabled":false,"rental_uris":{"android":"levelo://app?vid=898a8167-cefc-40cc-b91e-2d07128672b5","ios":"levelo://app?vid=898a8167-cefc-40cc-b91e-2d07128672b5"},"vehicle_type_id":"4","last_reported":1752340120,"current_range_meters":21600,"station_id":"ce4bgv12rcd13ifvqcp0","pricing_plan_id":"cebpf4jnsgd1na2vs0mg"},{"bike_id":"02261be8-d5bf-4e22-8c3f-eba9f56a6244","system_id":"levelo_inurba_marseille","lat":43.30255,"lon":5.40057,"is_reserved":false,"is_disabled":false,"rental_uris":{"android":"levelo://app?vid=02261be8-d5bf-4e22-8c3f-eba9f56a6244","ios":"levelo://app?vid=02261be8-d5bf-4e22-8c3f-eba9f56a6244"},"vehicle_type_id":"4","last_reported":1752340120,"current_range_meters":20400,"station_id":"ce4bgvh2rcd13ifvqcs0","pricing_plan_id":"cebpf4jnsgd1na2vs0mg"},{"bike_id":"639da435-d3e0-4eb5-96e9-3aa59780a7ff","system_id":"levelo_inurba_marseille","lat":43.31117,"lon":5.37777,"is_reserved":false,"is_disabled":false,"rental_uris":{"android":"levelo://app?vid=639da435-d3e0-4eb5-96e9-3aa59780a7ff","ios":"levelo://app?vid=639da435-d3e0-4eb5-96e9-3aa59780a7ff"},"vehicle_type_id":"4","last_reported":1752340120,"current_range_meters":20800,"station_id":"ce4bgt92rcd13ifvqcg0","pricing_plan_id":"cebpf4jnsgd1na2vs0mg"},{"bike_id":"602b4abd-3cab-4cb4-adff-add09ae118b3","system_id":"levelo_inurba_marseille","lat":43.28314,"lon":5.35054,"is_reserved":false,"is_disabled":false,"rental_uris":{"android":"levelo://app?vid=602b4abd-3cab-4cb4-adff-add09ae118b3","ios":"levelo://app?vid=602b4abd-3cab-4cb4-adff-add09ae118b3"},"vehicle_type_id":"4","last_reported":1752340120,"current_range_meters":20800,"station_id":"ce4bhbp2rcd13ifvqerg","pricing_plan_id":"cebpf4jnsgd1na2vs0mg"},{"bike_id":"a6593d70-3454-4c0c-8a12-d3c52caa5b7e","system_id":"levelo_inurba_marseille","lat":43.28467,"lon":5.35879,"is_reserved":false,"is_disabled":false,"rental_uris":{"android":"levelo://app?vid=a6593d70-3454-4c0c-8a12-d3c52caa5b7e","ios":"levelo://app?vid=a6593d70-3454-4c0c-8a12-d3c52caa5b7e"},"vehicle_type_id":"4","last_reported":1752340120,"current_range_meters":20800,"station_id":"ce4bhah2rcd13ifvqei0","pricing_plan_id":"cebpf4jnsgd1na2vs0mg"},{"bike_id":"a75001ec-fa35-4df8-97e1-30c27c09a398","system_id":"levelo_inurba_marseille","lat":43.27377,"lon":5.3621,"is_reserved":false,"is_disabled":false,"rental_uris":{"android":"levelo://app?vid=a75001ec-fa35-4df8-97e1-30c27c09a398","ios":"levelo://app?vid=a75001ec-fa35-4df8-97e1-30c27c09a398"},"vehicle_type_id":"4","last_reported":1752340120,"current_range_meters":20800,"station_id":"","pricing_plan_id":"cebpf4jnsgd1na2vs0mg"},{"bike_id":"b6286453-1826-4804-865a-7d40a7e812ec","system_id":"levelo_inurba_marseille","lat":43.28414,"lon":5.3751,"is_reserved":false,"is_disabled":false,"rental_uris":{"android":"levelo://app?vid=b6286453-1826-4804-865a-7d40a7e812ec","ios":"levelo://app?vid=b6286453-1826-4804-865a-7d40a7e812ec"},"vehicle_type_id":"4","last_reported":1752340120,"current_range_meters":20800,"station_id":"ce4bh412rcd13ifvqds0","pricing_plan_id":"cebpf4jnsgd1na2vs0mg"},{"bike_id":"c8c4de1a-846f-4f5b-aace-9fb14bf7ad52","system_id":"levelo_inurba_marseille","lat":43.21192,"lon":5.35069,"is_reserved":false,"is_disabled":false,"rental_uris":{"android":"levelo://app?vid=c8c4de1a-846f-4f5b-aace-9fb14bf7ad52","ios":"levelo://app?vid=c8c4de1a-846f-4f5b-aace-9fb14bf7ad52"},"vehicle_type_id":"4","last_reported":1752340120,"current_range_meters":20800,"station_id":"st_cvj6sg6p6f1abm77japg","pricing_plan_id":"cebpf4jnsgd1na2vs0mg"},{"bike_id":"91e36618-f857-45af-ac89-91d909da2db3","system_id":"levelo_inurba_marseille","lat":43.29447,"lon":5.38587,"is_reserved":false,"is_disabled":true,"rental_uris":{"android":"levelo://app?vid=91e36618-f857-45af-ac89-91d909da2db3","ios":"levelo://app?vid=91e36618-f857-45af-ac89-91d909da2db3"},"vehicle_type_id":"4","last_reported":1752340120,"current_range_meters":21600,"station_id":"ce4bh2h2rcd13ifvqdh0","pricing_plan_id":"cebpf4jnsgd1na2vs0mg"},{"bike_id":"f22d59ef-f7e6-435e-8ffc-9c3c78e48fcb","system_id":"levelo_inurba_marseille","lat":43.2866,"lon":5.38662,"is_reserved":false,"is_disabled":false,"rental_uris":{"android":"levelo://app?vid=f22d59ef-f7e6-435e-8ffc-9c3c78e48fcb","ios":"levelo://app?vid=f22d59ef-f7e6-435e-8ffc-9c3c78e48fcb"},"vehicle_type_id":"4","last_reported":1752340120,"current_range_meters":21600,"station_id":"ce4bh492rcd13ifvqdug","pricing_plan_id":"cebpf4jnsgd1na2vs0mg"},{"bike_id":"e9991af9-0600-4f1c-93c4-ef4c69a47725","system_id":"levelo_inurba_marseille","lat":43.28847,"lon":5.39321,"is_reserved":false,"is_disabled":false,"rental_uris":{"android":"levelo://app?vid=e9991af9-0600-4f1c-93c4-ef4c69a47725","ios":"levelo://app?vid=e9991af9-0600-4f1c-93c4-ef4c69a47725"},"vehicle_type_id":"4","last_reported":1752340120,"current_range_meters":20800,"station_id":"ce4bh2p2rcd13ifvqdi0","pricing_plan_id":"cebpf4jnsgd1na2vs0mg"},{"bike_id":"ec40ee9f-a970-411a-9e91-8ca817032fa2","system_id":"levelo_inurba_marseille","lat":43.3236,"lon":5.40602,"is_reserved":false,"is_disabled":false,"rental_uris":{"android":"levelo://app?vid=ec40ee9f-a970-411a-9e91-8ca817032fa2","ios":"levelo://app?vid=ec40ee9f-a970-411a-9e91-8ca817032fa2"},"vehicle_type_id":"4","last_reported":1752340120,"current_range_meters":21600,"station_id":"ce4bhq92rcd13ifvqhjg","pricing_plan_id":"cebpf4jnsgd1na2vs0mg"},{"bike_id":"14abdbe5-b89b-46e2-b593-8823e66d0dc6","system_id":"levelo_inurba_marseille","lat":43.28491,"lon":5.38418,"is_reserved":false,"is_disabled":false,"rental_uris":{"android":"levelo://app?vid=14abdbe5-b89b-46e2-b593-8823e66d0dc6","ios":"levelo://app?vid=14abdbe5-b89b-46e2-b593-8823e66d0dc6"},"vehicle_type_id":"4","last_reported":1752340120,"current_range_meters":21600,"station_id":"ce4bh512rcd13ifvqe3g","pricing_plan_id":"cebpf4jnsgd1na2vs0mg"},{"bike_id":"2ec427da-b403-4a7e-86be-3f48ba535d18","system_id":"levelo_inurba_marseille","lat":43.2121,"lon":5.35067,"is_reserved":false,"is_disabled":false,"rental_uris":{"android":"levelo://app?vid=2ec427da-b403-4a7e-86be-3f48ba535d18","ios":"levelo://app?vid=2ec427da-b403-4a7e-86be-3f48ba535d18"},"vehicle_type_id":"4","last_reported":1752340120,"current_range_meters":22000,"station_id":"st_cvj6sg6p6f1abm77japg","pricing_plan_id":"cebpf4jnsgd1na2vs0mg"},{"bike_id":"0ade8314-6a29-4c19-bda6-4717b8a27a7f","system_id":"levelo_inurba_marseille","lat":43.2398,"lon":5.36614,"is_reserved":false,"is_disabled":false,"rental_uris":{"android":"levelo://app?vid=0ade8314-6a29-4c19-bda6-4717b8a27a7f","ios":"levelo://app?vid=0ade8314-6a29-4c19-bda6-4717b8a27a7f"},"vehicle_type_id":"4","last_reported":1752340120,"current_range_meters":22000,"station_id":"ce4bhi12rcd13ifvqfp0","pricing_plan_id":"cebpf4jnsgd1na2vs0mg"},{"bike_id":"8e5c91af-d136-4fad-86b8-0fadd610c0e6","system_id":"levelo_inurba_marseille","lat":43.24388,"lon":5.37054,"is_reserved":false,"is_disabled":false,"rental_uris":{"android":"levelo://app?vid=8e5c91af-d136-4fad-86b8-0fadd610c0e6","ios":"levelo://app?vid=8e5c91af-d136-4fad-86b8-0fadd610c0e6"},"vehicle_type_id":"4","last_reported":1752340120,"current_range_meters":22000,"station_id":"ce4bhhh2rcd13ifvqfk0","pricing_plan_id":"cebpf4jnsgd1na2vs0mg"},{"bike_id":"c5f570d5-1a80-4b37-b267-95d02760cfd5","system_id":"levelo_inurba_marseille","lat":43.28424,"lon":5.34985,"is_reserved":false,"is_disabled":false,"rental_uris":{"android":"levelo://app?vid=c5f570d5-1a80-4b37-b267-95d02760cfd5","ios":"levelo://app?vid=c5f570d5-1a80-4b37-b267-95d02760cfd5"},"vehicle_type_id":"4","last_reported":1752340120,"current_range_meters":22000,"station_id":"ce4bhbh2rcd13ifvqepg","pricing_plan_id":"cebpf4jnsgd1na2vs0mg"},{"bike_id":"a81bf92c-734f-423e-93d7-44480c0f6646","system_id":"levelo_inurba_marseille","lat":43.298058,"lon":5.404088,"is_reserved":false,"is_disabled":false,"rental_uris":{"android":"levelo://app?vid=a81bf92c-734f-423e-93d7-44480c0f6646","ios":"levelo://app?vid=a81bf92c-734f-423e-93d7-44480c0f6646"},"vehicle_type_id":"4","last_reported":1752340120,"current_range_meters":22000,"station_id":"ce4bh112rcd13ifvqd90","pricing_plan_id":"cebpf4jnsgd1na2vs0mg"},{"bike_id":"8e0b27d5-f908-46a8-ad15-0e195f6f9127","system_id":"levelo_inurba_marseille","lat":43.2656,"lon":5.3728,"is_reserved":false,"is_disabled":false,"rental_uris":{"android":"levelo://app?vid=8e0b27d5-f908-46a8-ad15-0e195f6f9127","ios":"levelo://app?vid=8e0b27d5-f908-46a8-ad15-0e195f6f9127"},"vehicle_type_id":"4","last_reported":1752340120,"current_range_meters":22000,"station_id":"ce4bhg12rcd13ifvqf70","pricing_plan_id":"cebpf4jnsgd1na2vs0mg"},{"bike_id":"f7cf9aab-0ed3-4931-a48c-8d0743d0c0b9","system_id":"levelo_inurba_marseille","lat":43.229266,"lon":5.353699,"is_reserved":false,"is_disabled":true,"rental_uris":{"android":"levelo://app?vid=f7cf9aab-0ed3-4931-a48c-8d0743d0c0b9","ios":"levelo://app?vid=f7cf9aab-0ed3-4931-a48c-8d0743d0c0b9"},"vehicle_type_id":"4","last_reported":1752340120,"current_range_meters":22000,"station_id":"cpo3532slgdg3j2ikp40","pricing_plan_id":"cebpf4jnsgd1na2vs0mg"},{"bike_id":"1b3dcbb8-512f-4342-8aaf-318d2604f1aa","system_id":"levelo_inurba_marseille","lat":43.29229,"lon":5.36057,"is_reserved":false,"is_disabled":false,"rental_uris":{"android":"levelo://app?vid=1b3dcbb8-512f-4342-8aaf-318d2604f1aa","ios":"levelo://app?vid=1b3dcbb8-512f-4342-8aaf-318d2604f1aa"},"vehicle_type_id":"4","last_reported":1752340120,"current_range_meters":22000,"station_id":"ce4bhbh2rcd13ifvqeqg","pricing_plan_id":"cebpf4jnsgd1na2vs0mg"},{"bike_id":"42190ea0-c0f7-4961-91c9-6e71894e9e88","system_id":"levelo_inurba_marseille","lat":43.29978,"lon":5.38494,"is_reserved":false,"is_disabled":false,"rental_uris":{"android":"levelo://app?vid=42190ea0-c0f7-4961-91c9-6e71894e9e88","ios":"levelo://app?vid=42190ea0-c0f7-4961-91c9-6e71894e9e88"},"vehicle_type_id":"4","last_reported":1752340120,"current_range_meters":22000,"station_id":"ce4bgj92rcd13ifvqbd0","pricing_plan_id":"cebpf4jnsgd1na2vs0mg"},{"bike_id":"321eab45-3b8d-4c30-af02-bbe0c3e40209","system_id":"levelo_inurba_marseille","lat":43.2549,"lon":5.37653,"is_reserved":false,"is_disabled":false,"rental_uris":{"android":"levelo://app?vid=321eab45-3b8d-4c30-af02-bbe0c3e40209","ios":"levelo://app?vid=321eab45-3b8d-4c30-af02-bbe0c3e40209"},"vehicle_type_id":"4","last_reported":1752340120,"current_range_meters":22000,"station_id":"ce4bhh12rcd13ifvqff0","pricing_plan_id":"cebpf4jnsgd1na2vs0mg"},{"bike_id":"99ae43ef-9981-41ec-907c-f94f73cc9ad2","system_id":"levelo_inurba_marseille","lat":43.29985,"lon":5.38484,"is_reserved":false,"is_disabled":false,"rental_uris":{"android":"levelo://app?vid=99ae43ef-9981-41ec-907c-f94f73cc9ad2","ios":"levelo://app?vid=99ae43ef-9981-41ec-907c-f94f73cc9ad2"},"vehicle_type_id":"4","last_reported":1752340120,"current_range_meters":22000,"station_id":"ce4bgj92rcd13ifvqbd0","pricing_plan_id":"cebpf4jnsgd1na2vs0mg"},{"bike_id":"717f238c-5e2e-466d-960b-5b21e181d0eb","system_id":"levelo_inurba_marseille","lat":43.28446,"lon":5.34999,"is_reserved":false,"is_disabled":false,"rental_uris":{"android":"levelo://app?vid=717f238c-5e2e-466d-960b-5b21e181d0eb","ios":"levelo://app?vid=717f238c-5e2e-466d-960b-5b21e181d0eb"},"vehicle_type_id":"4","last_reported":1752340120,"current_range_meters":22400,"station_id":"ce4bhbh2rcd13ifvqepg","pricing_plan_id":"cebpf4jnsgd1na2vs0mg"},{"bike_id":"a37a38a4-e572-4069-a09d-aa77439fb873","system_id":"levelo_inurba_marseille","lat":43.28322,"lon":5.35075,"is_reserved":false,"is_disabled":false,"rental_uris":{"android":"levelo://app?vid=a37a38a4-e572-4069-a09d-aa77439fb873","ios":"levelo://app?vid=a37a38a4-e572-4069-a09d-aa77439fb873"},"vehicle_type_id":"4","last_reported":1752340120,"current_range_meters":22400,"station_id":"","pricing_plan_id":"cebpf4jnsgd1na2vs0mg"},{"bike_id":"13cdca2b-25e0-48db-b1c3-e64610e8013e","system_id":"levelo_inurba_marseille","lat":43.27614,"lon":5.36106,"is_reserved":false,"is_disabled":false,"rental_uris":{"android":"levelo://app?vid=13cdca2b-25e0-48db-b1c3-e64610e8013e","ios":"levelo://app?vid=13cdca2b-25e0-48db-b1c3-e64610e8013e"},"vehicle_type_id":"4","last_reported":1752340120,"current_range_meters":22000,"station_id":"ce4bgj92rcd13ifvqbe0","pricing_plan_id":"cebpf4jnsgd1na2vs0mg"},{"bike_id":"8577aaca-7915-49c3-b3eb-bc84fe946baf","system_id":"levelo_inurba_marseille","lat":43.27564,"lon":5.41688,"is_reserved":false,"is_disabled":false,"rental_uris":{"android":"levelo://app?vid=8577aaca-7915-49c3-b3eb-bc84fe946baf","ios":"levelo://app?vid=8577aaca-7915-49c3-b3eb-bc84fe946baf"},"vehicle_type_id":"4","last_reported":1752340120,"current_range_meters":22400,"station_id":"","pricing_plan_id":"cebpf4jnsgd1na2vs0mg"},{"bike_id":"0a9c1993-c7f8-4d2a-9e05-0d525636cdbc","system_id":"levelo_inurba_marseille","lat":43.30156,"lon":5.38761,"is_reserved":false,"is_disabled":false,"rental_uris":{"android":"levelo://app?vid=0a9c1993-c7f8-4d2a-9e05-0d525636cdbc","ios":"levelo://app?vid=0a9c1993-c7f8-4d2a-9e05-0d525636cdbc"},"vehicle_type_id":"4","last_reported":1752340120,"current_range_meters":22400,"station_id":"ce4bghh2rcd13ifvqb60","pricing_plan_id":"cebpf4jnsgd1na2vs0mg"},{"bike_id":"05632530-3ba0-40ec-812d-7896b13e1e6d","system_id":"levelo_inurba_marseille","lat":43.29712,"lon":5.37694,"is_reserved":false,"is_disabled":false,"rental_uris":{"android":"levelo://app?vid=05632530-3ba0-40ec-812d-7896b13e1e6d","ios":"levelo://app?vid=05632530-3ba0-40ec-812d-7896b13e1e6d"},"vehicle_type_id":"4","last_reported":1752340120,"current_range_meters":22400,"station_id":"ce4bgkh2rcd13ifvqbl0","pricing_plan_id":"cebpf4jnsgd1na2vs0mg"},{"bike_id":"b5273ec3-4073-423b-a849-9f65770903d2","system_id":"levelo_inurba_marseille","lat":43.25001,"lon":5.38922,"is_reserved":false,"is_disabled":false,"rental_uris":{"android":"levelo://app?vid=b5273ec3-4073-423b-a849-9f65770903d2","ios":"levelo://app?vid=b5273ec3-4073-423b-a849-9f65770903d2"},"vehicle_type_id":"4","last_reported":1752340120,"current_range_meters":22400,"station_id":"ce4bhgp2rcd13ifvqfd0","pricing_plan_id":"cebpf4jnsgd1na2vs0mg"},{"bike_id":"fc5b4626-cf66-4a7f-ae6e-f2f640f70dc8","system_id":"levelo_inurba_marseille","lat":43.32339,"lon":5.36602,"is_reserved":false,"is_disabled":false,"rental_uris":{"android":"levelo://app?vid=fc5b4626-cf66-4a7f-ae6e-f2f640f70dc8","ios":"levelo://app?vid=fc5b4626-cf66-4a7f-ae6e-f2f640f70dc8"},"vehicle_type_id":"4","last_reported":1752340120,"current_range_meters":22400,"station_id":"ce4bhsh2rcd13ifvqi2g","pricing_plan_id":"cebpf4jnsgd1na2vs0mg"},{"bike_id":"9f69f52f-0bcd-4aee-bd4b-985a9279da3a","system_id":"levelo_inurba_marseille","lat":43.26558,"lon":5.37277,"is_reserved":false,"is_disabled":false,"rental_uris":{"android":"levelo://app?vid=9f69f52f-0bcd-4aee-bd4b-985a9279da3a","ios":"levelo://app?vid=9f69f52f-0bcd-4aee-bd4b-985a9279da3a"},"vehicle_type_id":"4","last_reported":1752340120,"current_range_meters":22400,"station_id":"ce4bhg12rcd13ifvqf70","pricing_plan_id":"cebpf4jnsgd1na2vs0mg"},{"bike_id":"7a888645-4b0c-4379-98d8-380a5347b74c","system_id":"levelo_inurba_marseille","lat":43.2741,"lon":5.36251,"is_reserved":false,"is_disabled":true,"rental_uris":{"android":"levelo://app?vid=7a888645-4b0c-4379-98d8-380a5347b74c","ios":"levelo://app?vid=7a888645-4b0c-4379-98d8-380a5347b74c"},"vehicle_type_id":"4","last_reported":1752340120,"current_range_meters":22800,"station_id":"","pricing_plan_id":"cebpf4jnsgd1na2vs0mg"},{"bike_id":"697d5fc4-b988-4a4e-8323-c1ce5ed61a61","system_id":"levelo_inurba_marseille","lat":43.211941,"lon":5.350729,"is_reserved":false,"is_disabled":false,"rental_uris":{"android":"levelo://app?vid=697d5fc4-b988-4a4e-8323-c1ce5ed61a61","ios":"levelo://app?vid=697d5fc4-b988-4a4e-8323-c1ce5ed61a61"},"vehicle_type_id":"4","last_reported":1752340120,"current_range_meters":22800,"station_id":"st_cvj6sg6p6f1abm77japg","pricing_plan_id":"cebpf4jnsgd1na2vs0mg"},{"bike_id":"32f1c2b5-522a-4242-bab4-abd002128b88","system_id":"levelo_inurba_marseille","lat":43.309087,"lon":5.368493,"is_reserved":false,"is_disabled":false,"rental_uris":{"android":"levelo://app?vid=32f1c2b5-522a-4242-bab4-abd002128b88","ios":"levelo://app?vid=32f1c2b5-522a-4242-bab4-abd002128b88"},"vehicle_type_id":"4","last_reported":1752340120,"current_range_meters":22800,"station_id":"ce4bgn92rcd13ifvqbvg","pricing_plan_id":"cebpf4jnsgd1na2vs0mg"},{"bike_id":"80955d0f-8669-4c02-b90f-c6fe20790c37","system_id":"levelo_inurba_marseille","lat":43.23199,"lon":5.3505,"is_reserved":false,"is_disabled":false,"rental_uris":{"android":"levelo://app?vid=80955d0f-8669-4c02-b90f-c6fe20790c37","ios":"levelo://app?vid=80955d0f-8669-4c02-b90f-c6fe20790c37"},"vehicle_type_id":"4","last_reported":1752340120,"current_range_meters":22800,"station_id":"","pricing_plan_id":"cebpf4jnsgd1na2vs0mg"},{"bike_id":"f59f6657-f62a-42fc-a273-bf50a25645d6","system_id":"levelo_inurba_marseille","lat":43.273691,"lon":5.362702,"is_reserved":false,"is_disabled":false,"rental_uris":{"android":"levelo://app?vid=f59f6657-f62a-42fc-a273-bf50a25645d6","ios":"levelo://app?vid=f59f6657-f62a-42fc-a273-bf50a25645d6"},"vehicle_type_id":"4","last_reported":1752340120,"current_range_meters":22800,"station_id":"ce4bhbh2rcd13ifvqeo0","pricing_plan_id":"cebpf4jnsgd1na2vs0mg"},{"bike_id":"23a0fc67-4c39-4b74-8a86-2903d79b1606","system_id":"levelo_inurba_marseille","lat":43.23209,"lon":5.35556,"is_reserved":false,"is_disabled":true,"rental_uris":{"android":"levelo://app?vid=23a0fc67-4c39-4b74-8a86-2903d79b1606","ios":"levelo://app?vid=23a0fc67-4c39-4b74-8a86-2903d79b1606"},"vehicle_type_id":"4","last_reported":1752340120,"current_range_meters":22800,"station_id":"ce4bhu92rcd13ifvqi70","pricing_plan_id":"cebpf4jnsgd1na2vs0mg"},{"bike_id":"7fed6716-fd2b-4e2e-bc97-750f11d06042","system_id":"levelo_inurba_marseille","lat":43.273834,"lon":5.362479,"is_reserved":false,"is_disabled":false,"rental_uris":{"android":"levelo://app?vid=7fed6716-fd2b-4e2e-bc97-750f11d06042","ios":"levelo://app?vid=7fed6716-fd2b-4e2e-bc97-750f11d06042"},"vehicle_type_id":"4","last_reported":1752340120,"current_range_meters":22800,"station_id":"ce4bhbh2rcd13ifvqeo0","pricing_plan_id":"cebpf4jnsgd1na2vs0mg"},