{"last_updated":1736756019,"ttl":60,"version":"2.2","data":{"bikes":[{"bike_id":"73c91127-67e0-422f-8568-4d52dd016d1c","system_id":"levelo_inurba_marseille","lat":43.29647,"lon":5.37776,"is_reserved":false,"is_disabled":false,"rental_uris":{"android":"levelo://app?vid=73c91127-67e0-422f-8568-4d52dd016d1c","ios":"levelo://app?vid=73c91127-67e0-422f-8568-4d52dd016d1c"},"vehicle_type_id":"4","last_reported":1736756020,"current_range_meters":14400,"station_id":"ce4bgi92rcd13ifvqb90","pricing_plan_id":"cebpf4jnsgd1na2vs0mg"},{"bike_id":"a2263eec-e25d-4aed-aa66-2c9c8c77a8a2","system_id":"levelo_inurba_marseille","lat":43.25079,"lon":5.39516,"is_reserved":false,"is_disabled":false,"rental_uris":{"android":"levelo://app?vid=a2263eec-e25d-4aed-aa66-2c9c8c77a8a2","ios":"levelo://app?vid=a2263eec-e25d-4aed-aa66-2c9c8c77a8a2"},"vehicle_type_id":"4","last_reported":1736756020,"current_range_meters":32000,"station_id":"ce4bhm12rcd13ifvqgkg","pricing_plan_id":"cebpf4jnsgd1na2vs0mg"},{"bike_id":"acbcebf9-c541-4938-9819-ce556c78935a","system_id":"levelo_inurba_marseille","lat":43.2593,"lon":5.40906,"is_reserved":false,"is_disabled":false,"rental_uris":{"android":"levelo://app?vid=acbcebf9-c541-4938-9819-ce556c78935a","ios":"levelo://app?vid=acbcebf9-c541-4938-9819-ce556c78935a"},"vehicle_type_id":"4","last_reported":1736756020,"current_range_meters":32000,"station_id":"ce4bhm92rcd13ifvqglg","pricing_plan_id":"cebpf4jnsgd1na2vs0mg"},{"bike_id":"12ae405f-5b0d-4862-b494-f67824c6afea","system_id":"levelo_inurba_marseille","lat":43.2593,"lon":5.4091,"is_reserved":false,"is_disabled":false,"rental_uris":{"android":"levelo://app?vid=12ae405f-5b0d-4862-b494-f67824c6afea","ios":"levelo://app?vid=12ae405f-5b0d-4862-b494-f67824c6afea"},"vehicle_type_id":"4","last_reported":1736756020,"current_range_meters":24000,"station_id":"ce4bhm92rcd13ifvqglg","pricing_plan_id":"cebpf4jnsgd1na2vs0mg"},{"bike_id":"93228ee6-2270-40b6-878d-9739bbb4b9e7","system_id":"levelo_inurba_marseille","lat":43.29041,"lon":5.39956,"is_reserved":false,"is_disabled":false,"rental_uris":{"android":"levelo://app?vid=93228ee6-2270-40b6-878d-9739bbb4b9e7","ios":"levelo://app?vid=93228ee6-2270-40b6-878d-9739bbb4b9e7"},"vehicle_type_id":"4","last_reported":1736756020,"current_range_meters":30000,"station_id":"ce4bh392rcd13ifvqdm0","pricing_plan_id":"cebpf4jnsgd1na2vs0mg"},{"bike_id":"b974e9dc-f694-42ee-a66f-f9a9d923e09b","system_id":"levelo_inurba_marseille","lat":43.31353,"lon":5.38493,"is_reserved":false,"is_disabled":false,"rental_uris":{"android":"levelo://app?vid=b974e9dc-f694-42ee-a66f-f9a9d923e09b","ios":"levelo://app?vid=b974e9dc-f694-42ee-a66f-f9a9d923e09b"},"vehicle_type_id":"4","last_reported":1736756020,"current_range_meters":34800,"station_id":"ce4bgt92rcd13ifvqcf0","pricing_plan_id":"cebpf4jnsgd1na2vs0mg"},{"bike_id":"e8c303e0-b438-41ea-bfb5-c9e3785a0889","system_id":"levelo_inurba_marseille","lat":43.23141,"lon":5.43716,"is_reserved":false,"is_disabled":false,"rental_uris":{"android":"levelo://app?vid=e8c303e0-b438-41ea-bfb5-c9e3785a0889","ios":"levelo://app?vid=e8c303e0-b438-41ea-bfb5-c9e3785a0889"},"vehicle_type_id":"4","last_reported":1736756020,"current_range_meters":17600,"station_id":"ce4bhmp2rcd13ifvqgog","pricing_plan_id":"cebpf4jnsgd1na2vs0mg"},{"bike_id":"52b34702-0dce-4372-b662-e45e1618cde4","system_id":"levelo_inurba_marseille","lat":43.31341,"lon":5.36718,"is_reserved":false,"is_disabled":false,"rental_uris":{"android":"levelo://app?vid=52b34702-0dce-4372-b662-e45e1618cde4","ios":"levelo://app?vid=52b34702-0dce-4372-b662-e45e1618cde4"},"vehicle_type_id":"4","last_reported":1736756020,"current_range_meters":34800,"station_id":"ce4bgr92rcd13ifvqc6g","pricing_plan_id":"cebpf4jnsgd1na2vs0mg"},{"bike_id":"6f159896-776d-419c-ba79-7243c169a2d8","system_id":"levelo_inurba_marseille","lat":43.29787,"lon":5.38087,"is_reserved":false,"is_disabled":true,"rental_uris":{"android":"levelo://app?vid=6f159896-776d-419c-ba79-7243c169a2d8","ios":"levelo://app?vid=6f159896-776d-419c-ba79-7243c169a2d8"},"vehicle_type_id":"4","last_reported":1736756020,"current_range_meters":0,"station_id":"ce4bgip2rcd13ifvqbb0","pricing_plan_id":"cebpf4jnsgd1na2vs0mg"},{"bike_id":"15df4899-6207-496a-8c37-ac953b2dff2b","system_id":"levelo_inurba_marseille","lat":43.30536,"lon":5.3672,"is_reserved":false,"is_disabled":false,"rental_uris":{"android":"levelo://app?vid=15df4899-6207-496a-8c37-ac953b2dff2b","ios":"levelo://app?vid=15df4899-6207-496a-8c37-ac953b2dff2b"},"vehicle_type_id":"4","last_reported":1736756020,"current_range_meters":29600,"station_id":"ce4bgrp2rcd13ifvqc9g","pricing_plan_id":"cebpf4jnsgd1na2vs0mg"},{"bike_id":"a6c0c725-1398-48eb-9012-8871e806d9ff","system_id":"levelo_inurba_marseille","lat":43.25723,"lon":5.41115,"is_reserved":false,"is_disabled":false,"rental_uris":{"android":"levelo://app?vid=a6c0c725-1398-48eb-9012-8871e806d9ff","ios":"levelo://app?vid=a6c0c725-1398-48eb-9012-8871e806d9ff"},"vehicle_type_id":"4","last_reported":1736756020,"current_range_meters":38000,"station_id":"ce4bhkp2rcd13ifvqgd0","pricing_plan_id":"cebpf4jnsgd1na2vs0mg"},{"bike_id":"6ba53d8a-7aed-4e82-aa8e-de48e43b55a1","system_id":"levelo_inurba_marseille","lat":43.26012,"lon":5.37553,"is_reserved":false,"is_disabled":false,"rental_uris":{"android":"levelo://app?vid=6ba53d8a-7aed-4e82-aa8e-de48e43b55a1","ios":"levelo://app?vid=6ba53d8a-7aed-4e82-aa8e-de48e43b55a1"},"vehicle_type_id":"4","last_reported":1736756020,"current_range_meters":36400,"station_id":"ce4bhgh2rcd13ifvqfa0","pricing_plan_id":"cebpf4jnsgd1na2vs0mg"},{"bike_id":"bedfce0e-3b55-4239-8833-c5d32209acc6","system_id":"levelo_inurba_marseille","lat":43.27971,"lon":5.38743,"is_reserved":false,"is_disabled":false,"rental_uris":{"android":"levelo://app?vid=bedfce0e-3b55-4239-8833-c5d32209acc6","ios":"levelo://app?vid=bedfce0e-3b55-4239-8833-c5d32209acc6"},"vehicle_type_id":"4","last_reported":1736756020,"current_range_meters":28000,"station_id":"ce4bhg12rcd13ifvqf80","pricing_plan_id":"cebpf4jnsgd1na2vs0mg"},{"bike_id":"8a0a63c5-a4ea-4b70-8b87-5cf7d310b8f8","system_id":"levelo_inurba_marseille","lat":43.30271,"lon":5.37717,"is_reserved":false,"is_disabled":false,"rental_uris":{"android":"levelo://app?vid=8a0a63c5-a4ea-4b70-8b87-5cf7d310b8f8","ios":"levelo://app?vid=8a0a63c5-a4ea-4b70-8b87-5cf7d310b8f8"},"vehicle_type_id":"4","last_reported":1736756020,"current_range_meters":17200,"station_id":"ce4bguh2rcd13ifvqcj0","pricing_plan_id":"cebpf4jnsgd1na2vs0mg"},{"bike_id":"7ef2be12-0b00-4e18-aaf8-eb20c7337086","system_id":"levelo_inurba_marseille","lat":43.2749,"lon":5.42453,"is_reserved":false,"is_disabled":false,"rental_uris":{"android":"levelo://app?vid=7ef2be12-0b00-4e18-aaf8-eb20c7337086","ios":"levelo://app?vid=7ef2be12-0b00-4e18-aaf8-eb20c7337086"},"vehicle_type_id":"4","last_reported":1736756020,"current_range_meters":16000,"station_id":"ce4bhn92rcd13ifvqgrg","pricing_plan_id":"cebpf4jnsgd1na2vs0mg"},{"bike_id":"b5c8f85c-e9ae-462e-b017-013eb2d5b68f","system_id":"levelo_inurba_marseille","lat":43.23128,"lon":5.43736,"is_reserved":false,"is_disabled":false,"rental_uris":{"android":"levelo://app?vid=b5c8f85c-e9ae-462e-b017-013eb2d5b68f","ios":"levelo://app?vid=b5c8f85c-e9ae-462e-b017-013eb2d5b68f"},"vehicle_type_id":"4","last_reported":1736756020,"current_range_meters":17600,"station_id":"ce4bhmp2rcd13ifvqgog","pricing_plan_id":"cebpf4jnsgd1na2vs0mg"},{"bike_id":"f6184cbf-c92f-4cd9-a4bc-725ea8804222","system_id":"levelo_inurba_marseille","lat":43.34138,"lon":5.40905,"is_reserved":false,"is_disabled":false,"rental_uris":{"android":"levelo://app?vid=f6184cbf-c92f-4cd9-a4bc-725ea8804222","ios":"levelo://app?vid=f6184cbf-c92f-4cd9-a4bc-725ea8804222"},"vehicle_type_id":"4","last_reported":1736756020,"current_range_meters":38800,"station_id":"ce4bhqh2rcd13ifvqhlg","pricing_plan_id":"cebpf4jnsgd1na2vs0mg"},{"bike_id":"5a704b13-95a8-4984-bbb8-1f34ac8f932b","system_id":"levelo_inurba_marseille","lat":43.29571,"lon":5.39975,"is_reserved":false,"is_disabled":false,"rental_uris":{"android":"levelo://app?vid=5a704b13-95a8-4984-bbb8-1f34ac8f932b","ios":"levelo://app?vid=5a704b13-95a8-4984-bbb8-1f34ac8f932b"},"vehicle_type_id":"4","last_reported":1736756020,"current_range_meters":15200,"station_id":"ce4bh312rcd13ifvqdj0","pricing_plan_id":"cebpf4jnsgd1na2vs0mg"},{"bike_id":"25201559-3be6-490e-b049-639df5366fcd","system_id":"levelo_inurba_marseille","lat":43.29978,"lon":5.38488,"is_reserved":false,"is_disabled":true,"rental_uris":{"android":"levelo://app?vid=25201559-3be6-490e-b049-639df5366fcd","ios":"levelo://app?vid=25201559-3be6-490e-b049-639df5366fcd"},"vehicle_type_id":"4","last_reported":1736756020,"current_range_meters":6800,"station_id":"ce4bgj92rcd13ifvqbd0","pricing_plan_id":"cebpf4jnsgd1na2vs0mg"},{"bike_id":"9fa9af50-b1c9-4c3e-bb7d-5ab93a672243","system_id":"levelo_inurba_marseille","lat":43.33607,"lon":5.40986,"is_reserved":false,"is_disabled":false,"rental_uris":{"android":"levelo://app?vid=9fa9af50-b1c9-4c3e-bb7d-5ab93a672243","ios":"levelo://app?vid=9fa9af50-b1c9-4c3e-bb7d-5ab93a672243"},"vehicle_type_id":"4","last_reported":1736756020,"current_range_meters":38400,"station_id":"ce4bhqh2rcd13ifvqhmg","pricing_plan_id":"cebpf4jnsgd1na2vs0mg"},{"bike_id":"6c97ad1f-46a7-4764-9b51-456a532763e6","system_id":"levelo_inurba_marseille","lat":43.28971,"lon":5.37825,"is_reserved":false,"is_disabled":false,"rental_uris":{"android":"levelo://app?vid=6c97ad1f-46a7-4764-9b51-456a532763e6","ios":"levelo://app?vid=6c97ad1f-46a7-4764-9b51-456a532763e6"},"vehicle_type_id":"4","last_reported":1736756020,"current_range_meters":39200,"station_id":"ce4bh9p2rcd13ifvqed0","pricing_plan_id":"cebpf4jnsgd1na2vs0mg"},{"bike_id":"2ea2c228-0940-42c6-a0d3-d8191be146e6","system_id":"levelo_inurba_marseille","lat":43.30555,"lon":5.36695,"is_reserved":false,"is_disabled":false,"rental_uris":{"android":"levelo://app?vid=2ea2c228-0940-42c6-a0d3-d8191be146e6","ios":"levelo://app?vid=2ea2c228-0940-42c6-a0d3-d8191be146e6"},"vehicle_type_id":"4","last_reported":1736756020,"current_range_meters":38800,"station_id":"ce4bgrp2rcd13ifvqc9g","pricing_plan_id":"cebpf4jnsgd1na2vs0mg"},{"bike_id":"6a8dc65c-8c47-4239-8815-8efa2acdc338","system_id":"levelo_inurba_marseille","lat":43.27987,"lon":5.41655,"is_reserved":false,"is_disabled":true,"rental_uris":{"android":"levelo://app?vid=6a8dc65c-8c47-4239-8815-8efa2acdc338","ios":"levelo://app?vid=6a8dc65c-8c47-4239-8815-8efa2acdc338"},"vehicle_type_id":"4","last_reported":1736756020,"current_range_meters":4800,"station_id":"ce4bho12rcd13ifvqh1g","pricing_plan_id":"cebpf4jnsgd1na2vs0mg"},{"bike_id":"14a4de5f-9bd3-47db-a585-25c24971a15e","system_id":"levelo_inurba_marseille","lat":43.29325,"lon":5.39129,"is_reserved":false,"is_disabled":false,"rental_uris":{"android":"levelo://app?vid=14a4de5f-9bd3-47db-a585-25c24971a15e","ios":"levelo://app?vid=14a4de5f-9bd3-47db-a585-25c24971a15e"},"vehicle_type_id":"4","last_reported":1736756020,"current_range_meters":15200,"station_id":"","pricing_plan_id":"cebpf4jnsgd1na2vs0mg"},{"bike_id":"94d00723-79f7-443c-bc62-0c89ddbb1d1c","system_id":"levelo_inurba_marseille","lat":43.28168,"lon":5.42635,"is_reserved":false,"is_disabled":true,"rental_uris":{"android":"levelo://app?vid=94d00723-79f7-443c-bc62-0c89ddbb1d1c","ios":"levelo://app?vid=94d00723-79f7-443c-bc62-0c89ddbb1d1c"},"vehicle_type_id":"4","last_reported":1736756020,"current_range_meters":22400,"station_id":"ce4bhnh2rcd13ifvqgug","pricing_plan_id":"cebpf4jnsgd1na2vs0mg"},{"bike_id":"1d1453ac-9920-4217-9a89-34f1fcade485","system_id":"levelo_inurba_marseille","lat":43.23152,"lon":5.43721,"is_reserved":false,"is_disabled":true,"rental_uris":{"android":"levelo://app?vid=1d1453ac-9920-4217-9a89-34f1fcade485","ios":"levelo://app?vid=1d1453ac-9920-4217-9a89-34f1fcade485"},"vehicle_type_id":"4","last_reported":1736756020,"current_range_meters":0,"station_id":"ce4bhmp2rcd13ifvqgog","pricing_plan_id":"cebpf4jnsgd1na2vs0mg"},{"bike_id":"e35d110b-0ca6-4c99-b711-04ba364d3860","system_id":"levelo_inurba_marseille","lat":43.23194,"lon":5.3555,"is_reserved":false,"is_disabled":false,"rental_uris":{"android":"levelo://app?vid=e35d110b-0ca6-4c99-b711-04ba364d3860","ios":"levelo://app?vid=e35d110b-0ca6-4c99-b711-04ba364d3860"},"vehicle_type_id":"4","last_reported":1736756020,"current_range_meters":38400,"station_id":"ce4bhu92rcd13ifvqi70","pricing_plan_id":"cebpf4jnsgd1na2vs0mg"},{"bike_id":"148d0a7c-42d0-4872-b2d5-6ca7f7016b4c","system_id":"levelo_inurba_marseille","lat":43.24176,"lon":5.39717,"is_reserved":false,"is_disabled":false,"rental_uris":{"android":"levelo://app?vid=148d0a7c-42d0-4872-b2d5-6ca7f7016b4c","ios":"levelo://app?vid=148d0a7c-42d0-4872-b2d5-6ca7f7016b4c"},"vehicle_type_id":"4","last_reported":1736756020,"current_range_meters":32800,"station_id":"ce4bhn12rcd13ifvqgpg","pricing_plan_id":"cebpf4jnsgd1na2vs0mg"},{"bike_id":"92a16257-c803-43e8-baae-6259f92b5ff5","system_id":"levelo_inurba_marseille","lat":43.29186,"lon":5.35814,"is_reserved":false,"is_disabled":true,"rental_uris":{"android":"levelo://app?vid=92a16257-c803-43e8-baae-6259f92b5ff5","ios":"levelo://app?vid=92a16257-c803-43e8-baae-6259f92b5ff5"},"vehicle_type_id":"4","last_reported":1736756020,"current_range_meters":2800,"station_id":"ce4bhb12rcd13ifvqel0","pricing_plan_id":"cebpf4jnsgd1na2vs0mg"},{"bike_id":"a16a4938-07a9-4f64-adf2-29a7e6f8a1c3","system_id":"levelo_inurba_marseille","lat":43.29044,"lon":5.3997,"is_reserved":false,"is_disabled":false,"rental_uris":{"android":"levelo://app?vid=a16a4938-07a9-4f64-adf2-29a7e6f8a1c3","ios":"levelo://app?vid=a16a4938-07a9-4f64-adf2-29a7e6f8a1c3"},"vehicle_type_id":"4","last_reported":1736756020,"current_range_meters":6800,"station_id":"ce4bh392rcd13ifvqdm0","pricing_plan_id":"cebpf4jnsgd1na2vs0mg"},{"bike_id":"aa9570cc-0398-438b-93cc-8658846ae209","system_id":"levelo_inurba_marseille","lat":43.33588,"lon":5.41005,"is_reserved":false,"is_disabled":false,"rental_uris":{"android":"levelo://app?vid=aa9570cc-0398-438b-93cc-8658846ae209","ios":"levelo://app?vid=aa9570cc-0398-438b-93cc-8658846ae209"},"vehicle_type_id":"4","last_reported":1736756020,"current_range_meters":32400,"station_id":"ce4bhqh2rcd13ifvqhmg","pricing_plan_id":"cebpf4jnsgd1na2vs0mg"},{"bike_id":"4536007d-0cfb-4e9d-a914-9b715b46ce6f","system_id":"levelo_inurba_marseille","lat":43.27318,"lon":5.39115,"is_reserved":false,"is_disabled":true,"rental_uris":{"android":"levelo://app?vid=4536007d-0cfb-4e9d-a914-9b715b46ce6f","ios":"levelo://app?vid=4536007d-0cfb-4e9d-a914-9b715b46ce6f"},"vehicle_type_id":"4","last_reported":1736756020,"current_range_meters":19200,"station_id":"ce4bhgp2rcd13ifvqfe0","pricing_plan_id":"cebpf4jnsgd1na2vs0mg"},{"bike_id":"f355b85c-f86d-4422-8e4b-dfed5a44b510","system_id":"levelo_inurba_marseille","lat":43.26957,"lon":5.38607,"is_reserved":false,"is_disabled":false,"rental_uris":{"android":"levelo://app?vid=f355b85c-f86d-4422-8e4b-dfed5a44b510","ios":"levelo://app?vid=f355b85c-f86d-4422-8e4b-dfed5a44b510"},"vehicle_type_id":"4","last_reported":1736756020,"current_range_meters":38000,"station_id":"ce4bhh92rcd13ifvqfh0","pricing_plan_id":"cebpf4jnsgd1na2vs0mg"},{"bike_id":"6b750947-fb43-40e2-9931-495446cc2b3f","system_id":"levelo_inurba_marseille","lat":43.22926,"lon":5.35379,"is_reserved":false,"is_disabled":false,"rental_uris":{"android":"levelo://app?vid=6b750947-fb43-40e2-9931-495446cc2b3f","ios":"levelo://app?vid=6b750947-fb43-40e2-9931-495446cc2b3f"},"vehicle_type_id":"4","last_reported":1736756020,"current_range_meters":30000,"station_id":"cpo3532slgdg3j2ikp40","pricing_plan_id":"cebpf4jnsgd1na2vs0mg"},{"bike_id":"c8e997c0-8580-4d0f-8d9f-0766596381e1","system_id":"levelo_inurba_marseille","lat":43.340309,"lon":5.375412,"is_reserved":false,"is_disabled":true,"rental_uris":{"android":"levelo://app?vid=c8e997c0-8580-4d0f-8d9f-0766596381e1","ios":"levelo://app?vid=c8e997c0-8580-4d0f-8d9f-0766596381e1"},"vehicle_type_id":"4","last_reported":1736756020,"current_range_meters":0,"station_id":"","pricing_plan_id":"cebpf4jnsgd1na2vs0mg"},{"bike_id":"8382408b-c02d-4216-82fb-9e187be52d3b","system_id":"levelo_inurba_marseille","lat":43.30283,"lon":5.37703,"is_reserved":false,"is_disabled":false,"rental_uris":{"android":"levelo://app?vid=8382408b-c02d-4216-82fb-9e187be52d3b","ios":"levelo://app?vid=8382408b-c02d-4216-82fb-9e187be52d3b"},"vehicle_type_id":"4","last_reported":1736756020,"current_range_meters":22800,"station_id":"ce4bguh2rcd13ifvqcj0","pricing_plan_id":"cebpf4jnsgd1na2vs0mg"},{"bike_id":"ba5df164-d25c-4a1c-8679-1bd1a1db0642","system_id":"levelo_inurba_marseille","lat":43.337304,"lon":5.391903,"is_reserved":false,"is_disabled":false,"rental_uris":{"android":"levelo://app?vid=ba5df164-d25c-4a1c-8679-1bd1a1db0642","ios":"levelo://app?vid=ba5df164-d25c-4a1c-8679-1bd1a1db0642"},"vehicle_type_id":"4","last_reported":1736756020,"current_range_meters":20400,"station_id":"ce4bhr92rcd13ifvqhsg","pricing_plan_id":"cebpf4jnsgd1na2vs0mg"},{"bike_id":"5108b6cf-4ded-4fbc-8c1c-5e566aa11fad","system_id":"levelo_inurba_marseille","lat":43.29841,"lon":5.43692,"is_reserved":false,"is_disabled":false,"rental_uris":{"android":"levelo://app?vid=5108b6cf-4ded-4fbc-8c1c-5e566aa11fad","ios":"levelo://app?vid=5108b6cf-4ded-4fbc-8c1c-5e566aa11fad"},"vehicle_type_id":"4","last_reported":1736756020,"current_range_meters":36000,"station_id":"","pricing_plan_id":"cebpf4jnsgd1na2vs0mg"},{"bike_id":"11f8911a-8720-432e-b830-8b59af40bd6e","system_id":"levelo_inurba_marseille","lat":43.30911,"lon":5.36837,"is_reserved":false,"is_disabled":false,"rental_uris":{"android":"levelo://app?vid=11f8911a-8720-432e-b830-8b59af40bd6e","ios":"levelo://app?vid=11f8911a-8720-432e-b830-8b59af40bd6e"},"vehicle_type_id":"4","last_reported":1736756020,"current_range_meters":32400,"station_id":"ce4bgn92rcd13ifvqbvg","pricing_plan_id":"cebpf4jnsgd1na2vs0mg"},{"bike_id":"5b3f1dfb-2aa0-4707-a42a-8674894db5c0","system_id":"levelo_inurba_marseille","lat":43.30535,"lon":5.36555,"is_reserved":false,"is_disabled":false,"rental_uris":{"android":"levelo://app?vid=5b3f1dfb-2aa0-4707-a42a-8674894db5c0","ios":"levelo://app?vid=5b3f1dfb-2aa0-4707-a42a-8674894db5c0"},"vehicle_type_id":"4","last_reported":1736756020,"current_range_meters":10800,"station_id":"ce4bgs12rcd13ifvqcag","pricing_plan_id":"cebpf4jnsgd1na2vs0mg"},{"bike_id":"7dd5dd5e-1d75-4c5b-b5b8-248a34302cca","system_id":"levelo_inurba_marseille","lat":43.30476,"lon":5.37871,"is_reserved":false,"is_disabled":true,"rental_uris":{"android":"levelo://app?vid=7dd5dd5e-1d75-4c5b-b5b8-248a34302cca","ios":"levelo://app?vid=7dd5dd5e-1d75-4c5b-b5b8-248a34302cca"},"vehicle_type_id":"4","last_reported":1736756020,"current_range_meters":27600,"station_id":"ce4bgup2rcd13ifvqcn0","pricing_plan_id":"cebpf4jnsgd1na2vs0mg"},{"bike_id":"d912dc3c-ecc3-4af2-8b7b-cb91a53c7e64","system_id":"levelo_inurba_marseille","lat":43.26018,"lon":5.37584,"is_reserved":false,"is_disabled":false,"rental_uris":{"android":"levelo://app?vid=d912dc3c-ecc3-4af2-8b7b-cb91a53c7e64","ios":"levelo://app?vid=d912dc3c-ecc3-4af2-8b7b-cb91a53c7e64"},"vehicle_type_id":"4","last_reported":1736756020,"current_range_meters":36800,"station_id":"ce4bhgh2rcd13ifvqfa0","pricing_plan_id":"cebpf4jnsgd1na2vs0mg"},{"bike_id":"d8327471-e10e-4e1d-a46b-c43156fc0620","system_id":"levelo_inurba_marseille","lat":43.2679,"lon":5.39419,"is_reserved":false,"is_disabled":true,"rental_uris":{"android":"levelo://app?vid=d8327471-e10e-4e1d-a46b-c43156fc0620","ios":"levelo://app?vid=d8327471-e10e-4e1d-a46b-c43156fc0620"},"vehicle_type_id":"4","last_reported":1736756020,"current_range_meters":0,"station_id":"ce4bhh12rcd13ifvqfg0","pricing_plan_id":"cebpf4jnsgd1na2vs0mg"},{"bike_id":"6bc6a50f-b5c7-48ac-ab4a-0529290b2be3","system_id":"levelo_inurba_marseille","lat":43.31114,"lon":5.37769,"is_reserved":false,"is_disabled":false,"rental_uris":{"android":"levelo://app?vid=6bc6a50f-b5c7-48ac-ab4a-0529290b2be3","ios":"levelo://app?vid=6bc6a50f-b5c7-48ac-ab4a-0529290b2be3"},"vehicle_type_id":"4","last_reported":1736756020,"current_range_meters":14800,"station_id":"ce4bgt92rcd13ifvqcg0","pricing_plan_id":"cebpf4jnsgd1na2vs0mg"},{"bike_id":"a2f54931-6982-47b6-b520-a6c75f98da8c","system_id":"levelo_inurba_marseille","lat":43.31685,"lon":5.40473,"is_reserved":false,"is_disabled":false,"rental_uris":{"android":"levelo://app?vid=a2f54931-6982-47b6-b520-a6c75f98da8c","ios":"levelo://app?vid=a2f54931-6982-47b6-b520-a6c75f98da8c"},"vehicle_type_id":"4","last_reported":1736756020,"current_range_meters":33600,"station_id":"ce4bh012rcd13ifvqd00","pricing_plan_id":"cebpf4jnsgd1na2vs0mg"},{"bike_id":"c5ff6db6-8de9-42d1-8f1a-7952d737cffb","system_id":"levelo_inurba_marseille","lat":43.32485,"lon":5.3655,"is_reserved":false,"is_disabled":false,"rental_uris":{"android":"levelo://app?vid=c5ff6db6-8de9-42d1-8f1a-7952d737cffb","ios":"levelo://app?vid=c5ff6db6-8de9-42d1-8f1a-7952d737cffb"},"vehicle_type_id":"4","last_reported":1736756020,"current_range_meters":33200,"station_id":"ce4bhs12rcd13ifvqhvg","pricing_plan_id":"cebpf4jnsgd1na2vs0mg"},{"bike_id":"0edce83f-b96e-4b0a-af3a-d85300d10ec7","system_id":"levelo_inurba_marseille","lat":43.3093,"lon":5.36829,"is_reserved":false,"is_disabled":false,"rental_uris":{"android":"levelo://app?vid=0edce83f-b96e-4b0a-af3a-d85300d10ec7","ios":"levelo://app?vid=0edce83f-b96e-4b0a-af3a-d85300d10ec7"},"vehicle_type_id":"4","last_reported":1736756020,"current_range_meters":37600,"station_id":"ce4bgn92rcd13ifvqbvg","pricing_plan_id":"cebpf4jnsgd1na2vs0mg"},{"bike_id":"d7eecf4e-d928-478e-b2e0-4d482491cd03","system_id":"levelo_inurba_marseille","lat":43.29279,"lon":5.36858,"is_reserved":false,"is_disabled":false,"rental_uris":{"android":"levelo://app?vid=d7eecf4e-d928-478e-b2e0-4d482491cd03","ios":"levelo://app?vid=d7eecf4e-d928-478e-b2e0-4d482491cd03"},"vehicle_type_id":"4","last_reported":1736756020,"current_range_meters":17200,"station_id":"ce4bhbp2rcd13ifvqesg","pricing_plan_id":"cebpf4jnsgd1na2vs0mg"},{"bike_id":"f7be8f33-1a2a-4080-bb1e-293273c6d2fd","system_id":"levelo_inurba_marseille","lat":43.2408,"lon":5.37742,"is_reserved":false,"is_disabled":false,"rental_uris":{"android":"levelo://app?vid=f7be8f33-1a2a-4080-bb1e-293273c6d2fd","ios":"levelo://app?vid=f7be8f33-1a2a-4080-bb1e-293273c6d2fd"},"vehicle_type_id":"4","last_reported":1736756020,"current_range_meters":27600,"station_id":"ce4bhnp2rcd13ifvqgvg","pricing_plan_id":"cebpf4jnsgd1na2vs0mg"},{"bike_id":"426ee80e-06b0-4d0f-86a5-ea8ad64aaa11","system_id":"levelo_inurba_marseille","lat":43.28904,"lon":5.43796,"is_reserved":false,"is_disabled":false,"rental_uris":{"android":"levelo://app?vid=426ee80e-06b0-4d0f-86a5-ea8ad64aaa11","ios":"levelo://app?vid=426ee80e-06b0-4d0f-86a5-ea8ad64aaa11"},"vehicle_type_id":"4","last_reported":1736756020,"current_range_meters":9200,"station_id":"","pricing_plan_id":"cebpf4jnsgd1na2vs0mg"},{"bike_id":"504331d3-a218-45ce-ac4f-02408c379ae9","system_id":"levelo_inurba_marseille","lat":43.30796,"lon":5.38166,"is_reserved":false,"is_disabled":false,"rental_uris":{"android":"levelo://app?vid=504331d3-a218-45ce-ac4f-02408c379ae9","ios":"levelo://app?vid=504331d3-a218-45ce-ac4f-02408c379ae9"},"vehicle_type_id":"4","last_reported":1736756020,"current_range_meters":10800,"station_id":"ce4bgt12rcd13ifvqce0","pricing_plan_id":"cebpf4jnsgd1na2vs0mg"},{"bike_id":"b29dca30-1f99-4556-8d02-1cd94cfb8ea1","system_id":"levelo_inurba_marseille","lat":43.32498,"lon":5.36557,"is_reserved":false,"is_disabled":false,"rental_uris":{"android":"levelo://app?vid=b29dca30-1f99-4556-8d02-1cd94cfb8ea1","ios":"levelo://app?vid=b29dca30-1f99-4556-8d02-1cd94cfb8ea1"},"vehicle_type_id":"4","last_reported":1736756020,"current_range_meters":10000,"station_id":"ce4bhs12rcd13ifvqhvg","pricing_plan_id":"cebpf4jnsgd1na2vs0mg"},{"bike_id":"9814023a-fbfd-430e-a624-071e90fc1982","system_id":"levelo_inurba_marseille","lat":43.27419,"lon":5.39416,"is_reserved":false,"is_disabled":false,"rental_uris":{"android":"levelo://app?vid=9814023a-fbfd-430e-a624-071e90fc1982","ios":"levelo://app?vid=9814023a-fbfd-430e-a624-071e90fc1982"},"vehicle_type_id":"4","last_reported":1736756020,"current_range_meters":26000,"station_id":"ce4bhdp2rcd13ifvqf20","pricing_plan_id":"cebpf4jnsgd1na2vs0mg"},{"bike_id":"969e27ab-5a9e-459e-9526-3b57e6f57682","system_id":"levelo_inurba_marseille","lat":43.22922,"lon":5.35368,"is_reserved":false,"is_disabled":false,"rental_uris":{"android":"levelo://app?vid=969e27ab-5a9e-459e-9526-3b57e6f57682","ios":"levelo://app?vid=969e27ab-5a9e-459e-9526-3b57e6f57682"},"vehicle_type_id":"4","last_reported":1736756020,"current_range_meters":6000,"station_id":"cpo3532slgdg3j2ikp40","pricing_plan_id":"cebpf4jnsgd1na2vs0mg"},{"bike_id":"0b6993d8-d7c7-433f-8cb7-8219979fd337","system_id":"levelo_inurba_marseille","lat":43.27431,"lon":5.39413,"is_reserved":false,"is_disabled":false,"rental_uris":{"android":"levelo://app?vid=0b6993d8-d7c7-433f-8cb7-8219979fd337","ios":"levelo://app?vid=0b6993d8-d7c7-433f-8cb7-8219979fd337"},"vehicle_type_id":"4","last_reported":1736756020,"current_range_meters":38800,"station_id":"ce4bhdp2rcd13ifvqf20","pricing_plan_id":"cebpf4jnsgd1na2vs0mg"},{"bike_id":"29fc8e2d-12cc-4b8a-a0a8-06d361b976ef","system_id":"levelo_inurba_marseille","lat":43.30899,"lon":5.36852,"is_reserved":false,"is_disabled":false,"rental_uris":{"android":"levelo://app?vid=29fc8e2d-12cc-4b8a-a0a8-06d361b976ef","ios":"levelo://app?vid=29fc8e2d-12cc-4b8a-a0a8-06d361b976ef"},"vehicle_type_id":"4","last_reported":1736756020,"current_range_meters":30800,"station_id":"ce4bgn92rcd13ifvqbvg","pricing_plan_id":"cebpf4jnsgd1na2vs0mg"},{"bike_id":"c57472a4-4d7d-4e98-a197-dfe0bfa4547f","system_id":"levelo_inurba_marseille","lat":43.28623,"lon":5.35117,"is_reserved":false,"is_disabled":false,"rental_uris":{"android":"levelo://app?vid=c57472a4-4d7d-4e98-a197-dfe0bfa4547f","ios":"levelo://app?vid=c57472a4-4d7d-4e98-a197-dfe0bfa4547f"},"vehicle_type_id":"4","last_reported":1736756020,"current_range_meters":28000,"station_id":"ce4bhch2rcd13ifvqeug","pricing_plan_id":"cebpf4jnsgd1na2vs0mg"},{"bike_id":"8b9d7012-1feb-4978-b0cb-500e1495f1b9","system_id":"levelo_inurba_marseille","lat":43.26945,"lon":5.38625,"is_reserved":false,"is_disabled":false,"rental_uris":{"android":"levelo://app?vid=8b9d7012-1feb-4978-b0cb-500e1495f1b9","ios":"levelo://app?vid=8b9d7012-1feb-4978-b0cb-500e1495f1b9"},"vehicle_type_id":"4","last_reported":1736756020,"current_range_meters":16400,"station_id":"ce4bhh92rcd13ifvqfh0","pricing_plan_id":"cebpf4jnsgd1na2vs0mg"},{"bike_id":"f4dbc556-58b0-4dfd-be99-18a51c032520","system_id":"levelo_inurba_marseille","lat":43.24153,"lon":5.39736,"is_reserved":false,"is_disabled":true,"rental_uris":{"android":"levelo://app?vid=f4dbc556-58b0-4dfd-be99-18a51c032520","ios":"levelo://app?vid=f4dbc556-58b0-4dfd-be99-18a51c032520"},"vehicle_type_id":"4","last_reported":1736756020,"current_range_meters":31200,"station_id":"ce4bhn12rcd13ifvqgpg","pricing_plan_id":"cebpf4jnsgd1na2vs0mg"},{"bike_id":"9c62e164-6cf9-4292-996f-7c2ed5673e8e","system_id":"levelo_inurba_marseille","lat":43.239589,"lon":5.366242,"is_reserved":false,"is_disabled":false,"rental_uris":{"android":"levelo://app?vid=9c62e164-6cf9-4292-996f-7c2ed5673e8e","ios":"levelo://app?vid=9c62e164-6cf9-4292-996f-7c2ed5673e8e"},"vehicle_type_id":"4","last_reported":1736756020,"current_range_meters":24800,"station_id":"ce4bhi12rcd13ifvqfp0","pricing_plan_id":"cebpf4jnsgd1na2vs0mg"},{"bike_id":"a5c3e37f-0d0e-45e2-80ff-9d0a64f136c5","system_id":"levelo_inurba_marseille","lat":43.29911,"lon":5.38134,"is_reserved":false,"is_disabled":false,"rental_uris":{"android":"levelo://app?vid=a5c3e37f-0d0e-45e2-80ff-9d0a64f136c5","ios":"levelo://app?vid=a5c3e37f-0d0e-45e2-80ff-9d0a64f136c5"},"vehicle_type_id":"4","last_reported":1736756020,"current_range_meters":25600,"station_id":"ce4bgj12rcd13ifvqbc0","pricing_plan_id":"cebpf4jnsgd1na2vs0mg"},{"bike_id":"45636413-29bd-43b6-bd8b-1246eb3c7c1a","system_id":"levelo_inurba_marseille","lat":43.27121,"lon":5.38502,"is_reserved":false,"is_disabled":false,"rental_uris":{"android":"levelo://app?vid=45636413-29bd-43b6-bd8b-1246eb3c7c1a","ios":"levelo://app?vid=45636413-29bd-43b6-bd8b-1246eb3c7c1a"},"vehicle_type_id":"4","last_reported":1736756020,"current_range_meters":6000,"station_id":"","pricing_plan_id":"cebpf4jnsgd1na2vs0mg"},{"bike_id":"b43b7b34-35a8-4f3d-902b-ab77a73f48bd","system_id":"levelo_inurba_marseille","lat":43.32479,"lon":5.36571,"is_reserved":false,"is_disabled":false,"rental_uris":{"android":"levelo://app?vid=b43b7b34-35a8-4f3d-902b-ab77a73f48bd","ios":"levelo://app?vid=b43b7b34-35a8-4f3d-902b-ab77a73f48bd"},"vehicle_type_id":"4","last_reported":1736756020,"current_range_meters":3600,"station_id":"ce4bhs12rcd13ifvqhvg","pricing_plan_id":"cebpf4jnsgd1na2vs0mg"},{"bike_id":"80609ff8-7d7d-4ae2-9159-aea837c7c52b","system_id":"levelo_inurba_marseille","lat":43.23962,"lon":5.36626,"is_reserved":false,"is_disabled":false,"rental_uris":{"android":"levelo://app?vid=80609ff8-7d7d-4ae2-9159-aea837c7c52b","ios":"levelo://app?vid=80609ff8-7d7d-4ae2-9159-aea837c7c52b"},"vehicle_type_id":"4","last_reported":1736756020,"current_range_meters":38000,"station_id":"ce4bhi12rcd13ifvqfp0","pricing_plan_id":"cebpf4jnsgd1na2vs0mg"},{"bike_id":"38a88ea6-a94b-4e4b-81db-6e3ebb97fafa","system_id":"levelo_inurba_marseille","lat":43.24066,"lon":5.37752,"is_reserved":false,"is_disabled":false,"rental_uris":{"android":"levelo://app?vid=38a88ea6-a94b-4e4b-81db-6e3ebb97fafa","ios":"levelo://app?vid=38a88ea6-a94b-4e4b-81db-6e3ebb97fafa"},"vehicle_type_id":"4","last_reported":1736756020,"current_range_meters":37600,"station_id":"ce4bhnp2rcd13ifvqgvg","pricing_plan_id":"cebpf4jnsgd1na2vs0mg"},{"bike_id":"c2b657e0-67fb-4721-a4d6-0ebb2fa0fcbe","system_id":"levelo_inurba_marseille","lat":43.286118,"lon":5.351178,"is_reserved":false,"is_disabled":false,"rental_uris":{"android":"levelo://app?vid=c2b657e0-67fb-4721-a4d6-0ebb2fa0fcbe","ios":"levelo://app?vid=c2b657e0-67fb-4721-a4d6-0ebb2fa0fcbe"},"vehicle_type_id":"4","last_reported":1736756020,"current_range_meters":34000,"station_id":"ce4bhch2rcd13ifvqeug","pricing_plan_id":"cebpf4jnsgd1na2vs0mg"},{"bike_id":"d16284aa-fa71-49b9-82f2-16dc864a2eea","system_id":"levelo_inurba_marseille","lat":43.26679,"lon":5.38269,"is_reserved":false,"is_disabled":false,"rental_uris":{"android":"levelo://app?vid=d16284aa-fa71-49b9-82f2-16dc864a2eea","ios":"levelo://app?vid=d16284aa-fa71-49b9-82f2-16dc864a2eea"},"vehicle_type_id":"4","last_reported":1736756020,"current_range_meters":16800,"station_id":"ce4bhg92rcd13ifvqf90","pricing_plan_id":"cebpf4jnsgd1na2vs0mg"},{"bike_id":"82af5156-3c9f-43ad-8e6c-facb65bb17d8","system_id":"levelo_inurba_marseille","lat":43.324833,"lon":5.365833,"is_reserved":false,"is_disabled":false,"rental_uris":{"android":"levelo://app?vid=82af5156-3c9f-43ad-8e6c-facb65bb17d8","ios":"levelo://app?vid=82af5156-3c9f-43ad-8e6c-facb65bb17d8"},"vehicle_type_id":"4","last_reported":1736756020,"current_range_meters":25200,"station_id":"ce4bhs12rcd13ifvqhvg","pricing_plan_id":"cebpf4jnsgd1na2vs0mg"},{"bike_id":"ac7219cb-205d-48d3-81c3-15248b5b8d1f","system_id":"levelo_inurba_marseille","lat":43.26939,"lon":5.38646,"is_reserved":false,"is_disabled":false,"rental_uris":{"android":"levelo://app?vid=ac7219cb-205d-48d3-81c3-15248b5b8d1f","ios":"levelo://app?vid=ac7219cb-205d-48d3-81c3-15248b5b8d1f"},"vehicle_type_id":"4","last_reported":1736756020,"current_range_meters":35200,"station_id":"ce4bhh92rcd13ifvqfh0","pricing_plan_id":"cebpf4jnsgd1na2vs0mg"},{"bike_id":"73edba2c-8fcd-4e22-aa37-25696b557e27","system_id":"levelo_inurba_marseille","lat":43.29601,"lon":5.38089,"is_reserved":false,"is_disabled":false,"rental_uris":{"android":"levelo://app?vid=73edba2c-8fcd-4e22-aa37-25696b557e27","ios":"levelo://app?vid=73edba2c-8fcd-4e22-aa37-25696b557e27"},"vehicle_type_id":"4","last_reported":1736756020,"current_range_meters":36400,"station_id":"ce4bgl12rcd13ifvqbo0","pricing_plan_id":"cebpf4jnsgd1na2vs0mg"},{"bike_id":"33f772a9-3316-47c9-ba2c-b8bb5b0473dc","system_id":"levelo_inurba_marseille","lat":43.29583,"lon":5.3675,"is_reserved":false,"is_disabled":true,"rental_uris":{"android":"levelo://app?vid=33f772a9-3316-47c9-ba2c-b8bb5b0473dc","ios":"levelo://app?vid=33f772a9-3316-47c9-ba2c-b8bb5b0473dc"},"vehicle_type_id":"4","last_reported":1736756020,"current_range_meters":39200,"station_id":"ce4bgph2rcd13ifvqc2g","pricing_plan_id":"cebpf4jnsgd1na2vs0mg"},{"bike_id":"716583e9-1525-41d6-8bd4-c3f8ee3ff197","system_id":"levelo_inurba_marseille","lat":43.27494,"lon":5.42452,"is_reserved":false,"is_disabled":false,"rental_uris":{"android":"levelo://app?vid=716583e9-1525-41d6-8bd4-c3f8ee3ff197","ios":"levelo://app?vid=716583e9-1525-41d6-8bd4-c3f8ee3ff197"},"vehicle_type_id":"4","last_reported":1736756020,"current_range_meters":29600,"station_id":"ce4bhn92rcd13ifvqgrg","pricing_plan_id":"cebpf4jnsgd1na2vs0mg"},{"bike_id":"9c8c0f19-6acd-4047-9b73-cd2d2daf7c61","system_id":"levelo_inurba_marseille","lat":43.32094,"lon":5.36786,"is_reserved":false,"is_disabled":false,"rental_uris":{"android":"levelo://app?vid=9c8c0f19-6acd-4047-9b73-cd2d2daf7c61","ios":"levelo://app?vid=9c8c0f19-6acd-4047-9b73-cd2d2daf7c61"},"vehicle_type_id":"4","last_reported":1736756020,"current_range_meters":18800,"station_id":"ce4bhrh2rcd13ifvqhug","pricing_plan_id":"cebpf4jnsgd1na2vs0mg"},{"bike_id":"481b9829-6c9c-4e96-a4c5-4bbef49fbc3c","system_id":"levelo_inurba_marseille","lat":43.30903,"lon":5.36851,"is_reserved":false,"is_disabled":false,"rental_uris":{"android":"levelo://app?vid=481b9829-6c9c-4e96-a4c5-4bbef49fbc3c","ios":"levelo://app?vid=481b9829-6c9c-4e96-a4c5-4bbef49fbc3c"},"vehicle_type_id":"4","last_reported":1736756020,"current_range_meters":16800,"station_id":"ce4bgn92rcd13ifvqbvg","pricing_plan_id":"cebpf4jnsgd1na2vs0mg"},{"bike_id":"902f6e8d-67d1-4009-bdba-0d375569a04c","system_id":"levelo_inurba_marseille","lat":43.3025,"lon":5.40063,"is_reserved":false,"is_disabled":false,"rental_uris":{"android":"levelo://app?vid=902f6e8d-67d1-4009-bdba-0d375569a04c","ios":"levelo://app?vid=902f6e8d-67d1-4009-bdba-0d375569a04c"},"vehicle_type_id":"4","last_reported":1736756020,"current_range_meters":7200,"station_id":"ce4bgvh2rcd13ifvqcs0","pricing_plan_id":"cebpf4jnsgd1na2vs0mg"},{"bike_id":"0756869f-d496-490d-b5d4-ec25e039f4fb","system_id":"levelo_inurba_marseille","lat":43.28966,"lon":5.36618,"is_reserved":false,"is_disabled":true,"rental_uris":{"android":"levelo://app?vid=0756869f-d496-490d-b5d4-ec25e039f4fb","ios":"levelo://app?vid=0756869f-d496-490d-b5d4-ec25e039f4fb"},"vehicle_type_id":"4","last_reported":1736756020,"current_range_meters":6400,"station_id":"","pricing_plan_id":"cebpf4jnsgd1na2vs0mg"},{"bike_id":"23fa248b-a29f-4809-83a2-8dfa8df2caa7","system_id":"levelo_inurba_marseille","lat":43.28619,"lon":5.35101,"is_reserved":false,"is_disabled":false,"rental_uris":{"android":"levelo://app?vid=23fa248b-a29f-4809-83a2-8dfa8df2caa7","ios":"levelo://app?vid=23fa248b-a29f-4809-83a2-8dfa8df2caa7"},"vehicle_type_id":"4","last_reported":1736756020,"current_range_meters":9600,"station_id":"ce4bhch2rcd13ifvqeug","pricing_plan_id":"cebpf4jnsgd1na2vs0mg"},{"bike_id":"55a1f0e6-5e4f-4206-a448-bcde163e0baa","system_id":"levelo_inurba_marseille","lat":43.27674,"lon":5.38871,"is_reserved":false,"is_disabled":false,"rental_uris":{"android":"levelo://app?vid=55a1f0e6-5e4f-4206-a448-bcde163e0baa","ios":"levelo://app?vid=55a1f0e6-5e4f-4206-a448-bcde163e0baa"},"vehicle_type_id":"4","last_reported":1736756020,"current_range_meters":30000,"station_id":"ce4bhi12rcd13ifvqfo0","pricing_plan_id":"cebpf4jnsgd1na2vs0mg"},{"bike_id":"066fc890-cce1-4b7e-a941-320c51e991c9","system_id":"levelo_inurba_marseille","lat":43.23958,"lon":5.36629,"is_reserved":false,"is_disabled":false,"rental_uris":{"android":"levelo://app?vid=066fc890-cce1-4b7e-a941-320c51e991c9","ios":"levelo://app?vid=066fc890-cce1-4b7e-a941-320c51e991c9"},"vehicle_type_id":"4","last_reported":1736756020,"current_range_meters":12800,"station_id":"ce4bhi12rcd13ifvqfp0","pricing_plan_id":"cebpf4jnsgd1na2vs0mg"},{"bike_id":"b49930a8-ad3a-4765-ae58-d571c3ffdfa3","system_id":"levelo_inurba_marseille","lat":43.29035,"lon":5.37565,"is_reserved":false,"is_disabled":false,"rental_uris":{"android":"levelo://app?vid=b49930a8-ad3a-4765-ae58-d571c3ffdfa3","ios":"levelo://app?vid=b49930a8-ad3a-4765-ae58-d571c3ffdfa3"},"vehicle_type_id":"4","last_reported":1736756020,"current_range_meters":32400,"station_id":"ce4bh692rcd13ifvqe90","pricing_plan_id":"cebpf4jnsgd1na2vs0mg"},{"bike_id":"c5e011b5-3ec1-4dfb-b3d1-b25cf4454153","system_id":"levelo_inurba_marseille","lat":43.30918,"lon":5.36842,"is_reserved":false,"is_disabled":false,"rental_uris":{"android":"levelo://app?vid=c5e011b5-3ec1-4dfb-b3d1-b25cf4454153","ios":"levelo://app?vid=c5e011b5-3ec1-4dfb-b3d1-b25cf4454153"},"vehicle_type_id":"4","last_reported":1736756020,"current_range_meters":19200,"station_id":"ce4bgn92rcd13ifvqbvg","pricing_plan_id":"cebpf4jnsgd1na2vs0mg"},{"bike_id":"51bb6953-dea8-4e82-96bf-52696267905f","system_id":"levelo_inurba_marseille","lat":43.23046,"lon":5.35492,"is_reserved":false,"is_disabled":true,"rental_uris":{"android":"levelo://app?vid=51bb6953-dea8-4e82-96bf-52696267905f","ios":"levelo://app?vid=51bb6953-dea8-4e82-96bf-52696267905f"},"vehicle_type_id":"4","last_reported":1736756020,"current_range_meters":14000,"station_id":"cpo3342slgdg3j2ifvpg","pricing_plan_id":"cebpf4jnsgd1na2vs0mg"},{"bike_id":"4e71e5ec-1e90-4b63-9152-6a9ea80e2150","system_id":"levelo_inurba_marseille","lat":43.23144,"lon":5.4372,"is_reserved":false,"is_disabled":false,"rental_uris":{"android":"levelo://app?vid=4e71e5ec-1e90-4b63-9152-6a9ea80e2150","ios":"levelo://app?vid=4e71e5ec-1e90-4b63-9152-6a9ea80e2150"},"vehicle_type_id":"4","last_reported":1736756020,"current_range_meters":16800,"station_id":"ce4bhmp2rcd13ifvqgog","pricing_plan_id":"cebpf4jnsgd1na2vs0mg"},{"bike_id":"476b94c3-f986-4293-ac3d-e3c1b849538a","system_id":"levelo_inurba_marseille","lat":43.29279,"lon":5.40113,"is_reserved":false,"is_disabled":false,"rental_uris":{"android":"levelo://app?vid=476b94c3-f986-4293-ac3d-e3c1b849538a","ios":"levelo://app?vid=476b94c3-f986-4293-ac3d-e3c1b849538a"},"vehicle_type_id":"4","last_reported":1736756020,"current_range_meters":12800,"station_id":"ce4bh312rcd13ifvqdk0","pricing_plan_id":"cebpf4jnsgd1na2vs0mg"},{"bike_id":"dc388f0e-5ba4-4401-b2b7-3e59da087469","system_id":"levelo_inurba_marseille","lat":43.28609,"lon":5.35111,"is_reserved":false,"is_disabled":false,"rental_uris":{"android":"levelo://app?vid=dc388f0e-5ba4-4401-b2b7-3e59da087469","ios":"levelo://app?vid=dc388f0e-5ba4-4401-b2b7-3e59da087469"},"vehicle_type_id":"4","last_reported":1736756020,"current_range_meters":12800,"station_id":"ce4bhch2rcd13ifvqeug","pricing_plan_id":"cebpf4jnsgd1na2vs0mg"},{"bike_id":"42c3247b-98c3-4baf-a1c1-2b508408069c","system_id":"levelo_inurba_marseille","lat":43.25933,"lon":5.40902,"is_reserved":false,"is_disabled":false,"rental_uris":{"android":"levelo://app?vid=42c3247b-98c3-4baf-a1c1-2b508408069c","ios":"levelo://app?vid=42c3247b-98c3-4baf-a1c1-2b508408069c"},"vehicle_type_id":"4","last_reported":1736756020,"current_range_meters":16800,"station_id":"ce4bhm92rcd13ifvqglg","pricing_plan_id":"cebpf4jnsgd1na2vs0mg"},{"bike_id":"50c67084-341b-43bf-812a-a38db4c86efa","system_id":"levelo_inurba_marseille","lat":43.30169,"lon":5.36624,"is_reserved":false,"is_disabled":false,"rental_uris":{"android":"levelo://app?vid=50c67084-341b-43bf-812a-a38db4c86efa","ios":"levelo://app?vid=50c67084-341b-43bf-812a-a38db4c86efa"},"vehicle_type_id":"4","last_reported":1736756020,"current_range_meters":38000,"station_id":"ce4bgrh2rcd13ifvqc8g","pricing_plan_id":"cebpf4jnsgd1na2vs0mg"},{"bike_id":"678f57c4-757d-4d74-b82b-374b8e44f0cc","system_id":"levelo_inurba_marseille","lat":43.31368,"lon":5.38498,"is_reserved":false,"is_disabled":false,"rental_uris":{"android":"levelo://app?vid=678f57c4-757d-4d74-b82b-374b8e44f0cc","ios":"levelo://app?vid=678f57c4-757d-4d74-b82b-374b8e44f0cc"},"vehicle_type_id":"4","last_reported":1736756020,"current_range_meters":38800,"station_id":"ce4bgt92rcd13ifvqcf0","pricing_plan_id":"cebpf4jnsgd1na2vs0mg"},{"bike_id":"c84c60ce-c7f6-42eb-bb3c-f11a697bd396","system_id":"levelo_inurba_marseille","lat":43.299775,"lon":5.384993,"is_reserved":false,"is_disabled":true,"rental_uris":{"android":"levelo://app?vid=c84c60ce-c7f6-42eb-bb3c-f11a697bd396","ios":"levelo://app?vid=c84c60ce-c7f6-42eb-bb3c-f11a697bd396"},"vehicle_type_id":"4","last_reported":1736756020,"current_range_meters":800,"station_id":"ce4bgj92rcd13ifvqbd0","pricing_plan_id":"cebpf4jnsgd1na2vs0mg"},{"bike_id":"f3997fe7-0274-45df-a182-625ebb11cc40","system_id":"levelo_inurba_marseille","lat":43.29033,"lon":5.3994,"is_reserved":false,"is_disabled":false,"rental_uris":{"android":"levelo://app?vid=f3997fe7-0274-45df-a182-625ebb11cc40","ios":"levelo://app?vid=f3997fe7-0274-45df-a182-625ebb11cc40"},"vehicle_type_id":"4","last_reported":1736756020,"current_range_meters":35200,"station_id":"ce4bh392rcd13ifvqdm0","pricing_plan_id":"cebpf4jnsgd1na2vs0mg"},{"bike_id":"139c6b3e-cefd-4de6-b959-befc5579d4ce","system_id":"levelo_inurba_marseille","lat":43.24829,"lon":5.37441,"is_reserved":false,"is_disabled":false,"rental_uris":{"android":"levelo://app?vid=139c6b3e-cefd-4de6-b959-befc5579d4ce","ios":"levelo://app?vid=139c6b3e-cefd-4de6-b959-befc5579d4ce"},"vehicle_type_id":"4","last_reported":1736756020,"current_range_meters":25200,"station_id":"ce4bhgh2rcd13ifvqfb0","pricing_plan_id":"cebpf4jnsgd1na2vs0mg"},{"bike_id":"bb2c6734-3bde-49c2-b205-412e6ed0ca55","system_id":"levelo_inurba_marseille","lat":43.23964,"lon":5.36627,"is_reserved":false,"is_disabled":false,"rental_uris":{"android":"levelo://app?vid=bb2c6734-3bde-49c2-b205-412e6ed0ca55","ios":"levelo://app?vid=bb2c6734-3bde-49c2-b205-412e6ed0ca55"},"vehicle_type_id":"4","last_reported":1736756020,"current_range_meters":36800,"station_id":"ce4bhi12rcd13ifvqfp0","pricing_plan_id":"cebpf4jnsgd1na2vs0mg"},{"bike_id":"b55bad1f-ac87-4b3e-aeb0-eb44d902eff4","system_id":"levelo_inurba_marseille","lat":43.23152,"lon":5.43716,"is_reserved":false,"is_disabled":true,"rental_uris":{"android":"levelo://app?vid=b55bad1f-ac87-4b3e-aeb0-eb44d902eff4","ios":"levelo://app?vid=b55bad1f-ac87-4b3e-aeb0-eb44d902eff4"},"vehicle_type_id":"4","last_reported":1736756020,"current_range_meters":16800,"station_id":"ce4bhmp2rcd13ifvqgog","pricing_plan_id":"cebpf4jnsgd1na2vs0mg"},{"bike_id":"d4a1c371-336e-4a9f-bd59-f2cfc71fd153","system_id":"levelo_inurba_marseille","lat":43.2405,"lon":5.37782,"is_reserved":false,"is_disabled":false,"rental_uris":{"android":"levelo://app?vid=d4a1c371-336e-4a9f-bd59-f2cfc71fd153","ios":"levelo://app?vid=d4a1c371-336e-4a9f-bd59-f2cfc71fd153"},"vehicle_type_id":"4","last_reported":1736756020,"current_range_meters":22800,"station_id":"ce4bhnp2rcd13ifvqgvg","pricing_plan_id":"cebpf4jnsgd1na2vs0mg"},{"bike_id":"0d0417f0-617a-49a3-b19b-fdcfd9e6370d","system_id":"levelo_inurba_marseille","lat":43.31499,"lon":5.37277,"is_reserved":false,"is_disabled":false,"rental_uris":{"android":"levelo://app?vid=0d0417f0-617a-49a3-b19b-fdcfd9e6370d","ios":"levelo://app?vid=0d0417f0-617a-49a3-b19b-fdcfd9e6370d"},"vehicle_type_id":"4","last_reported":1736756020,"current_range_meters":36800,"station_id":"ce4bgt12rcd13ifvqcd0","pricing_plan_id":"cebpf4jnsgd1na2vs0mg"},{"bike_id":"c1c51f67-6348-4482-a3d4-31704cefaf37","system_id":"levelo_inurba_marseille","lat":43.286169,"lon":5.351006,"is_reserved":false,"is_disabled":false,"rental_uris":{"android":"levelo://app?vid=c1c51f67-6348-4482-a3d4-31704cefaf37","ios":"levelo://app?vid=c1c51f67-6348-4482-a3d4-31704cefaf37"},"vehicle_type_id":"4","last_reported":1736756020,"current_range_meters":34800,"station_id":"ce4bhch2rcd13ifvqeug","pricing_plan_id":"cebpf4jnsgd1na2vs0mg"},{"bike_id":"ab5b6832-b8a9-4e08-8bed-a963edfd6705","system_id":"levelo_inurba_marseille","lat":43.31361,"lon":5.3669,"is_reserved":false,"is_disabled":false,"rental_uris":{"android":"levelo://app?vid=ab5b6832-b8a9-4e08-8bed-a963edfd6705","ios":"levelo://app?vid=ab5b6832-b8a9-4e08-8bed-a963edfd6705"},"vehicle_type_id":"4","last_reported":1736756020,"current_range_meters":30800,"station_id":"ce4bgr92rcd13ifvqc6g","pricing_plan_id":"cebpf4jnsgd1na2vs0mg"},{"bike_id":"a1f1f268-04ca-4934-a758-448d0aeedcd1","system_id":"levelo_inurba_marseille","lat":43.28716,"lon":5.40002,"is_reserved":false,"is_disabled":true,"rental_uris":{"android":"levelo://app?vid=a1f1f268-04ca-4934-a758-448d0aeedcd1","ios":"levelo://app?vid=a1f1f268-04ca-4934-a758-448d0aeedcd1"},"vehicle_type_id":"4","last_reported":1736756020,"current_range_meters":34000,"station_id":"ce4bho92rcd13ifvqh3g","pricing_plan_id":"cebpf4jnsgd1na2vs0mg"},{"bike_id":"15365823-2b34-4222-9a47-5db4c69503e5","system_id":"levelo_inurba_marseille","lat":43.2696,"lon":5.38629,"is_reserved":false,"is_disabled":false,"rental_uris":{"android":"levelo://app?vid=15365823-2b34-4222-9a47-5db4c69503e5","ios":"levelo://app?vid=15365823-2b34-4222-9a47-5db4c69503e5"},"vehicle_type_id":"4","last_reported":1736756020,"current_range_meters":31200,"station_id":"ce4bhh92rcd13ifvqfh0","pricing_plan_id":"cebpf4jnsgd1na2vs0mg"},{"bike_id":"a77e0ec4-5fc1-4a37-82fc-0c2c8e9d8654","system_id":"levelo_inurba_marseille","lat":43.24158,"lon":5.36402,"is_reserved":false,"is_disabled":false,"rental_uris":{"android":"levelo://app?vid=a77e0ec4-5fc1-4a37-82fc-0c2c8e9d8654","ios":"levelo://app?vid=a77e0ec4-5fc1-4a37-82fc-0c2c8e9d8654"},"vehicle_type_id":"4","last_reported":1736756020,"current_range_meters":25600,"station_id":"cpo36qri1sfpv3e86is0","pricing_plan_id":"cebpf4jnsgd1na2vs0mg"},{"bike_id":"43d1392c-f8d8-4498-8ddc-43615aba88c5","system_id":"levelo_inurba_marseille","lat":43.27958,"lon":5.38735,"is_reserved":false,"is_disabled":false,"rental_uris":{"android":"levelo://app?vid=43d1392c-f8d8-4498-8ddc-43615aba88c5","ios":"levelo://app?vid=43d1392c-f8d8-4498-8ddc-43615aba88c5"},"vehicle_type_id":"4","last_reported":1736756020,"current_range_meters":8400,"station_id":"ce4bhg12rcd13ifvqf80","pricing_plan_id":"cebpf4jnsgd1na2vs0mg"},{"bike_id":"a754abf4-87cb-4915-a97f-0b4d0e8971f5","system_id":"levelo_inurba_marseille","lat":43.28613,"lon":5.35105,"is_reserved":false,"is_disabled":false,"rental_uris":{"android":"levelo://app?vid=a754abf4-87cb-4915-a97f-0b4d0e8971f5","ios":"levelo://app?vid=a754abf4-87cb-4915-a97f-0b4d0e8971f5"},"vehicle_type_id":"4","last_reported":1736756020,"current_range_meters":34000,"station_id":"ce4bhch2rcd13ifvqeug","pricing_plan_id":"cebpf4jnsgd1na2vs0mg"},{"bike_id":"b51b8509-c21e-40ac-802b-edd56e55cdd0","system_id":"levelo_inurba_marseille","lat":43.30388,"lon":5.41923,"is_reserved":false,"is_disabled":true,"rental_uris":{"android":"levelo://app?vid=b51b8509-c21e-40ac-802b-edd56e55cdd0","ios":"levelo://app?vid=b51b8509-c21e-40ac-802b-edd56e55cdd0"},"vehicle_type_id":"4","last_reported":1736756020,"current_range_meters":24400,"station_id":"ce4bhop2rcd13ifvqh7g","pricing_plan_id":"cebpf4jnsgd1na2vs0mg"},{"bike_id":"b8cd2a8f-d435-4f84-881a-729309f99dac","system_id":"levelo_inurba_marseille","lat":43.3414,"lon":5.40902,"is_reserved":false,"is_disabled":false,"rental_uris":{"android":"levelo://app?vid=b8cd2a8f-d435-4f84-881a-729309f99dac","ios":"levelo://app?vid=b8cd2a8f-d435-4f84-881a-729309f99dac"},"vehicle_type_id":"4","last_reported":1736756020,"current_range_meters":19600,"station_id":"ce4bhqh2rcd13ifvqhlg","pricing_plan_id":"cebpf4jnsgd1na2vs0mg"},{"bike_id":"78fc2529-851e-44ea-9e17-e5a76c9197b1","system_id":"levelo_inurba_marseille","lat":43.29721,"lon":5.37722,"is_reserved":false,"is_disabled":true,"rental_uris":{"android":"levelo://app?vid=78fc2529-851e-44ea-9e17-e5a76c9197b1","ios":"levelo://app?vid=78fc2529-851e-44ea-9e17-e5a76c9197b1"},"vehicle_type_id":"4","last_reported":1736756020,"current_range_meters":38400,"station_id":"ce4bgkh2rcd13ifvqbl0","pricing_plan_id":"cebpf4jnsgd1na2vs0mg"},{"bike_id":"759d91c5-2392-48f6-8f2b-fc1cfd9b9ecd","system_id":"levelo_inurba_marseille","lat":43.2827,"lon":5.35065,"is_reserved":false,"is_disabled":true,"rental_uris":{"android":"levelo://app?vid=759d91c5-2392-48f6-8f2b-fc1cfd9b9ecd","ios":"levelo://app?vid=759d91c5-2392-48f6-8f2b-fc1cfd9b9ecd"},"vehicle_type_id":"4","last_reported":1736756020,"current_range_meters":26000,"station_id":"ce4bhbp2rcd13ifvqerg","pricing_plan_id":"cebpf4jnsgd1na2vs0mg"},{"bike_id":"ebc55eb9-194f-4e99-8e23-b42fca6cc43d","system_id":"levelo_inurba_marseille","lat":43.27649,"lon":5.38949,"is_reserved":false,"is_disabled":true,"rental_uris":{"android":"levelo://app?vid=ebc55eb9-194f-4e99-8e23-b42fca6cc43d","ios":"levelo://app?vid=ebc55eb9-194f-4e99-8e23-b42fca6cc43d"},"vehicle_type_id":"4","last_reported":1736756020,"current_range_meters":33600,"station_id":"","pricing_plan_id":"cebpf4jnsgd1na2vs0mg"},{"bike_id":"4df89c5f-ad35-4858-8e73-2c663853f2e7","system_id":"levelo_inurba_marseille","lat":43.27499,"lon":5.42474,"is_reserved":false,"is_disabled":true,"rental_uris":{"android":"levelo://app?vid=4df89c5f-ad35-4858-8e73-2c663853f2e7","ios":"levelo://app?vid=4df89c5f-ad35-4858-8e73-2c663853f2e7"},"vehicle_type_id":"4","last_reported":1736756020,"current_range_meters":0,"station_id":"ce4bhn92rcd13ifvqgrg","pricing_plan_id":"cebpf4jnsgd1na2vs0mg"},{"bike_id":"96e0df4a-fced-48fa-b75c-63fa831c16f2","system_id":"levelo_inurba_marseille","lat":43.33769,"lon":5.37423,"is_reserved":false,"is_disabled":false,"rental_uris":{"android":"levelo://app?vid=96e0df4a-fced-48fa-b75c-63fa831c16f2","ios":"levelo://app?vid=96e0df4a-fced-48fa-b75c-63fa831c16f2"},"vehicle_type_id":"4","last_reported":1736756020,"current_range_meters":35200,"station_id":"","pricing_plan_id":"cebpf4jnsgd1na2vs0mg"},{"bike_id":"0f0076d6-783b-4337-b7d9-595c3c88c049","system_id":"levelo_inurba_marseille","lat":43.30135,"lon":5.37409,"is_reserved":false,"is_disabled":false,"rental_uris":{"android":"levelo://app?vid=0f0076d6-783b-4337-b7d9-595c3c88c049","ios":"levelo://app?vid=0f0076d6-783b-4337-b7d9-595c3c88c049"},"vehicle_type_id":"4","last_reported":1736756020,"current_range_meters":32800,"station_id":"ce4bgs92rcd13ifvqcc0","pricing_plan_id":"cebpf4jnsgd1na2vs0mg"},{"bike_id":"81894d57-6961-4ca9-8a73-3302ecbe940c","system_id":"levelo_inurba_marseille","lat":43.248172,"lon":5.374564,"is_reserved":false,"is_disabled":false,"rental_uris":{"android":"levelo://app?vid=81894d57-6961-4ca9-8a73-3302ecbe940c","ios":"levelo://app?vid=81894d57-6961-4ca9-8a73-3302ecbe940c"},"vehicle_type_id":"4","last_reported":1736756020,"current_range_meters":9600,"station_id":"ce4bhgh2rcd13ifvqfb0","pricing_plan_id":"cebpf4jnsgd1na2vs0mg"},{"bike_id":"45324790-abcf-4a91-8b9e-6b7c17eae013","system_id":"levelo_inurba_marseille","lat":43.27386,"lon":5.36255,"is_reserved":false,"is_disabled":false,"rental_uris":{"android":"levelo://app?vid=45324790-abcf-4a91-8b9e-6b7c17eae013","ios":"levelo://app?vid=45324790-abcf-4a91-8b9e-6b7c17eae013"},"vehicle_type_id":"4","last_reported":1736756020,"current_range_meters":9600,"station_id":"ce4bhbh2rcd13ifvqeo0","pricing_plan_id":"cebpf4jnsgd1na2vs0mg"},{"bike_id":"0056f550-9894-4c1c-b471-e9ebf0db9503","system_id":"levelo_inurba_marseille","lat":43.24071,"lon":5.37762,"is_reserved":false,"is_disabled":true,"rental_uris":{"android":"levelo://app?vid=0056f550-9894-4c1c-b471-e9ebf0db9503","ios":"levelo://app?vid=0056f550-9894-4c1c-b471-e9ebf0db9503"},"vehicle_type_id":"4","last_reported":1736756020,"current_range_meters":1600,"station_id":"ce4bhnp2rcd13ifvqgvg","pricing_plan_id":"cebpf4jnsgd1na2vs0mg"},{"bike_id":"ca785236-98cd-42c8-b00d-54eb48eb46c0","system_id":"levelo_inurba_marseille","lat":43.29039,"lon":5.39956,"is_reserved":false,"is_disabled":false,"rental_uris":{"android":"levelo://app?vid=ca785236-98cd-42c8-b00d-54eb48eb46c0","ios":"levelo://app?vid=ca785236-98cd-42c8-b00d-54eb48eb46c0"},"vehicle_type_id":"4","last_reported":1736756020,"current_range_meters":35600,"station_id":"ce4bh392rcd13ifvqdm0","pricing_plan_id":"cebpf4jnsgd1na2vs0mg"},{"bike_id":"dcff65c6-a9f7-4994-b431-5a4db7ec747a","system_id":"levelo_inurba_marseille","lat":43.32522,"lon":5.4144,"is_reserved":false,"is_disabled":false,"rental_uris":{"android":"levelo://app?vid=dcff65c6-a9f7-4994-b431-5a4db7ec747a","ios":"levelo://app?vid=dcff65c6-a9f7-4994-b431-5a4db7ec747a"},"vehicle_type_id":"4","last_reported":1736756020,"current_range_meters":39200,"station_id":"ce4bhq12rcd13ifvqhhg","pricing_plan_id":"cebpf4jnsgd1na2vs0mg"},{"bike_id":"7abc0742-0d6a-40d7-8137-deb5e8e48177","system_id":"levelo_inurba_marseille","lat":43.2511,"lon":5.39512,"is_reserved":false,"is_disabled":false,"rental_uris":{"android":"levelo://app?vid=7abc0742-0d6a-40d7-8137-deb5e8e48177","ios":"levelo://app?vid=7abc0742-0d6a-40d7-8137-deb5e8e48177"},"vehicle_type_id":"4","last_reported":1736756020,"current_range_meters":36800,"station_id":"ce4bhm12rcd13ifvqgkg","pricing_plan_id":"cebpf4jnsgd1na2vs0mg"},{"bike_id":"d9edb216-ee47-40a8-8ccd-82ecd79a1993","system_id":"levelo_inurba_marseille","lat":43.290242,"lon":5.381376,"is_reserved":false,"is_disabled":true,"rental_uris":{"android":"levelo://app?vid=d9edb216-ee47-40a8-8ccd-82ecd79a1993","ios":"levelo://app?vid=d9edb216-ee47-40a8-8ccd-82ecd79a1993"},"vehicle_type_id":"4","last_reported":1736756020,"current_range_meters":39200,"station_id":"ce4bh4p2rcd13ifvqe1g","pricing_plan_id":"cebpf4jnsgd1na2vs0mg"},{"bike_id":"c50f188a-cad4-4951-a1ce-6df3b59c1488","system_id":"levelo_inurba_marseille","lat":43.30557,"lon":5.36549,"is_reserved":false,"is_disabled":false,"rental_uris":{"android":"levelo://app?vid=c50f188a-cad4-4951-a1ce-6df3b59c1488","ios":"levelo://app?vid=c50f188a-cad4-4951-a1ce-6df3b59c1488"},"vehicle_type_id":"4","last_reported":1736756020,"current_range_meters":36000,"station_id":"ce4bgs12rcd13ifvqcag","pricing_plan_id":"cebpf4jnsgd1na2vs0mg"},{"bike_id":"7190806d-6efc-4d5f-adc8-8e7c04344e9c","system_id":"levelo_inurba_marseille","lat":43.30546,"lon":5.36509,"is_reserved":false,"is_disabled":true,"rental_uris":{"android":"levelo://app?vid=7190806d-6efc-4d5f-adc8-8e7c04344e9c","ios":"levelo://app?vid=7190806d-6efc-4d5f-adc8-8e7c04344e9c"},"vehicle_type_id":"4","last_reported":1736756020,"current_range_meters":0,"station_id":"ce4bgs12rcd13ifvqcag","pricing_plan_id":"cebpf4jnsgd1na2vs0mg"},{"bike_id":"717c9b7d-e3d6-441e-a2b5-35caee37f8e8","system_id":"levelo_inurba_marseille","lat":43.2862,"lon":5.35096,"is_reserved":false,"is_disabled":false,"rental_uris":{"android":"levelo://app?vid=717c9b7d-e3d6-441e-a2b5-35caee37f8e8","ios":"levelo://app?vid=717c9b7d-e3d6-441e-a2b5-35caee37f8e8"},"vehicle_type_id":"4","last_reported":1736756020,"current_range_meters":33200,"station_id":"ce4bhch2rcd13ifvqeug","pricing_plan_id":"cebpf4jnsgd1na2vs0mg"},{"bike_id":"fed252d4-8a96-4918-8909-8c985d1de4fb","system_id":"levelo_inurba_marseille","lat":43.32494,"lon":5.36558,"is_reserved":false,"is_disabled":false,"rental_uris":{"android":"levelo://app?vid=fed252d4-8a96-4918-8909-8c985d1de4fb","ios":"levelo://app?vid=fed252d4-8a96-4918-8909-8c985d1de4fb"},"vehicle_type_id":"4","last_reported":1736756020,"current_range_meters":24800,"station_id":"ce4bhs12rcd13ifvqhvg","pricing_plan_id":"cebpf4jnsgd1na2vs0mg"},{"bike_id":"1ff4d6af-d168-4206-80a1-8f85ab0c0a00","system_id":"levelo_inurba_marseille","lat":43.25848,"lon":5.39906,"is_reserved":false,"is_disabled":true,"rental_uris":{"android":"levelo://app?vid=1ff4d6af-d168-4206-80a1-8f85ab0c0a00","ios":"levelo://app?vid=1ff4d6af-d168-4206-80a1-8f85ab0c0a00"},"vehicle_type_id":"4","last_reported":1736756020,"current_range_meters":8800,"station_id":"ce4bhl92rcd13ifvqghg","pricing_plan_id":"cebpf4jnsgd1na2vs0mg"},{"bike_id":"55e10a13-573c-4876-a3f3-1d7244726716","system_id":"levelo_inurba_marseille","lat":43.24798,"lon":5.37457,"is_reserved":false,"is_disabled":false,"rental_uris":{"android":"levelo://app?vid=55e10a13-573c-4876-a3f3-1d7244726716","ios":"levelo://app?vid=55e10a13-573c-4876-a3f3-1d7244726716"},"vehicle_type_id":"4","last_reported":1736756020,"current_range_meters":38800,"station_id":"ce4bhgh2rcd13ifvqfb0","pricing_plan_id":"cebpf4jnsgd1na2vs0mg"},{"bike_id":"86abeea7-c434-4e10-8df8-12c24097eeb0","system_id":"levelo_inurba_marseille","lat":43.30414,"lon":5.39748,"is_reserved":false,"is_disabled":true,"rental_uris":{"android":"levelo://app?vid=86abeea7-c434-4e10-8df8-12c24097eeb0","ios":"levelo://app?vid=86abeea7-c434-4e10-8df8-12c24097eeb0"},"vehicle_type_id":"4","last_reported":1736756020,"current_range_meters":11600,"station_id":"ce4bh092rcd13ifvqd20","pricing_plan_id":"cebpf4jnsgd1na2vs0mg"},{"bike_id":"03bca436-08ee-4d85-a374-8843818c5ed9","system_id":"levelo_inurba_marseille","lat":43.24172,"lon":5.39722,"is_reserved":false,"is_disabled":false,"rental_uris":{"android":"levelo://app?vid=03bca436-08ee-4d85-a374-8843818c5ed9","ios":"levelo://app?vid=03bca436-08ee-4d85-a374-8843818c5ed9"},"vehicle_type_id":"4","last_reported":1736756020,"current_range_meters":24000,"station_id":"ce4bhn12rcd13ifvqgpg","pricing_plan_id":"cebpf4jnsgd1na2vs0mg"},{"bike_id":"576f0a75-bc8d-40ab-bec2-afd59a16840b","system_id":"levelo_inurba_marseille","lat":43.283433,"lon":5.381144,"is_reserved":false,"is_disabled":false,"rental_uris":{"android":"levelo://app?vid=576f0a75-bc8d-40ab-bec2-afd59a16840b","ios":"levelo://app?vid=576f0a75-bc8d-40ab-bec2-afd59a16840b"},"vehicle_type_id":"4","last_reported":1736756020,"current_range_meters":28800,"station_id":"","pricing_plan_id":"cebpf4jnsgd1na2vs0mg"},{"bike_id":"35f9e079-ddce-4904-99e6-023e74c119bd","system_id":"levelo_inurba_marseille","lat":43.26941,"lon":5.40248,"is_reserved":false,"is_disabled":false,"rental_uris":{"android":"levelo://app?vid=35f9e079-ddce-4904-99e6-023e74c119bd","ios":"levelo://app?vid=35f9e079-ddce-4904-99e6-023e74c119bd"},"vehicle_type_id":"4","last_reported":1736756020,"current_range_meters":25200,"station_id":"cjm6bp8fraef2m0cb0m0","pricing_plan_id":"cebpf4jnsgd1na2vs0mg"},{"bike_id":"b8890b39-ab71-4655-a527-68606f251f13","system_id":"levelo_inurba_marseille","lat":43.24074,"lon":5.37756,"is_reserved":false,"is_disabled":false,"rental_uris":{"android":"levelo://app?vid=b8890b39-ab71-4655-a527-68606f251f13","ios":"levelo://app?vid=b8890b39-ab71-4655-a527-68606f251f13"},"vehicle_type_id":"4","last_reported":1736756020,"current_range_meters":36800,"station_id":"ce4bhnp2rcd13ifvqgvg","pricing_plan_id":"cebpf4jnsgd1na2vs0mg"},{"bike_id":"c7a817d3-63e5-4652-8814-98e74bb31058","system_id":"levelo_inurba_marseille","lat":43.239582,"lon":5.366361,"is_reserved":false,"is_disabled":false,"rental_uris":{"android":"levelo://app?vid=c7a817d3-63e5-4652-8814-98e74bb31058","ios":"levelo://app?vid=c7a817d3-63e5-4652-8814-98e74bb31058"},"vehicle_type_id":"4","last_reported":1736756020,"current_range_meters":36400,"station_id":"ce4bhi12rcd13ifvqfp0","pricing_plan_id":"cebpf4jnsgd1na2vs0mg"},{"bike_id":"10f7d31a-ef8d-4e8a-acbf-8aa9a8c72143","system_id":"levelo_inurba_marseille","lat":43.24402,"lon":5.37041,"is_reserved":false,"is_disabled":false,"rental_uris":{"android":"levelo://app?vid=10f7d31a-ef8d-4e8a-acbf-8aa9a8c72143","ios":"levelo://app?vid=10f7d31a-ef8d-4e8a-acbf-8aa9a8c72143"},"vehicle_type_id":"4","last_reported":1736756020,"current_range_meters":8400,"station_id":"ce4bhhh2rcd13ifvqfk0","pricing_plan_id":"cebpf4jnsgd1na2vs0mg"},{"bike_id":"488e5d3f-7080-456a-8875-7f1a5dce4fa1","system_id":"levelo_inurba_marseille","lat":43.301318,"lon":5.387835,"is_reserved":false,"is_disabled":true,"rental_uris":{"android":"levelo://app?vid=488e5d3f-7080-456a-8875-7f1a5dce4fa1","ios":"levelo://app?vid=488e5d3f-7080-456a-8875-7f1a5dce4fa1"},"vehicle_type_id":"4","last_reported":1736756020,"current_range_meters":28800,"station_id":"ce4bghh2rcd13ifvqb60","pricing_plan_id":"cebpf4jnsgd1na2vs0mg"},{"bike_id":"d9511595-185a-4a3e-a81b-0634ec2f8091","system_id":"levelo_inurba_marseille","lat":43.28416,"lon":5.34975,"is_reserved":false,"is_disabled":false,"rental_uris":{"android":"levelo://app?vid=d9511595-185a-4a3e-a81b-0634ec2f8091","ios":"levelo://app?vid=d9511595-185a-4a3e-a81b-0634ec2f8091"},"vehicle_type_id":"4","last_reported":1736756020,"current_range_meters":26800,"station_id":"ce4bhbh2rcd13ifvqepg","pricing_plan_id":"cebpf4jnsgd1na2vs0mg"},{"bike_id":"295bd26f-64bb-4f9a-b1ce-9227768f18ec","system_id":"levelo_inurba_marseille","lat":43.29157,"lon":5.37149,"is_reserved":false,"is_disabled":true,"rental_uris":{"android":"levelo://app?vid=295bd26f-64bb-4f9a-b1ce-9227768f18ec","ios":"levelo://app?vid=295bd26f-64bb-4f9a-b1ce-9227768f18ec"},"vehicle_type_id":"4","last_reported":1736756020,"current_range_meters":30000,"station_id":"ce4bha92rcd13ifvqeh0","pricing_plan_id":"cebpf4jnsgd1na2vs0mg"},{"bike_id":"b7036ab8-2c75-4ee2-b737-d22abb48b199","system_id":"levelo_inurba_marseille","lat":43.2594,"lon":5.40901,"is_reserved":false,"is_disabled":false,"rental_uris":{"android":"levelo://app?vid=b7036ab8-2c75-4ee2-b737-d22abb48b199","ios":"levelo://app?vid=b7036ab8-2c75-4ee2-b737-d22abb48b199"},"vehicle_type_id":"4","last_reported":1736756020,"current_range_meters":35600,"station_id":"ce4bhm92rcd13ifvqglg","pricing_plan_id":"cebpf4jnsgd1na2vs0mg"},{"bike_id":"1bff2bac-4883-4019-adbe-2dc598af8aad","system_id":"levelo_inurba_marseille","lat":43.27411,"lon":5.394,"is_reserved":false,"is_disabled":true,"rental_uris":{"android":"levelo://app?vid=1bff2bac-4883-4019-adbe-2dc598af8aad","ios":"levelo://app?vid=1bff2bac-4883-4019-adbe-2dc598af8aad"},"vehicle_type_id":"4","last_reported":1736756020,"current_range_meters":22400,"station_id":"ce4bhdp2rcd13ifvqf20","pricing_plan_id":"cebpf4jnsgd1na2vs0mg"},{"bike_id":"ae29e0de-7b5a-45d6-ace3-313c5e88010a","system_id":"levelo_inurba_marseille","lat":43.27986,"lon":5.41656,"is_reserved":false,"is_disabled":true,"rental_uris":{"android":"levelo://app?vid=ae29e0de-7b5a-45d6-ace3-313c5e88010a","ios":"levelo://app?vid=ae29e0de-7b5a-45d6-ace3-313c5e88010a"},"vehicle_type_id":"4","last_reported":1736756020,"current_range_meters":0,"station_id":"ce4bho12rcd13ifvqh1g","pricing_plan_id":"cebpf4jnsgd1na2vs0mg"},{"bike_id":"0bc3f5f5-60c2-41a0-a6ff-a38fba6be8aa","system_id":"levelo_inurba_marseille","lat":43.25485,"lon":5.37651,"is_reserved":false,"is_disabled":true,"rental_uris":{"android":"levelo://app?vid=0bc3f5f5-60c2-41a0-a6ff-a38fba6be8aa","ios":"levelo://app?vid=0bc3f5f5-60c2-41a0-a6ff-a38fba6be8aa"},"vehicle_type_id":"4","last_reported":1736756020,"current_range_meters":26800,"station_id":"ce4bhh12rcd13ifvqff0","pricing_plan_id":"cebpf4jnsgd1na2vs0mg"},{"bike_id":"572f0254-11cf-4ef2-b3f9-66737ed8298a","system_id":"levelo_inurba_marseille","lat":43.28421,"lon":5.34987,"is_reserved":false,"is_disabled":true,"rental_uris":{"android":"levelo://app?vid=572f0254-11cf-4ef2-b3f9-66737ed8298a","ios":"levelo://app?vid=572f0254-11cf-4ef2-b3f9-66737ed8298a"},"vehicle_type_id":"4","last_reported":1736756020,"current_range_meters":0,"station_id":"ce4bhbh2rcd13ifvqepg","pricing_plan_id":"cebpf4jnsgd1na2vs0mg"},{"bike_id":"5e762b1b-b8de-4f44-8971-339a5eccc653","system_id":"levelo_inurba_marseille","lat":43.25939,"lon":5.40895,"is_reserved":false,"is_disabled":false,"rental_uris":{"android":"levelo://app?vid=5e762b1b-b8de-4f44-8971-339a5eccc653","ios":"levelo://app?vid=5e762b1b-b8de-4f44-8971-339a5eccc653"},"vehicle_type_id":"4","last_reported":1736756020,"current_range_meters":23200,"station_id":"ce4bhm92rcd13ifvqglg","pricing_plan_id":"cebpf4jnsgd1na2vs0mg"},{"bike_id":"432c3ea1-bacd-4bf6-9280-5777e35950d9","system_id":"levelo_inurba_marseille","lat":43.29374,"lon":5.37848,"is_reserved":false,"is_disabled":false,"rental_uris":{"android":"levelo://app?vid=432c3ea1-bacd-4bf6-9280-5777e35950d9","ios":"levelo://app?vid=432c3ea1-bacd-4bf6-9280-5777e35950d9"},"vehicle_type_id":"4","last_reported":1736756020,"current_range_meters":26000,"station_id":"ce4bgjh2rcd13ifvqbf0","pricing_plan_id":"cebpf4jnsgd1na2vs0mg"},{"bike_id":"8800042a-0add-44ef-83e3-65f9b3d7a865","system_id":"levelo_inurba_marseille","lat":43.28845,"lon":5.35856,"is_reserved":false,"is_disabled":false,"rental_uris":{"android":"levelo://app?vid=8800042a-0add-44ef-83e3-65f9b3d7a865","ios":"levelo://app?vid=8800042a-0add-44ef-83e3-65f9b3d7a865"},"vehicle_type_id":"4","last_reported":1736756020,"current_range_meters":28800,"station_id":"ce4bhb12rcd13ifvqem0","pricing_plan_id":"cebpf4jnsgd1na2vs0mg"},{"bike_id":"136c61aa-a244-4f82-9113-620a348666ce","system_id":"levelo_inurba_marseille","lat":43.27576,"lon":5.38396,"is_reserved":false,"is_disabled":true,"rental_uris":{"android":"levelo://app?vid=136c61aa-a244-4f82-9113-620a348666ce","ios":"levelo://app?vid=136c61aa-a244-4f82-9113-620a348666ce"},"vehicle_type_id":"4","last_reported":1736756020,"current_range_meters":26000,"station_id":"ce4bhh92rcd13ifvqfi0","pricing_plan_id":"cebpf4jnsgd1na2vs0mg"},{"bike_id":"7391e96e-2c6d-49a3-9915-b13616113476","system_id":"levelo_inurba_marseille","lat":43.32541,"lon":5.41438,"is_reserved":false,"is_disabled":false,"rental_uris":{"android":"levelo://app?vid=7391e96e-2c6d-49a3-9915-b13616113476","ios":"levelo://app?vid=7391e96e-2c6d-49a3-9915-b13616113476"},"vehicle_type_id":"4","last_reported":1736756020,"current_range_meters":12400,"station_id":"ce4bhq12rcd13ifvqhhg","pricing_plan_id":"cebpf4jnsgd1na2vs0mg"},{"bike_id":"42ecc464-da44-487e-b0da-d25d9d2043d6","system_id":"levelo_inurba_marseille","lat":43.25721,"lon":5.41102,"is_reserved":false,"is_disabled":false,"rental_uris":{"android":"levelo://app?vid=42ecc464-da44-487e-b0da-d25d9d2043d6","ios":"levelo://app?vid=42ecc464-da44-487e-b0da-d25d9d2043d6"},"vehicle_type_id":"4","last_reported":1736756020,"current_range_meters":38800,"station_id":"ce4bhkp2rcd13ifvqgd0","pricing_plan_id":"cebpf4jnsgd1na2vs0mg"},{"bike_id":"590101b8-71a2-4b30-97d3-b43099df76e7","system_id":"levelo_inurba_marseille","lat":43.30534,"lon":5.36699,"is_reserved":false,"is_disabled":false,"rental_uris":{"android":"levelo://app?vid=590101b8-71a2-4b30-97d3-b43099df76e7","ios":"levelo://app?vid=590101b8-71a2-4b30-97d3-b43099df76e7"},"vehicle_type_id":"4","last_reported":1736756020,"current_range_meters":38800,"station_id":"ce4bgrp2rcd13ifvqc9g","pricing_plan_id":"cebpf4jnsgd1na2vs0mg"},{"bike_id":"65e8b99d-cb00-44f8-a57f-7740743f51e0","system_id":"levelo_inurba_marseille","lat":43.25004,"lon":5.38915,"is_reserved":false,"is_disabled":true,"rental_uris":{"android":"levelo://app?vid=65e8b99d-cb00-44f8-a57f-7740743f51e0","ios":"levelo://app?vid=65e8b99d-cb00-44f8-a57f-7740743f51e0"},"vehicle_type_id":"4","last_reported":1736756020,"current_range_meters":24800,"station_id":"ce4bhgp2rcd13ifvqfd0","pricing_plan_id":"cebpf4jnsgd1na2vs0mg"},{"bike_id":"e7bed24c-76b8-4bfe-8ea5-51efa81df6c2","system_id":"levelo_inurba_marseille","lat":43.27488,"lon":5.42451,"is_reserved":false,"is_disabled":true,"rental_uris":{"android":"levelo://app?vid=e7bed24c-76b8-4bfe-8ea5-51efa81df6c2","ios":"levelo://app?vid=e7bed24c-76b8-4bfe-8ea5-51efa81df6c2"},"vehicle_type_id":"4","last_reported":1736756020,"current_range_meters":0,"station_id":"ce4bhn92rcd13ifvqgrg","pricing_plan_id":"cebpf4jnsgd1na2vs0mg"},{"bike_id":"6717d6af-ad98-48cb-9ab4-95e77c0c6da7","system_id":"levelo_inurba_marseille","lat":43.31345,"lon":5.36718,"is_reserved":false,"is_disabled":false,"rental_uris":{"android":"levelo://app?vid=6717d6af-ad98-48cb-9ab4-95e77c0c6da7","ios":"levelo://app?vid=6717d6af-ad98-48cb-9ab4-95e77c0c6da7"},"vehicle_type_id":"4","last_reported":1736756020,"current_range_meters":29600,"station_id":"ce4bgr92rcd13ifvqc6g","pricing_plan_id":"cebpf4jnsgd1na2vs0mg"},{"bike_id":"3db2fa11-1dd9-4dc9-ae46-77da55522d93","system_id":"levelo_inurba_marseille","lat":43.25543,"lon":5.40079,"is_reserved":false,"is_disabled":true,"rental_uris":{"android":"levelo://app?vid=3db2fa11-1dd9-4dc9-ae46-77da55522d93","ios":"levelo://app?vid=3db2fa11-1dd9-4dc9-ae46-77da55522d93"},"vehicle_type_id":"4","last_reported":1736756020,"current_range_meters":0,"station_id":"","pricing_plan_id":"cebpf4jnsgd1na2vs0mg"},{"bike_id":"5cc17594-1bff-4e99-8efc-9f05a6b8d594","system_id":"levelo_inurba_marseille","lat":43.325288,"lon":5.414357,"is_reserved":false,"is_disabled":false,"rental_uris":{"android":"levelo://app?vid=5cc17594-1bff-4e99-8efc-9f05a6b8d594","ios":"levelo://app?vid=5cc17594-1bff-4e99-8efc-9f05a6b8d594"},"vehicle_type_id":"4","last_reported":1736756020,"current_range_meters":2800,"station_id":"ce4bhq12rcd13ifvqhhg","pricing_plan_id":"cebpf4jnsgd1na2vs0mg"},{"bike_id":"ad9b59a6-0f9c-4857-92f2-6ea929fd29d9","system_id":"levelo_inurba_marseille","lat":43.26494,"lon":5.39542,"is_reserved":false,"is_disabled":false,"rental_uris":{"android":"levelo://app?vid=ad9b59a6-0f9c-4857-92f2-6ea929fd29d9","ios":"levelo://app?vid=ad9b59a6-0f9c-4857-92f2-6ea929fd29d9"},"vehicle_type_id":"4","last_reported":1736756020,"current_range_meters":4400,"station_id":"ce4bhi12rcd13ifvqfq0","pricing_plan_id":"cebpf4jnsgd1na2vs0mg"},{"bike_id":"d4a63cdf-0728-414f-a897-e7f656e2ec7c","system_id":"levelo_inurba_marseille","lat":43.257185,"lon":5.411181,"is_reserved":false,"is_disabled":false,"rental_uris":{"android":"levelo://app?vid=d4a63cdf-0728-414f-a897-e7f656e2ec7c","ios":"levelo://app?vid=d4a63cdf-0728-414f-a897-e7f656e2ec7c"},"vehicle_type_id":"4","last_reported":1736756020,"current_range_meters":34800,"station_id":"ce4bhkp2rcd13ifvqgd0","pricing_plan_id":"cebpf4jnsgd1na2vs0mg"},{"bike_id":"b704bf42-2bc7-4506-b669-8ca7a3330fef","system_id":"levelo_inurba_marseille","lat":43.281524,"lon":5.426368,"is_reserved":false,"is_disabled":true,"rental_uris":{"android":"levelo://app?vid=b704bf42-2bc7-4506-b669-8ca7a3330fef","ios":"levelo://app?vid=b704bf42-2bc7-4506-b669-8ca7a3330fef"},"vehicle_type_id":"4","last_reported":1736756020,"current_range_meters":25200,"station_id":"ce4bhnh2rcd13ifvqgug","pricing_plan_id":"cebpf4jnsgd1na2vs0mg"},{"bike_id":"fce02c72-fa01-449e-8f72-a8530913b962","system_id":"levelo_inurba_marseille","lat":43.3048,"lon":5.3792,"is_reserved":false,"is_disabled":false,"rental_uris":{"android":"levelo://app?vid=fce02c72-fa01-449e-8f72-a8530913b962","ios":"levelo://app?vid=fce02c72-fa01-449e-8f72-a8530913b962"},"vehicle_type_id":"4","last_reported":1736756020,"current_range_meters":38800,"station_id":"ce4bgup2rcd13ifvqcn0","pricing_plan_id":"cebpf4jnsgd1na2vs0mg"},{"bike_id":"73b4cf95-366f-4270-9320-716ca0d81968","system_id":"levelo_inurba_marseille","lat":43.29032,"lon":5.39972,"is_reserved":false,"is_disabled":false,"rental_uris":{"android":"levelo://app?vid=73b4cf95-366f-4270-9320-716ca0d81968","ios":"levelo://app?vid=73b4cf95-366f-4270-9320-716ca0d81968"},"vehicle_type_id":"4","last_reported":1736756020,"current_range_meters":27600,"station_id":"ce4bh392rcd13ifvqdm0","pricing_plan_id":"cebpf4jnsgd1na2vs0mg"},{"bike_id":"99992ce0-e13f-4dee-95af-06d78d23df51","system_id":"levelo_inurba_marseille","lat":43.25901,"lon":5.40866,"is_reserved":false,"is_disabled":false,"rental_uris":{"android":"levelo://app?vid=99992ce0-e13f-4dee-95af-06d78d23df51","ios":"levelo://app?vid=99992ce0-e13f-4dee-95af-06d78d23df51"},"vehicle_type_id":"4","last_reported":1736756020,"current_range_meters":13600,"station_id":"ce4bhm92rcd13ifvqglg","pricing_plan_id":"cebpf4jnsgd1na2vs0mg"},{"bike_id":"f62a7ed4-7c80-4ed8-9568-a4dea62069d1","system_id":"levelo_inurba_marseille","lat":43.28083,"lon":5.39653,"is_reserved":false,"is_disabled":false,"rental_uris":{"android":"levelo://app?vid=f62a7ed4-7c80-4ed8-9568-a4dea62069d1","ios":"levelo://app?vid=f62a7ed4-7c80-4ed8-9568-a4dea62069d1"},"vehicle_type_id":"4","last_reported":1736756020,"current_range_meters":29600,"station_id":"ce4bho12rcd13ifvqh2g","pricing_plan_id":"cebpf4jnsgd1na2vs0mg"},{"bike_id":"e539cb05-d2ab-4d14-bbfb-e5e536e8ff92","system_id":"levelo_inurba_marseille","lat":43.29084,"lon":5.37166,"is_reserved":false,"is_disabled":false,"rental_uris":{"android":"levelo://app?vid=e539cb05-d2ab-4d14-bbfb-e5e536e8ff92","ios":"levelo://app?vid=e539cb05-d2ab-4d14-bbfb-e5e536e8ff92"},"vehicle_type_id":"4","last_reported":1736756020,"current_range_meters":36400,"station_id":"ce4bh5p2rcd13ifvqe4g","pricing_plan_id":"cebpf4jnsgd1na2vs0mg"},{"bike_id":"ab5106f8-9059-4776-adcb-76ac24a9e045","system_id":"levelo_inurba_marseille","lat":43.30456,"lon":5.37913,"is_reserved":false,"is_disabled":false,"rental_uris":{"android":"levelo://app?vid=ab5106f8-9059-4776-adcb-76ac24a9e045","ios":"levelo://app?vid=ab5106f8-9059-4776-adcb-76ac24a9e045"},"vehicle_type_id":"4","last_reported":1736756020,"current_range_meters":16400,"station_id":"ce4bgup2rcd13ifvqcn0","pricing_plan_id":"cebpf4jnsgd1na2vs0mg"},{"bike_id":"0e19202f-6922-49da-ae77-73894f707993","system_id":"levelo_inurba_marseille","lat":43.26944,"lon":5.38631,"is_reserved":false,"is_disabled":false,"rental_uris":{"android":"levelo://app?vid=0e19202f-6922-49da-ae77-73894f707993","ios":"levelo://app?vid=0e19202f-6922-49da-ae77-73894f707993"},"vehicle_type_id":"4","last_reported":1736756020,"current_range_meters":38000,"station_id":"ce4bhh92rcd13ifvqfh0","pricing_plan_id":"cebpf4jnsgd1na2vs0mg"},{"bike_id":"d42aab63-4108-4300-bb76-e14a653ba056","system_id":"levelo_inurba_marseille","lat":43.28002,"lon":5.40008,"is_reserved":false,"is_disabled":true,"rental_uris":{"android":"levelo://app?vid=d42aab63-4108-4300-bb76-e14a653ba056","ios":"levelo://app?vid=d42aab63-4108-4300-bb76-e14a653ba056"},"vehicle_type_id":"4","last_reported":1736756020,"current_range_meters":36400,"station_id":"","pricing_plan_id":"cebpf4jnsgd1na2vs0mg"},{"bike_id":"a600f163-9520-4043-bbca-7e042ce60e39","system_id":"levelo_inurba_marseille","lat":43.28618,"lon":5.35092,"is_reserved":false,"is_disabled":false,"rental_uris":{"android":"levelo://app?vid=a600f163-9520-4043-bbca-7e042ce60e39","ios":"levelo://app?vid=a600f163-9520-4043-bbca-7e042ce60e39"},"vehicle_type_id":"4","last_reported":1736756020,"current_range_meters":24800,"station_id":"ce4bhch2rcd13ifvqeug","pricing_plan_id":"cebpf4jnsgd1na2vs0mg"},{"bike_id":"cf5b1707-8bb3-4ff0-9a1e-06b1404818e4","system_id":"levelo_inurba_marseille","lat":43.31485,"lon":5.37289,"is_reserved":false,"is_disabled":false,"rental_uris":{"android":"levelo://app?vid=cf5b1707-8bb3-4ff0-9a1e-06b1404818e4","ios":"levelo://app?vid=cf5b1707-8bb3-4ff0-9a1e-06b1404818e4"},"vehicle_type_id":"4","last_reported":1736756020,"current_range_meters":36800,"station_id":"ce4bgt12rcd13ifvqcd0","pricing_plan_id":"cebpf4jnsgd1na2vs0mg"},{"bike_id":"66c74e61-5f94-4d34-8844-39c7d31204c9","system_id":"levelo_inurba_marseille","lat":43.24211,"lon":5.39716,"is_reserved":false,"is_disabled":false,"rental_uris":{"android":"levelo://app?vid=66c74e61-5f94-4d34-8844-39c7d31204c9","ios":"levelo://app?vid=66c74e61-5f94-4d34-8844-39c7d31204c9"},"vehicle_type_id":"4","last_reported":1736756020,"current_range_meters":27200,"station_id":"ce4bhn12rcd13ifvqgpg","pricing_plan_id":"cebpf4jnsgd1na2vs0mg"},{"bike_id":"31240ca4-9f64-4406-9c52-14b4354e548c","system_id":"levelo_inurba_marseille","lat":43.28628,"lon":5.35093,"is_reserved":false,"is_disabled":false,"rental_uris":{"android":"levelo://app?vid=31240ca4-9f64-4406-9c52-14b4354e548c","ios":"levelo://app?vid=31240ca4-9f64-4406-9c52-14b4354e548c"},"vehicle_type_id":"4","last_reported":1736756020,"current_range_meters":34000,"station_id":"ce4bhch2rcd13ifvqeug","pricing_plan_id":"cebpf4jnsgd1na2vs0mg"},{"bike_id":"089a04ef-15a2-4c09-98ee-41fc60bacc6d","system_id":"levelo_inurba_marseille","lat":43.32486,"lon":5.36571,"is_reserved":false,"is_disabled":false,"rental_uris":{"android":"levelo://app?vid=089a04ef-15a2-4c09-98ee-41fc60bacc6d","ios":"levelo://app?vid=089a04ef-15a2-4c09-98ee-41fc60bacc6d"},"vehicle_type_id":"4","last_reported":1736756020,"current_range_meters":38400,"station_id":"ce4bhs12rcd13ifvqhvg","pricing_plan_id":"cebpf4jnsgd1na2vs0mg"},{"bike_id":"d9b042e2-bbf3-47bf-851f-426caf4d0e01","system_id":"levelo_inurba_marseille","lat":43.24824,"lon":5.37469,"is_reserved":false,"is_disabled":false,"rental_uris":{"android":"levelo://app?vid=d9b042e2-bbf3-47bf-851f-426caf4d0e01","ios":"levelo://app?vid=d9b042e2-bbf3-47bf-851f-426caf4d0e01"},"vehicle_type_id":"4","last_reported":1736756020,"current_range_meters":35200,"station_id":"ce4bhgh2rcd13ifvqfb0","pricing_plan_id":"cebpf4jnsgd1na2vs0mg"},{"bike_id":"712fb1ac-a49b-4a1d-bf83-b2682dda137c","system_id":"levelo_inurba_marseille","lat":43.30508,"lon":5.36949,"is_reserved":false,"is_disabled":false,"rental_uris":{"android":"levelo://app?vid=712fb1ac-a49b-4a1d-bf83-b2682dda137c","ios":"levelo://app?vid=712fb1ac-a49b-4a1d-bf83-b2682dda137c"},"vehicle_type_id":"4","last_reported":1736756020,"current_range_meters":36000,"station_id":"","pricing_plan_id":"cebpf4jnsgd1na2vs0mg"},{"bike_id":"1e2223a2-c032-49e7-8dbf-982df86a0520","system_id":"levelo_inurba_marseille","lat":43.229265,"lon":5.353704,"is_reserved":false,"is_disabled":false,"rental_uris":{"android":"levelo://app?vid=1e2223a2-c032-49e7-8dbf-982df86a0520","ios":"levelo://app?vid=1e2223a2-c032-49e7-8dbf-982df86a0520"},"vehicle_type_id":"4","last_reported":1736756020,"current_range_meters":20400,"station_id":"cpo3532slgdg3j2ikp40","pricing_plan_id":"cebpf4jnsgd1na2vs0mg"},{"bike_id":"b6482fa2-5354-4c67-b31d-49029bea3ce2","system_id":"levelo_inurba_marseille","lat":43.27202,"lon":5.40998,"is_reserved":false,"is_disabled":false,"rental_uris":{"android":"levelo://app?vid=b6482fa2-5354-4c67-b31d-49029bea3ce2","ios":"levelo://app?vid=b6482fa2-5354-4c67-b31d-49029bea3ce2"},"vehicle_type_id":"4","last_reported":1736756020,"current_range_meters":35200,"station_id":"ce4bhl12rcd13ifvqgf0","pricing_plan_id":"cebpf4jnsgd1na2vs0mg"},{"bike_id":"33fd27f6-0417-4bbc-b9fc-23ac7f4076ae","system_id":"levelo_inurba_marseille","lat":43.29369,"lon":5.376001,"is_reserved":false,"is_disabled":false,"rental_uris":{"android":"levelo://app?vid=33fd27f6-0417-4bbc-b9fc-23ac7f4076ae","ios":"levelo://app?vid=33fd27f6-0417-4bbc-b9fc-23ac7f4076ae"},"vehicle_type_id":"4","last_reported":1736756020,"current_range_meters":27600,"station_id":"ce4bh9p2rcd13ifvqed0","pricing_plan_id":"cebpf4jnsgd1na2vs0mg"},{"bike_id":"5f2cf356-122a-4d24-85ba-e38bc4612223","system_id":"levelo_inurba_marseille","lat":43.25588,"lon":5.38225,"is_reserved":false,"is_disabled":false,"rental_uris":{"android":"levelo://app?vid=5f2cf356-122a-4d24-85ba-e38bc4612223","ios":"levelo://app?vid=5f2cf356-122a-4d24-85ba-e38bc4612223"},"vehicle_type_id":"4","last_reported":1736756020,"current_range_meters":25600,"station_id":"ce4bhih2rcd13ifvqfs0","pricing_plan_id":"cebpf4jnsgd1na2vs0mg"},{"bike_id":"3b0c7591-c1f3-412f-9181-cb82602a89ed","system_id":"levelo_inurba_marseille","lat":43.248155,"lon":5.374608,"is_reserved":false,"is_disabled":true,"rental_uris":{"android":"levelo://app?vid=3b0c7591-c1f3-412f-9181-cb82602a89ed","ios":"levelo://app?vid=3b0c7591-c1f3-412f-9181-cb82602a89ed"},"vehicle_type_id":"4","last_reported":1736756020,"current_range_meters":10000,"station_id":"ce4bhgh2rcd13ifvqfb0","pricing_plan_id":"cebpf4jnsgd1na2vs0mg"},{"bike_id":"53654f10-da2f-4d3b-b20c-72333b05ffaf","system_id":"levelo_inurba_marseille","lat":43.24084,"lon":5.3775,"is_reserved":false,"is_disabled":false,"rental_uris":{"android":"levelo://app?vid=53654f10-da2f-4d3b-b20c-72333b05ffaf","ios":"levelo://app?vid=53654f10-da2f-4d3b-b20c-72333b05ffaf"},"vehicle_type_id":"4","last_reported":1736756020,"current_range_meters":17600,"station_id":"ce4bhnp2rcd13ifvqgvg","pricing_plan_id":"cebpf4jnsgd1na2vs0mg"},{"bike_id":"bb9e99ce-48a1-4551-a814-d1c67643e278","system_id":"levelo_inurba_marseille","lat":43.23133,"lon":5.43722,"is_reserved":false,"is_disabled":true,"rental_uris":{"android":"levelo://app?vid=bb9e99ce-48a1-4551-a814-d1c67643e278","ios":"levelo://app?vid=bb9e99ce-48a1-4551-a814-d1c67643e278"},"vehicle_type_id":"4","last_reported":1736756020,"current_range_meters":0,"station_id":"ce4bhmp2rcd13ifvqgog","pricing_plan_id":"cebpf4jnsgd1na2vs0mg"},{"bike_id":"16833343-c45a-4aeb-bf79-1be93a70c331","system_id":"levelo_inurba_marseille","lat":43.32479,"lon":5.36571,"is_reserved":false,"is_disabled":false,"rental_uris":{"android":"levelo://app?vid=16833343-c45a-4aeb-bf79-1be93a70c331","ios":"levelo://app?vid=16833343-c45a-4aeb-bf79-1be93a70c331"},"vehicle_type_id":"4","last_reported":1736756020,"current_range_meters":37600,"station_id":"ce4bhs12rcd13ifvqhvg","pricing_plan_id":"cebpf4jnsgd1na2vs0mg"},{"bike_id":"8242826e-ab20-43ea-95c1-e76b426a119e","system_id":"levelo_inurba_marseille","lat":43.33773,"lon":5.37431,"is_reserved":false,"is_disabled":false,"rental_uris":{"android":"levelo://app?vid=8242826e-ab20-43ea-95c1-e76b426a119e","ios":"levelo://app?vid=8242826e-ab20-43ea-95c1-e76b426a119e"},"vehicle_type_id":"4","last_reported":1736756020,"current_range_meters":38800,"station_id":"","pricing_plan_id":"cebpf4jnsgd1na2vs0mg"},{"bike_id":"57f5a8a9-f2e5-4673-966d-ca04b8d8c8e6","system_id":"levelo_inurba_marseille","lat":43.311276,"lon":5.377564,"is_reserved":false,"is_disabled":true,"rental_uris":{"android":"levelo://app?vid=57f5a8a9-f2e5-4673-966d-ca04b8d8c8e6","ios":"levelo://app?vid=57f5a8a9-f2e5-4673-966d-ca04b8d8c8e6"},"vehicle_type_id":"4","last_reported":1736756020,"current_range_meters":0,"station_id":"ce4bgt92rcd13ifvqcg0","pricing_plan_id":"cebpf4jnsgd1na2vs0mg"},{"bike_id":"41922604-c7b8-4e93-9da5-3903771d7233","system_id":"levelo_inurba_marseille","lat":43.248136,"lon":5.374583,"is_reserved":false,"is_disabled":false,"rental_uris":{"android":"levelo://app?vid=41922604-c7b8-4e93-9da5-3903771d7233","ios":"levelo://app?vid=41922604-c7b8-4e93-9da5-3903771d7233"},"vehicle_type_id":"4","last_reported":1736756020,"current_range_meters":27600,"station_id":"ce4bhgh2rcd13ifvqfb0","pricing_plan_id":"cebpf4jnsgd1na2vs0mg"},{"bike_id":"c327d484-c524-4142-9386-6268c4e1d223","system_id":"levelo_inurba_marseille","lat":43.25586,"lon":5.38217,"is_reserved":false,"is_disabled":false,"rental_uris":{"android":"levelo://app?vid=c327d484-c524-4142-9386-6268c4e1d223","ios":"levelo://app?vid=c327d484-c524-4142-9386-6268c4e1d223"},"vehicle_type_id":"4","last_reported":1736756020,"current_range_meters":20800,"station_id":"ce4bhih2rcd13ifvqfs0","pricing_plan_id":"cebpf4jnsgd1na2vs0mg"},{"bike_id":"9343157b-1c2d-4548-bf4c-6991e6c0cdde","system_id":"levelo_inurba_marseille","lat":43.29763,"lon":5.37103,"is_reserved":false,"is_disabled":true,"rental_uris":{"android":"levelo://app?vid=9343157b-1c2d-4548-bf4c-6991e6c0cdde","ios":"levelo://app?vid=9343157b-1c2d-4548-bf4c-6991e6c0cdde"},"vehicle_type_id":"4","last_reported":1736756020,"current_range_meters":24000,"station_id":"ce4bgop2rcd13ifvqc1g","pricing_plan_id":"cebpf4jnsgd1na2vs0mg"},{"bike_id":"7b4baf74-6543-4e07-a2f0-567da6624c28","system_id":"levelo_inurba_marseille","lat":43.31362,"lon":5.36701,"is_reserved":false,"is_disabled":false,"rental_uris":{"android":"levelo://app?vid=7b4baf74-6543-4e07-a2f0-567da6624c28","ios":"levelo://app?vid=7b4baf74-6543-4e07-a2f0-567da6624c28"},"vehicle_type_id":"4","last_reported":1736756020,"current_range_meters":32800,"station_id":"ce4bgr92rcd13ifvqc6g","pricing_plan_id":"cebpf4jnsgd1na2vs0mg"},{"bike_id":"37ef9dae-3045-4c9a-8403-f38fac7f6b1a","system_id":"levelo_inurba_marseille","lat":43.29043,"lon":5.3995,"is_reserved":false,"is_disabled":false,"rental_uris":{"android":"levelo://app?vid=37ef9dae-3045-4c9a-8403-f38fac7f6b1a","ios":"levelo://app?vid=37ef9dae-3045-4c9a-8403-f38fac7f6b1a"},"vehicle_type_id":"4","last_reported":1736756020,"current_range_meters":38800,"station_id":"ce4bh392rcd13ifvqdm0","pricing_plan_id":"cebpf4jnsgd1na2vs0mg"},{"bike_id":"e472d994-f65f-4f46-888f-c26644e6cd18","system_id":"levelo_inurba_marseille","lat":43.30124,"lon":5.37431,"is_reserved":false,"is_disabled":false,"rental_uris":{"android":"levelo://app?vid=e472d994-f65f-4f46-888f-c26644e6cd18","ios":"levelo://app?vid=e472d994-f65f-4f46-888f-c26644e6cd18"},"vehicle_type_id":"4","last_reported":1736756020,"current_range_meters":25600,"station_id":"ce4bgs92rcd13ifvqcc0","pricing_plan_id":"cebpf4jnsgd1na2vs0mg"},{"bike_id":"6f8d5613-68e8-453b-9903-0b6c2da05e2d","system_id":"levelo_inurba_marseille","lat":43.24168,"lon":5.36396,"is_reserved":false,"is_disabled":false,"rental_uris":{"android":"levelo://app?vid=6f8d5613-68e8-453b-9903-0b6c2da05e2d","ios":"levelo://app?vid=6f8d5613-68e8-453b-9903-0b6c2da05e2d"},"vehicle_type_id":"4","last_reported":1736756020,"current_range_meters":32800,"station_id":"cpo36qri1sfpv3e86is0","pricing_plan_id":"cebpf4jnsgd1na2vs0mg"},{"bike_id":"04d788bf-6a1e-4994-a7a2-ad85dcb4ea1c","system_id":"levelo_inurba_marseille","lat":43.26675,"lon":5.38259,"is_reserved":false,"is_disabled":false,"rental_uris":{"android":"levelo://app?vid=04d788bf-6a1e-4994-a7a2-ad85dcb4ea1c","ios":"levelo://app?vid=04d788bf-6a1e-4994-a7a2-ad85dcb4ea1c"},"vehicle_type_id":"4","last_reported":1736756020,"current_range_meters":38800,"station_id":"ce4bhg92rcd13ifvqf90","pricing_plan_id":"cebpf4jnsgd1na2vs0mg"},{"bike_id":"cf11e11e-1e8b-42f7-a7ea-4ab24cbbde4c","system_id":"levelo_inurba_marseille","lat":43.28618,"lon":5.35103,"is_reserved":false,"is_disabled":false,"rental_uris":{"android":"levelo://app?vid=cf11e11e-1e8b-42f7-a7ea-4ab24cbbde4c","ios":"levelo://app?vid=cf11e11e-1e8b-42f7-a7ea-4ab24cbbde4c"},"vehicle_type_id":"4","last_reported":1736756020,"current_range_meters":30000,"station_id":"ce4bhch2rcd13ifvqeug","pricing_plan_id":"cebpf4jnsgd1na2vs0mg"},{"bike_id":"2130fc74-9dbc-4976-b04b-ed38d5ae8110","system_id":"levelo_inurba_marseille","lat":43.24053,"lon":5.37758,"is_reserved":false,"is_disabled":false,"rental_uris":{"android":"levelo://app?vid=2130fc74-9dbc-4976-b04b-ed38d5ae8110","ios":"levelo://app?vid=2130fc74-9dbc-4976-b04b-ed38d5ae8110"},"vehicle_type_id":"4","last_reported":1736756020,"current_range_meters":37600,"station_id":"ce4bhnp2rcd13ifvqgvg","pricing_plan_id":"cebpf4jnsgd1na2vs0mg"},{"bike_id":"3fe1c7ab-6535-4a87-a5c5-4dc2bdd2f69f","system_id":"levelo_inurba_marseille","lat":43.30908,"lon":5.3685,"is_reserved":false,"is_disabled":false,"rental_uris":{"android":"levelo://app?vid=3fe1c7ab-6535-4a87-a5c5-4dc2bdd2f69f","ios":"levelo://app?vid=3fe1c7ab-6535-4a87-a5c5-4dc2bdd2f69f"},"vehicle_type_id":"4","last_reported":1736756020,"current_range_meters":30400,"station_id":"ce4bgn92rcd13ifvqbvg","pricing_plan_id":"cebpf4jnsgd1na2vs0mg"},{"bike_id":"85603f95-286b-4848-8682-ec6ae6094237","system_id":"levelo_inurba_marseille","lat":43.2706,"lon":5.40261,"is_reserved":false,"is_disabled":true,"rental_uris":{"android":"levelo://app?vid=85603f95-286b-4848-8682-ec6ae6094237","ios":"levelo://app?vid=85603f95-286b-4848-8682-ec6ae6094237"},"vehicle_type_id":"4","last_reported":1736756020,"current_range_meters":4800,"station_id":"ce4bhk92rcd13ifvqgc0","pricing_plan_id":"cebpf4jnsgd1na2vs0mg"},{"bike_id":"55178c83-e8c1-42d0-85eb-2ae9bbbd47cf","system_id":"levelo_inurba_marseille","lat":43.23185,"lon":5.35572,"is_reserved":false,"is_disabled":false,"rental_uris":{"android":"levelo://app?vid=55178c83-e8c1-42d0-85eb-2ae9bbbd47cf","ios":"levelo://app?vid=55178c83-e8c1-42d0-85eb-2ae9bbbd47cf"},"vehicle_type_id":"4","last_reported":1736756020,"current_range_meters":38400,"station_id":"ce4bhu92rcd13ifvqi70","pricing_plan_id":"cebpf4jnsgd1na2vs0mg"},{"bike_id":"d1b2126a-42b0-467a-a8b9-a323ce392290","system_id":"levelo_inurba_marseille","lat":43.293693,"lon":5.378317,"is_reserved":false,"is_disabled":false,"rental_uris":{"android":"levelo://app?vid=d1b2126a-42b0-467a-a8b9-a323ce392290","ios":"levelo://app?vid=d1b2126a-42b0-467a-a8b9-a323ce392290"},"vehicle_type_id":"4","last_reported":1736756020,"current_range_meters":38000,"station_id":"ce4bgjh2rcd13ifvqbf0","pricing_plan_id":"cebpf4jnsgd1na2vs0mg"},{"bike_id":"8b88170d-e695-4530-8583-a66b3ec41a93","system_id":"levelo_inurba_marseille","lat":43.33607,"lon":5.41023,"is_reserved":false,"is_disabled":true,"rental_uris":{"android":"levelo://app?vid=8b88170d-e695-4530-8583-a66b3ec41a93","ios":"levelo://app?vid=8b88170d-e695-4530-8583-a66b3ec41a93"},"vehicle_type_id":"4","last_reported":1736756020,"current_range_meters":5600,"station_id":"ce4bhqh2rcd13ifvqhmg","pricing_plan_id":"cebpf4jnsgd1na2vs0mg"},{"bike_id":"05da1427-11d2-409f-b1a9-8274ceefa2b5","system_id":"levelo_inurba_marseille","lat":43.29267,"lon":5.36835,"is_reserved":false,"is_disabled":true,"rental_uris":{"android":"levelo://app?vid=05da1427-11d2-409f-b1a9-8274ceefa2b5","ios":"levelo://app?vid=05da1427-11d2-409f-b1a9-8274ceefa2b5"},"vehicle_type_id":"4","last_reported":1736756020,"current_range_meters":14800,"station_id":"ce4bhbp2rcd13ifvqesg","pricing_plan_id":"cebpf4jnsgd1na2vs0mg"},{"bike_id":"b8acbba0-a715-4ced-a2aa-0517db10ac9d","system_id":"levelo_inurba_marseille","lat":43.22926,"lon":5.35377,"is_reserved":false,"is_disabled":true,"rental_uris":{"android":"levelo://app?vid=b8acbba0-a715-4ced-a2aa-0517db10ac9d","ios":"levelo://app?vid=b8acbba0-a715-4ced-a2aa-0517db10ac9d"},"vehicle_type_id":"4","last_reported":1736756020,"current_range_meters":28400,"station_id":"cpo3532slgdg3j2ikp40","pricing_plan_id":"cebpf4jnsgd1na2vs0mg"},{"bike_id":"5a16b36f-1514-4d4e-bf26-71ed3f375014","system_id":"levelo_inurba_marseille","lat":43.26937,"lon":5.38642,"is_reserved":false,"is_disabled":false,"rental_uris":{"android":"levelo://app?vid=5a16b36f-1514-4d4e-bf26-71ed3f375014","ios":"levelo://app?vid=5a16b36f-1514-4d4e-bf26-71ed3f375014"},"vehicle_type_id":"4","last_reported":1736756020,"current_range_meters":28000,"station_id":"ce4bhh92rcd13ifvqfh0","pricing_plan_id":"cebpf4jnsgd1na2vs0mg"},{"bike_id":"a4ff37b7-68f1-48c9-ad5d-1b48e017db3a","system_id":"levelo_inurba_marseille","lat":43.274973,"lon":5.424534,"is_reserved":false,"is_disabled":false,"rental_uris":{"android":"levelo://app?vid=a4ff37b7-68f1-48c9-ad5d-1b48e017db3a","ios":"levelo://app?vid=a4ff37b7-68f1-48c9-ad5d-1b48e017db3a"},"vehicle_type_id":"4","last_reported":1736756020,"current_range_meters":38000,"station_id":"ce4bhn92rcd13ifvqgrg","pricing_plan_id":"cebpf4jnsgd1na2vs0mg"},{"bike_id":"d1fabc58-caf7-4d51-a0b7-5178e822a4f7","system_id":"levelo_inurba_marseille","lat":43.29758,"lon":5.37672,"is_reserved":false,"is_disabled":false,"rental_uris":{"android":"levelo://app?vid=d1fabc58-caf7-4d51-a0b7-5178e822a4f7","ios":"levelo://app?vid=d1fabc58-caf7-4d51-a0b7-5178e822a4f7"},"vehicle_type_id":"4","last_reported":1736756020,"current_range_meters":38400,"station_id":"","pricing_plan_id":"cebpf4jnsgd1na2vs0mg"},{"bike_id":"19192bb3-f286-41ed-8d29-704554e42cbb","system_id":"levelo_inurba_marseille","lat":43.25004,"lon":5.40404,"is_reserved":false,"is_disabled":false,"rental_uris":{"android":"levelo://app?vid=19192bb3-f286-41ed-8d29-704554e42cbb","ios":"levelo://app?vid=19192bb3-f286-41ed-8d29-704554e42cbb"},"vehicle_type_id":"4","last_reported":1736756020,"current_range_meters":27600,"station_id":"","pricing_plan_id":"cebpf4jnsgd1na2vs0mg"},{"bike_id":"d294994d-101f-4d81-9c64-886d1cf4ff5e","system_id":"levelo_inurba_marseille","lat":43.26928,"lon":5.38913,"is_reserved":false,"is_disabled":false,"rental_uris":{"android":"levelo://app?vid=d294994d-101f-4d81-9c64-886d1cf4ff5e","ios":"levelo://app?vid=d294994d-101f-4d81-9c64-886d1cf4ff5e"},"vehicle_type_id":"4","last_reported":1736756020,"current_range_meters":29600,"station_id":"ce4bhhh2rcd13ifvqfl0","pricing_plan_id":"cebpf4jnsgd1na2vs0mg"},{"bike_id":"2e40527e-e233-4d12-a507-a2dbff87b49c","system_id":"levelo_inurba_marseille","lat":43.29306,"lon":5.37434,"is_reserved":false,"is_disabled":true,"rental_uris":{"android":"levelo://app?vid=2e40527e-e233-4d12-a507-a2dbff87b49c","ios":"levelo://app?vid=2e40527e-e233-4d12-a507-a2dbff87b49c"},"vehicle_type_id":"4","last_reported":1736756020,"current_range_meters":34800,"station_id":"ce4bgi12rcd13ifvqb70","pricing_plan_id":"cebpf4jnsgd1na2vs0mg"},{"bike_id":"377730c6-0336-4c78-9c46-cdee41ff19a9","system_id":"levelo_inurba_marseille","lat":43.27939,"lon":5.41087,"is_reserved":false,"is_disabled":true,"rental_uris":{"android":"levelo://app?vid=377730c6-0336-4c78-9c46-cdee41ff19a9","ios":"levelo://app?vid=377730c6-0336-4c78-9c46-cdee41ff19a9"},"vehicle_type_id":"4","last_reported":1736756020,"current_range_meters":0,"station_id":"ce4bhnp2rcd13ifvqh0g","pricing_plan_id":"cebpf4jnsgd1na2vs0mg"},{"bike_id":"e769f2fc-ab0c-4669-90da-e1ea8b26d705","system_id":"levelo_inurba_marseille","lat":43.304189,"lon":5.412846,"is_reserved":false,"is_disabled":false,"rental_uris":{"android":"levelo://app?vid=e769f2fc-ab0c-4669-90da-e1ea8b26d705","ios":"levelo://app?vid=e769f2fc-ab0c-4669-90da-e1ea8b26d705"},"vehicle_type_id":"4","last_reported":1736756020,"current_range_meters":29600,"station_id":"ce4bhop2rcd13ifvqh8g","pricing_plan_id":"cebpf4jnsgd1na2vs0mg"},{"bike_id":"4cd94143-ebf9-49c6-b61f-70ed30e9b0fb","system_id":"levelo_inurba_marseille","lat":43.27606,"lon":5.36107,"is_reserved":false,"is_disabled":true,"rental_uris":{"android":"levelo://app?vid=4cd94143-ebf9-49c6-b61f-70ed30e9b0fb","ios":"levelo://app?vid=4cd94143-ebf9-49c6-b61f-70ed30e9b0fb"},"vehicle_type_id":"4","last_reported":1736756020,"current_range_meters":38800,"station_id":"ce4bgj92rcd13ifvqbe0","pricing_plan_id":"cebpf4jnsgd1na2vs0mg"},{"bike_id":"8162a670-ec4d-475a-a52e-bed8b9a8b770","system_id":"levelo_inurba_marseille","lat":43.25931,"lon":5.40911,"is_reserved":false,"is_disabled":false,"rental_uris":{"android":"levelo://app?vid=8162a670-ec4d-475a-a52e-bed8b9a8b770","ios":"levelo://app?vid=8162a670-ec4d-475a-a52e-bed8b9a8b770"},"vehicle_type_id":"4","last_reported":1736756020,"current_range_meters":20000,"station_id":"ce4bhm92rcd13ifvqglg","pricing_plan_id":"cebpf4jnsgd1na2vs0mg"},{"bike_id":"266859f2-18fe-482a-8c9f-5bdad982c716","system_id":"levelo_inurba_marseille","lat":43.27948,"lon":5.41099,"is_reserved":false,"is_disabled":true,"rental_uris":{"android":"levelo://app?vid=266859f2-18fe-482a-8c9f-5bdad982c716","ios":"levelo://app?vid=266859f2-18fe-482a-8c9f-5bdad982c716"},"vehicle_type_id":"4","last_reported":1736756020,"current_range_meters":0,"station_id":"ce4bhnp2rcd13ifvqh0g","pricing_plan_id":"cebpf4jnsgd1na2vs0mg"},{"bike_id":"68320ad5-ea1a-49f7-94e1-edb22ad8fe71","system_id":"levelo_inurba_marseille","lat":43.29602,"lon":5.381,"is_reserved":false,"is_disabled":false,"rental_uris":{"android":"levelo://app?vid=68320ad5-ea1a-49f7-94e1-edb22ad8fe71","ios":"levelo://app?vid=68320ad5-ea1a-49f7-94e1-edb22ad8fe71"},"vehicle_type_id":"4","last_reported":1736756020,"current_range_meters":34000,"station_id":"ce4bgl12rcd13ifvqbo0","pricing_plan_id":"cebpf4jnsgd1na2vs0mg"},{"bike_id":"345db4b4-3f28-4b06-9b41-ef253ecc56e2","system_id":"levelo_inurba_marseille","lat":43.29415,"lon":5.38627,"is_reserved":false,"is_disabled":true,"rental_uris":{"android":"levelo://app?vid=345db4b4-3f28-4b06-9b41-ef253ecc56e2","ios":"levelo://app?vid=345db4b4-3f28-4b06-9b41-ef253ecc56e2"},"vehicle_type_id":"4","last_reported":1736756020,"current_range_meters":34800,"station_id":"ce4bh2h2rcd13ifvqdh0","pricing_plan_id":"cebpf4jnsgd1na2vs0mg"},{"bike_id":"60a8af81-97f0-4936-81a1-ac96e335a75e","system_id":"levelo_inurba_marseille","lat":43.31297,"lon":5.36839,"is_reserved":false,"is_disabled":false,"rental_uris":{"android":"levelo://app?vid=60a8af81-97f0-4936-81a1-ac96e335a75e","ios":"levelo://app?vid=60a8af81-97f0-4936-81a1-ac96e335a75e"},"vehicle_type_id":"4","last_reported":1736756020,"current_range_meters":39200,"station_id":"ce4bgl92rcd13ifvqbq0","pricing_plan_id":"cebpf4jnsgd1na2vs0mg"},{"bike_id":"36b63943-2d1a-4e88-bcde-671d4008e2a1","system_id":"levelo_inurba_marseille","lat":43.26776,"lon":5.3942,"is_reserved":false,"is_disabled":false,"rental_uris":{"android":"levelo://app?vid=36b63943-2d1a-4e88-bcde-671d4008e2a1","ios":"levelo://app?vid=36b63943-2d1a-4e88-bcde-671d4008e2a1"},"vehicle_type_id":"4","last_reported":1736756020,"current_range_meters":34800,"station_id":"ce4bhh12rcd13ifvqfg0","pricing_plan_id":"cebpf4jnsgd1na2vs0mg"},{"bike_id":"3dfc9d23-78a1-455b-9ba4-befa062e6f1b","system_id":"levelo_inurba_marseille","lat":43.29045,"lon":5.39958,"is_reserved":false,"is_disabled":false,"rental_uris":{"android":"levelo://app?vid=3dfc9d23-78a1-455b-9ba4-befa062e6f1b","ios":"levelo://app?vid=3dfc9d23-78a1-455b-9ba4-befa062e6f1b"},"vehicle_type_id":"4","last_reported":1736756020,"current_range_meters":28800,"station_id":"ce4bh392rcd13ifvqdm0","pricing_plan_id":"cebpf4jnsgd1na2vs0mg"},{"bike_id":"3f6a347d-6df8-499a-a5ab-b07e87a8c90e","system_id":"levelo_inurba_marseille","lat":43.30546,"lon":5.36703,"is_reserved":false,"is_disabled":false,"rental_uris":{"android":"levelo://app?vid=3f6a347d-6df8-499a-a5ab-b07e87a8c90e","ios":"levelo://app?vid=3f6a347d-6df8-499a-a5ab-b07e87a8c90e"},"vehicle_type_id":"4","last_reported":1736756020,"current_range_meters":16400,"station_id":"ce4bgrp2rcd13ifvqc9g","pricing_plan_id":"cebpf4jnsgd1na2vs0mg"},{"bike_id":"99ba6ecc-6018-46b4-b3ce-cf8f3dce3702","system_id":"levelo_inurba_marseille","lat":43.29527,"lon":5.37495,"is_reserved":false,"is_disabled":false,"rental_uris":{"android":"levelo://app?vid=99ba6ecc-6018-46b4-b3ce-cf8f3dce3702","ios":"levelo://app?vid=99ba6ecc-6018-46b4-b3ce-cf8f3dce3702"},"vehicle_type_id":"4","last_reported":1736756020,"current_range_meters":27600,"station_id":"ce4bgkp2rcd13ifvqbmg","pricing_plan_id":"cebpf4jnsgd1na2vs0mg"},{"bike_id":"b31c05a9-6487-4217-80a6-25821a78c060","system_id":"levelo_inurba_marseille","lat":43.23193,"lon":5.3555,"is_reserved":false,"is_disabled":false,"rental_uris":{"android":"levelo://app?vid=b31c05a9-6487-4217-80a6-25821a78c060","ios":"levelo://app?vid=b31c05a9-6487-4217-80a6-25821a78c060"},"vehicle_type_id":"4","last_reported":1736756020,"current_range_meters":35600,"station_id":"ce4bhu92rcd13ifvqi70","pricing_plan_id":"cebpf4jnsgd1na2vs0mg"},{"bike_id":"f23647a8-ac32-4e08-be8d-dff2e243f4ac","system_id":"levelo_inurba_marseille","lat":43.29519,"lon":5.38906,"is_reserved":false,"is_disabled":true,"rental_uris":{"android":"levelo://app?vid=f23647a8-ac32-4e08-be8d-dff2e243f4ac","ios":"levelo://app?vid=f23647a8-ac32-4e08-be8d-dff2e243f4ac"},"vehicle_type_id":"4","last_reported":1736756020,"current_range_meters":0,"station_id":"","pricing_plan_id":"cebpf4jnsgd1na2vs0mg"},{"bike_id":"ff16af8c-b0e0-401b-8bef-a6cfe21b0884","system_id":"levelo_inurba_marseille","lat":43.30636,"lon":5.40088,"is_reserved":false,"is_disabled":false,"rental_uris":{"android":"levelo://app?vid=ff16af8c-b0e0-401b-8bef-a6cfe21b0884","ios":"levelo://app?vid=ff16af8c-b0e0-401b-8bef-a6cfe21b0884"},"vehicle_type_id":"4","last_reported":1736756020,"current_range_meters":18800,"station_id":"ce4bh112rcd13ifvqda0","pricing_plan_id":"cebpf4jnsgd1na2vs0mg"},{"bike_id":"f92eccaa-b498-4971-8e79-c49742bfb4e0","system_id":"levelo_inurba_marseille","lat":43.26193,"lon":5.37939,"is_reserved":false,"is_disabled":false,"rental_uris":{"android":"levelo://app?vid=f92eccaa-b498-4971-8e79-c49742bfb4e0","ios":"levelo://app?vid=f92eccaa-b498-4971-8e79-c49742bfb4e0"},"vehicle_type_id":"4","last_reported":1736756020,"current_range_meters":8400,"station_id":"ce4bhjp2rcd13ifvqg90","pricing_plan_id":"cebpf4jnsgd1na2vs0mg"},{"bike_id":"e78672c3-8038-4e42-87a9-22159ccd2eb1","system_id":"levelo_inurba_marseille","lat":43.30283,"lon":5.37715,"is_reserved":false,"is_disabled":false,"rental_uris":{"android":"levelo://app?vid=e78672c3-8038-4e42-87a9-22159ccd2eb1","ios":"levelo://app?vid=e78672c3-8038-4e42-87a9-22159ccd2eb1"},"vehicle_type_id":"4","last_reported":1736756020,"current_range_meters":32400,"station_id":"ce4bguh2rcd13ifvqcj0","pricing_plan_id":"cebpf4jnsgd1na2vs0mg"},{"bike_id":"8725b872-6622-449f-8a45-09bc0e12997c","system_id":"levelo_inurba_marseille","lat":43.29107,"lon":5.35606,"is_reserved":false,"is_disabled":false,"rental_uris":{"android":"levelo://app?vid=8725b872-6622-449f-8a45-09bc0e12997c","ios":"levelo://app?vid=8725b872-6622-449f-8a45-09bc0e12997c"},"vehicle_type_id":"4","last_reported":1736756020,"current_range_meters":28800,"station_id":"","pricing_plan_id":"cebpf4jnsgd1na2vs0mg"},{"bike_id":"00046a4b-2768-432b-adb4-66738feaf613","system_id":"levelo_inurba_marseille","lat":43.24981,"lon":5.3892,"is_reserved":false,"is_disabled":false,"rental_uris":{"android":"levelo://app?vid=00046a4b-2768-432b-adb4-66738feaf613","ios":"levelo://app?vid=00046a4b-2768-432b-adb4-66738feaf613"},