{"last_updated":1707944808,"ttl":30,"version":"2.2","data":{"bikes":[{"bike_id":"14c68aa8-5e6b-40c4-9579-cd909407f0d4","system_id":"levelo_inurba_marseille","lat":43.312239,"lon":5.368562,"is_reserved":false,"is_disabled":false,"rental_uris":{"android":"levelo://app?vid=14c68aa8-5e6b-40c4-9579-cd909407f0d4","ios":"levelo://app?vid=14c68aa8-5e6b-40c4-9579-cd909407f0d4"},"vehicle_type_id":"4","last_reported":1707944808,"current_range_meters":0,"station_id":"ce4bgl92rcd13ifvqbq0","pricing_plan_id":"cebpf4jnsgd1na2vs0mg"},{"bike_id":"53855119-d85f-49d4-bd3c-96eb6816f20d","system_id":"levelo_inurba_marseille","lat":43.312239,"lon":5.368562,"is_reserved":false,"is_disabled":false,"rental_uris":{"android":"levelo://app?vid=53855119-d85f-49d4-bd3c-96eb6816f20d","ios":"levelo://app?vid=53855119-d85f-49d4-bd3c-96eb6816f20d"},"vehicle_type_id":"4","last_reported":1707944808,"current_range_meters":28400,"station_id":"ce4bgl92rcd13ifvqbq0","pricing_plan_id":"cebpf4jnsgd1na2vs0mg"},{"bike_id":"ed352ace-f826-4534-8557-525abc3081ef","system_id":"levelo_inurba_marseille","lat":43.314811,"lon":5.373103,"is_reserved":false,"is_disabled":false,"rental_uris":{"android":"levelo://app?vid=ed352ace-f826-4534-8557-525abc3081ef","ios":"levelo://app?vid=ed352ace-f826-4534-8557-525abc3081ef"},"vehicle_type_id":"4","last_reported":1707944808,"current_range_meters":16800,"station_id":"ce4bgt12rcd13ifvqcd0","pricing_plan_id":"cebpf4jnsgd1na2vs0mg"},{"bike_id":"f8925b1c-7274-4e16-87ab-bcba7b4a348e","system_id":"levelo_inurba_marseille","lat":43.314811,"lon":5.373103,"is_reserved":false,"is_disabled":false,"rental_uris":{"android":"levelo://app?vid=f8925b1c-7274-4e16-87ab-bcba7b4a348e","ios":"levelo://app?vid=f8925b1c-7274-4e16-87ab-bcba7b4a348e"},"vehicle_type_id":"4","last_reported":1707944808,"current_range_meters":21200,"station_id":"ce4bgt12rcd13ifvqcd0","pricing_plan_id":"cebpf4jnsgd1na2vs0mg"},{"bike_id":"2051305e-054f-499e-ba90-bd70c46be745","system_id":"levelo_inurba_marseille","lat":43.314811,"lon":5.373103,"is_reserved":false,"is_disabled":false,"rental_uris":{"android":"levelo://app?vid=2051305e-054f-499e-ba90-bd70c46be745","ios":"levelo://app?vid=2051305e-054f-499e-ba90-bd70c46be745"},"vehicle_type_id":"4","last_reported":1707944808,"current_range_meters":400,"station_id":"ce4bgt12rcd13ifvqcd0","pricing_plan_id":"cebpf4jnsgd1na2vs0mg"},{"bike_id":"354aa4a9-1953-4401-8f8a-b0cd8c86edcc","system_id":"levelo_inurba_marseille","lat":43.314811,"lon":5.373103,"is_reserved":false,"is_disabled":false,"rental_uris":{"android":"levelo://app?vid=354aa4a9-1953-4401-8f8a-b0cd8c86edcc","ios":"levelo://app?vid=354aa4a9-1953-4401-8f8a-b0cd8c86edcc"},"vehicle_type_id":"4","last_reported":1707944808,"current_range_meters":6000,"station_id":"ce4bgt12rcd13ifvqcd0","pricing_plan_id":"cebpf4jnsgd1na2vs0mg"},{"bike_id":"c3ccd1ee-82f6-4881-8a25-54efed3a4122","system_id":"levelo_inurba_marseille","lat":43.314811,"lon":5.373103,"is_reserved":false,"is_disabled":false,"rental_uris":{"android":"levelo://app?vid=c3ccd1ee-82f6-4881-8a25-54efed3a4122","ios":"levelo://app?vid=c3ccd1ee-82f6-4881-8a25-54efed3a4122"},"vehicle_type_id":"4","last_reported":1707944808,"current_range_meters":25600,"station_id":"ce4bgt12rcd13ifvqcd0","pricing_plan_id":"cebpf4jnsgd1na2vs0mg"},{"bike_id":"a260498a-a444-4da3-9ae0-187943a25c37","system_id":"levelo_inurba_marseille","lat":43.310878,"lon":5.374962,"is_reserved":false,"is_disabled":false,"rental_uris":{"android":"levelo://app?vid=a260498a-a444-4da3-9ae0-187943a25c37","ios":"levelo://app?vid=a260498a-a444-4da3-9ae0-187943a25c37"},"vehicle_type_id":"4","last_reported":1707944808,"current_range_meters":2800,"station_id":"","pricing_plan_id":"cebpf4jnsgd1na2vs0mg"},{"bike_id":"513b143f-82a8-4f7b-be94-ecf7f8d90258","system_id":"levelo_inurba_marseille","lat":43.305712,"lon":5.365641,"is_reserved":false,"is_disabled":false,"rental_uris":{"android":"levelo://app?vid=513b143f-82a8-4f7b-be94-ecf7f8d90258","ios":"levelo://app?vid=513b143f-82a8-4f7b-be94-ecf7f8d90258"},"vehicle_type_id":"4","last_reported":1707944808,"current_range_meters":20800,"station_id":"ce4bgs12rcd13ifvqcag","pricing_plan_id":"cebpf4jnsgd1na2vs0mg"},{"bike_id":"52f2117d-d96b-4854-b4a1-4c3b6e09bcc2","system_id":"levelo_inurba_marseille","lat":43.305714,"lon":5.365633,"is_reserved":false,"is_disabled":false,"rental_uris":{"android":"levelo://app?vid=52f2117d-d96b-4854-b4a1-4c3b6e09bcc2","ios":"levelo://app?vid=52f2117d-d96b-4854-b4a1-4c3b6e09bcc2"},"vehicle_type_id":"4","last_reported":1707944808,"current_range_meters":27200,"station_id":"ce4bgs12rcd13ifvqcag","pricing_plan_id":"cebpf4jnsgd1na2vs0mg"},{"bike_id":"a59c820d-67b7-45ed-af60-b35727eb4c26","system_id":"levelo_inurba_marseille","lat":43.305368,"lon":5.367343,"is_reserved":false,"is_disabled":false,"rental_uris":{"android":"levelo://app?vid=a59c820d-67b7-45ed-af60-b35727eb4c26","ios":"levelo://app?vid=a59c820d-67b7-45ed-af60-b35727eb4c26"},"vehicle_type_id":"4","last_reported":1707944808,"current_range_meters":4800,"station_id":"ce4bgrp2rcd13ifvqc9g","pricing_plan_id":"cebpf4jnsgd1na2vs0mg"},{"bike_id":"eebc31bd-12f8-4bae-8289-0d8268f2a96a","system_id":"levelo_inurba_marseille","lat":43.311125,"lon":5.377624,"is_reserved":false,"is_disabled":false,"rental_uris":{"android":"levelo://app?vid=eebc31bd-12f8-4bae-8289-0d8268f2a96a","ios":"levelo://app?vid=eebc31bd-12f8-4bae-8289-0d8268f2a96a"},"vehicle_type_id":"4","last_reported":1707944808,"current_range_meters":9600,"station_id":"ce4bgt92rcd13ifvqcg0","pricing_plan_id":"cebpf4jnsgd1na2vs0mg"},{"bike_id":"c10ad5cd-853e-4e2a-8810-769567852f12","system_id":"levelo_inurba_marseille","lat":43.311125,"lon":5.377624,"is_reserved":false,"is_disabled":false,"rental_uris":{"android":"levelo://app?vid=c10ad5cd-853e-4e2a-8810-769567852f12","ios":"levelo://app?vid=c10ad5cd-853e-4e2a-8810-769567852f12"},"vehicle_type_id":"4","last_reported":1707944808,"current_range_meters":10000,"station_id":"ce4bgt92rcd13ifvqcg0","pricing_plan_id":"cebpf4jnsgd1na2vs0mg"},{"bike_id":"70ec8b05-622a-4a0c-b5e8-9793b0849ec8","system_id":"levelo_inurba_marseille","lat":43.31116,"lon":5.37766,"is_reserved":false,"is_disabled":false,"rental_uris":{"android":"levelo://app?vid=70ec8b05-622a-4a0c-b5e8-9793b0849ec8","ios":"levelo://app?vid=70ec8b05-622a-4a0c-b5e8-9793b0849ec8"},"vehicle_type_id":"4","last_reported":1707944808,"current_range_meters":4000,"station_id":"","pricing_plan_id":"cebpf4jnsgd1na2vs0mg"},{"bike_id":"b85de076-724a-456a-9af8-a5d9b49d04bd","system_id":"levelo_inurba_marseille","lat":43.307945,"lon":5.376487,"is_reserved":false,"is_disabled":false,"rental_uris":{"android":"levelo://app?vid=b85de076-724a-456a-9af8-a5d9b49d04bd","ios":"levelo://app?vid=b85de076-724a-456a-9af8-a5d9b49d04bd"},"vehicle_type_id":"4","last_reported":1707944808,"current_range_meters":25200,"station_id":"ce4bgv92rcd13ifvqcq0","pricing_plan_id":"cebpf4jnsgd1na2vs0mg"},{"bike_id":"28cfa7b0-8fdb-4e50-9331-a3e8d341858f","system_id":"levelo_inurba_marseille","lat":43.317075,"lon":5.377367,"is_reserved":false,"is_disabled":false,"rental_uris":{"android":"levelo://app?vid=28cfa7b0-8fdb-4e50-9331-a3e8d341858f","ios":"levelo://app?vid=28cfa7b0-8fdb-4e50-9331-a3e8d341858f"},"vehicle_type_id":"4","last_reported":1707944808,"current_range_meters":16000,"station_id":"ce4bgth2rcd13ifvqch0","pricing_plan_id":"cebpf4jnsgd1na2vs0mg"},{"bike_id":"e0ab11de-fc9c-4d4b-971a-3b2ba2a23340","system_id":"levelo_inurba_marseille","lat":43.317075,"lon":5.377367,"is_reserved":false,"is_disabled":false,"rental_uris":{"android":"levelo://app?vid=e0ab11de-fc9c-4d4b-971a-3b2ba2a23340","ios":"levelo://app?vid=e0ab11de-fc9c-4d4b-971a-3b2ba2a23340"},"vehicle_type_id":"4","last_reported":1707944808,"current_range_meters":25600,"station_id":"ce4bgth2rcd13ifvqch0","pricing_plan_id":"cebpf4jnsgd1na2vs0mg"},{"bike_id":"e8396d9b-01ad-42aa-ae6a-25e7361077f6","system_id":"levelo_inurba_marseille","lat":43.317075,"lon":5.377367,"is_reserved":false,"is_disabled":false,"rental_uris":{"android":"levelo://app?vid=e8396d9b-01ad-42aa-ae6a-25e7361077f6","ios":"levelo://app?vid=e8396d9b-01ad-42aa-ae6a-25e7361077f6"},"vehicle_type_id":"4","last_reported":1707944808,"current_range_meters":31600,"station_id":"ce4bgth2rcd13ifvqch0","pricing_plan_id":"cebpf4jnsgd1na2vs0mg"},{"bike_id":"b6d5e40f-0768-4dde-af2e-64c88f4a667d","system_id":"levelo_inurba_marseille","lat":43.303046,"lon":5.368981,"is_reserved":false,"is_disabled":false,"rental_uris":{"android":"levelo://app?vid=b6d5e40f-0768-4dde-af2e-64c88f4a667d","ios":"levelo://app?vid=b6d5e40f-0768-4dde-af2e-64c88f4a667d"},"vehicle_type_id":"4","last_reported":1707944808,"current_range_meters":23200,"station_id":"ce4bgqh2rcd13ifvqc5g","pricing_plan_id":"cebpf4jnsgd1na2vs0mg"},{"bike_id":"c4e8f8a8-7b17-47f4-9155-81481109dceb","system_id":"levelo_inurba_marseille","lat":43.315293,"lon":5.380349,"is_reserved":false,"is_disabled":false,"rental_uris":{"android":"levelo://app?vid=c4e8f8a8-7b17-47f4-9155-81481109dceb","ios":"levelo://app?vid=c4e8f8a8-7b17-47f4-9155-81481109dceb"},"vehicle_type_id":"4","last_reported":1707944808,"current_range_meters":16400,"station_id":"ce4bhsp2rcd13ifvqi50","pricing_plan_id":"cebpf4jnsgd1na2vs0mg"},{"bike_id":"c2e05856-d563-470c-a0cb-3f7b314f9a68","system_id":"levelo_inurba_marseille","lat":43.315293,"lon":5.380349,"is_reserved":false,"is_disabled":false,"rental_uris":{"android":"levelo://app?vid=c2e05856-d563-470c-a0cb-3f7b314f9a68","ios":"levelo://app?vid=c2e05856-d563-470c-a0cb-3f7b314f9a68"},"vehicle_type_id":"4","last_reported":1707944808,"current_range_meters":10800,"station_id":"ce4bhsp2rcd13ifvqi50","pricing_plan_id":"cebpf4jnsgd1na2vs0mg"},{"bike_id":"bf5622e7-d28a-40e0-ac04-7b528303c4ec","system_id":"levelo_inurba_marseille","lat":43.308012,"lon":5.381511,"is_reserved":false,"is_disabled":false,"rental_uris":{"android":"levelo://app?vid=bf5622e7-d28a-40e0-ac04-7b528303c4ec","ios":"levelo://app?vid=bf5622e7-d28a-40e0-ac04-7b528303c4ec"},"vehicle_type_id":"4","last_reported":1707944808,"current_range_meters":1200,"station_id":"ce4bgt12rcd13ifvqce0","pricing_plan_id":"cebpf4jnsgd1na2vs0mg"},{"bike_id":"f0131c31-1cf9-425e-849b-21b666434967","system_id":"levelo_inurba_marseille","lat":43.308012,"lon":5.381511,"is_reserved":false,"is_disabled":false,"rental_uris":{"android":"levelo://app?vid=f0131c31-1cf9-425e-849b-21b666434967","ios":"levelo://app?vid=f0131c31-1cf9-425e-849b-21b666434967"},"vehicle_type_id":"4","last_reported":1707944808,"current_range_meters":0,"station_id":"ce4bgt12rcd13ifvqce0","pricing_plan_id":"cebpf4jnsgd1na2vs0mg"},{"bike_id":"0f5408f3-bd51-4db5-87e7-add30a701557","system_id":"levelo_inurba_marseille","lat":43.308012,"lon":5.381511,"is_reserved":false,"is_disabled":false,"rental_uris":{"android":"levelo://app?vid=0f5408f3-bd51-4db5-87e7-add30a701557","ios":"levelo://app?vid=0f5408f3-bd51-4db5-87e7-add30a701557"},"vehicle_type_id":"4","last_reported":1707944808,"current_range_meters":3600,"station_id":"ce4bgt12rcd13ifvqce0","pricing_plan_id":"cebpf4jnsgd1na2vs0mg"},{"bike_id":"91db1a80-3d79-4dbe-82cc-87baaeb828ac","system_id":"levelo_inurba_marseille","lat":43.3046,"lon":5.37896,"is_reserved":false,"is_disabled":false,"rental_uris":{"android":"levelo://app?vid=91db1a80-3d79-4dbe-82cc-87baaeb828ac","ios":"levelo://app?vid=91db1a80-3d79-4dbe-82cc-87baaeb828ac"},"vehicle_type_id":"4","last_reported":1707944808,"current_range_meters":5600,"station_id":"ce4bgup2rcd13ifvqcn0","pricing_plan_id":"cebpf4jnsgd1na2vs0mg"},{"bike_id":"eaf76b94-1cb5-4923-acc9-3ff87ec1a8c2","system_id":"levelo_inurba_marseille","lat":43.324771,"lon":5.36557,"is_reserved":false,"is_disabled":false,"rental_uris":{"android":"levelo://app?vid=eaf76b94-1cb5-4923-acc9-3ff87ec1a8c2","ios":"levelo://app?vid=eaf76b94-1cb5-4923-acc9-3ff87ec1a8c2"},"vehicle_type_id":"4","last_reported":1707944808,"current_range_meters":9200,"station_id":"ce4bhs12rcd13ifvqhvg","pricing_plan_id":"cebpf4jnsgd1na2vs0mg"},{"bike_id":"ce616d52-5fda-4dfc-9562-908adeb662ff","system_id":"levelo_inurba_marseille","lat":43.324771,"lon":5.36557,"is_reserved":false,"is_disabled":false,"rental_uris":{"android":"levelo://app?vid=ce616d52-5fda-4dfc-9562-908adeb662ff","ios":"levelo://app?vid=ce616d52-5fda-4dfc-9562-908adeb662ff"},"vehicle_type_id":"4","last_reported":1707944808,"current_range_meters":6400,"station_id":"ce4bhs12rcd13ifvqhvg","pricing_plan_id":"cebpf4jnsgd1na2vs0mg"},{"bike_id":"1e108d17-6a7c-4829-9182-d67ce39c0879","system_id":"levelo_inurba_marseille","lat":43.324771,"lon":5.36557,"is_reserved":false,"is_disabled":false,"rental_uris":{"android":"levelo://app?vid=1e108d17-6a7c-4829-9182-d67ce39c0879","ios":"levelo://app?vid=1e108d17-6a7c-4829-9182-d67ce39c0879"},"vehicle_type_id":"4","last_reported":1707944808,"current_range_meters":20000,"station_id":"ce4bhs12rcd13ifvqhvg","pricing_plan_id":"cebpf4jnsgd1na2vs0mg"},{"bike_id":"1f6e23da-7d91-4c57-ba22-e9ce507f2ace","system_id":"levelo_inurba_marseille","lat":43.310804,"lon":5.38359,"is_reserved":false,"is_disabled":false,"rental_uris":{"android":"levelo://app?vid=1f6e23da-7d91-4c57-ba22-e9ce507f2ace","ios":"levelo://app?vid=1f6e23da-7d91-4c57-ba22-e9ce507f2ace"},"vehicle_type_id":"4","last_reported":1707944808,"current_range_meters":21200,"station_id":"ce4bgv92rcd13ifvqcr0","pricing_plan_id":"cebpf4jnsgd1na2vs0mg"},{"bike_id":"71b4efb8-7aeb-49c5-9a62-83440eb853a7","system_id":"levelo_inurba_marseille","lat":43.310653,"lon":5.383547,"is_reserved":false,"is_disabled":false,"rental_uris":{"android":"levelo://app?vid=71b4efb8-7aeb-49c5-9a62-83440eb853a7","ios":"levelo://app?vid=71b4efb8-7aeb-49c5-9a62-83440eb853a7"},"vehicle_type_id":"4","last_reported":1707944808,"current_range_meters":0,"station_id":"ce4bgv92rcd13ifvqcr0","pricing_plan_id":"cebpf4jnsgd1na2vs0mg"},{"bike_id":"003670cd-8418-4b70-9feb-40a490ec6db9","system_id":"levelo_inurba_marseille","lat":43.310804,"lon":5.38359,"is_reserved":false,"is_disabled":false,"rental_uris":{"android":"levelo://app?vid=003670cd-8418-4b70-9feb-40a490ec6db9","ios":"levelo://app?vid=003670cd-8418-4b70-9feb-40a490ec6db9"},"vehicle_type_id":"4","last_reported":1707944808,"current_range_meters":12800,"station_id":"ce4bgv92rcd13ifvqcr0","pricing_plan_id":"cebpf4jnsgd1na2vs0mg"},{"bike_id":"b91a38e7-759b-436f-bdf9-46b06d86f931","system_id":"levelo_inurba_marseille","lat":43.31069,"lon":5.38357,"is_reserved":false,"is_disabled":false,"rental_uris":{"android":"levelo://app?vid=b91a38e7-759b-436f-bdf9-46b06d86f931","ios":"levelo://app?vid=b91a38e7-759b-436f-bdf9-46b06d86f931"},"vehicle_type_id":"4","last_reported":1707944808,"current_range_meters":14800,"station_id":"ce4bgv92rcd13ifvqcr0","pricing_plan_id":"cebpf4jnsgd1na2vs0mg"},{"bike_id":"7a43cb56-e57f-4e21-b83d-fbe30286940b","system_id":"levelo_inurba_marseille","lat":43.31078,"lon":5.38362,"is_reserved":false,"is_disabled":false,"rental_uris":{"android":"levelo://app?vid=7a43cb56-e57f-4e21-b83d-fbe30286940b","ios":"levelo://app?vid=7a43cb56-e57f-4e21-b83d-fbe30286940b"},"vehicle_type_id":"4","last_reported":1707944808,"current_range_meters":0,"station_id":"ce4bgv92rcd13ifvqcr0","pricing_plan_id":"cebpf4jnsgd1na2vs0mg"},{"bike_id":"0ed9ab89-2aa2-40f2-a2c6-64e78b41d9e0","system_id":"levelo_inurba_marseille","lat":43.30286,"lon":5.37704,"is_reserved":false,"is_disabled":false,"rental_uris":{"android":"levelo://app?vid=0ed9ab89-2aa2-40f2-a2c6-64e78b41d9e0","ios":"levelo://app?vid=0ed9ab89-2aa2-40f2-a2c6-64e78b41d9e0"},"vehicle_type_id":"4","last_reported":1707944808,"current_range_meters":19200,"station_id":"ce4bguh2rcd13ifvqcj0","pricing_plan_id":"cebpf4jnsgd1na2vs0mg"},{"bike_id":"03bd98fa-4eb3-4ef7-95d1-f7c83ba6e140","system_id":"levelo_inurba_marseille","lat":43.31067,"lon":5.38362,"is_reserved":false,"is_disabled":false,"rental_uris":{"android":"levelo://app?vid=03bd98fa-4eb3-4ef7-95d1-f7c83ba6e140","ios":"levelo://app?vid=03bd98fa-4eb3-4ef7-95d1-f7c83ba6e140"},"vehicle_type_id":"4","last_reported":1707944808,"current_range_meters":16000,"station_id":"ce4bgv92rcd13ifvqcr0","pricing_plan_id":"cebpf4jnsgd1na2vs0mg"},{"bike_id":"5fe1d487-0671-4794-ab96-d4fad8e0c5b2","system_id":"levelo_inurba_marseille","lat":43.302818,"lon":5.377029,"is_reserved":false,"is_disabled":false,"rental_uris":{"android":"levelo://app?vid=5fe1d487-0671-4794-ab96-d4fad8e0c5b2","ios":"levelo://app?vid=5fe1d487-0671-4794-ab96-d4fad8e0c5b2"},"vehicle_type_id":"4","last_reported":1707944808,"current_range_meters":28800,"station_id":"ce4bguh2rcd13ifvqcj0","pricing_plan_id":"cebpf4jnsgd1na2vs0mg"},{"bike_id":"12152ff0-26d0-44c8-98bd-fdfbcd54aab2","system_id":"levelo_inurba_marseille","lat":43.319935,"lon":5.381699,"is_reserved":false,"is_disabled":false,"rental_uris":{"android":"levelo://app?vid=12152ff0-26d0-44c8-98bd-fdfbcd54aab2","ios":"levelo://app?vid=12152ff0-26d0-44c8-98bd-fdfbcd54aab2"},"vehicle_type_id":"4","last_reported":1707944808,"current_range_meters":10800,"station_id":"ce4bhr12rcd13ifvqhpg","pricing_plan_id":"cebpf4jnsgd1na2vs0mg"},{"bike_id":"d7e1e4c7-d866-4ba1-992a-68bdf64f7e72","system_id":"levelo_inurba_marseille","lat":43.319935,"lon":5.381699,"is_reserved":false,"is_disabled":false,"rental_uris":{"android":"levelo://app?vid=d7e1e4c7-d866-4ba1-992a-68bdf64f7e72","ios":"levelo://app?vid=d7e1e4c7-d866-4ba1-992a-68bdf64f7e72"},"vehicle_type_id":"4","last_reported":1707944808,"current_range_meters":3200,"station_id":"ce4bhr12rcd13ifvqhpg","pricing_plan_id":"cebpf4jnsgd1na2vs0mg"},{"bike_id":"4f9328d1-96d2-4c4d-b400-a2bcd35e43b4","system_id":"levelo_inurba_marseille","lat":43.319935,"lon":5.381699,"is_reserved":false,"is_disabled":false,"rental_uris":{"android":"levelo://app?vid=4f9328d1-96d2-4c4d-b400-a2bcd35e43b4","ios":"levelo://app?vid=4f9328d1-96d2-4c4d-b400-a2bcd35e43b4"},"vehicle_type_id":"4","last_reported":1707944808,"current_range_meters":29600,"station_id":"ce4bhr12rcd13ifvqhpg","pricing_plan_id":"cebpf4jnsgd1na2vs0mg"},{"bike_id":"9d586241-c832-456e-b8c2-42caa11d3c95","system_id":"levelo_inurba_marseille","lat":43.319935,"lon":5.381699,"is_reserved":false,"is_disabled":false,"rental_uris":{"android":"levelo://app?vid=9d586241-c832-456e-b8c2-42caa11d3c95","ios":"levelo://app?vid=9d586241-c832-456e-b8c2-42caa11d3c95"},"vehicle_type_id":"4","last_reported":1707944808,"current_range_meters":14800,"station_id":"ce4bhr12rcd13ifvqhpg","pricing_plan_id":"cebpf4jnsgd1na2vs0mg"},{"bike_id":"32a6a968-1bfb-4aba-9eae-9ffe66342d16","system_id":"levelo_inurba_marseille","lat":43.313571,"lon":5.384829,"is_reserved":false,"is_disabled":false,"rental_uris":{"android":"levelo://app?vid=32a6a968-1bfb-4aba-9eae-9ffe66342d16","ios":"levelo://app?vid=32a6a968-1bfb-4aba-9eae-9ffe66342d16"},"vehicle_type_id":"4","last_reported":1707944808,"current_range_meters":14800,"station_id":"ce4bgt92rcd13ifvqcf0","pricing_plan_id":"cebpf4jnsgd1na2vs0mg"},{"bike_id":"4dbdcb69-73c3-4b88-94a1-74e1c6fda054","system_id":"levelo_inurba_marseille","lat":43.313571,"lon":5.384829,"is_reserved":false,"is_disabled":false,"rental_uris":{"android":"levelo://app?vid=4dbdcb69-73c3-4b88-94a1-74e1c6fda054","ios":"levelo://app?vid=4dbdcb69-73c3-4b88-94a1-74e1c6fda054"},"vehicle_type_id":"4","last_reported":1707944808,"current_range_meters":14400,"station_id":"ce4bgt92rcd13ifvqcf0","pricing_plan_id":"cebpf4jnsgd1na2vs0mg"},{"bike_id":"2569cebb-72e8-4864-8961-b7ffae8f683e","system_id":"levelo_inurba_marseille","lat":43.313571,"lon":5.384829,"is_reserved":false,"is_disabled":false,"rental_uris":{"android":"levelo://app?vid=2569cebb-72e8-4864-8961-b7ffae8f683e","ios":"levelo://app?vid=2569cebb-72e8-4864-8961-b7ffae8f683e"},"vehicle_type_id":"4","last_reported":1707944808,"current_range_meters":27600,"station_id":"ce4bgt92rcd13ifvqcf0","pricing_plan_id":"cebpf4jnsgd1na2vs0mg"},{"bike_id":"6d50b8bc-6060-4e04-ab05-218f302d6c07","system_id":"levelo_inurba_marseille","lat":43.298433,"lon":5.362774,"is_reserved":false,"is_disabled":false,"rental_uris":{"android":"levelo://app?vid=6d50b8bc-6060-4e04-ab05-218f302d6c07","ios":"levelo://app?vid=6d50b8bc-6060-4e04-ab05-218f302d6c07"},"vehicle_type_id":"4","last_reported":1707944808,"current_range_meters":6800,"station_id":"ce4bgpp2rcd13ifvqc3g","pricing_plan_id":"cebpf4jnsgd1na2vs0mg"},{"bike_id":"89fada2f-e49f-48ec-aca4-c0177cf22f6c","system_id":"levelo_inurba_marseille","lat":43.298433,"lon":5.362774,"is_reserved":false,"is_disabled":false,"rental_uris":{"android":"levelo://app?vid=89fada2f-e49f-48ec-aca4-c0177cf22f6c","ios":"levelo://app?vid=89fada2f-e49f-48ec-aca4-c0177cf22f6c"},"vehicle_type_id":"4","last_reported":1707944808,"current_range_meters":29200,"station_id":"ce4bgpp2rcd13ifvqc3g","pricing_plan_id":"cebpf4jnsgd1na2vs0mg"},{"bike_id":"8a2fb96f-6249-4d76-9673-6997566e6cdf","system_id":"levelo_inurba_marseille","lat":43.311722,"lon":5.387247,"is_reserved":false,"is_disabled":false,"rental_uris":{"android":"levelo://app?vid=8a2fb96f-6249-4d76-9673-6997566e6cdf","ios":"levelo://app?vid=8a2fb96f-6249-4d76-9673-6997566e6cdf"},"vehicle_type_id":"4","last_reported":1707944808,"current_range_meters":16000,"station_id":"ce4bgv12rcd13ifvqcp0","pricing_plan_id":"cebpf4jnsgd1na2vs0mg"},{"bike_id":"01093a38-282a-4ecc-8f75-4573be9f2a70","system_id":"levelo_inurba_marseille","lat":43.311722,"lon":5.387247,"is_reserved":false,"is_disabled":false,"rental_uris":{"android":"levelo://app?vid=01093a38-282a-4ecc-8f75-4573be9f2a70","ios":"levelo://app?vid=01093a38-282a-4ecc-8f75-4573be9f2a70"},"vehicle_type_id":"4","last_reported":1707944808,"current_range_meters":16000,"station_id":"ce4bgv12rcd13ifvqcp0","pricing_plan_id":"cebpf4jnsgd1na2vs0mg"},{"bike_id":"875887cf-f4e3-4272-b63d-dfe0614966e4","system_id":"levelo_inurba_marseille","lat":43.311722,"lon":5.387247,"is_reserved":false,"is_disabled":false,"rental_uris":{"android":"levelo://app?vid=875887cf-f4e3-4272-b63d-dfe0614966e4","ios":"levelo://app?vid=875887cf-f4e3-4272-b63d-dfe0614966e4"},"vehicle_type_id":"4","last_reported":1707944808,"current_range_meters":30400,"station_id":"ce4bgv12rcd13ifvqcp0","pricing_plan_id":"cebpf4jnsgd1na2vs0mg"},{"bike_id":"13c61391-1c5b-4078-8bcb-f10f94fe9080","system_id":"levelo_inurba_marseille","lat":43.311722,"lon":5.387247,"is_reserved":false,"is_disabled":false,"rental_uris":{"android":"levelo://app?vid=13c61391-1c5b-4078-8bcb-f10f94fe9080","ios":"levelo://app?vid=13c61391-1c5b-4078-8bcb-f10f94fe9080"},"vehicle_type_id":"4","last_reported":1707944808,"current_range_meters":26000,"station_id":"ce4bgv12rcd13ifvqcp0","pricing_plan_id":"cebpf4jnsgd1na2vs0mg"},{"bike_id":"b429aa63-6399-4b75-9d88-b269f4eb8786","system_id":"levelo_inurba_marseille","lat":43.311722,"lon":5.387247,"is_reserved":false,"is_disabled":false,"rental_uris":{"android":"levelo://app?vid=b429aa63-6399-4b75-9d88-b269f4eb8786","ios":"levelo://app?vid=b429aa63-6399-4b75-9d88-b269f4eb8786"},"vehicle_type_id":"4","last_reported":1707944808,"current_range_meters":27600,"station_id":"ce4bgv12rcd13ifvqcp0","pricing_plan_id":"cebpf4jnsgd1na2vs0mg"},{"bike_id":"1e2ed12b-5f17-4e8e-a940-18ecdcd86a6a","system_id":"levelo_inurba_marseille","lat":43.311722,"lon":5.387247,"is_reserved":false,"is_disabled":false,"rental_uris":{"android":"levelo://app?vid=1e2ed12b-5f17-4e8e-a940-18ecdcd86a6a","ios":"levelo://app?vid=1e2ed12b-5f17-4e8e-a940-18ecdcd86a6a"},"vehicle_type_id":"4","last_reported":1707944808,"current_range_meters":11600,"station_id":"ce4bgv12rcd13ifvqcp0","pricing_plan_id":"cebpf4jnsgd1na2vs0mg"},{"bike_id":"bb3d286b-5faa-41ad-8f48-a16aed87c142","system_id":"levelo_inurba_marseille","lat":43.311722,"lon":5.387247,"is_reserved":false,"is_disabled":false,"rental_uris":{"android":"levelo://app?vid=bb3d286b-5faa-41ad-8f48-a16aed87c142","ios":"levelo://app?vid=bb3d286b-5faa-41ad-8f48-a16aed87c142"},"vehicle_type_id":"4","last_reported":1707944808,"current_range_meters":28400,"station_id":"ce4bgv12rcd13ifvqcp0","pricing_plan_id":"cebpf4jnsgd1na2vs0mg"},{"bike_id":"d9c50b27-a357-4a0a-ae5d-7851b899c7ac","system_id":"levelo_inurba_marseille","lat":43.297794,"lon":5.370888,"is_reserved":false,"is_disabled":false,"rental_uris":{"android":"levelo://app?vid=d9c50b27-a357-4a0a-ae5d-7851b899c7ac","ios":"levelo://app?vid=d9c50b27-a357-4a0a-ae5d-7851b899c7ac"},"vehicle_type_id":"4","last_reported":1707944808,"current_range_meters":30000,"station_id":"ce4bgop2rcd13ifvqc1g","pricing_plan_id":"cebpf4jnsgd1na2vs0mg"},{"bike_id":"be38420d-f51a-4967-8251-f13390162da9","system_id":"levelo_inurba_marseille","lat":43.322872,"lon":5.382756,"is_reserved":false,"is_disabled":false,"rental_uris":{"android":"levelo://app?vid=be38420d-f51a-4967-8251-f13390162da9","ios":"levelo://app?vid=be38420d-f51a-4967-8251-f13390162da9"},"vehicle_type_id":"4","last_reported":1707944808,"current_range_meters":26800,"station_id":"ce4bhr12rcd13ifvqhqg","pricing_plan_id":"cebpf4jnsgd1na2vs0mg"},{"bike_id":"118fcb4e-73cd-43af-8bf2-be4e0690f9d8","system_id":"levelo_inurba_marseille","lat":43.322884,"lon":5.382736,"is_reserved":false,"is_disabled":false,"rental_uris":{"android":"levelo://app?vid=118fcb4e-73cd-43af-8bf2-be4e0690f9d8","ios":"levelo://app?vid=118fcb4e-73cd-43af-8bf2-be4e0690f9d8"},"vehicle_type_id":"4","last_reported":1707944808,"current_range_meters":10400,"station_id":"ce4bhr12rcd13ifvqhqg","pricing_plan_id":"cebpf4jnsgd1na2vs0mg"},{"bike_id":"aed9e4ad-9c1a-4a51-8095-58a12f0b44f4","system_id":"levelo_inurba_marseille","lat":43.322872,"lon":5.382756,"is_reserved":false,"is_disabled":false,"rental_uris":{"android":"levelo://app?vid=aed9e4ad-9c1a-4a51-8095-58a12f0b44f4","ios":"levelo://app?vid=aed9e4ad-9c1a-4a51-8095-58a12f0b44f4"},"vehicle_type_id":"4","last_reported":1707944808,"current_range_meters":30800,"station_id":"ce4bhr12rcd13ifvqhqg","pricing_plan_id":"cebpf4jnsgd1na2vs0mg"},{"bike_id":"244b7149-7bde-4987-b654-88632569d8fb","system_id":"levelo_inurba_marseille","lat":43.32288,"lon":5.38276,"is_reserved":false,"is_disabled":false,"rental_uris":{"android":"levelo://app?vid=244b7149-7bde-4987-b654-88632569d8fb","ios":"levelo://app?vid=244b7149-7bde-4987-b654-88632569d8fb"},"vehicle_type_id":"4","last_reported":1707944808,"current_range_meters":28400,"station_id":"ce4bhr12rcd13ifvqhqg","pricing_plan_id":"cebpf4jnsgd1na2vs0mg"},{"bike_id":"8ecb08da-2f02-4ff4-86b5-62776fe52fe5","system_id":"levelo_inurba_marseille","lat":43.299243,"lon":5.37481,"is_reserved":false,"is_disabled":false,"rental_uris":{"android":"levelo://app?vid=8ecb08da-2f02-4ff4-86b5-62776fe52fe5","ios":"levelo://app?vid=8ecb08da-2f02-4ff4-86b5-62776fe52fe5"},"vehicle_type_id":"4","last_reported":1707944808,"current_range_meters":31200,"station_id":"ce4bgjh2rcd13ifvqbg0","pricing_plan_id":"cebpf4jnsgd1na2vs0mg"},{"bike_id":"ec21c626-faeb-41e5-9192-4d2bef3ee4d3","system_id":"levelo_inurba_marseille","lat":43.32823,"lon":5.36686,"is_reserved":false,"is_disabled":false,"rental_uris":{"android":"levelo://app?vid=ec21c626-faeb-41e5-9192-4d2bef3ee4d3","ios":"levelo://app?vid=ec21c626-faeb-41e5-9192-4d2bef3ee4d3"},"vehicle_type_id":"4","last_reported":1707944808,"current_range_meters":8800,"station_id":"ce4bhs92rcd13ifvqi0g","pricing_plan_id":"cebpf4jnsgd1na2vs0mg"},{"bike_id":"eec18b1c-bcf1-4268-8859-b234d772b467","system_id":"levelo_inurba_marseille","lat":43.32823,"lon":5.36684,"is_reserved":false,"is_disabled":false,"rental_uris":{"android":"levelo://app?vid=eec18b1c-bcf1-4268-8859-b234d772b467","ios":"levelo://app?vid=eec18b1c-bcf1-4268-8859-b234d772b467"},"vehicle_type_id":"4","last_reported":1707944808,"current_range_meters":11200,"station_id":"ce4bhs92rcd13ifvqi0g","pricing_plan_id":"cebpf4jnsgd1na2vs0mg"},{"bike_id":"c9b88aad-86c2-4a51-9436-08e8586a0048","system_id":"levelo_inurba_marseille","lat":43.328235,"lon":5.366799,"is_reserved":false,"is_disabled":false,"rental_uris":{"android":"levelo://app?vid=c9b88aad-86c2-4a51-9436-08e8586a0048","ios":"levelo://app?vid=c9b88aad-86c2-4a51-9436-08e8586a0048"},"vehicle_type_id":"4","last_reported":1707944808,"current_range_meters":19200,"station_id":"ce4bhs92rcd13ifvqi0g","pricing_plan_id":"cebpf4jnsgd1na2vs0mg"},{"bike_id":"57f57f96-aa15-40ae-a761-f5242a8c30b7","system_id":"levelo_inurba_marseille","lat":43.32824,"lon":5.36684,"is_reserved":false,"is_disabled":false,"rental_uris":{"android":"levelo://app?vid=57f57f96-aa15-40ae-a761-f5242a8c30b7","ios":"levelo://app?vid=57f57f96-aa15-40ae-a761-f5242a8c30b7"},"vehicle_type_id":"4","last_reported":1707944808,"current_range_meters":14800,"station_id":"ce4bhs92rcd13ifvqi0g","pricing_plan_id":"cebpf4jnsgd1na2vs0mg"},{"bike_id":"d059372d-713e-4306-a0dc-ef5b2b5ad059","system_id":"levelo_inurba_marseille","lat":43.32826,"lon":5.36678,"is_reserved":false,"is_disabled":false,"rental_uris":{"android":"levelo://app?vid=d059372d-713e-4306-a0dc-ef5b2b5ad059","ios":"levelo://app?vid=d059372d-713e-4306-a0dc-ef5b2b5ad059"},"vehicle_type_id":"4","last_reported":1707944808,"current_range_meters":3200,"station_id":"ce4bhs92rcd13ifvqi0g","pricing_plan_id":"cebpf4jnsgd1na2vs0mg"},{"bike_id":"b354d40e-f748-45df-b8a4-085ee0f39b31","system_id":"levelo_inurba_marseille","lat":43.32827,"lon":5.36679,"is_reserved":false,"is_disabled":false,"rental_uris":{"android":"levelo://app?vid=b354d40e-f748-45df-b8a4-085ee0f39b31","ios":"levelo://app?vid=b354d40e-f748-45df-b8a4-085ee0f39b31"},"vehicle_type_id":"4","last_reported":1707944808,"current_range_meters":23600,"station_id":"ce4bhs92rcd13ifvqi0g","pricing_plan_id":"cebpf4jnsgd1na2vs0mg"},{"bike_id":"ba7e2d45-23a5-46a7-b5c1-beb1b5de7e04","system_id":"levelo_inurba_marseille","lat":43.32828,"lon":5.3668,"is_reserved":false,"is_disabled":false,"rental_uris":{"android":"levelo://app?vid=ba7e2d45-23a5-46a7-b5c1-beb1b5de7e04","ios":"levelo://app?vid=ba7e2d45-23a5-46a7-b5c1-beb1b5de7e04"},"vehicle_type_id":"4","last_reported":1707944808,"current_range_meters":18400,"station_id":"ce4bhs92rcd13ifvqi0g","pricing_plan_id":"cebpf4jnsgd1na2vs0mg"},{"bike_id":"7c47e388-9433-4092-857a-2e1a28e7faaa","system_id":"levelo_inurba_marseille","lat":43.32828,"lon":5.36678,"is_reserved":false,"is_disabled":false,"rental_uris":{"android":"levelo://app?vid=7c47e388-9433-4092-857a-2e1a28e7faaa","ios":"levelo://app?vid=7c47e388-9433-4092-857a-2e1a28e7faaa"},"vehicle_type_id":"4","last_reported":1707944808,"current_range_meters":26800,"station_id":"ce4bhs92rcd13ifvqi0g","pricing_plan_id":"cebpf4jnsgd1na2vs0mg"},{"bike_id":"00c486e2-5b6f-4240-9c00-f34f4cd392e2","system_id":"levelo_inurba_marseille","lat":43.328284,"lon":5.366774,"is_reserved":false,"is_disabled":false,"rental_uris":{"android":"levelo://app?vid=00c486e2-5b6f-4240-9c00-f34f4cd392e2","ios":"levelo://app?vid=00c486e2-5b6f-4240-9c00-f34f4cd392e2"},"vehicle_type_id":"4","last_reported":1707944808,"current_range_meters":17200,"station_id":"ce4bhs92rcd13ifvqi0g","pricing_plan_id":"cebpf4jnsgd1na2vs0mg"},{"bike_id":"e53477e0-6f81-44d0-bf92-8c0c4ae8ef5b","system_id":"levelo_inurba_marseille","lat":43.328289,"lon":5.366824,"is_reserved":false,"is_disabled":false,"rental_uris":{"android":"levelo://app?vid=e53477e0-6f81-44d0-bf92-8c0c4ae8ef5b","ios":"levelo://app?vid=e53477e0-6f81-44d0-bf92-8c0c4ae8ef5b"},"vehicle_type_id":"4","last_reported":1707944808,"current_range_meters":18400,"station_id":"ce4bhs92rcd13ifvqi0g","pricing_plan_id":"cebpf4jnsgd1na2vs0mg"},{"bike_id":"24cbb04a-c763-4b6c-91c7-7ce4ce9a6969","system_id":"levelo_inurba_marseille","lat":43.32829,"lon":5.36681,"is_reserved":false,"is_disabled":false,"rental_uris":{"android":"levelo://app?vid=24cbb04a-c763-4b6c-91c7-7ce4ce9a6969","ios":"levelo://app?vid=24cbb04a-c763-4b6c-91c7-7ce4ce9a6969"},"vehicle_type_id":"4","last_reported":1707944808,"current_range_meters":16000,"station_id":"ce4bhs92rcd13ifvqi0g","pricing_plan_id":"cebpf4jnsgd1na2vs0mg"},{"bike_id":"c579bad3-e2d0-4712-a783-f41c065e4e3f","system_id":"levelo_inurba_marseille","lat":43.32829,"lon":5.3668,"is_reserved":false,"is_disabled":false,"rental_uris":{"android":"levelo://app?vid=c579bad3-e2d0-4712-a783-f41c065e4e3f","ios":"levelo://app?vid=c579bad3-e2d0-4712-a783-f41c065e4e3f"},"vehicle_type_id":"4","last_reported":1707944808,"current_range_meters":9600,"station_id":"ce4bhs92rcd13ifvqi0g","pricing_plan_id":"cebpf4jnsgd1na2vs0mg"},{"bike_id":"20747a73-3ec2-4ec7-9c3a-f0ad85525260","system_id":"levelo_inurba_marseille","lat":43.3283,"lon":5.36677,"is_reserved":false,"is_disabled":false,"rental_uris":{"android":"levelo://app?vid=20747a73-3ec2-4ec7-9c3a-f0ad85525260","ios":"levelo://app?vid=20747a73-3ec2-4ec7-9c3a-f0ad85525260"},"vehicle_type_id":"4","last_reported":1707944808,"current_range_meters":3600,"station_id":"ce4bhs92rcd13ifvqi0g","pricing_plan_id":"cebpf4jnsgd1na2vs0mg"},{"bike_id":"f41ceea4-9289-4d6b-990c-9f2656a72f3b","system_id":"levelo_inurba_marseille","lat":43.3283,"lon":5.36675,"is_reserved":false,"is_disabled":false,"rental_uris":{"android":"levelo://app?vid=f41ceea4-9289-4d6b-990c-9f2656a72f3b","ios":"levelo://app?vid=f41ceea4-9289-4d6b-990c-9f2656a72f3b"},"vehicle_type_id":"4","last_reported":1707944808,"current_range_meters":2400,"station_id":"ce4bhs92rcd13ifvqi0g","pricing_plan_id":"cebpf4jnsgd1na2vs0mg"},{"bike_id":"8d4d4aba-3495-4235-ada7-809a0bcb5c57","system_id":"levelo_inurba_marseille","lat":43.328303,"lon":5.366806,"is_reserved":false,"is_disabled":false,"rental_uris":{"android":"levelo://app?vid=8d4d4aba-3495-4235-ada7-809a0bcb5c57","ios":"levelo://app?vid=8d4d4aba-3495-4235-ada7-809a0bcb5c57"},"vehicle_type_id":"4","last_reported":1707944808,"current_range_meters":22400,"station_id":"ce4bhs92rcd13ifvqi0g","pricing_plan_id":"cebpf4jnsgd1na2vs0mg"},{"bike_id":"b338c1d7-627e-4015-898a-dcde5ba40d9d","system_id":"levelo_inurba_marseille","lat":43.32831,"lon":5.36683,"is_reserved":false,"is_disabled":false,"rental_uris":{"android":"levelo://app?vid=b338c1d7-627e-4015-898a-dcde5ba40d9d","ios":"levelo://app?vid=b338c1d7-627e-4015-898a-dcde5ba40d9d"},"vehicle_type_id":"4","last_reported":1707944808,"current_range_meters":400,"station_id":"ce4bhs92rcd13ifvqi0g","pricing_plan_id":"cebpf4jnsgd1na2vs0mg"},{"bike_id":"8b36ce43-3bc7-4f8a-bb1e-1f87c12ac26a","system_id":"levelo_inurba_marseille","lat":43.32831,"lon":5.36679,"is_reserved":false,"is_disabled":false,"rental_uris":{"android":"levelo://app?vid=8b36ce43-3bc7-4f8a-bb1e-1f87c12ac26a","ios":"levelo://app?vid=8b36ce43-3bc7-4f8a-bb1e-1f87c12ac26a"},"vehicle_type_id":"4","last_reported":1707944808,"current_range_meters":8800,"station_id":"ce4bhs92rcd13ifvqi0g","pricing_plan_id":"cebpf4jnsgd1na2vs0mg"},{"bike_id":"6df14f4e-5762-4688-823c-207c1d70636e","system_id":"levelo_inurba_marseille","lat":43.328327,"lon":5.366762,"is_reserved":false,"is_disabled":false,"rental_uris":{"android":"levelo://app?vid=6df14f4e-5762-4688-823c-207c1d70636e","ios":"levelo://app?vid=6df14f4e-5762-4688-823c-207c1d70636e"},"vehicle_type_id":"4","last_reported":1707944808,"current_range_meters":4800,"station_id":"ce4bhs92rcd13ifvqi0g","pricing_plan_id":"cebpf4jnsgd1na2vs0mg"},{"bike_id":"21e34cb8-ab84-4bcf-af44-ce5eaa23f4a9","system_id":"levelo_inurba_marseille","lat":43.32834,"lon":5.36677,"is_reserved":false,"is_disabled":false,"rental_uris":{"android":"levelo://app?vid=21e34cb8-ab84-4bcf-af44-ce5eaa23f4a9","ios":"levelo://app?vid=21e34cb8-ab84-4bcf-af44-ce5eaa23f4a9"},"vehicle_type_id":"4","last_reported":1707944808,"current_range_meters":12000,"station_id":"ce4bhs92rcd13ifvqi0g","pricing_plan_id":"cebpf4jnsgd1na2vs0mg"},{"bike_id":"2c0240b9-332f-43a4-b9ad-92a79e9225d2","system_id":"levelo_inurba_marseille","lat":43.32837,"lon":5.36678,"is_reserved":false,"is_disabled":false,"rental_uris":{"android":"levelo://app?vid=2c0240b9-332f-43a4-b9ad-92a79e9225d2","ios":"levelo://app?vid=2c0240b9-332f-43a4-b9ad-92a79e9225d2"},"vehicle_type_id":"4","last_reported":1707944808,"current_range_meters":12000,"station_id":"ce4bhs92rcd13ifvqi0g","pricing_plan_id":"cebpf4jnsgd1na2vs0mg"},{"bike_id":"55c40696-eac4-4ef2-ab85-010ac245187e","system_id":"levelo_inurba_marseille","lat":43.297163,"lon":5.365866,"is_reserved":false,"is_disabled":false,"rental_uris":{"android":"levelo://app?vid=55c40696-eac4-4ef2-ab85-010ac245187e","ios":"levelo://app?vid=55c40696-eac4-4ef2-ab85-010ac245187e"},"vehicle_type_id":"4","last_reported":1707944808,"current_range_meters":18400,"station_id":"ce4bgn12rcd13ifvqbt0","pricing_plan_id":"cebpf4jnsgd1na2vs0mg"},{"bike_id":"43957803-f6bd-46a1-8353-81a4fb25d515","system_id":"levelo_inurba_marseille","lat":43.297163,"lon":5.365866,"is_reserved":false,"is_disabled":false,"rental_uris":{"android":"levelo://app?vid=43957803-f6bd-46a1-8353-81a4fb25d515","ios":"levelo://app?vid=43957803-f6bd-46a1-8353-81a4fb25d515"},"vehicle_type_id":"4","last_reported":1707944808,"current_range_meters":10800,"station_id":"ce4bgn12rcd13ifvqbt0","pricing_plan_id":"cebpf4jnsgd1na2vs0mg"},{"bike_id":"455586fa-93db-4262-9aa9-3ec4bb30a061","system_id":"levelo_inurba_marseille","lat":43.297163,"lon":5.365866,"is_reserved":false,"is_disabled":false,"rental_uris":{"android":"levelo://app?vid=455586fa-93db-4262-9aa9-3ec4bb30a061","ios":"levelo://app?vid=455586fa-93db-4262-9aa9-3ec4bb30a061"},"vehicle_type_id":"4","last_reported":1707944808,"current_range_meters":27200,"station_id":"ce4bgn12rcd13ifvqbt0","pricing_plan_id":"cebpf4jnsgd1na2vs0mg"},{"bike_id":"8dabdcb3-fa40-4f17-b247-51e168cb9ce3","system_id":"levelo_inurba_marseille","lat":43.297163,"lon":5.365866,"is_reserved":false,"is_disabled":false,"rental_uris":{"android":"levelo://app?vid=8dabdcb3-fa40-4f17-b247-51e168cb9ce3","ios":"levelo://app?vid=8dabdcb3-fa40-4f17-b247-51e168cb9ce3"},"vehicle_type_id":"4","last_reported":1707944808,"current_range_meters":28800,"station_id":"ce4bgn12rcd13ifvqbt0","pricing_plan_id":"cebpf4jnsgd1na2vs0mg"},{"bike_id":"f039458f-387c-4add-9df4-5e24e597c3fa","system_id":"levelo_inurba_marseille","lat":43.297163,"lon":5.365866,"is_reserved":false,"is_disabled":false,"rental_uris":{"android":"levelo://app?vid=f039458f-387c-4add-9df4-5e24e597c3fa","ios":"levelo://app?vid=f039458f-387c-4add-9df4-5e24e597c3fa"},"vehicle_type_id":"4","last_reported":1707944808,"current_range_meters":21200,"station_id":"ce4bgn12rcd13ifvqbt0","pricing_plan_id":"cebpf4jnsgd1na2vs0mg"},{"bike_id":"83fa406e-2a4b-4eeb-94af-e8dd30f86788","system_id":"levelo_inurba_marseille","lat":43.2968,"lon":5.37291,"is_reserved":false,"is_disabled":false,"rental_uris":{"android":"levelo://app?vid=83fa406e-2a4b-4eeb-94af-e8dd30f86788","ios":"levelo://app?vid=83fa406e-2a4b-4eeb-94af-e8dd30f86788"},"vehicle_type_id":"4","last_reported":1707944808,"current_range_meters":23200,"station_id":"ce4bgk12rcd13ifvqbj0","pricing_plan_id":"cebpf4jnsgd1na2vs0mg"},{"bike_id":"9c7a000d-7025-4e6f-8be7-ab6f1eebcdba","system_id":"levelo_inurba_marseille","lat":43.29573,"lon":5.367355,"is_reserved":false,"is_disabled":false,"rental_uris":{"android":"levelo://app?vid=9c7a000d-7025-4e6f-8be7-ab6f1eebcdba","ios":"levelo://app?vid=9c7a000d-7025-4e6f-8be7-ab6f1eebcdba"},"vehicle_type_id":"4","last_reported":1707944808,"current_range_meters":11200,"station_id":"ce4bgph2rcd13ifvqc2g","pricing_plan_id":"cebpf4jnsgd1na2vs0mg"},{"bike_id":"7c73092b-1e9f-481b-9ba0-52a2872d5458","system_id":"levelo_inurba_marseille","lat":43.29573,"lon":5.367355,"is_reserved":false,"is_disabled":false,"rental_uris":{"android":"levelo://app?vid=7c73092b-1e9f-481b-9ba0-52a2872d5458","ios":"levelo://app?vid=7c73092b-1e9f-481b-9ba0-52a2872d5458"},"vehicle_type_id":"4","last_reported":1707944808,"current_range_meters":4000,"station_id":"ce4bgph2rcd13ifvqc2g","pricing_plan_id":"cebpf4jnsgd1na2vs0mg"},{"bike_id":"6e3895e1-ad1b-47d7-92d4-7463318a6115","system_id":"levelo_inurba_marseille","lat":43.296921,"lon":5.376579,"is_reserved":false,"is_disabled":false,"rental_uris":{"android":"levelo://app?vid=6e3895e1-ad1b-47d7-92d4-7463318a6115","ios":"levelo://app?vid=6e3895e1-ad1b-47d7-92d4-7463318a6115"},"vehicle_type_id":"4","last_reported":1707944808,"current_range_meters":800,"station_id":"ce4bgkh2rcd13ifvqbl0","pricing_plan_id":"cebpf4jnsgd1na2vs0mg"},{"bike_id":"4219c106-3ad4-4104-93fd-fb833e709d99","system_id":"levelo_inurba_marseille","lat":43.299028,"lon":5.381509,"is_reserved":false,"is_disabled":false,"rental_uris":{"android":"levelo://app?vid=4219c106-3ad4-4104-93fd-fb833e709d99","ios":"levelo://app?vid=4219c106-3ad4-4104-93fd-fb833e709d99"},"vehicle_type_id":"4","last_reported":1707944808,"current_range_meters":10800,"station_id":"ce4bgj12rcd13ifvqbc0","pricing_plan_id":"cebpf4jnsgd1na2vs0mg"},{"bike_id":"69761bf9-201b-46e8-b020-13980f6e0a1d","system_id":"levelo_inurba_marseille","lat":43.309589,"lon":5.390258,"is_reserved":false,"is_disabled":false,"rental_uris":{"android":"levelo://app?vid=69761bf9-201b-46e8-b020-13980f6e0a1d","ios":"levelo://app?vid=69761bf9-201b-46e8-b020-13980f6e0a1d"},"vehicle_type_id":"4","last_reported":1707944808,"current_range_meters":1200,"station_id":"ce4bgup2rcd13ifvqco0","pricing_plan_id":"cebpf4jnsgd1na2vs0mg"},{"bike_id":"43233241-859b-48de-8612-b6c1b825776d","system_id":"levelo_inurba_marseille","lat":43.31763,"lon":5.39004,"is_reserved":false,"is_disabled":false,"rental_uris":{"android":"levelo://app?vid=43233241-859b-48de-8612-b6c1b825776d","ios":"levelo://app?vid=43233241-859b-48de-8612-b6c1b825776d"},"vehicle_type_id":"4","last_reported":1707944808,"current_range_meters":10400,"station_id":"ce4bhqp2rcd13ifvqhng","pricing_plan_id":"cebpf4jnsgd1na2vs0mg"},{"bike_id":"b3dcb9ba-bf07-48c1-aada-2fbdb761a352","system_id":"levelo_inurba_marseille","lat":43.317557,"lon":5.390173,"is_reserved":false,"is_disabled":false,"rental_uris":{"android":"levelo://app?vid=b3dcb9ba-bf07-48c1-aada-2fbdb761a352","ios":"levelo://app?vid=b3dcb9ba-bf07-48c1-aada-2fbdb761a352"},"vehicle_type_id":"4","last_reported":1707944808,"current_range_meters":31200,"station_id":"ce4bhqp2rcd13ifvqhng","pricing_plan_id":"cebpf4jnsgd1na2vs0mg"},{"bike_id":"bb6e54d1-0e60-4916-a05f-65ed728637f5","system_id":"levelo_inurba_marseille","lat":43.317557,"lon":5.390173,"is_reserved":false,"is_disabled":false,"rental_uris":{"android":"levelo://app?vid=bb6e54d1-0e60-4916-a05f-65ed728637f5","ios":"levelo://app?vid=bb6e54d1-0e60-4916-a05f-65ed728637f5"},"vehicle_type_id":"4","last_reported":1707944808,"current_range_meters":31200,"station_id":"ce4bhqp2rcd13ifvqhng","pricing_plan_id":"cebpf4jnsgd1na2vs0mg"},{"bike_id":"4d1fc426-76ca-4e7f-b775-e8d4d4862683","system_id":"levelo_inurba_marseille","lat":43.317557,"lon":5.390173,"is_reserved":false,"is_disabled":false,"rental_uris":{"android":"levelo://app?vid=4d1fc426-76ca-4e7f-b775-e8d4d4862683","ios":"levelo://app?vid=4d1fc426-76ca-4e7f-b775-e8d4d4862683"},"vehicle_type_id":"4","last_reported":1707944808,"current_range_meters":29600,"station_id":"ce4bhqp2rcd13ifvqhng","pricing_plan_id":"cebpf4jnsgd1na2vs0mg"},{"bike_id":"61113e6d-e1f4-49e1-94b1-ccb6fc9bcaf5","system_id":"levelo_inurba_marseille","lat":43.317557,"lon":5.390173,"is_reserved":false,"is_disabled":false,"rental_uris":{"android":"levelo://app?vid=61113e6d-e1f4-49e1-94b1-ccb6fc9bcaf5","ios":"levelo://app?vid=61113e6d-e1f4-49e1-94b1-ccb6fc9bcaf5"},"vehicle_type_id":"4","last_reported":1707944808,"current_range_meters":17600,"station_id":"ce4bhqp2rcd13ifvqhng","pricing_plan_id":"cebpf4jnsgd1na2vs0mg"},{"bike_id":"0d568f49-9e25-417a-91e9-babe78949eca","system_id":"levelo_inurba_marseille","lat":43.317557,"lon":5.390173,"is_reserved":false,"is_disabled":false,"rental_uris":{"android":"levelo://app?vid=0d568f49-9e25-417a-91e9-babe78949eca","ios":"levelo://app?vid=0d568f49-9e25-417a-91e9-babe78949eca"},"vehicle_type_id":"4","last_reported":1707944808,"current_range_meters":30800,"station_id":"ce4bhqp2rcd13ifvqhng","pricing_plan_id":"cebpf4jnsgd1na2vs0mg"},{"bike_id":"13db1a0a-84c8-4ba0-87f6-9800285e27fa","system_id":"levelo_inurba_marseille","lat":43.317525,"lon":5.390228,"is_reserved":false,"is_disabled":false,"rental_uris":{"android":"levelo://app?vid=13db1a0a-84c8-4ba0-87f6-9800285e27fa","ios":"levelo://app?vid=13db1a0a-84c8-4ba0-87f6-9800285e27fa"},"vehicle_type_id":"4","last_reported":1707944808,"current_range_meters":31200,"station_id":"ce4bhqp2rcd13ifvqhng","pricing_plan_id":"cebpf4jnsgd1na2vs0mg"},{"bike_id":"46fddee0-8afd-4938-8611-aae2e5c099d9","system_id":"levelo_inurba_marseille","lat":43.3176,"lon":5.39022,"is_reserved":false,"is_disabled":false,"rental_uris":{"android":"levelo://app?vid=46fddee0-8afd-4938-8611-aae2e5c099d9","ios":"levelo://app?vid=46fddee0-8afd-4938-8611-aae2e5c099d9"},"vehicle_type_id":"4","last_reported":1707944808,"current_range_meters":24800,"station_id":"ce4bhqp2rcd13ifvqhng","pricing_plan_id":"cebpf4jnsgd1na2vs0mg"},{"bike_id":"a66fec16-5c26-4073-bc2a-b4cafe2573db","system_id":"levelo_inurba_marseille","lat":43.2975,"lon":5.37929,"is_reserved":false,"is_disabled":false,"rental_uris":{"android":"levelo://app?vid=a66fec16-5c26-4073-bc2a-b4cafe2573db","ios":"levelo://app?vid=a66fec16-5c26-4073-bc2a-b4cafe2573db"},"vehicle_type_id":"4","last_reported":1707944808,"current_range_meters":0,"station_id":"","pricing_plan_id":"cebpf4jnsgd1na2vs0mg"},{"bike_id":"f81f84d3-3fcc-40fb-bf61-8e16633310e9","system_id":"levelo_inurba_marseille","lat":43.298037,"lon":5.381066,"is_reserved":false,"is_disabled":false,"rental_uris":{"android":"levelo://app?vid=f81f84d3-3fcc-40fb-bf61-8e16633310e9","ios":"levelo://app?vid=f81f84d3-3fcc-40fb-bf61-8e16633310e9"},"vehicle_type_id":"4","last_reported":1707944808,"current_range_meters":4800,"station_id":"ce4bgip2rcd13ifvqbb0","pricing_plan_id":"cebpf4jnsgd1na2vs0mg"},{"bike_id":"bec426ee-f3c9-46e7-9873-626c37993cfe","system_id":"levelo_inurba_marseille","lat":43.298037,"lon":5.381066,"is_reserved":false,"is_disabled":false,"rental_uris":{"android":"levelo://app?vid=bec426ee-f3c9-46e7-9873-626c37993cfe","ios":"levelo://app?vid=bec426ee-f3c9-46e7-9873-626c37993cfe"},"vehicle_type_id":"4","last_reported":1707944808,"current_range_meters":30800,"station_id":"ce4bgip2rcd13ifvqbb0","pricing_plan_id":"cebpf4jnsgd1na2vs0mg"},{"bike_id":"e92aed19-1b84-4e27-a0f3-4509d92af34b","system_id":"levelo_inurba_marseille","lat":43.295828,"lon":5.375051,"is_reserved":false,"is_disabled":false,"rental_uris":{"android":"levelo://app?vid=e92aed19-1b84-4e27-a0f3-4509d92af34b","ios":"levelo://app?vid=e92aed19-1b84-4e27-a0f3-4509d92af34b"},"vehicle_type_id":"4","last_reported":1707944808,"current_range_meters":16800,"station_id":"ce4bgh92rcd13ifvqb50","pricing_plan_id":"cebpf4jnsgd1na2vs0mg"},{"bike_id":"7e5fe89b-49f3-4a3e-94b3-59356a782e09","system_id":"levelo_inurba_marseille","lat":43.29577,"lon":5.37523,"is_reserved":false,"is_disabled":false,"rental_uris":{"android":"levelo://app?vid=7e5fe89b-49f3-4a3e-94b3-59356a782e09","ios":"levelo://app?vid=7e5fe89b-49f3-4a3e-94b3-59356a782e09"},"vehicle_type_id":"4","last_reported":1707944808,"current_range_meters":0,"station_id":"ce4bgh92rcd13ifvqb50","pricing_plan_id":"cebpf4jnsgd1na2vs0mg"},{"bike_id":"dc3a259d-4049-4322-a18e-5695ad63ee7e","system_id":"levelo_inurba_marseille","lat":43.295748,"lon":5.37522,"is_reserved":false,"is_disabled":false,"rental_uris":{"android":"levelo://app?vid=dc3a259d-4049-4322-a18e-5695ad63ee7e","ios":"levelo://app?vid=dc3a259d-4049-4322-a18e-5695ad63ee7e"},"vehicle_type_id":"4","last_reported":1707944808,"current_range_meters":20800,"station_id":"ce4bgh92rcd13ifvqb50","pricing_plan_id":"cebpf4jnsgd1na2vs0mg"},{"bike_id":"4d2bb00e-b262-4e19-b7ab-27484f0fdcf1","system_id":"levelo_inurba_marseille","lat":43.304274,"lon":5.388873,"is_reserved":false,"is_disabled":false,"rental_uris":{"android":"levelo://app?vid=4d2bb00e-b262-4e19-b7ab-27484f0fdcf1","ios":"levelo://app?vid=4d2bb00e-b262-4e19-b7ab-27484f0fdcf1"},"vehicle_type_id":"4","last_reported":1707944808,"current_range_meters":2400,"station_id":"ce4bgk12rcd13ifvqbi0","pricing_plan_id":"cebpf4jnsgd1na2vs0mg"},{"bike_id":"dd6c2d74-0885-4086-9ea0-81b2a39c9482","system_id":"levelo_inurba_marseille","lat":43.304278,"lon":5.388868,"is_reserved":false,"is_disabled":false,"rental_uris":{"android":"levelo://app?vid=dd6c2d74-0885-4086-9ea0-81b2a39c9482","ios":"levelo://app?vid=dd6c2d74-0885-4086-9ea0-81b2a39c9482"},"vehicle_type_id":"4","last_reported":1707944808,"current_range_meters":16000,"station_id":"ce4bgk12rcd13ifvqbi0","pricing_plan_id":"cebpf4jnsgd1na2vs0mg"},{"bike_id":"c8e88fd3-68c5-4ca8-bb05-086c257940c5","system_id":"levelo_inurba_marseille","lat":43.296277,"lon":5.377108,"is_reserved":false,"is_disabled":false,"rental_uris":{"android":"levelo://app?vid=c8e88fd3-68c5-4ca8-bb05-086c257940c5","ios":"levelo://app?vid=c8e88fd3-68c5-4ca8-bb05-086c257940c5"},"vehicle_type_id":"4","last_reported":1707944808,"current_range_meters":6000,"station_id":"ce4bgi92rcd13ifvqb90","pricing_plan_id":"cebpf4jnsgd1na2vs0mg"},{"bike_id":"3b0bf31b-5852-48b0-971f-fb8f06fb0b09","system_id":"levelo_inurba_marseille","lat":43.304278,"lon":5.388868,"is_reserved":false,"is_disabled":false,"rental_uris":{"android":"levelo://app?vid=3b0bf31b-5852-48b0-971f-fb8f06fb0b09","ios":"levelo://app?vid=3b0bf31b-5852-48b0-971f-fb8f06fb0b09"},"vehicle_type_id":"4","last_reported":1707944808,"current_range_meters":25200,"station_id":"ce4bgk12rcd13ifvqbi0","pricing_plan_id":"cebpf4jnsgd1na2vs0mg"},{"bike_id":"e603ec54-2953-48aa-8fc8-c80c73ca05dd","system_id":"levelo_inurba_marseille","lat":43.304274,"lon":5.388873,"is_reserved":false,"is_disabled":false,"rental_uris":{"android":"levelo://app?vid=e603ec54-2953-48aa-8fc8-c80c73ca05dd","ios":"levelo://app?vid=e603ec54-2953-48aa-8fc8-c80c73ca05dd"},"vehicle_type_id":"4","last_reported":1707944808,"current_range_meters":21200,"station_id":"ce4bgk12rcd13ifvqbi0","pricing_plan_id":"cebpf4jnsgd1na2vs0mg"},{"bike_id":"a7bc24bb-b0aa-440f-bac1-0af3c46059d6","system_id":"levelo_inurba_marseille","lat":43.299707,"lon":5.384859,"is_reserved":false,"is_disabled":false,"rental_uris":{"android":"levelo://app?vid=a7bc24bb-b0aa-440f-bac1-0af3c46059d6","ios":"levelo://app?vid=a7bc24bb-b0aa-440f-bac1-0af3c46059d6"},"vehicle_type_id":"4","last_reported":1707944808,"current_range_meters":800,"station_id":"ce4bgj92rcd13ifvqbd0","pricing_plan_id":"cebpf4jnsgd1na2vs0mg"},{"bike_id":"b08bf3f2-9895-4d9a-9980-06658a6444a4","system_id":"levelo_inurba_marseille","lat":43.30123,"lon":5.38783,"is_reserved":false,"is_disabled":false,"rental_uris":{"android":"levelo://app?vid=b08bf3f2-9895-4d9a-9980-06658a6444a4","ios":"levelo://app?vid=b08bf3f2-9895-4d9a-9980-06658a6444a4"},"vehicle_type_id":"4","last_reported":1707944808,"current_range_meters":0,"station_id":"","pricing_plan_id":"cebpf4jnsgd1na2vs0mg"},{"bike_id":"cc36d624-ed66-4db6-bb3b-42695f88d813","system_id":"levelo_inurba_marseille","lat":43.32367,"lon":5.38882,"is_reserved":false,"is_disabled":false,"rental_uris":{"android":"levelo://app?vid=cc36d624-ed66-4db6-bb3b-42695f88d813","ios":"levelo://app?vid=cc36d624-ed66-4db6-bb3b-42695f88d813"},"vehicle_type_id":"4","last_reported":1707944808,"current_range_meters":8800,"station_id":"ce4bhqp2rcd13ifvqhog","pricing_plan_id":"cebpf4jnsgd1na2vs0mg"},{"bike_id":"9a785585-c85b-4fa3-85aa-80d29ca57d9f","system_id":"levelo_inurba_marseille","lat":43.32367,"lon":5.388836,"is_reserved":false,"is_disabled":false,"rental_uris":{"android":"levelo://app?vid=9a785585-c85b-4fa3-85aa-80d29ca57d9f","ios":"levelo://app?vid=9a785585-c85b-4fa3-85aa-80d29ca57d9f"},"vehicle_type_id":"4","last_reported":1707944808,"current_range_meters":13200,"station_id":"ce4bhqp2rcd13ifvqhog","pricing_plan_id":"cebpf4jnsgd1na2vs0mg"},{"bike_id":"60b4e72a-683d-4d3a-b372-9758c47abe0f","system_id":"levelo_inurba_marseille","lat":43.32367,"lon":5.388836,"is_reserved":false,"is_disabled":false,"rental_uris":{"android":"levelo://app?vid=60b4e72a-683d-4d3a-b372-9758c47abe0f","ios":"levelo://app?vid=60b4e72a-683d-4d3a-b372-9758c47abe0f"},"vehicle_type_id":"4","last_reported":1707944808,"current_range_meters":800,"station_id":"ce4bhqp2rcd13ifvqhog","pricing_plan_id":"cebpf4jnsgd1na2vs0mg"},{"bike_id":"410bf392-d4a4-44a9-8b1d-d839486dc03c","system_id":"levelo_inurba_marseille","lat":43.32361,"lon":5.38889,"is_reserved":false,"is_disabled":false,"rental_uris":{"android":"levelo://app?vid=410bf392-d4a4-44a9-8b1d-d839486dc03c","ios":"levelo://app?vid=410bf392-d4a4-44a9-8b1d-d839486dc03c"},"vehicle_type_id":"4","last_reported":1707944808,"current_range_meters":6000,"station_id":"ce4bhqp2rcd13ifvqhog","pricing_plan_id":"cebpf4jnsgd1na2vs0mg"},{"bike_id":"7b8ae2a5-fea4-420f-9e1d-5f67a20c6887","system_id":"levelo_inurba_marseille","lat":43.32367,"lon":5.388836,"is_reserved":false,"is_disabled":false,"rental_uris":{"android":"levelo://app?vid=7b8ae2a5-fea4-420f-9e1d-5f67a20c6887","ios":"levelo://app?vid=7b8ae2a5-fea4-420f-9e1d-5f67a20c6887"},"vehicle_type_id":"4","last_reported":1707944808,"current_range_meters":24000,"station_id":"ce4bhqp2rcd13ifvqhog","pricing_plan_id":"cebpf4jnsgd1na2vs0mg"},{"bike_id":"24aefc00-aad1-4b8c-bf24-dea0a292f589","system_id":"levelo_inurba_marseille","lat":43.3237,"lon":5.38889,"is_reserved":false,"is_disabled":false,"rental_uris":{"android":"levelo://app?vid=24aefc00-aad1-4b8c-bf24-dea0a292f589","ios":"levelo://app?vid=24aefc00-aad1-4b8c-bf24-dea0a292f589"},"vehicle_type_id":"4","last_reported":1707944808,"current_range_meters":16400,"station_id":"ce4bhqp2rcd13ifvqhog","pricing_plan_id":"cebpf4jnsgd1na2vs0mg"},{"bike_id":"20e5f2ad-9f2c-493e-ac06-9865b2c8d0fa","system_id":"levelo_inurba_marseille","lat":43.299121,"lon":5.386467,"is_reserved":false,"is_disabled":false,"rental_uris":{"android":"levelo://app?vid=20e5f2ad-9f2c-493e-ac06-9865b2c8d0fa","ios":"levelo://app?vid=20e5f2ad-9f2c-493e-ac06-9865b2c8d0fa"},"vehicle_type_id":"4","last_reported":1707944808,"current_range_meters":17600,"station_id":"","pricing_plan_id":"cebpf4jnsgd1na2vs0mg"},{"bike_id":"85f58481-5283-47e3-add1-ada7ea321dae","system_id":"levelo_inurba_marseille","lat":43.29313,"lon":5.37159,"is_reserved":false,"is_disabled":false,"rental_uris":{"android":"levelo://app?vid=85f58481-5283-47e3-add1-ada7ea321dae","ios":"levelo://app?vid=85f58481-5283-47e3-add1-ada7ea321dae"},"vehicle_type_id":"4","last_reported":1707944808,"current_range_meters":5200,"station_id":"ce4bgh92rcd13ifvqb40","pricing_plan_id":"cebpf4jnsgd1na2vs0mg"},{"bike_id":"2fecb683-400d-4cac-87ce-9b2f739795db","system_id":"levelo_inurba_marseille","lat":43.292749,"lon":5.368402,"is_reserved":false,"is_disabled":false,"rental_uris":{"android":"levelo://app?vid=2fecb683-400d-4cac-87ce-9b2f739795db","ios":"levelo://app?vid=2fecb683-400d-4cac-87ce-9b2f739795db"},"vehicle_type_id":"4","last_reported":1707944808,"current_range_meters":0,"station_id":"ce4bhbp2rcd13ifvqesg","pricing_plan_id":"cebpf4jnsgd1na2vs0mg"},{"bike_id":"42847de1-e5ab-4e45-bc0b-ab8e5b2e6771","system_id":"levelo_inurba_marseille","lat":43.29301,"lon":5.37165,"is_reserved":false,"is_disabled":false,"rental_uris":{"android":"levelo://app?vid=42847de1-e5ab-4e45-bc0b-ab8e5b2e6771","ios":"levelo://app?vid=42847de1-e5ab-4e45-bc0b-ab8e5b2e6771"},"vehicle_type_id":"4","last_reported":1707944808,"current_range_meters":12000,"station_id":"ce4bgh92rcd13ifvqb40","pricing_plan_id":"cebpf4jnsgd1na2vs0mg"},{"bike_id":"c3262780-9d3f-4c23-9798-f80ee41b7473","system_id":"levelo_inurba_marseille","lat":43.305994,"lon":5.393687,"is_reserved":false,"is_disabled":false,"rental_uris":{"android":"levelo://app?vid=c3262780-9d3f-4c23-9798-f80ee41b7473","ios":"levelo://app?vid=c3262780-9d3f-4c23-9798-f80ee41b7473"},"vehicle_type_id":"4","last_reported":1707944808,"current_range_meters":16800,"station_id":"ce4bh0p2rcd13ifvqd80","pricing_plan_id":"cebpf4jnsgd1na2vs0mg"},{"bike_id":"fc87b23e-97cd-4ce2-910b-343c51363795","system_id":"levelo_inurba_marseille","lat":43.293009,"lon":5.374584,"is_reserved":false,"is_disabled":false,"rental_uris":{"android":"levelo://app?vid=fc87b23e-97cd-4ce2-910b-343c51363795","ios":"levelo://app?vid=fc87b23e-97cd-4ce2-910b-343c51363795"},"vehicle_type_id":"4","last_reported":1707944808,"current_range_meters":13600,"station_id":"ce4bgi12rcd13ifvqb70","pricing_plan_id":"cebpf4jnsgd1na2vs0mg"},{"bike_id":"767e8013-eb94-4ee5-8ca1-11bdeff74fae","system_id":"levelo_inurba_marseille","lat":43.305994,"lon":5.393687,"is_reserved":false,"is_disabled":false,"rental_uris":{"android":"levelo://app?vid=767e8013-eb94-4ee5-8ca1-11bdeff74fae","ios":"levelo://app?vid=767e8013-eb94-4ee5-8ca1-11bdeff74fae"},"vehicle_type_id":"4","last_reported":1707944808,"current_range_meters":20400,"station_id":"ce4bh0p2rcd13ifvqd80","pricing_plan_id":"cebpf4jnsgd1na2vs0mg"},{"bike_id":"6b1b40eb-7df6-4e5f-b6b9-8345877823d9","system_id":"levelo_inurba_marseille","lat":43.305986,"lon":5.393646,"is_reserved":false,"is_disabled":false,"rental_uris":{"android":"levelo://app?vid=6b1b40eb-7df6-4e5f-b6b9-8345877823d9","ios":"levelo://app?vid=6b1b40eb-7df6-4e5f-b6b9-8345877823d9"},"vehicle_type_id":"4","last_reported":1707944808,"current_range_meters":0,"station_id":"","pricing_plan_id":"cebpf4jnsgd1na2vs0mg"},{"bike_id":"39d1b64e-33d8-4ba7-b175-9da5e513592c","system_id":"levelo_inurba_marseille","lat":43.302992,"lon":5.392136,"is_reserved":false,"is_disabled":false,"rental_uris":{"android":"levelo://app?vid=39d1b64e-33d8-4ba7-b175-9da5e513592c","ios":"levelo://app?vid=39d1b64e-33d8-4ba7-b175-9da5e513592c"},"vehicle_type_id":"4","last_reported":1707944808,"current_range_meters":8000,"station_id":"ce4bgkh2rcd13ifvqbk0","pricing_plan_id":"cebpf4jnsgd1na2vs0mg"},{"bike_id":"61a9e3c8-f06d-4823-9002-15810e51a13e","system_id":"levelo_inurba_marseille","lat":43.2936,"lon":5.37835,"is_reserved":false,"is_disabled":false,"rental_uris":{"android":"levelo://app?vid=61a9e3c8-f06d-4823-9002-15810e51a13e","ios":"levelo://app?vid=61a9e3c8-f06d-4823-9002-15810e51a13e"},"vehicle_type_id":"4","last_reported":1707944808,"current_range_meters":0,"station_id":"ce4bgjh2rcd13ifvqbf0","pricing_plan_id":"cebpf4jnsgd1na2vs0mg"},{"bike_id":"e0d6539b-2a48-4794-862a-51b5231bf25f","system_id":"levelo_inurba_marseille","lat":43.29233,"lon":5.36047,"is_reserved":false,"is_disabled":false,"rental_uris":{"android":"levelo://app?vid=e0d6539b-2a48-4794-862a-51b5231bf25f","ios":"levelo://app?vid=e0d6539b-2a48-4794-862a-51b5231bf25f"},"vehicle_type_id":"4","last_reported":1707944808,"current_range_meters":15200,"station_id":"ce4bhbh2rcd13ifvqeqg","pricing_plan_id":"cebpf4jnsgd1na2vs0mg"},{"bike_id":"69c13cc6-e19a-4703-a618-d1cab20b13a6","system_id":"levelo_inurba_marseille","lat":43.300852,"lon":5.390859,"is_reserved":false,"is_disabled":false,"rental_uris":{"android":"levelo://app?vid=69c13cc6-e19a-4703-a618-d1cab20b13a6","ios":"levelo://app?vid=69c13cc6-e19a-4703-a618-d1cab20b13a6"},"vehicle_type_id":"4","last_reported":1707944808,"current_range_meters":17600,"station_id":"ce4bh192rcd13ifvqdb0","pricing_plan_id":"cebpf4jnsgd1na2vs0mg"},{"bike_id":"ac3d1525-28be-49db-b070-effc2b5ecefe","system_id":"levelo_inurba_marseille","lat":43.300852,"lon":5.390859,"is_reserved":false,"is_disabled":false,"rental_uris":{"android":"levelo://app?vid=ac3d1525-28be-49db-b070-effc2b5ecefe","ios":"levelo://app?vid=ac3d1525-28be-49db-b070-effc2b5ecefe"},"vehicle_type_id":"4","last_reported":1707944808,"current_range_meters":18800,"station_id":"ce4bh192rcd13ifvqdb0","pricing_plan_id":"cebpf4jnsgd1na2vs0mg"},{"bike_id":"60c17cb1-0c44-41a7-9314-abf1b9431948","system_id":"levelo_inurba_marseille","lat":43.300852,"lon":5.390859,"is_reserved":false,"is_disabled":false,"rental_uris":{"android":"levelo://app?vid=60c17cb1-0c44-41a7-9314-abf1b9431948","ios":"levelo://app?vid=60c17cb1-0c44-41a7-9314-abf1b9431948"},"vehicle_type_id":"4","last_reported":1707944808,"current_range_meters":27200,"station_id":"ce4bh192rcd13ifvqdb0","pricing_plan_id":"cebpf4jnsgd1na2vs0mg"},{"bike_id":"441508e8-b84c-45cf-881d-9998d18b1f06","system_id":"levelo_inurba_marseille","lat":43.298764,"lon":5.388973,"is_reserved":false,"is_disabled":false,"rental_uris":{"android":"levelo://app?vid=441508e8-b84c-45cf-881d-9998d18b1f06","ios":"levelo://app?vid=441508e8-b84c-45cf-881d-9998d18b1f06"},"vehicle_type_id":"4","last_reported":1707944808,"current_range_meters":0,"station_id":"ce4bh392rcd13ifvqdl0","pricing_plan_id":"cebpf4jnsgd1na2vs0mg"},{"bike_id":"da7e48a9-e409-4e43-8b6f-514058467a87","system_id":"levelo_inurba_marseille","lat":43.291675,"lon":5.371583,"is_reserved":false,"is_disabled":false,"rental_uris":{"android":"levelo://app?vid=da7e48a9-e409-4e43-8b6f-514058467a87","ios":"levelo://app?vid=da7e48a9-e409-4e43-8b6f-514058467a87"},"vehicle_type_id":"4","last_reported":1707944808,"current_range_meters":26400,"station_id":"ce4bha92rcd13ifvqeh0","pricing_plan_id":"cebpf4jnsgd1na2vs0mg"},{"bike_id":"66aff2d5-0157-4520-8408-f9088a9051ea","system_id":"levelo_inurba_marseille","lat":43.298764,"lon":5.388973,"is_reserved":false,"is_disabled":false,"rental_uris":{"android":"levelo://app?vid=66aff2d5-0157-4520-8408-f9088a9051ea","ios":"levelo://app?vid=66aff2d5-0157-4520-8408-f9088a9051ea"},"vehicle_type_id":"4","last_reported":1707944808,"current_range_meters":12000,"station_id":"ce4bh392rcd13ifvqdl0","pricing_plan_id":"cebpf4jnsgd1na2vs0mg"},{"bike_id":"415ec480-2d4c-4239-a801-f3425cccc344","system_id":"levelo_inurba_marseille","lat":43.29206,"lon":5.358,"is_reserved":false,"is_disabled":false,"rental_uris":{"android":"levelo://app?vid=415ec480-2d4c-4239-a801-f3425cccc344","ios":"levelo://app?vid=415ec480-2d4c-4239-a801-f3425cccc344"},"vehicle_type_id":"4","last_reported":1707944808,"current_range_meters":29600,"station_id":"ce4bhb12rcd13ifvqel0","pricing_plan_id":"cebpf4jnsgd1na2vs0mg"},{"bike_id":"d88669cb-84bd-4991-913a-a06149710760","system_id":"levelo_inurba_marseille","lat":43.309047,"lon":5.396551,"is_reserved":false,"is_disabled":false,"rental_uris":{"android":"levelo://app?vid=d88669cb-84bd-4991-913a-a06149710760","ios":"levelo://app?vid=d88669cb-84bd-4991-913a-a06149710760"},"vehicle_type_id":"4","last_reported":1707944808,"current_range_meters":26000,"station_id":"ce4bh012rcd13ifvqcv0","pricing_plan_id":"cebpf4jnsgd1na2vs0mg"},{"bike_id":"12d3d59a-08ed-4fd5-9bf4-952936502efb","system_id":"levelo_inurba_marseille","lat":43.30886,"lon":5.39633,"is_reserved":false,"is_disabled":false,"rental_uris":{"android":"levelo://app?vid=12d3d59a-08ed-4fd5-9bf4-952936502efb","ios":"levelo://app?vid=12d3d59a-08ed-4fd5-9bf4-952936502efb"},"vehicle_type_id":"4","last_reported":1707944808,"current_range_meters":19200,"station_id":"ce4bh012rcd13ifvqcv0","pricing_plan_id":"cebpf4jnsgd1na2vs0mg"},{"bike_id":"5f01c236-b9eb-439a-86d7-a07f58180c4d","system_id":"levelo_inurba_marseille","lat":43.30888,"lon":5.39637,"is_reserved":false,"is_disabled":false,"rental_uris":{"android":"levelo://app?vid=5f01c236-b9eb-439a-86d7-a07f58180c4d","ios":"levelo://app?vid=5f01c236-b9eb-439a-86d7-a07f58180c4d"},"vehicle_type_id":"4","last_reported":1707944808,"current_range_meters":6000,"station_id":"ce4bh012rcd13ifvqcv0","pricing_plan_id":"cebpf4jnsgd1na2vs0mg"},{"bike_id":"33b62021-2d51-466c-b4be-b0ce89d69a54","system_id":"levelo_inurba_marseille","lat":43.308898,"lon":5.396393,"is_reserved":false,"is_disabled":false,"rental_uris":{"android":"levelo://app?vid=33b62021-2d51-466c-b4be-b0ce89d69a54","ios":"levelo://app?vid=33b62021-2d51-466c-b4be-b0ce89d69a54"},"vehicle_type_id":"4","last_reported":1707944808,"current_range_meters":22400,"station_id":"ce4bh012rcd13ifvqcv0","pricing_plan_id":"cebpf4jnsgd1na2vs0mg"},{"bike_id":"c40a441f-b699-4482-a0aa-5bd2acc1afa0","system_id":"levelo_inurba_marseille","lat":43.313291,"lon":5.396838,"is_reserved":false,"is_disabled":false,"rental_uris":{"android":"levelo://app?vid=c40a441f-b699-4482-a0aa-5bd2acc1afa0","ios":"levelo://app?vid=c40a441f-b699-4482-a0aa-5bd2acc1afa0"},"vehicle_type_id":"4","last_reported":1707944808,"current_range_meters":8800,"station_id":"ce4bgvp2rcd13ifvqcu0","pricing_plan_id":"cebpf4jnsgd1na2vs0mg"},{"bike_id":"53b23731-ec39-4eb9-ade2-9e226873b0a7","system_id":"levelo_inurba_marseille","lat":43.30884,"lon":5.39645,"is_reserved":false,"is_disabled":false,"rental_uris":{"android":"levelo://app?vid=53b23731-ec39-4eb9-ade2-9e226873b0a7","ios":"levelo://app?vid=53b23731-ec39-4eb9-ade2-9e226873b0a7"},"vehicle_type_id":"4","last_reported":1707944808,"current_range_meters":1200,"station_id":"ce4bh012rcd13ifvqcv0","pricing_plan_id":"cebpf4jnsgd1na2vs0mg"},{"bike_id":"6680fa66-514b-4f2f-8fa3-69f3c9a608f2","system_id":"levelo_inurba_marseille","lat":43.313291,"lon":5.396838,"is_reserved":false,"is_disabled":false,"rental_uris":{"android":"levelo://app?vid=6680fa66-514b-4f2f-8fa3-69f3c9a608f2","ios":"levelo://app?vid=6680fa66-514b-4f2f-8fa3-69f3c9a608f2"},"vehicle_type_id":"4","last_reported":1707944808,"current_range_meters":20000,"station_id":"ce4bgvp2rcd13ifvqcu0","pricing_plan_id":"cebpf4jnsgd1na2vs0mg"},{"bike_id":"40c1a6f5-3321-47e5-b70e-7466e814095c","system_id":"levelo_inurba_marseille","lat":43.313291,"lon":5.396838,"is_reserved":false,"is_disabled":false,"rental_uris":{"android":"levelo://app?vid=40c1a6f5-3321-47e5-b70e-7466e814095c","ios":"levelo://app?vid=40c1a6f5-3321-47e5-b70e-7466e814095c"},"vehicle_type_id":"4","last_reported":1707944808,"current_range_meters":20400,"station_id":"ce4bgvp2rcd13ifvqcu0","pricing_plan_id":"cebpf4jnsgd1na2vs0mg"},{"bike_id":"482d5379-516b-45af-a179-28f4bc89f307","system_id":"levelo_inurba_marseille","lat":43.313291,"lon":5.396838,"is_reserved":false,"is_disabled":false,"rental_uris":{"android":"levelo://app?vid=482d5379-516b-45af-a179-28f4bc89f307","ios":"levelo://app?vid=482d5379-516b-45af-a179-28f4bc89f307"},"vehicle_type_id":"4","last_reported":1707944808,"current_range_meters":18000,"station_id":"ce4bgvp2rcd13ifvqcu0","pricing_plan_id":"cebpf4jnsgd1na2vs0mg"},{"bike_id":"145fbc22-336e-4f0e-bd50-f82634132dd8","system_id":"levelo_inurba_marseille","lat":43.309038,"lon":5.396546,"is_reserved":false,"is_disabled":false,"rental_uris":{"android":"levelo://app?vid=145fbc22-336e-4f0e-bd50-f82634132dd8","ios":"levelo://app?vid=145fbc22-336e-4f0e-bd50-f82634132dd8"},"vehicle_type_id":"4","last_reported":1707944808,"current_range_meters":24800,"station_id":"ce4bh012rcd13ifvqcv0","pricing_plan_id":"cebpf4jnsgd1na2vs0mg"},{"bike_id":"e8eab736-9d99-43ab-9fae-1563662e1946","system_id":"levelo_inurba_marseille","lat":43.309038,"lon":5.396546,"is_reserved":false,"is_disabled":false,"rental_uris":{"android":"levelo://app?vid=e8eab736-9d99-43ab-9fae-1563662e1946","ios":"levelo://app?vid=e8eab736-9d99-43ab-9fae-1563662e1946"},"vehicle_type_id":"4","last_reported":1707944808,"current_range_meters":28800,"station_id":"ce4bh012rcd13ifvqcv0","pricing_plan_id":"cebpf4jnsgd1na2vs0mg"},{"bike_id":"41d7be42-4771-4c76-955d-aba7c0310b10","system_id":"levelo_inurba_marseille","lat":43.309038,"lon":5.396546,"is_reserved":false,"is_disabled":false,"rental_uris":{"android":"levelo://app?vid=41d7be42-4771-4c76-955d-aba7c0310b10","ios":"levelo://app?vid=41d7be42-4771-4c76-955d-aba7c0310b10"},"vehicle_type_id":"4","last_reported":1707944808,"current_range_meters":21600,"station_id":"ce4bh012rcd13ifvqcv0","pricing_plan_id":"cebpf4jnsgd1na2vs0mg"},{"bike_id":"bb6c94db-f3f5-42a6-8870-d1d5bd46d02b","system_id":"levelo_inurba_marseille","lat":43.309038,"lon":5.396546,"is_reserved":false,"is_disabled":false,"rental_uris":{"android":"levelo://app?vid=bb6c94db-f3f5-42a6-8870-d1d5bd46d02b","ios":"levelo://app?vid=bb6c94db-f3f5-42a6-8870-d1d5bd46d02b"},"vehicle_type_id":"4","last_reported":1707944808,"current_range_meters":30000,"station_id":"ce4bh012rcd13ifvqcv0","pricing_plan_id":"cebpf4jnsgd1na2vs0mg"},{"bike_id":"4d273257-ee93-4b4f-9d26-34031dca70bb","system_id":"levelo_inurba_marseille","lat":43.291994,"lon":5.357886,"is_reserved":false,"is_disabled":false,"rental_uris":{"android":"levelo://app?vid=4d273257-ee93-4b4f-9d26-34031dca70bb","ios":"levelo://app?vid=4d273257-ee93-4b4f-9d26-34031dca70bb"},"vehicle_type_id":"4","last_reported":1707944808,"current_range_meters":24000,"station_id":"ce4bhb12rcd13ifvqel0","pricing_plan_id":"cebpf4jnsgd1na2vs0mg"},{"bike_id":"4f9b503d-4af5-4340-9207-0d0bbf38c0eb","system_id":"levelo_inurba_marseille","lat":43.30877,"lon":5.39664,"is_reserved":false,"is_disabled":false,"rental_uris":{"android":"levelo://app?vid=4f9b503d-4af5-4340-9207-0d0bbf38c0eb","ios":"levelo://app?vid=4f9b503d-4af5-4340-9207-0d0bbf38c0eb"},"vehicle_type_id":"4","last_reported":1707944808,"current_range_meters":3600,"station_id":"ce4bh012rcd13ifvqcv0","pricing_plan_id":"cebpf4jnsgd1na2vs0mg"},{"bike_id":"269f62ac-9d92-46c8-8ec0-f3b16480df69","system_id":"levelo_inurba_marseille","lat":43.29529,"lon":5.385581,"is_reserved":false,"is_disabled":false,"rental_uris":{"android":"levelo://app?vid=269f62ac-9d92-46c8-8ec0-f3b16480df69","ios":"levelo://app?vid=269f62ac-9d92-46c8-8ec0-f3b16480df69"},"vehicle_type_id":"4","last_reported":1707944808,"current_range_meters":13600,"station_id":"ce4bgih2rcd13ifvqba0","pricing_plan_id":"cebpf4jnsgd1na2vs0mg"},{"bike_id":"453fbd8a-2f2e-41c9-8fb2-80971539f833","system_id":"levelo_inurba_marseille","lat":43.29529,"lon":5.385581,"is_reserved":false,"is_disabled":false,"rental_uris":{"android":"levelo://app?vid=453fbd8a-2f2e-41c9-8fb2-80971539f833","ios":"levelo://app?vid=453fbd8a-2f2e-41c9-8fb2-80971539f833"},"vehicle_type_id":"4","last_reported":1707944808,"current_range_meters":2400,"station_id":"ce4bgih2rcd13ifvqba0","pricing_plan_id":"cebpf4jnsgd1na2vs0mg"},{"bike_id":"622ddbb4-17a9-4bb9-b906-39efe187d00b","system_id":"levelo_inurba_marseille","lat":43.29529,"lon":5.385581,"is_reserved":false,"is_disabled":false,"rental_uris":{"android":"levelo://app?vid=622ddbb4-17a9-4bb9-b906-39efe187d00b","ios":"levelo://app?vid=622ddbb4-17a9-4bb9-b906-39efe187d00b"},"vehicle_type_id":"4","last_reported":1707944808,"current_range_meters":18400,"station_id":"ce4bgih2rcd13ifvqba0","pricing_plan_id":"cebpf4jnsgd1na2vs0mg"},{"bike_id":"b83b29fa-0664-4eef-b136-180288f138b2","system_id":"levelo_inurba_marseille","lat":43.290779,"lon":5.371482,"is_reserved":false,"is_disabled":false,"rental_uris":{"android":"levelo://app?vid=b83b29fa-0664-4eef-b136-180288f138b2","ios":"levelo://app?vid=b83b29fa-0664-4eef-b136-180288f138b2"},"vehicle_type_id":"4","last_reported":1707944808,"current_range_meters":22400,"station_id":"ce4bh5p2rcd13ifvqe4g","pricing_plan_id":"cebpf4jnsgd1na2vs0mg"},{"bike_id":"ea1bed28-b8e4-4be5-9b25-151f39b31d56","system_id":"levelo_inurba_marseille","lat":43.302008,"lon":5.394694,"is_reserved":false,"is_disabled":false,"rental_uris":{"android":"levelo://app?vid=ea1bed28-b8e4-4be5-9b25-151f39b31d56","ios":"levelo://app?vid=ea1bed28-b8e4-4be5-9b25-151f39b31d56"},"vehicle_type_id":"4","last_reported":1707944808,"current_range_meters":24000,"station_id":"ce4bh0p2rcd13ifvqd70","pricing_plan_id":"cebpf4jnsgd1na2vs0mg"},{"bike_id":"061fe64c-0263-4719-8ca5-baced9841ff2","system_id":"levelo_inurba_marseille","lat":43.302008,"lon":5.394694,"is_reserved":false,"is_disabled":false,"rental_uris":{"android":"levelo://app?vid=061fe64c-0263-4719-8ca5-baced9841ff2","ios":"levelo://app?vid=061fe64c-0263-4719-8ca5-baced9841ff2"},"vehicle_type_id":"4","last_reported":1707944808,"current_range_meters":13600,"station_id":"ce4bh0p2rcd13ifvqd70","pricing_plan_id":"cebpf4jnsgd1na2vs0mg"},{"bike_id":"84d6ce76-c2b0-463b-9b5e-54771f201e96","system_id":"levelo_inurba_marseille","lat":43.311722,"lon":5.387247,"is_reserved":false,"is_disabled":false,"rental_uris":{"android":"levelo://app?vid=84d6ce76-c2b0-463b-9b5e-54771f201e96","ios":"levelo://app?vid=84d6ce76-c2b0-463b-9b5e-54771f201e96"},"vehicle_type_id":"4","last_reported":1707944808,"current_range_meters":10000,"station_id":"ce4bgv12rcd13ifvqcp0","pricing_plan_id":"cebpf4jnsgd1na2vs0mg"},{"bike_id":"93d5c59a-9c2b-4efe-a9ac-500decaaba10","system_id":"levelo_inurba_marseille","lat":43.290631,"lon":5.359244,"is_reserved":false,"is_disabled":false,"rental_uris":{"android":"levelo://app?vid=93d5c59a-9c2b-4efe-a9ac-500decaaba10","ios":"levelo://app?vid=93d5c59a-9c2b-4efe-a9ac-500decaaba10"},"vehicle_type_id":"4","last_reported":1707944808,"current_range_meters":12000,"station_id":"ce4bha92rcd13ifvqeg0","pricing_plan_id":"cebpf4jnsgd1na2vs0mg"},{"bike_id":"4d40184a-8776-49ce-b459-1f4f5090d458","system_id":"levelo_inurba_marseille","lat":43.290631,"lon":5.359244,"is_reserved":false,"is_disabled":false,"rental_uris":{"android":"levelo://app?vid=4d40184a-8776-49ce-b459-1f4f5090d458","ios":"levelo://app?vid=4d40184a-8776-49ce-b459-1f4f5090d458"},"vehicle_type_id":"4","last_reported":1707944808,"current_range_meters":31200,"station_id":"ce4bha92rcd13ifvqeg0","pricing_plan_id":"cebpf4jnsgd1na2vs0mg"},{"bike_id":"cc8f68c8-09c2-4cd5-a5f3-7dcc0283f10e","system_id":"levelo_inurba_marseille","lat":43.290631,"lon":5.359244,"is_reserved":false,"is_disabled":false,"rental_uris":{"android":"levelo://app?vid=cc8f68c8-09c2-4cd5-a5f3-7dcc0283f10e","ios":"levelo://app?vid=cc8f68c8-09c2-4cd5-a5f3-7dcc0283f10e"},"vehicle_type_id":"4","last_reported":1707944808,"current_range_meters":6400,"station_id":"ce4bha92rcd13ifvqeg0","pricing_plan_id":"cebpf4jnsgd1na2vs0mg"},{"bike_id":"40f4f3bd-40ae-442f-8112-b30372694f07","system_id":"levelo_inurba_marseille","lat":43.2943,"lon":5.3863,"is_reserved":false,"is_disabled":false,"rental_uris":{"android":"levelo://app?vid=40f4f3bd-40ae-442f-8112-b30372694f07","ios":"levelo://app?vid=40f4f3bd-40ae-442f-8112-b30372694f07"},"vehicle_type_id":"4","last_reported":1707944808,"current_range_meters":28800,"station_id":"ce4bh2h2rcd13ifvqdh0","pricing_plan_id":"cebpf4jnsgd1na2vs0mg"},{"bike_id":"58718ff2-9d09-4464-9116-02ff55fb3365","system_id":"levelo_inurba_marseille","lat":43.294153,"lon":5.386305,"is_reserved":false,"is_disabled":false,"rental_uris":{"android":"levelo://app?vid=58718ff2-9d09-4464-9116-02ff55fb3365","ios":"levelo://app?vid=58718ff2-9d09-4464-9116-02ff55fb3365"},"vehicle_type_id":"4","last_reported":1707944808,"current_range_meters":26800,"station_id":"ce4bh2h2rcd13ifvqdh0","pricing_plan_id":"cebpf4jnsgd1na2vs0mg"},{"bike_id":"0db5df06-2171-4e2f-beaf-6c0e9b442660","system_id":"levelo_inurba_marseille","lat":43.29424,"lon":5.3862,"is_reserved":false,"is_disabled":false,"rental_uris":{"android":"levelo://app?vid=0db5df06-2171-4e2f-beaf-6c0e9b442660","ios":"levelo://app?vid=0db5df06-2171-4e2f-beaf-6c0e9b442660"},"vehicle_type_id":"4","last_reported":1707944808,"current_range_meters":1600,"station_id":"ce4bh2h2rcd13ifvqdh0","pricing_plan_id":"cebpf4jnsgd1na2vs0mg"},{"bike_id":"2454b331-47c4-45e8-85ab-611d47c4d43b","system_id":"levelo_inurba_marseille","lat":43.294153,"lon":5.386305,"is_reserved":false,"is_disabled":false,"rental_uris":{"android":"levelo://app?vid=2454b331-47c4-45e8-85ab-611d47c4d43b","ios":"levelo://app?vid=2454b331-47c4-45e8-85ab-611d47c4d43b"},"vehicle_type_id":"4","last_reported":1707944808,"current_range_meters":20800,"station_id":"ce4bh2h2rcd13ifvqdh0","pricing_plan_id":"cebpf4jnsgd1na2vs0mg"},{"bike_id":"f028c85f-e77d-4c93-acec-550540c8bd8c","system_id":"levelo_inurba_marseille","lat":43.294153,"lon":5.386305,"is_reserved":false,"is_disabled":false,"rental_uris":{"android":"levelo://app?vid=f028c85f-e77d-4c93-acec-550540c8bd8c","ios":"levelo://app?vid=f028c85f-e77d-4c93-acec-550540c8bd8c"},"vehicle_type_id":"4","last_reported":1707944808,"current_range_meters":800,"station_id":"ce4bh2h2rcd13ifvqdh0","pricing_plan_id":"cebpf4jnsgd1na2vs0mg"},{"bike_id":"460d3b23-4231-452b-a1f1-08eaa1a9121f","system_id":"levelo_inurba_marseille","lat":43.2942,"lon":5.38621,"is_reserved":false,"is_disabled":false,"rental_uris":{"android":"levelo://app?vid=460d3b23-4231-452b-a1f1-08eaa1a9121f","ios":"levelo://app?vid=460d3b23-4231-452b-a1f1-08eaa1a9121f"},"vehicle_type_id":"4","last_reported":1707944808,"current_range_meters":29600,"station_id":"ce4bh2h2rcd13ifvqdh0","pricing_plan_id":"cebpf4jnsgd1na2vs0mg"},{"bike_id":"ccfe65a9-1bf5-414f-9ad9-fdbe6237d292","system_id":"levelo_inurba_marseille","lat":43.29419,"lon":5.3862,"is_reserved":false,"is_disabled":false,"rental_uris":{"android":"levelo://app?vid=ccfe65a9-1bf5-414f-9ad9-fdbe6237d292","ios":"levelo://app?vid=ccfe65a9-1bf5-414f-9ad9-fdbe6237d292"},"vehicle_type_id":"4","last_reported":1707944808,"current_range_meters":3200,"station_id":"ce4bh2h2rcd13ifvqdh0","pricing_plan_id":"cebpf4jnsgd1na2vs0mg"},{"bike_id":"69937058-8b67-4961-a590-543672134ec3","system_id":"levelo_inurba_marseille","lat":43.29419,"lon":5.38621,"is_reserved":false,"is_disabled":false,"rental_uris":{"android":"levelo://app?vid=69937058-8b67-4961-a590-543672134ec3","ios":"levelo://app?vid=69937058-8b67-4961-a590-543672134ec3"},"vehicle_type_id":"4","last_reported":1707944808,"current_range_meters":4400,"station_id":"ce4bh2h2rcd13ifvqdh0","pricing_plan_id":"cebpf4jnsgd1na2vs0mg"},{"bike_id":"7caedcb6-bb2a-4708-b8c6-522e474705f5","system_id":"levelo_inurba_marseille","lat":43.294153,"lon":5.386305,"is_reserved":false,"is_disabled":false,"rental_uris":{"android":"levelo://app?vid=7caedcb6-bb2a-4708-b8c6-522e474705f5","ios":"levelo://app?vid=7caedcb6-bb2a-4708-b8c6-522e474705f5"},"vehicle_type_id":"4","last_reported":1707944808,"current_range_meters":2000,"station_id":"ce4bh2h2rcd13ifvqdh0","pricing_plan_id":"cebpf4jnsgd1na2vs0mg"},{"bike_id":"26782a59-3d70-44a6-aa3b-33095ac8744d","system_id":"levelo_inurba_marseille","lat":43.294153,"lon":5.386305,"is_reserved":false,"is_disabled":false,"rental_uris":{"android":"levelo://app?vid=26782a59-3d70-44a6-aa3b-33095ac8744d","ios":"levelo://app?vid=26782a59-3d70-44a6-aa3b-33095ac8744d"},"vehicle_type_id":"4","last_reported":1707944808,"current_range_meters":15200,"station_id":"ce4bh2h2rcd13ifvqdh0","pricing_plan_id":"cebpf4jnsgd1na2vs0mg"},{"bike_id":"87c0cb56-74ae-4221-918e-c00c73fc88cd","system_id":"levelo_inurba_marseille","lat":43.29422,"lon":5.3863,"is_reserved":false,"is_disabled":false,"rental_uris":{"android":"levelo://app?vid=87c0cb56-74ae-4221-918e-c00c73fc88cd","ios":"levelo://app?vid=87c0cb56-74ae-4221-918e-c00c73fc88cd"},"vehicle_type_id":"4","last_reported":1707944808,"current_range_meters":7600,"station_id":"ce4bh2h2rcd13ifvqdh0","pricing_plan_id":"cebpf4jnsgd1na2vs0mg"},{"bike_id":"9d3f9f4e-c5a1-4890-8f46-48cf8e699ac6","system_id":"levelo_inurba_marseille","lat":43.29417,"lon":5.38621,"is_reserved":false,"is_disabled":false,"rental_uris":{"android":"levelo://app?vid=9d3f9f4e-c5a1-4890-8f46-48cf8e699ac6","ios":"levelo://app?vid=9d3f9f4e-c5a1-4890-8f46-48cf8e699ac6"},"vehicle_type_id":"4","last_reported":1707944808,"current_range_meters":15600,"station_id":"ce4bh2h2rcd13ifvqdh0","pricing_plan_id":"cebpf4jnsgd1na2vs0mg"},{"bike_id":"de26cbec-753a-47b1-ad13-d80ddc04d5e4","system_id":"levelo_inurba_marseille","lat":43.290319,"lon":5.375732,"is_reserved":false,"is_disabled":false,"rental_uris":{"android":"levelo://app?vid=de26cbec-753a-47b1-ad13-d80ddc04d5e4","ios":"levelo://app?vid=de26cbec-753a-47b1-ad13-d80ddc04d5e4"},"vehicle_type_id":"4","last_reported":1707944808,"current_range_meters":18800,"station_id":"ce4bh692rcd13ifvqe90","pricing_plan_id":"cebpf4jnsgd1na2vs0mg"},{"bike_id":"a8269514-aa23-40c8-8e7d-f28d4b9e60f1","system_id":"levelo_inurba_marseille","lat":43.29419,"lon":5.38626,"is_reserved":false,"is_disabled":false,"rental_uris":{"android":"levelo://app?vid=a8269514-aa23-40c8-8e7d-f28d4b9e60f1","ios":"levelo://app?vid=a8269514-aa23-40c8-8e7d-f28d4b9e60f1"},"vehicle_type_id":"4","last_reported":1707944808,"current_range_meters":31200,"station_id":"ce4bh2h2rcd13ifvqdh0","pricing_plan_id":"cebpf4jnsgd1na2vs0mg"},{"bike_id":"2942126c-8d2c-4be4-9656-4e0e2b6dc8ef","system_id":"levelo_inurba_marseille","lat":43.29416,"lon":5.38622,"is_reserved":false,"is_disabled":false,"rental_uris":{"android":"levelo://app?vid=2942126c-8d2c-4be4-9656-4e0e2b6dc8ef","ios":"levelo://app?vid=2942126c-8d2c-4be4-9656-4e0e2b6dc8ef"},"vehicle_type_id":"4","last_reported":1707944808,"current_range_meters":15200,"station_id":"ce4bh2h2rcd13ifvqdh0","pricing_plan_id":"cebpf4jnsgd1na2vs0mg"},{"bike_id":"a9173e2a-78c0-40f3-bbf4-d203f4e518aa","system_id":"levelo_inurba_marseille","lat":43.29418,"lon":5.38626,"is_reserved":false,"is_disabled":false,"rental_uris":{"android":"levelo://app?vid=a9173e2a-78c0-40f3-bbf4-d203f4e518aa","ios":"levelo://app?vid=a9173e2a-78c0-40f3-bbf4-d203f4e518aa"},"vehicle_type_id":"4","last_reported":1707944808,"current_range_meters":1600,"station_id":"ce4bh2h2rcd13ifvqdh0","pricing_plan_id":"cebpf4jnsgd1na2vs0mg"},{"bike_id":"996097f3-97f2-4a21-ba15-0dd2844ab751","system_id":"levelo_inurba_marseille","lat":43.2942,"lon":5.3863,"is_reserved":false,"is_disabled":false,"rental_uris":{"android":"levelo://app?vid=996097f3-97f2-4a21-ba15-0dd2844ab751","ios":"levelo://app?vid=996097f3-97f2-4a21-ba15-0dd2844ab751"},"vehicle_type_id":"4","last_reported":1707944808,"current_range_meters":2800,"station_id":"ce4bh2h2rcd13ifvqdh0","pricing_plan_id":"cebpf4jnsgd1na2vs0mg"},{"bike_id":"a3cd30c4-81e2-4842-a798-7d6b9d00b05b","system_id":"levelo_inurba_marseille","lat":43.29418,"lon":5.38627,"is_reserved":false,"is_disabled":false,"rental_uris":{"android":"levelo://app?vid=a3cd30c4-81e2-4842-a798-7d6b9d00b05b","ios":"levelo://app?vid=a3cd30c4-81e2-4842-a798-7d6b9d00b05b"},"vehicle_type_id":"4","last_reported":1707944808,"current_range_meters":30800,"station_id":"ce4bh2h2rcd13ifvqdh0","pricing_plan_id":"cebpf4jnsgd1na2vs0mg"},{"bike_id":"ef10e2bd-ede8-4106-972c-d260e3ac7696","system_id":"levelo_inurba_marseille","lat":43.289184,"lon":5.366408,"is_reserved":false,"is_disabled":false,"rental_uris":{"android":"levelo://app?vid=ef10e2bd-ede8-4106-972c-d260e3ac7696","ios":"levelo://app?vid=ef10e2bd-ede8-4106-972c-d260e3ac7696"},"vehicle_type_id":"4","last_reported":1707944808,"current_range_meters":16800,"station_id":"ce4bhap2rcd13ifvqek0","pricing_plan_id":"cebpf4jnsgd1na2vs0mg"},{"bike_id":"9a404653-7a94-4708-a0db-721269989304","system_id":"levelo_inurba_marseille","lat":43.29416,"lon":5.38624,"is_reserved":false,"is_disabled":false,"rental_uris":{"android":"levelo://app?vid=9a404653-7a94-4708-a0db-721269989304","ios":"levelo://app?vid=9a404653-7a94-4708-a0db-721269989304"},"vehicle_type_id":"4","last_reported":1707944808,"current_range_meters":2000,"station_id":"ce4bh2h2rcd13ifvqdh0","pricing_plan_id":"cebpf4jnsgd1na2vs0mg"},{"bike_id":"4488c176-69b8-48cf-b12e-0fd5048df858","system_id":"levelo_inurba_marseille","lat":43.29421,"lon":5.38635,"is_reserved":false,"is_disabled":false,"rental_uris":{"android":"levelo://app?vid=4488c176-69b8-48cf-b12e-0fd5048df858","ios":"levelo://app?vid=4488c176-69b8-48cf-b12e-0fd5048df858"},"vehicle_type_id":"4","last_reported":1707944808,"current_range_meters":4400,"station_id":"ce4bh2h2rcd13ifvqdh0","pricing_plan_id":"cebpf4jnsgd1na2vs0mg"},{"bike_id":"1ab5f9ec-5d58-49c9-a0b2-acf3cdeb125b","system_id":"levelo_inurba_marseille","lat":43.29415,"lon":5.38627,"is_reserved":false,"is_disabled":false,"rental_uris":{"android":"levelo://app?vid=1ab5f9ec-5d58-49c9-a0b2-acf3cdeb125b","ios":"levelo://app?vid=1ab5f9ec-5d58-49c9-a0b2-acf3cdeb125b"},"vehicle_type_id":"4","last_reported":1707944808,"current_range_meters":5200,"station_id":"ce4bh2h2rcd13ifvqdh0","pricing_plan_id":"cebpf4jnsgd1na2vs0mg"},{"bike_id":"7121fc7d-0244-425a-a234-db20755b8b18","system_id":"levelo_inurba_marseille","lat":43.289184,"lon":5.366408,"is_reserved":false,"is_disabled":false,"rental_uris":{"android":"levelo://app?vid=7121fc7d-0244-425a-a234-db20755b8b18","ios":"levelo://app?vid=7121fc7d-0244-425a-a234-db20755b8b18"},"vehicle_type_id":"4","last_reported":1707944808,"current_range_meters":11200,"station_id":"ce4bhap2rcd13ifvqek0","pricing_plan_id":"cebpf4jnsgd1na2vs0mg"},{"bike_id":"d73e0e8c-c783-4ea4-8038-ba95b3e1820d","system_id":"levelo_inurba_marseille","lat":43.289184,"lon":5.366408,"is_reserved":false,"is_disabled":false,"rental_uris":{"android":"levelo://app?vid=d73e0e8c-c783-4ea4-8038-ba95b3e1820d","ios":"levelo://app?vid=d73e0e8c-c783-4ea4-8038-ba95b3e1820d"},"vehicle_type_id":"4","last_reported":1707944808,"current_range_meters":11600,"station_id":"ce4bhap2rcd13ifvqek0","pricing_plan_id":"cebpf4jnsgd1na2vs0mg"},{"bike_id":"e53d7e56-4c9a-4808-8e6b-8f4a105ce071","system_id":"levelo_inurba_marseille","lat":43.29415,"lon":5.38632,"is_reserved":false,"is_disabled":false,"rental_uris":{"android":"levelo://app?vid=e53d7e56-4c9a-4808-8e6b-8f4a105ce071","ios":"levelo://app?vid=e53d7e56-4c9a-4808-8e6b-8f4a105ce071"},"vehicle_type_id":"4","last_reported":1707944808,"current_range_meters":22000,"station_id":"ce4bh2h2rcd13ifvqdh0","pricing_plan_id":"cebpf4jnsgd1na2vs0mg"},{"bike_id":"83d812d7-fb38-49b2-9575-70e712dffd30","system_id":"levelo_inurba_marseille","lat":43.289184,"lon":5.366408,"is_reserved":false,"is_disabled":false,"rental_uris":{"android":"levelo://app?vid=83d812d7-fb38-49b2-9575-70e712dffd30","ios":"levelo://app?vid=83d812d7-fb38-49b2-9575-70e712dffd30"},"vehicle_type_id":"4","last_reported":1707944808,"current_range_meters":3200,"station_id":"ce4bhap2rcd13ifvqek0","pricing_plan_id":"cebpf4jnsgd1na2vs0mg"},{"bike_id":"f4415eee-f6f9-4af4-bca1-7494d5b2b1ce","system_id":"levelo_inurba_marseille","lat":43.29413,"lon":5.38632,"is_reserved":false,"is_disabled":false,"rental_uris":{"android":"levelo://app?vid=f4415eee-f6f9-4af4-bca1-7494d5b2b1ce","ios":"levelo://app?vid=f4415eee-f6f9-4af4-bca1-7494d5b2b1ce"},"vehicle_type_id":"4","last_reported":1707944808,"current_range_meters":28000,"station_id":"ce4bh2h2rcd13ifvqdh0","pricing_plan_id":"cebpf4jnsgd1na2vs0mg"},{"bike_id":"0a91ee48-31bf-4993-9037-8fcddaf1e9b0","system_id":"levelo_inurba_marseille","lat":43.28937,"lon":5.366386,"is_reserved":false,"is_disabled":false,"rental_uris":{"android":"levelo://app?vid=0a91ee48-31bf-4993-9037-8fcddaf1e9b0","ios":"levelo://app?vid=0a91ee48-31bf-4993-9037-8fcddaf1e9b0"},"vehicle_type_id":"4","last_reported":1707944808,"current_range_meters":31200,"station_id":"ce4bhap2rcd13ifvqek0","pricing_plan_id":"cebpf4jnsgd1na2vs0mg"},{"bike_id":"01bcc8c8-a516-4958-9b53-b5b8d71b29e9","system_id":"levelo_inurba_marseille","lat":43.28937,"lon":5.36637,"is_reserved":false,"is_disabled":false,"rental_uris":{"android":"levelo://app?vid=01bcc8c8-a516-4958-9b53-b5b8d71b29e9","ios":"levelo://app?vid=01bcc8c8-a516-4958-9b53-b5b8d71b29e9"},"vehicle_type_id":"4","last_reported":1707944808,"current_range_meters":3200,"station_id":"ce4bhap2rcd13ifvqek0","pricing_plan_id":"cebpf4jnsgd1na2vs0mg"},{"bike_id":"cfed2448-9a53-48e1-ab94-2bb6f5504a4e","system_id":"levelo_inurba_marseille","lat":43.28936,"lon":5.36639,"is_reserved":false,"is_disabled":false,"rental_uris":{"android":"levelo://app?vid=cfed2448-9a53-48e1-ab94-2bb6f5504a4e","ios":"levelo://app?vid=cfed2448-9a53-48e1-ab94-2bb6f5504a4e"},"vehicle_type_id":"4","last_reported":1707944808,"current_range_meters":4000,"station_id":"ce4bhap2rcd13ifvqek0","pricing_plan_id":"cebpf4jnsgd1na2vs0mg"},{"bike_id":"55fc4e34-0003-4415-9706-191446fe4f0f","system_id":"levelo_inurba_marseille","lat":43.289184,"lon":5.366408,"is_reserved":false,"is_disabled":false,"rental_uris":{"android":"levelo://app?vid=55fc4e34-0003-4415-9706-191446fe4f0f","ios":"levelo://app?vid=55fc4e34-0003-4415-9706-191446fe4f0f"},"vehicle_type_id":"4","last_reported":1707944808,"current_range_meters":10800,"station_id":"ce4bhap2rcd13ifvqek0","pricing_plan_id":"cebpf4jnsgd1na2vs0mg"},{"bike_id":"d66b04f5-0b1b-4ecd-a93f-d4f7dd7e8be2","system_id":"levelo_inurba_marseille","lat":43.28932,"lon":5.3663,"is_reserved":false,"is_disabled":false,"rental_uris":{"android":"levelo://app?vid=d66b04f5-0b1b-4ecd-a93f-d4f7dd7e8be2","ios":"levelo://app?vid=d66b04f5-0b1b-4ecd-a93f-d4f7dd7e8be2"},"vehicle_type_id":"4","last_reported":1707944808,"current_range_meters":31200,"station_id":"ce4bhap2rcd13ifvqek0","pricing_plan_id":"cebpf4jnsgd1na2vs0mg"},{"bike_id":"4dfb38b3-eaa7-4ed8-949b-a2c6469a88a1","system_id":"levelo_inurba_marseille","lat":43.289468,"lon":5.363719,"is_reserved":false,"is_disabled":false,"rental_uris":{"android":"levelo://app?vid=4dfb38b3-eaa7-4ed8-949b-a2c6469a88a1","ios":"levelo://app?vid=4dfb38b3-eaa7-4ed8-949b-a2c6469a88a1"},"vehicle_type_id":"4","last_reported":1707944808,"current_range_meters":23200,"station_id":"ce4bhc92rcd13ifvqetg","pricing_plan_id":"cebpf4jnsgd1na2vs0mg"},{"bike_id":"8cd7efb9-35a6-4d88-aa0f-247de35dfa13","system_id":"levelo_inurba_marseille","lat":43.289468,"lon":5.363719,"is_reserved":false,"is_disabled":false,"rental_uris":{"android":"levelo://app?vid=8cd7efb9-35a6-4d88-aa0f-247de35dfa13","ios":"levelo://app?vid=8cd7efb9-35a6-4d88-aa0f-247de35dfa13"},"vehicle_type_id":"4","last_reported":1707944808,"current_range_meters":30000,"station_id":"ce4bhc92rcd13ifvqetg","pricing_plan_id":"cebpf4jnsgd1na2vs0mg"},{"bike_id":"5e3a935a-b822-4bf0-8d37-319855b1107d","system_id":"levelo_inurba_marseille","lat":43.28929,"lon":5.36388,"is_reserved":false,"is_disabled":false,"rental_uris":{"android":"levelo://app?vid=5e3a935a-b822-4bf0-8d37-319855b1107d","ios":"levelo://app?vid=5e3a935a-b822-4bf0-8d37-319855b1107d"},"vehicle_type_id":"4","last_reported":1707944808,"current_range_meters":23200,"station_id":"ce4bhc92rcd13ifvqetg","pricing_plan_id":"cebpf4jnsgd1na2vs0mg"},{"bike_id":"c1d7864c-68cb-4605-82ba-5199caf08fb7","system_id":"levelo_inurba_marseille","lat":43.29265,"lon":5.38431,"is_reserved":false,"is_disabled":false,"rental_uris":{"android":"levelo://app?vid=c1d7864c-68cb-4605-82ba-5199caf08fb7","ios":"levelo://app?vid=c1d7864c-68cb-4605-82ba-5199caf08fb7"},"vehicle_type_id":"4","last_reported":1707944808,"current_range_meters":13600,"station_id":"ce4bh692rcd13ifvqea0","pricing_plan_id":"cebpf4jnsgd1na2vs0mg"},{"bike_id":"acfaaa17-ad2f-4594-8b64-97ec57a6cf6e","system_id":"levelo_inurba_marseille","lat":43.292642,"lon":5.384254,"is_reserved":false,"is_disabled":false,"rental_uris":{"android":"levelo://app?vid=acfaaa17-ad2f-4594-8b64-97ec57a6cf6e","ios":"levelo://app?vid=acfaaa17-ad2f-4594-8b64-97ec57a6cf6e"},"vehicle_type_id":"4","last_reported":1707944808,"current_range_meters":18800,"station_id":"ce4bh692rcd13ifvqea0","pricing_plan_id":"cebpf4jnsgd1na2vs0mg"},{"bike_id":"54865260-84e6-42f6-9364-bc24b1f983da","system_id":"levelo_inurba_marseille","lat":43.292642,"lon":5.384254,"is_reserved":false,"is_disabled":false,"rental_uris":{"android":"levelo://app?vid=54865260-84e6-42f6-9364-bc24b1f983da","ios":"levelo://app?vid=54865260-84e6-42f6-9364-bc24b1f983da"},"vehicle_type_id":"4","last_reported":1707944808,"current_range_meters":2400,"station_id":"ce4bh692rcd13ifvqea0","pricing_plan_id":"cebpf4jnsgd1na2vs0mg"},{"bike_id":"33a7de26-cb99-4044-a554-dc0b1eb5aa86","system_id":"levelo_inurba_marseille","lat":43.292642,"lon":5.384254,"is_reserved":false,"is_disabled":false,"rental_uris":{"android":"levelo://app?vid=33a7de26-cb99-4044-a554-dc0b1eb5aa86","ios":"levelo://app?vid=33a7de26-cb99-4044-a554-dc0b1eb5aa86"},"vehicle_type_id":"4","last_reported":1707944808,"current_range_meters":31200,"station_id":"ce4bh692rcd13ifvqea0","pricing_plan_id":"cebpf4jnsgd1na2vs0mg"},{"bike_id":"4f11a7e5-7e8d-467f-92c6-583a80d52f3d","system_id":"levelo_inurba_marseille","lat":43.292666,"lon":5.384418,"is_reserved":false,"is_disabled":false,"rental_uris":{"android":"levelo://app?vid=4f11a7e5-7e8d-467f-92c6-583a80d52f3d","ios":"levelo://app?vid=4f11a7e5-7e8d-467f-92c6-583a80d52f3d"},"vehicle_type_id":"4","last_reported":1707944808,"current_range_meters":26000,"station_id":"ce4bh692rcd13ifvqea0","pricing_plan_id":"cebpf4jnsgd1na2vs0mg"},{"bike_id":"8d0ea725-1fc5-447c-8668-a2ce56325666","system_id":"levelo_inurba_marseille","lat":43.292659,"lon":5.384407,"is_reserved":false,"is_disabled":false,"rental_uris":{"android":"levelo://app?vid=8d0ea725-1fc5-447c-8668-a2ce56325666","ios":"levelo://app?vid=8d0ea725-1fc5-447c-8668-a2ce56325666"},"vehicle_type_id":"4","last_reported":1707944808,"current_range_meters":2000,"station_id":"ce4bh692rcd13ifvqea0","pricing_plan_id":"cebpf4jnsgd1na2vs0mg"},{"bike_id":"30aa6696-2b61-4279-a711-a4ec0e0e55ec","system_id":"levelo_inurba_marseille","lat":43.29265,"lon":5.384389,"is_reserved":false,"is_disabled":false,"rental_uris":{"android":"levelo://app?vid=30aa6696-2b61-4279-a711-a4ec0e0e55ec","ios":"levelo://app?vid=30aa6696-2b61-4279-a711-a4ec0e0e55ec"},"vehicle_type_id":"4","last_reported":1707944808,"current_range_meters":16800,"station_id":"ce4bh692rcd13ifvqea0","pricing_plan_id":"cebpf4jnsgd1na2vs0mg"},{"bike_id":"372fa346-4c91-411a-be24-6ecd8972fd77","system_id":"levelo_inurba_marseille","lat":43.29264,"lon":5.38438,"is_reserved":false,"is_disabled":false,"rental_uris":{"android":"levelo://app?vid=372fa346-4c91-411a-be24-6ecd8972fd77","ios":"levelo://app?vid=372fa346-4c91-411a-be24-6ecd8972fd77"},"vehicle_type_id":"4","last_reported":1707944808,"current_range_meters":10400,"station_id":"ce4bh692rcd13ifvqea0","pricing_plan_id":"cebpf4jnsgd1na2vs0mg"},{"bike_id":"93db0ce8-e06c-4593-86d5-818782473920","system_id":"levelo_inurba_marseille","lat":43.29265,"lon":5.38441,"is_reserved":false,"is_disabled":false,"rental_uris":{"android":"levelo://app?vid=93db0ce8-e06c-4593-86d5-818782473920","ios":"levelo://app?vid=93db0ce8-e06c-4593-86d5-818782473920"},"vehicle_type_id":"4","last_reported":1707944808,"current_range_meters":5600,"station_id":"ce4bh692rcd13ifvqea0","pricing_plan_id":"cebpf4jnsgd1na2vs0mg"},{"bike_id":"92490e81-e0ab-4fda-9ed1-f8dc928f53ca","system_id":"levelo_inurba_marseille","lat":43.29262,"lon":5.38439,"is_reserved":false,"is_disabled":false,"rental_uris":{"android":"levelo://app?vid=92490e81-e0ab-4fda-9ed1-f8dc928f53ca","ios":"levelo://app?vid=92490e81-e0ab-4fda-9ed1-f8dc928f53ca"},"vehicle_type_id":"4","last_reported":1707944808,"current_range_meters":28000,"station_id":"ce4bh692rcd13ifvqea0","pricing_plan_id":"cebpf4jnsgd1na2vs0mg"},{"bike_id":"8e7519d8-cb4f-4849-b0b3-43a208dc5439","system_id":"levelo_inurba_marseille","lat":43.29263,"lon":5.38442,"is_reserved":false,"is_disabled":false,"rental_uris":{"android":"levelo://app?vid=8e7519d8-cb4f-4849-b0b3-43a208dc5439","ios":"levelo://app?vid=8e7519d8-cb4f-4849-b0b3-43a208dc5439"},"vehicle_type_id":"4","last_reported":1707944808,"current_range_meters":0,"station_id":"ce4bh692rcd13ifvqea0","pricing_plan_id":"cebpf4jnsgd1na2vs0mg"},{"bike_id":"e6f3bf0f-2711-454a-a9d4-a443318a108a","system_id":"levelo_inurba_marseille","lat":43.292618,"lon":5.384401,"is_reserved":false,"is_disabled":false,"rental_uris":{"android":"levelo://app?vid=e6f3bf0f-2711-454a-a9d4-a443318a108a","ios":"levelo://app?vid=e6f3bf0f-2711-454a-a9d4-a443318a108a"},"vehicle_type_id":"4","last_reported":1707944808,"current_range_meters":22800,"station_id":"ce4bh692rcd13ifvqea0","pricing_plan_id":"cebpf4jnsgd1na2vs0mg"},{"bike_id":"76b1076e-4378-4983-ac4b-a365bf674bb4","system_id":"levelo_inurba_marseille","lat":43.29258,"lon":5.38433,"is_reserved":false,"is_disabled":false,"rental_uris":{"android":"levelo://app?vid=76b1076e-4378-4983-ac4b-a365bf674bb4","ios":"levelo://app?vid=76b1076e-4378-4983-ac4b-a365bf674bb4"},"vehicle_type_id":"4","last_reported":1707944808,"current_range_meters":27200,"station_id":"ce4bh692rcd13ifvqea0","pricing_plan_id":"cebpf4jnsgd1na2vs0mg"},{"bike_id":"9db52fa8-5f94-40de-a7c8-4cf5a1e2a759","system_id":"levelo_inurba_marseille","lat":43.292642,"lon":5.384254,"is_reserved":false,"is_disabled":false,"rental_uris":{"android":"levelo://app?vid=9db52fa8-5f94-40de-a7c8-4cf5a1e2a759","ios":"levelo://app?vid=9db52fa8-5f94-40de-a7c8-4cf5a1e2a759"},"vehicle_type_id":"4","last_reported":1707944808,"current_range_meters":30000,"station_id":"ce4bh692rcd13ifvqea0","pricing_plan_id":"cebpf4jnsgd1na2vs0mg"},{"bike_id":"7c9ef091-31a6-4cde-a063-5c0307cd170a","system_id":"levelo_inurba_marseille","lat":43.292633,"lon":5.384457,"is_reserved":false,"is_disabled":false,"rental_uris":{"android":"levelo://app?vid=7c9ef091-31a6-4cde-a063-5c0307cd170a","ios":"levelo://app?vid=7c9ef091-31a6-4cde-a063-5c0307cd170a"},"vehicle_type_id":"4","last_reported":1707944808,"current_range_meters":31200,"station_id":"ce4bh692rcd13ifvqea0","pricing_plan_id":"cebpf4jnsgd1na2vs0mg"},{"bike_id":"05accc1b-4ef5-40ee-b38c-fbc3ccb5b53f","system_id":"levelo_inurba_marseille","lat":43.29261,"lon":5.38441,"is_reserved":false,"is_disabled":false,"rental_uris":{"android":"levelo://app?vid=05accc1b-4ef5-40ee-b38c-fbc3ccb5b53f","ios":"levelo://app?vid=05accc1b-4ef5-40ee-b38c-fbc3ccb5b53f"},"vehicle_type_id":"4","last_reported":1707944808,"current_range_meters":24000,"station_id":"ce4bh692rcd13ifvqea0","pricing_plan_id":"cebpf4jnsgd1na2vs0mg"},{"bike_id":"d53459e2-af05-478c-abfb-464591383c13","system_id":"levelo_inurba_marseille","lat":43.29255,"lon":5.38429,"is_reserved":false,"is_disabled":false,"rental_uris":{"android":"levelo://app?vid=d53459e2-af05-478c-abfb-464591383c13","ios":"levelo://app?vid=d53459e2-af05-478c-abfb-464591383c13"},"vehicle_type_id":"4","last_reported":1707944808,"current_range_meters":14800,"station_id":"ce4bh692rcd13ifvqea0","pricing_plan_id":"cebpf4jnsgd1na2vs0mg"},{"bike_id":"3f874c10-13bb-43f6-be6a-9f460d48f0d9","system_id":"levelo_inurba_marseille","lat":43.292642,"lon":5.384254,"is_reserved":false,"is_disabled":false,"rental_uris":{"android":"levelo://app?vid=3f874c10-13bb-43f6-be6a-9f460d48f0d9","ios":"levelo://app?vid=3f874c10-13bb-43f6-be6a-9f460d48f0d9"},"vehicle_type_id":"4","last_reported":1707944808,"current_range_meters":27600,"station_id":"ce4bh692rcd13ifvqea0","pricing_plan_id":"cebpf4jnsgd1na2vs0mg"},{"bike_id":"9aa2e0ad-4c14-457b-91ef-1be44568d927","system_id":"levelo_inurba_marseille","lat":43.29261,"lon":5.38444,"is_reserved":false,"is_disabled":false,"rental_uris":{"android":"levelo://app?vid=9aa2e0ad-4c14-457b-91ef-1be44568d927","ios":"levelo://app?vid=9aa2e0ad-4c14-457b-91ef-1be44568d927"},"vehicle_type_id":"4","last_reported":1707944808,"current_range_meters":8800,"station_id":"ce4bh692rcd13ifvqea0","pricing_plan_id":"cebpf4jnsgd1na2vs0mg"},{"bike_id":"50ccf2a7-5d2b-4920-ab10-89faea19351e","system_id":"levelo_inurba_marseille","lat":43.29258,"lon":5.38438,"is_reserved":false,"is_disabled":false,"rental_uris":{"android":"levelo://app?vid=50ccf2a7-5d2b-4920-ab10-89faea19351e","ios":"levelo://app?vid=50ccf2a7-5d2b-4920-ab10-89faea19351e"},"vehicle_type_id":"4","last_reported":1707944808,"current_range_meters":23200,"station_id":"ce4bh692rcd13ifvqea0","pricing_plan_id":"cebpf4jnsgd1na2vs0mg"},{"bike_id":"f5e488f4-a28b-4d9f-a743-bd2eda51ac5c","system_id":"levelo_inurba_marseille","lat":43.29261,"lon":5.38446,"is_reserved":false,"is_disabled":false,"rental_uris":{"android":"levelo://app?vid=f5e488f4-a28b-4d9f-a743-bd2eda51ac5c","ios":"levelo://app?vid=f5e488f4-a28b-4d9f-a743-bd2eda51ac5c"},"vehicle_type_id":"4","last_reported":1707944808,"current_range_meters":31200,"station_id":"ce4bh692rcd13ifvqea0","pricing_plan_id":"cebpf4jnsgd1na2vs0mg"},{"bike_id":"72a97e07-f017-41e0-914e-6fbc2ececa3c","system_id":"levelo_inurba_marseille","lat":43.292642,"lon":5.384254,"is_reserved":false,"is_disabled":false,"rental_uris":{"android":"levelo://app?vid=72a97e07-f017-41e0-914e-6fbc2ececa3c","ios":"levelo://app?vid=72a97e07-f017-41e0-914e-6fbc2ececa3c"},"vehicle_type_id":"4","last_reported":1707944808,"current_range_meters":14400,"station_id":"ce4bh692rcd13ifvqea0","pricing_plan_id":"cebpf4jnsgd1na2vs0mg"},{"bike_id":"bc3ecd03-c5f7-4be4-a1ac-d440ecfe5a77","system_id":"levelo_inurba_marseille","lat":43.29258,"lon":5.38442,"is_reserved":false,"is_disabled":false,"rental_uris":{"android":"levelo://app?vid=bc3ecd03-c5f7-4be4-a1ac-d440ecfe5a77","ios":"levelo://app?vid=bc3ecd03-c5f7-4be4-a1ac-d440ecfe5a77"},"vehicle_type_id":"4","last_reported":1707944808,"current_range_meters":9600,"station_id":"ce4bh692rcd13ifvqea0","pricing_plan_id":"cebpf4jnsgd1na2vs0mg"},{"bike_id":"1f9ce48a-0ad3-4054-a534-2b3938c6c80b","system_id":"levelo_inurba_marseille","lat":43.29256,"lon":5.38447,"is_reserved":false,"is_disabled":false,"rental_uris":{"android":"levelo://app?vid=1f9ce48a-0ad3-4054-a534-2b3938c6c80b","ios":"levelo://app?vid=1f9ce48a-0ad3-4054-a534-2b3938c6c80b"},"vehicle_type_id":"4","last_reported":1707944808,"current_range_meters":28000,"station_id":"ce4bh692rcd13ifvqea0","pricing_plan_id":"cebpf4jnsgd1na2vs0mg"},