{"last_updated":1751105403,"ttl":60,"version":"2.2","data":{"bikes":[{"bike_id":"3da29fb8-fc97-44c6-b9ac-31dd456b2fd4","system_id":"levelo_inurba_marseille","lat":43.33771,"lon":5.37424,"is_reserved":false,"is_disabled":true,"rental_uris":{"android":"levelo://app?vid=3da29fb8-fc97-44c6-b9ac-31dd456b2fd4","ios":"levelo://app?vid=3da29fb8-fc97-44c6-b9ac-31dd456b2fd4"},"vehicle_type_id":"4","last_reported":1751105403,"current_range_meters":0,"station_id":"","pricing_plan_id":"cebpf4jnsgd1na2vs0mg"},{"bike_id":"01861ad8-a8d7-4be6-816e-651927c87584","system_id":"levelo_inurba_marseille","lat":43.33751,"lon":5.37456,"is_reserved":false,"is_disabled":true,"rental_uris":{"android":"levelo://app?vid=01861ad8-a8d7-4be6-816e-651927c87584","ios":"levelo://app?vid=01861ad8-a8d7-4be6-816e-651927c87584"},"vehicle_type_id":"4","last_reported":1751105403,"current_range_meters":0,"station_id":"","pricing_plan_id":"cebpf4jnsgd1na2vs0mg"},{"bike_id":"77673b0f-fa8d-4a5f-802e-e3125964cb45","system_id":"levelo_inurba_marseille","lat":43.33094,"lon":5.36496,"is_reserved":false,"is_disabled":true,"rental_uris":{"android":"levelo://app?vid=77673b0f-fa8d-4a5f-802e-e3125964cb45","ios":"levelo://app?vid=77673b0f-fa8d-4a5f-802e-e3125964cb45"},"vehicle_type_id":"4","last_reported":1751105403,"current_range_meters":0,"station_id":"","pricing_plan_id":"cebpf4jnsgd1na2vs0mg"},{"bike_id":"6fc1790a-b6fc-4753-8b55-e7043db2dded","system_id":"levelo_inurba_marseille","lat":43.29306,"lon":5.37455,"is_reserved":false,"is_disabled":true,"rental_uris":{"android":"levelo://app?vid=6fc1790a-b6fc-4753-8b55-e7043db2dded","ios":"levelo://app?vid=6fc1790a-b6fc-4753-8b55-e7043db2dded"},"vehicle_type_id":"4","last_reported":1751105403,"current_range_meters":0,"station_id":"ce4bgi12rcd13ifvqb70","pricing_plan_id":"cebpf4jnsgd1na2vs0mg"},{"bike_id":"a57e65f2-424a-41c0-b7d1-b4ac8e2991bd","system_id":"levelo_inurba_marseille","lat":43.29793,"lon":5.38088,"is_reserved":false,"is_disabled":true,"rental_uris":{"android":"levelo://app?vid=a57e65f2-424a-41c0-b7d1-b4ac8e2991bd","ios":"levelo://app?vid=a57e65f2-424a-41c0-b7d1-b4ac8e2991bd"},"vehicle_type_id":"4","last_reported":1751105403,"current_range_meters":0,"station_id":"ce4bgip2rcd13ifvqbb0","pricing_plan_id":"cebpf4jnsgd1na2vs0mg"},{"bike_id":"92372e89-0e97-4422-8d10-36a3622d50e3","system_id":"levelo_inurba_marseille","lat":43.29891,"lon":5.38905,"is_reserved":false,"is_disabled":true,"rental_uris":{"android":"levelo://app?vid=92372e89-0e97-4422-8d10-36a3622d50e3","ios":"levelo://app?vid=92372e89-0e97-4422-8d10-36a3622d50e3"},"vehicle_type_id":"4","last_reported":1751105403,"current_range_meters":0,"station_id":"ce4bh392rcd13ifvqdl0","pricing_plan_id":"cebpf4jnsgd1na2vs0mg"},{"bike_id":"26779b6e-8626-433b-96fa-f3edf2bf8a7c","system_id":"levelo_inurba_marseille","lat":43.24995,"lon":5.38911,"is_reserved":false,"is_disabled":true,"rental_uris":{"android":"levelo://app?vid=26779b6e-8626-433b-96fa-f3edf2bf8a7c","ios":"levelo://app?vid=26779b6e-8626-433b-96fa-f3edf2bf8a7c"},"vehicle_type_id":"4","last_reported":1751105403,"current_range_meters":0,"station_id":"ce4bhgp2rcd13ifvqfd0","pricing_plan_id":"cebpf4jnsgd1na2vs0mg"},{"bike_id":"85072197-e9fe-4fc0-a926-3d1345b26b94","system_id":"levelo_inurba_marseille","lat":43.267846,"lon":5.394191,"is_reserved":false,"is_disabled":true,"rental_uris":{"android":"levelo://app?vid=85072197-e9fe-4fc0-a926-3d1345b26b94","ios":"levelo://app?vid=85072197-e9fe-4fc0-a926-3d1345b26b94"},"vehicle_type_id":"4","last_reported":1751105403,"current_range_meters":0,"station_id":"ce4bhh12rcd13ifvqfg0","pricing_plan_id":"cebpf4jnsgd1na2vs0mg"},{"bike_id":"7f243616-0094-460c-9095-52547fbc8230","system_id":"levelo_inurba_marseille","lat":43.25583,"lon":5.38236,"is_reserved":false,"is_disabled":true,"rental_uris":{"android":"levelo://app?vid=7f243616-0094-460c-9095-52547fbc8230","ios":"levelo://app?vid=7f243616-0094-460c-9095-52547fbc8230"},"vehicle_type_id":"4","last_reported":1751105403,"current_range_meters":0,"station_id":"ce4bhih2rcd13ifvqfs0","pricing_plan_id":"cebpf4jnsgd1na2vs0mg"},{"bike_id":"6c62fe15-b37d-45e6-866e-a8f84312c5b8","system_id":"levelo_inurba_marseille","lat":43.284856,"lon":5.385639,"is_reserved":false,"is_disabled":true,"rental_uris":{"android":"levelo://app?vid=6c62fe15-b37d-45e6-866e-a8f84312c5b8","ios":"levelo://app?vid=6c62fe15-b37d-45e6-866e-a8f84312c5b8"},"vehicle_type_id":"4","last_reported":1751105403,"current_range_meters":0,"station_id":"ce4bhnp2rcd13ifvqgvg","pricing_plan_id":"cebpf4jnsgd1na2vs0mg"},{"bike_id":"c8ce0351-fe68-40b1-beb5-45d8ee0eed11","system_id":"levelo_inurba_marseille","lat":43.30379,"lon":5.42499,"is_reserved":false,"is_disabled":true,"rental_uris":{"android":"levelo://app?vid=c8ce0351-fe68-40b1-beb5-45d8ee0eed11","ios":"levelo://app?vid=c8ce0351-fe68-40b1-beb5-45d8ee0eed11"},"vehicle_type_id":"4","last_reported":1751105403,"current_range_meters":0,"station_id":"ce4bhoh2rcd13ifvqh6g","pricing_plan_id":"cebpf4jnsgd1na2vs0mg"},{"bike_id":"fde70215-ce15-4258-a0bf-27a465a43a0d","system_id":"levelo_inurba_marseille","lat":43.3211,"lon":5.36793,"is_reserved":false,"is_disabled":true,"rental_uris":{"android":"levelo://app?vid=fde70215-ce15-4258-a0bf-27a465a43a0d","ios":"levelo://app?vid=fde70215-ce15-4258-a0bf-27a465a43a0d"},"vehicle_type_id":"4","last_reported":1751105403,"current_range_meters":0,"station_id":"ce4bhrh2rcd13ifvqhug","pricing_plan_id":"cebpf4jnsgd1na2vs0mg"},{"bike_id":"999dea79-4cb5-441c-917f-cae0da3de961","system_id":"levelo_inurba_marseille","lat":43.22932,"lon":5.35366,"is_reserved":false,"is_disabled":true,"rental_uris":{"android":"levelo://app?vid=999dea79-4cb5-441c-917f-cae0da3de961","ios":"levelo://app?vid=999dea79-4cb5-441c-917f-cae0da3de961"},"vehicle_type_id":"4","last_reported":1751105403,"current_range_meters":0,"station_id":"cpo3532slgdg3j2ikp40","pricing_plan_id":"cebpf4jnsgd1na2vs0mg"},{"bike_id":"a0aa7f48-2c07-453d-845a-eaeace62b973","system_id":"levelo_inurba_marseille","lat":43.31149,"lon":5.37761,"is_reserved":false,"is_disabled":true,"rental_uris":{"android":"levelo://app?vid=a0aa7f48-2c07-453d-845a-eaeace62b973","ios":"levelo://app?vid=a0aa7f48-2c07-453d-845a-eaeace62b973"},"vehicle_type_id":"4","last_reported":1751105403,"current_range_meters":400,"station_id":"ce4bgt92rcd13ifvqcg0","pricing_plan_id":"cebpf4jnsgd1na2vs0mg"},{"bike_id":"ade5bff2-c158-446f-9cfc-cb6b84c2c31b","system_id":"levelo_inurba_marseille","lat":43.28714,"lon":5.39978,"is_reserved":false,"is_disabled":true,"rental_uris":{"android":"levelo://app?vid=ade5bff2-c158-446f-9cfc-cb6b84c2c31b","ios":"levelo://app?vid=ade5bff2-c158-446f-9cfc-cb6b84c2c31b"},"vehicle_type_id":"4","last_reported":1751105403,"current_range_meters":400,"station_id":"ce4bho92rcd13ifvqh3g","pricing_plan_id":"cebpf4jnsgd1na2vs0mg"},{"bike_id":"92d3bb11-4cf3-47e6-bc0f-ff80eea58ad1","system_id":"levelo_inurba_marseille","lat":43.3038,"lon":5.42501,"is_reserved":false,"is_disabled":true,"rental_uris":{"android":"levelo://app?vid=92d3bb11-4cf3-47e6-bc0f-ff80eea58ad1","ios":"levelo://app?vid=92d3bb11-4cf3-47e6-bc0f-ff80eea58ad1"},"vehicle_type_id":"4","last_reported":1751105403,"current_range_meters":400,"station_id":"ce4bhoh2rcd13ifvqh6g","pricing_plan_id":"cebpf4jnsgd1na2vs0mg"},{"bike_id":"2e4b3190-9cc9-47cf-87ca-5dc482ba5b0d","system_id":"levelo_inurba_marseille","lat":43.23159,"lon":5.43692,"is_reserved":false,"is_disabled":true,"rental_uris":{"android":"levelo://app?vid=2e4b3190-9cc9-47cf-87ca-5dc482ba5b0d","ios":"levelo://app?vid=2e4b3190-9cc9-47cf-87ca-5dc482ba5b0d"},"vehicle_type_id":"4","last_reported":1751105403,"current_range_meters":800,"station_id":"ce4bhmp2rcd13ifvqgog","pricing_plan_id":"cebpf4jnsgd1na2vs0mg"},{"bike_id":"f47876d7-9c85-474e-92c5-7a242e08b67c","system_id":"levelo_inurba_marseille","lat":43.30549,"lon":5.37572,"is_reserved":false,"is_disabled":true,"rental_uris":{"android":"levelo://app?vid=f47876d7-9c85-474e-92c5-7a242e08b67c","ios":"levelo://app?vid=f47876d7-9c85-474e-92c5-7a242e08b67c"},"vehicle_type_id":"4","last_reported":1751105403,"current_range_meters":1200,"station_id":"","pricing_plan_id":"cebpf4jnsgd1na2vs0mg"},{"bike_id":"e3b63a03-8dd9-4316-9a7d-dc07802f3daa","system_id":"levelo_inurba_marseille","lat":43.29288,"lon":5.4013,"is_reserved":false,"is_disabled":true,"rental_uris":{"android":"levelo://app?vid=e3b63a03-8dd9-4316-9a7d-dc07802f3daa","ios":"levelo://app?vid=e3b63a03-8dd9-4316-9a7d-dc07802f3daa"},"vehicle_type_id":"4","last_reported":1751105403,"current_range_meters":1600,"station_id":"ce4bh312rcd13ifvqdk0","pricing_plan_id":"cebpf4jnsgd1na2vs0mg"},{"bike_id":"599a8a65-5706-41dc-b0f1-7ca711c6695a","system_id":"levelo_inurba_marseille","lat":43.28618,"lon":5.351,"is_reserved":false,"is_disabled":true,"rental_uris":{"android":"levelo://app?vid=599a8a65-5706-41dc-b0f1-7ca711c6695a","ios":"levelo://app?vid=599a8a65-5706-41dc-b0f1-7ca711c6695a"},"vehicle_type_id":"4","last_reported":1751105403,"current_range_meters":1600,"station_id":"ce4bhch2rcd13ifvqeug","pricing_plan_id":"cebpf4jnsgd1na2vs0mg"},{"bike_id":"8ae8a5b1-8486-411b-949e-b22ce0998a15","system_id":"levelo_inurba_marseille","lat":43.28276,"lon":5.35057,"is_reserved":false,"is_disabled":true,"rental_uris":{"android":"levelo://app?vid=8ae8a5b1-8486-411b-949e-b22ce0998a15","ios":"levelo://app?vid=8ae8a5b1-8486-411b-949e-b22ce0998a15"},"vehicle_type_id":"4","last_reported":1751105403,"current_range_meters":2000,"station_id":"ce4bhbp2rcd13ifvqerg","pricing_plan_id":"cebpf4jnsgd1na2vs0mg"},{"bike_id":"1e27f916-add9-497a-8560-a727e2a3be63","system_id":"levelo_inurba_marseille","lat":43.25578,"lon":5.38245,"is_reserved":false,"is_disabled":true,"rental_uris":{"android":"levelo://app?vid=1e27f916-add9-497a-8560-a727e2a3be63","ios":"levelo://app?vid=1e27f916-add9-497a-8560-a727e2a3be63"},"vehicle_type_id":"4","last_reported":1751105403,"current_range_meters":2000,"station_id":"ce4bhih2rcd13ifvqfs0","pricing_plan_id":"cebpf4jnsgd1na2vs0mg"},{"bike_id":"94e84186-d780-461a-b647-8d1cf3f036ad","system_id":"levelo_inurba_marseille","lat":43.317302,"lon":5.377401,"is_reserved":false,"is_disabled":false,"rental_uris":{"android":"levelo://app?vid=94e84186-d780-461a-b647-8d1cf3f036ad","ios":"levelo://app?vid=94e84186-d780-461a-b647-8d1cf3f036ad"},"vehicle_type_id":"4","last_reported":1751105403,"current_range_meters":4000,"station_id":"ce4bgth2rcd13ifvqch0","pricing_plan_id":"cebpf4jnsgd1na2vs0mg"},{"bike_id":"049afa7d-5284-4d26-8b22-85a9c0359fef","system_id":"levelo_inurba_marseille","lat":43.29307,"lon":5.37455,"is_reserved":false,"is_disabled":false,"rental_uris":{"android":"levelo://app?vid=049afa7d-5284-4d26-8b22-85a9c0359fef","ios":"levelo://app?vid=049afa7d-5284-4d26-8b22-85a9c0359fef"},"vehicle_type_id":"4","last_reported":1751105403,"current_range_meters":4400,"station_id":"ce4bgi12rcd13ifvqb70","pricing_plan_id":"cebpf4jnsgd1na2vs0mg"},{"bike_id":"4a645c05-d3f3-4269-9e6a-24cf398c7ce1","system_id":"levelo_inurba_marseille","lat":43.30935,"lon":5.40141,"is_reserved":false,"is_disabled":false,"rental_uris":{"android":"levelo://app?vid=4a645c05-d3f3-4269-9e6a-24cf398c7ce1","ios":"levelo://app?vid=4a645c05-d3f3-4269-9e6a-24cf398c7ce1"},"vehicle_type_id":"4","last_reported":1751105403,"current_range_meters":4400,"station_id":"ce4bgvp2rcd13ifvqct0","pricing_plan_id":"cebpf4jnsgd1na2vs0mg"},{"bike_id":"8f9248f5-5c15-4675-92d9-aa0121c02b7c","system_id":"levelo_inurba_marseille","lat":43.23156,"lon":5.43703,"is_reserved":false,"is_disabled":false,"rental_uris":{"android":"levelo://app?vid=8f9248f5-5c15-4675-92d9-aa0121c02b7c","ios":"levelo://app?vid=8f9248f5-5c15-4675-92d9-aa0121c02b7c"},"vehicle_type_id":"4","last_reported":1751105403,"current_range_meters":4800,"station_id":"ce4bhmp2rcd13ifvqgog","pricing_plan_id":"cebpf4jnsgd1na2vs0mg"},{"bike_id":"7e7141da-051a-41f0-9ff2-e41dc0c7d859","system_id":"levelo_inurba_marseille","lat":43.23184,"lon":5.39988,"is_reserved":false,"is_disabled":false,"rental_uris":{"android":"levelo://app?vid=7e7141da-051a-41f0-9ff2-e41dc0c7d859","ios":"levelo://app?vid=7e7141da-051a-41f0-9ff2-e41dc0c7d859"},"vehicle_type_id":"4","last_reported":1751105403,"current_range_meters":5600,"station_id":"ce4bhn12rcd13ifvqgqg","pricing_plan_id":"cebpf4jnsgd1na2vs0mg"},{"bike_id":"74abc5f6-7da0-467c-96eb-5cc9324e4b47","system_id":"levelo_inurba_marseille","lat":43.29264,"lon":5.40909,"is_reserved":false,"is_disabled":false,"rental_uris":{"android":"levelo://app?vid=74abc5f6-7da0-467c-96eb-5cc9324e4b47","ios":"levelo://app?vid=74abc5f6-7da0-467c-96eb-5cc9324e4b47"},"vehicle_type_id":"4","last_reported":1751105403,"current_range_meters":6000,"station_id":"ce4bh192rcd13ifvqdc0","pricing_plan_id":"cebpf4jnsgd1na2vs0mg"},{"bike_id":"4b8da722-ee9e-48a4-a5e5-3a8a10364708","system_id":"levelo_inurba_marseille","lat":43.31216,"lon":5.37819,"is_reserved":false,"is_disabled":false,"rental_uris":{"android":"levelo://app?vid=4b8da722-ee9e-48a4-a5e5-3a8a10364708","ios":"levelo://app?vid=4b8da722-ee9e-48a4-a5e5-3a8a10364708"},"vehicle_type_id":"4","last_reported":1751105403,"current_range_meters":6400,"station_id":"","pricing_plan_id":"cebpf4jnsgd1na2vs0mg"},{"bike_id":"73a03650-973e-42b0-bad4-545481e15f73","system_id":"levelo_inurba_marseille","lat":43.312429,"lon":5.390586,"is_reserved":false,"is_disabled":false,"rental_uris":{"android":"levelo://app?vid=73a03650-973e-42b0-bad4-545481e15f73","ios":"levelo://app?vid=73a03650-973e-42b0-bad4-545481e15f73"},"vehicle_type_id":"4","last_reported":1751105403,"current_range_meters":6400,"station_id":"","pricing_plan_id":"cebpf4jnsgd1na2vs0mg"},{"bike_id":"dcea07ca-9323-4b9b-98f6-e1fc9b106559","system_id":"levelo_inurba_marseille","lat":43.30318,"lon":5.3761,"is_reserved":false,"is_disabled":false,"rental_uris":{"android":"levelo://app?vid=dcea07ca-9323-4b9b-98f6-e1fc9b106559","ios":"levelo://app?vid=dcea07ca-9323-4b9b-98f6-e1fc9b106559"},"vehicle_type_id":"4","last_reported":1751105403,"current_range_meters":6400,"station_id":"","pricing_plan_id":"cebpf4jnsgd1na2vs0mg"},{"bike_id":"e1fd1f64-e94e-4282-a202-d3cbe31612b6","system_id":"levelo_inurba_marseille","lat":43.29307,"lon":5.37165,"is_reserved":false,"is_disabled":false,"rental_uris":{"android":"levelo://app?vid=e1fd1f64-e94e-4282-a202-d3cbe31612b6","ios":"levelo://app?vid=e1fd1f64-e94e-4282-a202-d3cbe31612b6"},"vehicle_type_id":"4","last_reported":1751105403,"current_range_meters":6400,"station_id":"ce4bgh92rcd13ifvqb40","pricing_plan_id":"cebpf4jnsgd1na2vs0mg"},{"bike_id":"80687d6d-8f04-49e6-820f-c884c765cedd","system_id":"levelo_inurba_marseille","lat":43.26026,"lon":5.37547,"is_reserved":false,"is_disabled":false,"rental_uris":{"android":"levelo://app?vid=80687d6d-8f04-49e6-820f-c884c765cedd","ios":"levelo://app?vid=80687d6d-8f04-49e6-820f-c884c765cedd"},"vehicle_type_id":"4","last_reported":1751105403,"current_range_meters":6400,"station_id":"ce4bhgh2rcd13ifvqfa0","pricing_plan_id":"cebpf4jnsgd1na2vs0mg"},{"bike_id":"7a92a51b-12db-41cc-98c0-2618d3831133","system_id":"levelo_inurba_marseille","lat":43.32284,"lon":5.38264,"is_reserved":false,"is_disabled":false,"rental_uris":{"android":"levelo://app?vid=7a92a51b-12db-41cc-98c0-2618d3831133","ios":"levelo://app?vid=7a92a51b-12db-41cc-98c0-2618d3831133"},"vehicle_type_id":"4","last_reported":1751105403,"current_range_meters":6800,"station_id":"ce4bhr12rcd13ifvqhqg","pricing_plan_id":"cebpf4jnsgd1na2vs0mg"},{"bike_id":"b7d0d8a1-c5dd-4278-8b3b-f5786872fe32","system_id":"levelo_inurba_marseille","lat":43.32117,"lon":5.367486,"is_reserved":false,"is_disabled":false,"rental_uris":{"android":"levelo://app?vid=b7d0d8a1-c5dd-4278-8b3b-f5786872fe32","ios":"levelo://app?vid=b7d0d8a1-c5dd-4278-8b3b-f5786872fe32"},"vehicle_type_id":"4","last_reported":1751105403,"current_range_meters":6800,"station_id":"ce4bhrh2rcd13ifvqhug","pricing_plan_id":"cebpf4jnsgd1na2vs0mg"},{"bike_id":"a2f643ad-6d2b-43b8-a053-53c476ee9a43","system_id":"levelo_inurba_marseille","lat":43.29785,"lon":5.39341,"is_reserved":false,"is_disabled":false,"rental_uris":{"android":"levelo://app?vid=a2f643ad-6d2b-43b8-a053-53c476ee9a43","ios":"levelo://app?vid=a2f643ad-6d2b-43b8-a053-53c476ee9a43"},"vehicle_type_id":"4","last_reported":1751105403,"current_range_meters":7200,"station_id":"chh1huq6cuj3fo74tm60","pricing_plan_id":"cebpf4jnsgd1na2vs0mg"},{"bike_id":"d93518a7-acea-49d1-8b1d-66917831e25a","system_id":"levelo_inurba_marseille","lat":43.28357,"lon":5.39558,"is_reserved":false,"is_disabled":false,"rental_uris":{"android":"levelo://app?vid=d93518a7-acea-49d1-8b1d-66917831e25a","ios":"levelo://app?vid=d93518a7-acea-49d1-8b1d-66917831e25a"},"vehicle_type_id":"4","last_reported":1751105403,"current_range_meters":8400,"station_id":"","pricing_plan_id":"cebpf4jnsgd1na2vs0mg"},{"bike_id":"b75c9cb8-fd78-4a80-9d1b-540023d5ad53","system_id":"levelo_inurba_marseille","lat":43.34133,"lon":5.40893,"is_reserved":false,"is_disabled":false,"rental_uris":{"android":"levelo://app?vid=b75c9cb8-fd78-4a80-9d1b-540023d5ad53","ios":"levelo://app?vid=b75c9cb8-fd78-4a80-9d1b-540023d5ad53"},"vehicle_type_id":"4","last_reported":1751105403,"current_range_meters":8400,"station_id":"ce4bhqh2rcd13ifvqhlg","pricing_plan_id":"cebpf4jnsgd1na2vs0mg"},{"bike_id":"a440f2f6-8cf8-4348-9ba1-e21002a18a07","system_id":"levelo_inurba_marseille","lat":43.32111,"lon":5.36758,"is_reserved":false,"is_disabled":false,"rental_uris":{"android":"levelo://app?vid=a440f2f6-8cf8-4348-9ba1-e21002a18a07","ios":"levelo://app?vid=a440f2f6-8cf8-4348-9ba1-e21002a18a07"},"vehicle_type_id":"4","last_reported":1751105403,"current_range_meters":8400,"station_id":"ce4bhrh2rcd13ifvqhug","pricing_plan_id":"cebpf4jnsgd1na2vs0mg"},{"bike_id":"72929ebd-e377-4b1c-918a-b06784d9e0b5","system_id":"levelo_inurba_marseille","lat":43.29527,"lon":5.38541,"is_reserved":false,"is_disabled":false,"rental_uris":{"android":"levelo://app?vid=72929ebd-e377-4b1c-918a-b06784d9e0b5","ios":"levelo://app?vid=72929ebd-e377-4b1c-918a-b06784d9e0b5"},"vehicle_type_id":"4","last_reported":1751105403,"current_range_meters":8800,"station_id":"ce4bgih2rcd13ifvqba0","pricing_plan_id":"cebpf4jnsgd1na2vs0mg"},{"bike_id":"26d56617-7b3a-4ec2-bf36-3e6dea0698d8","system_id":"levelo_inurba_marseille","lat":43.2985,"lon":5.36277,"is_reserved":false,"is_disabled":false,"rental_uris":{"android":"levelo://app?vid=26d56617-7b3a-4ec2-bf36-3e6dea0698d8","ios":"levelo://app?vid=26d56617-7b3a-4ec2-bf36-3e6dea0698d8"},"vehicle_type_id":"4","last_reported":1751105403,"current_range_meters":8800,"station_id":"ce4bgpp2rcd13ifvqc3g","pricing_plan_id":"cebpf4jnsgd1na2vs0mg"},{"bike_id":"e17bb48f-4932-49ed-b8b7-c809449337a7","system_id":"levelo_inurba_marseille","lat":43.27969,"lon":5.38694,"is_reserved":false,"is_disabled":false,"rental_uris":{"android":"levelo://app?vid=e17bb48f-4932-49ed-b8b7-c809449337a7","ios":"levelo://app?vid=e17bb48f-4932-49ed-b8b7-c809449337a7"},"vehicle_type_id":"4","last_reported":1751105403,"current_range_meters":8800,"station_id":"ce4bhg12rcd13ifvqf80","pricing_plan_id":"cebpf4jnsgd1na2vs0mg"},{"bike_id":"88c44910-a430-4e33-9c91-a4a8d0c5c1d1","system_id":"levelo_inurba_marseille","lat":43.24399,"lon":5.37067,"is_reserved":false,"is_disabled":false,"rental_uris":{"android":"levelo://app?vid=88c44910-a430-4e33-9c91-a4a8d0c5c1d1","ios":"levelo://app?vid=88c44910-a430-4e33-9c91-a4a8d0c5c1d1"},"vehicle_type_id":"4","last_reported":1751105403,"current_range_meters":8800,"station_id":"ce4bhhh2rcd13ifvqfk0","pricing_plan_id":"cebpf4jnsgd1na2vs0mg"},{"bike_id":"1c8ab180-05fd-405f-9922-b2b2c2d5142f","system_id":"levelo_inurba_marseille","lat":43.32117,"lon":5.36784,"is_reserved":false,"is_disabled":false,"rental_uris":{"android":"levelo://app?vid=1c8ab180-05fd-405f-9922-b2b2c2d5142f","ios":"levelo://app?vid=1c8ab180-05fd-405f-9922-b2b2c2d5142f"},"vehicle_type_id":"4","last_reported":1751105403,"current_range_meters":8800,"station_id":"ce4bhrh2rcd13ifvqhug","pricing_plan_id":"cebpf4jnsgd1na2vs0mg"},{"bike_id":"3e82f598-9d1d-4257-8afa-a4dc7305de09","system_id":"levelo_inurba_marseille","lat":43.211938,"lon":5.350696,"is_reserved":false,"is_disabled":false,"rental_uris":{"android":"levelo://app?vid=3e82f598-9d1d-4257-8afa-a4dc7305de09","ios":"levelo://app?vid=3e82f598-9d1d-4257-8afa-a4dc7305de09"},"vehicle_type_id":"4","last_reported":1751105403,"current_range_meters":8800,"station_id":"st_cvj6sg6p6f1abm77japg","pricing_plan_id":"cebpf4jnsgd1na2vs0mg"},{"bike_id":"5a01ae6d-9064-484c-8d77-2d9e141e2313","system_id":"levelo_inurba_marseille","lat":43.244841,"lon":5.390206,"is_reserved":false,"is_disabled":false,"rental_uris":{"android":"levelo://app?vid=5a01ae6d-9064-484c-8d77-2d9e141e2313","ios":"levelo://app?vid=5a01ae6d-9064-484c-8d77-2d9e141e2313"},"vehicle_type_id":"4","last_reported":1751105403,"current_range_meters":9200,"station_id":"","pricing_plan_id":"cebpf4jnsgd1na2vs0mg"},{"bike_id":"5d5e13a4-10cc-485c-a362-06d02242e666","system_id":"levelo_inurba_marseille","lat":43.211902,"lon":5.350781,"is_reserved":false,"is_disabled":false,"rental_uris":{"android":"levelo://app?vid=5d5e13a4-10cc-485c-a362-06d02242e666","ios":"levelo://app?vid=5d5e13a4-10cc-485c-a362-06d02242e666"},"vehicle_type_id":"4","last_reported":1751105403,"current_range_meters":9200,"station_id":"st_cvj6sg6p6f1abm77japg","pricing_plan_id":"cebpf4jnsgd1na2vs0mg"},{"bike_id":"1c41268c-db03-41ea-a44f-dcbe7693987b","system_id":"levelo_inurba_marseille","lat":43.29527,"lon":5.37488,"is_reserved":false,"is_disabled":false,"rental_uris":{"android":"levelo://app?vid=1c41268c-db03-41ea-a44f-dcbe7693987b","ios":"levelo://app?vid=1c41268c-db03-41ea-a44f-dcbe7693987b"},"vehicle_type_id":"4","last_reported":1751105403,"current_range_meters":9600,"station_id":"ce4bgkp2rcd13ifvqbmg","pricing_plan_id":"cebpf4jnsgd1na2vs0mg"},{"bike_id":"64e1943f-ca58-492e-b632-184a1df722c8","system_id":"levelo_inurba_marseille","lat":43.28614,"lon":5.35107,"is_reserved":false,"is_disabled":false,"rental_uris":{"android":"levelo://app?vid=64e1943f-ca58-492e-b632-184a1df722c8","ios":"levelo://app?vid=64e1943f-ca58-492e-b632-184a1df722c8"},"vehicle_type_id":"4","last_reported":1751105403,"current_range_meters":9600,"station_id":"ce4bhch2rcd13ifvqeug","pricing_plan_id":"cebpf4jnsgd1na2vs0mg"},{"bike_id":"2dc6f9e6-543a-445a-9243-65a430c00412","system_id":"levelo_inurba_marseille","lat":43.27919,"lon":5.39595,"is_reserved":false,"is_disabled":false,"rental_uris":{"android":"levelo://app?vid=2dc6f9e6-543a-445a-9243-65a430c00412","ios":"levelo://app?vid=2dc6f9e6-543a-445a-9243-65a430c00412"},"vehicle_type_id":"4","last_reported":1751105403,"current_range_meters":9600,"station_id":"ce4bhf92rcd13ifvqf40","pricing_plan_id":"cebpf4jnsgd1na2vs0mg"},{"bike_id":"ae585140-2ebc-4e9e-9c6f-37fd3c7c898e","system_id":"levelo_inurba_marseille","lat":43.2319,"lon":5.39974,"is_reserved":false,"is_disabled":false,"rental_uris":{"android":"levelo://app?vid=ae585140-2ebc-4e9e-9c6f-37fd3c7c898e","ios":"levelo://app?vid=ae585140-2ebc-4e9e-9c6f-37fd3c7c898e"},"vehicle_type_id":"4","last_reported":1751105403,"current_range_meters":9600,"station_id":"ce4bhn12rcd13ifvqgqg","pricing_plan_id":"cebpf4jnsgd1na2vs0mg"},{"bike_id":"176d443a-29a2-445a-9c7d-972baf986872","system_id":"levelo_inurba_marseille","lat":43.30929,"lon":5.40126,"is_reserved":false,"is_disabled":false,"rental_uris":{"android":"levelo://app?vid=176d443a-29a2-445a-9c7d-972baf986872","ios":"levelo://app?vid=176d443a-29a2-445a-9c7d-972baf986872"},"vehicle_type_id":"4","last_reported":1751105403,"current_range_meters":10000,"station_id":"ce4bgvp2rcd13ifvqct0","pricing_plan_id":"cebpf4jnsgd1na2vs0mg"},{"bike_id":"2a9a5366-8dad-42f1-bee6-ffb042c54776","system_id":"levelo_inurba_marseille","lat":43.21185,"lon":5.35072,"is_reserved":false,"is_disabled":false,"rental_uris":{"android":"levelo://app?vid=2a9a5366-8dad-42f1-bee6-ffb042c54776","ios":"levelo://app?vid=2a9a5366-8dad-42f1-bee6-ffb042c54776"},"vehicle_type_id":"4","last_reported":1751105403,"current_range_meters":10000,"station_id":"st_cvj6sg6p6f1abm77japg","pricing_plan_id":"cebpf4jnsgd1na2vs0mg"},{"bike_id":"d5e70777-ad97-4594-91b6-43ede9611b14","system_id":"levelo_inurba_marseille","lat":43.32119,"lon":5.36823,"is_reserved":false,"is_disabled":false,"rental_uris":{"android":"levelo://app?vid=d5e70777-ad97-4594-91b6-43ede9611b14","ios":"levelo://app?vid=d5e70777-ad97-4594-91b6-43ede9611b14"},"vehicle_type_id":"4","last_reported":1751105403,"current_range_meters":10800,"station_id":"","pricing_plan_id":"cebpf4jnsgd1na2vs0mg"},{"bike_id":"9d292f0d-bfc0-4079-ac62-767c6fc24ede","system_id":"levelo_inurba_marseille","lat":43.27159,"lon":5.40947,"is_reserved":false,"is_disabled":false,"rental_uris":{"android":"levelo://app?vid=9d292f0d-bfc0-4079-ac62-767c6fc24ede","ios":"levelo://app?vid=9d292f0d-bfc0-4079-ac62-767c6fc24ede"},"vehicle_type_id":"4","last_reported":1751105403,"current_range_meters":10800,"station_id":"ce4bhl12rcd13ifvqgf0","pricing_plan_id":"cebpf4jnsgd1na2vs0mg"},{"bike_id":"d641659c-64fc-486a-91a2-3cc8072043e6","system_id":"levelo_inurba_marseille","lat":43.32108,"lon":5.36765,"is_reserved":false,"is_disabled":false,"rental_uris":{"android":"levelo://app?vid=d641659c-64fc-486a-91a2-3cc8072043e6","ios":"levelo://app?vid=d641659c-64fc-486a-91a2-3cc8072043e6"},"vehicle_type_id":"4","last_reported":1751105403,"current_range_meters":10800,"station_id":"ce4bhrh2rcd13ifvqhug","pricing_plan_id":"cebpf4jnsgd1na2vs0mg"},{"bike_id":"b7bc56a3-3f1d-4ff7-9eb9-8d957be33fb9","system_id":"levelo_inurba_marseille","lat":43.22932,"lon":5.35375,"is_reserved":false,"is_disabled":false,"rental_uris":{"android":"levelo://app?vid=b7bc56a3-3f1d-4ff7-9eb9-8d957be33fb9","ios":"levelo://app?vid=b7bc56a3-3f1d-4ff7-9eb9-8d957be33fb9"},"vehicle_type_id":"4","last_reported":1751105403,"current_range_meters":10800,"station_id":"cpo3532slgdg3j2ikp40","pricing_plan_id":"cebpf4jnsgd1na2vs0mg"},{"bike_id":"f0057ca2-de2d-4464-8902-068dc3677e00","system_id":"levelo_inurba_marseille","lat":43.21183,"lon":5.35065,"is_reserved":false,"is_disabled":false,"rental_uris":{"android":"levelo://app?vid=f0057ca2-de2d-4464-8902-068dc3677e00","ios":"levelo://app?vid=f0057ca2-de2d-4464-8902-068dc3677e00"},"vehicle_type_id":"4","last_reported":1751105403,"current_range_meters":10800,"station_id":"st_cvj6sg6p6f1abm77japg","pricing_plan_id":"cebpf4jnsgd1na2vs0mg"},{"bike_id":"8b1bcd7a-ec52-47cf-be70-5fb3dda94674","system_id":"levelo_inurba_marseille","lat":43.31699,"lon":5.40451,"is_reserved":false,"is_disabled":false,"rental_uris":{"android":"levelo://app?vid=8b1bcd7a-ec52-47cf-be70-5fb3dda94674","ios":"levelo://app?vid=8b1bcd7a-ec52-47cf-be70-5fb3dda94674"},"vehicle_type_id":"4","last_reported":1751105403,"current_range_meters":11200,"station_id":"ce4bh012rcd13ifvqd00","pricing_plan_id":"cebpf4jnsgd1na2vs0mg"},{"bike_id":"8b06be57-7bb0-4486-a6a5-e60520682af7","system_id":"levelo_inurba_marseille","lat":43.23187,"lon":5.39983,"is_reserved":false,"is_disabled":false,"rental_uris":{"android":"levelo://app?vid=8b06be57-7bb0-4486-a6a5-e60520682af7","ios":"levelo://app?vid=8b06be57-7bb0-4486-a6a5-e60520682af7"},"vehicle_type_id":"4","last_reported":1751105403,"current_range_meters":11200,"station_id":"ce4bhn12rcd13ifvqgqg","pricing_plan_id":"cebpf4jnsgd1na2vs0mg"},{"bike_id":"0084fa36-b099-43a6-9ba4-567287b5ca8d","system_id":"levelo_inurba_marseille","lat":43.2319,"lon":5.39982,"is_reserved":false,"is_disabled":false,"rental_uris":{"android":"levelo://app?vid=0084fa36-b099-43a6-9ba4-567287b5ca8d","ios":"levelo://app?vid=0084fa36-b099-43a6-9ba4-567287b5ca8d"},"vehicle_type_id":"4","last_reported":1751105403,"current_range_meters":11200,"station_id":"ce4bhn12rcd13ifvqgqg","pricing_plan_id":"cebpf4jnsgd1na2vs0mg"},{"bike_id":"8fcf59d2-6388-4c16-b9ec-42c2ac2976e5","system_id":"levelo_inurba_marseille","lat":43.31969,"lon":5.40955,"is_reserved":false,"is_disabled":false,"rental_uris":{"android":"levelo://app?vid=8fcf59d2-6388-4c16-b9ec-42c2ac2976e5","ios":"levelo://app?vid=8fcf59d2-6388-4c16-b9ec-42c2ac2976e5"},"vehicle_type_id":"4","last_reported":1751105403,"current_range_meters":11600,"station_id":"","pricing_plan_id":"cebpf4jnsgd1na2vs0mg"},{"bike_id":"a537eb05-71ae-4a1f-abe8-26a3cf8d011a","system_id":"levelo_inurba_marseille","lat":43.24183,"lon":5.39725,"is_reserved":false,"is_disabled":false,"rental_uris":{"android":"levelo://app?vid=a537eb05-71ae-4a1f-abe8-26a3cf8d011a","ios":"levelo://app?vid=a537eb05-71ae-4a1f-abe8-26a3cf8d011a"},"vehicle_type_id":"4","last_reported":1751105403,"current_range_meters":11600,"station_id":"ce4bhn12rcd13ifvqgpg","pricing_plan_id":"cebpf4jnsgd1na2vs0mg"},{"bike_id":"a2588648-26dc-4121-bee2-c283e3f6b0c1","system_id":"levelo_inurba_marseille","lat":43.34159,"lon":5.40902,"is_reserved":false,"is_disabled":false,"rental_uris":{"android":"levelo://app?vid=a2588648-26dc-4121-bee2-c283e3f6b0c1","ios":"levelo://app?vid=a2588648-26dc-4121-bee2-c283e3f6b0c1"},"vehicle_type_id":"4","last_reported":1751105403,"current_range_meters":11600,"station_id":"ce4bhqh2rcd13ifvqhlg","pricing_plan_id":"cebpf4jnsgd1na2vs0mg"},{"bike_id":"13726ea4-91b3-4b24-87ce-db653217d50c","system_id":"levelo_inurba_marseille","lat":43.32119,"lon":5.36771,"is_reserved":false,"is_disabled":false,"rental_uris":{"android":"levelo://app?vid=13726ea4-91b3-4b24-87ce-db653217d50c","ios":"levelo://app?vid=13726ea4-91b3-4b24-87ce-db653217d50c"},"vehicle_type_id":"4","last_reported":1751105403,"current_range_meters":11600,"station_id":"ce4bhrh2rcd13ifvqhug","pricing_plan_id":"cebpf4jnsgd1na2vs0mg"},{"bike_id":"bbc4a376-bee7-4ad5-a49a-1022d27c1489","system_id":"levelo_inurba_marseille","lat":43.32082,"lon":5.36764,"is_reserved":false,"is_disabled":false,"rental_uris":{"android":"levelo://app?vid=bbc4a376-bee7-4ad5-a49a-1022d27c1489","ios":"levelo://app?vid=bbc4a376-bee7-4ad5-a49a-1022d27c1489"},"vehicle_type_id":"4","last_reported":1751105403,"current_range_meters":11600,"station_id":"ce4bhrh2rcd13ifvqhug","pricing_plan_id":"cebpf4jnsgd1na2vs0mg"},{"bike_id":"12184f71-bc91-4a2e-923a-2309dd09338a","system_id":"levelo_inurba_marseille","lat":43.22934,"lon":5.35371,"is_reserved":false,"is_disabled":false,"rental_uris":{"android":"levelo://app?vid=12184f71-bc91-4a2e-923a-2309dd09338a","ios":"levelo://app?vid=12184f71-bc91-4a2e-923a-2309dd09338a"},"vehicle_type_id":"4","last_reported":1751105403,"current_range_meters":11600,"station_id":"cpo3532slgdg3j2ikp40","pricing_plan_id":"cebpf4jnsgd1na2vs0mg"},{"bike_id":"3eabe1e2-f9f5-41cb-a4ed-73ca7f909c5c","system_id":"levelo_inurba_marseille","lat":43.21197,"lon":5.35073,"is_reserved":false,"is_disabled":false,"rental_uris":{"android":"levelo://app?vid=3eabe1e2-f9f5-41cb-a4ed-73ca7f909c5c","ios":"levelo://app?vid=3eabe1e2-f9f5-41cb-a4ed-73ca7f909c5c"},"vehicle_type_id":"4","last_reported":1751105403,"current_range_meters":11600,"station_id":"st_cvj6sg6p6f1abm77japg","pricing_plan_id":"cebpf4jnsgd1na2vs0mg"},{"bike_id":"e6ce70f7-9138-485c-a4db-2c9174614cff","system_id":"levelo_inurba_marseille","lat":43.31776,"lon":5.36853,"is_reserved":false,"is_disabled":false,"rental_uris":{"android":"levelo://app?vid=e6ce70f7-9138-485c-a4db-2c9174614cff","ios":"levelo://app?vid=e6ce70f7-9138-485c-a4db-2c9174614cff"},"vehicle_type_id":"4","last_reported":1751105403,"current_range_meters":12000,"station_id":"","pricing_plan_id":"cebpf4jnsgd1na2vs0mg"},{"bike_id":"b8403296-f712-41c9-985f-380294ace9a0","system_id":"levelo_inurba_marseille","lat":43.289335,"lon":5.366435,"is_reserved":false,"is_disabled":false,"rental_uris":{"android":"levelo://app?vid=b8403296-f712-41c9-985f-380294ace9a0","ios":"levelo://app?vid=b8403296-f712-41c9-985f-380294ace9a0"},"vehicle_type_id":"4","last_reported":1751105403,"current_range_meters":12400,"station_id":"ce4bhap2rcd13ifvqek0","pricing_plan_id":"cebpf4jnsgd1na2vs0mg"},{"bike_id":"f1953887-1b02-447a-bc77-4e2cfee8acd9","system_id":"levelo_inurba_marseille","lat":43.27916,"lon":5.39554,"is_reserved":false,"is_disabled":false,"rental_uris":{"android":"levelo://app?vid=f1953887-1b02-447a-bc77-4e2cfee8acd9","ios":"levelo://app?vid=f1953887-1b02-447a-bc77-4e2cfee8acd9"},"vehicle_type_id":"4","last_reported":1751105403,"current_range_meters":12400,"station_id":"ce4bhf92rcd13ifvqf40","pricing_plan_id":"cebpf4jnsgd1na2vs0mg"},{"bike_id":"4c65a551-917e-47d3-a93f-6a3b743e5ab2","system_id":"levelo_inurba_marseille","lat":43.26047,"lon":5.37559,"is_reserved":false,"is_disabled":false,"rental_uris":{"android":"levelo://app?vid=4c65a551-917e-47d3-a93f-6a3b743e5ab2","ios":"levelo://app?vid=4c65a551-917e-47d3-a93f-6a3b743e5ab2"},"vehicle_type_id":"4","last_reported":1751105403,"current_range_meters":12400,"station_id":"ce4bhgh2rcd13ifvqfa0","pricing_plan_id":"cebpf4jnsgd1na2vs0mg"},{"bike_id":"2cbd26d7-8ccb-4bca-b892-7ed090bc3322","system_id":"levelo_inurba_marseille","lat":43.23197,"lon":5.35549,"is_reserved":false,"is_disabled":false,"rental_uris":{"android":"levelo://app?vid=2cbd26d7-8ccb-4bca-b892-7ed090bc3322","ios":"levelo://app?vid=2cbd26d7-8ccb-4bca-b892-7ed090bc3322"},"vehicle_type_id":"4","last_reported":1751105403,"current_range_meters":12400,"station_id":"ce4bhu92rcd13ifvqi70","pricing_plan_id":"cebpf4jnsgd1na2vs0mg"},{"bike_id":"8a50aac5-39f1-4536-bea7-43efb3a7f1fe","system_id":"levelo_inurba_marseille","lat":43.2176,"lon":5.34592,"is_reserved":false,"is_disabled":false,"rental_uris":{"android":"levelo://app?vid=8a50aac5-39f1-4536-bea7-43efb3a7f1fe","ios":"levelo://app?vid=8a50aac5-39f1-4536-bea7-43efb3a7f1fe"},"vehicle_type_id":"4","last_reported":1751105403,"current_range_meters":12400,"station_id":"st_cvj6r9ubvosntc0bgbag","pricing_plan_id":"cebpf4jnsgd1na2vs0mg"},{"bike_id":"44b677c8-76ed-4eac-8888-58151f9d5d6e","system_id":"levelo_inurba_marseille","lat":43.319564,"lon":5.367523,"is_reserved":false,"is_disabled":false,"rental_uris":{"android":"levelo://app?vid=44b677c8-76ed-4eac-8888-58151f9d5d6e","ios":"levelo://app?vid=44b677c8-76ed-4eac-8888-58151f9d5d6e"},"vehicle_type_id":"4","last_reported":1751105403,"current_range_meters":12800,"station_id":"","pricing_plan_id":"cebpf4jnsgd1na2vs0mg"},{"bike_id":"b3dbd7bd-250e-4441-9efe-688aad7b6a49","system_id":"levelo_inurba_marseille","lat":43.31213,"lon":5.36899,"is_reserved":false,"is_disabled":false,"rental_uris":{"android":"levelo://app?vid=b3dbd7bd-250e-4441-9efe-688aad7b6a49","ios":"levelo://app?vid=b3dbd7bd-250e-4441-9efe-688aad7b6a49"},"vehicle_type_id":"4","last_reported":1751105403,"current_range_meters":12800,"station_id":"ce4bgl92rcd13ifvqbq0","pricing_plan_id":"cebpf4jnsgd1na2vs0mg"},{"bike_id":"de50c5e1-d260-4e2a-9d87-29d0d078654e","system_id":"levelo_inurba_marseille","lat":43.23197,"lon":5.35546,"is_reserved":false,"is_disabled":false,"rental_uris":{"android":"levelo://app?vid=de50c5e1-d260-4e2a-9d87-29d0d078654e","ios":"levelo://app?vid=de50c5e1-d260-4e2a-9d87-29d0d078654e"},"vehicle_type_id":"4","last_reported":1751105403,"current_range_meters":12800,"station_id":"ce4bhu92rcd13ifvqi70","pricing_plan_id":"cebpf4jnsgd1na2vs0mg"},{"bike_id":"93fb9e8a-2df2-41a2-afce-e0f72f6b7c05","system_id":"levelo_inurba_marseille","lat":43.23198,"lon":5.39974,"is_reserved":false,"is_disabled":false,"rental_uris":{"android":"levelo://app?vid=93fb9e8a-2df2-41a2-afce-e0f72f6b7c05","ios":"levelo://app?vid=93fb9e8a-2df2-41a2-afce-e0f72f6b7c05"},"vehicle_type_id":"4","last_reported":1751105403,"current_range_meters":13600,"station_id":"ce4bhn12rcd13ifvqgqg","pricing_plan_id":"cebpf4jnsgd1na2vs0mg"},{"bike_id":"468a98c5-5dbc-4755-b2b4-222fef0faa0b","system_id":"levelo_inurba_marseille","lat":43.298936,"lon":5.43672,"is_reserved":false,"is_disabled":false,"rental_uris":{"android":"levelo://app?vid=468a98c5-5dbc-4755-b2b4-222fef0faa0b","ios":"levelo://app?vid=468a98c5-5dbc-4755-b2b4-222fef0faa0b"},"vehicle_type_id":"4","last_reported":1751105403,"current_range_meters":13600,"station_id":"ce4bhpp2rcd13ifvqhfg","pricing_plan_id":"cebpf4jnsgd1na2vs0mg"},{"bike_id":"a5ef8448-21fc-4b3e-813d-22fb9144e28c","system_id":"levelo_inurba_marseille","lat":43.22932,"lon":5.3537,"is_reserved":false,"is_disabled":false,"rental_uris":{"android":"levelo://app?vid=a5ef8448-21fc-4b3e-813d-22fb9144e28c","ios":"levelo://app?vid=a5ef8448-21fc-4b3e-813d-22fb9144e28c"},"vehicle_type_id":"4","last_reported":1751105403,"current_range_meters":13600,"station_id":"cpo3532slgdg3j2ikp40","pricing_plan_id":"cebpf4jnsgd1na2vs0mg"},{"bike_id":"9c63e9b2-2323-48f2-93ab-713cdd6ccb8e","system_id":"levelo_inurba_marseille","lat":43.32035,"lon":5.41572,"is_reserved":false,"is_disabled":false,"rental_uris":{"android":"levelo://app?vid=9c63e9b2-2323-48f2-93ab-713cdd6ccb8e","ios":"levelo://app?vid=9c63e9b2-2323-48f2-93ab-713cdd6ccb8e"},"vehicle_type_id":"4","last_reported":1751105403,"current_range_meters":14000,"station_id":"ce4bhq92rcd13ifvqhkg","pricing_plan_id":"cebpf4jnsgd1na2vs0mg"},{"bike_id":"873ce198-d36d-4815-8778-b72bd2ca0116","system_id":"levelo_inurba_marseille","lat":43.32112,"lon":5.36784,"is_reserved":false,"is_disabled":false,"rental_uris":{"android":"levelo://app?vid=873ce198-d36d-4815-8778-b72bd2ca0116","ios":"levelo://app?vid=873ce198-d36d-4815-8778-b72bd2ca0116"},"vehicle_type_id":"4","last_reported":1751105403,"current_range_meters":14000,"station_id":"ce4bhrh2rcd13ifvqhug","pricing_plan_id":"cebpf4jnsgd1na2vs0mg"},{"bike_id":"721165c1-ef6f-40cc-8d33-af3a7999864b","system_id":"levelo_inurba_marseille","lat":43.32671,"lon":5.37875,"is_reserved":false,"is_disabled":false,"rental_uris":{"android":"levelo://app?vid=721165c1-ef6f-40cc-8d33-af3a7999864b","ios":"levelo://app?vid=721165c1-ef6f-40cc-8d33-af3a7999864b"},"vehicle_type_id":"4","last_reported":1751105403,"current_range_meters":14400,"station_id":"","pricing_plan_id":"cebpf4jnsgd1na2vs0mg"},{"bike_id":"4d6bb9d5-4e15-4bbd-9207-d33af6a1769c","system_id":"levelo_inurba_marseille","lat":43.29579,"lon":5.37519,"is_reserved":false,"is_disabled":false,"rental_uris":{"android":"levelo://app?vid=4d6bb9d5-4e15-4bbd-9207-d33af6a1769c","ios":"levelo://app?vid=4d6bb9d5-4e15-4bbd-9207-d33af6a1769c"},"vehicle_type_id":"4","last_reported":1751105403,"current_range_meters":14400,"station_id":"ce4bgh92rcd13ifvqb50","pricing_plan_id":"cebpf4jnsgd1na2vs0mg"},{"bike_id":"12c7fc9f-7c7b-4185-9b2f-badd0c17e36b","system_id":"levelo_inurba_marseille","lat":43.24748,"lon":5.37447,"is_reserved":false,"is_disabled":false,"rental_uris":{"android":"levelo://app?vid=12c7fc9f-7c7b-4185-9b2f-badd0c17e36b","ios":"levelo://app?vid=12c7fc9f-7c7b-4185-9b2f-badd0c17e36b"},"vehicle_type_id":"4","last_reported":1751105403,"current_range_meters":14400,"station_id":"ce4bhgh2rcd13ifvqfb0","pricing_plan_id":"cebpf4jnsgd1na2vs0mg"},{"bike_id":"a7883090-0e10-4075-944b-a3cca54bc544","system_id":"levelo_inurba_marseille","lat":43.2252,"lon":5.34797,"is_reserved":false,"is_disabled":false,"rental_uris":{"android":"levelo://app?vid=a7883090-0e10-4075-944b-a3cca54bc544","ios":"levelo://app?vid=a7883090-0e10-4075-944b-a3cca54bc544"},"vehicle_type_id":"4","last_reported":1751105403,"current_range_meters":14400,"station_id":"st_cvj5dfep6f1abm77gieg","pricing_plan_id":"cebpf4jnsgd1na2vs0mg"},{"bike_id":"7a63f1f0-ab92-4431-90a0-628ae7550c2d","system_id":"levelo_inurba_marseille","lat":43.2118,"lon":5.35074,"is_reserved":false,"is_disabled":false,"rental_uris":{"android":"levelo://app?vid=7a63f1f0-ab92-4431-90a0-628ae7550c2d","ios":"levelo://app?vid=7a63f1f0-ab92-4431-90a0-628ae7550c2d"},"vehicle_type_id":"4","last_reported":1751105403,"current_range_meters":14400,"station_id":"st_cvj6sg6p6f1abm77japg","pricing_plan_id":"cebpf4jnsgd1na2vs0mg"},{"bike_id":"0dd415ce-285e-46a1-80b6-e5bab5a93294","system_id":"levelo_inurba_marseille","lat":43.29275,"lon":5.36837,"is_reserved":false,"is_disabled":false,"rental_uris":{"android":"levelo://app?vid=0dd415ce-285e-46a1-80b6-e5bab5a93294","ios":"levelo://app?vid=0dd415ce-285e-46a1-80b6-e5bab5a93294"},"vehicle_type_id":"4","last_reported":1751105403,"current_range_meters":14800,"station_id":"ce4bhbp2rcd13ifvqesg","pricing_plan_id":"cebpf4jnsgd1na2vs0mg"},{"bike_id":"5cf668d2-b52a-4028-a184-5a338cef1763","system_id":"levelo_inurba_marseille","lat":43.26556,"lon":5.37271,"is_reserved":false,"is_disabled":false,"rental_uris":{"android":"levelo://app?vid=5cf668d2-b52a-4028-a184-5a338cef1763","ios":"levelo://app?vid=5cf668d2-b52a-4028-a184-5a338cef1763"},"vehicle_type_id":"4","last_reported":1751105403,"current_range_meters":14800,"station_id":"ce4bhg12rcd13ifvqf70","pricing_plan_id":"cebpf4jnsgd1na2vs0mg"},{"bike_id":"14e8ef37-e834-4d76-9946-e98f7a083a2f","system_id":"levelo_inurba_marseille","lat":43.21199,"lon":5.35068,"is_reserved":false,"is_disabled":false,"rental_uris":{"android":"levelo://app?vid=14e8ef37-e834-4d76-9946-e98f7a083a2f","ios":"levelo://app?vid=14e8ef37-e834-4d76-9946-e98f7a083a2f"},"vehicle_type_id":"4","last_reported":1751105403,"current_range_meters":14800,"station_id":"st_cvj6sg6p6f1abm77japg","pricing_plan_id":"cebpf4jnsgd1na2vs0mg"},{"bike_id":"216a14fa-8866-4ecf-8c20-9e8c412b7440","system_id":"levelo_inurba_marseille","lat":43.30546,"lon":5.36542,"is_reserved":false,"is_disabled":false,"rental_uris":{"android":"levelo://app?vid=216a14fa-8866-4ecf-8c20-9e8c412b7440","ios":"levelo://app?vid=216a14fa-8866-4ecf-8c20-9e8c412b7440"},"vehicle_type_id":"4","last_reported":1751105403,"current_range_meters":15200,"station_id":"ce4bgs12rcd13ifvqcag","pricing_plan_id":"cebpf4jnsgd1na2vs0mg"},{"bike_id":"9d1014c5-70fc-4f6b-9e42-fcd239da77e6","system_id":"levelo_inurba_marseille","lat":43.29193,"lon":5.39307,"is_reserved":false,"is_disabled":false,"rental_uris":{"android":"levelo://app?vid=9d1014c5-70fc-4f6b-9e42-fcd239da77e6","ios":"levelo://app?vid=9d1014c5-70fc-4f6b-9e42-fcd239da77e6"},"vehicle_type_id":"4","last_reported":1751105403,"current_range_meters":15200,"station_id":"ce4bh192rcd13ifvqdd0","pricing_plan_id":"cebpf4jnsgd1na2vs0mg"},{"bike_id":"93555848-eb34-496b-ac68-7e471bf7c78d","system_id":"levelo_inurba_marseille","lat":43.27313,"lon":5.39075,"is_reserved":false,"is_disabled":false,"rental_uris":{"android":"levelo://app?vid=93555848-eb34-496b-ac68-7e471bf7c78d","ios":"levelo://app?vid=93555848-eb34-496b-ac68-7e471bf7c78d"},"vehicle_type_id":"4","last_reported":1751105403,"current_range_meters":15200,"station_id":"ce4bhgp2rcd13ifvqfe0","pricing_plan_id":"cebpf4jnsgd1na2vs0mg"},{"bike_id":"6af79a00-84aa-4908-a347-34425e08c383","system_id":"levelo_inurba_marseille","lat":43.30289,"lon":5.37556,"is_reserved":false,"is_disabled":false,"rental_uris":{"android":"levelo://app?vid=6af79a00-84aa-4908-a347-34425e08c383","ios":"levelo://app?vid=6af79a00-84aa-4908-a347-34425e08c383"},"vehicle_type_id":"4","last_reported":1751105403,"current_range_meters":16000,"station_id":"","pricing_plan_id":"cebpf4jnsgd1na2vs0mg"},{"bike_id":"0c803610-f6e9-41d4-936d-0b433fa62796","system_id":"levelo_inurba_marseille","lat":43.29707,"lon":5.37691,"is_reserved":false,"is_disabled":false,"rental_uris":{"android":"levelo://app?vid=0c803610-f6e9-41d4-936d-0b433fa62796","ios":"levelo://app?vid=0c803610-f6e9-41d4-936d-0b433fa62796"},"vehicle_type_id":"4","last_reported":1751105403,"current_range_meters":16000,"station_id":"ce4bgkh2rcd13ifvqbl0","pricing_plan_id":"cebpf4jnsgd1na2vs0mg"},{"bike_id":"03e0de36-bf27-4790-823b-078c473638df","system_id":"levelo_inurba_marseille","lat":43.2959,"lon":5.36745,"is_reserved":false,"is_disabled":false,"rental_uris":{"android":"levelo://app?vid=03e0de36-bf27-4790-823b-078c473638df","ios":"levelo://app?vid=03e0de36-bf27-4790-823b-078c473638df"},"vehicle_type_id":"4","last_reported":1751105403,"current_range_meters":16000,"station_id":"ce4bgph2rcd13ifvqc2g","pricing_plan_id":"cebpf4jnsgd1na2vs0mg"},{"bike_id":"0ca717a1-45d0-467a-befd-9d85a9b7f044","system_id":"levelo_inurba_marseille","lat":43.3031,"lon":5.40118,"is_reserved":false,"is_disabled":false,"rental_uris":{"android":"levelo://app?vid=0ca717a1-45d0-467a-befd-9d85a9b7f044","ios":"levelo://app?vid=0ca717a1-45d0-467a-befd-9d85a9b7f044"},"vehicle_type_id":"4","last_reported":1751105403,"current_range_meters":16000,"station_id":"ce4bgvh2rcd13ifvqcs0","pricing_plan_id":"cebpf4jnsgd1na2vs0mg"},{"bike_id":"802b2630-8376-4119-a81f-42e77fef6b85","system_id":"levelo_inurba_marseille","lat":43.28412,"lon":5.3499,"is_reserved":false,"is_disabled":false,"rental_uris":{"android":"levelo://app?vid=802b2630-8376-4119-a81f-42e77fef6b85","ios":"levelo://app?vid=802b2630-8376-4119-a81f-42e77fef6b85"},"vehicle_type_id":"4","last_reported":1751105403,"current_range_meters":16000,"station_id":"ce4bhbh2rcd13ifvqepg","pricing_plan_id":"cebpf4jnsgd1na2vs0mg"},{"bike_id":"51bbe6ec-3f47-401a-8aa6-bc859b2aeb71","system_id":"levelo_inurba_marseille","lat":43.28611,"lon":5.35109,"is_reserved":false,"is_disabled":false,"rental_uris":{"android":"levelo://app?vid=51bbe6ec-3f47-401a-8aa6-bc859b2aeb71","ios":"levelo://app?vid=51bbe6ec-3f47-401a-8aa6-bc859b2aeb71"},"vehicle_type_id":"4","last_reported":1751105403,"current_range_meters":16000,"station_id":"ce4bhch2rcd13ifvqeug","pricing_plan_id":"cebpf4jnsgd1na2vs0mg"},{"bike_id":"2c9484a9-4dab-4c41-9a4a-6af8a024adcf","system_id":"levelo_inurba_marseille","lat":43.26784,"lon":5.39421,"is_reserved":false,"is_disabled":false,"rental_uris":{"android":"levelo://app?vid=2c9484a9-4dab-4c41-9a4a-6af8a024adcf","ios":"levelo://app?vid=2c9484a9-4dab-4c41-9a4a-6af8a024adcf"},"vehicle_type_id":"4","last_reported":1751105403,"current_range_meters":16000,"station_id":"ce4bhh12rcd13ifvqfg0","pricing_plan_id":"cebpf4jnsgd1na2vs0mg"},{"bike_id":"6bd9b448-0b38-4c33-b738-f1b5e8722b1e","system_id":"levelo_inurba_marseille","lat":43.2718,"lon":5.40988,"is_reserved":false,"is_disabled":false,"rental_uris":{"android":"levelo://app?vid=6bd9b448-0b38-4c33-b738-f1b5e8722b1e","ios":"levelo://app?vid=6bd9b448-0b38-4c33-b738-f1b5e8722b1e"},"vehicle_type_id":"4","last_reported":1751105403,"current_range_meters":16000,"station_id":"ce4bhl12rcd13ifvqgf0","pricing_plan_id":"cebpf4jnsgd1na2vs0mg"},{"bike_id":"fc360b07-2fb5-491e-992a-92c31c653844","system_id":"levelo_inurba_marseille","lat":43.22945,"lon":5.35388,"is_reserved":false,"is_disabled":false,"rental_uris":{"android":"levelo://app?vid=fc360b07-2fb5-491e-992a-92c31c653844","ios":"levelo://app?vid=fc360b07-2fb5-491e-992a-92c31c653844"},"vehicle_type_id":"4","last_reported":1751105403,"current_range_meters":16000,"station_id":"cpo3532slgdg3j2ikp40","pricing_plan_id":"cebpf4jnsgd1na2vs0mg"},{"bike_id":"b7b58613-cdc6-4750-8137-2d44544d5e13","system_id":"levelo_inurba_marseille","lat":43.3147,"lon":5.3692,"is_reserved":false,"is_disabled":false,"rental_uris":{"android":"levelo://app?vid=b7b58613-cdc6-4750-8137-2d44544d5e13","ios":"levelo://app?vid=b7b58613-cdc6-4750-8137-2d44544d5e13"},"vehicle_type_id":"4","last_reported":1751105403,"current_range_meters":16400,"station_id":"","pricing_plan_id":"cebpf4jnsgd1na2vs0mg"},{"bike_id":"ad257cb2-80ab-48da-982d-b7b72a3e1b91","system_id":"levelo_inurba_marseille","lat":43.29373,"lon":5.37829,"is_reserved":false,"is_disabled":false,"rental_uris":{"android":"levelo://app?vid=ad257cb2-80ab-48da-982d-b7b72a3e1b91","ios":"levelo://app?vid=ad257cb2-80ab-48da-982d-b7b72a3e1b91"},"vehicle_type_id":"4","last_reported":1751105403,"current_range_meters":16400,"station_id":"ce4bgjh2rcd13ifvqbf0","pricing_plan_id":"cebpf4jnsgd1na2vs0mg"},{"bike_id":"0e3cf605-e8d2-45dd-9b57-4d2a35367025","system_id":"levelo_inurba_marseille","lat":43.30889,"lon":5.3718,"is_reserved":false,"is_disabled":false,"rental_uris":{"android":"levelo://app?vid=0e3cf605-e8d2-45dd-9b57-4d2a35367025","ios":"levelo://app?vid=0e3cf605-e8d2-45dd-9b57-4d2a35367025"},"vehicle_type_id":"4","last_reported":1751105403,"current_range_meters":16400,"station_id":"ce4bguh2rcd13ifvqckg","pricing_plan_id":"cebpf4jnsgd1na2vs0mg"},{"bike_id":"eea825f6-0fef-4a75-883b-d90b7db41d7e","system_id":"levelo_inurba_marseille","lat":43.2927,"lon":5.3843,"is_reserved":false,"is_disabled":false,"rental_uris":{"android":"levelo://app?vid=eea825f6-0fef-4a75-883b-d90b7db41d7e","ios":"levelo://app?vid=eea825f6-0fef-4a75-883b-d90b7db41d7e"},"vehicle_type_id":"4","last_reported":1751105403,"current_range_meters":16400,"station_id":"ce4bh692rcd13ifvqea0","pricing_plan_id":"cebpf4jnsgd1na2vs0mg"},{"bike_id":"ac4e629f-f3c4-43ed-b01c-7c74d3553f7e","system_id":"levelo_inurba_marseille","lat":43.27379,"lon":5.36253,"is_reserved":false,"is_disabled":false,"rental_uris":{"android":"levelo://app?vid=ac4e629f-f3c4-43ed-b01c-7c74d3553f7e","ios":"levelo://app?vid=ac4e629f-f3c4-43ed-b01c-7c74d3553f7e"},"vehicle_type_id":"4","last_reported":1751105403,"current_range_meters":16400,"station_id":"ce4bhbh2rcd13ifvqeo0","pricing_plan_id":"cebpf4jnsgd1na2vs0mg"},{"bike_id":"683968a8-695d-48a7-b7bc-a62aae74517d","system_id":"levelo_inurba_marseille","lat":43.28412,"lon":5.34992,"is_reserved":false,"is_disabled":false,"rental_uris":{"android":"levelo://app?vid=683968a8-695d-48a7-b7bc-a62aae74517d","ios":"levelo://app?vid=683968a8-695d-48a7-b7bc-a62aae74517d"},"vehicle_type_id":"4","last_reported":1751105403,"current_range_meters":16400,"station_id":"ce4bhbh2rcd13ifvqepg","pricing_plan_id":"cebpf4jnsgd1na2vs0mg"},{"bike_id":"7025df18-330e-42a4-bc8d-a4cf9b4b300e","system_id":"levelo_inurba_marseille","lat":43.24803,"lon":5.37441,"is_reserved":false,"is_disabled":false,"rental_uris":{"android":"levelo://app?vid=7025df18-330e-42a4-bc8d-a4cf9b4b300e","ios":"levelo://app?vid=7025df18-330e-42a4-bc8d-a4cf9b4b300e"},"vehicle_type_id":"4","last_reported":1751105403,"current_range_meters":16400,"station_id":"ce4bhgh2rcd13ifvqfb0","pricing_plan_id":"cebpf4jnsgd1na2vs0mg"},{"bike_id":"bf525adf-9539-4b47-9dea-a6c9ac31b7a5","system_id":"levelo_inurba_marseille","lat":43.229324,"lon":5.353909,"is_reserved":false,"is_disabled":false,"rental_uris":{"android":"levelo://app?vid=bf525adf-9539-4b47-9dea-a6c9ac31b7a5","ios":"levelo://app?vid=bf525adf-9539-4b47-9dea-a6c9ac31b7a5"},"vehicle_type_id":"4","last_reported":1751105403,"current_range_meters":16400,"station_id":"cpo3532slgdg3j2ikp40","pricing_plan_id":"cebpf4jnsgd1na2vs0mg"},{"bike_id":"1422aae9-4428-4bc5-9f1e-88df6f664dde","system_id":"levelo_inurba_marseille","lat":43.29244,"lon":5.36588,"is_reserved":false,"is_disabled":false,"rental_uris":{"android":"levelo://app?vid=1422aae9-4428-4bc5-9f1e-88df6f664dde","ios":"levelo://app?vid=1422aae9-4428-4bc5-9f1e-88df6f664dde"},"vehicle_type_id":"4","last_reported":1751105403,"current_range_meters":16800,"station_id":"","pricing_plan_id":"cebpf4jnsgd1na2vs0mg"},{"bike_id":"641e6289-6811-41fe-a848-4459481912e3","system_id":"levelo_inurba_marseille","lat":43.279063,"lon":5.395759,"is_reserved":false,"is_disabled":false,"rental_uris":{"android":"levelo://app?vid=641e6289-6811-41fe-a848-4459481912e3","ios":"levelo://app?vid=641e6289-6811-41fe-a848-4459481912e3"},"vehicle_type_id":"4","last_reported":1751105403,"current_range_meters":16800,"station_id":"ce4bhf92rcd13ifvqf40","pricing_plan_id":"cebpf4jnsgd1na2vs0mg"},{"bike_id":"f810be2a-3c00-446f-9ba1-1f3840ce349d","system_id":"levelo_inurba_marseille","lat":43.32111,"lon":5.36772,"is_reserved":false,"is_disabled":false,"rental_uris":{"android":"levelo://app?vid=f810be2a-3c00-446f-9ba1-1f3840ce349d","ios":"levelo://app?vid=f810be2a-3c00-446f-9ba1-1f3840ce349d"},"vehicle_type_id":"4","last_reported":1751105403,"current_range_meters":16800,"station_id":"ce4bhrh2rcd13ifvqhug","pricing_plan_id":"cebpf4jnsgd1na2vs0mg"},{"bike_id":"d88f7a9b-532d-4f16-a895-aad8a6fdc835","system_id":"levelo_inurba_marseille","lat":43.29596,"lon":5.36737,"is_reserved":false,"is_disabled":false,"rental_uris":{"android":"levelo://app?vid=d88f7a9b-532d-4f16-a895-aad8a6fdc835","ios":"levelo://app?vid=d88f7a9b-532d-4f16-a895-aad8a6fdc835"},"vehicle_type_id":"4","last_reported":1751105403,"current_range_meters":17200,"station_id":"ce4bgph2rcd13ifvqc2g","pricing_plan_id":"cebpf4jnsgd1na2vs0mg"},{"bike_id":"871a80c1-1691-4fed-b041-ebc24538ec9c","system_id":"levelo_inurba_marseille","lat":43.296287,"lon":5.405946,"is_reserved":false,"is_disabled":false,"rental_uris":{"android":"levelo://app?vid=871a80c1-1691-4fed-b041-ebc24538ec9c","ios":"levelo://app?vid=871a80c1-1691-4fed-b041-ebc24538ec9c"},"vehicle_type_id":"4","last_reported":1751105403,"current_range_meters":17200,"station_id":"ce4bh0h2rcd13ifvqd60","pricing_plan_id":"cebpf4jnsgd1na2vs0mg"},{"bike_id":"2287b753-3344-403e-a9e0-526651a52461","system_id":"levelo_inurba_marseille","lat":43.24089,"lon":5.37763,"is_reserved":false,"is_disabled":false,"rental_uris":{"android":"levelo://app?vid=2287b753-3344-403e-a9e0-526651a52461","ios":"levelo://app?vid=2287b753-3344-403e-a9e0-526651a52461"},"vehicle_type_id":"4","last_reported":1751105403,"current_range_meters":17200,"station_id":"ce4bhnp2rcd13ifvqgvg","pricing_plan_id":"cebpf4jnsgd1na2vs0mg"},{"bike_id":"c0a2de0a-20e3-4e62-848e-f0dbd6b2e588","system_id":"levelo_inurba_marseille","lat":43.2254,"lon":5.34782,"is_reserved":false,"is_disabled":false,"rental_uris":{"android":"levelo://app?vid=c0a2de0a-20e3-4e62-848e-f0dbd6b2e588","ios":"levelo://app?vid=c0a2de0a-20e3-4e62-848e-f0dbd6b2e588"},"vehicle_type_id":"4","last_reported":1751105403,"current_range_meters":17200,"station_id":"st_cvj5dfep6f1abm77gieg","pricing_plan_id":"cebpf4jnsgd1na2vs0mg"},{"bike_id":"4f7da216-f811-4c57-9e64-cdee7467bddd","system_id":"levelo_inurba_marseille","lat":43.22498,"lon":5.34773,"is_reserved":false,"is_disabled":false,"rental_uris":{"android":"levelo://app?vid=4f7da216-f811-4c57-9e64-cdee7467bddd","ios":"levelo://app?vid=4f7da216-f811-4c57-9e64-cdee7467bddd"},"vehicle_type_id":"4","last_reported":1751105403,"current_range_meters":17200,"station_id":"st_cvj5dfep6f1abm77gieg","pricing_plan_id":"cebpf4jnsgd1na2vs0mg"},{"bike_id":"6f4919b0-d9c4-4c52-b108-ac1dd2e153c7","system_id":"levelo_inurba_marseille","lat":43.31273,"lon":5.36863,"is_reserved":false,"is_disabled":false,"rental_uris":{"android":"levelo://app?vid=6f4919b0-d9c4-4c52-b108-ac1dd2e153c7","ios":"levelo://app?vid=6f4919b0-d9c4-4c52-b108-ac1dd2e153c7"},"vehicle_type_id":"4","last_reported":1751105403,"current_range_meters":17600,"station_id":"","pricing_plan_id":"cebpf4jnsgd1na2vs0mg"},{"bike_id":"d308c658-b19c-49c0-8014-5506ff26f69a","system_id":"levelo_inurba_marseille","lat":43.23077,"lon":5.40445,"is_reserved":false,"is_disabled":false,"rental_uris":{"android":"levelo://app?vid=d308c658-b19c-49c0-8014-5506ff26f69a","ios":"levelo://app?vid=d308c658-b19c-49c0-8014-5506ff26f69a"},"vehicle_type_id":"4","last_reported":1751105403,"current_range_meters":17600,"station_id":"","pricing_plan_id":"cebpf4jnsgd1na2vs0mg"},{"bike_id":"8d93b8ff-f872-47a5-8d0c-85b45ebba604","system_id":"levelo_inurba_marseille","lat":43.29911,"lon":5.38131,"is_reserved":false,"is_disabled":false,"rental_uris":{"android":"levelo://app?vid=8d93b8ff-f872-47a5-8d0c-85b45ebba604","ios":"levelo://app?vid=8d93b8ff-f872-47a5-8d0c-85b45ebba604"},"vehicle_type_id":"4","last_reported":1751105403,"current_range_meters":17600,"station_id":"ce4bgj12rcd13ifvqbc0","pricing_plan_id":"cebpf4jnsgd1na2vs0mg"},{"bike_id":"ad43a75c-18b4-4066-98e5-b67a20424983","system_id":"levelo_inurba_marseille","lat":43.30146,"lon":5.38081,"is_reserved":false,"is_disabled":false,"rental_uris":{"android":"levelo://app?vid=ad43a75c-18b4-4066-98e5-b67a20424983","ios":"levelo://app?vid=ad43a75c-18b4-4066-98e5-b67a20424983"},"vehicle_type_id":"4","last_reported":1751105403,"current_range_meters":17600,"station_id":"ce4bgjp2rcd13ifvqbh0","pricing_plan_id":"cebpf4jnsgd1na2vs0mg"},{"bike_id":"2c03385f-76a7-47fe-b1bf-f32d10282144","system_id":"levelo_inurba_marseille","lat":43.29854,"lon":5.36283,"is_reserved":false,"is_disabled":false,"rental_uris":{"android":"levelo://app?vid=2c03385f-76a7-47fe-b1bf-f32d10282144","ios":"levelo://app?vid=2c03385f-76a7-47fe-b1bf-f32d10282144"},"vehicle_type_id":"4","last_reported":1751105403,"current_range_meters":17600,"station_id":"ce4bgpp2rcd13ifvqc3g","pricing_plan_id":"cebpf4jnsgd1na2vs0mg"},{"bike_id":"ec1641df-6975-481a-9083-9175bcb48235","system_id":"levelo_inurba_marseille","lat":43.31504,"lon":5.37284,"is_reserved":false,"is_disabled":false,"rental_uris":{"android":"levelo://app?vid=ec1641df-6975-481a-9083-9175bcb48235","ios":"levelo://app?vid=ec1641df-6975-481a-9083-9175bcb48235"},"vehicle_type_id":"4","last_reported":1751105403,"current_range_meters":17600,"station_id":"ce4bgt12rcd13ifvqcd0","pricing_plan_id":"cebpf4jnsgd1na2vs0mg"},{"bike_id":"ffd8d556-a552-4fe6-afa9-5da9f35abb8d","system_id":"levelo_inurba_marseille","lat":43.30894,"lon":5.37191,"is_reserved":false,"is_disabled":false,"rental_uris":{"android":"levelo://app?vid=ffd8d556-a552-4fe6-afa9-5da9f35abb8d","ios":"levelo://app?vid=ffd8d556-a552-4fe6-afa9-5da9f35abb8d"},"vehicle_type_id":"4","last_reported":1751105403,"current_range_meters":17600,"station_id":"ce4bguh2rcd13ifvqckg","pricing_plan_id":"cebpf4jnsgd1na2vs0mg"},{"bike_id":"f342fe44-5d74-40e3-a0fa-5214bcb4d08c","system_id":"levelo_inurba_marseille","lat":43.31678,"lon":5.40467,"is_reserved":false,"is_disabled":false,"rental_uris":{"android":"levelo://app?vid=f342fe44-5d74-40e3-a0fa-5214bcb4d08c","ios":"levelo://app?vid=f342fe44-5d74-40e3-a0fa-5214bcb4d08c"},"vehicle_type_id":"4","last_reported":1751105403,"current_range_meters":17600,"station_id":"ce4bh012rcd13ifvqd00","pricing_plan_id":"cebpf4jnsgd1na2vs0mg"},{"bike_id":"db821bdc-433a-4b87-abec-9312b5b57723","system_id":"levelo_inurba_marseille","lat":43.21191,"lon":5.35071,"is_reserved":false,"is_disabled":false,"rental_uris":{"android":"levelo://app?vid=db821bdc-433a-4b87-abec-9312b5b57723","ios":"levelo://app?vid=db821bdc-433a-4b87-abec-9312b5b57723"},"vehicle_type_id":"4","last_reported":1751105403,"current_range_meters":17600,"station_id":"st_cvj6sg6p6f1abm77japg","pricing_plan_id":"cebpf4jnsgd1na2vs0mg"},{"bike_id":"b13877a6-4825-4d82-b46b-67fa8ad66c5d","system_id":"levelo_inurba_marseille","lat":43.21193,"lon":5.35064,"is_reserved":false,"is_disabled":false,"rental_uris":{"android":"levelo://app?vid=b13877a6-4825-4d82-b46b-67fa8ad66c5d","ios":"levelo://app?vid=b13877a6-4825-4d82-b46b-67fa8ad66c5d"},"vehicle_type_id":"4","last_reported":1751105403,"current_range_meters":17600,"station_id":"st_cvj6sg6p6f1abm77japg","pricing_plan_id":"cebpf4jnsgd1na2vs0mg"},{"bike_id":"9063a283-04e6-416a-b7fe-b3ed16db32dd","system_id":"levelo_inurba_marseille","lat":43.21191,"lon":5.35072,"is_reserved":false,"is_disabled":false,"rental_uris":{"android":"levelo://app?vid=9063a283-04e6-416a-b7fe-b3ed16db32dd","ios":"levelo://app?vid=9063a283-04e6-416a-b7fe-b3ed16db32dd"},"vehicle_type_id":"4","last_reported":1751105403,"current_range_meters":17600,"station_id":"st_cvj6sg6p6f1abm77japg","pricing_plan_id":"cebpf4jnsgd1na2vs0mg"},{"bike_id":"735fb3ec-51d3-42a0-b0e0-35a6ef148211","system_id":"levelo_inurba_marseille","lat":43.31326,"lon":5.3734,"is_reserved":false,"is_disabled":false,"rental_uris":{"android":"levelo://app?vid=735fb3ec-51d3-42a0-b0e0-35a6ef148211","ios":"levelo://app?vid=735fb3ec-51d3-42a0-b0e0-35a6ef148211"},"vehicle_type_id":"4","last_reported":1751105403,"current_range_meters":18000,"station_id":"","pricing_plan_id":"cebpf4jnsgd1na2vs0mg"},{"bike_id":"80a563cd-2512-4b18-8644-9b4140646fdc","system_id":"levelo_inurba_marseille","lat":43.25747,"lon":5.41072,"is_reserved":false,"is_disabled":false,"rental_uris":{"android":"levelo://app?vid=80a563cd-2512-4b18-8644-9b4140646fdc","ios":"levelo://app?vid=80a563cd-2512-4b18-8644-9b4140646fdc"},"vehicle_type_id":"4","last_reported":1751105403,"current_range_meters":18000,"station_id":"","pricing_plan_id":"cebpf4jnsgd1na2vs0mg"},{"bike_id":"d4e8a291-ae55-446d-a85e-63a7ce0108a5","system_id":"levelo_inurba_marseille","lat":43.29299,"lon":5.37456,"is_reserved":false,"is_disabled":false,"rental_uris":{"android":"levelo://app?vid=d4e8a291-ae55-446d-a85e-63a7ce0108a5","ios":"levelo://app?vid=d4e8a291-ae55-446d-a85e-63a7ce0108a5"},"vehicle_type_id":"4","last_reported":1751105403,"current_range_meters":18000,"station_id":"ce4bgi12rcd13ifvqb70","pricing_plan_id":"cebpf4jnsgd1na2vs0mg"},{"bike_id":"5362cab0-6dcb-4dee-8a37-5ed826c77ba7","system_id":"levelo_inurba_marseille","lat":43.29918,"lon":5.37464,"is_reserved":false,"is_disabled":false,"rental_uris":{"android":"levelo://app?vid=5362cab0-6dcb-4dee-8a37-5ed826c77ba7","ios":"levelo://app?vid=5362cab0-6dcb-4dee-8a37-5ed826c77ba7"},"vehicle_type_id":"4","last_reported":1751105403,"current_range_meters":18000,"station_id":"ce4bgjh2rcd13ifvqbg0","pricing_plan_id":"cebpf4jnsgd1na2vs0mg"},{"bike_id":"aff4423e-c2af-4b70-b9bd-2bdc17fafffc","system_id":"levelo_inurba_marseille","lat":43.24172,"lon":5.36404,"is_reserved":false,"is_disabled":false,"rental_uris":{"android":"levelo://app?vid=aff4423e-c2af-4b70-b9bd-2bdc17fafffc","ios":"levelo://app?vid=aff4423e-c2af-4b70-b9bd-2bdc17fafffc"},"vehicle_type_id":"4","last_reported":1751105403,"current_range_meters":18000,"station_id":"cpo36qri1sfpv3e86is0","pricing_plan_id":"cebpf4jnsgd1na2vs0mg"},{"bike_id":"8938ae4b-572d-47fc-b025-02b05af60188","system_id":"levelo_inurba_marseille","lat":43.22504,"lon":5.34778,"is_reserved":false,"is_disabled":false,"rental_uris":{"android":"levelo://app?vid=8938ae4b-572d-47fc-b025-02b05af60188","ios":"levelo://app?vid=8938ae4b-572d-47fc-b025-02b05af60188"},"vehicle_type_id":"4","last_reported":1751105403,"current_range_meters":18000,"station_id":"st_cvj5dfep6f1abm77gieg","pricing_plan_id":"cebpf4jnsgd1na2vs0mg"},{"bike_id":"00232df6-47e0-4159-9a64-03051f9ea3a1","system_id":"levelo_inurba_marseille","lat":43.281129,"lon":5.398633,"is_reserved":false,"is_disabled":false,"rental_uris":{"android":"levelo://app?vid=00232df6-47e0-4159-9a64-03051f9ea3a1","ios":"levelo://app?vid=00232df6-47e0-4159-9a64-03051f9ea3a1"},"vehicle_type_id":"4","last_reported":1751105403,"current_range_meters":18800,"station_id":"","pricing_plan_id":"cebpf4jnsgd1na2vs0mg"},{"bike_id":"c595d0e1-c778-4abe-9c79-a9dd74f54e27","system_id":"levelo_inurba_marseille","lat":43.2447,"lon":5.37229,"is_reserved":false,"is_disabled":false,"rental_uris":{"android":"levelo://app?vid=c595d0e1-c778-4abe-9c79-a9dd74f54e27","ios":"levelo://app?vid=c595d0e1-c778-4abe-9c79-a9dd74f54e27"},"vehicle_type_id":"4","last_reported":1751105403,"current_range_meters":18800,"station_id":"","pricing_plan_id":"cebpf4jnsgd1na2vs0mg"},{"bike_id":"f982334d-72e8-4b3a-b3eb-f6cf8245eee2","system_id":"levelo_inurba_marseille","lat":43.33765,"lon":5.37432,"is_reserved":false,"is_disabled":false,"rental_uris":{"android":"levelo://app?vid=f982334d-72e8-4b3a-b3eb-f6cf8245eee2","ios":"levelo://app?vid=f982334d-72e8-4b3a-b3eb-f6cf8245eee2"},"vehicle_type_id":"4","last_reported":1751105403,"current_range_meters":19200,"station_id":"","pricing_plan_id":"cebpf4jnsgd1na2vs0mg"},{"bike_id":"3a7e54b5-a2f5-42f3-a085-743ac5e93398","system_id":"levelo_inurba_marseille","lat":43.25187,"lon":5.42213,"is_reserved":false,"is_disabled":false,"rental_uris":{"android":"levelo://app?vid=3a7e54b5-a2f5-42f3-a085-743ac5e93398","ios":"levelo://app?vid=3a7e54b5-a2f5-42f3-a085-743ac5e93398"},"vehicle_type_id":"4","last_reported":1751105403,"current_range_meters":19200,"station_id":"","pricing_plan_id":"cebpf4jnsgd1na2vs0mg"},{"bike_id":"2bb80ec4-00d7-4bf8-a4a9-7190a2ef2930","system_id":"levelo_inurba_marseille","lat":43.25865,"lon":5.39899,"is_reserved":false,"is_disabled":false,"rental_uris":{"android":"levelo://app?vid=2bb80ec4-00d7-4bf8-a4a9-7190a2ef2930","ios":"levelo://app?vid=2bb80ec4-00d7-4bf8-a4a9-7190a2ef2930"},"vehicle_type_id":"4","last_reported":1751105403,"current_range_meters":19200,"station_id":"ce4bhl92rcd13ifvqghg","pricing_plan_id":"cebpf4jnsgd1na2vs0mg"},{"bike_id":"e8ea605e-e138-4e5e-ba06-7b44d8d7c125","system_id":"levelo_inurba_marseille","lat":43.21189,"lon":5.35077,"is_reserved":false,"is_disabled":false,"rental_uris":{"android":"levelo://app?vid=e8ea605e-e138-4e5e-ba06-7b44d8d7c125","ios":"levelo://app?vid=e8ea605e-e138-4e5e-ba06-7b44d8d7c125"},"vehicle_type_id":"4","last_reported":1751105403,"current_range_meters":19200,"station_id":"st_cvj6sg6p6f1abm77japg","pricing_plan_id":"cebpf4jnsgd1na2vs0mg"},{"bike_id":"9fd09735-2b96-4fa0-8631-0458486c8f64","system_id":"levelo_inurba_marseille","lat":43.29279,"lon":5.3843,"is_reserved":false,"is_disabled":false,"rental_uris":{"android":"levelo://app?vid=9fd09735-2b96-4fa0-8631-0458486c8f64","ios":"levelo://app?vid=9fd09735-2b96-4fa0-8631-0458486c8f64"},"vehicle_type_id":"4","last_reported":1751105403,"current_range_meters":19600,"station_id":"ce4bh692rcd13ifvqea0","pricing_plan_id":"cebpf4jnsgd1na2vs0mg"},{"bike_id":"7fa5713d-1f43-4b5b-bbcb-b6bcc29be8b3","system_id":"levelo_inurba_marseille","lat":43.289386,"lon":5.366434,"is_reserved":false,"is_disabled":false,"rental_uris":{"android":"levelo://app?vid=7fa5713d-1f43-4b5b-bbcb-b6bcc29be8b3","ios":"levelo://app?vid=7fa5713d-1f43-4b5b-bbcb-b6bcc29be8b3"},"vehicle_type_id":"4","last_reported":1751105403,"current_range_meters":19600,"station_id":"ce4bhap2rcd13ifvqek0","pricing_plan_id":"cebpf4jnsgd1na2vs0mg"},{"bike_id":"fede116f-fe8f-4996-bd86-bef08c43bb15","system_id":"levelo_inurba_marseille","lat":43.28435,"lon":5.34998,"is_reserved":false,"is_disabled":false,"rental_uris":{"android":"levelo://app?vid=fede116f-fe8f-4996-bd86-bef08c43bb15","ios":"levelo://app?vid=fede116f-fe8f-4996-bd86-bef08c43bb15"},"vehicle_type_id":"4","last_reported":1751105403,"current_range_meters":19600,"station_id":"ce4bhbh2rcd13ifvqepg","pricing_plan_id":"cebpf4jnsgd1na2vs0mg"},{"bike_id":"1bb5be89-a673-436f-b463-107936c48780","system_id":"levelo_inurba_marseille","lat":43.28421,"lon":5.34991,"is_reserved":false,"is_disabled":false,"rental_uris":{"android":"levelo://app?vid=1bb5be89-a673-436f-b463-107936c48780","ios":"levelo://app?vid=1bb5be89-a673-436f-b463-107936c48780"},"vehicle_type_id":"4","last_reported":1751105403,"current_range_meters":19600,"station_id":"ce4bhbh2rcd13ifvqepg","pricing_plan_id":"cebpf4jnsgd1na2vs0mg"},{"bike_id":"a7d9ea85-783b-4a03-af7f-769c6913b5a6","system_id":"levelo_inurba_marseille","lat":43.24168,"lon":5.39716,"is_reserved":false,"is_disabled":false,"rental_uris":{"android":"levelo://app?vid=a7d9ea85-783b-4a03-af7f-769c6913b5a6","ios":"levelo://app?vid=a7d9ea85-783b-4a03-af7f-769c6913b5a6"},"vehicle_type_id":"4","last_reported":1751105403,"current_range_meters":19600,"station_id":"ce4bhn12rcd13ifvqgpg","pricing_plan_id":"cebpf4jnsgd1na2vs0mg"},{"bike_id":"7757c5d7-8597-4da8-bc28-0c6a39bb89b9","system_id":"levelo_inurba_marseille","lat":43.32297,"lon":5.383,"is_reserved":false,"is_disabled":false,"rental_uris":{"android":"levelo://app?vid=7757c5d7-8597-4da8-bc28-0c6a39bb89b9","ios":"levelo://app?vid=7757c5d7-8597-4da8-bc28-0c6a39bb89b9"},"vehicle_type_id":"4","last_reported":1751105403,"current_range_meters":19600,"station_id":"ce4bhr12rcd13ifvqhqg","pricing_plan_id":"cebpf4jnsgd1na2vs0mg"},{"bike_id":"938a3fd4-3ed6-48f4-b993-bfd037cb52d6","system_id":"levelo_inurba_marseille","lat":43.22507,"lon":5.34783,"is_reserved":false,"is_disabled":false,"rental_uris":{"android":"levelo://app?vid=938a3fd4-3ed6-48f4-b993-bfd037cb52d6","ios":"levelo://app?vid=938a3fd4-3ed6-48f4-b993-bfd037cb52d6"},"vehicle_type_id":"4","last_reported":1751105403,"current_range_meters":19600,"station_id":"st_cvj5dfep6f1abm77gieg","pricing_plan_id":"cebpf4jnsgd1na2vs0mg"},{"bike_id":"39391c58-0ced-47c1-ad0c-ead1501fc7b8","system_id":"levelo_inurba_marseille","lat":43.21753,"lon":5.34598,"is_reserved":false,"is_disabled":false,"rental_uris":{"android":"levelo://app?vid=39391c58-0ced-47c1-ad0c-ead1501fc7b8","ios":"levelo://app?vid=39391c58-0ced-47c1-ad0c-ead1501fc7b8"},"vehicle_type_id":"4","last_reported":1751105403,"current_range_meters":20000,"station_id":"st_cvj6r9ubvosntc0bgbag","pricing_plan_id":"cebpf4jnsgd1na2vs0mg"},{"bike_id":"f6209cb1-6aa7-41ba-8826-c9055b8ac401","system_id":"levelo_inurba_marseille","lat":43.292991,"lon":5.374578,"is_reserved":false,"is_disabled":false,"rental_uris":{"android":"levelo://app?vid=f6209cb1-6aa7-41ba-8826-c9055b8ac401","ios":"levelo://app?vid=f6209cb1-6aa7-41ba-8826-c9055b8ac401"},"vehicle_type_id":"4","last_reported":1751105403,"current_range_meters":20400,"station_id":"","pricing_plan_id":"cebpf4jnsgd1na2vs0mg"},{"bike_id":"6e53ad1f-d4f5-4de6-9418-67b290ec993f","system_id":"levelo_inurba_marseille","lat":43.30941,"lon":5.4103,"is_reserved":false,"is_disabled":false,"rental_uris":{"android":"levelo://app?vid=6e53ad1f-d4f5-4de6-9418-67b290ec993f","ios":"levelo://app?vid=6e53ad1f-d4f5-4de6-9418-67b290ec993f"},"vehicle_type_id":"4","last_reported":1751105403,"current_range_meters":20400,"station_id":"","pricing_plan_id":"cebpf4jnsgd1na2vs0mg"},{"bike_id":"a48552d5-2c58-43d6-95ef-14837cfa1b7a","system_id":"levelo_inurba_marseille","lat":43.30956,"lon":5.40489,"is_reserved":false,"is_disabled":false,"rental_uris":{"android":"levelo://app?vid=a48552d5-2c58-43d6-95ef-14837cfa1b7a","ios":"levelo://app?vid=a48552d5-2c58-43d6-95ef-14837cfa1b7a"},"vehicle_type_id":"4","last_reported":1751105403,"current_range_meters":20400,"station_id":"","pricing_plan_id":"cebpf4jnsgd1na2vs0mg"},{"bike_id":"021a97b1-5ba1-4412-b63a-3d7e34ede277","system_id":"levelo_inurba_marseille","lat":43.29591,"lon":5.37537,"is_reserved":false,"is_disabled":false,"rental_uris":{"android":"levelo://app?vid=021a97b1-5ba1-4412-b63a-3d7e34ede277","ios":"levelo://app?vid=021a97b1-5ba1-4412-b63a-3d7e34ede277"},"vehicle_type_id":"4","last_reported":1751105403,"current_range_meters":20400,"station_id":"ce4bgh92rcd13ifvqb50","pricing_plan_id":"cebpf4jnsgd1na2vs0mg"},{"bike_id":"44fb4cee-d067-41cd-96e3-e0cc6ac4f3ab","system_id":"levelo_inurba_marseille","lat":43.29589,"lon":5.37519,"is_reserved":false,"is_disabled":false,"rental_uris":{"android":"levelo://app?vid=44fb4cee-d067-41cd-96e3-e0cc6ac4f3ab","ios":"levelo://app?vid=44fb4cee-d067-41cd-96e3-e0cc6ac4f3ab"},"vehicle_type_id":"4","last_reported":1751105403,"current_range_meters":20400,"station_id":"ce4bgh92rcd13ifvqb50","pricing_plan_id":"cebpf4jnsgd1na2vs0mg"},{"bike_id":"3dc30ec2-b981-41aa-8c7e-1c4c91ca42ef","system_id":"levelo_inurba_marseille","lat":43.282645,"lon":5.350598,"is_reserved":false,"is_disabled":false,"rental_uris":{"android":"levelo://app?vid=3dc30ec2-b981-41aa-8c7e-1c4c91ca42ef","ios":"levelo://app?vid=3dc30ec2-b981-41aa-8c7e-1c4c91ca42ef"},"vehicle_type_id":"4","last_reported":1751105403,"current_range_meters":20400,"station_id":"ce4bhbp2rcd13ifvqerg","pricing_plan_id":"cebpf4jnsgd1na2vs0mg"},{"bike_id":"e344ea8a-05e9-4a57-906d-9c69aa9456b8","system_id":"levelo_inurba_marseille","lat":43.289438,"lon":5.364,"is_reserved":false,"is_disabled":false,"rental_uris":{"android":"levelo://app?vid=e344ea8a-05e9-4a57-906d-9c69aa9456b8","ios":"levelo://app?vid=e344ea8a-05e9-4a57-906d-9c69aa9456b8"},"vehicle_type_id":"4","last_reported":1751105403,"current_range_meters":20400,"station_id":"ce4bhc92rcd13ifvqetg","pricing_plan_id":"cebpf4jnsgd1na2vs0mg"},{"bike_id":"bc0333fd-1397-4952-b6c9-b389233d6324","system_id":"levelo_inurba_marseille","lat":43.25498,"lon":5.37656,"is_reserved":false,"is_disabled":false,"rental_uris":{"android":"levelo://app?vid=bc0333fd-1397-4952-b6c9-b389233d6324","ios":"levelo://app?vid=bc0333fd-1397-4952-b6c9-b389233d6324"},"vehicle_type_id":"4","last_reported":1751105403,"current_range_meters":20400,"station_id":"ce4bhh12rcd13ifvqff0","pricing_plan_id":"cebpf4jnsgd1na2vs0mg"},{"bike_id":"a3261e7a-d4d7-41df-825f-a76a646abba6","system_id":"levelo_inurba_marseille","lat":43.26783,"lon":5.39421,"is_reserved":false,"is_disabled":false,"rental_uris":{"android":"levelo://app?vid=a3261e7a-d4d7-41df-825f-a76a646abba6","ios":"levelo://app?vid=a3261e7a-d4d7-41df-825f-a76a646abba6"},"vehicle_type_id":"4","last_reported":1751105403,"current_range_meters":20400,"station_id":"ce4bhh12rcd13ifvqfg0","pricing_plan_id":"cebpf4jnsgd1na2vs0mg"},{"bike_id":"ae1ca526-d790-4b4d-aebb-b41bba8c1206","system_id":"levelo_inurba_marseille","lat":43.25931,"lon":5.40912,"is_reserved":false,"is_disabled":false,"rental_uris":{"android":"levelo://app?vid=ae1ca526-d790-4b4d-aebb-b41bba8c1206","ios":"levelo://app?vid=ae1ca526-d790-4b4d-aebb-b41bba8c1206"},"vehicle_type_id":"4","last_reported":1751105403,"current_range_meters":20400,"station_id":"ce4bhm92rcd13ifvqglg","pricing_plan_id":"cebpf4jnsgd1na2vs0mg"},{"bike_id":"bf24b26e-7f51-4120-9a48-54c87edaa2f7","system_id":"levelo_inurba_marseille","lat":43.21188,"lon":5.35072,"is_reserved":false,"is_disabled":false,"rental_uris":{"android":"levelo://app?vid=bf24b26e-7f51-4120-9a48-54c87edaa2f7","ios":"levelo://app?vid=bf24b26e-7f51-4120-9a48-54c87edaa2f7"},"vehicle_type_id":"4","last_reported":1751105403,"current_range_meters":20400,"station_id":"st_cvj6sg6p6f1abm77japg","pricing_plan_id":"cebpf4jnsgd1na2vs0mg"},{"bike_id":"09cb3b7f-3ebf-4726-ab49-a55d4fd48b3c","system_id":"levelo_inurba_marseille","lat":43.28089,"lon":5.4075,"is_reserved":false,"is_disabled":false,"rental_uris":{"android":"levelo://app?vid=09cb3b7f-3ebf-4726-ab49-a55d4fd48b3c","ios":"levelo://app?vid=09cb3b7f-3ebf-4726-ab49-a55d4fd48b3c"},"vehicle_type_id":"4","last_reported":1751105403,"current_range_meters":20800,"station_id":"","pricing_plan_id":"cebpf4jnsgd1na2vs0mg"},{"bike_id":"ed770461-ca86-48a0-9e67-54dc30bd9693","system_id":"levelo_inurba_marseille","lat":43.30616,"lon":5.37249,"is_reserved":false,"is_disabled":false,"rental_uris":{"android":"levelo://app?vid=ed770461-ca86-48a0-9e67-54dc30bd9693","ios":"levelo://app?vid=ed770461-ca86-48a0-9e67-54dc30bd9693"},"vehicle_type_id":"4","last_reported":1751105403,"current_range_meters":20800,"station_id":"ce4bgqh2rcd13ifvqc4g","pricing_plan_id":"cebpf4jnsgd1na2vs0mg"},{"bike_id":"7b2e67dc-2067-4c94-9b05-ca15e2a71d34","system_id":"levelo_inurba_marseille","lat":43.27377,"lon":5.36255,"is_reserved":false,"is_disabled":false,"rental_uris":{"android":"levelo://app?vid=7b2e67dc-2067-4c94-9b05-ca15e2a71d34","ios":"levelo://app?vid=7b2e67dc-2067-4c94-9b05-ca15e2a71d34"},"vehicle_type_id":"4","last_reported":1751105403,"current_range_meters":20800,"station_id":"ce4bhbh2rcd13ifvqeo0","pricing_plan_id":"cebpf4jnsgd1na2vs0mg"},{"bike_id":"3712e055-98e2-4a2b-a781-d12d53a41026","system_id":"levelo_inurba_marseille","lat":43.29282,"lon":5.36852,"is_reserved":false,"is_disabled":false,"rental_uris":{"android":"levelo://app?vid=3712e055-98e2-4a2b-a781-d12d53a41026","ios":"levelo://app?vid=3712e055-98e2-4a2b-a781-d12d53a41026"},"vehicle_type_id":"4","last_reported":1751105403,"current_range_meters":20800,"station_id":"ce4bhbp2rcd13ifvqesg","pricing_plan_id":"cebpf4jnsgd1na2vs0mg"},{"bike_id":"7bda6b61-95c2-4760-9b18-5f93255ec6e6","system_id":"levelo_inurba_marseille","lat":43.26562,"lon":5.37279,"is_reserved":false,"is_disabled":false,"rental_uris":{"android":"levelo://app?vid=7bda6b61-95c2-4760-9b18-5f93255ec6e6","ios":"levelo://app?vid=7bda6b61-95c2-4760-9b18-5f93255ec6e6"},"vehicle_type_id":"4","last_reported":1751105403,"current_range_meters":20800,"station_id":"ce4bhg12rcd13ifvqf70","pricing_plan_id":"cebpf4jnsgd1na2vs0mg"},{"bike_id":"ed92a9c0-fb64-496e-9fee-b9638536839a","system_id":"levelo_inurba_marseille","lat":43.23195,"lon":5.35547,"is_reserved":false,"is_disabled":false,"rental_uris":{"android":"levelo://app?vid=ed92a9c0-fb64-496e-9fee-b9638536839a","ios":"levelo://app?vid=ed92a9c0-fb64-496e-9fee-b9638536839a"},"vehicle_type_id":"4","last_reported":1751105403,"current_range_meters":20800,"station_id":"ce4bhu92rcd13ifvqi70","pricing_plan_id":"cebpf4jnsgd1na2vs0mg"},{"bike_id":"7f212f1e-9b22-4ad3-88bb-18d999719345","system_id":"levelo_inurba_marseille","lat":43.21189,"lon":5.35074,"is_reserved":false,"is_disabled":false,"rental_uris":{"android":"levelo://app?vid=7f212f1e-9b22-4ad3-88bb-18d999719345","ios":"levelo://app?vid=7f212f1e-9b22-4ad3-88bb-18d999719345"},"vehicle_type_id":"4","last_reported":1751105403,"current_range_meters":20800,"station_id":"st_cvj6sg6p6f1abm77japg","pricing_plan_id":"cebpf4jnsgd1na2vs0mg"},{"bike_id":"9a86554f-239c-4c5b-acf9-a87ec4122fc5","system_id":"levelo_inurba_marseille","lat":43.29273,"lon":5.38437,"is_reserved":false,"is_disabled":false,"rental_uris":{"android":"levelo://app?vid=9a86554f-239c-4c5b-acf9-a87ec4122fc5","ios":"levelo://app?vid=9a86554f-239c-4c5b-acf9-a87ec4122fc5"},"vehicle_type_id":"4","last_reported":1751105403,"current_range_meters":21600,"station_id":"","pricing_plan_id":"cebpf4jnsgd1na2vs0mg"},{"bike_id":"245a535d-b3a2-42f0-90a3-f398895f6e47","system_id":"levelo_inurba_marseille","lat":43.30543,"lon":5.36554,"is_reserved":false,"is_disabled":false,"rental_uris":{"android":"levelo://app?vid=245a535d-b3a2-42f0-90a3-f398895f6e47","ios":"levelo://app?vid=245a535d-b3a2-42f0-90a3-f398895f6e47"},"vehicle_type_id":"4","last_reported":1751105403,"current_range_meters":21600,"station_id":"ce4bgs12rcd13ifvqcag","pricing_plan_id":"cebpf4jnsgd1na2vs0mg"},{"bike_id":"765bdd45-ed5b-423f-a074-cf48884f0bda","system_id":"levelo_inurba_marseille","lat":43.30467,"lon":5.37904,"is_reserved":false,"is_disabled":false,"rental_uris":{"android":"levelo://app?vid=765bdd45-ed5b-423f-a074-cf48884f0bda","ios":"levelo://app?vid=765bdd45-ed5b-423f-a074-cf48884f0bda"},"vehicle_type_id":"4","last_reported":1751105403,"current_range_meters":21600,"station_id":"ce4bgup2rcd13ifvqcn0","pricing_plan_id":"cebpf4jnsgd1na2vs0mg"},{"bike_id":"de7d55b7-6dde-4e88-a25c-e55480605910","system_id":"levelo_inurba_marseille","lat":43.28939,"lon":5.396297,"is_reserved":false,"is_disabled":false,"rental_uris":{"android":"levelo://app?vid=de7d55b7-6dde-4e88-a25c-e55480605910","ios":"levelo://app?vid=de7d55b7-6dde-4e88-a25c-e55480605910"},"vehicle_type_id":"4","last_reported":1751105403,"current_range_meters":21600,"station_id":"ce4bh3h2rcd13ifvqdn0","pricing_plan_id":"cebpf4jnsgd1na2vs0mg"},{"bike_id":"7a8bd449-dc92-4d82-ae40-dcf4a5b6bb6e","system_id":"levelo_inurba_marseille","lat":43.2862,"lon":5.35101,"is_reserved":false,"is_disabled":false,"rental_uris":{"android":"levelo://app?vid=7a8bd449-dc92-4d82-ae40-dcf4a5b6bb6e","ios":"levelo://app?vid=7a8bd449-dc92-4d82-ae40-dcf4a5b6bb6e"},"vehicle_type_id":"4","last_reported":1751105403,"current_range_meters":21600,"station_id":"ce4bhch2rcd13ifvqeug","pricing_plan_id":"cebpf4jnsgd1na2vs0mg"},{"bike_id":"c4be0e32-eeb3-4451-9277-1b7a74488010","system_id":"levelo_inurba_marseille","lat":43.25503,"lon":5.37656,"is_reserved":false,"is_disabled":false,"rental_uris":{"android":"levelo://app?vid=c4be0e32-eeb3-4451-9277-1b7a74488010","ios":"levelo://app?vid=c4be0e32-eeb3-4451-9277-1b7a74488010"},"vehicle_type_id":"4","last_reported":1751105403,"current_range_meters":21600,"station_id":"ce4bhh12rcd13ifvqff0","pricing_plan_id":"cebpf4jnsgd1na2vs0mg"},{"bike_id":"172af478-73af-4aff-bccd-f30849a24220","system_id":"levelo_inurba_marseille","lat":43.26199,"lon":5.37936,"is_reserved":false,"is_disabled":false,"rental_uris":{"android":"levelo://app?vid=172af478-73af-4aff-bccd-f30849a24220","ios":"levelo://app?vid=172af478-73af-4aff-bccd-f30849a24220"},"vehicle_type_id":"4","last_reported":1751105403,"current_range_meters":21600,"station_id":"ce4bhjp2rcd13ifvqg90","pricing_plan_id":"cebpf4jnsgd1na2vs0mg"},{"bike_id":"7cd73daf-6410-4b72-a872-e5224e9d29ff","system_id":"levelo_inurba_marseille","lat":43.27394,"lon":5.41403,"is_reserved":false,"is_disabled":false,"rental_uris":{"android":"levelo://app?vid=7cd73daf-6410-4b72-a872-e5224e9d29ff","ios":"levelo://app?vid=7cd73daf-6410-4b72-a872-e5224e9d29ff"},"vehicle_type_id":"4","last_reported":1751105403,"current_range_meters":22000,"station_id":"","pricing_plan_id":"cebpf4jnsgd1na2vs0mg"},{"bike_id":"525b007c-f7cc-4402-8822-0aab47b66e56","system_id":"levelo_inurba_marseille","lat":43.24178,"lon":5.39727,"is_reserved":false,"is_disabled":false,"rental_uris":{"android":"levelo://app?vid=525b007c-f7cc-4402-8822-0aab47b66e56","ios":"levelo://app?vid=525b007c-f7cc-4402-8822-0aab47b66e56"},"vehicle_type_id":"4","last_reported":1751105403,"current_range_meters":22000,"station_id":"ce4bhn12rcd13ifvqgpg","pricing_plan_id":"cebpf4jnsgd1na2vs0mg"},{"bike_id":"e7641e58-176f-485d-9342-129003cdc52b","system_id":"levelo_inurba_marseille","lat":43.32121,"lon":5.36766,"is_reserved":false,"is_disabled":false,"rental_uris":{"android":"levelo://app?vid=e7641e58-176f-485d-9342-129003cdc52b","ios":"levelo://app?vid=e7641e58-176f-485d-9342-129003cdc52b"},"vehicle_type_id":"4","last_reported":1751105403,"current_range_meters":22000,"station_id":"ce4bhrh2rcd13ifvqhug","pricing_plan_id":"cebpf4jnsgd1na2vs0mg"},{"bike_id":"5e947baf-67a8-4b77-9b86-5201e667eaa7","system_id":"levelo_inurba_marseille","lat":43.29531,"lon":5.38538,"is_reserved":false,"is_disabled":false,"rental_uris":{"android":"levelo://app?vid=5e947baf-67a8-4b77-9b86-5201e667eaa7","ios":"levelo://app?vid=5e947baf-67a8-4b77-9b86-5201e667eaa7"},"vehicle_type_id":"4","last_reported":1751105403,"current_range_meters":22400,"station_id":"ce4bgih2rcd13ifvqba0","pricing_plan_id":"cebpf4jnsgd1na2vs0mg"},{"bike_id":"8d79f18a-5391-4980-8b5a-74d607fcbb64","system_id":"levelo_inurba_marseille","lat":43.25498,"lon":5.37645,"is_reserved":false,"is_disabled":false,"rental_uris":{"android":"levelo://app?vid=8d79f18a-5391-4980-8b5a-74d607fcbb64","ios":"levelo://app?vid=8d79f18a-5391-4980-8b5a-74d607fcbb64"},"vehicle_type_id":"4","last_reported":1751105403,"current_range_meters":22400,"station_id":"ce4bhh12rcd13ifvqff0","pricing_plan_id":"cebpf4jnsgd1na2vs0mg"},{"bike_id":"9b21541a-edfa-4c28-a626-87d8c52e11d9","system_id":"levelo_inurba_marseille","lat":43.31764,"lon":5.37435,"is_reserved":false,"is_disabled":false,"rental_uris":{"android":"levelo://app?vid=9b21541a-edfa-4c28-a626-87d8c52e11d9","ios":"levelo://app?vid=9b21541a-edfa-4c28-a626-87d8c52e11d9"},"vehicle_type_id":"4","last_reported":1751105403,"current_range_meters":22800,"station_id":"","pricing_plan_id":"cebpf4jnsgd1na2vs0mg"},{"bike_id":"1b682e9a-595e-4c35-af96-6b8010206dfa","system_id":"levelo_inurba_marseille","lat":43.30153,"lon":5.37415,"is_reserved":false,"is_disabled":false,"rental_uris":{"android":"levelo://app?vid=1b682e9a-595e-4c35-af96-6b8010206dfa","ios":"levelo://app?vid=1b682e9a-595e-4c35-af96-6b8010206dfa"},"vehicle_type_id":"4","last_reported":1751105403,"current_range_meters":22800,"station_id":"ce4bgs92rcd13ifvqcc0","pricing_plan_id":"cebpf4jnsgd1na2vs0mg"},{"bike_id":"2a072b2a-26e6-4b96-9966-6d286bde72cf","system_id":"levelo_inurba_marseille","lat":43.2904,"lon":5.39963,"is_reserved":false,"is_disabled":false,"rental_uris":{"android":"levelo://app?vid=2a072b2a-26e6-4b96-9966-6d286bde72cf","ios":"levelo://app?vid=2a072b2a-26e6-4b96-9966-6d286bde72cf"},"vehicle_type_id":"4","last_reported":1751105403,"current_range_meters":22800,"station_id":"ce4bh392rcd13ifvqdm0","pricing_plan_id":"cebpf4jnsgd1na2vs0mg"},{"bike_id":"bb1fa3de-d5fc-4a65-a017-3bf9e1a09e84","system_id":"levelo_inurba_marseille","lat":43.28427,"lon":5.34987,"is_reserved":false,"is_disabled":false,"rental_uris":{"android":"levelo://app?vid=bb1fa3de-d5fc-4a65-a017-3bf9e1a09e84","ios":"levelo://app?vid=bb1fa3de-d5fc-4a65-a017-3bf9e1a09e84"},"vehicle_type_id":"4","last_reported":1751105403,"current_range_meters":22800,"station_id":"ce4bhbh2rcd13ifvqepg","pricing_plan_id":"cebpf4jnsgd1na2vs0mg"},{"bike_id":"f4db1676-2989-4961-9e5d-370e18ab1e9b","system_id":"levelo_inurba_marseille","lat":43.27438,"lon":5.39407,"is_reserved":false,"is_disabled":false,"rental_uris":{"android":"levelo://app?vid=f4db1676-2989-4961-9e5d-370e18ab1e9b","ios":"levelo://app?vid=f4db1676-2989-4961-9e5d-370e18ab1e9b"},"vehicle_type_id":"4","last_reported":1751105403,"current_range_meters":22800,"station_id":"ce4bhdp2rcd13ifvqf20","pricing_plan_id":"cebpf4jnsgd1na2vs0mg"},{"bike_id":"28fd240d-8d43-405b-8b0f-06bf2c135c9d","system_id":"levelo_inurba_marseille","lat":43.23965,"lon":5.36632,"is_reserved":false,"is_disabled":false,"rental_uris":{"android":"levelo://app?vid=28fd240d-8d43-405b-8b0f-06bf2c135c9d","ios":"levelo://app?vid=28fd240d-8d43-405b-8b0f-06bf2c135c9d"},"vehicle_type_id":"4","last_reported":1751105403,"current_range_meters":22800,"station_id":"ce4bhi12rcd13ifvqfp0","pricing_plan_id":"cebpf4jnsgd1na2vs0mg"},{"bike_id":"0530d8ac-0114-461d-a8ba-09ea5add6fae","system_id":"levelo_inurba_marseille","lat":43.24171,"lon":5.36392,"is_reserved":false,"is_disabled":false,"rental_uris":{"android":"levelo://app?vid=0530d8ac-0114-461d-a8ba-09ea5add6fae","ios":"levelo://app?vid=0530d8ac-0114-461d-a8ba-09ea5add6fae"},"vehicle_type_id":"4","last_reported":1751105403,"current_range_meters":22800,"station_id":"cpo36qri1sfpv3e86is0","pricing_plan_id":"cebpf4jnsgd1na2vs0mg"},{"bike_id":"ff359b06-e82b-4518-b602-f9c62162a27d","system_id":"levelo_inurba_marseille","lat":43.21195,"lon":5.3506,"is_reserved":false,"is_disabled":false,"rental_uris":{"android":"levelo://app?vid=ff359b06-e82b-4518-b602-f9c62162a27d","ios":"levelo://app?vid=ff359b06-e82b-4518-b602-f9c62162a27d"},"vehicle_type_id":"4","last_reported":1751105403,"current_range_meters":22800,"station_id":"st_cvj6sg6p6f1abm77japg","pricing_plan_id":"cebpf4jnsgd1na2vs0mg"},{"bike_id":"1ac664aa-f2a4-4b75-879f-dcb93272d133","system_id":"levelo_inurba_marseille","lat":43.32028,"lon":5.40971,"is_reserved":false,"is_disabled":false,"rental_uris":{"android":"levelo://app?vid=1ac664aa-f2a4-4b75-879f-dcb93272d133","ios":"levelo://app?vid=1ac664aa-f2a4-4b75-879f-dcb93272d133"},"vehicle_type_id":"4","last_reported":1751105403,"current_range_meters":23200,"station_id":"","pricing_plan_id":"cebpf4jnsgd1na2vs0mg"},{"bike_id":"3286abd8-4b63-4621-b4d5-1aded3350866","system_id":"levelo_inurba_marseille","lat":43.29576,"lon":5.37519,"is_reserved":false,"is_disabled":false,"rental_uris":{"android":"levelo://app?vid=3286abd8-4b63-4621-b4d5-1aded3350866","ios":"levelo://app?vid=3286abd8-4b63-4621-b4d5-1aded3350866"},"vehicle_type_id":"4","last_reported":1751105403,"current_range_meters":23200,"station_id":"ce4bgh92rcd13ifvqb50","pricing_plan_id":"cebpf4jnsgd1na2vs0mg"},{"bike_id":"1fe4840d-201a-4e39-987e-a4ce9c7114e0","system_id":"levelo_inurba_marseille","lat":43.31087,"lon":5.38346,"is_reserved":false,"is_disabled":false,"rental_uris":{"android":"levelo://app?vid=1fe4840d-201a-4e39-987e-a4ce9c7114e0","ios":"levelo://app?vid=1fe4840d-201a-4e39-987e-a4ce9c7114e0"},"vehicle_type_id":"4","last_reported":1751105403,"current_range_meters":23200,"station_id":"ce4bgv92rcd13ifvqcr0","pricing_plan_id":"cebpf4jnsgd1na2vs0mg"},{"bike_id":"d32c9008-98a8-42a8-a57d-65b93ffd98dc","system_id":"levelo_inurba_marseille","lat":43.301272,"lon":5.398639,"is_reserved":false,"is_disabled":false,"rental_uris":{"android":"levelo://app?vid=d32c9008-98a8-42a8-a57d-65b93ffd98dc","ios":"levelo://app?vid=d32c9008-98a8-42a8-a57d-65b93ffd98dc"},"vehicle_type_id":"4","last_reported":1751105403,"current_range_meters":23200,"station_id":"ce4bh0h2rcd13ifvqd40","pricing_plan_id":"cebpf4jnsgd1na2vs0mg"},{"bike_id":"3e2583f0-2c4f-49d7-9968-461c238f9084","system_id":"levelo_inurba_marseille","lat":43.301265,"lon":5.398623,"is_reserved":false,"is_disabled":false,"rental_uris":{"android":"levelo://app?vid=3e2583f0-2c4f-49d7-9968-461c238f9084","ios":"levelo://app?vid=3e2583f0-2c4f-49d7-9968-461c238f9084"},"vehicle_type_id":"4","last_reported":1751105403,"current_range_meters":23200,"station_id":"ce4bh0h2rcd13ifvqd40","pricing_plan_id":"cebpf4jnsgd1na2vs0mg"},{"bike_id":"5e25ce43-1b34-4beb-8cbf-451de64bf5b2","system_id":"levelo_inurba_marseille","lat":43.283386,"lon":5.381042,"is_reserved":false,"is_disabled":false,"rental_uris":{"android":"levelo://app?vid=5e25ce43-1b34-4beb-8cbf-451de64bf5b2","ios":"levelo://app?vid=5e25ce43-1b34-4beb-8cbf-451de64bf5b2"},"vehicle_type_id":"4","last_reported":1751105403,"current_range_meters":23200,"station_id":"ce4bh412rcd13ifvqdr0","pricing_plan_id":"cebpf4jnsgd1na2vs0mg"},{"bike_id":"204f0996-2597-472a-93d2-8ac9629c7ce6","system_id":"levelo_inurba_marseille","lat":43.26559,"lon":5.37281,"is_reserved":false,"is_disabled":false,"rental_uris":{"android":"levelo://app?vid=204f0996-2597-472a-93d2-8ac9629c7ce6","ios":"levelo://app?vid=204f0996-2597-472a-93d2-8ac9629c7ce6"},"vehicle_type_id":"4","last_reported":1751105403,"current_range_meters":23200,"station_id":"ce4bhg12rcd13ifvqf70","pricing_plan_id":"cebpf4jnsgd1na2vs0mg"},{"bike_id":"ba926bfc-9632-4680-b0ed-32a040d6fb83","system_id":"levelo_inurba_marseille","lat":43.21186,"lon":5.35064,"is_reserved":false,"is_disabled":false,"rental_uris":{"android":"levelo://app?vid=ba926bfc-9632-4680-b0ed-32a040d6fb83","ios":"levelo://app?vid=ba926bfc-9632-4680-b0ed-32a040d6fb83"},"vehicle_type_id":"4","last_reported":1751105403,"current_range_meters":23200,"station_id":"st_cvj6sg6p6f1abm77japg","pricing_plan_id":"cebpf4jnsgd1na2vs0mg"},{"bike_id":"01c9b150-e855-411d-929e-a0bc737e52c6","system_id":"levelo_inurba_marseille","lat":43.21182,"lon":5.35099,"is_reserved":false,"is_disabled":false,"rental_uris":{"android":"levelo://app?vid=01c9b150-e855-411d-929e-a0bc737e52c6","ios":"levelo://app?vid=01c9b150-e855-411d-929e-a0bc737e52c6"},"vehicle_type_id":"4","last_reported":1751105403,"current_range_meters":23200,"station_id":"st_cvj6sg6p6f1abm77japg","pricing_plan_id":"cebpf4jnsgd1na2vs0mg"},{"bike_id":"452e8211-4f44-45d0-814a-3e9e25b8c44e","system_id":"levelo_inurba_marseille","lat":43.211984,"lon":5.350684,"is_reserved":false,"is_disabled":false,"rental_uris":{"android":"levelo://app?vid=452e8211-4f44-45d0-814a-3e9e25b8c44e","ios":"levelo://app?vid=452e8211-4f44-45d0-814a-3e9e25b8c44e"},"vehicle_type_id":"4","last_reported":1751105403,"current_range_meters":23200,"station_id":"st_cvj6sg6p6f1abm77japg","pricing_plan_id":"cebpf4jnsgd1na2vs0mg"},{"bike_id":"6fa994ad-a86c-4916-83c3-a620abf73293","system_id":"levelo_inurba_marseille","lat":43.30542,"lon":5.38425,"is_reserved":false,"is_disabled":false,"rental_uris":{"android":"levelo://app?vid=6fa994ad-a86c-4916-83c3-a620abf73293","ios":"levelo://app?vid=6fa994ad-a86c-4916-83c3-a620abf73293"},"vehicle_type_id":"4","last_reported":1751105403,"current_range_meters":24000,"station_id":"ce4bgg92rcd13ifvqb30","pricing_plan_id":"cebpf4jnsgd1na2vs0mg"},{"bike_id":"15132cdd-0b10-4485-85ec-af008cafdbf4","system_id":"levelo_inurba_marseille","lat":43.28413,"lon":5.349902,"is_reserved":false,"is_disabled":false,"rental_uris":{"android":"levelo://app?vid=15132cdd-0b10-4485-85ec-af008cafdbf4","ios":"levelo://app?vid=15132cdd-0b10-4485-85ec-af008cafdbf4"},"vehicle_type_id":"4","last_reported":1751105403,"current_range_meters":24000,"station_id":"ce4bhbh2rcd13ifvqepg","pricing_plan_id":"cebpf4jnsgd1na2vs0mg"},{"bike_id":"d03faf0e-6a14-4631-ade1-532df8d3d60e","system_id":"levelo_inurba_marseille","lat":43.26033,"lon":5.3754,"is_reserved":false,"is_disabled":false,"rental_uris":{"android":"levelo://app?vid=d03faf0e-6a14-4631-ade1-532df8d3d60e","ios":"levelo://app?vid=d03faf0e-6a14-4631-ade1-532df8d3d60e"},"vehicle_type_id":"4","last_reported":1751105403,"current_range_meters":24000,"station_id":"ce4bhgh2rcd13ifvqfa0","pricing_plan_id":"cebpf4jnsgd1na2vs0mg"},{"bike_id":"57d7d080-32a9-4c65-b3ac-f79d313f4ef3","system_id":"levelo_inurba_marseille","lat":43.2454,"lon":5.39508,"is_reserved":false,"is_disabled":false,"rental_uris":{"android":"levelo://app?vid=57d7d080-32a9-4c65-b3ac-f79d313f4ef3","ios":"levelo://app?vid=57d7d080-32a9-4c65-b3ac-f79d313f4ef3"},"vehicle_type_id":"4","last_reported":1751105403,"current_range_meters":24000,"station_id":"ce4bhlp2rcd13ifvqgjg","pricing_plan_id":"cebpf4jnsgd1na2vs0mg"},{"bike_id":"a61101a2-743e-458d-bad8-585e8755b65f","system_id":"levelo_inurba_marseille","lat":43.23064,"lon":5.35495,"is_reserved":false,"is_disabled":false,"rental_uris":{"android":"levelo://app?vid=a61101a2-743e-458d-bad8-585e8755b65f","ios":"levelo://app?vid=a61101a2-743e-458d-bad8-585e8755b65f"},"vehicle_type_id":"4","last_reported":1751105403,"current_range_meters":24000,"station_id":"cpo3342slgdg3j2ifvpg","pricing_plan_id":"cebpf4jnsgd1na2vs0mg"},{"bike_id":"d192b54c-3cee-43bf-b9ba-ebe5381351f6","system_id":"levelo_inurba_marseille","lat":43.21767,"lon":5.34603,"is_reserved":false,"is_disabled":false,"rental_uris":{"android":"levelo://app?vid=d192b54c-3cee-43bf-b9ba-ebe5381351f6","ios":"levelo://app?vid=d192b54c-3cee-43bf-b9ba-ebe5381351f6"},"vehicle_type_id":"4","last_reported":1751105403,"current_range_meters":24000,"station_id":"st_cvj6r9ubvosntc0bgbag","pricing_plan_id":"cebpf4jnsgd1na2vs0mg"},{"bike_id":"9e722597-2431-40e4-9a94-4f7e8d24b19d","system_id":"levelo_inurba_marseille","lat":43.31566,"lon":5.37312,"is_reserved":false,"is_disabled":false,"rental_uris":{"android":"levelo://app?vid=9e722597-2431-40e4-9a94-4f7e8d24b19d","ios":"levelo://app?vid=9e722597-2431-40e4-9a94-4f7e8d24b19d"},"vehicle_type_id":"4","last_reported":1751105403,"current_range_meters":24400,"station_id":"","pricing_plan_id":"cebpf4jnsgd1na2vs0mg"},{"bike_id":"a8dc4115-b472-4281-8cc2-351dfe648ffd","system_id":"levelo_inurba_marseille","lat":43.30891,"lon":5.36875,"is_reserved":false,"is_disabled":false,"rental_uris":{"android":"levelo://app?vid=a8dc4115-b472-4281-8cc2-351dfe648ffd","ios":"levelo://app?vid=a8dc4115-b472-4281-8cc2-351dfe648ffd"},"vehicle_type_id":"4","last_reported":1751105403,"current_range_meters":24400,"station_id":"ce4bgn92rcd13ifvqbvg","pricing_plan_id":"cebpf4jnsgd1na2vs0mg"},{"bike_id":"602f053a-0e85-4205-b152-6e04a5a7145e","system_id":"levelo_inurba_marseille","lat":43.31337,"lon":5.39682,"is_reserved":false,"is_disabled":false,"rental_uris":{"android":"levelo://app?vid=602f053a-0e85-4205-b152-6e04a5a7145e","ios":"levelo://app?vid=602f053a-0e85-4205-b152-6e04a5a7145e"},"vehicle_type_id":"4","last_reported":1751105403,"current_range_meters":24400,"station_id":"ce4bgvp2rcd13ifvqcu0","pricing_plan_id":"cebpf4jnsgd1na2vs0mg"},{"bike_id":"8786963e-1715-42d8-925d-73e756704f67","system_id":"levelo_inurba_marseille","lat":43.31689,"lon":5.40388,"is_reserved":false,"is_disabled":false,"rental_uris":{"android":"levelo://app?vid=8786963e-1715-42d8-925d-73e756704f67","ios":"levelo://app?vid=8786963e-1715-42d8-925d-73e756704f67"},"vehicle_type_id":"4","last_reported":1751105403,"current_range_meters":24400,"station_id":"ce4bh012rcd13ifvqd00","pricing_plan_id":"cebpf4jnsgd1na2vs0mg"},{"bike_id":"47526409-c30c-4861-8249-924be23e7b76","system_id":"levelo_inurba_marseille","lat":43.28112,"lon":5.378216,"is_reserved":false,"is_disabled":false,"rental_uris":{"android":"levelo://app?vid=47526409-c30c-4861-8249-924be23e7b76","ios":"levelo://app?vid=47526409-c30c-4861-8249-924be23e7b76"},"vehicle_type_id":"4","last_reported":1751105403,"current_range_meters":24400,"station_id":"ce4bha12rcd13ifvqee0","pricing_plan_id":"cebpf4jnsgd1na2vs0mg"},{"bike_id":"9374555a-a810-4393-a749-68409ea80f05","system_id":"levelo_inurba_marseille","lat":43.28615,"lon":5.35107,"is_reserved":false,"is_disabled":false,"rental_uris":{"android":"levelo://app?vid=9374555a-a810-4393-a749-68409ea80f05","ios":"levelo://app?vid=9374555a-a810-4393-a749-68409ea80f05"},"vehicle_type_id":"4","last_reported":1751105403,"current_range_meters":24400,"station_id":"ce4bhch2rcd13ifvqeug","pricing_plan_id":"cebpf4jnsgd1na2vs0mg"},{"bike_id":"edaa83e7-c9e3-4bde-9321-0f42cdd5380f","system_id":"levelo_inurba_marseille","lat":43.28439,"lon":5.39193,"is_reserved":false,"is_disabled":false,"rental_uris":{"android":"levelo://app?vid=edaa83e7-c9e3-4bde-9321-0f42cdd5380f","ios":"levelo://app?vid=edaa83e7-c9e3-4bde-9321-0f42cdd5380f"},"vehicle_type_id":"4","last_reported":1751105403,"current_range_meters":24400,"station_id":"ce4bhoh2rcd13ifvqh5g","pricing_plan_id":"cebpf4jnsgd1na2vs0mg"},{"bike_id":"1f30e6ed-8504-4448-b3d0-3017ab371be8","system_id":"levelo_inurba_marseille","lat":43.29899,"lon":5.43645,"is_reserved":false,"is_disabled":false,"rental_uris":{"android":"levelo://app?vid=1f30e6ed-8504-4448-b3d0-3017ab371be8","ios":"levelo://app?vid=1f30e6ed-8504-4448-b3d0-3017ab371be8"},"vehicle_type_id":"4","last_reported":1751105403,"current_range_meters":24400,"station_id":"ce4bhpp2rcd13ifvqhfg","pricing_plan_id":"cebpf4jnsgd1na2vs0mg"},{"bike_id":"2264183a-e411-48fe-afb0-4cf5d232cc23","system_id":"levelo_inurba_marseille","lat":43.32043,"lon":5.41567,"is_reserved":false,"is_disabled":false,"rental_uris":{"android":"levelo://app?vid=2264183a-e411-48fe-afb0-4cf5d232cc23","ios":"levelo://app?vid=2264183a-e411-48fe-afb0-4cf5d232cc23"},"vehicle_type_id":"4","last_reported":1751105403,"current_range_meters":24400,"station_id":"ce4bhq92rcd13ifvqhkg","pricing_plan_id":"cebpf4jnsgd1na2vs0mg"},{"bike_id":"9a2900e0-a6cf-4a2f-aef1-d40236c71563","system_id":"levelo_inurba_marseille","lat":43.2417,"lon":5.36398,"is_reserved":false,"is_disabled":false,"rental_uris":{"android":"levelo://app?vid=9a2900e0-a6cf-4a2f-aef1-d40236c71563","ios":"levelo://app?vid=9a2900e0-a6cf-4a2f-aef1-d40236c71563"},"vehicle_type_id":"4","last_reported":1751105403,"current_range_meters":24400,"station_id":"cpo36qri1sfpv3e86is0","pricing_plan_id":"cebpf4jnsgd1na2vs0mg"},{"bike_id":"ab89e5ed-9225-4a8f-bf7b-6939f71feac7","system_id":"levelo_inurba_marseille","lat":43.28424,"lon":5.34986,"is_reserved":false,"is_disabled":false,"rental_uris":{"android":"levelo://app?vid=ab89e5ed-9225-4a8f-bf7b-6939f71feac7","ios":"levelo://app?vid=ab89e5ed-9225-4a8f-bf7b-6939f71feac7"},"vehicle_type_id":"4","last_reported":1751105403,"current_range_meters":24800,"station_id":"ce4bhbh2rcd13ifvqepg","pricing_plan_id":"cebpf4jnsgd1na2vs0mg"},{"bike_id":"e8e633aa-6913-4f5a-9681-4be6e4fcda77","system_id":"levelo_inurba_marseille","lat":43.28273,"lon":5.35078,"is_reserved":false,"is_disabled":false,"rental_uris":{"android":"levelo://app?vid=e8e633aa-6913-4f5a-9681-4be6e4fcda77","ios":"levelo://app?vid=e8e633aa-6913-4f5a-9681-4be6e4fcda77"},"vehicle_type_id":"4","last_reported":1751105403,"current_range_meters":24800,"station_id":"ce4bhbp2rcd13ifvqerg","pricing_plan_id":"cebpf4jnsgd1na2vs0mg"},{"bike_id":"cf6a5e30-1e06-4c56-bb86-0cdc3315ff92","system_id":"levelo_inurba_marseille","lat":43.25002,"lon":5.38923,"is_reserved":false,"is_disabled":false,"rental_uris":{"android":"levelo://app?vid=cf6a5e30-1e06-4c56-bb86-0cdc3315ff92","ios":"levelo://app?vid=cf6a5e30-1e06-4c56-bb86-0cdc3315ff92"},"vehicle_type_id":"4","last_reported":1751105403,"current_range_meters":24800,"station_id":"ce4bhgp2rcd13ifvqfd0","pricing_plan_id":"cebpf4jnsgd1na2vs0mg"},{"bike_id":"e949af3d-2bf7-4da6-b713-72a337f27d64","system_id":"levelo_inurba_marseille","lat":43.23966,"lon":5.36631,"is_reserved":false,"is_disabled":false,"rental_uris":{"android":"levelo://app?vid=e949af3d-2bf7-4da6-b713-72a337f27d64","ios":"levelo://app?vid=e949af3d-2bf7-4da6-b713-72a337f27d64"},"vehicle_type_id":"4","last_reported":1751105403,"current_range_meters":24800,"station_id":"ce4bhi12rcd13ifvqfp0","pricing_plan_id":"cebpf4jnsgd1na2vs0mg"},{"bike_id":"c7ad7a86-cd0c-4fd0-8752-ff7ac3d35442","system_id":"levelo_inurba_marseille","lat":43.33025,"lon":5.39038,"is_reserved":false,"is_disabled":false,"rental_uris":{"android":"levelo://app?vid=c7ad7a86-cd0c-4fd0-8752-ff7ac3d35442","ios":"levelo://app?vid=c7ad7a86-cd0c-4fd0-8752-ff7ac3d35442"},"vehicle_type_id":"4","last_reported":1751105403,"current_range_meters":24800,"station_id":"ce4bhr92rcd13ifvqhrg","pricing_plan_id":"cebpf4jnsgd1na2vs0mg"},{"bike_id":"6248a3ef-766e-45da-9351-45f0df09d787","system_id":"levelo_inurba_marseille","lat":43.337253,"lon":5.391893,"is_reserved":false,"is_disabled":false,"rental_uris":{"android":"levelo://app?vid=6248a3ef-766e-45da-9351-45f0df09d787","ios":"levelo://app?vid=6248a3ef-766e-45da-9351-45f0df09d787"},"vehicle_type_id":"4","last_reported":1751105403,"current_range_meters":24800,"station_id":"ce4bhr92rcd13ifvqhsg","pricing_plan_id":"cebpf4jnsgd1na2vs0mg"},{"bike_id":"3046ca0d-ca98-4100-abe5-7dd23120e893","system_id":"levelo_inurba_marseille","lat":43.21191,"lon":5.35069,"is_reserved":false,"is_disabled":false,"rental_uris":{"android":"levelo://app?vid=3046ca0d-ca98-4100-abe5-7dd23120e893","ios":"levelo://app?vid=3046ca0d-ca98-4100-abe5-7dd23120e893"},"vehicle_type_id":"4","last_reported":1751105403,"current_range_meters":24800,"station_id":"st_cvj6sg6p6f1abm77japg","pricing_plan_id":"cebpf4jnsgd1na2vs0mg"},