{"last_updated":1692554820,"ttl":30,"version":"2.2","data":{"bikes":[{"bike_id":"17bc782b-7b04-4bb6-8cb3-be34971be335","system_id":"levelo_inurba_marseille","lat":43.312239,"lon":5.368562,"is_reserved":false,"is_disabled":false,"rental_uris":{"android":"levelo://app?vid=17bc782b-7b04-4bb6-8cb3-be34971be335","ios":"levelo://app?vid=17bc782b-7b04-4bb6-8cb3-be34971be335"},"vehicle_type_id":"4","last_reported":1692554820,"current_range_meters":6000,"station_id":"ce4bgl92rcd13ifvqbq0","pricing_plan_id":"free"},{"bike_id":"9b7786f4-4911-4cef-bc3e-0cdab74d6de6","system_id":"levelo_inurba_marseille","lat":43.312239,"lon":5.368562,"is_reserved":false,"is_disabled":false,"rental_uris":{"android":"levelo://app?vid=9b7786f4-4911-4cef-bc3e-0cdab74d6de6","ios":"levelo://app?vid=9b7786f4-4911-4cef-bc3e-0cdab74d6de6"},"vehicle_type_id":"4","last_reported":1692554820,"current_range_meters":7200,"station_id":"ce4bgl92rcd13ifvqbq0","pricing_plan_id":"free"},{"bike_id":"f22ca441-4e4e-4660-b824-b2f46943e54d","system_id":"levelo_inurba_marseille","lat":43.312239,"lon":5.368562,"is_reserved":false,"is_disabled":false,"rental_uris":{"android":"levelo://app?vid=f22ca441-4e4e-4660-b824-b2f46943e54d","ios":"levelo://app?vid=f22ca441-4e4e-4660-b824-b2f46943e54d"},"vehicle_type_id":"4","last_reported":1692554820,"current_range_meters":31200,"station_id":"ce4bgl92rcd13ifvqbq0","pricing_plan_id":"free"},{"bike_id":"ef2ba11a-6444-4504-a169-3d763f8ffeaa","system_id":"levelo_inurba_marseille","lat":43.309076,"lon":5.368465,"is_reserved":false,"is_disabled":false,"rental_uris":{"android":"levelo://app?vid=ef2ba11a-6444-4504-a169-3d763f8ffeaa","ios":"levelo://app?vid=ef2ba11a-6444-4504-a169-3d763f8ffeaa"},"vehicle_type_id":"4","last_reported":1692554820,"current_range_meters":29200,"station_id":"ce4bgn92rcd13ifvqbvg","pricing_plan_id":"free"},{"bike_id":"d43aebbf-e013-4665-86a8-0cecc127b037","system_id":"levelo_inurba_marseille","lat":43.314811,"lon":5.373103,"is_reserved":false,"is_disabled":false,"rental_uris":{"android":"levelo://app?vid=d43aebbf-e013-4665-86a8-0cecc127b037","ios":"levelo://app?vid=d43aebbf-e013-4665-86a8-0cecc127b037"},"vehicle_type_id":"4","last_reported":1692554820,"current_range_meters":1200,"station_id":"ce4bgt12rcd13ifvqcd0","pricing_plan_id":"free"},{"bike_id":"a389181a-e53b-4752-b7bc-c51752b0379a","system_id":"levelo_inurba_marseille","lat":43.314811,"lon":5.373104,"is_reserved":false,"is_disabled":false,"rental_uris":{"android":"levelo://app?vid=a389181a-e53b-4752-b7bc-c51752b0379a","ios":"levelo://app?vid=a389181a-e53b-4752-b7bc-c51752b0379a"},"vehicle_type_id":"4","last_reported":1692554820,"current_range_meters":14000,"station_id":"ce4bgt12rcd13ifvqcd0","pricing_plan_id":"free"},{"bike_id":"386ed8e3-b71e-4f68-86af-202c5b76503e","system_id":"levelo_inurba_marseille","lat":43.305368,"lon":5.367343,"is_reserved":false,"is_disabled":false,"rental_uris":{"android":"levelo://app?vid=386ed8e3-b71e-4f68-86af-202c5b76503e","ios":"levelo://app?vid=386ed8e3-b71e-4f68-86af-202c5b76503e"},"vehicle_type_id":"4","last_reported":1692554820,"current_range_meters":19200,"station_id":"ce4bgrp2rcd13ifvqc9g","pricing_plan_id":"free"},{"bike_id":"9fbe6e18-d192-44c2-98b5-cafb68b41aa4","system_id":"levelo_inurba_marseille","lat":43.30552,"lon":5.36531,"is_reserved":false,"is_disabled":false,"rental_uris":{"android":"levelo://app?vid=9fbe6e18-d192-44c2-98b5-cafb68b41aa4","ios":"levelo://app?vid=9fbe6e18-d192-44c2-98b5-cafb68b41aa4"},"vehicle_type_id":"4","last_reported":1692554820,"current_range_meters":5600,"station_id":"ce4bgs12rcd13ifvqcag","pricing_plan_id":"free"},{"bike_id":"af1da25a-b713-410c-9a8c-84e09439eb5b","system_id":"levelo_inurba_marseille","lat":43.305989,"lon":5.37225,"is_reserved":false,"is_disabled":false,"rental_uris":{"android":"levelo://app?vid=af1da25a-b713-410c-9a8c-84e09439eb5b","ios":"levelo://app?vid=af1da25a-b713-410c-9a8c-84e09439eb5b"},"vehicle_type_id":"4","last_reported":1692554820,"current_range_meters":28000,"station_id":"ce4bgqh2rcd13ifvqc4g","pricing_plan_id":"free"},{"bike_id":"eb5554a7-0058-44fa-a851-d0f43595ca1e","system_id":"levelo_inurba_marseille","lat":43.305989,"lon":5.37225,"is_reserved":false,"is_disabled":false,"rental_uris":{"android":"levelo://app?vid=eb5554a7-0058-44fa-a851-d0f43595ca1e","ios":"levelo://app?vid=eb5554a7-0058-44fa-a851-d0f43595ca1e"},"vehicle_type_id":"4","last_reported":1692554820,"current_range_meters":17600,"station_id":"ce4bgqh2rcd13ifvqc4g","pricing_plan_id":"free"},{"bike_id":"3210ab44-174f-4aba-9789-4ea7ed2c85c1","system_id":"levelo_inurba_marseille","lat":43.305989,"lon":5.37225,"is_reserved":false,"is_disabled":false,"rental_uris":{"android":"levelo://app?vid=3210ab44-174f-4aba-9789-4ea7ed2c85c1","ios":"levelo://app?vid=3210ab44-174f-4aba-9789-4ea7ed2c85c1"},"vehicle_type_id":"4","last_reported":1692554820,"current_range_meters":24000,"station_id":"ce4bgqh2rcd13ifvqc4g","pricing_plan_id":"free"},{"bike_id":"7cfae3a1-21b9-4f66-8e28-6a6adf39e779","system_id":"levelo_inurba_marseille","lat":43.305989,"lon":5.37225,"is_reserved":false,"is_disabled":false,"rental_uris":{"android":"levelo://app?vid=7cfae3a1-21b9-4f66-8e28-6a6adf39e779","ios":"levelo://app?vid=7cfae3a1-21b9-4f66-8e28-6a6adf39e779"},"vehicle_type_id":"4","last_reported":1692554820,"current_range_meters":27200,"station_id":"ce4bgqh2rcd13ifvqc4g","pricing_plan_id":"free"},{"bike_id":"3a030e2a-f6af-4679-88ac-ebd56d0e9232","system_id":"levelo_inurba_marseille","lat":43.31118,"lon":5.37768,"is_reserved":false,"is_disabled":false,"rental_uris":{"android":"levelo://app?vid=3a030e2a-f6af-4679-88ac-ebd56d0e9232","ios":"levelo://app?vid=3a030e2a-f6af-4679-88ac-ebd56d0e9232"},"vehicle_type_id":"4","last_reported":1692554820,"current_range_meters":9600,"station_id":"ce4bgt92rcd13ifvqcg0","pricing_plan_id":"free"},{"bike_id":"327fe0dc-08c0-428e-baf6-82942cb2943b","system_id":"levelo_inurba_marseille","lat":43.31527,"lon":5.38026,"is_reserved":false,"is_disabled":false,"rental_uris":{"android":"levelo://app?vid=327fe0dc-08c0-428e-baf6-82942cb2943b","ios":"levelo://app?vid=327fe0dc-08c0-428e-baf6-82942cb2943b"},"vehicle_type_id":"4","last_reported":1692554820,"current_range_meters":4400,"station_id":"ce4bhsp2rcd13ifvqi50","pricing_plan_id":"free"},{"bike_id":"a28d9740-3c30-4f08-ba14-ff8ade3b6011","system_id":"levelo_inurba_marseille","lat":43.31999,"lon":5.38163,"is_reserved":false,"is_disabled":false,"rental_uris":{"android":"levelo://app?vid=a28d9740-3c30-4f08-ba14-ff8ade3b6011","ios":"levelo://app?vid=a28d9740-3c30-4f08-ba14-ff8ade3b6011"},"vehicle_type_id":"4","last_reported":1692554820,"current_range_meters":18800,"station_id":"ce4bhr12rcd13ifvqhpg","pricing_plan_id":"free"},{"bike_id":"97a73378-bc8e-421f-8014-a0c2f7ec826e","system_id":"levelo_inurba_marseille","lat":43.313571,"lon":5.384829,"is_reserved":false,"is_disabled":false,"rental_uris":{"android":"levelo://app?vid=97a73378-bc8e-421f-8014-a0c2f7ec826e","ios":"levelo://app?vid=97a73378-bc8e-421f-8014-a0c2f7ec826e"},"vehicle_type_id":"4","last_reported":1692554820,"current_range_meters":0,"station_id":"ce4bgt92rcd13ifvqcf0","pricing_plan_id":"free"},{"bike_id":"4e958ac9-9f75-4b71-be9b-9d520672c397","system_id":"levelo_inurba_marseille","lat":43.29971,"lon":5.3715,"is_reserved":false,"is_disabled":false,"rental_uris":{"android":"levelo://app?vid=4e958ac9-9f75-4b71-be9b-9d520672c397","ios":"levelo://app?vid=4e958ac9-9f75-4b71-be9b-9d520672c397"},"vehicle_type_id":"4","last_reported":1692554820,"current_range_meters":29600,"station_id":"","pricing_plan_id":"free"},{"bike_id":"43c600e5-56ba-4ade-a745-097ceaf1b46d","system_id":"levelo_inurba_marseille","lat":43.2996,"lon":5.37187,"is_reserved":false,"is_disabled":false,"rental_uris":{"android":"levelo://app?vid=43c600e5-56ba-4ade-a745-097ceaf1b46d","ios":"levelo://app?vid=43c600e5-56ba-4ade-a745-097ceaf1b46d"},"vehicle_type_id":"4","last_reported":1692554820,"current_range_meters":8800,"station_id":"ce4bgr92rcd13ifvqc7g","pricing_plan_id":"free"},{"bike_id":"95dc9ecf-047e-4c3a-bb12-a5676cb36ad4","system_id":"levelo_inurba_marseille","lat":43.3216,"lon":5.38166,"is_reserved":false,"is_disabled":false,"rental_uris":{"android":"levelo://app?vid=95dc9ecf-047e-4c3a-bb12-a5676cb36ad4","ios":"levelo://app?vid=95dc9ecf-047e-4c3a-bb12-a5676cb36ad4"},"vehicle_type_id":"4","last_reported":1692554820,"current_range_meters":14000,"station_id":"","pricing_plan_id":"free"},{"bike_id":"b4879829-c1ed-45c6-9642-05e4e13287be","system_id":"levelo_inurba_marseille","lat":43.305364,"lon":5.384119,"is_reserved":false,"is_disabled":false,"rental_uris":{"android":"levelo://app?vid=b4879829-c1ed-45c6-9642-05e4e13287be","ios":"levelo://app?vid=b4879829-c1ed-45c6-9642-05e4e13287be"},"vehicle_type_id":"4","last_reported":1692554820,"current_range_meters":0,"station_id":"ce4bgg92rcd13ifvqb30","pricing_plan_id":"free"},{"bike_id":"5c2a28b9-8bfb-49e0-bda3-6c5cc8dfb7de","system_id":"levelo_inurba_marseille","lat":43.305364,"lon":5.384119,"is_reserved":false,"is_disabled":false,"rental_uris":{"android":"levelo://app?vid=5c2a28b9-8bfb-49e0-bda3-6c5cc8dfb7de","ios":"levelo://app?vid=5c2a28b9-8bfb-49e0-bda3-6c5cc8dfb7de"},"vehicle_type_id":"4","last_reported":1692554820,"current_range_meters":5600,"station_id":"ce4bgg92rcd13ifvqb30","pricing_plan_id":"free"},{"bike_id":"734a3d6c-6bb4-4337-bad3-b4a6e9ff5cdf","system_id":"levelo_inurba_marseille","lat":43.30538,"lon":5.38421,"is_reserved":false,"is_disabled":false,"rental_uris":{"android":"levelo://app?vid=734a3d6c-6bb4-4337-bad3-b4a6e9ff5cdf","ios":"levelo://app?vid=734a3d6c-6bb4-4337-bad3-b4a6e9ff5cdf"},"vehicle_type_id":"4","last_reported":1692554820,"current_range_meters":4400,"station_id":"ce4bgg92rcd13ifvqb30","pricing_plan_id":"free"},{"bike_id":"06ed24f0-b96f-48bb-9d39-141a12c02ff6","system_id":"levelo_inurba_marseille","lat":43.311722,"lon":5.387247,"is_reserved":false,"is_disabled":false,"rental_uris":{"android":"levelo://app?vid=06ed24f0-b96f-48bb-9d39-141a12c02ff6","ios":"levelo://app?vid=06ed24f0-b96f-48bb-9d39-141a12c02ff6"},"vehicle_type_id":"4","last_reported":1692554820,"current_range_meters":18800,"station_id":"ce4bgv12rcd13ifvqcp0","pricing_plan_id":"free"},{"bike_id":"9d032aba-6e1e-4251-97ae-87375d5a74c6","system_id":"levelo_inurba_marseille","lat":43.311722,"lon":5.387247,"is_reserved":false,"is_disabled":false,"rental_uris":{"android":"levelo://app?vid=9d032aba-6e1e-4251-97ae-87375d5a74c6","ios":"levelo://app?vid=9d032aba-6e1e-4251-97ae-87375d5a74c6"},"vehicle_type_id":"4","last_reported":1692554820,"current_range_meters":10000,"station_id":"ce4bgv12rcd13ifvqcp0","pricing_plan_id":"free"},{"bike_id":"b885f463-e8c5-42cc-902f-7152167ce1c7","system_id":"levelo_inurba_marseille","lat":43.299243,"lon":5.37481,"is_reserved":false,"is_disabled":false,"rental_uris":{"android":"levelo://app?vid=b885f463-e8c5-42cc-902f-7152167ce1c7","ios":"levelo://app?vid=b885f463-e8c5-42cc-902f-7152167ce1c7"},"vehicle_type_id":"4","last_reported":1692554820,"current_range_meters":31200,"station_id":"ce4bgjh2rcd13ifvqbg0","pricing_plan_id":"free"},{"bike_id":"c2cd3b38-115e-49c6-a33b-516099fdeebd","system_id":"levelo_inurba_marseille","lat":43.311722,"lon":5.387247,"is_reserved":false,"is_disabled":false,"rental_uris":{"android":"levelo://app?vid=c2cd3b38-115e-49c6-a33b-516099fdeebd","ios":"levelo://app?vid=c2cd3b38-115e-49c6-a33b-516099fdeebd"},"vehicle_type_id":"4","last_reported":1692554820,"current_range_meters":4400,"station_id":"ce4bgv12rcd13ifvqcp0","pricing_plan_id":"free"},{"bike_id":"c2c902b2-4933-454a-805f-66426de6b075","system_id":"levelo_inurba_marseille","lat":43.311722,"lon":5.387247,"is_reserved":false,"is_disabled":false,"rental_uris":{"android":"levelo://app?vid=c2c902b2-4933-454a-805f-66426de6b075","ios":"levelo://app?vid=c2c902b2-4933-454a-805f-66426de6b075"},"vehicle_type_id":"4","last_reported":1692554820,"current_range_meters":14800,"station_id":"ce4bgv12rcd13ifvqcp0","pricing_plan_id":"free"},{"bike_id":"a1f7b084-f437-4e0c-8b20-334f54c48d59","system_id":"levelo_inurba_marseille","lat":43.32289,"lon":5.38267,"is_reserved":false,"is_disabled":false,"rental_uris":{"android":"levelo://app?vid=a1f7b084-f437-4e0c-8b20-334f54c48d59","ios":"levelo://app?vid=a1f7b084-f437-4e0c-8b20-334f54c48d59"},"vehicle_type_id":"4","last_reported":1692554820,"current_range_meters":13200,"station_id":"ce4bhr12rcd13ifvqhqg","pricing_plan_id":"free"},{"bike_id":"5b5c8cae-b425-4976-9ba8-5ae205664d6b","system_id":"levelo_inurba_marseille","lat":43.32286,"lon":5.38274,"is_reserved":false,"is_disabled":false,"rental_uris":{"android":"levelo://app?vid=5b5c8cae-b425-4976-9ba8-5ae205664d6b","ios":"levelo://app?vid=5b5c8cae-b425-4976-9ba8-5ae205664d6b"},"vehicle_type_id":"4","last_reported":1692554820,"current_range_meters":13200,"station_id":"ce4bhr12rcd13ifvqhqg","pricing_plan_id":"free"},{"bike_id":"110bd150-ae2d-4085-890c-a8f4481980e0","system_id":"levelo_inurba_marseille","lat":43.32291,"lon":5.38275,"is_reserved":false,"is_disabled":false,"rental_uris":{"android":"levelo://app?vid=110bd150-ae2d-4085-890c-a8f4481980e0","ios":"levelo://app?vid=110bd150-ae2d-4085-890c-a8f4481980e0"},"vehicle_type_id":"4","last_reported":1692554820,"current_range_meters":24800,"station_id":"ce4bhr12rcd13ifvqhqg","pricing_plan_id":"free"},{"bike_id":"b9784bc4-a1f4-4e7b-a996-3746dcc4c656","system_id":"levelo_inurba_marseille","lat":43.32287,"lon":5.3828,"is_reserved":false,"is_disabled":false,"rental_uris":{"android":"levelo://app?vid=b9784bc4-a1f4-4e7b-a996-3746dcc4c656","ios":"levelo://app?vid=b9784bc4-a1f4-4e7b-a996-3746dcc4c656"},"vehicle_type_id":"4","last_reported":1692554820,"current_range_meters":4800,"station_id":"ce4bhr12rcd13ifvqhqg","pricing_plan_id":"free"},{"bike_id":"e1551569-4640-4838-a3c7-25594ec038b3","system_id":"levelo_inurba_marseille","lat":43.32826,"lon":5.36693,"is_reserved":false,"is_disabled":false,"rental_uris":{"android":"levelo://app?vid=e1551569-4640-4838-a3c7-25594ec038b3","ios":"levelo://app?vid=e1551569-4640-4838-a3c7-25594ec038b3"},"vehicle_type_id":"4","last_reported":1692554820,"current_range_meters":2800,"station_id":"ce4bhs92rcd13ifvqi0g","pricing_plan_id":"free"},{"bike_id":"35070e43-f0f5-412c-9f66-1dbc8d4dc660","system_id":"levelo_inurba_marseille","lat":43.32836,"lon":5.36692,"is_reserved":false,"is_disabled":false,"rental_uris":{"android":"levelo://app?vid=35070e43-f0f5-412c-9f66-1dbc8d4dc660","ios":"levelo://app?vid=35070e43-f0f5-412c-9f66-1dbc8d4dc660"},"vehicle_type_id":"4","last_reported":1692554820,"current_range_meters":9200,"station_id":"","pricing_plan_id":"free"},{"bike_id":"dd789220-e7b5-42c1-b9dc-dc4243148021","system_id":"levelo_inurba_marseille","lat":43.297163,"lon":5.365866,"is_reserved":false,"is_disabled":false,"rental_uris":{"android":"levelo://app?vid=dd789220-e7b5-42c1-b9dc-dc4243148021","ios":"levelo://app?vid=dd789220-e7b5-42c1-b9dc-dc4243148021"},"vehicle_type_id":"4","last_reported":1692554820,"current_range_meters":31200,"station_id":"ce4bgn12rcd13ifvqbt0","pricing_plan_id":"free"},{"bike_id":"bb155e93-116e-494a-9911-2df351c7dae8","system_id":"levelo_inurba_marseille","lat":43.296129,"lon":5.370777,"is_reserved":false,"is_disabled":false,"rental_uris":{"android":"levelo://app?vid=bb155e93-116e-494a-9911-2df351c7dae8","ios":"levelo://app?vid=bb155e93-116e-494a-9911-2df351c7dae8"},"vehicle_type_id":"4","last_reported":1692554820,"current_range_meters":29600,"station_id":"ce4bgnh2rcd13ifvqc0g","pricing_plan_id":"free"},{"bike_id":"e6b2636f-9178-4717-99c3-244e938c3d6c","system_id":"levelo_inurba_marseille","lat":43.29573,"lon":5.367355,"is_reserved":false,"is_disabled":false,"rental_uris":{"android":"levelo://app?vid=e6b2636f-9178-4717-99c3-244e938c3d6c","ios":"levelo://app?vid=e6b2636f-9178-4717-99c3-244e938c3d6c"},"vehicle_type_id":"4","last_reported":1692554820,"current_range_meters":800,"station_id":"ce4bgph2rcd13ifvqc2g","pricing_plan_id":"free"},{"bike_id":"2e925fd5-0c27-487c-8b4a-0039fd030492","system_id":"levelo_inurba_marseille","lat":43.29573,"lon":5.367355,"is_reserved":false,"is_disabled":false,"rental_uris":{"android":"levelo://app?vid=2e925fd5-0c27-487c-8b4a-0039fd030492","ios":"levelo://app?vid=2e925fd5-0c27-487c-8b4a-0039fd030492"},"vehicle_type_id":"4","last_reported":1692554820,"current_range_meters":0,"station_id":"ce4bgph2rcd13ifvqc2g","pricing_plan_id":"free"},{"bike_id":"d3139180-8ba9-4c91-b6e4-8baae3c22113","system_id":"levelo_inurba_marseille","lat":43.29606,"lon":5.37191,"is_reserved":false,"is_disabled":false,"rental_uris":{"android":"levelo://app?vid=d3139180-8ba9-4c91-b6e4-8baae3c22113","ios":"levelo://app?vid=d3139180-8ba9-4c91-b6e4-8baae3c22113"},"vehicle_type_id":"4","last_reported":1692554820,"current_range_meters":29600,"station_id":"","pricing_plan_id":"free"},{"bike_id":"37a4af63-59eb-457c-8c7b-d9e3d61b0f17","system_id":"levelo_inurba_marseille","lat":43.29915,"lon":5.38125,"is_reserved":false,"is_disabled":false,"rental_uris":{"android":"levelo://app?vid=37a4af63-59eb-457c-8c7b-d9e3d61b0f17","ios":"levelo://app?vid=37a4af63-59eb-457c-8c7b-d9e3d61b0f17"},"vehicle_type_id":"4","last_reported":1692554820,"current_range_meters":25200,"station_id":"ce4bgj12rcd13ifvqbc0","pricing_plan_id":"free"},{"bike_id":"7c05a6c5-c17e-4731-ab87-f7f1b68b7b58","system_id":"levelo_inurba_marseille","lat":43.2991,"lon":5.38125,"is_reserved":false,"is_disabled":false,"rental_uris":{"android":"levelo://app?vid=7c05a6c5-c17e-4731-ab87-f7f1b68b7b58","ios":"levelo://app?vid=7c05a6c5-c17e-4731-ab87-f7f1b68b7b58"},"vehicle_type_id":"4","last_reported":1692554820,"current_range_meters":2000,"station_id":"ce4bgj12rcd13ifvqbc0","pricing_plan_id":"free"},{"bike_id":"dc2bc34f-3a46-4061-9a6b-b07e18f89d57","system_id":"levelo_inurba_marseille","lat":43.30948,"lon":5.39022,"is_reserved":false,"is_disabled":false,"rental_uris":{"android":"levelo://app?vid=dc2bc34f-3a46-4061-9a6b-b07e18f89d57","ios":"levelo://app?vid=dc2bc34f-3a46-4061-9a6b-b07e18f89d57"},"vehicle_type_id":"4","last_reported":1692554820,"current_range_meters":13600,"station_id":"ce4bgup2rcd13ifvqco0","pricing_plan_id":"free"},{"bike_id":"e25dcfd1-81cb-4676-a9c3-ea41fea59d94","system_id":"levelo_inurba_marseille","lat":43.309589,"lon":5.390258,"is_reserved":false,"is_disabled":false,"rental_uris":{"android":"levelo://app?vid=e25dcfd1-81cb-4676-a9c3-ea41fea59d94","ios":"levelo://app?vid=e25dcfd1-81cb-4676-a9c3-ea41fea59d94"},"vehicle_type_id":"4","last_reported":1692554820,"current_range_meters":25200,"station_id":"ce4bgup2rcd13ifvqco0","pricing_plan_id":"free"},{"bike_id":"2b441677-bfb0-43d7-bb7f-83085ec983f3","system_id":"levelo_inurba_marseille","lat":43.30953,"lon":5.39026,"is_reserved":false,"is_disabled":false,"rental_uris":{"android":"levelo://app?vid=2b441677-bfb0-43d7-bb7f-83085ec983f3","ios":"levelo://app?vid=2b441677-bfb0-43d7-bb7f-83085ec983f3"},"vehicle_type_id":"4","last_reported":1692554820,"current_range_meters":24400,"station_id":"ce4bgup2rcd13ifvqco0","pricing_plan_id":"free"},{"bike_id":"a4df99ce-0488-49dd-a888-94686f562e88","system_id":"levelo_inurba_marseille","lat":43.295748,"lon":5.37522,"is_reserved":false,"is_disabled":false,"rental_uris":{"android":"levelo://app?vid=a4df99ce-0488-49dd-a888-94686f562e88","ios":"levelo://app?vid=a4df99ce-0488-49dd-a888-94686f562e88"},"vehicle_type_id":"4","last_reported":1692554820,"current_range_meters":28400,"station_id":"ce4bgh92rcd13ifvqb50","pricing_plan_id":"free"},{"bike_id":"00883cd9-a56a-4720-bb55-237d0136a4a1","system_id":"levelo_inurba_marseille","lat":43.32366,"lon":5.38878,"is_reserved":false,"is_disabled":false,"rental_uris":{"android":"levelo://app?vid=00883cd9-a56a-4720-bb55-237d0136a4a1","ios":"levelo://app?vid=00883cd9-a56a-4720-bb55-237d0136a4a1"},"vehicle_type_id":"4","last_reported":1692554820,"current_range_meters":22000,"station_id":"ce4bhqp2rcd13ifvqhog","pricing_plan_id":"free"},{"bike_id":"6b6cba89-d2b8-44bb-8454-5df08cf65f67","system_id":"levelo_inurba_marseille","lat":43.32367,"lon":5.388836,"is_reserved":false,"is_disabled":false,"rental_uris":{"android":"levelo://app?vid=6b6cba89-d2b8-44bb-8454-5df08cf65f67","ios":"levelo://app?vid=6b6cba89-d2b8-44bb-8454-5df08cf65f67"},"vehicle_type_id":"4","last_reported":1692554820,"current_range_meters":7200,"station_id":"ce4bhqp2rcd13ifvqhog","pricing_plan_id":"free"},{"bike_id":"649e61f4-04b0-4d21-aac2-05a7a0aa59b3","system_id":"levelo_inurba_marseille","lat":43.292749,"lon":5.368398,"is_reserved":false,"is_disabled":false,"rental_uris":{"android":"levelo://app?vid=649e61f4-04b0-4d21-aac2-05a7a0aa59b3","ios":"levelo://app?vid=649e61f4-04b0-4d21-aac2-05a7a0aa59b3"},"vehicle_type_id":"4","last_reported":1692554820,"current_range_meters":0,"station_id":"ce4bhbp2rcd13ifvqesg","pricing_plan_id":"free"},{"bike_id":"c9934a59-0a98-4791-82d5-c79870993931","system_id":"levelo_inurba_marseille","lat":43.311722,"lon":5.387247,"is_reserved":false,"is_disabled":false,"rental_uris":{"android":"levelo://app?vid=c9934a59-0a98-4791-82d5-c79870993931","ios":"levelo://app?vid=c9934a59-0a98-4791-82d5-c79870993931"},"vehicle_type_id":"4","last_reported":1692554820,"current_range_meters":20000,"station_id":"ce4bgv12rcd13ifvqcp0","pricing_plan_id":"free"},{"bike_id":"38fef587-7cc5-4800-b069-87b8f296a10a","system_id":"levelo_inurba_marseille","lat":43.293009,"lon":5.374584,"is_reserved":false,"is_disabled":false,"rental_uris":{"android":"levelo://app?vid=38fef587-7cc5-4800-b069-87b8f296a10a","ios":"levelo://app?vid=38fef587-7cc5-4800-b069-87b8f296a10a"},"vehicle_type_id":"4","last_reported":1692554820,"current_range_meters":31200,"station_id":"ce4bgi12rcd13ifvqb70","pricing_plan_id":"free"},{"bike_id":"0724f352-a262-45b7-9b71-9a09ff17d945","system_id":"levelo_inurba_marseille","lat":43.30303,"lon":5.39208,"is_reserved":false,"is_disabled":false,"rental_uris":{"android":"levelo://app?vid=0724f352-a262-45b7-9b71-9a09ff17d945","ios":"levelo://app?vid=0724f352-a262-45b7-9b71-9a09ff17d945"},"vehicle_type_id":"4","last_reported":1692554820,"current_range_meters":19200,"station_id":"ce4bgkh2rcd13ifvqbk0","pricing_plan_id":"free"},{"bike_id":"5a91087b-f9fa-4eaf-b6b5-f78ab09b746d","system_id":"levelo_inurba_marseille","lat":43.30085,"lon":5.390856,"is_reserved":false,"is_disabled":false,"rental_uris":{"android":"levelo://app?vid=5a91087b-f9fa-4eaf-b6b5-f78ab09b746d","ios":"levelo://app?vid=5a91087b-f9fa-4eaf-b6b5-f78ab09b746d"},"vehicle_type_id":"4","last_reported":1692554820,"current_range_meters":800,"station_id":"ce4bh192rcd13ifvqdb0","pricing_plan_id":"free"},{"bike_id":"439786a1-4503-4eed-b5a8-77bb1163ffee","system_id":"levelo_inurba_marseille","lat":43.30085,"lon":5.390856,"is_reserved":false,"is_disabled":false,"rental_uris":{"android":"levelo://app?vid=439786a1-4503-4eed-b5a8-77bb1163ffee","ios":"levelo://app?vid=439786a1-4503-4eed-b5a8-77bb1163ffee"},"vehicle_type_id":"4","last_reported":1692554820,"current_range_meters":25200,"station_id":"ce4bh192rcd13ifvqdb0","pricing_plan_id":"free"},{"bike_id":"72efc3d4-f6d3-4434-a8ea-877235ccc082","system_id":"levelo_inurba_marseille","lat":43.292311,"lon":5.360731,"is_reserved":false,"is_disabled":false,"rental_uris":{"android":"levelo://app?vid=72efc3d4-f6d3-4434-a8ea-877235ccc082","ios":"levelo://app?vid=72efc3d4-f6d3-4434-a8ea-877235ccc082"},"vehicle_type_id":"4","last_reported":1692554820,"current_range_meters":0,"station_id":"ce4bhbh2rcd13ifvqeqg","pricing_plan_id":"free"},{"bike_id":"a52f370a-7167-4a93-b374-c53e3abd1c04","system_id":"levelo_inurba_marseille","lat":43.29893,"lon":5.38885,"is_reserved":false,"is_disabled":false,"rental_uris":{"android":"levelo://app?vid=a52f370a-7167-4a93-b374-c53e3abd1c04","ios":"levelo://app?vid=a52f370a-7167-4a93-b374-c53e3abd1c04"},"vehicle_type_id":"4","last_reported":1692554820,"current_range_meters":17600,"station_id":"ce4bh392rcd13ifvqdl0","pricing_plan_id":"free"},{"bike_id":"0cf6871f-8058-46a0-9c31-d608a4b58fc2","system_id":"levelo_inurba_marseille","lat":43.298764,"lon":5.388973,"is_reserved":false,"is_disabled":false,"rental_uris":{"android":"levelo://app?vid=0cf6871f-8058-46a0-9c31-d608a4b58fc2","ios":"levelo://app?vid=0cf6871f-8058-46a0-9c31-d608a4b58fc2"},"vehicle_type_id":"4","last_reported":1692554820,"current_range_meters":16400,"station_id":"ce4bh392rcd13ifvqdl0","pricing_plan_id":"free"},{"bike_id":"68ea25df-388c-4ddd-95b9-208ebf22e21b","system_id":"levelo_inurba_marseille","lat":43.29887,"lon":5.38907,"is_reserved":false,"is_disabled":false,"rental_uris":{"android":"levelo://app?vid=68ea25df-388c-4ddd-95b9-208ebf22e21b","ios":"levelo://app?vid=68ea25df-388c-4ddd-95b9-208ebf22e21b"},"vehicle_type_id":"4","last_reported":1692554820,"current_range_meters":12000,"station_id":"ce4bh392rcd13ifvqdl0","pricing_plan_id":"free"},{"bike_id":"3c99606a-cfd1-4b08-a5da-392aa4b30abe","system_id":"levelo_inurba_marseille","lat":43.32882,"lon":5.38729,"is_reserved":false,"is_disabled":false,"rental_uris":{"android":"levelo://app?vid=3c99606a-cfd1-4b08-a5da-392aa4b30abe","ios":"levelo://app?vid=3c99606a-cfd1-4b08-a5da-392aa4b30abe"},"vehicle_type_id":"4","last_reported":1692554820,"current_range_meters":8800,"station_id":"","pricing_plan_id":"free"},{"bike_id":"f1acd286-18f1-4392-b240-dc5e98855c21","system_id":"levelo_inurba_marseille","lat":43.309038,"lon":5.396546,"is_reserved":false,"is_disabled":false,"rental_uris":{"android":"levelo://app?vid=f1acd286-18f1-4392-b240-dc5e98855c21","ios":"levelo://app?vid=f1acd286-18f1-4392-b240-dc5e98855c21"},"vehicle_type_id":"4","last_reported":1692554820,"current_range_meters":18000,"station_id":"ce4bh012rcd13ifvqcv0","pricing_plan_id":"free"},{"bike_id":"01309ff0-b225-41b5-b159-eeb730ba8eb1","system_id":"levelo_inurba_marseille","lat":43.29419,"lon":5.38616,"is_reserved":false,"is_disabled":false,"rental_uris":{"android":"levelo://app?vid=01309ff0-b225-41b5-b159-eeb730ba8eb1","ios":"levelo://app?vid=01309ff0-b225-41b5-b159-eeb730ba8eb1"},"vehicle_type_id":"4","last_reported":1692554820,"current_range_meters":1200,"station_id":"ce4bh2h2rcd13ifvqdh0","pricing_plan_id":"free"},{"bike_id":"87f4489b-d0d4-4afa-95ef-ab2963ed07f7","system_id":"levelo_inurba_marseille","lat":43.29414,"lon":5.38629,"is_reserved":false,"is_disabled":false,"rental_uris":{"android":"levelo://app?vid=87f4489b-d0d4-4afa-95ef-ab2963ed07f7","ios":"levelo://app?vid=87f4489b-d0d4-4afa-95ef-ab2963ed07f7"},"vehicle_type_id":"4","last_reported":1692554820,"current_range_meters":14400,"station_id":"ce4bh2h2rcd13ifvqdh0","pricing_plan_id":"free"},{"bike_id":"ce9f71a7-7758-4d6d-80f4-ef87c2921c76","system_id":"levelo_inurba_marseille","lat":43.304274,"lon":5.397513,"is_reserved":false,"is_disabled":false,"rental_uris":{"android":"levelo://app?vid=ce9f71a7-7758-4d6d-80f4-ef87c2921c76","ios":"levelo://app?vid=ce9f71a7-7758-4d6d-80f4-ef87c2921c76"},"vehicle_type_id":"4","last_reported":1692554820,"current_range_meters":18400,"station_id":"ce4bh092rcd13ifvqd20","pricing_plan_id":"free"},{"bike_id":"06f42ee0-4b4e-4431-821d-fa731fdcb786","system_id":"levelo_inurba_marseille","lat":43.30432,"lon":5.39757,"is_reserved":false,"is_disabled":false,"rental_uris":{"android":"levelo://app?vid=06f42ee0-4b4e-4431-821d-fa731fdcb786","ios":"levelo://app?vid=06f42ee0-4b4e-4431-821d-fa731fdcb786"},"vehicle_type_id":"4","last_reported":1692554820,"current_range_meters":15200,"station_id":"ce4bh092rcd13ifvqd20","pricing_plan_id":"free"},{"bike_id":"f7005a11-f4b8-40eb-a1e9-6d3833ad8114","system_id":"levelo_inurba_marseille","lat":43.33045,"lon":5.38913,"is_reserved":false,"is_disabled":false,"rental_uris":{"android":"levelo://app?vid=f7005a11-f4b8-40eb-a1e9-6d3833ad8114","ios":"levelo://app?vid=f7005a11-f4b8-40eb-a1e9-6d3833ad8114"},"vehicle_type_id":"4","last_reported":1692554820,"current_range_meters":26000,"station_id":"ce4bhr92rcd13ifvqhrg","pricing_plan_id":"free"},{"bike_id":"331b6e0a-8cfc-4305-9eef-0266cde03da7","system_id":"levelo_inurba_marseille","lat":43.3304,"lon":5.38921,"is_reserved":false,"is_disabled":false,"rental_uris":{"android":"levelo://app?vid=331b6e0a-8cfc-4305-9eef-0266cde03da7","ios":"levelo://app?vid=331b6e0a-8cfc-4305-9eef-0266cde03da7"},"vehicle_type_id":"4","last_reported":1692554820,"current_range_meters":12000,"station_id":"ce4bhr92rcd13ifvqhrg","pricing_plan_id":"free"},{"bike_id":"c65152a1-dca7-4ee4-9864-308587d5ed74","system_id":"levelo_inurba_marseille","lat":43.3304,"lon":5.38922,"is_reserved":false,"is_disabled":false,"rental_uris":{"android":"levelo://app?vid=c65152a1-dca7-4ee4-9864-308587d5ed74","ios":"levelo://app?vid=c65152a1-dca7-4ee4-9864-308587d5ed74"},"vehicle_type_id":"4","last_reported":1692554820,"current_range_meters":19200,"station_id":"ce4bhr92rcd13ifvqhrg","pricing_plan_id":"free"},{"bike_id":"de450cac-4370-4660-9455-3e94463307a2","system_id":"levelo_inurba_marseille","lat":43.3304,"lon":5.38922,"is_reserved":false,"is_disabled":false,"rental_uris":{"android":"levelo://app?vid=de450cac-4370-4660-9455-3e94463307a2","ios":"levelo://app?vid=de450cac-4370-4660-9455-3e94463307a2"},"vehicle_type_id":"4","last_reported":1692554820,"current_range_meters":14000,"station_id":"ce4bhr92rcd13ifvqhrg","pricing_plan_id":"free"},{"bike_id":"a5d7998c-4c76-4390-bbcf-8c2a2abd7eba","system_id":"levelo_inurba_marseille","lat":43.3304,"lon":5.38923,"is_reserved":false,"is_disabled":false,"rental_uris":{"android":"levelo://app?vid=a5d7998c-4c76-4390-bbcf-8c2a2abd7eba","ios":"levelo://app?vid=a5d7998c-4c76-4390-bbcf-8c2a2abd7eba"},"vehicle_type_id":"4","last_reported":1692554820,"current_range_meters":28000,"station_id":"ce4bhr92rcd13ifvqhrg","pricing_plan_id":"free"},{"bike_id":"311cb0a1-d2bd-42c8-aa64-be9b063c2c5e","system_id":"levelo_inurba_marseille","lat":43.33043,"lon":5.38919,"is_reserved":false,"is_disabled":false,"rental_uris":{"android":"levelo://app?vid=311cb0a1-d2bd-42c8-aa64-be9b063c2c5e","ios":"levelo://app?vid=311cb0a1-d2bd-42c8-aa64-be9b063c2c5e"},"vehicle_type_id":"4","last_reported":1692554820,"current_range_meters":22400,"station_id":"ce4bhr92rcd13ifvqhrg","pricing_plan_id":"free"},{"bike_id":"3b3e7c42-cded-4bde-b175-99650afa4f17","system_id":"levelo_inurba_marseille","lat":43.33051,"lon":5.38907,"is_reserved":false,"is_disabled":false,"rental_uris":{"android":"levelo://app?vid=3b3e7c42-cded-4bde-b175-99650afa4f17","ios":"levelo://app?vid=3b3e7c42-cded-4bde-b175-99650afa4f17"},"vehicle_type_id":"4","last_reported":1692554820,"current_range_meters":20800,"station_id":"ce4bhr92rcd13ifvqhrg","pricing_plan_id":"free"},{"bike_id":"d2b15eb2-4474-4e56-aace-fe335ab0092e","system_id":"levelo_inurba_marseille","lat":43.33045,"lon":5.38917,"is_reserved":false,"is_disabled":false,"rental_uris":{"android":"levelo://app?vid=d2b15eb2-4474-4e56-aace-fe335ab0092e","ios":"levelo://app?vid=d2b15eb2-4474-4e56-aace-fe335ab0092e"},"vehicle_type_id":"4","last_reported":1692554820,"current_range_meters":11600,"station_id":"ce4bhr92rcd13ifvqhrg","pricing_plan_id":"free"},{"bike_id":"c8619c93-5f6a-45f4-8e07-c81fcc1e21be","system_id":"levelo_inurba_marseille","lat":43.33044,"lon":5.38919,"is_reserved":false,"is_disabled":false,"rental_uris":{"android":"levelo://app?vid=c8619c93-5f6a-45f4-8e07-c81fcc1e21be","ios":"levelo://app?vid=c8619c93-5f6a-45f4-8e07-c81fcc1e21be"},"vehicle_type_id":"4","last_reported":1692554820,"current_range_meters":23200,"station_id":"ce4bhr92rcd13ifvqhrg","pricing_plan_id":"free"},{"bike_id":"86eac789-1e56-496d-abfa-705e29d378c7","system_id":"levelo_inurba_marseille","lat":43.33043,"lon":5.38921,"is_reserved":false,"is_disabled":false,"rental_uris":{"android":"levelo://app?vid=86eac789-1e56-496d-abfa-705e29d378c7","ios":"levelo://app?vid=86eac789-1e56-496d-abfa-705e29d378c7"},"vehicle_type_id":"4","last_reported":1692554820,"current_range_meters":26400,"station_id":"ce4bhr92rcd13ifvqhrg","pricing_plan_id":"free"},{"bike_id":"9e24a65c-fe1e-45dc-88b9-dd0cad85064c","system_id":"levelo_inurba_marseille","lat":43.33046,"lon":5.38917,"is_reserved":false,"is_disabled":false,"rental_uris":{"android":"levelo://app?vid=9e24a65c-fe1e-45dc-88b9-dd0cad85064c","ios":"levelo://app?vid=9e24a65c-fe1e-45dc-88b9-dd0cad85064c"},"vehicle_type_id":"4","last_reported":1692554820,"current_range_meters":26400,"station_id":"ce4bhr92rcd13ifvqhrg","pricing_plan_id":"free"},{"bike_id":"5036c72a-6252-47f4-a9fb-50fd514d506a","system_id":"levelo_inurba_marseille","lat":43.33048,"lon":5.38915,"is_reserved":false,"is_disabled":false,"rental_uris":{"android":"levelo://app?vid=5036c72a-6252-47f4-a9fb-50fd514d506a","ios":"levelo://app?vid=5036c72a-6252-47f4-a9fb-50fd514d506a"},"vehicle_type_id":"4","last_reported":1692554820,"current_range_meters":19200,"station_id":"ce4bhr92rcd13ifvqhrg","pricing_plan_id":"free"},{"bike_id":"708f7f21-b221-4c14-94b6-b5d8e3289350","system_id":"levelo_inurba_marseille","lat":43.33045,"lon":5.3892,"is_reserved":false,"is_disabled":false,"rental_uris":{"android":"levelo://app?vid=708f7f21-b221-4c14-94b6-b5d8e3289350","ios":"levelo://app?vid=708f7f21-b221-4c14-94b6-b5d8e3289350"},"vehicle_type_id":"4","last_reported":1692554820,"current_range_meters":17600,"station_id":"ce4bhr92rcd13ifvqhrg","pricing_plan_id":"free"},{"bike_id":"eb950724-6c95-4fb2-915f-35b08a8cfd23","system_id":"levelo_inurba_marseille","lat":43.33048,"lon":5.38919,"is_reserved":false,"is_disabled":false,"rental_uris":{"android":"levelo://app?vid=eb950724-6c95-4fb2-915f-35b08a8cfd23","ios":"levelo://app?vid=eb950724-6c95-4fb2-915f-35b08a8cfd23"},"vehicle_type_id":"4","last_reported":1692554820,"current_range_meters":16000,"station_id":"ce4bhr92rcd13ifvqhrg","pricing_plan_id":"free"},{"bike_id":"52662068-d06a-40c1-bfee-ce6664dc3a83","system_id":"levelo_inurba_marseille","lat":43.33048,"lon":5.3892,"is_reserved":false,"is_disabled":false,"rental_uris":{"android":"levelo://app?vid=52662068-d06a-40c1-bfee-ce6664dc3a83","ios":"levelo://app?vid=52662068-d06a-40c1-bfee-ce6664dc3a83"},"vehicle_type_id":"4","last_reported":1692554820,"current_range_meters":0,"station_id":"ce4bhr92rcd13ifvqhrg","pricing_plan_id":"free"},{"bike_id":"fe4dee40-b03a-49cd-aff1-cb6352c4bf5a","system_id":"levelo_inurba_marseille","lat":43.290995,"lon":5.381361,"is_reserved":false,"is_disabled":false,"rental_uris":{"android":"levelo://app?vid=fe4dee40-b03a-49cd-aff1-cb6352c4bf5a","ios":"levelo://app?vid=fe4dee40-b03a-49cd-aff1-cb6352c4bf5a"},"vehicle_type_id":"4","last_reported":1692554820,"current_range_meters":1200,"station_id":"ce4bh512rcd13ifvqe2g","pricing_plan_id":"free"},{"bike_id":"1077f037-fab1-4728-823f-dda58f355eb3","system_id":"levelo_inurba_marseille","lat":43.295169,"lon":5.390426,"is_reserved":false,"is_disabled":false,"rental_uris":{"android":"levelo://app?vid=1077f037-fab1-4728-823f-dda58f355eb3","ios":"levelo://app?vid=1077f037-fab1-4728-823f-dda58f355eb3"},"vehicle_type_id":"4","last_reported":1692554820,"current_range_meters":31200,"station_id":"ce4bh3p2rcd13ifvqdp0","pricing_plan_id":"free"},{"bike_id":"a78d9101-f3fd-4664-85fa-68abb520ca81","system_id":"levelo_inurba_marseille","lat":43.2903,"lon":5.38127,"is_reserved":false,"is_disabled":false,"rental_uris":{"android":"levelo://app?vid=a78d9101-f3fd-4664-85fa-68abb520ca81","ios":"levelo://app?vid=a78d9101-f3fd-4664-85fa-68abb520ca81"},"vehicle_type_id":"4","last_reported":1692554820,"current_range_meters":19200,"station_id":"ce4bh4p2rcd13ifvqe1g","pricing_plan_id":"free"},{"bike_id":"426b9755-b23c-4af0-ab3a-92f6ff9d7d44","system_id":"levelo_inurba_marseille","lat":43.29023,"lon":5.38125,"is_reserved":false,"is_disabled":false,"rental_uris":{"android":"levelo://app?vid=426b9755-b23c-4af0-ab3a-92f6ff9d7d44","ios":"levelo://app?vid=426b9755-b23c-4af0-ab3a-92f6ff9d7d44"},"vehicle_type_id":"4","last_reported":1692554820,"current_range_meters":22800,"station_id":"ce4bh4p2rcd13ifvqe1g","pricing_plan_id":"free"},{"bike_id":"4a0cead3-268b-488b-88ef-27dada37496a","system_id":"levelo_inurba_marseille","lat":43.28856,"lon":5.358371,"is_reserved":false,"is_disabled":false,"rental_uris":{"android":"levelo://app?vid=4a0cead3-268b-488b-88ef-27dada37496a","ios":"levelo://app?vid=4a0cead3-268b-488b-88ef-27dada37496a"},"vehicle_type_id":"4","last_reported":1692554820,"current_range_meters":2800,"station_id":"ce4bhb12rcd13ifvqem0","pricing_plan_id":"free"},{"bike_id":"2241bce1-ebf9-4d91-b7e5-fe08a6544f42","system_id":"levelo_inurba_marseille","lat":43.33749,"lon":5.37499,"is_reserved":false,"is_disabled":false,"rental_uris":{"android":"levelo://app?vid=2241bce1-ebf9-4d91-b7e5-fe08a6544f42","ios":"levelo://app?vid=2241bce1-ebf9-4d91-b7e5-fe08a6544f42"},"vehicle_type_id":"4","last_reported":1692554820,"current_range_meters":19600,"station_id":"","pricing_plan_id":"free"},{"bike_id":"7c13a4dd-1ed2-410e-9657-f6f7400bc738","system_id":"levelo_inurba_marseille","lat":43.301117,"lon":5.398795,"is_reserved":false,"is_disabled":false,"rental_uris":{"android":"levelo://app?vid=7c13a4dd-1ed2-410e-9657-f6f7400bc738","ios":"levelo://app?vid=7c13a4dd-1ed2-410e-9657-f6f7400bc738"},"vehicle_type_id":"4","last_reported":1692554820,"current_range_meters":27600,"station_id":"ce4bh0h2rcd13ifvqd40","pricing_plan_id":"free"},{"bike_id":"c60b9a85-2fc6-47be-a08c-c08e3e57fcd2","system_id":"levelo_inurba_marseille","lat":43.301117,"lon":5.398795,"is_reserved":false,"is_disabled":false,"rental_uris":{"android":"levelo://app?vid=c60b9a85-2fc6-47be-a08c-c08e3e57fcd2","ios":"levelo://app?vid=c60b9a85-2fc6-47be-a08c-c08e3e57fcd2"},"vehicle_type_id":"4","last_reported":1692554820,"current_range_meters":1200,"station_id":"ce4bh0h2rcd13ifvqd40","pricing_plan_id":"free"},{"bike_id":"75199276-b705-4ad7-b6a9-49aeaa84628a","system_id":"levelo_inurba_marseille","lat":43.286591,"lon":5.363346,"is_reserved":false,"is_disabled":false,"rental_uris":{"android":"levelo://app?vid=75199276-b705-4ad7-b6a9-49aeaa84628a","ios":"levelo://app?vid=75199276-b705-4ad7-b6a9-49aeaa84628a"},"vehicle_type_id":"4","last_reported":1692554820,"current_range_meters":31200,"station_id":"ce4bhah2rcd13ifvqej0","pricing_plan_id":"free"},{"bike_id":"d09fe075-13c2-44b8-a2d7-d164fa7af7ae","system_id":"levelo_inurba_marseille","lat":43.295196,"lon":5.39397,"is_reserved":false,"is_disabled":false,"rental_uris":{"android":"levelo://app?vid=d09fe075-13c2-44b8-a2d7-d164fa7af7ae","ios":"levelo://app?vid=d09fe075-13c2-44b8-a2d7-d164fa7af7ae"},"vehicle_type_id":"4","last_reported":1692554820,"current_range_meters":0,"station_id":"ce4bh292rcd13ifvqdf0","pricing_plan_id":"free"},{"bike_id":"5414871d-331a-4ad3-a141-67c4304cb695","system_id":"levelo_inurba_marseille","lat":43.286591,"lon":5.363346,"is_reserved":false,"is_disabled":false,"rental_uris":{"android":"levelo://app?vid=5414871d-331a-4ad3-a141-67c4304cb695","ios":"levelo://app?vid=5414871d-331a-4ad3-a141-67c4304cb695"},"vehicle_type_id":"4","last_reported":1692554820,"current_range_meters":26400,"station_id":"ce4bhah2rcd13ifvqej0","pricing_plan_id":"free"},{"bike_id":"fd8b7a5d-e5cb-43ee-a0b1-8764032c5eeb","system_id":"levelo_inurba_marseille","lat":43.298681,"lon":5.397225,"is_reserved":false,"is_disabled":false,"rental_uris":{"android":"levelo://app?vid=fd8b7a5d-e5cb-43ee-a0b1-8764032c5eeb","ios":"levelo://app?vid=fd8b7a5d-e5cb-43ee-a0b1-8764032c5eeb"},"vehicle_type_id":"4","last_reported":1692554820,"current_range_meters":6400,"station_id":"ce4bh0h2rcd13ifvqd50","pricing_plan_id":"free"},{"bike_id":"0d77d11e-f229-4197-9675-72a1b92e630c","system_id":"levelo_inurba_marseille","lat":43.286591,"lon":5.363346,"is_reserved":false,"is_disabled":false,"rental_uris":{"android":"levelo://app?vid=0d77d11e-f229-4197-9675-72a1b92e630c","ios":"levelo://app?vid=0d77d11e-f229-4197-9675-72a1b92e630c"},"vehicle_type_id":"4","last_reported":1692554820,"current_range_meters":10800,"station_id":"ce4bhah2rcd13ifvqej0","pricing_plan_id":"free"},{"bike_id":"22b6de7b-aace-48a0-97ba-06618c67cdf3","system_id":"levelo_inurba_marseille","lat":43.286593,"lon":5.363346,"is_reserved":false,"is_disabled":false,"rental_uris":{"android":"levelo://app?vid=22b6de7b-aace-48a0-97ba-06618c67cdf3","ios":"levelo://app?vid=22b6de7b-aace-48a0-97ba-06618c67cdf3"},"vehicle_type_id":"4","last_reported":1692554820,"current_range_meters":30000,"station_id":"ce4bhah2rcd13ifvqej0","pricing_plan_id":"free"},{"bike_id":"8769d19c-f63d-492c-9079-dab34924c8b4","system_id":"levelo_inurba_marseille","lat":43.295194,"lon":5.39397,"is_reserved":false,"is_disabled":false,"rental_uris":{"android":"levelo://app?vid=8769d19c-f63d-492c-9079-dab34924c8b4","ios":"levelo://app?vid=8769d19c-f63d-492c-9079-dab34924c8b4"},"vehicle_type_id":"4","last_reported":1692554820,"current_range_meters":18800,"station_id":"ce4bh292rcd13ifvqdf0","pricing_plan_id":"free"},{"bike_id":"bcb02abc-6578-4828-bcb7-62c601b9c2e7","system_id":"levelo_inurba_marseille","lat":43.290345,"lon":5.38646,"is_reserved":false,"is_disabled":false,"rental_uris":{"android":"levelo://app?vid=bcb02abc-6578-4828-bcb7-62c601b9c2e7","ios":"levelo://app?vid=bcb02abc-6578-4828-bcb7-62c601b9c2e7"},"vehicle_type_id":"4","last_reported":1692554820,"current_range_meters":30000,"station_id":"ce4bh4p2rcd13ifvqe0g","pricing_plan_id":"free"},{"bike_id":"bfc370ba-ea9b-4655-8021-2bcecf499206","system_id":"levelo_inurba_marseille","lat":43.290336,"lon":5.386425,"is_reserved":false,"is_disabled":false,"rental_uris":{"android":"levelo://app?vid=bfc370ba-ea9b-4655-8021-2bcecf499206","ios":"levelo://app?vid=bfc370ba-ea9b-4655-8021-2bcecf499206"},"vehicle_type_id":"4","last_reported":1692554820,"current_range_meters":4000,"station_id":"ce4bh4p2rcd13ifvqe0g","pricing_plan_id":"free"},{"bike_id":"5e5e03e9-d250-4024-9ec1-2673282dbfb4","system_id":"levelo_inurba_marseille","lat":43.30247,"lon":5.40063,"is_reserved":false,"is_disabled":false,"rental_uris":{"android":"levelo://app?vid=5e5e03e9-d250-4024-9ec1-2673282dbfb4","ios":"levelo://app?vid=5e5e03e9-d250-4024-9ec1-2673282dbfb4"},"vehicle_type_id":"4","last_reported":1692554820,"current_range_meters":3200,"station_id":"ce4bgvh2rcd13ifvqcs0","pricing_plan_id":"free"},{"bike_id":"8816325e-ec83-4552-b8fe-3349d5eeebb6","system_id":"levelo_inurba_marseille","lat":43.290336,"lon":5.386425,"is_reserved":false,"is_disabled":false,"rental_uris":{"android":"levelo://app?vid=8816325e-ec83-4552-b8fe-3349d5eeebb6","ios":"levelo://app?vid=8816325e-ec83-4552-b8fe-3349d5eeebb6"},"vehicle_type_id":"4","last_reported":1692554820,"current_range_meters":26000,"station_id":"ce4bh4p2rcd13ifvqe0g","pricing_plan_id":"free"},{"bike_id":"187b375a-06b6-470f-b8a4-10f51b85b2af","system_id":"levelo_inurba_marseille","lat":43.290336,"lon":5.386425,"is_reserved":false,"is_disabled":false,"rental_uris":{"android":"levelo://app?vid=187b375a-06b6-470f-b8a4-10f51b85b2af","ios":"levelo://app?vid=187b375a-06b6-470f-b8a4-10f51b85b2af"},"vehicle_type_id":"4","last_reported":1692554820,"current_range_meters":19200,"station_id":"ce4bh4p2rcd13ifvqe0g","pricing_plan_id":"free"},{"bike_id":"a2baf623-62c4-4c31-8b7b-833103821a28","system_id":"levelo_inurba_marseille","lat":43.28606,"lon":5.37064,"is_reserved":false,"is_disabled":false,"rental_uris":{"android":"levelo://app?vid=a2baf623-62c4-4c31-8b7b-833103821a28","ios":"levelo://app?vid=a2baf623-62c4-4c31-8b7b-833103821a28"},"vehicle_type_id":"4","last_reported":1692554820,"current_range_meters":29600,"station_id":"ce4bht12rcd13ifvqi60","pricing_plan_id":"free"},{"bike_id":"70fe3e67-ee8c-482c-a786-beed22fc48e1","system_id":"levelo_inurba_marseille","lat":43.28605,"lon":5.37061,"is_reserved":false,"is_disabled":false,"rental_uris":{"android":"levelo://app?vid=70fe3e67-ee8c-482c-a786-beed22fc48e1","ios":"levelo://app?vid=70fe3e67-ee8c-482c-a786-beed22fc48e1"},"vehicle_type_id":"4","last_reported":1692554820,"current_range_meters":23600,"station_id":"ce4bht12rcd13ifvqi60","pricing_plan_id":"free"},{"bike_id":"184d6ff6-fa95-4132-9929-b81bcd5f2567","system_id":"levelo_inurba_marseille","lat":43.286039,"lon":5.370679,"is_reserved":false,"is_disabled":false,"rental_uris":{"android":"levelo://app?vid=184d6ff6-fa95-4132-9929-b81bcd5f2567","ios":"levelo://app?vid=184d6ff6-fa95-4132-9929-b81bcd5f2567"},"vehicle_type_id":"4","last_reported":1692554820,"current_range_meters":2000,"station_id":"ce4bht12rcd13ifvqi60","pricing_plan_id":"free"},{"bike_id":"85b002c9-9ff0-44c2-840e-d9db24fbc191","system_id":"levelo_inurba_marseille","lat":43.287184,"lon":5.37937,"is_reserved":false,"is_disabled":false,"rental_uris":{"android":"levelo://app?vid=85b002c9-9ff0-44c2-840e-d9db24fbc191","ios":"levelo://app?vid=85b002c9-9ff0-44c2-840e-d9db24fbc191"},"vehicle_type_id":"4","last_reported":1692554820,"current_range_meters":16000,"station_id":"ce4bh9p2rcd13ifvqec0","pricing_plan_id":"free"},{"bike_id":"fd59e134-3d22-4584-b1d2-ae08a1be0f3c","system_id":"levelo_inurba_marseille","lat":43.290336,"lon":5.386425,"is_reserved":false,"is_disabled":false,"rental_uris":{"android":"levelo://app?vid=fd59e134-3d22-4584-b1d2-ae08a1be0f3c","ios":"levelo://app?vid=fd59e134-3d22-4584-b1d2-ae08a1be0f3c"},"vehicle_type_id":"4","last_reported":1692554820,"current_range_meters":0,"station_id":"ce4bh4p2rcd13ifvqe0g","pricing_plan_id":"free"},{"bike_id":"7da9e437-1e79-4b5f-9ab0-65254ac17dd7","system_id":"levelo_inurba_marseille","lat":43.31649,"lon":5.40442,"is_reserved":false,"is_disabled":false,"rental_uris":{"android":"levelo://app?vid=7da9e437-1e79-4b5f-9ab0-65254ac17dd7","ios":"levelo://app?vid=7da9e437-1e79-4b5f-9ab0-65254ac17dd7"},"vehicle_type_id":"4","last_reported":1692554820,"current_range_meters":20800,"station_id":"ce4bh012rcd13ifvqd00","pricing_plan_id":"free"},{"bike_id":"5038bf22-8726-4eaa-920c-c5e29b800ea8","system_id":"levelo_inurba_marseille","lat":43.29205,"lon":5.39329,"is_reserved":false,"is_disabled":false,"rental_uris":{"android":"levelo://app?vid=5038bf22-8726-4eaa-920c-c5e29b800ea8","ios":"levelo://app?vid=5038bf22-8726-4eaa-920c-c5e29b800ea8"},"vehicle_type_id":"4","last_reported":1692554820,"current_range_meters":20000,"station_id":"ce4bh192rcd13ifvqdd0","pricing_plan_id":"free"},{"bike_id":"b06a93fa-4c54-4faa-9fa5-5f7f73eefb15","system_id":"levelo_inurba_marseille","lat":43.291994,"lon":5.392907,"is_reserved":false,"is_disabled":false,"rental_uris":{"android":"levelo://app?vid=b06a93fa-4c54-4faa-9fa5-5f7f73eefb15","ios":"levelo://app?vid=b06a93fa-4c54-4faa-9fa5-5f7f73eefb15"},"vehicle_type_id":"4","last_reported":1692554820,"current_range_meters":18000,"station_id":"ce4bh192rcd13ifvqdd0","pricing_plan_id":"free"},{"bike_id":"3e258521-6d6c-4572-9afc-3521c59bf329","system_id":"levelo_inurba_marseille","lat":43.291994,"lon":5.392907,"is_reserved":false,"is_disabled":false,"rental_uris":{"android":"levelo://app?vid=3e258521-6d6c-4572-9afc-3521c59bf329","ios":"levelo://app?vid=3e258521-6d6c-4572-9afc-3521c59bf329"},"vehicle_type_id":"4","last_reported":1692554820,"current_range_meters":8400,"station_id":"ce4bh192rcd13ifvqdd0","pricing_plan_id":"free"},{"bike_id":"17ebde08-4c06-4c96-9ab8-73e27bfb346a","system_id":"levelo_inurba_marseille","lat":43.291994,"lon":5.392907,"is_reserved":false,"is_disabled":false,"rental_uris":{"android":"levelo://app?vid=17ebde08-4c06-4c96-9ab8-73e27bfb346a","ios":"levelo://app?vid=17ebde08-4c06-4c96-9ab8-73e27bfb346a"},"vehicle_type_id":"4","last_reported":1692554820,"current_range_meters":28000,"station_id":"ce4bh192rcd13ifvqdd0","pricing_plan_id":"free"},{"bike_id":"03c7b553-c4c0-48e3-9cf9-748197f6f88b","system_id":"levelo_inurba_marseille","lat":43.28468,"lon":5.35873,"is_reserved":false,"is_disabled":false,"rental_uris":{"android":"levelo://app?vid=03c7b553-c4c0-48e3-9cf9-748197f6f88b","ios":"levelo://app?vid=03c7b553-c4c0-48e3-9cf9-748197f6f88b"},"vehicle_type_id":"4","last_reported":1692554820,"current_range_meters":0,"station_id":"ce4bhah2rcd13ifvqei0","pricing_plan_id":"free"},{"bike_id":"3b9e3287-157c-4988-bedb-55499e028bc5","system_id":"levelo_inurba_marseille","lat":43.284538,"lon":5.358657,"is_reserved":false,"is_disabled":false,"rental_uris":{"android":"levelo://app?vid=3b9e3287-157c-4988-bedb-55499e028bc5","ios":"levelo://app?vid=3b9e3287-157c-4988-bedb-55499e028bc5"},"vehicle_type_id":"4","last_reported":1692554820,"current_range_meters":17600,"station_id":"ce4bhah2rcd13ifvqei0","pricing_plan_id":"free"},{"bike_id":"95b681b8-f415-46e9-a82f-6d76adb42a5c","system_id":"levelo_inurba_marseille","lat":43.284534,"lon":5.358662,"is_reserved":false,"is_disabled":false,"rental_uris":{"android":"levelo://app?vid=95b681b8-f415-46e9-a82f-6d76adb42a5c","ios":"levelo://app?vid=95b681b8-f415-46e9-a82f-6d76adb42a5c"},"vehicle_type_id":"4","last_reported":1692554820,"current_range_meters":14800,"station_id":"ce4bhah2rcd13ifvqei0","pricing_plan_id":"free"},{"bike_id":"fdfd6cc8-6496-47dc-b4e1-456d12d4606b","system_id":"levelo_inurba_marseille","lat":43.284534,"lon":5.358662,"is_reserved":false,"is_disabled":false,"rental_uris":{"android":"levelo://app?vid=fdfd6cc8-6496-47dc-b4e1-456d12d4606b","ios":"levelo://app?vid=fdfd6cc8-6496-47dc-b4e1-456d12d4606b"},"vehicle_type_id":"4","last_reported":1692554820,"current_range_meters":24000,"station_id":"ce4bhah2rcd13ifvqei0","pricing_plan_id":"free"},{"bike_id":"cd1a997e-bc79-40d7-b37c-ff9264aad1d9","system_id":"levelo_inurba_marseille","lat":43.284538,"lon":5.358657,"is_reserved":false,"is_disabled":false,"rental_uris":{"android":"levelo://app?vid=cd1a997e-bc79-40d7-b37c-ff9264aad1d9","ios":"levelo://app?vid=cd1a997e-bc79-40d7-b37c-ff9264aad1d9"},"vehicle_type_id":"4","last_reported":1692554820,"current_range_meters":30400,"station_id":"ce4bhah2rcd13ifvqei0","pricing_plan_id":"free"},{"bike_id":"43596f5d-232a-4dbe-ac1b-19e54e49203c","system_id":"levelo_inurba_marseille","lat":43.29446,"lon":5.39747,"is_reserved":false,"is_disabled":false,"rental_uris":{"android":"levelo://app?vid=43596f5d-232a-4dbe-ac1b-19e54e49203c","ios":"levelo://app?vid=43596f5d-232a-4dbe-ac1b-19e54e49203c"},"vehicle_type_id":"4","last_reported":1692554820,"current_range_meters":0,"station_id":"ce4bh3h2rcd13ifvqdo0","pricing_plan_id":"free"},{"bike_id":"ddb7270f-939a-4adc-b689-e6c6a70d7999","system_id":"levelo_inurba_marseille","lat":43.284534,"lon":5.358662,"is_reserved":false,"is_disabled":false,"rental_uris":{"android":"levelo://app?vid=ddb7270f-939a-4adc-b689-e6c6a70d7999","ios":"levelo://app?vid=ddb7270f-939a-4adc-b689-e6c6a70d7999"},"vehicle_type_id":"4","last_reported":1692554820,"current_range_meters":11200,"station_id":"ce4bhah2rcd13ifvqei0","pricing_plan_id":"free"},{"bike_id":"bbb08073-04f1-40a8-80a7-bcc0fe452f04","system_id":"levelo_inurba_marseille","lat":43.294314,"lon":5.397498,"is_reserved":false,"is_disabled":false,"rental_uris":{"android":"levelo://app?vid=bbb08073-04f1-40a8-80a7-bcc0fe452f04","ios":"levelo://app?vid=bbb08073-04f1-40a8-80a7-bcc0fe452f04"},"vehicle_type_id":"4","last_reported":1692554820,"current_range_meters":18400,"station_id":"ce4bh3h2rcd13ifvqdo0","pricing_plan_id":"free"},{"bike_id":"b83c4849-066a-4963-abfb-a45ebd7953ab","system_id":"levelo_inurba_marseille","lat":43.294314,"lon":5.397498,"is_reserved":false,"is_disabled":false,"rental_uris":{"android":"levelo://app?vid=b83c4849-066a-4963-abfb-a45ebd7953ab","ios":"levelo://app?vid=b83c4849-066a-4963-abfb-a45ebd7953ab"},"vehicle_type_id":"4","last_reported":1692554820,"current_range_meters":14800,"station_id":"ce4bh3h2rcd13ifvqdo0","pricing_plan_id":"free"},{"bike_id":"35eec3a1-aa54-4990-8eb4-78e6c0dd24d0","system_id":"levelo_inurba_marseille","lat":43.28615,"lon":5.351,"is_reserved":false,"is_disabled":false,"rental_uris":{"android":"levelo://app?vid=35eec3a1-aa54-4990-8eb4-78e6c0dd24d0","ios":"levelo://app?vid=35eec3a1-aa54-4990-8eb4-78e6c0dd24d0"},"vehicle_type_id":"4","last_reported":1692554820,"current_range_meters":28400,"station_id":"ce4bhch2rcd13ifvqeug","pricing_plan_id":"free"},{"bike_id":"2363d3b5-6c15-401a-a59c-ee80bd4af927","system_id":"levelo_inurba_marseille","lat":43.28415,"lon":5.37522,"is_reserved":false,"is_disabled":false,"rental_uris":{"android":"levelo://app?vid=2363d3b5-6c15-401a-a59c-ee80bd4af927","ios":"levelo://app?vid=2363d3b5-6c15-401a-a59c-ee80bd4af927"},"vehicle_type_id":"4","last_reported":1692554820,"current_range_meters":16000,"station_id":"ce4bh412rcd13ifvqds0","pricing_plan_id":"free"},{"bike_id":"17105054-6fd8-493b-b0be-1ed88688055c","system_id":"levelo_inurba_marseille","lat":43.33711,"lon":5.39178,"is_reserved":false,"is_disabled":false,"rental_uris":{"android":"levelo://app?vid=17105054-6fd8-493b-b0be-1ed88688055c","ios":"levelo://app?vid=17105054-6fd8-493b-b0be-1ed88688055c"},"vehicle_type_id":"4","last_reported":1692554820,"current_range_meters":25200,"station_id":"ce4bhr92rcd13ifvqhsg","pricing_plan_id":"free"},{"bike_id":"76b8f14c-bad2-45eb-aa60-f0a54880b2f8","system_id":"levelo_inurba_marseille","lat":43.28286,"lon":5.37439,"is_reserved":false,"is_disabled":false,"rental_uris":{"android":"levelo://app?vid=76b8f14c-bad2-45eb-aa60-f0a54880b2f8","ios":"levelo://app?vid=76b8f14c-bad2-45eb-aa60-f0a54880b2f8"},"vehicle_type_id":"4","last_reported":1692554820,"current_range_meters":28400,"station_id":"ce4bh412rcd13ifvqds0","pricing_plan_id":"free"},{"bike_id":"82ce9e4e-2a06-4e64-84ff-38f47646688c","system_id":"levelo_inurba_marseille","lat":43.323464,"lon":5.406297,"is_reserved":false,"is_disabled":false,"rental_uris":{"android":"levelo://app?vid=82ce9e4e-2a06-4e64-84ff-38f47646688c","ios":"levelo://app?vid=82ce9e4e-2a06-4e64-84ff-38f47646688c"},"vehicle_type_id":"4","last_reported":1692554820,"current_range_meters":20400,"station_id":"ce4bhq92rcd13ifvqhjg","pricing_plan_id":"free"},{"bike_id":"7d2969ab-a065-4a23-b19e-667095d799c9","system_id":"levelo_inurba_marseille","lat":43.33714,"lon":5.39189,"is_reserved":false,"is_disabled":false,"rental_uris":{"android":"levelo://app?vid=7d2969ab-a065-4a23-b19e-667095d799c9","ios":"levelo://app?vid=7d2969ab-a065-4a23-b19e-667095d799c9"},"vehicle_type_id":"4","last_reported":1692554820,"current_range_meters":5600,"station_id":"ce4bhr92rcd13ifvqhsg","pricing_plan_id":"free"},{"bike_id":"4458971a-1e42-4d51-8e96-a944048bc368","system_id":"levelo_inurba_marseille","lat":43.3372,"lon":5.39179,"is_reserved":false,"is_disabled":false,"rental_uris":{"android":"levelo://app?vid=4458971a-1e42-4d51-8e96-a944048bc368","ios":"levelo://app?vid=4458971a-1e42-4d51-8e96-a944048bc368"},"vehicle_type_id":"4","last_reported":1692554820,"current_range_meters":27600,"station_id":"ce4bhr92rcd13ifvqhsg","pricing_plan_id":"free"},{"bike_id":"2b3f06e0-8f2d-4133-9563-f19f57fe46e5","system_id":"levelo_inurba_marseille","lat":43.337168,"lon":5.391825,"is_reserved":false,"is_disabled":false,"rental_uris":{"android":"levelo://app?vid=2b3f06e0-8f2d-4133-9563-f19f57fe46e5","ios":"levelo://app?vid=2b3f06e0-8f2d-4133-9563-f19f57fe46e5"},"vehicle_type_id":"4","last_reported":1692554820,"current_range_meters":5600,"station_id":"ce4bhr92rcd13ifvqhsg","pricing_plan_id":"free"},{"bike_id":"8bd09c71-02ae-4371-8b55-ce1e7e2bf2df","system_id":"levelo_inurba_marseille","lat":43.33718,"lon":5.39189,"is_reserved":false,"is_disabled":false,"rental_uris":{"android":"levelo://app?vid=8bd09c71-02ae-4371-8b55-ce1e7e2bf2df","ios":"levelo://app?vid=8bd09c71-02ae-4371-8b55-ce1e7e2bf2df"},"vehicle_type_id":"4","last_reported":1692554820,"current_range_meters":25200,"station_id":"ce4bhr92rcd13ifvqhsg","pricing_plan_id":"free"},{"bike_id":"72fc020d-a1d4-460a-a3d1-6187a1ea65d2","system_id":"levelo_inurba_marseille","lat":43.33717,"lon":5.39191,"is_reserved":false,"is_disabled":false,"rental_uris":{"android":"levelo://app?vid=72fc020d-a1d4-460a-a3d1-6187a1ea65d2","ios":"levelo://app?vid=72fc020d-a1d4-460a-a3d1-6187a1ea65d2"},"vehicle_type_id":"4","last_reported":1692554820,"current_range_meters":22000,"station_id":"ce4bhr92rcd13ifvqhsg","pricing_plan_id":"free"},{"bike_id":"e45012d8-673a-4bd6-93d3-a427f767a00d","system_id":"levelo_inurba_marseille","lat":43.33721,"lon":5.39185,"is_reserved":false,"is_disabled":false,"rental_uris":{"android":"levelo://app?vid=e45012d8-673a-4bd6-93d3-a427f767a00d","ios":"levelo://app?vid=e45012d8-673a-4bd6-93d3-a427f767a00d"},"vehicle_type_id":"4","last_reported":1692554820,"current_range_meters":22800,"station_id":"ce4bhr92rcd13ifvqhsg","pricing_plan_id":"free"},{"bike_id":"12c0f407-4ac2-49d3-b1e8-783bd26a8644","system_id":"levelo_inurba_marseille","lat":43.3372,"lon":5.39187,"is_reserved":false,"is_disabled":false,"rental_uris":{"android":"levelo://app?vid=12c0f407-4ac2-49d3-b1e8-783bd26a8644","ios":"levelo://app?vid=12c0f407-4ac2-49d3-b1e8-783bd26a8644"},"vehicle_type_id":"4","last_reported":1692554820,"current_range_meters":24400,"station_id":"ce4bhr92rcd13ifvqhsg","pricing_plan_id":"free"},{"bike_id":"01f563c5-7ac0-4d44-b1b3-0549f3b949f3","system_id":"levelo_inurba_marseille","lat":43.33721,"lon":5.39186,"is_reserved":false,"is_disabled":false,"rental_uris":{"android":"levelo://app?vid=01f563c5-7ac0-4d44-b1b3-0549f3b949f3","ios":"levelo://app?vid=01f563c5-7ac0-4d44-b1b3-0549f3b949f3"},"vehicle_type_id":"4","last_reported":1692554820,"current_range_meters":25200,"station_id":"ce4bhr92rcd13ifvqhsg","pricing_plan_id":"free"},{"bike_id":"efe8b264-ad35-4139-b98d-40041f267f16","system_id":"levelo_inurba_marseille","lat":43.33723,"lon":5.39183,"is_reserved":false,"is_disabled":false,"rental_uris":{"android":"levelo://app?vid=efe8b264-ad35-4139-b98d-40041f267f16","ios":"levelo://app?vid=efe8b264-ad35-4139-b98d-40041f267f16"},"vehicle_type_id":"4","last_reported":1692554820,"current_range_meters":22400,"station_id":"ce4bhr92rcd13ifvqhsg","pricing_plan_id":"free"},{"bike_id":"186ddf38-a5ca-44a9-9dd3-9bfe2a53544b","system_id":"levelo_inurba_marseille","lat":43.33719,"lon":5.39192,"is_reserved":false,"is_disabled":false,"rental_uris":{"android":"levelo://app?vid=186ddf38-a5ca-44a9-9dd3-9bfe2a53544b","ios":"levelo://app?vid=186ddf38-a5ca-44a9-9dd3-9bfe2a53544b"},"vehicle_type_id":"4","last_reported":1692554820,"current_range_meters":24000,"station_id":"ce4bhr92rcd13ifvqhsg","pricing_plan_id":"free"},{"bike_id":"0dda2562-498f-4f90-abfb-f3c666db2d2e","system_id":"levelo_inurba_marseille","lat":43.33722,"lon":5.39187,"is_reserved":false,"is_disabled":false,"rental_uris":{"android":"levelo://app?vid=0dda2562-498f-4f90-abfb-f3c666db2d2e","ios":"levelo://app?vid=0dda2562-498f-4f90-abfb-f3c666db2d2e"},"vehicle_type_id":"4","last_reported":1692554820,"current_range_meters":18800,"station_id":"ce4bhr92rcd13ifvqhsg","pricing_plan_id":"free"},{"bike_id":"02f29c2d-847e-4148-9200-bdb4c19acc46","system_id":"levelo_inurba_marseille","lat":43.3372,"lon":5.39191,"is_reserved":false,"is_disabled":false,"rental_uris":{"android":"levelo://app?vid=02f29c2d-847e-4148-9200-bdb4c19acc46","ios":"levelo://app?vid=02f29c2d-847e-4148-9200-bdb4c19acc46"},"vehicle_type_id":"4","last_reported":1692554820,"current_range_meters":24800,"station_id":"ce4bhr92rcd13ifvqhsg","pricing_plan_id":"free"},{"bike_id":"97d0f90d-ac9d-480b-8250-a663b55e35e8","system_id":"levelo_inurba_marseille","lat":43.337168,"lon":5.391825,"is_reserved":false,"is_disabled":false,"rental_uris":{"android":"levelo://app?vid=97d0f90d-ac9d-480b-8250-a663b55e35e8","ios":"levelo://app?vid=97d0f90d-ac9d-480b-8250-a663b55e35e8"},"vehicle_type_id":"4","last_reported":1692554820,"current_range_meters":24800,"station_id":"ce4bhr92rcd13ifvqhsg","pricing_plan_id":"free"},{"bike_id":"f24d321f-ba10-47bf-b834-145a0b92ec46","system_id":"levelo_inurba_marseille","lat":43.33723,"lon":5.39192,"is_reserved":false,"is_disabled":false,"rental_uris":{"android":"levelo://app?vid=f24d321f-ba10-47bf-b834-145a0b92ec46","ios":"levelo://app?vid=f24d321f-ba10-47bf-b834-145a0b92ec46"},"vehicle_type_id":"4","last_reported":1692554820,"current_range_meters":17600,"station_id":"ce4bhr92rcd13ifvqhsg","pricing_plan_id":"free"},{"bike_id":"c24cecf2-0503-470c-b3d3-fc37f377f710","system_id":"levelo_inurba_marseille","lat":43.33729,"lon":5.39183,"is_reserved":false,"is_disabled":false,"rental_uris":{"android":"levelo://app?vid=c24cecf2-0503-470c-b3d3-fc37f377f710","ios":"levelo://app?vid=c24cecf2-0503-470c-b3d3-fc37f377f710"},"vehicle_type_id":"4","last_reported":1692554820,"current_range_meters":24000,"station_id":"ce4bhr92rcd13ifvqhsg","pricing_plan_id":"free"},{"bike_id":"35e51cdd-0691-44df-be95-a6dd6fc17edd","system_id":"levelo_inurba_marseille","lat":43.33726,"lon":5.39193,"is_reserved":false,"is_disabled":false,"rental_uris":{"android":"levelo://app?vid=35e51cdd-0691-44df-be95-a6dd6fc17edd","ios":"levelo://app?vid=35e51cdd-0691-44df-be95-a6dd6fc17edd"},"vehicle_type_id":"4","last_reported":1692554820,"current_range_meters":14400,"station_id":"ce4bhr92rcd13ifvqhsg","pricing_plan_id":"free"},{"bike_id":"5088afba-bfd7-4fd5-ba8f-e05ec62c2d8f","system_id":"levelo_inurba_marseille","lat":43.284787,"lon":5.384116,"is_reserved":false,"is_disabled":false,"rental_uris":{"android":"levelo://app?vid=5088afba-bfd7-4fd5-ba8f-e05ec62c2d8f","ios":"levelo://app?vid=5088afba-bfd7-4fd5-ba8f-e05ec62c2d8f"},"vehicle_type_id":"4","last_reported":1692554820,"current_range_meters":28400,"station_id":"ce4bh512rcd13ifvqe3g","pricing_plan_id":"free"},{"bike_id":"29d2b9fa-5eef-46c5-a534-25694dd7123b","system_id":"levelo_inurba_marseille","lat":43.284787,"lon":5.384116,"is_reserved":false,"is_disabled":false,"rental_uris":{"android":"levelo://app?vid=29d2b9fa-5eef-46c5-a534-25694dd7123b","ios":"levelo://app?vid=29d2b9fa-5eef-46c5-a534-25694dd7123b"},"vehicle_type_id":"4","last_reported":1692554820,"current_range_meters":19200,"station_id":"ce4bh512rcd13ifvqe3g","pricing_plan_id":"free"},{"bike_id":"766aecef-1bbb-4a1c-914e-0ccd0019e804","system_id":"levelo_inurba_marseille","lat":43.284219,"lon":5.3497,"is_reserved":false,"is_disabled":false,"rental_uris":{"android":"levelo://app?vid=766aecef-1bbb-4a1c-914e-0ccd0019e804","ios":"levelo://app?vid=766aecef-1bbb-4a1c-914e-0ccd0019e804"},"vehicle_type_id":"4","last_reported":1692554820,"current_range_meters":28800,"station_id":"ce4bhbh2rcd13ifvqepg","pricing_plan_id":"free"},{"bike_id":"f50aca5f-cf5b-4020-925f-826a2e34874f","system_id":"levelo_inurba_marseille","lat":43.289363,"lon":5.396322,"is_reserved":false,"is_disabled":false,"rental_uris":{"android":"levelo://app?vid=f50aca5f-cf5b-4020-925f-826a2e34874f","ios":"levelo://app?vid=f50aca5f-cf5b-4020-925f-826a2e34874f"},"vehicle_type_id":"4","last_reported":1692554820,"current_range_meters":29200,"station_id":"ce4bh3h2rcd13ifvqdn0","pricing_plan_id":"free"},{"bike_id":"5cec26ac-344f-432b-af34-450b75305b9b","system_id":"levelo_inurba_marseille","lat":43.2928,"lon":5.40115,"is_reserved":false,"is_disabled":false,"rental_uris":{"android":"levelo://app?vid=5cec26ac-344f-432b-af34-450b75305b9b","ios":"levelo://app?vid=5cec26ac-344f-432b-af34-450b75305b9b"},"vehicle_type_id":"4","last_reported":1692554820,"current_range_meters":31200,"station_id":"ce4bh312rcd13ifvqdk0","pricing_plan_id":"free"},{"bike_id":"d2504846-e642-47ca-be0d-40e32cf04f9e","system_id":"levelo_inurba_marseille","lat":43.28039,"lon":5.369297,"is_reserved":false,"is_disabled":false,"rental_uris":{"android":"levelo://app?vid=d2504846-e642-47ca-be0d-40e32cf04f9e","ios":"levelo://app?vid=d2504846-e642-47ca-be0d-40e32cf04f9e"},"vehicle_type_id":"4","last_reported":1692554820,"current_range_meters":1600,"station_id":"ce4bha12rcd13ifvqef0","pricing_plan_id":"free"},{"bike_id":"d8694d78-a1d6-49ee-9c69-0ccdc30229aa","system_id":"levelo_inurba_marseille","lat":43.283502,"lon":5.386471,"is_reserved":false,"is_disabled":false,"rental_uris":{"android":"levelo://app?vid=d8694d78-a1d6-49ee-9c69-0ccdc30229aa","ios":"levelo://app?vid=d8694d78-a1d6-49ee-9c69-0ccdc30229aa"},"vehicle_type_id":"4","last_reported":1692554820,"current_range_meters":10800,"station_id":"ce4bh492rcd13ifvqdvg","pricing_plan_id":"free"},{"bike_id":"467dae90-752a-4ed4-86c7-a6078a13d70e","system_id":"levelo_inurba_marseille","lat":43.283502,"lon":5.386471,"is_reserved":false,"is_disabled":false,"rental_uris":{"android":"levelo://app?vid=467dae90-752a-4ed4-86c7-a6078a13d70e","ios":"levelo://app?vid=467dae90-752a-4ed4-86c7-a6078a13d70e"},"vehicle_type_id":"4","last_reported":1692554820,"current_range_meters":14000,"station_id":"ce4bh492rcd13ifvqdvg","pricing_plan_id":"free"},{"bike_id":"fdb447c4-41bd-4b96-9970-cc51a7797101","system_id":"levelo_inurba_marseille","lat":43.28039,"lon":5.369297,"is_reserved":false,"is_disabled":false,"rental_uris":{"android":"levelo://app?vid=fdb447c4-41bd-4b96-9970-cc51a7797101","ios":"levelo://app?vid=fdb447c4-41bd-4b96-9970-cc51a7797101"},"vehicle_type_id":"4","last_reported":1692554820,"current_range_meters":21200,"station_id":"ce4bha12rcd13ifvqef0","pricing_plan_id":"free"},{"bike_id":"88940920-727e-47f8-bee6-24feedff1167","system_id":"levelo_inurba_marseille","lat":43.282744,"lon":5.350533,"is_reserved":false,"is_disabled":false,"rental_uris":{"android":"levelo://app?vid=88940920-727e-47f8-bee6-24feedff1167","ios":"levelo://app?vid=88940920-727e-47f8-bee6-24feedff1167"},"vehicle_type_id":"4","last_reported":1692554820,"current_range_meters":30000,"station_id":"ce4bhbp2rcd13ifvqerg","pricing_plan_id":"free"},{"bike_id":"9f46cfde-4f76-4076-bade-5765c2d3d473","system_id":"levelo_inurba_marseille","lat":43.28039,"lon":5.369297,"is_reserved":false,"is_disabled":false,"rental_uris":{"android":"levelo://app?vid=9f46cfde-4f76-4076-bade-5765c2d3d473","ios":"levelo://app?vid=9f46cfde-4f76-4076-bade-5765c2d3d473"},"vehicle_type_id":"4","last_reported":1692554820,"current_range_meters":31200,"station_id":"ce4bha12rcd13ifvqef0","pricing_plan_id":"free"},{"bike_id":"618df455-37c8-40a2-9358-626a7068f7fd","system_id":"levelo_inurba_marseille","lat":43.28039,"lon":5.369297,"is_reserved":false,"is_disabled":false,"rental_uris":{"android":"levelo://app?vid=618df455-37c8-40a2-9358-626a7068f7fd","ios":"levelo://app?vid=618df455-37c8-40a2-9358-626a7068f7fd"},"vehicle_type_id":"4","last_reported":1692554820,"current_range_meters":0,"station_id":"ce4bha12rcd13ifvqef0","pricing_plan_id":"free"},{"bike_id":"b1300aa7-b017-4813-b579-bf37d1a48fc8","system_id":"levelo_inurba_marseille","lat":43.28031,"lon":5.36933,"is_reserved":false,"is_disabled":false,"rental_uris":{"android":"levelo://app?vid=b1300aa7-b017-4813-b579-bf37d1a48fc8","ios":"levelo://app?vid=b1300aa7-b017-4813-b579-bf37d1a48fc8"},"vehicle_type_id":"4","last_reported":1692554820,"current_range_meters":31200,"station_id":"ce4bha12rcd13ifvqef0","pricing_plan_id":"free"},{"bike_id":"07a0b1e9-378c-4a73-b386-a3f945179afa","system_id":"levelo_inurba_marseille","lat":43.28106,"lon":5.3783,"is_reserved":false,"is_disabled":false,"rental_uris":{"android":"levelo://app?vid=07a0b1e9-378c-4a73-b386-a3f945179afa","ios":"levelo://app?vid=07a0b1e9-378c-4a73-b386-a3f945179afa"},"vehicle_type_id":"4","last_reported":1692554820,"current_range_meters":0,"station_id":"ce4bha12rcd13ifvqee0","pricing_plan_id":"free"},{"bike_id":"facffd0e-350f-4c82-a3f7-3aa7ccb53200","system_id":"levelo_inurba_marseille","lat":43.281044,"lon":5.378308,"is_reserved":false,"is_disabled":false,"rental_uris":{"android":"levelo://app?vid=facffd0e-350f-4c82-a3f7-3aa7ccb53200","ios":"levelo://app?vid=facffd0e-350f-4c82-a3f7-3aa7ccb53200"},"vehicle_type_id":"4","last_reported":1692554820,"current_range_meters":17600,"station_id":"ce4bha12rcd13ifvqee0","pricing_plan_id":"free"},{"bike_id":"752bdae6-2c83-4898-ae79-9dc07c6e5e9f","system_id":"levelo_inurba_marseille","lat":43.28102,"lon":5.37838,"is_reserved":false,"is_disabled":false,"rental_uris":{"android":"levelo://app?vid=752bdae6-2c83-4898-ae79-9dc07c6e5e9f","ios":"levelo://app?vid=752bdae6-2c83-4898-ae79-9dc07c6e5e9f"},"vehicle_type_id":"4","last_reported":1692554820,"current_range_meters":1200,"station_id":"ce4bha12rcd13ifvqee0","pricing_plan_id":"free"},{"bike_id":"d1b371f3-e77f-4849-a360-48d799a49734","system_id":"levelo_inurba_marseille","lat":43.284462,"lon":5.392121,"is_reserved":false,"is_disabled":false,"rental_uris":{"android":"levelo://app?vid=d1b371f3-e77f-4849-a360-48d799a49734","ios":"levelo://app?vid=d1b371f3-e77f-4849-a360-48d799a49734"},"vehicle_type_id":"4","last_reported":1692554820,"current_range_meters":27200,"station_id":"ce4bhoh2rcd13ifvqh5g","pricing_plan_id":"free"},{"bike_id":"f8ef4f78-badc-40d1-a4a9-077301466e56","system_id":"levelo_inurba_marseille","lat":43.32662,"lon":5.40978,"is_reserved":false,"is_disabled":false,"rental_uris":{"android":"levelo://app?vid=f8ef4f78-badc-40d1-a4a9-077301466e56","ios":"levelo://app?vid=f8ef4f78-badc-40d1-a4a9-077301466e56"},"vehicle_type_id":"4","last_reported":1692554820,"current_range_meters":8400,"station_id":"ce4bhpp2rcd13ifvqhgg","pricing_plan_id":"free"},{"bike_id":"62207ed7-2bb3-4a84-ae97-08e6a24132e0","system_id":"levelo_inurba_marseille","lat":43.279087,"lon":5.380114,"is_reserved":false,"is_disabled":false,"rental_uris":{"android":"levelo://app?vid=62207ed7-2bb3-4a84-ae97-08e6a24132e0","ios":"levelo://app?vid=62207ed7-2bb3-4a84-ae97-08e6a24132e0"},"vehicle_type_id":"4","last_reported":1692554820,"current_range_meters":3600,"station_id":"ce4bhf92rcd13ifvqf50","pricing_plan_id":"free"},{"bike_id":"071a165e-b2af-4a91-aaf7-06ee39290172","system_id":"levelo_inurba_marseille","lat":43.279087,"lon":5.380114,"is_reserved":false,"is_disabled":false,"rental_uris":{"android":"levelo://app?vid=071a165e-b2af-4a91-aaf7-06ee39290172","ios":"levelo://app?vid=071a165e-b2af-4a91-aaf7-06ee39290172"},"vehicle_type_id":"4","last_reported":1692554820,"current_range_meters":2400,"station_id":"ce4bhf92rcd13ifvqf50","pricing_plan_id":"free"},{"bike_id":"522005b6-d8a7-4c49-8534-e46d2e38aafb","system_id":"levelo_inurba_marseille","lat":43.279742,"lon":5.38744,"is_reserved":false,"is_disabled":false,"rental_uris":{"android":"levelo://app?vid=522005b6-d8a7-4c49-8534-e46d2e38aafb","ios":"levelo://app?vid=522005b6-d8a7-4c49-8534-e46d2e38aafb"},"vehicle_type_id":"4","last_reported":1692554820,"current_range_meters":25200,"station_id":"ce4bhg12rcd13ifvqf80","pricing_plan_id":"free"},{"bike_id":"c327718a-8fe6-4791-a349-aba0f8f94e82","system_id":"levelo_inurba_marseille","lat":43.279742,"lon":5.38744,"is_reserved":false,"is_disabled":false,"rental_uris":{"android":"levelo://app?vid=c327718a-8fe6-4791-a349-aba0f8f94e82","ios":"levelo://app?vid=c327718a-8fe6-4791-a349-aba0f8f94e82"},"vehicle_type_id":"4","last_reported":1692554820,"current_range_meters":25600,"station_id":"ce4bhg12rcd13ifvqf80","pricing_plan_id":"free"},{"bike_id":"f28321a2-afee-4891-95a5-47dca9a344cc","system_id":"levelo_inurba_marseille","lat":43.292569,"lon":5.409107,"is_reserved":false,"is_disabled":false,"rental_uris":{"android":"levelo://app?vid=f28321a2-afee-4891-95a5-47dca9a344cc","ios":"levelo://app?vid=f28321a2-afee-4891-95a5-47dca9a344cc"},"vehicle_type_id":"4","last_reported":1692554820,"current_range_meters":22400,"station_id":"ce4bh192rcd13ifvqdc0","pricing_plan_id":"free"},{"bike_id":"6c4dca58-d766-402d-a099-3c9ffbce1da4","system_id":"levelo_inurba_marseille","lat":43.303837,"lon":5.418724,"is_reserved":false,"is_disabled":false,"rental_uris":{"android":"levelo://app?vid=6c4dca58-d766-402d-a099-3c9ffbce1da4","ios":"levelo://app?vid=6c4dca58-d766-402d-a099-3c9ffbce1da4"},"vehicle_type_id":"4","last_reported":1692554820,"current_range_meters":4000,"station_id":"ce4bhop2rcd13ifvqh7g","pricing_plan_id":"free"},{"bike_id":"9f3f7446-8b68-4885-a9d2-48c35590b73f","system_id":"levelo_inurba_marseille","lat":43.273613,"lon":5.362705,"is_reserved":false,"is_disabled":false,"rental_uris":{"android":"levelo://app?vid=9f3f7446-8b68-4885-a9d2-48c35590b73f","ios":"levelo://app?vid=9f3f7446-8b68-4885-a9d2-48c35590b73f"},"vehicle_type_id":"4","last_reported":1692554820,"current_range_meters":19200,"station_id":"ce4bhbh2rcd13ifvqeo0","pricing_plan_id":"free"},{"bike_id":"0e72cd77-fe43-4bf6-9093-8d48f7fb9a07","system_id":"levelo_inurba_marseille","lat":43.273613,"lon":5.362705,"is_reserved":false,"is_disabled":false,"rental_uris":{"android":"levelo://app?vid=0e72cd77-fe43-4bf6-9093-8d48f7fb9a07","ios":"levelo://app?vid=0e72cd77-fe43-4bf6-9093-8d48f7fb9a07"},"vehicle_type_id":"4","last_reported":1692554820,"current_range_meters":23600,"station_id":"ce4bhbh2rcd13ifvqeo0","pricing_plan_id":"free"},{"bike_id":"bbfaa410-94ee-41e8-87bc-29fc76aac24b","system_id":"levelo_inurba_marseille","lat":43.27375,"lon":5.3625,"is_reserved":false,"is_disabled":false,"rental_uris":{"android":"levelo://app?vid=bbfaa410-94ee-41e8-87bc-29fc76aac24b","ios":"levelo://app?vid=bbfaa410-94ee-41e8-87bc-29fc76aac24b"},"vehicle_type_id":"4","last_reported":1692554820,"current_range_meters":800,"station_id":"ce4bhbh2rcd13ifvqeo0","pricing_plan_id":"free"},{"bike_id":"0a70fa1a-9b42-4c6e-bc8d-43d538caba51","system_id":"levelo_inurba_marseille","lat":43.273613,"lon":5.362705,"is_reserved":false,"is_disabled":false,"rental_uris":{"android":"levelo://app?vid=0a70fa1a-9b42-4c6e-bc8d-43d538caba51","ios":"levelo://app?vid=0a70fa1a-9b42-4c6e-bc8d-43d538caba51"},"vehicle_type_id":"4","last_reported":1692554820,"current_range_meters":6800,"station_id":"ce4bhbh2rcd13ifvqeo0","pricing_plan_id":"free"},{"bike_id":"bcef8e68-1fa4-4c75-a27c-f3864579a5bf","system_id":"levelo_inurba_marseille","lat":43.27373,"lon":5.36254,"is_reserved":false,"is_disabled":false,"rental_uris":{"android":"levelo://app?vid=bcef8e68-1fa4-4c75-a27c-f3864579a5bf","ios":"levelo://app?vid=bcef8e68-1fa4-4c75-a27c-f3864579a5bf"},"vehicle_type_id":"4","last_reported":1692554820,"current_range_meters":0,"station_id":"ce4bhbh2rcd13ifvqeo0","pricing_plan_id":"free"},{"bike_id":"86f92d6a-0da0-43e7-9f90-bcb63d06227a","system_id":"levelo_inurba_marseille","lat":43.273613,"lon":5.362705,"is_reserved":false,"is_disabled":false,"rental_uris":{"android":"levelo://app?vid=86f92d6a-0da0-43e7-9f90-bcb63d06227a","ios":"levelo://app?vid=86f92d6a-0da0-43e7-9f90-bcb63d06227a"},"vehicle_type_id":"4","last_reported":1692554820,"current_range_meters":17600,"station_id":"ce4bhbh2rcd13ifvqeo0","pricing_plan_id":"free"},{"bike_id":"9892a06b-19e7-4aaa-96bb-95c3d8ae1830","system_id":"levelo_inurba_marseille","lat":43.33614,"lon":5.41016,"is_reserved":false,"is_disabled":false,"rental_uris":{"android":"levelo://app?vid=9892a06b-19e7-4aaa-96bb-95c3d8ae1830","ios":"levelo://app?vid=9892a06b-19e7-4aaa-96bb-95c3d8ae1830"},"vehicle_type_id":"4","last_reported":1692554820,"current_range_meters":28000,"station_id":"ce4bhqh2rcd13ifvqhmg","pricing_plan_id":"free"},{"bike_id":"2c002134-e4d2-41d1-b436-28e8e2ea24ca","system_id":"levelo_inurba_marseille","lat":43.276771,"lon":5.388799,"is_reserved":false,"is_disabled":false,"rental_uris":{"android":"levelo://app?vid=2c002134-e4d2-41d1-b436-28e8e2ea24ca","ios":"levelo://app?vid=2c002134-e4d2-41d1-b436-28e8e2ea24ca"},"vehicle_type_id":"4","last_reported":1692554820,"current_range_meters":29600,"station_id":"ce4bhi12rcd13ifvqfo0","pricing_plan_id":"free"},{"bike_id":"b4951f11-db64-44cd-9ad5-56873746530e","system_id":"levelo_inurba_marseille","lat":43.276771,"lon":5.388799,"is_reserved":false,"is_disabled":false,"rental_uris":{"android":"levelo://app?vid=b4951f11-db64-44cd-9ad5-56873746530e","ios":"levelo://app?vid=b4951f11-db64-44cd-9ad5-56873746530e"},"vehicle_type_id":"4","last_reported":1692554820,"current_range_meters":12800,"station_id":"ce4bhi12rcd13ifvqfo0","pricing_plan_id":"free"},{"bike_id":"81ceca42-08e3-4146-96f8-fc3af898abae","system_id":"levelo_inurba_marseille","lat":43.27887,"lon":5.39497,"is_reserved":false,"is_disabled":false,"rental_uris":{"android":"levelo://app?vid=81ceca42-08e3-4146-96f8-fc3af898abae","ios":"levelo://app?vid=81ceca42-08e3-4146-96f8-fc3af898abae"},"vehicle_type_id":"4","last_reported":1692554820,"current_range_meters":22000,"station_id":"","pricing_plan_id":"free"},{"bike_id":"83d15515-e803-4385-8191-b0e90955240d","system_id":"levelo_inurba_marseille","lat":43.341443,"lon":5.409037,"is_reserved":false,"is_disabled":false,"rental_uris":{"android":"levelo://app?vid=83d15515-e803-4385-8191-b0e90955240d","ios":"levelo://app?vid=83d15515-e803-4385-8191-b0e90955240d"},"vehicle_type_id":"4","last_reported":1692554820,"current_range_meters":22800,"station_id":"ce4bhqh2rcd13ifvqhlg","pricing_plan_id":"free"},{"bike_id":"2229015e-48e8-461b-b7db-08c9984d5650","system_id":"levelo_inurba_marseille","lat":43.29561,"lon":5.42271,"is_reserved":false,"is_disabled":false,"rental_uris":{"android":"levelo://app?vid=2229015e-48e8-461b-b7db-08c9984d5650","ios":"levelo://app?vid=2229015e-48e8-461b-b7db-08c9984d5650"},"vehicle_type_id":"4","last_reported":1692554820,"current_range_meters":0,"station_id":"ce4bhph2rcd13ifvqhdg","pricing_plan_id":"free"},{"bike_id":"7ed64a4c-76ae-407f-882a-2e07c3c48b2e","system_id":"levelo_inurba_marseille","lat":43.295511,"lon":5.422926,"is_reserved":false,"is_disabled":false,"rental_uris":{"android":"levelo://app?vid=7ed64a4c-76ae-407f-882a-2e07c3c48b2e","ios":"levelo://app?vid=7ed64a4c-76ae-407f-882a-2e07c3c48b2e"},"vehicle_type_id":"4","last_reported":1692554820,"current_range_meters":9200,"station_id":"ce4bhph2rcd13ifvqhdg","pricing_plan_id":"free"},{"bike_id":"22c10e3c-0553-4e34-9e88-23e956662d74","system_id":"levelo_inurba_marseille","lat":43.278128,"lon":5.407195,"is_reserved":false,"is_disabled":false,"rental_uris":{"android":"levelo://app?vid=22c10e3c-0553-4e34-9e88-23e956662d74","ios":"levelo://app?vid=22c10e3c-0553-4e34-9e88-23e956662d74"},"vehicle_type_id":"4","last_reported":1692554820,"current_range_meters":9200,"station_id":"ce4bhnh2rcd13ifvqgtg","pricing_plan_id":"free"},{"bike_id":"fb062979-2f29-42ff-9bbf-6960697dc201","system_id":"levelo_inurba_marseille","lat":43.27807,"lon":5.407,"is_reserved":false,"is_disabled":false,"rental_uris":{"android":"levelo://app?vid=fb062979-2f29-42ff-9bbf-6960697dc201","ios":"levelo://app?vid=fb062979-2f29-42ff-9bbf-6960697dc201"},"vehicle_type_id":"4","last_reported":1692554820,"current_range_meters":27600,"station_id":"","pricing_plan_id":"free"},{"bike_id":"b7e5591d-1c34-4417-a274-a20e7c77a167","system_id":"levelo_inurba_marseille","lat":43.278128,"lon":5.407195,"is_reserved":false,"is_disabled":false,"rental_uris":{"android":"levelo://app?vid=b7e5591d-1c34-4417-a274-a20e7c77a167","ios":"levelo://app?vid=b7e5591d-1c34-4417-a274-a20e7c77a167"},"vehicle_type_id":"4","last_reported":1692554820,"current_range_meters":14400,"station_id":"ce4bhnh2rcd13ifvqgtg","pricing_plan_id":"free"},{"bike_id":"c99c7bff-cbf4-41f1-988c-e46b47f415fd","system_id":"levelo_inurba_marseille","lat":43.269467,"lon":5.386439,"is_reserved":false,"is_disabled":false,"rental_uris":{"android":"levelo://app?vid=c99c7bff-cbf4-41f1-988c-e46b47f415fd","ios":"levelo://app?vid=c99c7bff-cbf4-41f1-988c-e46b47f415fd"},"vehicle_type_id":"4","last_reported":1692554820,"current_range_meters":1200,"station_id":"ce4bhh92rcd13ifvqfh0","pricing_plan_id":"free"},{"bike_id":"5d9cc3da-a983-4248-b3a6-914a6663cb58","system_id":"levelo_inurba_marseille","lat":43.279465,"lon":5.410561,"is_reserved":false,"is_disabled":false,"rental_uris":{"android":"levelo://app?vid=5d9cc3da-a983-4248-b3a6-914a6663cb58","ios":"levelo://app?vid=5d9cc3da-a983-4248-b3a6-914a6663cb58"},"vehicle_type_id":"4","last_reported":1692554820,"current_range_meters":1200,"station_id":"ce4bhnp2rcd13ifvqh0g","pricing_plan_id":"free"},{"bike_id":"4ec4ee9f-0632-439f-a431-9ab40d5cb672","system_id":"levelo_inurba_marseille","lat":43.279465,"lon":5.410561,"is_reserved":false,"is_disabled":false,"rental_uris":{"android":"levelo://app?vid=4ec4ee9f-0632-439f-a431-9ab40d5cb672","ios":"levelo://app?vid=4ec4ee9f-0632-439f-a431-9ab40d5cb672"},"vehicle_type_id":"4","last_reported":1692554820,"current_range_meters":23200,"station_id":"ce4bhnp2rcd13ifvqh0g","pricing_plan_id":"free"},{"bike_id":"4e27915d-718e-4d47-a339-427fa58f159d","system_id":"levelo_inurba_marseille","lat":43.26681,"lon":5.382694,"is_reserved":false,"is_disabled":false,"rental_uris":{"android":"levelo://app?vid=4e27915d-718e-4d47-a339-427fa58f159d","ios":"levelo://app?vid=4e27915d-718e-4d47-a339-427fa58f159d"},"vehicle_type_id":"4","last_reported":1692554820,"current_range_meters":2000,"station_id":"ce4bhg92rcd13ifvqf90","pricing_plan_id":"free"},{"bike_id":"36462bd9-7a52-43f5-a773-b3d7f8240a53","system_id":"levelo_inurba_marseille","lat":43.26681,"lon":5.382694,"is_reserved":false,"is_disabled":false,"rental_uris":{"android":"levelo://app?vid=36462bd9-7a52-43f5-a773-b3d7f8240a53","ios":"levelo://app?vid=36462bd9-7a52-43f5-a773-b3d7f8240a53"},"vehicle_type_id":"4","last_reported":1692554820,"current_range_meters":1600,"station_id":"ce4bhg92rcd13ifvqf90","pricing_plan_id":"free"},{"bike_id":"65465107-58b7-4ac4-afcf-18050f5e945e","system_id":"levelo_inurba_marseille","lat":43.27996,"lon":5.416624,"is_reserved":false,"is_disabled":false,"rental_uris":{"android":"levelo://app?vid=65465107-58b7-4ac4-afcf-18050f5e945e","ios":"levelo://app?vid=65465107-58b7-4ac4-afcf-18050f5e945e"},"vehicle_type_id":"4","last_reported":1692554820,"current_range_meters":2800,"station_id":"ce4bho12rcd13ifvqh1g","pricing_plan_id":"free"},{"bike_id":"0649b887-6121-4d00-b820-f8aa0cbe9f26","system_id":"levelo_inurba_marseille","lat":43.27987,"lon":5.41662,"is_reserved":false,"is_disabled":false,"rental_uris":{"android":"levelo://app?vid=0649b887-6121-4d00-b820-f8aa0cbe9f26","ios":"levelo://app?vid=0649b887-6121-4d00-b820-f8aa0cbe9f26"},"vehicle_type_id":"4","last_reported":1692554820,"current_range_meters":30400,"station_id":"ce4bho12rcd13ifvqh1g","pricing_plan_id":"free"},{"bike_id":"180c9060-06e2-429d-999a-39a6ce9d0e22","system_id":"levelo_inurba_marseille","lat":43.30799,"lon":5.43523,"is_reserved":false,"is_disabled":false,"rental_uris":{"android":"levelo://app?vid=180c9060-06e2-429d-999a-39a6ce9d0e22","ios":"levelo://app?vid=180c9060-06e2-429d-999a-39a6ce9d0e22"},"vehicle_type_id":"4","last_reported":1692554820,"current_range_meters":28000,"station_id":"ce4bhph2rcd13ifvqheg","pricing_plan_id":"free"},{"bike_id":"d05a35e9-3456-4671-a0e5-6f9cea6ff197","system_id":"levelo_inurba_marseille","lat":43.265569,"lon":5.390047,"is_reserved":false,"is_disabled":false,"rental_uris":{"android":"levelo://app?vid=d05a35e9-3456-4671-a0e5-6f9cea6ff197","ios":"levelo://app?vid=d05a35e9-3456-4671-a0e5-6f9cea6ff197"},"vehicle_type_id":"4","last_reported":1692554820,"current_range_meters":800,"station_id":"ce4bhe12rcd13ifvqf30","pricing_plan_id":"free"},{"bike_id":"988fd9c6-a1c0-42a6-8864-2f564153e040","system_id":"levelo_inurba_marseille","lat":43.26938,"lon":5.40261,"is_reserved":false,"is_disabled":false,"rental_uris":{"android":"levelo://app?vid=988fd9c6-a1c0-42a6-8864-2f564153e040","ios":"levelo://app?vid=988fd9c6-a1c0-42a6-8864-2f564153e040"},"vehicle_type_id":"4","last_reported":1692554820,"current_range_meters":26800,"station_id":"","pricing_plan_id":"free"},{"bike_id":"6d7bc55b-f965-4425-b1bf-95a94e846347","system_id":"levelo_inurba_marseille","lat":43.26189,"lon":5.37442,"is_reserved":false,"is_disabled":false,"rental_uris":{"android":"levelo://app?vid=6d7bc55b-f965-4425-b1bf-95a94e846347","ios":"levelo://app?vid=6d7bc55b-f965-4425-b1bf-95a94e846347"},"vehicle_type_id":"4","last_reported":1692554820,"current_range_meters":22800,"station_id":"ce4bhgp2rcd13ifvqfc0","pricing_plan_id":"free"},{"bike_id":"1db34f98-02d4-4b1b-b677-c5b95e32a81a","system_id":"levelo_inurba_marseille","lat":43.26189,"lon":5.37446,"is_reserved":false,"is_disabled":false,"rental_uris":{"android":"levelo://app?vid=1db34f98-02d4-4b1b-b677-c5b95e32a81a","ios":"levelo://app?vid=1db34f98-02d4-4b1b-b677-c5b95e32a81a"},"vehicle_type_id":"4","last_reported":1692554820,"current_range_meters":30000,"station_id":"ce4bhgp2rcd13ifvqfc0","pricing_plan_id":"free"},{"bike_id":"3982f9b5-03c9-400a-950a-487b3d16c5a0","system_id":"levelo_inurba_marseille","lat":43.26186,"lon":5.37433,"is_reserved":false,"is_disabled":false,"rental_uris":{"android":"levelo://app?vid=3982f9b5-03c9-400a-950a-487b3d16c5a0","ios":"levelo://app?vid=3982f9b5-03c9-400a-950a-487b3d16c5a0"},"vehicle_type_id":"4","last_reported":1692554820,"current_range_meters":20800,"station_id":"ce4bhgp2rcd13ifvqfc0","pricing_plan_id":"free"},{"bike_id":"0fbaea81-0a31-4843-9f29-06ab67217b85","system_id":"levelo_inurba_marseille","lat":43.261861,"lon":5.374431,"is_reserved":false,"is_disabled":false,"rental_uris":{"android":"levelo://app?vid=0fbaea81-0a31-4843-9f29-06ab67217b85","ios":"levelo://app?vid=0fbaea81-0a31-4843-9f29-06ab67217b85"},"vehicle_type_id":"4","last_reported":1692554820,"current_range_meters":26800,"station_id":"ce4bhgp2rcd13ifvqfc0","pricing_plan_id":"free"},{"bike_id":"dc11b399-9851-4860-ab8b-b9beee7f5f24","system_id":"levelo_inurba_marseille","lat":43.26185,"lon":5.37441,"is_reserved":false,"is_disabled":false,"rental_uris":{"android":"levelo://app?vid=dc11b399-9851-4860-ab8b-b9beee7f5f24","ios":"levelo://app?vid=dc11b399-9851-4860-ab8b-b9beee7f5f24"},"vehicle_type_id":"4","last_reported":1692554820,"current_range_meters":14400,"station_id":"ce4bhgp2rcd13ifvqfc0","pricing_plan_id":"free"},{"bike_id":"809125e9-f612-449d-b470-3d9f75cbef65","system_id":"levelo_inurba_marseille","lat":43.261782,"lon":5.374515,"is_reserved":false,"is_disabled":false,"rental_uris":{"android":"levelo://app?vid=809125e9-f612-449d-b470-3d9f75cbef65","ios":"levelo://app?vid=809125e9-f612-449d-b470-3d9f75cbef65"},"vehicle_type_id":"4","last_reported":1692554820,"current_range_meters":6000,"station_id":"ce4bhgp2rcd13ifvqfc0","pricing_plan_id":"free"},{"bike_id":"6fc566f3-0907-4973-8be9-cf550c50bdb9","system_id":"levelo_inurba_marseille","lat":43.26183,"lon":5.37441,"is_reserved":false,"is_disabled":false,"rental_uris":{"android":"levelo://app?vid=6fc566f3-0907-4973-8be9-cf550c50bdb9","ios":"levelo://app?vid=6fc566f3-0907-4973-8be9-cf550c50bdb9"},"vehicle_type_id":"4","last_reported":1692554820,"current_range_meters":18800,"station_id":"ce4bhgp2rcd13ifvqfc0","pricing_plan_id":"free"},{"bike_id":"49eda2d2-5e86-4999-9573-f7170935082e","system_id":"levelo_inurba_marseille","lat":43.26182,"lon":5.37435,"is_reserved":false,"is_disabled":false,"rental_uris":{"android":"levelo://app?vid=49eda2d2-5e86-4999-9573-f7170935082e","ios":"levelo://app?vid=49eda2d2-5e86-4999-9573-f7170935082e"},"vehicle_type_id":"4","last_reported":1692554820,"current_range_meters":19600,"station_id":"ce4bhgp2rcd13ifvqfc0","pricing_plan_id":"free"},{"bike_id":"16981d99-6f5b-458e-8e74-89249fff7f3b","system_id":"levelo_inurba_marseille","lat":43.271368,"lon":5.40928,"is_reserved":false,"is_disabled":false,"rental_uris":{"android":"levelo://app?vid=16981d99-6f5b-458e-8e74-89249fff7f3b","ios":"levelo://app?vid=16981d99-6f5b-458e-8e74-89249fff7f3b"},"vehicle_type_id":"4","last_reported":1692554820,"current_range_meters":27200,"station_id":"ce4bhl12rcd13ifvqgf0","pricing_plan_id":"free"},{"bike_id":"6bb3b725-7c5d-4ae5-a602-92569f9a2cb1","system_id":"levelo_inurba_marseille","lat":43.262012,"lon":5.379307,"is_reserved":false,"is_disabled":false,"rental_uris":{"android":"levelo://app?vid=6bb3b725-7c5d-4ae5-a602-92569f9a2cb1","ios":"levelo://app?vid=6bb3b725-7c5d-4ae5-a602-92569f9a2cb1"},"vehicle_type_id":"4","last_reported":1692554820,"current_range_meters":1200,"station_id":"ce4bhjp2rcd13ifvqg90","pricing_plan_id":"free"},{"bike_id":"40ba35e9-2138-4ffb-ab29-826077f43c99","system_id":"levelo_inurba_marseille","lat":43.262012,"lon":5.379307,"is_reserved":false,"is_disabled":false,"rental_uris":{"android":"levelo://app?vid=40ba35e9-2138-4ffb-ab29-826077f43c99","ios":"levelo://app?vid=40ba35e9-2138-4ffb-ab29-826077f43c99"},"vehicle_type_id":"4","last_reported":1692554820,"current_range_meters":3200,"station_id":"ce4bhjp2rcd13ifvqg90","pricing_plan_id":"free"},{"bike_id":"2662cb93-75a0-47d9-95e9-517c26cc0025","system_id":"levelo_inurba_marseille","lat":43.271368,"lon":5.40928,"is_reserved":false,"is_disabled":false,"rental_uris":{"android":"levelo://app?vid=2662cb93-75a0-47d9-95e9-517c26cc0025","ios":"levelo://app?vid=2662cb93-75a0-47d9-95e9-517c26cc0025"},"vehicle_type_id":"4","last_reported":1692554820,"current_range_meters":20400,"station_id":"ce4bhl12rcd13ifvqgf0","pricing_plan_id":"free"},{"bike_id":"3bd5c171-4b04-43bb-8789-8a95cd1af2c0","system_id":"levelo_inurba_marseille","lat":43.271388,"lon":5.409269,"is_reserved":false,"is_disabled":false,"rental_uris":{"android":"levelo://app?vid=3bd5c171-4b04-43bb-8789-8a95cd1af2c0","ios":"levelo://app?vid=3bd5c171-4b04-43bb-8789-8a95cd1af2c0"},"vehicle_type_id":"4","last_reported":1692554820,"current_range_meters":30400,"station_id":"ce4bhl12rcd13ifvqgf0","pricing_plan_id":"free"},{"bike_id":"260bb6fb-7701-4750-8697-a48b7687361f","system_id":"levelo_inurba_marseille","lat":43.271368,"lon":5.40928,"is_reserved":false,"is_disabled":false,"rental_uris":{"android":"levelo://app?vid=260bb6fb-7701-4750-8697-a48b7687361f","ios":"levelo://app?vid=260bb6fb-7701-4750-8697-a48b7687361f"},"vehicle_type_id":"4","last_reported":1692554820,"current_range_meters":30000,"station_id":"ce4bhl12rcd13ifvqgf0","pricing_plan_id":"free"},{"bike_id":"181bbbde-290d-4fe2-a2b9-833fe016bba6","system_id":"levelo_inurba_marseille","lat":43.271368,"lon":5.40928,"is_reserved":false,"is_disabled":false,"rental_uris":{"android":"levelo://app?vid=181bbbde-290d-4fe2-a2b9-833fe016bba6","ios":"levelo://app?vid=181bbbde-290d-4fe2-a2b9-833fe016bba6"},"vehicle_type_id":"4","last_reported":1692554820,"current_range_meters":28400,"station_id":"ce4bhl12rcd13ifvqgf0","pricing_plan_id":"free"},{"bike_id":"26d0c4e5-1a04-44da-a1a0-cd57ae1614a1","system_id":"levelo_inurba_marseille","lat":43.271368,"lon":5.40928,"is_reserved":false,"is_disabled":false,"rental_uris":{"android":"levelo://app?vid=26d0c4e5-1a04-44da-a1a0-cd57ae1614a1","ios":"levelo://app?vid=26d0c4e5-1a04-44da-a1a0-cd57ae1614a1"},"vehicle_type_id":"4","last_reported":1692554820,"current_range_meters":20400,"station_id":"ce4bhl12rcd13ifvqgf0","pricing_plan_id":"free"},{"bike_id":"55eb3e2b-32d0-4999-9f3c-eed8b2369cfd","system_id":"levelo_inurba_marseille","lat":43.271368,"lon":5.40928,"is_reserved":false,"is_disabled":false,"rental_uris":{"android":"levelo://app?vid=55eb3e2b-32d0-4999-9f3c-eed8b2369cfd","ios":"levelo://app?vid=55eb3e2b-32d0-4999-9f3c-eed8b2369cfd"},"vehicle_type_id":"4","last_reported":1692554820,"current_range_meters":20000,"station_id":"ce4bhl12rcd13ifvqgf0","pricing_plan_id":"free"},{"bike_id":"7ed10754-2fc0-47c7-bbbd-9fc331fc204e","system_id":"levelo_inurba_marseille","lat":43.267959,"lon":5.402685,"is_reserved":false,"is_disabled":false,"rental_uris":{"android":"levelo://app?vid=7ed10754-2fc0-47c7-bbbd-9fc331fc204e","ios":"levelo://app?vid=7ed10754-2fc0-47c7-bbbd-9fc331fc204e"},"vehicle_type_id":"4","last_reported":1692554820,"current_range_meters":18800,"station_id":"ce501612rcd8frsf0b60","pricing_plan_id":"free"},{"bike_id":"85a1a6cd-ea3b-42d4-b655-1c0ffeef71da","system_id":"levelo_inurba_marseille","lat":43.267959,"lon":5.402685,"is_reserved":false,"is_disabled":false,"rental_uris":{"android":"levelo://app?vid=85a1a6cd-ea3b-42d4-b655-1c0ffeef71da","ios":"levelo://app?vid=85a1a6cd-ea3b-42d4-b655-1c0ffeef71da"},"vehicle_type_id":"4","last_reported":1692554820,"current_range_meters":17200,"station_id":"ce501612rcd8frsf0b60","pricing_plan_id":"free"},{"bike_id":"e75cacec-0ad8-4621-88c5-f5a8353d9b5d","system_id":"levelo_inurba_marseille","lat":43.2607,"lon":5.393983,"is_reserved":false,"is_disabled":false,"rental_uris":{"android":"levelo://app?vid=e75cacec-0ad8-4621-88c5-f5a8353d9b5d","ios":"levelo://app?vid=e75cacec-0ad8-4621-88c5-f5a8353d9b5d"},"vehicle_type_id":"4","last_reported":1692554820,"current_range_meters":0,"station_id":"ce4bhh92rcd13ifvqfj0","pricing_plan_id":"free"},{"bike_id":"92e349a5-712c-4502-a7d4-8475a5327150","system_id":"levelo_inurba_marseille","lat":43.2607,"lon":5.393983,"is_reserved":false,"is_disabled":false,"rental_uris":{"android":"levelo://app?vid=92e349a5-712c-4502-a7d4-8475a5327150","ios":"levelo://app?vid=92e349a5-712c-4502-a7d4-8475a5327150"},"vehicle_type_id":"4","last_reported":1692554820,"current_range_meters":4000,"station_id":"ce4bhh92rcd13ifvqfj0","pricing_plan_id":"free"},{"bike_id":"2260cced-a293-4430-bc80-cad6cca62cf7","system_id":"levelo_inurba_marseille","lat":43.275028,"lon":5.424534,"is_reserved":false,"is_disabled":false,"rental_uris":{"android":"levelo://app?vid=2260cced-a293-4430-bc80-cad6cca62cf7","ios":"levelo://app?vid=2260cced-a293-4430-bc80-cad6cca62cf7"},"vehicle_type_id":"4","last_reported":1692554820,"current_range_meters":28000,"station_id":"ce4bhn92rcd13ifvqgrg","pricing_plan_id":"free"},{"bike_id":"833cf15a-9860-4c88-bc0c-df8744d811d7","system_id":"levelo_inurba_marseille","lat":43.25532,"lon":5.37657,"is_reserved":false,"is_disabled":false,"rental_uris":{"android":"levelo://app?vid=833cf15a-9860-4c88-bc0c-df8744d811d7","ios":"levelo://app?vid=833cf15a-9860-4c88-bc0c-df8744d811d7"},"vehicle_type_id":"4","last_reported":1692554820,"current_range_meters":9600,"station_id":"ce4bhh12rcd13ifvqff0","pricing_plan_id":"free"},{"bike_id":"ee88a9e9-4456-4025-9d28-ddd8df65981c","system_id":"levelo_inurba_marseille","lat":43.25971,"lon":5.39872,"is_reserved":false,"is_disabled":false,"rental_uris":{"android":"levelo://app?vid=ee88a9e9-4456-4025-9d28-ddd8df65981c","ios":"levelo://app?vid=ee88a9e9-4456-4025-9d28-ddd8df65981c"},"vehicle_type_id":"4","last_reported":1692554820,"current_range_meters":23600,"station_id":"","pricing_plan_id":"free"},{"bike_id":"1bf00c9d-428c-4646-9000-38ce09be62f6","system_id":"levelo_inurba_marseille","lat":43.255756,"lon":5.382303,"is_reserved":false,"is_disabled":false,"rental_uris":{"android":"levelo://app?vid=1bf00c9d-428c-4646-9000-38ce09be62f6","ios":"levelo://app?vid=1bf00c9d-428c-4646-9000-38ce09be62f6"},"vehicle_type_id":"4","last_reported":1692554820,"current_range_meters":12000,"station_id":"ce4bhih2rcd13ifvqfs0","pricing_plan_id":"free"},{"bike_id":"75846553-70fd-4b39-ac89-e0c89e2bfa11","system_id":"levelo_inurba_marseille","lat":43.255756,"lon":5.382303,"is_reserved":false,"is_disabled":false,"rental_uris":{"android":"levelo://app?vid=75846553-70fd-4b39-ac89-e0c89e2bfa11","ios":"levelo://app?vid=75846553-70fd-4b39-ac89-e0c89e2bfa11"},"vehicle_type_id":"4","last_reported":1692554820,"current_range_meters":7600,"station_id":"ce4bhih2rcd13ifvqfs0","pricing_plan_id":"free"},{"bike_id":"e253035e-e7eb-4a64-951f-c5cef4479e97","system_id":"levelo_inurba_marseille","lat":43.25578,"lon":5.38224,"is_reserved":false,"is_disabled":false,"rental_uris":{"android":"levelo://app?vid=e253035e-e7eb-4a64-951f-c5cef4479e97","ios":"levelo://app?vid=e253035e-e7eb-4a64-951f-c5cef4479e97"},"vehicle_type_id":"4","last_reported":1692554820,"current_range_meters":9600,"station_id":"","pricing_plan_id":"free"},{"bike_id":"0b368bb2-5485-4011-bb60-772c1563830a","system_id":"levelo_inurba_marseille","lat":43.255756,"lon":5.382303,"is_reserved":false,"is_disabled":false,"rental_uris":{"android":"levelo://app?vid=0b368bb2-5485-4011-bb60-772c1563830a","ios":"levelo://app?vid=0b368bb2-5485-4011-bb60-772c1563830a"},"vehicle_type_id":"4","last_reported":1692554820,"current_range_meters":3200,"station_id":"ce4bhih2rcd13ifvqfs0","pricing_plan_id":"free"},{"bike_id":"94749b14-7882-4723-a6dd-470301687942","system_id":"levelo_inurba_marseille","lat":43.255756,"lon":5.382303,"is_reserved":false,"is_disabled":false,"rental_uris":{"android":"levelo://app?vid=94749b14-7882-4723-a6dd-470301687942","ios":"levelo://app?vid=94749b14-7882-4723-a6dd-470301687942"},"vehicle_type_id":"4","last_reported":1692554820,"current_range_meters":0,"station_id":"ce4bhih2rcd13ifvqfs0","pricing_plan_id":"free"},{"bike_id":"915fe359-2e9d-4f91-88ae-86cead53cd41","system_id":"levelo_inurba_marseille","lat":43.258224,"lon":5.394369,"is_reserved":false,"is_disabled":false,"rental_uris":{"android":"levelo://app?vid=915fe359-2e9d-4f91-88ae-86cead53cd41","ios":"levelo://app?vid=915fe359-2e9d-4f91-88ae-86cead53cd41"},"vehicle_type_id":"4","last_reported":1692554820,"current_range_meters":20400,"station_id":"ce4bhip2rcd13ifvqft0","pricing_plan_id":"free"},{"bike_id":"5c4d5382-5b63-4898-b06a-846daf60dcce","system_id":"levelo_inurba_marseille","lat":43.255756,"lon":5.382303,"is_reserved":false,"is_disabled":false,"rental_uris":{"android":"levelo://app?vid=5c4d5382-5b63-4898-b06a-846daf60dcce","ios":"levelo://app?vid=5c4d5382-5b63-4898-b06a-846daf60dcce"},"vehicle_type_id":"4","last_reported":1692554820,"current_range_meters":18800,"station_id":"ce4bhih2rcd13ifvqfs0","pricing_plan_id":"free"},{"bike_id":"ea8cb7e0-1d75-43f6-98ae-edeccf170bbc","system_id":"levelo_inurba_marseille","lat":43.270721,"lon":5.422764,"is_reserved":false,"is_disabled":false,"rental_uris":{"android":"levelo://app?vid=ea8cb7e0-1d75-43f6-98ae-edeccf170bbc","ios":"levelo://app?vid=ea8cb7e0-1d75-43f6-98ae-edeccf170bbc"},"vehicle_type_id":"4","last_reported":1692554820,"current_range_meters":6000,"station_id":"ce4bhk92rcd13ifvqgb0","pricing_plan_id":"free"},{"bike_id":"12ddcfc3-4ad3-4478-839f-6367c5cdfcd2","system_id":"levelo_inurba_marseille","lat":43.25939,"lon":5.40898,"is_reserved":false,"is_disabled":false,"rental_uris":{"android":"levelo://app?vid=12ddcfc3-4ad3-4478-839f-6367c5cdfcd2","ios":"levelo://app?vid=12ddcfc3-4ad3-4478-839f-6367c5cdfcd2"},"vehicle_type_id":"4","last_reported":1692554820,"current_range_meters":31200,"station_id":"ce4bhm92rcd13ifvqglg","pricing_plan_id":"free"},{"bike_id":"c0096181-1e3b-4bc8-abd3-6736b5a372f6","system_id":"levelo_inurba_marseille","lat":43.259009,"lon":5.40929,"is_reserved":false,"is_disabled":false,"rental_uris":{"android":"levelo://app?vid=c0096181-1e3b-4bc8-abd3-6736b5a372f6","ios":"levelo://app?vid=c0096181-1e3b-4bc8-abd3-6736b5a372f6"},"vehicle_type_id":"4","last_reported":1692554820,"current_range_meters":26000,"station_id":"ce4bhm92rcd13ifvqglg","pricing_plan_id":"free"},{"bike_id":"7b8d6560-8854-4384-b19f-1050e1853115","system_id":"levelo_inurba_marseille","lat":43.25934,"lon":5.40901,"is_reserved":false,"is_disabled":false,"rental_uris":{"android":"levelo://app?vid=7b8d6560-8854-4384-b19f-1050e1853115","ios":"levelo://app?vid=7b8d6560-8854-4384-b19f-1050e1853115"},"vehicle_type_id":"4","last_reported":1692554820,"current_range_meters":29600,"station_id":"ce4bhm92rcd13ifvqglg","pricing_plan_id":"free"},{"bike_id":"896d4a38-bfef-4e35-8950-182438e29ce4","system_id":"levelo_inurba_marseille","lat":43.25933,"lon":5.40914,"is_reserved":false,"is_disabled":false,"rental_uris":{"android":"levelo://app?vid=896d4a38-bfef-4e35-8950-182438e29ce4","ios":"levelo://app?vid=896d4a38-bfef-4e35-8950-182438e29ce4"},"vehicle_type_id":"4","last_reported":1692554820,"current_range_meters":30000,"station_id":"ce4bhm92rcd13ifvqglg","pricing_plan_id":"free"},{"bike_id":"9753ee03-f238-476b-8004-6a8281cd46f1","system_id":"levelo_inurba_marseille","lat":43.2593,"lon":5.4091,"is_reserved":false,"is_disabled":false,"rental_uris":{"android":"levelo://app?vid=9753ee03-f238-476b-8004-6a8281cd46f1","ios":"levelo://app?vid=9753ee03-f238-476b-8004-6a8281cd46f1"},"vehicle_type_id":"4","last_reported":1692554820,"current_range_meters":29200,"station_id":"ce4bhm92rcd13ifvqglg","pricing_plan_id":"free"},{"bike_id":"492a37e9-1f9a-4d38-b192-69203b848bc2","system_id":"levelo_inurba_marseille","lat":43.24994,"lon":5.38926,"is_reserved":false,"is_disabled":false,"rental_uris":{"android":"levelo://app?vid=492a37e9-1f9a-4d38-b192-69203b848bc2","ios":"levelo://app?vid=492a37e9-1f9a-4d38-b192-69203b848bc2"},"vehicle_type_id":"4","last_reported":1692554820,"current_range_meters":29600,"station_id":"ce4bhgp2rcd13ifvqfd0","pricing_plan_id":"free"},{"bike_id":"333d59d9-997a-417f-a2a9-9360c3d7d238","system_id":"levelo_inurba_marseille","lat":43.2481,"lon":5.37458,"is_reserved":false,"is_disabled":false,"rental_uris":{"android":"levelo://app?vid=333d59d9-997a-417f-a2a9-9360c3d7d238","ios":"levelo://app?vid=333d59d9-997a-417f-a2a9-9360c3d7d238"},"vehicle_type_id":"4","last_reported":1692554820,"current_range_meters":11200,"station_id":"ce4bhgh2rcd13ifvqfb0","pricing_plan_id":"free"},{"bike_id":"05f24d26-1353-4974-9af2-fd515cdb0a43","system_id":"levelo_inurba_marseille","lat":43.2479,"lon":5.374457,"is_reserved":false,"is_disabled":false,"rental_uris":{"android":"levelo://app?vid=05f24d26-1353-4974-9af2-fd515cdb0a43","ios":"levelo://app?vid=05f24d26-1353-4974-9af2-fd515cdb0a43"},