{"last_updated":1749730863,"ttl":60,"version":"2.2","data":{"bikes":[{"bike_id":"b31f0139-170f-4194-984f-4386218a1e9d","system_id":"levelo_inurba_marseille","lat":43.33771,"lon":5.37424,"is_reserved":false,"is_disabled":true,"rental_uris":{"android":"levelo://app?vid=b31f0139-170f-4194-984f-4386218a1e9d","ios":"levelo://app?vid=b31f0139-170f-4194-984f-4386218a1e9d"},"vehicle_type_id":"4","last_reported":1749730863,"current_range_meters":0,"station_id":"","pricing_plan_id":"cebpf4jnsgd1na2vs0mg"},{"bike_id":"1acfb620-cad7-48c0-8901-d7a5b74a5b65","system_id":"levelo_inurba_marseille","lat":43.33751,"lon":5.37456,"is_reserved":false,"is_disabled":false,"rental_uris":{"android":"levelo://app?vid=1acfb620-cad7-48c0-8901-d7a5b74a5b65","ios":"levelo://app?vid=1acfb620-cad7-48c0-8901-d7a5b74a5b65"},"vehicle_type_id":"4","last_reported":1749730863,"current_range_meters":8400,"station_id":"","pricing_plan_id":"cebpf4jnsgd1na2vs0mg"},{"bike_id":"15642284-38bf-46a3-8429-b976f7e075a1","system_id":"levelo_inurba_marseille","lat":43.27914,"lon":5.38269,"is_reserved":false,"is_disabled":true,"rental_uris":{"android":"levelo://app?vid=15642284-38bf-46a3-8429-b976f7e075a1","ios":"levelo://app?vid=15642284-38bf-46a3-8429-b976f7e075a1"},"vehicle_type_id":"4","last_reported":1749730863,"current_range_meters":0,"station_id":"","pricing_plan_id":"cebpf4jnsgd1na2vs0mg"},{"bike_id":"bf89d78c-eb96-40d5-beb0-f402ef102cc1","system_id":"levelo_inurba_marseille","lat":43.337444,"lon":5.374475,"is_reserved":false,"is_disabled":true,"rental_uris":{"android":"levelo://app?vid=bf89d78c-eb96-40d5-beb0-f402ef102cc1","ios":"levelo://app?vid=bf89d78c-eb96-40d5-beb0-f402ef102cc1"},"vehicle_type_id":"4","last_reported":1749730863,"current_range_meters":0,"station_id":"","pricing_plan_id":"cebpf4jnsgd1na2vs0mg"},{"bike_id":"7c6a9c32-3bbe-4d4c-8294-1969d0688a87","system_id":"levelo_inurba_marseille","lat":43.28507,"lon":5.42272,"is_reserved":false,"is_disabled":true,"rental_uris":{"android":"levelo://app?vid=7c6a9c32-3bbe-4d4c-8294-1969d0688a87","ios":"levelo://app?vid=7c6a9c32-3bbe-4d4c-8294-1969d0688a87"},"vehicle_type_id":"4","last_reported":1749730863,"current_range_meters":0,"station_id":"","pricing_plan_id":"cebpf4jnsgd1na2vs0mg"},{"bike_id":"18ab1fe6-a7e6-448a-9631-a8542cf8c56c","system_id":"levelo_inurba_marseille","lat":43.33254,"lon":5.37922,"is_reserved":false,"is_disabled":true,"rental_uris":{"android":"levelo://app?vid=18ab1fe6-a7e6-448a-9631-a8542cf8c56c","ios":"levelo://app?vid=18ab1fe6-a7e6-448a-9631-a8542cf8c56c"},"vehicle_type_id":"4","last_reported":1749730863,"current_range_meters":0,"station_id":"","pricing_plan_id":"cebpf4jnsgd1na2vs0mg"},{"bike_id":"66c21b71-8d65-48ee-b251-169d137ab072","system_id":"levelo_inurba_marseille","lat":43.30982,"lon":5.37019,"is_reserved":false,"is_disabled":true,"rental_uris":{"android":"levelo://app?vid=66c21b71-8d65-48ee-b251-169d137ab072","ios":"levelo://app?vid=66c21b71-8d65-48ee-b251-169d137ab072"},"vehicle_type_id":"4","last_reported":1749730863,"current_range_meters":0,"station_id":"","pricing_plan_id":"cebpf4jnsgd1na2vs0mg"},{"bike_id":"9e55e93e-42c5-4c2c-9154-2d3c316cb5d9","system_id":"levelo_inurba_marseille","lat":43.31887,"lon":5.39366,"is_reserved":false,"is_disabled":true,"rental_uris":{"android":"levelo://app?vid=9e55e93e-42c5-4c2c-9154-2d3c316cb5d9","ios":"levelo://app?vid=9e55e93e-42c5-4c2c-9154-2d3c316cb5d9"},"vehicle_type_id":"4","last_reported":1749730863,"current_range_meters":0,"station_id":"","pricing_plan_id":"cebpf4jnsgd1na2vs0mg"},{"bike_id":"78778bea-ee8d-4617-9940-e8d532761b1d","system_id":"levelo_inurba_marseille","lat":43.32416,"lon":5.42692,"is_reserved":false,"is_disabled":true,"rental_uris":{"android":"levelo://app?vid=78778bea-ee8d-4617-9940-e8d532761b1d","ios":"levelo://app?vid=78778bea-ee8d-4617-9940-e8d532761b1d"},"vehicle_type_id":"4","last_reported":1749730863,"current_range_meters":0,"station_id":"","pricing_plan_id":"cebpf4jnsgd1na2vs0mg"},{"bike_id":"15988eb6-4ac2-4228-b4b4-8767be95739e","system_id":"levelo_inurba_marseille","lat":43.31283,"lon":5.36585,"is_reserved":false,"is_disabled":true,"rental_uris":{"android":"levelo://app?vid=15988eb6-4ac2-4228-b4b4-8767be95739e","ios":"levelo://app?vid=15988eb6-4ac2-4228-b4b4-8767be95739e"},"vehicle_type_id":"4","last_reported":1749730863,"current_range_meters":0,"station_id":"","pricing_plan_id":"cebpf4jnsgd1na2vs0mg"},{"bike_id":"492f4bbd-1190-4ef2-b66a-479ffe91b09b","system_id":"levelo_inurba_marseille","lat":43.337444,"lon":5.374475,"is_reserved":false,"is_disabled":true,"rental_uris":{"android":"levelo://app?vid=492f4bbd-1190-4ef2-b66a-479ffe91b09b","ios":"levelo://app?vid=492f4bbd-1190-4ef2-b66a-479ffe91b09b"},"vehicle_type_id":"4","last_reported":1749730863,"current_range_meters":0,"station_id":"","pricing_plan_id":"cebpf4jnsgd1na2vs0mg"},{"bike_id":"a76bfa59-b731-46b4-a462-7fdbb44a5154","system_id":"levelo_inurba_marseille","lat":43.2979,"lon":5.4217,"is_reserved":false,"is_disabled":true,"rental_uris":{"android":"levelo://app?vid=a76bfa59-b731-46b4-a462-7fdbb44a5154","ios":"levelo://app?vid=a76bfa59-b731-46b4-a462-7fdbb44a5154"},"vehicle_type_id":"4","last_reported":1749730863,"current_range_meters":0,"station_id":"","pricing_plan_id":"cebpf4jnsgd1na2vs0mg"},{"bike_id":"ce526313-e4c7-47eb-856f-183916936663","system_id":"levelo_inurba_marseille","lat":43.26244,"lon":5.39593,"is_reserved":false,"is_disabled":true,"rental_uris":{"android":"levelo://app?vid=ce526313-e4c7-47eb-856f-183916936663","ios":"levelo://app?vid=ce526313-e4c7-47eb-856f-183916936663"},"vehicle_type_id":"4","last_reported":1749730863,"current_range_meters":0,"station_id":"","pricing_plan_id":"cebpf4jnsgd1na2vs0mg"},{"bike_id":"4dcd176a-acfc-494d-9b1d-008dbf913888","system_id":"levelo_inurba_marseille","lat":43.310648,"lon":5.383432,"is_reserved":false,"is_disabled":true,"rental_uris":{"android":"levelo://app?vid=4dcd176a-acfc-494d-9b1d-008dbf913888","ios":"levelo://app?vid=4dcd176a-acfc-494d-9b1d-008dbf913888"},"vehicle_type_id":"4","last_reported":1749730863,"current_range_meters":0,"station_id":"ce4bgv92rcd13ifvqcr0","pricing_plan_id":"cebpf4jnsgd1na2vs0mg"},{"bike_id":"c06eec1a-b16f-444d-88ac-303ead5e0424","system_id":"levelo_inurba_marseille","lat":43.292758,"lon":5.384373,"is_reserved":false,"is_disabled":true,"rental_uris":{"android":"levelo://app?vid=c06eec1a-b16f-444d-88ac-303ead5e0424","ios":"levelo://app?vid=c06eec1a-b16f-444d-88ac-303ead5e0424"},"vehicle_type_id":"4","last_reported":1749730863,"current_range_meters":0,"station_id":"ce4bh692rcd13ifvqea0","pricing_plan_id":"cebpf4jnsgd1na2vs0mg"},{"bike_id":"8ca80e4d-bd0a-428b-a7b4-98e6a1d25f6a","system_id":"levelo_inurba_marseille","lat":43.2774,"lon":5.36188,"is_reserved":false,"is_disabled":true,"rental_uris":{"android":"levelo://app?vid=8ca80e4d-bd0a-428b-a7b4-98e6a1d25f6a","ios":"levelo://app?vid=8ca80e4d-bd0a-428b-a7b4-98e6a1d25f6a"},"vehicle_type_id":"4","last_reported":1749730863,"current_range_meters":0,"station_id":"ce4bhbh2rcd13ifvqeo0","pricing_plan_id":"cebpf4jnsgd1na2vs0mg"},{"bike_id":"008f8f90-859c-4df7-a8be-74f1c96f439b","system_id":"levelo_inurba_marseille","lat":43.284121,"lon":5.349983,"is_reserved":false,"is_disabled":true,"rental_uris":{"android":"levelo://app?vid=008f8f90-859c-4df7-a8be-74f1c96f439b","ios":"levelo://app?vid=008f8f90-859c-4df7-a8be-74f1c96f439b"},"vehicle_type_id":"4","last_reported":1749730863,"current_range_meters":0,"station_id":"ce4bhbh2rcd13ifvqepg","pricing_plan_id":"cebpf4jnsgd1na2vs0mg"},{"bike_id":"0957761d-fa71-4312-9901-7b1b9a8b8955","system_id":"levelo_inurba_marseille","lat":43.23133,"lon":5.43743,"is_reserved":false,"is_disabled":true,"rental_uris":{"android":"levelo://app?vid=0957761d-fa71-4312-9901-7b1b9a8b8955","ios":"levelo://app?vid=0957761d-fa71-4312-9901-7b1b9a8b8955"},"vehicle_type_id":"4","last_reported":1749730863,"current_range_meters":0,"station_id":"ce4bhmp2rcd13ifvqgog","pricing_plan_id":"cebpf4jnsgd1na2vs0mg"},{"bike_id":"f2db4461-8c73-4073-bd00-bc91fb75b92d","system_id":"levelo_inurba_marseille","lat":43.27504,"lon":5.42445,"is_reserved":false,"is_disabled":true,"rental_uris":{"android":"levelo://app?vid=f2db4461-8c73-4073-bd00-bc91fb75b92d","ios":"levelo://app?vid=f2db4461-8c73-4073-bd00-bc91fb75b92d"},"vehicle_type_id":"4","last_reported":1749730863,"current_range_meters":0,"station_id":"ce4bhn92rcd13ifvqgrg","pricing_plan_id":"cebpf4jnsgd1na2vs0mg"},{"bike_id":"f4a529c2-e076-4853-9434-aa931ab59680","system_id":"levelo_inurba_marseille","lat":43.31704,"lon":5.43713,"is_reserved":false,"is_disabled":true,"rental_uris":{"android":"levelo://app?vid=f4a529c2-e076-4853-9434-aa931ab59680","ios":"levelo://app?vid=f4a529c2-e076-4853-9434-aa931ab59680"},"vehicle_type_id":"4","last_reported":1749730863,"current_range_meters":0,"station_id":"ce4bhp92rcd13ifvqhcg","pricing_plan_id":"cebpf4jnsgd1na2vs0mg"},{"bike_id":"a1be77f4-7efe-4c3d-aade-aaadbbe5d479","system_id":"levelo_inurba_marseille","lat":43.32345,"lon":5.40638,"is_reserved":false,"is_disabled":true,"rental_uris":{"android":"levelo://app?vid=a1be77f4-7efe-4c3d-aade-aaadbbe5d479","ios":"levelo://app?vid=a1be77f4-7efe-4c3d-aade-aaadbbe5d479"},"vehicle_type_id":"4","last_reported":1749730863,"current_range_meters":0,"station_id":"ce4bhq92rcd13ifvqhjg","pricing_plan_id":"cebpf4jnsgd1na2vs0mg"},{"bike_id":"3b5fe5a6-d969-4e26-9824-50a7097d1172","system_id":"levelo_inurba_marseille","lat":43.32339,"lon":5.4061,"is_reserved":false,"is_disabled":true,"rental_uris":{"android":"levelo://app?vid=3b5fe5a6-d969-4e26-9824-50a7097d1172","ios":"levelo://app?vid=3b5fe5a6-d969-4e26-9824-50a7097d1172"},"vehicle_type_id":"4","last_reported":1749730863,"current_range_meters":0,"station_id":"ce4bhq92rcd13ifvqhjg","pricing_plan_id":"cebpf4jnsgd1na2vs0mg"},{"bike_id":"49e00df2-c247-4472-a359-0d4b87ed43b2","system_id":"levelo_inurba_marseille","lat":43.32372,"lon":5.38886,"is_reserved":false,"is_disabled":true,"rental_uris":{"android":"levelo://app?vid=49e00df2-c247-4472-a359-0d4b87ed43b2","ios":"levelo://app?vid=49e00df2-c247-4472-a359-0d4b87ed43b2"},"vehicle_type_id":"4","last_reported":1749730863,"current_range_meters":0,"station_id":"ce4bhqp2rcd13ifvqhog","pricing_plan_id":"cebpf4jnsgd1na2vs0mg"},{"bike_id":"14aac9b6-05c9-41ee-b641-566d623829af","system_id":"levelo_inurba_marseille","lat":43.32371,"lon":5.38887,"is_reserved":false,"is_disabled":true,"rental_uris":{"android":"levelo://app?vid=14aac9b6-05c9-41ee-b641-566d623829af","ios":"levelo://app?vid=14aac9b6-05c9-41ee-b641-566d623829af"},"vehicle_type_id":"4","last_reported":1749730863,"current_range_meters":0,"station_id":"ce4bhqp2rcd13ifvqhog","pricing_plan_id":"cebpf4jnsgd1na2vs0mg"},{"bike_id":"34079f42-b9d3-4f05-b94e-8f5fac3bf6ca","system_id":"levelo_inurba_marseille","lat":43.32482,"lon":5.36573,"is_reserved":false,"is_disabled":true,"rental_uris":{"android":"levelo://app?vid=34079f42-b9d3-4f05-b94e-8f5fac3bf6ca","ios":"levelo://app?vid=34079f42-b9d3-4f05-b94e-8f5fac3bf6ca"},"vehicle_type_id":"4","last_reported":1749730863,"current_range_meters":0,"station_id":"ce4bhs12rcd13ifvqhvg","pricing_plan_id":"cebpf4jnsgd1na2vs0mg"},{"bike_id":"cb3f1d6c-db1a-4819-b011-862b778d588e","system_id":"levelo_inurba_marseille","lat":43.241625,"lon":5.363887,"is_reserved":false,"is_disabled":true,"rental_uris":{"android":"levelo://app?vid=cb3f1d6c-db1a-4819-b011-862b778d588e","ios":"levelo://app?vid=cb3f1d6c-db1a-4819-b011-862b778d588e"},"vehicle_type_id":"4","last_reported":1749730863,"current_range_meters":0,"station_id":"cpo36qri1sfpv3e86is0","pricing_plan_id":"cebpf4jnsgd1na2vs0mg"},{"bike_id":"44294452-4084-46f4-afba-5a98b9f20ee7","system_id":"levelo_inurba_marseille","lat":43.27533,"lon":5.36023,"is_reserved":false,"is_disabled":true,"rental_uris":{"android":"levelo://app?vid=44294452-4084-46f4-afba-5a98b9f20ee7","ios":"levelo://app?vid=44294452-4084-46f4-afba-5a98b9f20ee7"},"vehicle_type_id":"4","last_reported":1749730863,"current_range_meters":800,"station_id":"ce4bhbh2rcd13ifvqeo0","pricing_plan_id":"cebpf4jnsgd1na2vs0mg"},{"bike_id":"87ad60d3-a8be-4537-b606-cf205dd555df","system_id":"levelo_inurba_marseille","lat":43.31004,"lon":5.40573,"is_reserved":false,"is_disabled":true,"rental_uris":{"android":"levelo://app?vid=87ad60d3-a8be-4537-b606-cf205dd555df","ios":"levelo://app?vid=87ad60d3-a8be-4537-b606-cf205dd555df"},"vehicle_type_id":"4","last_reported":1749730863,"current_range_meters":1200,"station_id":"","pricing_plan_id":"cebpf4jnsgd1na2vs0mg"},{"bike_id":"ff966029-14e2-4f2d-a143-a63bd4b3f851","system_id":"levelo_inurba_marseille","lat":43.283495,"lon":5.381077,"is_reserved":false,"is_disabled":true,"rental_uris":{"android":"levelo://app?vid=ff966029-14e2-4f2d-a143-a63bd4b3f851","ios":"levelo://app?vid=ff966029-14e2-4f2d-a143-a63bd4b3f851"},"vehicle_type_id":"4","last_reported":1749730863,"current_range_meters":1200,"station_id":"ce4bh412rcd13ifvqdr0","pricing_plan_id":"cebpf4jnsgd1na2vs0mg"},{"bike_id":"d6ada873-f0dd-4a7e-9bfc-6184a2baa4c2","system_id":"levelo_inurba_marseille","lat":43.27216,"lon":5.39196,"is_reserved":false,"is_disabled":true,"rental_uris":{"android":"levelo://app?vid=d6ada873-f0dd-4a7e-9bfc-6184a2baa4c2","ios":"levelo://app?vid=d6ada873-f0dd-4a7e-9bfc-6184a2baa4c2"},"vehicle_type_id":"4","last_reported":1749730863,"current_range_meters":1200,"station_id":"ce4bhhp2rcd13ifvqfm0","pricing_plan_id":"cebpf4jnsgd1na2vs0mg"},{"bike_id":"37649e07-0512-44bd-90c9-1b319abd017c","system_id":"levelo_inurba_marseille","lat":43.25124,"lon":5.40317,"is_reserved":false,"is_disabled":true,"rental_uris":{"android":"levelo://app?vid=37649e07-0512-44bd-90c9-1b319abd017c","ios":"levelo://app?vid=37649e07-0512-44bd-90c9-1b319abd017c"},"vehicle_type_id":"4","last_reported":1749730863,"current_range_meters":1200,"station_id":"ce4bhlh2rcd13ifvqgig","pricing_plan_id":"cebpf4jnsgd1na2vs0mg"},{"bike_id":"bc39de67-0dda-409a-ad6b-1e833e94ee2d","system_id":"levelo_inurba_marseille","lat":43.26226,"lon":5.40447,"is_reserved":false,"is_disabled":true,"rental_uris":{"android":"levelo://app?vid=bc39de67-0dda-409a-ad6b-1e833e94ee2d","ios":"levelo://app?vid=bc39de67-0dda-409a-ad6b-1e833e94ee2d"},"vehicle_type_id":"4","last_reported":1749730863,"current_range_meters":1200,"station_id":"ce4bhmh2rcd13ifvqgmg","pricing_plan_id":"cebpf4jnsgd1na2vs0mg"},{"bike_id":"44175ab2-a19f-47b4-9fb5-94b442e41ef6","system_id":"levelo_inurba_marseille","lat":43.28719,"lon":5.36084,"is_reserved":false,"is_disabled":true,"rental_uris":{"android":"levelo://app?vid=44175ab2-a19f-47b4-9fb5-94b442e41ef6","ios":"levelo://app?vid=44175ab2-a19f-47b4-9fb5-94b442e41ef6"},"vehicle_type_id":"4","last_reported":1749730863,"current_range_meters":1200,"station_id":"cki0cbj6b192h4jlfktg","pricing_plan_id":"cebpf4jnsgd1na2vs0mg"},{"bike_id":"c97e97af-ab30-4eea-8bdc-a100db032894","system_id":"levelo_inurba_marseille","lat":43.29621,"lon":5.37733,"is_reserved":false,"is_disabled":true,"rental_uris":{"android":"levelo://app?vid=c97e97af-ab30-4eea-8bdc-a100db032894","ios":"levelo://app?vid=c97e97af-ab30-4eea-8bdc-a100db032894"},"vehicle_type_id":"4","last_reported":1749730863,"current_range_meters":1600,"station_id":"ce4bgi92rcd13ifvqb90","pricing_plan_id":"cebpf4jnsgd1na2vs0mg"},{"bike_id":"89b051ab-8014-4595-8029-429ac90a5bc3","system_id":"levelo_inurba_marseille","lat":43.30538,"lon":5.36709,"is_reserved":false,"is_disabled":true,"rental_uris":{"android":"levelo://app?vid=89b051ab-8014-4595-8029-429ac90a5bc3","ios":"levelo://app?vid=89b051ab-8014-4595-8029-429ac90a5bc3"},"vehicle_type_id":"4","last_reported":1749730863,"current_range_meters":1600,"station_id":"ce4bgrp2rcd13ifvqc9g","pricing_plan_id":"cebpf4jnsgd1na2vs0mg"},{"bike_id":"3977b496-d918-4ac3-81fb-ce98e846eb8c","system_id":"levelo_inurba_marseille","lat":43.28674,"lon":5.3635,"is_reserved":false,"is_disabled":true,"rental_uris":{"android":"levelo://app?vid=3977b496-d918-4ac3-81fb-ce98e846eb8c","ios":"levelo://app?vid=3977b496-d918-4ac3-81fb-ce98e846eb8c"},"vehicle_type_id":"4","last_reported":1749730863,"current_range_meters":1600,"station_id":"ce4bhah2rcd13ifvqej0","pricing_plan_id":"cebpf4jnsgd1na2vs0mg"},{"bike_id":"a9b6bf99-4070-4437-bb20-72962ae30b90","system_id":"levelo_inurba_marseille","lat":43.274682,"lon":5.363875,"is_reserved":false,"is_disabled":true,"rental_uris":{"android":"levelo://app?vid=a9b6bf99-4070-4437-bb20-72962ae30b90","ios":"levelo://app?vid=a9b6bf99-4070-4437-bb20-72962ae30b90"},"vehicle_type_id":"4","last_reported":1749730863,"current_range_meters":2000,"station_id":"","pricing_plan_id":"cebpf4jnsgd1na2vs0mg"},{"bike_id":"cd96cd79-aa07-429f-b6e9-37ba28885bbb","system_id":"levelo_inurba_marseille","lat":43.27966,"lon":5.38758,"is_reserved":false,"is_disabled":true,"rental_uris":{"android":"levelo://app?vid=cd96cd79-aa07-429f-b6e9-37ba28885bbb","ios":"levelo://app?vid=cd96cd79-aa07-429f-b6e9-37ba28885bbb"},"vehicle_type_id":"4","last_reported":1749730863,"current_range_meters":2000,"station_id":"ce4bhg12rcd13ifvqf80","pricing_plan_id":"cebpf4jnsgd1na2vs0mg"},{"bike_id":"b5729cbb-52a2-47a9-ba8f-3895bdc512d8","system_id":"levelo_inurba_marseille","lat":43.26547,"lon":5.37288,"is_reserved":false,"is_disabled":false,"rental_uris":{"android":"levelo://app?vid=b5729cbb-52a2-47a9-ba8f-3895bdc512d8","ios":"levelo://app?vid=b5729cbb-52a2-47a9-ba8f-3895bdc512d8"},"vehicle_type_id":"4","last_reported":1749730863,"current_range_meters":2800,"station_id":"ce4bhg12rcd13ifvqf70","pricing_plan_id":"cebpf4jnsgd1na2vs0mg"},{"bike_id":"7c4ecdd2-6aba-4c0d-8ee4-da7b6925c918","system_id":"levelo_inurba_marseille","lat":43.309347,"lon":5.401401,"is_reserved":false,"is_disabled":false,"rental_uris":{"android":"levelo://app?vid=7c4ecdd2-6aba-4c0d-8ee4-da7b6925c918","ios":"levelo://app?vid=7c4ecdd2-6aba-4c0d-8ee4-da7b6925c918"},"vehicle_type_id":"4","last_reported":1749730863,"current_range_meters":3600,"station_id":"ce4bgvp2rcd13ifvqct0","pricing_plan_id":"cebpf4jnsgd1na2vs0mg"},{"bike_id":"5077581b-cebb-46fc-ba69-4fa8272d4810","system_id":"levelo_inurba_marseille","lat":43.21373,"lon":5.35525,"is_reserved":false,"is_disabled":false,"rental_uris":{"android":"levelo://app?vid=5077581b-cebb-46fc-ba69-4fa8272d4810","ios":"levelo://app?vid=5077581b-cebb-46fc-ba69-4fa8272d4810"},"vehicle_type_id":"4","last_reported":1749730863,"current_range_meters":4000,"station_id":"","pricing_plan_id":"cebpf4jnsgd1na2vs0mg"},{"bike_id":"66b1cbfb-c132-4ef4-922c-0beab9b5a350","system_id":"levelo_inurba_marseille","lat":43.29749,"lon":5.46012,"is_reserved":false,"is_disabled":false,"rental_uris":{"android":"levelo://app?vid=66b1cbfb-c132-4ef4-922c-0beab9b5a350","ios":"levelo://app?vid=66b1cbfb-c132-4ef4-922c-0beab9b5a350"},"vehicle_type_id":"4","last_reported":1749730863,"current_range_meters":4000,"station_id":"","pricing_plan_id":"cebpf4jnsgd1na2vs0mg"},{"bike_id":"853e9d90-8fb4-4c17-a762-9923b9fb02f0","system_id":"levelo_inurba_marseille","lat":43.25428,"lon":5.38108,"is_reserved":false,"is_disabled":false,"rental_uris":{"android":"levelo://app?vid=853e9d90-8fb4-4c17-a762-9923b9fb02f0","ios":"levelo://app?vid=853e9d90-8fb4-4c17-a762-9923b9fb02f0"},"vehicle_type_id":"4","last_reported":1749730863,"current_range_meters":4000,"station_id":"","pricing_plan_id":"cebpf4jnsgd1na2vs0mg"},{"bike_id":"6233b5a2-d569-4018-aeb1-b02565cbcd04","system_id":"levelo_inurba_marseille","lat":43.285706,"lon":5.394922,"is_reserved":false,"is_disabled":false,"rental_uris":{"android":"levelo://app?vid=6233b5a2-d569-4018-aeb1-b02565cbcd04","ios":"levelo://app?vid=6233b5a2-d569-4018-aeb1-b02565cbcd04"},"vehicle_type_id":"4","last_reported":1749730863,"current_range_meters":4000,"station_id":"ce4bh292rcd13ifvqdg0","pricing_plan_id":"cebpf4jnsgd1na2vs0mg"},{"bike_id":"f2dcc7d4-b38a-44be-a8fb-1bd4a48b3372","system_id":"levelo_inurba_marseille","lat":43.29106,"lon":5.38114,"is_reserved":false,"is_disabled":false,"rental_uris":{"android":"levelo://app?vid=f2dcc7d4-b38a-44be-a8fb-1bd4a48b3372","ios":"levelo://app?vid=f2dcc7d4-b38a-44be-a8fb-1bd4a48b3372"},"vehicle_type_id":"4","last_reported":1749730863,"current_range_meters":4000,"station_id":"ce4bh512rcd13ifvqe2g","pricing_plan_id":"cebpf4jnsgd1na2vs0mg"},{"bike_id":"a7f11ba8-e1b8-4488-932a-a4ee2cbd56a9","system_id":"levelo_inurba_marseille","lat":43.27976,"lon":5.38743,"is_reserved":false,"is_disabled":false,"rental_uris":{"android":"levelo://app?vid=a7f11ba8-e1b8-4488-932a-a4ee2cbd56a9","ios":"levelo://app?vid=a7f11ba8-e1b8-4488-932a-a4ee2cbd56a9"},"vehicle_type_id":"4","last_reported":1749730863,"current_range_meters":4000,"station_id":"ce4bhg12rcd13ifvqf80","pricing_plan_id":"cebpf4jnsgd1na2vs0mg"},{"bike_id":"7bf8c203-1bd5-4675-ad5c-0eaea6a31cbc","system_id":"levelo_inurba_marseille","lat":43.28133,"lon":5.37841,"is_reserved":false,"is_disabled":false,"rental_uris":{"android":"levelo://app?vid=7bf8c203-1bd5-4675-ad5c-0eaea6a31cbc","ios":"levelo://app?vid=7bf8c203-1bd5-4675-ad5c-0eaea6a31cbc"},"vehicle_type_id":"4","last_reported":1749730863,"current_range_meters":4400,"station_id":"ce4bha12rcd13ifvqee0","pricing_plan_id":"cebpf4jnsgd1na2vs0mg"},{"bike_id":"d4d72c2f-d948-4c5a-bcd1-bf7f66dc6e58","system_id":"levelo_inurba_marseille","lat":43.30397,"lon":5.40754,"is_reserved":false,"is_disabled":false,"rental_uris":{"android":"levelo://app?vid=d4d72c2f-d948-4c5a-bcd1-bf7f66dc6e58","ios":"levelo://app?vid=d4d72c2f-d948-4c5a-bcd1-bf7f66dc6e58"},"vehicle_type_id":"4","last_reported":1749730863,"current_range_meters":4800,"station_id":"","pricing_plan_id":"cebpf4jnsgd1na2vs0mg"},{"bike_id":"165a6ce2-f806-45b2-bf82-39d7bdd011fc","system_id":"levelo_inurba_marseille","lat":43.29379,"lon":5.38541,"is_reserved":false,"is_disabled":false,"rental_uris":{"android":"levelo://app?vid=165a6ce2-f806-45b2-bf82-39d7bdd011fc","ios":"levelo://app?vid=165a6ce2-f806-45b2-bf82-39d7bdd011fc"},"vehicle_type_id":"4","last_reported":1749730863,"current_range_meters":4800,"station_id":"","pricing_plan_id":"cebpf4jnsgd1na2vs0mg"},{"bike_id":"183420ce-876c-46b2-80b0-df53a9ba3788","system_id":"levelo_inurba_marseille","lat":43.29923,"lon":5.37479,"is_reserved":false,"is_disabled":false,"rental_uris":{"android":"levelo://app?vid=183420ce-876c-46b2-80b0-df53a9ba3788","ios":"levelo://app?vid=183420ce-876c-46b2-80b0-df53a9ba3788"},"vehicle_type_id":"4","last_reported":1749730863,"current_range_meters":4800,"station_id":"ce4bgjh2rcd13ifvqbg0","pricing_plan_id":"cebpf4jnsgd1na2vs0mg"},{"bike_id":"40146ccf-c3dc-4621-bfd8-a8d5d0de2de0","system_id":"levelo_inurba_marseille","lat":43.28666,"lon":5.3634,"is_reserved":false,"is_disabled":false,"rental_uris":{"android":"levelo://app?vid=40146ccf-c3dc-4621-bfd8-a8d5d0de2de0","ios":"levelo://app?vid=40146ccf-c3dc-4621-bfd8-a8d5d0de2de0"},"vehicle_type_id":"4","last_reported":1749730863,"current_range_meters":4800,"station_id":"ce4bhah2rcd13ifvqej0","pricing_plan_id":"cebpf4jnsgd1na2vs0mg"},{"bike_id":"bb46f94c-2914-4c02-9496-7bef436fda65","system_id":"levelo_inurba_marseille","lat":43.26956,"lon":5.38629,"is_reserved":false,"is_disabled":false,"rental_uris":{"android":"levelo://app?vid=bb46f94c-2914-4c02-9496-7bef436fda65","ios":"levelo://app?vid=bb46f94c-2914-4c02-9496-7bef436fda65"},"vehicle_type_id":"4","last_reported":1749730863,"current_range_meters":4800,"station_id":"ce4bhh92rcd13ifvqfh0","pricing_plan_id":"cebpf4jnsgd1na2vs0mg"},{"bike_id":"b9427695-9c5c-441b-992b-637c2944f5c3","system_id":"levelo_inurba_marseille","lat":43.3266,"lon":5.40997,"is_reserved":false,"is_disabled":false,"rental_uris":{"android":"levelo://app?vid=b9427695-9c5c-441b-992b-637c2944f5c3","ios":"levelo://app?vid=b9427695-9c5c-441b-992b-637c2944f5c3"},"vehicle_type_id":"4","last_reported":1749730863,"current_range_meters":4800,"station_id":"ce4bhpp2rcd13ifvqhgg","pricing_plan_id":"cebpf4jnsgd1na2vs0mg"},{"bike_id":"1e20f032-0f6a-40b2-ad29-e4d2225496fa","system_id":"levelo_inurba_marseille","lat":43.30314,"lon":5.3708,"is_reserved":false,"is_disabled":false,"rental_uris":{"android":"levelo://app?vid=1e20f032-0f6a-40b2-ad29-e4d2225496fa","ios":"levelo://app?vid=1e20f032-0f6a-40b2-ad29-e4d2225496fa"},"vehicle_type_id":"4","last_reported":1749730863,"current_range_meters":5600,"station_id":"","pricing_plan_id":"cebpf4jnsgd1na2vs0mg"},{"bike_id":"783676c9-706f-4820-a593-6f02be164bd2","system_id":"levelo_inurba_marseille","lat":43.30304,"lon":5.36879,"is_reserved":false,"is_disabled":false,"rental_uris":{"android":"levelo://app?vid=783676c9-706f-4820-a593-6f02be164bd2","ios":"levelo://app?vid=783676c9-706f-4820-a593-6f02be164bd2"},"vehicle_type_id":"4","last_reported":1749730863,"current_range_meters":5600,"station_id":"ce4bgqh2rcd13ifvqc5g","pricing_plan_id":"cebpf4jnsgd1na2vs0mg"},{"bike_id":"1b20e009-cbcb-4905-b557-a597fb4de499","system_id":"levelo_inurba_marseille","lat":43.29262,"lon":5.4091,"is_reserved":false,"is_disabled":false,"rental_uris":{"android":"levelo://app?vid=1b20e009-cbcb-4905-b557-a597fb4de499","ios":"levelo://app?vid=1b20e009-cbcb-4905-b557-a597fb4de499"},"vehicle_type_id":"4","last_reported":1749730863,"current_range_meters":5600,"station_id":"ce4bh192rcd13ifvqdc0","pricing_plan_id":"cebpf4jnsgd1na2vs0mg"},{"bike_id":"e405370a-0de0-4909-b859-8016a1d27a7e","system_id":"levelo_inurba_marseille","lat":43.30542,"lon":5.36569,"is_reserved":false,"is_disabled":false,"rental_uris":{"android":"levelo://app?vid=e405370a-0de0-4909-b859-8016a1d27a7e","ios":"levelo://app?vid=e405370a-0de0-4909-b859-8016a1d27a7e"},"vehicle_type_id":"4","last_reported":1749730863,"current_range_meters":6000,"station_id":"ce4bgs12rcd13ifvqcag","pricing_plan_id":"cebpf4jnsgd1na2vs0mg"},{"bike_id":"64815020-8e5c-494d-b953-c095f52f0109","system_id":"levelo_inurba_marseille","lat":43.31484,"lon":5.37307,"is_reserved":false,"is_disabled":false,"rental_uris":{"android":"levelo://app?vid=64815020-8e5c-494d-b953-c095f52f0109","ios":"levelo://app?vid=64815020-8e5c-494d-b953-c095f52f0109"},"vehicle_type_id":"4","last_reported":1749730863,"current_range_meters":6000,"station_id":"ce4bgt12rcd13ifvqcd0","pricing_plan_id":"cebpf4jnsgd1na2vs0mg"},{"bike_id":"66314ca9-30a7-4c0a-8507-6f89f4c9b4e1","system_id":"levelo_inurba_marseille","lat":43.26255,"lon":5.37138,"is_reserved":false,"is_disabled":false,"rental_uris":{"android":"levelo://app?vid=66314ca9-30a7-4c0a-8507-6f89f4c9b4e1","ios":"levelo://app?vid=66314ca9-30a7-4c0a-8507-6f89f4c9b4e1"},"vehicle_type_id":"4","last_reported":1749730863,"current_range_meters":6400,"station_id":"","pricing_plan_id":"cebpf4jnsgd1na2vs0mg"},{"bike_id":"25b04ad1-f2b3-42df-b3f9-dcd47836eae7","system_id":"levelo_inurba_marseille","lat":43.304626,"lon":5.379131,"is_reserved":false,"is_disabled":false,"rental_uris":{"android":"levelo://app?vid=25b04ad1-f2b3-42df-b3f9-dcd47836eae7","ios":"levelo://app?vid=25b04ad1-f2b3-42df-b3f9-dcd47836eae7"},"vehicle_type_id":"4","last_reported":1749730863,"current_range_meters":6400,"station_id":"ce4bgup2rcd13ifvqcn0","pricing_plan_id":"cebpf4jnsgd1na2vs0mg"},{"bike_id":"4f5d7199-bbf6-434c-90a4-6afb54c6ac92","system_id":"levelo_inurba_marseille","lat":43.304596,"lon":5.379106,"is_reserved":false,"is_disabled":false,"rental_uris":{"android":"levelo://app?vid=4f5d7199-bbf6-434c-90a4-6afb54c6ac92","ios":"levelo://app?vid=4f5d7199-bbf6-434c-90a4-6afb54c6ac92"},"vehicle_type_id":"4","last_reported":1749730863,"current_range_meters":6400,"station_id":"ce4bgup2rcd13ifvqcn0","pricing_plan_id":"cebpf4jnsgd1na2vs0mg"},{"bike_id":"1a7dd03e-1faa-441d-911b-6ac81fa04599","system_id":"levelo_inurba_marseille","lat":43.29007,"lon":5.35614,"is_reserved":false,"is_disabled":false,"rental_uris":{"android":"levelo://app?vid=1a7dd03e-1faa-441d-911b-6ac81fa04599","ios":"levelo://app?vid=1a7dd03e-1faa-441d-911b-6ac81fa04599"},"vehicle_type_id":"4","last_reported":1749730863,"current_range_meters":6400,"station_id":"ce4bhb92rcd13ifvqen0","pricing_plan_id":"cebpf4jnsgd1na2vs0mg"},{"bike_id":"71d3a244-1856-4d73-94c4-2ced835d7817","system_id":"levelo_inurba_marseille","lat":43.28269,"lon":5.35067,"is_reserved":false,"is_disabled":false,"rental_uris":{"android":"levelo://app?vid=71d3a244-1856-4d73-94c4-2ced835d7817","ios":"levelo://app?vid=71d3a244-1856-4d73-94c4-2ced835d7817"},"vehicle_type_id":"4","last_reported":1749730863,"current_range_meters":6400,"station_id":"ce4bhbp2rcd13ifvqerg","pricing_plan_id":"cebpf4jnsgd1na2vs0mg"},{"bike_id":"18ced427-cf52-47e2-a3c1-93e4685b485b","system_id":"levelo_inurba_marseille","lat":43.27667,"lon":5.38897,"is_reserved":false,"is_disabled":false,"rental_uris":{"android":"levelo://app?vid=18ced427-cf52-47e2-a3c1-93e4685b485b","ios":"levelo://app?vid=18ced427-cf52-47e2-a3c1-93e4685b485b"},"vehicle_type_id":"4","last_reported":1749730863,"current_range_meters":6400,"station_id":"ce4bhi12rcd13ifvqfo0","pricing_plan_id":"cebpf4jnsgd1na2vs0mg"},{"bike_id":"8f89a5f5-20fd-4088-84b7-ca563e08a469","system_id":"levelo_inurba_marseille","lat":43.30537,"lon":5.36559,"is_reserved":false,"is_disabled":false,"rental_uris":{"android":"levelo://app?vid=8f89a5f5-20fd-4088-84b7-ca563e08a469","ios":"levelo://app?vid=8f89a5f5-20fd-4088-84b7-ca563e08a469"},"vehicle_type_id":"4","last_reported":1749730863,"current_range_meters":6800,"station_id":"ce4bgs12rcd13ifvqcag","pricing_plan_id":"cebpf4jnsgd1na2vs0mg"},{"bike_id":"e2b30f06-7055-49e3-94d6-acbffe9b0776","system_id":"levelo_inurba_marseille","lat":43.31505,"lon":5.37306,"is_reserved":false,"is_disabled":false,"rental_uris":{"android":"levelo://app?vid=e2b30f06-7055-49e3-94d6-acbffe9b0776","ios":"levelo://app?vid=e2b30f06-7055-49e3-94d6-acbffe9b0776"},"vehicle_type_id":"4","last_reported":1749730863,"current_range_meters":6800,"station_id":"ce4bgt12rcd13ifvqcd0","pricing_plan_id":"cebpf4jnsgd1na2vs0mg"},{"bike_id":"49df7f35-4c4a-434b-8113-459ec3f9f82b","system_id":"levelo_inurba_marseille","lat":43.288571,"lon":5.393041,"is_reserved":false,"is_disabled":false,"rental_uris":{"android":"levelo://app?vid=49df7f35-4c4a-434b-8113-459ec3f9f82b","ios":"levelo://app?vid=49df7f35-4c4a-434b-8113-459ec3f9f82b"},"vehicle_type_id":"4","last_reported":1749730863,"current_range_meters":6800,"station_id":"ce4bh2p2rcd13ifvqdi0","pricing_plan_id":"cebpf4jnsgd1na2vs0mg"},{"bike_id":"aee761c4-799f-4d45-8d3d-79b2dc80bf0e","system_id":"levelo_inurba_marseille","lat":43.23963,"lon":5.3663,"is_reserved":false,"is_disabled":false,"rental_uris":{"android":"levelo://app?vid=aee761c4-799f-4d45-8d3d-79b2dc80bf0e","ios":"levelo://app?vid=aee761c4-799f-4d45-8d3d-79b2dc80bf0e"},"vehicle_type_id":"4","last_reported":1749730863,"current_range_meters":7200,"station_id":"ce4bhi12rcd13ifvqfp0","pricing_plan_id":"cebpf4jnsgd1na2vs0mg"},{"bike_id":"8ebde28c-4ec0-4d73-a1b5-3a851e19fc16","system_id":"levelo_inurba_marseille","lat":43.28418,"lon":5.34982,"is_reserved":false,"is_disabled":false,"rental_uris":{"android":"levelo://app?vid=8ebde28c-4ec0-4d73-a1b5-3a851e19fc16","ios":"levelo://app?vid=8ebde28c-4ec0-4d73-a1b5-3a851e19fc16"},"vehicle_type_id":"4","last_reported":1749730863,"current_range_meters":8000,"station_id":"ce4bhbh2rcd13ifvqepg","pricing_plan_id":"cebpf4jnsgd1na2vs0mg"},{"bike_id":"4a988b20-e622-4c89-a1ec-72c7b80988fe","system_id":"levelo_inurba_marseille","lat":43.23154,"lon":5.43716,"is_reserved":false,"is_disabled":false,"rental_uris":{"android":"levelo://app?vid=4a988b20-e622-4c89-a1ec-72c7b80988fe","ios":"levelo://app?vid=4a988b20-e622-4c89-a1ec-72c7b80988fe"},"vehicle_type_id":"4","last_reported":1749730863,"current_range_meters":8000,"station_id":"ce4bhmp2rcd13ifvqgog","pricing_plan_id":"cebpf4jnsgd1na2vs0mg"},{"bike_id":"e196d116-245f-475e-ab6b-d737ce23fc3f","system_id":"levelo_inurba_marseille","lat":43.24072,"lon":5.37764,"is_reserved":false,"is_disabled":false,"rental_uris":{"android":"levelo://app?vid=e196d116-245f-475e-ab6b-d737ce23fc3f","ios":"levelo://app?vid=e196d116-245f-475e-ab6b-d737ce23fc3f"},"vehicle_type_id":"4","last_reported":1749730863,"current_range_meters":8000,"station_id":"ce4bhnp2rcd13ifvqgvg","pricing_plan_id":"cebpf4jnsgd1na2vs0mg"},{"bike_id":"0b426a1d-c599-4d9e-b43c-0dc07038f31c","system_id":"levelo_inurba_marseille","lat":43.28446,"lon":5.39193,"is_reserved":false,"is_disabled":false,"rental_uris":{"android":"levelo://app?vid=0b426a1d-c599-4d9e-b43c-0dc07038f31c","ios":"levelo://app?vid=0b426a1d-c599-4d9e-b43c-0dc07038f31c"},"vehicle_type_id":"4","last_reported":1749730863,"current_range_meters":8000,"station_id":"ce4bhoh2rcd13ifvqh5g","pricing_plan_id":"cebpf4jnsgd1na2vs0mg"},{"bike_id":"e3369c30-8d3c-41e6-8659-f3abc5c0b096","system_id":"levelo_inurba_marseille","lat":43.32363,"lon":5.38888,"is_reserved":false,"is_disabled":false,"rental_uris":{"android":"levelo://app?vid=e3369c30-8d3c-41e6-8659-f3abc5c0b096","ios":"levelo://app?vid=e3369c30-8d3c-41e6-8659-f3abc5c0b096"},"vehicle_type_id":"4","last_reported":1749730863,"current_range_meters":8000,"station_id":"ce4bhqp2rcd13ifvqhog","pricing_plan_id":"cebpf4jnsgd1na2vs0mg"},{"bike_id":"c4b8ed29-7bee-420a-a114-d61c9fb96b9d","system_id":"levelo_inurba_marseille","lat":43.31354,"lon":5.3671,"is_reserved":false,"is_disabled":false,"rental_uris":{"android":"levelo://app?vid=c4b8ed29-7bee-420a-a114-d61c9fb96b9d","ios":"levelo://app?vid=c4b8ed29-7bee-420a-a114-d61c9fb96b9d"},"vehicle_type_id":"4","last_reported":1749730863,"current_range_meters":8400,"station_id":"ce4bgr92rcd13ifvqc6g","pricing_plan_id":"cebpf4jnsgd1na2vs0mg"},{"bike_id":"fdf1e88a-7c80-4805-b5e7-5e32a5da1b90","system_id":"levelo_inurba_marseille","lat":43.23143,"lon":5.43747,"is_reserved":false,"is_disabled":false,"rental_uris":{"android":"levelo://app?vid=fdf1e88a-7c80-4805-b5e7-5e32a5da1b90","ios":"levelo://app?vid=fdf1e88a-7c80-4805-b5e7-5e32a5da1b90"},"vehicle_type_id":"4","last_reported":1749730863,"current_range_meters":8400,"station_id":"ce4bhmp2rcd13ifvqgog","pricing_plan_id":"cebpf4jnsgd1na2vs0mg"},{"bike_id":"7e61e945-7f83-4090-88f0-86880724f413","system_id":"levelo_inurba_marseille","lat":43.323656,"lon":5.388825,"is_reserved":false,"is_disabled":false,"rental_uris":{"android":"levelo://app?vid=7e61e945-7f83-4090-88f0-86880724f413","ios":"levelo://app?vid=7e61e945-7f83-4090-88f0-86880724f413"},"vehicle_type_id":"4","last_reported":1749730863,"current_range_meters":8400,"station_id":"ce4bhqp2rcd13ifvqhog","pricing_plan_id":"cebpf4jnsgd1na2vs0mg"},{"bike_id":"84f5a926-1dd6-4535-b647-2764ce0ca103","system_id":"levelo_inurba_marseille","lat":43.32115,"lon":5.36785,"is_reserved":false,"is_disabled":false,"rental_uris":{"android":"levelo://app?vid=84f5a926-1dd6-4535-b647-2764ce0ca103","ios":"levelo://app?vid=84f5a926-1dd6-4535-b647-2764ce0ca103"},"vehicle_type_id":"4","last_reported":1749730863,"current_range_meters":8400,"station_id":"ce4bhrh2rcd13ifvqhug","pricing_plan_id":"cebpf4jnsgd1na2vs0mg"},{"bike_id":"8105426e-eb6c-4b79-bfaa-254c1b037d55","system_id":"levelo_inurba_marseille","lat":43.32354,"lon":5.36735,"is_reserved":false,"is_disabled":false,"rental_uris":{"android":"levelo://app?vid=8105426e-eb6c-4b79-bfaa-254c1b037d55","ios":"levelo://app?vid=8105426e-eb6c-4b79-bfaa-254c1b037d55"},"vehicle_type_id":"4","last_reported":1749730863,"current_range_meters":8400,"station_id":"ce4bhsh2rcd13ifvqi2g","pricing_plan_id":"cebpf4jnsgd1na2vs0mg"},{"bike_id":"b6cb49fe-881d-4a58-9af3-789a0091adfd","system_id":"levelo_inurba_marseille","lat":43.229356,"lon":5.353785,"is_reserved":false,"is_disabled":false,"rental_uris":{"android":"levelo://app?vid=b6cb49fe-881d-4a58-9af3-789a0091adfd","ios":"levelo://app?vid=b6cb49fe-881d-4a58-9af3-789a0091adfd"},"vehicle_type_id":"4","last_reported":1749730863,"current_range_meters":8400,"station_id":"cpo3532slgdg3j2ikp40","pricing_plan_id":"cebpf4jnsgd1na2vs0mg"},{"bike_id":"399ec5d3-1230-4dcd-b15b-8c27b73a6c6e","system_id":"levelo_inurba_marseille","lat":43.29374,"lon":5.37852,"is_reserved":false,"is_disabled":false,"rental_uris":{"android":"levelo://app?vid=399ec5d3-1230-4dcd-b15b-8c27b73a6c6e","ios":"levelo://app?vid=399ec5d3-1230-4dcd-b15b-8c27b73a6c6e"},"vehicle_type_id":"4","last_reported":1749730863,"current_range_meters":8800,"station_id":"ce4bgjh2rcd13ifvqbf0","pricing_plan_id":"cebpf4jnsgd1na2vs0mg"},{"bike_id":"3a3b264d-e2ef-4ad1-8e93-bd8910d35f14","system_id":"levelo_inurba_marseille","lat":43.30908,"lon":5.36849,"is_reserved":false,"is_disabled":false,"rental_uris":{"android":"levelo://app?vid=3a3b264d-e2ef-4ad1-8e93-bd8910d35f14","ios":"levelo://app?vid=3a3b264d-e2ef-4ad1-8e93-bd8910d35f14"},"vehicle_type_id":"4","last_reported":1749730863,"current_range_meters":8800,"station_id":"ce4bgn92rcd13ifvqbvg","pricing_plan_id":"cebpf4jnsgd1na2vs0mg"},{"bike_id":"e6c011bb-2a46-4f2f-9b0f-a855a088fc6a","system_id":"levelo_inurba_marseille","lat":43.29965,"lon":5.37181,"is_reserved":false,"is_disabled":false,"rental_uris":{"android":"levelo://app?vid=e6c011bb-2a46-4f2f-9b0f-a855a088fc6a","ios":"levelo://app?vid=e6c011bb-2a46-4f2f-9b0f-a855a088fc6a"},"vehicle_type_id":"4","last_reported":1749730863,"current_range_meters":8800,"station_id":"ce4bgr92rcd13ifvqc7g","pricing_plan_id":"cebpf4jnsgd1na2vs0mg"},{"bike_id":"81b7abd8-90ab-43d4-b7eb-19d55d66392a","system_id":"levelo_inurba_marseille","lat":43.2901,"lon":5.35616,"is_reserved":false,"is_disabled":false,"rental_uris":{"android":"levelo://app?vid=81b7abd8-90ab-43d4-b7eb-19d55d66392a","ios":"levelo://app?vid=81b7abd8-90ab-43d4-b7eb-19d55d66392a"},"vehicle_type_id":"4","last_reported":1749730863,"current_range_meters":8800,"station_id":"ce4bhb92rcd13ifvqen0","pricing_plan_id":"cebpf4jnsgd1na2vs0mg"},{"bike_id":"ec75eeed-f253-4f43-bdb5-d7d7875dfeed","system_id":"levelo_inurba_marseille","lat":43.25935,"lon":5.40913,"is_reserved":false,"is_disabled":false,"rental_uris":{"android":"levelo://app?vid=ec75eeed-f253-4f43-bdb5-d7d7875dfeed","ios":"levelo://app?vid=ec75eeed-f253-4f43-bdb5-d7d7875dfeed"},"vehicle_type_id":"4","last_reported":1749730863,"current_range_meters":8800,"station_id":"ce4bhm92rcd13ifvqglg","pricing_plan_id":"cebpf4jnsgd1na2vs0mg"},{"bike_id":"715445b4-7031-49bf-a4fc-274d2176bb35","system_id":"levelo_inurba_marseille","lat":43.28003,"lon":5.41665,"is_reserved":false,"is_disabled":false,"rental_uris":{"android":"levelo://app?vid=715445b4-7031-49bf-a4fc-274d2176bb35","ios":"levelo://app?vid=715445b4-7031-49bf-a4fc-274d2176bb35"},"vehicle_type_id":"4","last_reported":1749730863,"current_range_meters":8800,"station_id":"ce4bho12rcd13ifvqh1g","pricing_plan_id":"cebpf4jnsgd1na2vs0mg"},{"bike_id":"60f331a3-ea44-4222-823b-c64795bc77cd","system_id":"levelo_inurba_marseille","lat":43.30888,"lon":5.39653,"is_reserved":false,"is_disabled":false,"rental_uris":{"android":"levelo://app?vid=60f331a3-ea44-4222-823b-c64795bc77cd","ios":"levelo://app?vid=60f331a3-ea44-4222-823b-c64795bc77cd"},"vehicle_type_id":"4","last_reported":1749730863,"current_range_meters":9200,"station_id":"ce4bh012rcd13ifvqcv0","pricing_plan_id":"cebpf4jnsgd1na2vs0mg"},{"bike_id":"4c7a7648-1697-41c2-b7e8-3e88dfe8686c","system_id":"levelo_inurba_marseille","lat":43.23152,"lon":5.43716,"is_reserved":false,"is_disabled":false,"rental_uris":{"android":"levelo://app?vid=4c7a7648-1697-41c2-b7e8-3e88dfe8686c","ios":"levelo://app?vid=4c7a7648-1697-41c2-b7e8-3e88dfe8686c"},"vehicle_type_id":"4","last_reported":1749730863,"current_range_meters":9200,"station_id":"ce4bhmp2rcd13ifvqgog","pricing_plan_id":"cebpf4jnsgd1na2vs0mg"},{"bike_id":"3f8a3e1b-6bcc-42ce-a440-bc632601f5d1","system_id":"levelo_inurba_marseille","lat":43.32323,"lon":5.40592,"is_reserved":false,"is_disabled":false,"rental_uris":{"android":"levelo://app?vid=3f8a3e1b-6bcc-42ce-a440-bc632601f5d1","ios":"levelo://app?vid=3f8a3e1b-6bcc-42ce-a440-bc632601f5d1"},"vehicle_type_id":"4","last_reported":1749730863,"current_range_meters":9200,"station_id":"ce4bhq92rcd13ifvqhjg","pricing_plan_id":"cebpf4jnsgd1na2vs0mg"},{"bike_id":"985cff31-6c7f-411e-b5a9-8d8a23b42ed6","system_id":"levelo_inurba_marseille","lat":43.26799,"lon":5.40307,"is_reserved":false,"is_disabled":false,"rental_uris":{"android":"levelo://app?vid=985cff31-6c7f-411e-b5a9-8d8a23b42ed6","ios":"levelo://app?vid=985cff31-6c7f-411e-b5a9-8d8a23b42ed6"},"vehicle_type_id":"4","last_reported":1749730863,"current_range_meters":9200,"station_id":"ce501612rcd8frsf0b60","pricing_plan_id":"cebpf4jnsgd1na2vs0mg"},{"bike_id":"06894864-ef44-45c7-b38a-9e654b60f033","system_id":"levelo_inurba_marseille","lat":43.30603,"lon":5.38955,"is_reserved":false,"is_disabled":false,"rental_uris":{"android":"levelo://app?vid=06894864-ef44-45c7-b38a-9e654b60f033","ios":"levelo://app?vid=06894864-ef44-45c7-b38a-9e654b60f033"},"vehicle_type_id":"4","last_reported":1749730863,"current_range_meters":9600,"station_id":"","pricing_plan_id":"cebpf4jnsgd1na2vs0mg"},{"bike_id":"308cbf69-b866-4a48-b377-e4f7d5e7c70b","system_id":"levelo_inurba_marseille","lat":43.329409,"lon":5.390337,"is_reserved":false,"is_disabled":false,"rental_uris":{"android":"levelo://app?vid=308cbf69-b866-4a48-b377-e4f7d5e7c70b","ios":"levelo://app?vid=308cbf69-b866-4a48-b377-e4f7d5e7c70b"},"vehicle_type_id":"4","last_reported":1749730863,"current_range_meters":9600,"station_id":"","pricing_plan_id":"cebpf4jnsgd1na2vs0mg"},{"bike_id":"d398049e-efdb-4da6-8936-a573fb68e8c0","system_id":"levelo_inurba_marseille","lat":43.28484,"lon":5.38405,"is_reserved":false,"is_disabled":false,"rental_uris":{"android":"levelo://app?vid=d398049e-efdb-4da6-8936-a573fb68e8c0","ios":"levelo://app?vid=d398049e-efdb-4da6-8936-a573fb68e8c0"},"vehicle_type_id":"4","last_reported":1749730863,"current_range_meters":9600,"station_id":"ce4bh512rcd13ifvqe3g","pricing_plan_id":"cebpf4jnsgd1na2vs0mg"},{"bike_id":"e5ff82fd-cc37-4e1f-aade-050998fb0f61","system_id":"levelo_inurba_marseille","lat":43.26266,"lon":5.37076,"is_reserved":false,"is_disabled":false,"rental_uris":{"android":"levelo://app?vid=e5ff82fd-cc37-4e1f-aade-050998fb0f61","ios":"levelo://app?vid=e5ff82fd-cc37-4e1f-aade-050998fb0f61"},"vehicle_type_id":"4","last_reported":1749730863,"current_range_meters":10000,"station_id":"","pricing_plan_id":"cebpf4jnsgd1na2vs0mg"},{"bike_id":"e81485d6-dbdc-4af3-bfb1-4e900540d7c8","system_id":"levelo_inurba_marseille","lat":43.31364,"lon":5.36712,"is_reserved":false,"is_disabled":false,"rental_uris":{"android":"levelo://app?vid=e81485d6-dbdc-4af3-bfb1-4e900540d7c8","ios":"levelo://app?vid=e81485d6-dbdc-4af3-bfb1-4e900540d7c8"},"vehicle_type_id":"4","last_reported":1749730863,"current_range_meters":10000,"station_id":"ce4bgr92rcd13ifvqc6g","pricing_plan_id":"cebpf4jnsgd1na2vs0mg"},{"bike_id":"6dfd5595-654e-42ee-8e58-2a5c3df13ff8","system_id":"levelo_inurba_marseille","lat":43.31021,"lon":5.37255,"is_reserved":false,"is_disabled":false,"rental_uris":{"android":"levelo://app?vid=6dfd5595-654e-42ee-8e58-2a5c3df13ff8","ios":"levelo://app?vid=6dfd5595-654e-42ee-8e58-2a5c3df13ff8"},"vehicle_type_id":"4","last_reported":1749730863,"current_range_meters":10800,"station_id":"","pricing_plan_id":"cebpf4jnsgd1na2vs0mg"},{"bike_id":"42679c61-f18c-457b-9809-5f5e5176c131","system_id":"levelo_inurba_marseille","lat":43.293787,"lon":5.378517,"is_reserved":false,"is_disabled":false,"rental_uris":{"android":"levelo://app?vid=42679c61-f18c-457b-9809-5f5e5176c131","ios":"levelo://app?vid=42679c61-f18c-457b-9809-5f5e5176c131"},"vehicle_type_id":"4","last_reported":1749730863,"current_range_meters":10800,"station_id":"ce4bgjh2rcd13ifvqbf0","pricing_plan_id":"cebpf4jnsgd1na2vs0mg"},{"bike_id":"96cff9dc-6a2b-481d-b721-7bdc571475bc","system_id":"levelo_inurba_marseille","lat":43.24402,"lon":5.37055,"is_reserved":false,"is_disabled":false,"rental_uris":{"android":"levelo://app?vid=96cff9dc-6a2b-481d-b721-7bdc571475bc","ios":"levelo://app?vid=96cff9dc-6a2b-481d-b721-7bdc571475bc"},"vehicle_type_id":"4","last_reported":1749730863,"current_range_meters":10800,"station_id":"ce4bhhh2rcd13ifvqfk0","pricing_plan_id":"cebpf4jnsgd1na2vs0mg"},{"bike_id":"4b3abdc5-4cfb-4ba4-a928-b642cb945036","system_id":"levelo_inurba_marseille","lat":43.27205,"lon":5.39185,"is_reserved":false,"is_disabled":false,"rental_uris":{"android":"levelo://app?vid=4b3abdc5-4cfb-4ba4-a928-b642cb945036","ios":"levelo://app?vid=4b3abdc5-4cfb-4ba4-a928-b642cb945036"},"vehicle_type_id":"4","last_reported":1749730863,"current_range_meters":10800,"station_id":"ce4bhhp2rcd13ifvqfm0","pricing_plan_id":"cebpf4jnsgd1na2vs0mg"},{"bike_id":"99504050-4089-4e53-8396-c8008d2e554d","system_id":"levelo_inurba_marseille","lat":43.24087,"lon":5.37748,"is_reserved":false,"is_disabled":false,"rental_uris":{"android":"levelo://app?vid=99504050-4089-4e53-8396-c8008d2e554d","ios":"levelo://app?vid=99504050-4089-4e53-8396-c8008d2e554d"},"vehicle_type_id":"4","last_reported":1749730863,"current_range_meters":10800,"station_id":"ce4bhnp2rcd13ifvqgvg","pricing_plan_id":"cebpf4jnsgd1na2vs0mg"},{"bike_id":"a2421370-e442-436f-a98a-844d44299694","system_id":"levelo_inurba_marseille","lat":43.323586,"lon":5.367557,"is_reserved":false,"is_disabled":false,"rental_uris":{"android":"levelo://app?vid=a2421370-e442-436f-a98a-844d44299694","ios":"levelo://app?vid=a2421370-e442-436f-a98a-844d44299694"},"vehicle_type_id":"4","last_reported":1749730863,"current_range_meters":10800,"station_id":"ce4bhsh2rcd13ifvqi2g","pricing_plan_id":"cebpf4jnsgd1na2vs0mg"},{"bike_id":"ad4caa95-db74-4b14-9172-a00359cae28e","system_id":"levelo_inurba_marseille","lat":43.23197,"lon":5.35553,"is_reserved":false,"is_disabled":false,"rental_uris":{"android":"levelo://app?vid=ad4caa95-db74-4b14-9172-a00359cae28e","ios":"levelo://app?vid=ad4caa95-db74-4b14-9172-a00359cae28e"},"vehicle_type_id":"4","last_reported":1749730863,"current_range_meters":10800,"station_id":"ce4bhu92rcd13ifvqi70","pricing_plan_id":"cebpf4jnsgd1na2vs0mg"},{"bike_id":"05ff3877-1dec-4c81-a441-f8f632f00437","system_id":"levelo_inurba_marseille","lat":43.287384,"lon":5.379421,"is_reserved":false,"is_disabled":false,"rental_uris":{"android":"levelo://app?vid=05ff3877-1dec-4c81-a441-f8f632f00437","ios":"levelo://app?vid=05ff3877-1dec-4c81-a441-f8f632f00437"},"vehicle_type_id":"4","last_reported":1749730863,"current_range_meters":11200,"station_id":"ce4bh9p2rcd13ifvqec0","pricing_plan_id":"cebpf4jnsgd1na2vs0mg"},{"bike_id":"750ff992-5e5f-43b8-bb6c-ade08e2c66c9","system_id":"levelo_inurba_marseille","lat":43.28258,"lon":5.35064,"is_reserved":false,"is_disabled":false,"rental_uris":{"android":"levelo://app?vid=750ff992-5e5f-43b8-bb6c-ade08e2c66c9","ios":"levelo://app?vid=750ff992-5e5f-43b8-bb6c-ade08e2c66c9"},"vehicle_type_id":"4","last_reported":1749730863,"current_range_meters":11200,"station_id":"ce4bhbp2rcd13ifvqerg","pricing_plan_id":"cebpf4jnsgd1na2vs0mg"},{"bike_id":"e8d1c5bb-de92-4e6e-81e7-65c09aadd7ca","system_id":"levelo_inurba_marseille","lat":43.21202,"lon":5.35073,"is_reserved":false,"is_disabled":false,"rental_uris":{"android":"levelo://app?vid=e8d1c5bb-de92-4e6e-81e7-65c09aadd7ca","ios":"levelo://app?vid=e8d1c5bb-de92-4e6e-81e7-65c09aadd7ca"},"vehicle_type_id":"4","last_reported":1749730863,"current_range_meters":11200,"station_id":"st_cvj6sg6p6f1abm77japg","pricing_plan_id":"cebpf4jnsgd1na2vs0mg"},{"bike_id":"ab6807a5-6bbe-45c8-bd99-9be57abab043","system_id":"levelo_inurba_marseille","lat":43.27383,"lon":5.3625,"is_reserved":false,"is_disabled":false,"rental_uris":{"android":"levelo://app?vid=ab6807a5-6bbe-45c8-bd99-9be57abab043","ios":"levelo://app?vid=ab6807a5-6bbe-45c8-bd99-9be57abab043"},"vehicle_type_id":"4","last_reported":1749730863,"current_range_meters":11600,"station_id":"","pricing_plan_id":"cebpf4jnsgd1na2vs0mg"},{"bike_id":"51c9c3d1-050f-47d1-8726-c1814cd19d79","system_id":"levelo_inurba_marseille","lat":43.31273,"lon":5.38969,"is_reserved":false,"is_disabled":false,"rental_uris":{"android":"levelo://app?vid=51c9c3d1-050f-47d1-8726-c1814cd19d79","ios":"levelo://app?vid=51c9c3d1-050f-47d1-8726-c1814cd19d79"},"vehicle_type_id":"4","last_reported":1749730863,"current_range_meters":12000,"station_id":"","pricing_plan_id":"cebpf4jnsgd1na2vs0mg"},{"bike_id":"0cd951ce-c42f-40c9-ab4d-cf396e5ab851","system_id":"levelo_inurba_marseille","lat":43.30593,"lon":5.37242,"is_reserved":false,"is_disabled":false,"rental_uris":{"android":"levelo://app?vid=0cd951ce-c42f-40c9-ab4d-cf396e5ab851","ios":"levelo://app?vid=0cd951ce-c42f-40c9-ab4d-cf396e5ab851"},"vehicle_type_id":"4","last_reported":1749730863,"current_range_meters":12000,"station_id":"ce4bgqh2rcd13ifvqc4g","pricing_plan_id":"cebpf4jnsgd1na2vs0mg"},{"bike_id":"17ef899a-2885-4ff0-9086-f0498fa46c16","system_id":"levelo_inurba_marseille","lat":43.27968,"lon":5.38762,"is_reserved":false,"is_disabled":false,"rental_uris":{"android":"levelo://app?vid=17ef899a-2885-4ff0-9086-f0498fa46c16","ios":"levelo://app?vid=17ef899a-2885-4ff0-9086-f0498fa46c16"},"vehicle_type_id":"4","last_reported":1749730863,"current_range_meters":12000,"station_id":"ce4bhg12rcd13ifvqf80","pricing_plan_id":"cebpf4jnsgd1na2vs0mg"},{"bike_id":"608dbf53-4bd7-4842-92d3-6444e235738b","system_id":"levelo_inurba_marseille","lat":43.26697,"lon":5.38279,"is_reserved":false,"is_disabled":false,"rental_uris":{"android":"levelo://app?vid=608dbf53-4bd7-4842-92d3-6444e235738b","ios":"levelo://app?vid=608dbf53-4bd7-4842-92d3-6444e235738b"},"vehicle_type_id":"4","last_reported":1749730863,"current_range_meters":12000,"station_id":"ce4bhg92rcd13ifvqf90","pricing_plan_id":"cebpf4jnsgd1na2vs0mg"},{"bike_id":"743245d4-5457-49b9-9efc-d95c90d69b8e","system_id":"levelo_inurba_marseille","lat":43.314873,"lon":5.373081,"is_reserved":false,"is_disabled":false,"rental_uris":{"android":"levelo://app?vid=743245d4-5457-49b9-9efc-d95c90d69b8e","ios":"levelo://app?vid=743245d4-5457-49b9-9efc-d95c90d69b8e"},"vehicle_type_id":"4","last_reported":1749730863,"current_range_meters":12000,"station_id":"ce4bhip2rcd13ifvqft0","pricing_plan_id":"cebpf4jnsgd1na2vs0mg"},{"bike_id":"500320f2-e4bb-4906-a414-ca67470055ab","system_id":"levelo_inurba_marseille","lat":43.25637,"lon":5.38597,"is_reserved":false,"is_disabled":false,"rental_uris":{"android":"levelo://app?vid=500320f2-e4bb-4906-a414-ca67470055ab","ios":"levelo://app?vid=500320f2-e4bb-4906-a414-ca67470055ab"},"vehicle_type_id":"4","last_reported":1749730863,"current_range_meters":12400,"station_id":"","pricing_plan_id":"cebpf4jnsgd1na2vs0mg"},{"bike_id":"f57da1de-1821-4d0c-a34e-6999c5262ffc","system_id":"levelo_inurba_marseille","lat":43.32384,"lon":5.36616,"is_reserved":false,"is_disabled":false,"rental_uris":{"android":"levelo://app?vid=f57da1de-1821-4d0c-a34e-6999c5262ffc","ios":"levelo://app?vid=f57da1de-1821-4d0c-a34e-6999c5262ffc"},"vehicle_type_id":"4","last_reported":1749730863,"current_range_meters":12400,"station_id":"","pricing_plan_id":"cebpf4jnsgd1na2vs0mg"},{"bike_id":"501fe5cc-ec9f-4031-8e12-9c9a87dfd25d","system_id":"levelo_inurba_marseille","lat":43.31789,"lon":5.40629,"is_reserved":false,"is_disabled":false,"rental_uris":{"android":"levelo://app?vid=501fe5cc-ec9f-4031-8e12-9c9a87dfd25d","ios":"levelo://app?vid=501fe5cc-ec9f-4031-8e12-9c9a87dfd25d"},"vehicle_type_id":"4","last_reported":1749730863,"current_range_meters":12400,"station_id":"","pricing_plan_id":"cebpf4jnsgd1na2vs0mg"},{"bike_id":"3110fc6d-f003-44ce-97ab-62fdc96eadca","system_id":"levelo_inurba_marseille","lat":43.30886,"lon":5.36843,"is_reserved":false,"is_disabled":false,"rental_uris":{"android":"levelo://app?vid=3110fc6d-f003-44ce-97ab-62fdc96eadca","ios":"levelo://app?vid=3110fc6d-f003-44ce-97ab-62fdc96eadca"},"vehicle_type_id":"4","last_reported":1749730863,"current_range_meters":12400,"station_id":"ce4bgn92rcd13ifvqbvg","pricing_plan_id":"cebpf4jnsgd1na2vs0mg"},{"bike_id":"7171e24e-4103-4736-ba63-ced88e63436e","system_id":"levelo_inurba_marseille","lat":43.29044,"lon":5.37568,"is_reserved":false,"is_disabled":false,"rental_uris":{"android":"levelo://app?vid=7171e24e-4103-4736-ba63-ced88e63436e","ios":"levelo://app?vid=7171e24e-4103-4736-ba63-ced88e63436e"},"vehicle_type_id":"4","last_reported":1749730863,"current_range_meters":12400,"station_id":"ce4bh692rcd13ifvqe90","pricing_plan_id":"cebpf4jnsgd1na2vs0mg"},{"bike_id":"37f28358-40ec-474a-bcb3-ca97240d396d","system_id":"levelo_inurba_marseille","lat":43.25125,"lon":5.40336,"is_reserved":false,"is_disabled":false,"rental_uris":{"android":"levelo://app?vid=37f28358-40ec-474a-bcb3-ca97240d396d","ios":"levelo://app?vid=37f28358-40ec-474a-bcb3-ca97240d396d"},"vehicle_type_id":"4","last_reported":1749730863,"current_range_meters":12800,"station_id":"ce4bhlh2rcd13ifvqgig","pricing_plan_id":"cebpf4jnsgd1na2vs0mg"},{"bike_id":"0e38911f-4bc1-4758-9246-b6ff3bc4c754","system_id":"levelo_inurba_marseille","lat":43.21749,"lon":5.34599,"is_reserved":false,"is_disabled":false,"rental_uris":{"android":"levelo://app?vid=0e38911f-4bc1-4758-9246-b6ff3bc4c754","ios":"levelo://app?vid=0e38911f-4bc1-4758-9246-b6ff3bc4c754"},"vehicle_type_id":"4","last_reported":1749730863,"current_range_meters":12800,"station_id":"st_cvj6r9ubvosntc0bgbag","pricing_plan_id":"cebpf4jnsgd1na2vs0mg"},{"bike_id":"21d962d1-9ec6-4fc6-a523-f3b3879d9a14","system_id":"levelo_inurba_marseille","lat":43.29099,"lon":5.38145,"is_reserved":false,"is_disabled":false,"rental_uris":{"android":"levelo://app?vid=21d962d1-9ec6-4fc6-a523-f3b3879d9a14","ios":"levelo://app?vid=21d962d1-9ec6-4fc6-a523-f3b3879d9a14"},"vehicle_type_id":"4","last_reported":1749730863,"current_range_meters":13600,"station_id":"ce4bh512rcd13ifvqe2g","pricing_plan_id":"cebpf4jnsgd1na2vs0mg"},{"bike_id":"c4c07210-b169-4aec-be4d-579f4a5897ce","system_id":"levelo_inurba_marseille","lat":43.2749,"lon":5.36015,"is_reserved":false,"is_disabled":false,"rental_uris":{"android":"levelo://app?vid=c4c07210-b169-4aec-be4d-579f4a5897ce","ios":"levelo://app?vid=c4c07210-b169-4aec-be4d-579f4a5897ce"},"vehicle_type_id":"4","last_reported":1749730863,"current_range_meters":13600,"station_id":"ce4bhbh2rcd13ifvqeo0","pricing_plan_id":"cebpf4jnsgd1na2vs0mg"},{"bike_id":"a01e74e3-ab58-4b86-a2d7-ef6fb5684795","system_id":"levelo_inurba_marseille","lat":43.26936,"lon":5.38917,"is_reserved":false,"is_disabled":false,"rental_uris":{"android":"levelo://app?vid=a01e74e3-ab58-4b86-a2d7-ef6fb5684795","ios":"levelo://app?vid=a01e74e3-ab58-4b86-a2d7-ef6fb5684795"},"vehicle_type_id":"4","last_reported":1749730863,"current_range_meters":13600,"station_id":"ce4bhhh2rcd13ifvqfl0","pricing_plan_id":"cebpf4jnsgd1na2vs0mg"},{"bike_id":"ce81f804-a274-484f-a641-28706f036e77","system_id":"levelo_inurba_marseille","lat":43.31906,"lon":5.40772,"is_reserved":false,"is_disabled":false,"rental_uris":{"android":"levelo://app?vid=ce81f804-a274-484f-a641-28706f036e77","ios":"levelo://app?vid=ce81f804-a274-484f-a641-28706f036e77"},"vehicle_type_id":"4","last_reported":1749730863,"current_range_meters":13600,"station_id":"ce4bhq12rcd13ifvqhig","pricing_plan_id":"cebpf4jnsgd1na2vs0mg"},{"bike_id":"45cb9171-bb7e-418e-bf45-5916b7d21e5e","system_id":"levelo_inurba_marseille","lat":43.32096,"lon":5.36794,"is_reserved":false,"is_disabled":false,"rental_uris":{"android":"levelo://app?vid=45cb9171-bb7e-418e-bf45-5916b7d21e5e","ios":"levelo://app?vid=45cb9171-bb7e-418e-bf45-5916b7d21e5e"},"vehicle_type_id":"4","last_reported":1749730863,"current_range_meters":13600,"station_id":"ce4bhrh2rcd13ifvqhug","pricing_plan_id":"cebpf4jnsgd1na2vs0mg"},{"bike_id":"a63a44e1-3691-4845-8be6-9085725b266d","system_id":"levelo_inurba_marseille","lat":43.31301,"lon":5.37518,"is_reserved":false,"is_disabled":false,"rental_uris":{"android":"levelo://app?vid=a63a44e1-3691-4845-8be6-9085725b266d","ios":"levelo://app?vid=a63a44e1-3691-4845-8be6-9085725b266d"},"vehicle_type_id":"4","last_reported":1749730863,"current_range_meters":14000,"station_id":"","pricing_plan_id":"cebpf4jnsgd1na2vs0mg"},{"bike_id":"4b53aa4c-49f5-467f-9fe6-6102c7436586","system_id":"levelo_inurba_marseille","lat":43.2927,"lon":5.36839,"is_reserved":false,"is_disabled":false,"rental_uris":{"android":"levelo://app?vid=4b53aa4c-49f5-467f-9fe6-6102c7436586","ios":"levelo://app?vid=4b53aa4c-49f5-467f-9fe6-6102c7436586"},"vehicle_type_id":"4","last_reported":1749730863,"current_range_meters":14000,"station_id":"ce4bhbp2rcd13ifvqesg","pricing_plan_id":"cebpf4jnsgd1na2vs0mg"},{"bike_id":"15c6d47e-9410-46fe-8f6b-2d96e4696d41","system_id":"levelo_inurba_marseille","lat":43.27836,"lon":5.39203,"is_reserved":false,"is_disabled":false,"rental_uris":{"android":"levelo://app?vid=15c6d47e-9410-46fe-8f6b-2d96e4696d41","ios":"levelo://app?vid=15c6d47e-9410-46fe-8f6b-2d96e4696d41"},"vehicle_type_id":"4","last_reported":1749730863,"current_range_meters":14000,"station_id":"ce4bhjp2rcd13ifvqga0","pricing_plan_id":"cebpf4jnsgd1na2vs0mg"},{"bike_id":"4caccb6c-8204-446a-9bd6-00338e35db54","system_id":"levelo_inurba_marseille","lat":43.2407,"lon":5.37766,"is_reserved":false,"is_disabled":false,"rental_uris":{"android":"levelo://app?vid=4caccb6c-8204-446a-9bd6-00338e35db54","ios":"levelo://app?vid=4caccb6c-8204-446a-9bd6-00338e35db54"},"vehicle_type_id":"4","last_reported":1749730863,"current_range_meters":14000,"station_id":"ce4bhnp2rcd13ifvqgvg","pricing_plan_id":"cebpf4jnsgd1na2vs0mg"},{"bike_id":"46186c23-1d81-4d78-83f7-1cfbc90e845c","system_id":"levelo_inurba_marseille","lat":43.31196,"lon":5.36847,"is_reserved":false,"is_disabled":false,"rental_uris":{"android":"levelo://app?vid=46186c23-1d81-4d78-83f7-1cfbc90e845c","ios":"levelo://app?vid=46186c23-1d81-4d78-83f7-1cfbc90e845c"},"vehicle_type_id":"4","last_reported":1749730863,"current_range_meters":14400,"station_id":"ce4bgl92rcd13ifvqbq0","pricing_plan_id":"cebpf4jnsgd1na2vs0mg"},{"bike_id":"97b5b857-a0bd-44a7-964a-5e0e3ea1dbd1","system_id":"levelo_inurba_marseille","lat":43.301392,"lon":5.374256,"is_reserved":false,"is_disabled":false,"rental_uris":{"android":"levelo://app?vid=97b5b857-a0bd-44a7-964a-5e0e3ea1dbd1","ios":"levelo://app?vid=97b5b857-a0bd-44a7-964a-5e0e3ea1dbd1"},"vehicle_type_id":"4","last_reported":1749730863,"current_range_meters":14400,"station_id":"ce4bgs92rcd13ifvqcc0","pricing_plan_id":"cebpf4jnsgd1na2vs0mg"},{"bike_id":"72a8696e-d952-4e77-99f3-b3e9b038b132","system_id":"levelo_inurba_marseille","lat":43.31536,"lon":5.38025,"is_reserved":false,"is_disabled":false,"rental_uris":{"android":"levelo://app?vid=72a8696e-d952-4e77-99f3-b3e9b038b132","ios":"levelo://app?vid=72a8696e-d952-4e77-99f3-b3e9b038b132"},"vehicle_type_id":"4","last_reported":1749730863,"current_range_meters":14400,"station_id":"ce4bhsp2rcd13ifvqi50","pricing_plan_id":"cebpf4jnsgd1na2vs0mg"},{"bike_id":"9cfb5991-2280-4230-b550-97760b380a10","system_id":"levelo_inurba_marseille","lat":43.24158,"lon":5.3641,"is_reserved":false,"is_disabled":false,"rental_uris":{"android":"levelo://app?vid=9cfb5991-2280-4230-b550-97760b380a10","ios":"levelo://app?vid=9cfb5991-2280-4230-b550-97760b380a10"},"vehicle_type_id":"4","last_reported":1749730863,"current_range_meters":14400,"station_id":"cpo36qri1sfpv3e86is0","pricing_plan_id":"cebpf4jnsgd1na2vs0mg"},{"bike_id":"e03857e9-34ed-4d08-b13c-35be5899715e","system_id":"levelo_inurba_marseille","lat":43.33771,"lon":5.37434,"is_reserved":false,"is_disabled":false,"rental_uris":{"android":"levelo://app?vid=e03857e9-34ed-4d08-b13c-35be5899715e","ios":"levelo://app?vid=e03857e9-34ed-4d08-b13c-35be5899715e"},"vehicle_type_id":"4","last_reported":1749730863,"current_range_meters":14800,"station_id":"","pricing_plan_id":"cebpf4jnsgd1na2vs0mg"},{"bike_id":"766d1128-b251-4e6d-9ad7-21e7a4a50df2","system_id":"levelo_inurba_marseille","lat":43.27322,"lon":5.39066,"is_reserved":false,"is_disabled":false,"rental_uris":{"android":"levelo://app?vid=766d1128-b251-4e6d-9ad7-21e7a4a50df2","ios":"levelo://app?vid=766d1128-b251-4e6d-9ad7-21e7a4a50df2"},"vehicle_type_id":"4","last_reported":1749730863,"current_range_meters":14800,"station_id":"ce4bhgp2rcd13ifvqfe0","pricing_plan_id":"cebpf4jnsgd1na2vs0mg"},{"bike_id":"86f5aac8-eb08-474e-8cbd-f92ef1b81b0e","system_id":"levelo_inurba_marseille","lat":43.23971,"lon":5.36634,"is_reserved":false,"is_disabled":false,"rental_uris":{"android":"levelo://app?vid=86f5aac8-eb08-474e-8cbd-f92ef1b81b0e","ios":"levelo://app?vid=86f5aac8-eb08-474e-8cbd-f92ef1b81b0e"},"vehicle_type_id":"4","last_reported":1749730863,"current_range_meters":14800,"station_id":"ce4bhi12rcd13ifvqfp0","pricing_plan_id":"cebpf4jnsgd1na2vs0mg"},{"bike_id":"6d31578b-a444-4a91-9f2a-0bcc6d492afd","system_id":"levelo_inurba_marseille","lat":43.26225,"lon":5.40443,"is_reserved":false,"is_disabled":false,"rental_uris":{"android":"levelo://app?vid=6d31578b-a444-4a91-9f2a-0bcc6d492afd","ios":"levelo://app?vid=6d31578b-a444-4a91-9f2a-0bcc6d492afd"},"vehicle_type_id":"4","last_reported":1749730863,"current_range_meters":14800,"station_id":"ce4bhmh2rcd13ifvqgmg","pricing_plan_id":"cebpf4jnsgd1na2vs0mg"},{"bike_id":"8c31f4a5-033f-4dc1-acaa-6b626b1b7f90","system_id":"levelo_inurba_marseille","lat":43.23149,"lon":5.437188,"is_reserved":false,"is_disabled":false,"rental_uris":{"android":"levelo://app?vid=8c31f4a5-033f-4dc1-acaa-6b626b1b7f90","ios":"levelo://app?vid=8c31f4a5-033f-4dc1-acaa-6b626b1b7f90"},"vehicle_type_id":"4","last_reported":1749730863,"current_range_meters":14800,"station_id":"ce4bhmp2rcd13ifvqgog","pricing_plan_id":"cebpf4jnsgd1na2vs0mg"},{"bike_id":"a1cb9f3a-baac-4a2e-8a7d-8fa2b49afb45","system_id":"levelo_inurba_marseille","lat":43.279107,"lon":5.380119,"is_reserved":false,"is_disabled":false,"rental_uris":{"android":"levelo://app?vid=a1cb9f3a-baac-4a2e-8a7d-8fa2b49afb45","ios":"levelo://app?vid=a1cb9f3a-baac-4a2e-8a7d-8fa2b49afb45"},"vehicle_type_id":"4","last_reported":1749730863,"current_range_meters":15200,"station_id":"","pricing_plan_id":"cebpf4jnsgd1na2vs0mg"},{"bike_id":"e5ef7447-82af-477b-846f-d44631249354","system_id":"levelo_inurba_marseille","lat":43.325083,"lon":5.388257,"is_reserved":false,"is_disabled":false,"rental_uris":{"android":"levelo://app?vid=e5ef7447-82af-477b-846f-d44631249354","ios":"levelo://app?vid=e5ef7447-82af-477b-846f-d44631249354"},"vehicle_type_id":"4","last_reported":1749730863,"current_range_meters":15200,"station_id":"","pricing_plan_id":"cebpf4jnsgd1na2vs0mg"},{"bike_id":"2465ca7d-6854-4ba3-9542-793094707cab","system_id":"levelo_inurba_marseille","lat":43.28426,"lon":5.34996,"is_reserved":false,"is_disabled":false,"rental_uris":{"android":"levelo://app?vid=2465ca7d-6854-4ba3-9542-793094707cab","ios":"levelo://app?vid=2465ca7d-6854-4ba3-9542-793094707cab"},"vehicle_type_id":"4","last_reported":1749730863,"current_range_meters":15200,"station_id":"ce4bhbh2rcd13ifvqepg","pricing_plan_id":"cebpf4jnsgd1na2vs0mg"},{"bike_id":"61979397-81ea-45a1-90af-e38ab4a153e1","system_id":"levelo_inurba_marseille","lat":43.29275,"lon":5.36839,"is_reserved":false,"is_disabled":false,"rental_uris":{"android":"levelo://app?vid=61979397-81ea-45a1-90af-e38ab4a153e1","ios":"levelo://app?vid=61979397-81ea-45a1-90af-e38ab4a153e1"},"vehicle_type_id":"4","last_reported":1749730863,"current_range_meters":15200,"station_id":"ce4bhbp2rcd13ifvqesg","pricing_plan_id":"cebpf4jnsgd1na2vs0mg"},{"bike_id":"e1259bdc-2fca-4f0a-8c39-8cf9d1a28f2e","system_id":"levelo_inurba_marseille","lat":43.26688,"lon":5.38279,"is_reserved":false,"is_disabled":false,"rental_uris":{"android":"levelo://app?vid=e1259bdc-2fca-4f0a-8c39-8cf9d1a28f2e","ios":"levelo://app?vid=e1259bdc-2fca-4f0a-8c39-8cf9d1a28f2e"},"vehicle_type_id":"4","last_reported":1749730863,"current_range_meters":15200,"station_id":"ce4bhg92rcd13ifvqf90","pricing_plan_id":"cebpf4jnsgd1na2vs0mg"},{"bike_id":"f5933427-119d-4502-896f-ae93c11228ab","system_id":"levelo_inurba_marseille","lat":43.23158,"lon":5.43706,"is_reserved":false,"is_disabled":false,"rental_uris":{"android":"levelo://app?vid=f5933427-119d-4502-896f-ae93c11228ab","ios":"levelo://app?vid=f5933427-119d-4502-896f-ae93c11228ab"},"vehicle_type_id":"4","last_reported":1749730863,"current_range_meters":15200,"station_id":"ce4bhmp2rcd13ifvqgog","pricing_plan_id":"cebpf4jnsgd1na2vs0mg"},{"bike_id":"1268e070-f02d-4537-93df-0bfd5c4daa05","system_id":"levelo_inurba_marseille","lat":43.32683,"lon":5.37642,"is_reserved":false,"is_disabled":false,"rental_uris":{"android":"levelo://app?vid=1268e070-f02d-4537-93df-0bfd5c4daa05","ios":"levelo://app?vid=1268e070-f02d-4537-93df-0bfd5c4daa05"},"vehicle_type_id":"4","last_reported":1749730863,"current_range_meters":16000,"station_id":"","pricing_plan_id":"cebpf4jnsgd1na2vs0mg"},{"bike_id":"1989215c-378c-442b-a262-e4741c2e9de7","system_id":"levelo_inurba_marseille","lat":43.30235,"lon":5.40394,"is_reserved":false,"is_disabled":false,"rental_uris":{"android":"levelo://app?vid=1989215c-378c-442b-a262-e4741c2e9de7","ios":"levelo://app?vid=1989215c-378c-442b-a262-e4741c2e9de7"},"vehicle_type_id":"4","last_reported":1749730863,"current_range_meters":16000,"station_id":"","pricing_plan_id":"cebpf4jnsgd1na2vs0mg"},{"bike_id":"7d7170dd-d55e-43db-a9c2-1ed74c433fd7","system_id":"levelo_inurba_marseille","lat":43.31005,"lon":5.42016,"is_reserved":false,"is_disabled":false,"rental_uris":{"android":"levelo://app?vid=7d7170dd-d55e-43db-a9c2-1ed74c433fd7","ios":"levelo://app?vid=7d7170dd-d55e-43db-a9c2-1ed74c433fd7"},"vehicle_type_id":"4","last_reported":1749730863,"current_range_meters":16000,"station_id":"","pricing_plan_id":"cebpf4jnsgd1na2vs0mg"},{"bike_id":"6e464720-93b0-4699-80fe-881649eb71cd","system_id":"levelo_inurba_marseille","lat":43.23238,"lon":5.35587,"is_reserved":false,"is_disabled":false,"rental_uris":{"android":"levelo://app?vid=6e464720-93b0-4699-80fe-881649eb71cd","ios":"levelo://app?vid=6e464720-93b0-4699-80fe-881649eb71cd"},"vehicle_type_id":"4","last_reported":1749730863,"current_range_meters":16000,"station_id":"","pricing_plan_id":"cebpf4jnsgd1na2vs0mg"},{"bike_id":"fa0c23f2-4950-4cc5-ad8c-d65ffa5b69c1","system_id":"levelo_inurba_marseille","lat":43.29311,"lon":5.37455,"is_reserved":false,"is_disabled":false,"rental_uris":{"android":"levelo://app?vid=fa0c23f2-4950-4cc5-ad8c-d65ffa5b69c1","ios":"levelo://app?vid=fa0c23f2-4950-4cc5-ad8c-d65ffa5b69c1"},"vehicle_type_id":"4","last_reported":1749730863,"current_range_meters":16000,"station_id":"ce4bgi12rcd13ifvqb70","pricing_plan_id":"cebpf4jnsgd1na2vs0mg"},{"bike_id":"6cd880f8-e5de-42fc-8807-0c427d2a2e24","system_id":"levelo_inurba_marseille","lat":43.266787,"lon":5.382587,"is_reserved":false,"is_disabled":false,"rental_uris":{"android":"levelo://app?vid=6cd880f8-e5de-42fc-8807-0c427d2a2e24","ios":"levelo://app?vid=6cd880f8-e5de-42fc-8807-0c427d2a2e24"},"vehicle_type_id":"4","last_reported":1749730863,"current_range_meters":16000,"station_id":"ce4bhg92rcd13ifvqf90","pricing_plan_id":"cebpf4jnsgd1na2vs0mg"},{"bike_id":"c1d40633-fc41-4f0c-8ccf-42aed94ffd86","system_id":"levelo_inurba_marseille","lat":43.29897,"lon":5.43671,"is_reserved":false,"is_disabled":false,"rental_uris":{"android":"levelo://app?vid=c1d40633-fc41-4f0c-8ccf-42aed94ffd86","ios":"levelo://app?vid=c1d40633-fc41-4f0c-8ccf-42aed94ffd86"},"vehicle_type_id":"4","last_reported":1749730863,"current_range_meters":16000,"station_id":"ce4bhpp2rcd13ifvqhfg","pricing_plan_id":"cebpf4jnsgd1na2vs0mg"},{"bike_id":"99e60434-491e-4f85-b8a2-3f97de608991","system_id":"levelo_inurba_marseille","lat":43.32365,"lon":5.38887,"is_reserved":false,"is_disabled":false,"rental_uris":{"android":"levelo://app?vid=99e60434-491e-4f85-b8a2-3f97de608991","ios":"levelo://app?vid=99e60434-491e-4f85-b8a2-3f97de608991"},"vehicle_type_id":"4","last_reported":1749730863,"current_range_meters":16000,"station_id":"ce4bhqp2rcd13ifvqhog","pricing_plan_id":"cebpf4jnsgd1na2vs0mg"},{"bike_id":"b8786c95-3f62-4aae-a677-c450c7d4faeb","system_id":"levelo_inurba_marseille","lat":43.22934,"lon":5.35395,"is_reserved":false,"is_disabled":false,"rental_uris":{"android":"levelo://app?vid=b8786c95-3f62-4aae-a677-c450c7d4faeb","ios":"levelo://app?vid=b8786c95-3f62-4aae-a677-c450c7d4faeb"},"vehicle_type_id":"4","last_reported":1749730863,"current_range_meters":16000,"station_id":"cpo3532slgdg3j2ikp40","pricing_plan_id":"cebpf4jnsgd1na2vs0mg"},{"bike_id":"919a1753-2326-4fec-8743-0f0ba8fb75d2","system_id":"levelo_inurba_marseille","lat":43.21752,"lon":5.34608,"is_reserved":false,"is_disabled":false,"rental_uris":{"android":"levelo://app?vid=919a1753-2326-4fec-8743-0f0ba8fb75d2","ios":"levelo://app?vid=919a1753-2326-4fec-8743-0f0ba8fb75d2"},"vehicle_type_id":"4","last_reported":1749730863,"current_range_meters":16000,"station_id":"st_cvj6r9ubvosntc0bgbag","pricing_plan_id":"cebpf4jnsgd1na2vs0mg"},{"bike_id":"7003b93c-725d-412e-9127-fbade718cbc3","system_id":"levelo_inurba_marseille","lat":43.21198,"lon":5.35072,"is_reserved":false,"is_disabled":false,"rental_uris":{"android":"levelo://app?vid=7003b93c-725d-412e-9127-fbade718cbc3","ios":"levelo://app?vid=7003b93c-725d-412e-9127-fbade718cbc3"},"vehicle_type_id":"4","last_reported":1749730863,"current_range_meters":16000,"station_id":"st_cvj6sg6p6f1abm77japg","pricing_plan_id":"cebpf4jnsgd1na2vs0mg"},{"bike_id":"d24133ff-b3b7-4bc8-975b-6c012903b7dd","system_id":"levelo_inurba_marseille","lat":43.3127,"lon":5.36865,"is_reserved":false,"is_disabled":false,"rental_uris":{"android":"levelo://app?vid=d24133ff-b3b7-4bc8-975b-6c012903b7dd","ios":"levelo://app?vid=d24133ff-b3b7-4bc8-975b-6c012903b7dd"},"vehicle_type_id":"4","last_reported":1749730863,"current_range_meters":16400,"station_id":"","pricing_plan_id":"cebpf4jnsgd1na2vs0mg"},{"bike_id":"d29b68da-c5e6-447f-8dcb-1ab2cc9e6f96","system_id":"levelo_inurba_marseille","lat":43.2636,"lon":5.39734,"is_reserved":false,"is_disabled":false,"rental_uris":{"android":"levelo://app?vid=d29b68da-c5e6-447f-8dcb-1ab2cc9e6f96","ios":"levelo://app?vid=d29b68da-c5e6-447f-8dcb-1ab2cc9e6f96"},"vehicle_type_id":"4","last_reported":1749730863,"current_range_meters":16400,"station_id":"","pricing_plan_id":"cebpf4jnsgd1na2vs0mg"},{"bike_id":"2ee4bff0-9534-4781-aaac-dbe4c15585fe","system_id":"levelo_inurba_marseille","lat":43.27745,"lon":5.36194,"is_reserved":false,"is_disabled":false,"rental_uris":{"android":"levelo://app?vid=2ee4bff0-9534-4781-aaac-dbe4c15585fe","ios":"levelo://app?vid=2ee4bff0-9534-4781-aaac-dbe4c15585fe"},"vehicle_type_id":"4","last_reported":1749730863,"current_range_meters":16400,"station_id":"","pricing_plan_id":"cebpf4jnsgd1na2vs0mg"},{"bike_id":"7624f930-8a29-453f-876b-d242de2c99f9","system_id":"levelo_inurba_marseille","lat":43.31213,"lon":5.36868,"is_reserved":false,"is_disabled":false,"rental_uris":{"android":"levelo://app?vid=7624f930-8a29-453f-876b-d242de2c99f9","ios":"levelo://app?vid=7624f930-8a29-453f-876b-d242de2c99f9"},"vehicle_type_id":"4","last_reported":1749730863,"current_range_meters":16400,"station_id":"ce4bgl92rcd13ifvqbq0","pricing_plan_id":"cebpf4jnsgd1na2vs0mg"},{"bike_id":"c2c18c77-c98f-4e48-b467-924fce0fb166","system_id":"levelo_inurba_marseille","lat":43.30889,"lon":5.37179,"is_reserved":false,"is_disabled":false,"rental_uris":{"android":"levelo://app?vid=c2c18c77-c98f-4e48-b467-924fce0fb166","ios":"levelo://app?vid=c2c18c77-c98f-4e48-b467-924fce0fb166"},"vehicle_type_id":"4","last_reported":1749730863,"current_range_meters":16400,"station_id":"ce4bguh2rcd13ifvqckg","pricing_plan_id":"cebpf4jnsgd1na2vs0mg"},{"bike_id":"71495450-6ae4-4348-815e-15b5b591623a","system_id":"levelo_inurba_marseille","lat":43.28703,"lon":5.37384,"is_reserved":false,"is_disabled":false,"rental_uris":{"android":"levelo://app?vid=71495450-6ae4-4348-815e-15b5b591623a","ios":"levelo://app?vid=71495450-6ae4-4348-815e-15b5b591623a"},"vehicle_type_id":"4","last_reported":1749730863,"current_range_meters":16400,"station_id":"ce4bh3p2rcd13ifvqdq0","pricing_plan_id":"cebpf4jnsgd1na2vs0mg"},{"bike_id":"b63d9c66-8a80-4a47-9b19-112671b0041b","system_id":"levelo_inurba_marseille","lat":43.28619,"lon":5.35122,"is_reserved":false,"is_disabled":false,"rental_uris":{"android":"levelo://app?vid=b63d9c66-8a80-4a47-9b19-112671b0041b","ios":"levelo://app?vid=b63d9c66-8a80-4a47-9b19-112671b0041b"},"vehicle_type_id":"4","last_reported":1749730863,"current_range_meters":16400,"station_id":"ce4bhch2rcd13ifvqeug","pricing_plan_id":"cebpf4jnsgd1na2vs0mg"},{"bike_id":"2b3487c0-6d03-4c54-801f-a27aa1820b7e","system_id":"levelo_inurba_marseille","lat":43.26559,"lon":5.37306,"is_reserved":false,"is_disabled":false,"rental_uris":{"android":"levelo://app?vid=2b3487c0-6d03-4c54-801f-a27aa1820b7e","ios":"levelo://app?vid=2b3487c0-6d03-4c54-801f-a27aa1820b7e"},"vehicle_type_id":"4","last_reported":1749730863,"current_range_meters":16400,"station_id":"ce4bhg12rcd13ifvqf70","pricing_plan_id":"cebpf4jnsgd1na2vs0mg"},{"bike_id":"78e4331f-c67f-4812-a1cf-4af0acc5e2d6","system_id":"levelo_inurba_marseille","lat":43.32363,"lon":5.36755,"is_reserved":false,"is_disabled":false,"rental_uris":{"android":"levelo://app?vid=78e4331f-c67f-4812-a1cf-4af0acc5e2d6","ios":"levelo://app?vid=78e4331f-c67f-4812-a1cf-4af0acc5e2d6"},"vehicle_type_id":"4","last_reported":1749730863,"current_range_meters":16400,"station_id":"ce4bhsh2rcd13ifvqi2g","pricing_plan_id":"cebpf4jnsgd1na2vs0mg"},{"bike_id":"c0bd4251-d527-48a7-9378-e4e80c1c274f","system_id":"levelo_inurba_marseille","lat":43.31794,"lon":5.37461,"is_reserved":false,"is_disabled":false,"rental_uris":{"android":"levelo://app?vid=c0bd4251-d527-48a7-9378-e4e80c1c274f","ios":"levelo://app?vid=c0bd4251-d527-48a7-9378-e4e80c1c274f"},"vehicle_type_id":"4","last_reported":1749730863,"current_range_meters":16800,"station_id":"","pricing_plan_id":"cebpf4jnsgd1na2vs0mg"},{"bike_id":"819462ae-62de-48e1-98c3-8281dd280df6","system_id":"levelo_inurba_marseille","lat":43.3054,"lon":5.367,"is_reserved":false,"is_disabled":false,"rental_uris":{"android":"levelo://app?vid=819462ae-62de-48e1-98c3-8281dd280df6","ios":"levelo://app?vid=819462ae-62de-48e1-98c3-8281dd280df6"},"vehicle_type_id":"4","last_reported":1749730863,"current_range_meters":16800,"station_id":"ce4bgrp2rcd13ifvqc9g","pricing_plan_id":"cebpf4jnsgd1na2vs0mg"},{"bike_id":"fb8efe6b-a3ee-4969-be10-6eabeac34652","system_id":"levelo_inurba_marseille","lat":43.30535,"lon":5.36704,"is_reserved":false,"is_disabled":false,"rental_uris":{"android":"levelo://app?vid=fb8efe6b-a3ee-4969-be10-6eabeac34652","ios":"levelo://app?vid=fb8efe6b-a3ee-4969-be10-6eabeac34652"},"vehicle_type_id":"4","last_reported":1749730863,"current_range_meters":16800,"station_id":"ce4bgrp2rcd13ifvqc9g","pricing_plan_id":"cebpf4jnsgd1na2vs0mg"},{"bike_id":"7d12e2f7-1c07-4edf-ac9f-105316e1bbb6","system_id":"levelo_inurba_marseille","lat":43.30955,"lon":5.39037,"is_reserved":false,"is_disabled":false,"rental_uris":{"android":"levelo://app?vid=7d12e2f7-1c07-4edf-ac9f-105316e1bbb6","ios":"levelo://app?vid=7d12e2f7-1c07-4edf-ac9f-105316e1bbb6"},"vehicle_type_id":"4","last_reported":1749730863,"current_range_meters":16800,"station_id":"ce4bgup2rcd13ifvqco0","pricing_plan_id":"cebpf4jnsgd1na2vs0mg"},{"bike_id":"df5d3ccc-a149-4120-abf7-427bebdf2c03","system_id":"levelo_inurba_marseille","lat":43.29173,"lon":5.37161,"is_reserved":false,"is_disabled":false,"rental_uris":{"android":"levelo://app?vid=df5d3ccc-a149-4120-abf7-427bebdf2c03","ios":"levelo://app?vid=df5d3ccc-a149-4120-abf7-427bebdf2c03"},"vehicle_type_id":"4","last_reported":1749730863,"current_range_meters":16800,"station_id":"ce4bha92rcd13ifvqeh0","pricing_plan_id":"cebpf4jnsgd1na2vs0mg"},{"bike_id":"5b096f5a-4796-481a-a560-5f57a1061987","system_id":"levelo_inurba_marseille","lat":43.24651,"lon":5.38892,"is_reserved":false,"is_disabled":false,"rental_uris":{"android":"levelo://app?vid=5b096f5a-4796-481a-a560-5f57a1061987","ios":"levelo://app?vid=5b096f5a-4796-481a-a560-5f57a1061987"},"vehicle_type_id":"4","last_reported":1749730863,"current_range_meters":16800,"station_id":"ce4bhg12rcd13ifvqf60","pricing_plan_id":"cebpf4jnsgd1na2vs0mg"},{"bike_id":"35733ac5-1a87-435f-bdd3-fb5ec7a34be5","system_id":"levelo_inurba_marseille","lat":43.29549,"lon":5.42288,"is_reserved":false,"is_disabled":false,"rental_uris":{"android":"levelo://app?vid=35733ac5-1a87-435f-bdd3-fb5ec7a34be5","ios":"levelo://app?vid=35733ac5-1a87-435f-bdd3-fb5ec7a34be5"},"vehicle_type_id":"4","last_reported":1749730863,"current_range_meters":16800,"station_id":"ce4bhph2rcd13ifvqhdg","pricing_plan_id":"cebpf4jnsgd1na2vs0mg"},{"bike_id":"41902e46-3363-402b-89a9-77321257c96b","system_id":"levelo_inurba_marseille","lat":43.32365,"lon":5.36766,"is_reserved":false,"is_disabled":false,"rental_uris":{"android":"levelo://app?vid=41902e46-3363-402b-89a9-77321257c96b","ios":"levelo://app?vid=41902e46-3363-402b-89a9-77321257c96b"},"vehicle_type_id":"4","last_reported":1749730863,"current_range_meters":16800,"station_id":"ce4bhsh2rcd13ifvqi2g","pricing_plan_id":"cebpf4jnsgd1na2vs0mg"},{"bike_id":"346f3f80-6b15-4406-b905-bb78596f5bac","system_id":"levelo_inurba_marseille","lat":43.32362,"lon":5.36775,"is_reserved":false,"is_disabled":false,"rental_uris":{"android":"levelo://app?vid=346f3f80-6b15-4406-b905-bb78596f5bac","ios":"levelo://app?vid=346f3f80-6b15-4406-b905-bb78596f5bac"},"vehicle_type_id":"4","last_reported":1749730863,"current_range_meters":16800,"station_id":"ce4bhsh2rcd13ifvqi2g","pricing_plan_id":"cebpf4jnsgd1na2vs0mg"},{"bike_id":"13c243cd-9cd7-41ad-a6fc-cb8f0f4eabf6","system_id":"levelo_inurba_marseille","lat":43.21758,"lon":5.3459,"is_reserved":false,"is_disabled":false,"rental_uris":{"android":"levelo://app?vid=13c243cd-9cd7-41ad-a6fc-cb8f0f4eabf6","ios":"levelo://app?vid=13c243cd-9cd7-41ad-a6fc-cb8f0f4eabf6"},"vehicle_type_id":"4","last_reported":1749730863,"current_range_meters":16800,"station_id":"st_cvj6r9ubvosntc0bgbag","pricing_plan_id":"cebpf4jnsgd1na2vs0mg"},{"bike_id":"bd283405-7b16-41d9-8f98-1355c8989cb0","system_id":"levelo_inurba_marseille","lat":43.31224,"lon":5.36864,"is_reserved":false,"is_disabled":false,"rental_uris":{"android":"levelo://app?vid=bd283405-7b16-41d9-8f98-1355c8989cb0","ios":"levelo://app?vid=bd283405-7b16-41d9-8f98-1355c8989cb0"},"vehicle_type_id":"4","last_reported":1749730863,"current_range_meters":17200,"station_id":"ce4bgl92rcd13ifvqbq0","pricing_plan_id":"cebpf4jnsgd1na2vs0mg"},{"bike_id":"d7c691dd-9b3f-4381-a765-382eb100545c","system_id":"levelo_inurba_marseille","lat":43.30406,"lon":5.39774,"is_reserved":false,"is_disabled":false,"rental_uris":{"android":"levelo://app?vid=d7c691dd-9b3f-4381-a765-382eb100545c","ios":"levelo://app?vid=d7c691dd-9b3f-4381-a765-382eb100545c"},"vehicle_type_id":"4","last_reported":1749730863,"current_range_meters":17200,"station_id":"ce4bh092rcd13ifvqd20","pricing_plan_id":"cebpf4jnsgd1na2vs0mg"},{"bike_id":"d347c212-0013-44a8-9cf9-4047b272eaa6","system_id":"levelo_inurba_marseille","lat":43.28351,"lon":5.38102,"is_reserved":false,"is_disabled":false,"rental_uris":{"android":"levelo://app?vid=d347c212-0013-44a8-9cf9-4047b272eaa6","ios":"levelo://app?vid=d347c212-0013-44a8-9cf9-4047b272eaa6"},"vehicle_type_id":"4","last_reported":1749730863,"current_range_meters":17200,"station_id":"ce4bh412rcd13ifvqdr0","pricing_plan_id":"cebpf4jnsgd1na2vs0mg"},{"bike_id":"e1361eb6-0619-4f87-aa83-16d80584507c","system_id":"levelo_inurba_marseille","lat":43.28425,"lon":5.34988,"is_reserved":false,"is_disabled":false,"rental_uris":{"android":"levelo://app?vid=e1361eb6-0619-4f87-aa83-16d80584507c","ios":"levelo://app?vid=e1361eb6-0619-4f87-aa83-16d80584507c"},"vehicle_type_id":"4","last_reported":1749730863,"current_range_meters":17200,"station_id":"ce4bhbh2rcd13ifvqepg","pricing_plan_id":"cebpf4jnsgd1na2vs0mg"},{"bike_id":"4a1ebb57-de4c-466d-8a5a-f3907adc6246","system_id":"levelo_inurba_marseille","lat":43.27951,"lon":5.41047,"is_reserved":false,"is_disabled":false,"rental_uris":{"android":"levelo://app?vid=4a1ebb57-de4c-466d-8a5a-f3907adc6246","ios":"levelo://app?vid=4a1ebb57-de4c-466d-8a5a-f3907adc6246"},"vehicle_type_id":"4","last_reported":1749730863,"current_range_meters":17200,"station_id":"ce4bhnp2rcd13ifvqh0g","pricing_plan_id":"cebpf4jnsgd1na2vs0mg"},{"bike_id":"b2798195-4fce-46b6-9218-5d7d2f4fa6a6","system_id":"levelo_inurba_marseille","lat":43.295488,"lon":5.42291,"is_reserved":false,"is_disabled":false,"rental_uris":{"android":"levelo://app?vid=b2798195-4fce-46b6-9218-5d7d2f4fa6a6","ios":"levelo://app?vid=b2798195-4fce-46b6-9218-5d7d2f4fa6a6"},"vehicle_type_id":"4","last_reported":1749730863,"current_range_meters":17200,"station_id":"ce4bhph2rcd13ifvqhdg","pricing_plan_id":"cebpf4jnsgd1na2vs0mg"},{"bike_id":"8662d8ca-9267-46fa-8ee3-857818dfdf43","system_id":"levelo_inurba_marseille","lat":43.29726,"lon":5.37687,"is_reserved":false,"is_disabled":false,"rental_uris":{"android":"levelo://app?vid=8662d8ca-9267-46fa-8ee3-857818dfdf43","ios":"levelo://app?vid=8662d8ca-9267-46fa-8ee3-857818dfdf43"},"vehicle_type_id":"4","last_reported":1749730863,"current_range_meters":17600,"station_id":"ce4bgkh2rcd13ifvqbl0","pricing_plan_id":"cebpf4jnsgd1na2vs0mg"},{"bike_id":"2a618f63-9c70-425c-bef3-d84fbd509df8","system_id":"levelo_inurba_marseille","lat":43.30533,"lon":5.36543,"is_reserved":false,"is_disabled":false,"rental_uris":{"android":"levelo://app?vid=2a618f63-9c70-425c-bef3-d84fbd509df8","ios":"levelo://app?vid=2a618f63-9c70-425c-bef3-d84fbd509df8"},"vehicle_type_id":"4","last_reported":1749730863,"current_range_meters":17600,"station_id":"ce4bgs12rcd13ifvqcag","pricing_plan_id":"cebpf4jnsgd1na2vs0mg"},{"bike_id":"4ccbb41c-497a-4d66-a838-571da6d4a72c","system_id":"levelo_inurba_marseille","lat":43.28421,"lon":5.34994,"is_reserved":false,"is_disabled":false,"rental_uris":{"android":"levelo://app?vid=4ccbb41c-497a-4d66-a838-571da6d4a72c","ios":"levelo://app?vid=4ccbb41c-497a-4d66-a838-571da6d4a72c"},"vehicle_type_id":"4","last_reported":1749730863,"current_range_meters":17600,"station_id":"ce4bhbh2rcd13ifvqepg","pricing_plan_id":"cebpf4jnsgd1na2vs0mg"},{"bike_id":"49bdc564-03c6-41e0-aac7-618ee31425ff","system_id":"levelo_inurba_marseille","lat":43.26573,"lon":5.39017,"is_reserved":false,"is_disabled":false,"rental_uris":{"android":"levelo://app?vid=49bdc564-03c6-41e0-aac7-618ee31425ff","ios":"levelo://app?vid=49bdc564-03c6-41e0-aac7-618ee31425ff"},"vehicle_type_id":"4","last_reported":1749730863,"current_range_meters":17600,"station_id":"ce4bhe12rcd13ifvqf30","pricing_plan_id":"cebpf4jnsgd1na2vs0mg"},{"bike_id":"a735afe4-2215-40bb-b29f-230aeea17b51","system_id":"levelo_inurba_marseille","lat":43.24071,"lon":5.37758,"is_reserved":false,"is_disabled":false,"rental_uris":{"android":"levelo://app?vid=a735afe4-2215-40bb-b29f-230aeea17b51","ios":"levelo://app?vid=a735afe4-2215-40bb-b29f-230aeea17b51"},"vehicle_type_id":"4","last_reported":1749730863,"current_range_meters":17600,"station_id":"ce4bhnp2rcd13ifvqgvg","pricing_plan_id":"cebpf4jnsgd1na2vs0mg"},{"bike_id":"6eac2101-bb0c-4a5f-9265-48a883b25661","system_id":"levelo_inurba_marseille","lat":43.26799,"lon":5.40288,"is_reserved":false,"is_disabled":false,"rental_uris":{"android":"levelo://app?vid=6eac2101-bb0c-4a5f-9265-48a883b25661","ios":"levelo://app?vid=6eac2101-bb0c-4a5f-9265-48a883b25661"},"vehicle_type_id":"4","last_reported":1749730863,"current_range_meters":17600,"station_id":"ce501612rcd8frsf0b60","pricing_plan_id":"cebpf4jnsgd1na2vs0mg"},{"bike_id":"62c0da7f-aff9-4ffa-86b8-6966d8f0e555","system_id":"levelo_inurba_marseille","lat":43.21203,"lon":5.35055,"is_reserved":false,"is_disabled":false,"rental_uris":{"android":"levelo://app?vid=62c0da7f-aff9-4ffa-86b8-6966d8f0e555","ios":"levelo://app?vid=62c0da7f-aff9-4ffa-86b8-6966d8f0e555"},"vehicle_type_id":"4","last_reported":1749730863,"current_range_meters":17600,"station_id":"st_cvj6sg6p6f1abm77japg","pricing_plan_id":"cebpf4jnsgd1na2vs0mg"},{"bike_id":"600da287-0374-4ee0-bea4-ba6902340b5e","system_id":"levelo_inurba_marseille","lat":43.27488,"lon":5.36038,"is_reserved":false,"is_disabled":false,"rental_uris":{"android":"levelo://app?vid=600da287-0374-4ee0-bea4-ba6902340b5e","ios":"levelo://app?vid=600da287-0374-4ee0-bea4-ba6902340b5e"},"vehicle_type_id":"4","last_reported":1749730863,"current_range_meters":18000,"station_id":"","pricing_plan_id":"cebpf4jnsgd1na2vs0mg"},{"bike_id":"11a7710f-084d-413d-abc1-c587a947a05e","system_id":"levelo_inurba_marseille","lat":43.26811,"lon":5.39052,"is_reserved":false,"is_disabled":false,"rental_uris":{"android":"levelo://app?vid=11a7710f-084d-413d-abc1-c587a947a05e","ios":"levelo://app?vid=11a7710f-084d-413d-abc1-c587a947a05e"},"vehicle_type_id":"4","last_reported":1749730863,"current_range_meters":18000,"station_id":"","pricing_plan_id":"cebpf4jnsgd1na2vs0mg"},{"bike_id":"e8639d85-2d2a-429d-bcfe-f3a304f2fccb","system_id":"levelo_inurba_marseille","lat":43.33761,"lon":5.37482,"is_reserved":false,"is_disabled":false,"rental_uris":{"android":"levelo://app?vid=e8639d85-2d2a-429d-bcfe-f3a304f2fccb","ios":"levelo://app?vid=e8639d85-2d2a-429d-bcfe-f3a304f2fccb"},"vehicle_type_id":"4","last_reported":1749730863,"current_range_meters":18000,"station_id":"","pricing_plan_id":"cebpf4jnsgd1na2vs0mg"},{"bike_id":"1807fb22-504e-427f-8f80-ea86a0dcad87","system_id":"levelo_inurba_marseille","lat":43.29867,"lon":5.39735,"is_reserved":false,"is_disabled":false,"rental_uris":{"android":"levelo://app?vid=1807fb22-504e-427f-8f80-ea86a0dcad87","ios":"levelo://app?vid=1807fb22-504e-427f-8f80-ea86a0dcad87"},"vehicle_type_id":"4","last_reported":1749730863,"current_range_meters":18000,"station_id":"ce4bh0h2rcd13ifvqd50","pricing_plan_id":"cebpf4jnsgd1na2vs0mg"},{"bike_id":"731b80d5-ec73-44aa-b0e9-c0bafa4f7c3c","system_id":"levelo_inurba_marseille","lat":43.284171,"lon":5.349851,"is_reserved":false,"is_disabled":false,"rental_uris":{"android":"levelo://app?vid=731b80d5-ec73-44aa-b0e9-c0bafa4f7c3c","ios":"levelo://app?vid=731b80d5-ec73-44aa-b0e9-c0bafa4f7c3c"},"vehicle_type_id":"4","last_reported":1749730863,"current_range_meters":18000,"station_id":"ce4bhbh2rcd13ifvqepg","pricing_plan_id":"cebpf4jnsgd1na2vs0mg"},{"bike_id":"34d8c314-61a5-422d-95d6-c242f91b1dae","system_id":"levelo_inurba_marseille","lat":43.28415,"lon":5.34991,"is_reserved":false,"is_disabled":false,"rental_uris":{"android":"levelo://app?vid=34d8c314-61a5-422d-95d6-c242f91b1dae","ios":"levelo://app?vid=34d8c314-61a5-422d-95d6-c242f91b1dae"},"vehicle_type_id":"4","last_reported":1749730863,"current_range_meters":18000,"station_id":"ce4bhbh2rcd13ifvqepg","pricing_plan_id":"cebpf4jnsgd1na2vs0mg"},{"bike_id":"725a6a7b-924b-4e45-8be0-14892e7277d8","system_id":"levelo_inurba_marseille","lat":43.26574,"lon":5.39002,"is_reserved":false,"is_disabled":false,"rental_uris":{"android":"levelo://app?vid=725a6a7b-924b-4e45-8be0-14892e7277d8","ios":"levelo://app?vid=725a6a7b-924b-4e45-8be0-14892e7277d8"},"vehicle_type_id":"4","last_reported":1749730863,"current_range_meters":18000,"station_id":"ce4bhe12rcd13ifvqf30","pricing_plan_id":"cebpf4jnsgd1na2vs0mg"},{"bike_id":"c26bfc8b-7a39-4a3e-a76b-09b1b09790f9","system_id":"levelo_inurba_marseille","lat":43.32553,"lon":5.4144,"is_reserved":false,"is_disabled":false,"rental_uris":{"android":"levelo://app?vid=c26bfc8b-7a39-4a3e-a76b-09b1b09790f9","ios":"levelo://app?vid=c26bfc8b-7a39-4a3e-a76b-09b1b09790f9"},"vehicle_type_id":"4","last_reported":1749730863,"current_range_meters":18000,"station_id":"ce4bhq12rcd13ifvqhhg","pricing_plan_id":"cebpf4jnsgd1na2vs0mg"},{"bike_id":"eb033ce6-a585-4e6e-b61e-8ddb3c04724d","system_id":"levelo_inurba_marseille","lat":43.286128,"lon":5.351059,"is_reserved":false,"is_disabled":false,"rental_uris":{"android":"levelo://app?vid=eb033ce6-a585-4e6e-b61e-8ddb3c04724d","ios":"levelo://app?vid=eb033ce6-a585-4e6e-b61e-8ddb3c04724d"},"vehicle_type_id":"4","last_reported":1749730863,"current_range_meters":18800,"station_id":"","pricing_plan_id":"cebpf4jnsgd1na2vs0mg"},{"bike_id":"2bae304d-06f7-450f-9c20-63d800e700e2","system_id":"levelo_inurba_marseille","lat":43.31613,"lon":5.38464,"is_reserved":false,"is_disabled":false,"rental_uris":{"android":"levelo://app?vid=2bae304d-06f7-450f-9c20-63d800e700e2","ios":"levelo://app?vid=2bae304d-06f7-450f-9c20-63d800e700e2"},"vehicle_type_id":"4","last_reported":1749730863,"current_range_meters":18800,"station_id":"","pricing_plan_id":"cebpf4jnsgd1na2vs0mg"},{"bike_id":"713f94e3-c67e-4836-bdd5-cfe7bb1b1281","system_id":"levelo_inurba_marseille","lat":43.22506,"lon":5.34782,"is_reserved":false,"is_disabled":false,"rental_uris":{"android":"levelo://app?vid=713f94e3-c67e-4836-bdd5-cfe7bb1b1281","ios":"levelo://app?vid=713f94e3-c67e-4836-bdd5-cfe7bb1b1281"},"vehicle_type_id":"4","last_reported":1749730863,"current_range_meters":18800,"station_id":"","pricing_plan_id":"cebpf4jnsgd1na2vs0mg"},{"bike_id":"6facbc0d-f1b5-4dc3-86d4-5c1204834925","system_id":"levelo_inurba_marseille","lat":43.280415,"lon":5.348074,"is_reserved":false,"is_disabled":false,"rental_uris":{"android":"levelo://app?vid=6facbc0d-f1b5-4dc3-86d4-5c1204834925","ios":"levelo://app?vid=6facbc0d-f1b5-4dc3-86d4-5c1204834925"},"vehicle_type_id":"4","last_reported":1749730863,"current_range_meters":18800,"station_id":"","pricing_plan_id":"cebpf4jnsgd1na2vs0mg"},{"bike_id":"874765f5-bd49-465a-85ef-dda87cbec338","system_id":"levelo_inurba_marseille","lat":43.28267,"lon":5.35072,"is_reserved":false,"is_disabled":false,"rental_uris":{"android":"levelo://app?vid=874765f5-bd49-465a-85ef-dda87cbec338","ios":"levelo://app?vid=874765f5-bd49-465a-85ef-dda87cbec338"},"vehicle_type_id":"4","last_reported":1749730863,"current_range_meters":18800,"station_id":"ce4bhbp2rcd13ifvqerg","pricing_plan_id":"cebpf4jnsgd1na2vs0mg"},{"bike_id":"a8578aef-174a-4551-b980-0d7525eec888","system_id":"levelo_inurba_marseille","lat":43.261961,"lon":5.379474,"is_reserved":false,"is_disabled":false,"rental_uris":{"android":"levelo://app?vid=a8578aef-174a-4551-b980-0d7525eec888","ios":"levelo://app?vid=a8578aef-174a-4551-b980-0d7525eec888"},"vehicle_type_id":"4","last_reported":1749730863,"current_range_meters":18800,"station_id":"ce4bhjp2rcd13ifvqg90","pricing_plan_id":"cebpf4jnsgd1na2vs0mg"},{"bike_id":"97f9a1ce-c251-4e55-af2e-0cbca4a800a7","system_id":"levelo_inurba_marseille","lat":43.23148,"lon":5.43697,"is_reserved":false,"is_disabled":false,"rental_uris":{"android":"levelo://app?vid=97f9a1ce-c251-4e55-af2e-0cbca4a800a7","ios":"levelo://app?vid=97f9a1ce-c251-4e55-af2e-0cbca4a800a7"},"vehicle_type_id":"4","last_reported":1749730863,"current_range_meters":18800,"station_id":"ce4bhmp2rcd13ifvqgog","pricing_plan_id":"cebpf4jnsgd1na2vs0mg"},{"bike_id":"09f63c8a-a282-4cbe-8836-96dd728b16fa","system_id":"levelo_inurba_marseille","lat":43.24188,"lon":5.39766,"is_reserved":false,"is_disabled":false,"rental_uris":{"android":"levelo://app?vid=09f63c8a-a282-4cbe-8836-96dd728b16fa","ios":"levelo://app?vid=09f63c8a-a282-4cbe-8836-96dd728b16fa"},"vehicle_type_id":"4","last_reported":1749730863,"current_range_meters":18800,"station_id":"ce4bhn12rcd13ifvqgpg","pricing_plan_id":"cebpf4jnsgd1na2vs0mg"},{"bike_id":"326cc913-bdbc-48c2-9a88-414846f09512","system_id":"levelo_inurba_marseille","lat":43.32367,"lon":5.36758,"is_reserved":false,"is_disabled":false,"rental_uris":{"android":"levelo://app?vid=326cc913-bdbc-48c2-9a88-414846f09512","ios":"levelo://app?vid=326cc913-bdbc-48c2-9a88-414846f09512"},"vehicle_type_id":"4","last_reported":1749730863,"current_range_meters":18800,"station_id":"ce4bhsh2rcd13ifvqi2g","pricing_plan_id":"cebpf4jnsgd1na2vs0mg"},{"bike_id":"ef8f2924-50e0-41af-91d5-338d180db502","system_id":"levelo_inurba_marseille","lat":43.21751,"lon":5.34607,"is_reserved":false,"is_disabled":false,"rental_uris":{"android":"levelo://app?vid=ef8f2924-50e0-41af-91d5-338d180db502","ios":"levelo://app?vid=ef8f2924-50e0-41af-91d5-338d180db502"},"vehicle_type_id":"4","last_reported":1749730863,"current_range_meters":18800,"station_id":"st_cvj6r9ubvosntc0bgbag","pricing_plan_id":"cebpf4jnsgd1na2vs0mg"},{"bike_id":"075c05ec-b3c9-44c3-b57f-1083abf2ca61","system_id":"levelo_inurba_marseille","lat":43.27127,"lon":5.4262,"is_reserved":false,"is_disabled":false,"rental_uris":{"android":"levelo://app?vid=075c05ec-b3c9-44c3-b57f-1083abf2ca61","ios":"levelo://app?vid=075c05ec-b3c9-44c3-b57f-1083abf2ca61"},"vehicle_type_id":"4","last_reported":1749730863,"current_range_meters":19200,"station_id":"","pricing_plan_id":"cebpf4jnsgd1na2vs0mg"},{"bike_id":"3d243e1c-a883-4bc3-9c15-b8da6e60785b","system_id":"levelo_inurba_marseille","lat":43.26859,"lon":5.42867,"is_reserved":false,"is_disabled":false,"rental_uris":{"android":"levelo://app?vid=3d243e1c-a883-4bc3-9c15-b8da6e60785b","ios":"levelo://app?vid=3d243e1c-a883-4bc3-9c15-b8da6e60785b"},"vehicle_type_id":"4","last_reported":1749730863,"current_range_meters":19200,"station_id":"","pricing_plan_id":"cebpf4jnsgd1na2vs0mg"},{"bike_id":"113d2198-6af0-4bf2-9b8b-31e698083d53","system_id":"levelo_inurba_marseille","lat":43.30518,"lon":5.36582,"is_reserved":false,"is_disabled":false,"rental_uris":{"android":"levelo://app?vid=113d2198-6af0-4bf2-9b8b-31e698083d53","ios":"levelo://app?vid=113d2198-6af0-4bf2-9b8b-31e698083d53"},"vehicle_type_id":"4","last_reported":1749730863,"current_range_meters":19200,"station_id":"ce4bgs12rcd13ifvqcag","pricing_plan_id":"cebpf4jnsgd1na2vs0mg"},{"bike_id":"14cd59ee-192b-4b1f-a678-28123bbca9e3","system_id":"levelo_inurba_marseille","lat":43.29532,"lon":5.39042,"is_reserved":false,"is_disabled":false,"rental_uris":{"android":"levelo://app?vid=14cd59ee-192b-4b1f-a678-28123bbca9e3","ios":"levelo://app?vid=14cd59ee-192b-4b1f-a678-28123bbca9e3"},"vehicle_type_id":"4","last_reported":1749730863,"current_range_meters":19200,"station_id":"ce4bh3p2rcd13ifvqdp0","pricing_plan_id":"cebpf4jnsgd1na2vs0mg"},{"bike_id":"c68ec70b-727b-4c65-b117-1720ac4d95fd","system_id":"levelo_inurba_marseille","lat":43.24653,"lon":5.38892,"is_reserved":false,"is_disabled":false,"rental_uris":{"android":"levelo://app?vid=c68ec70b-727b-4c65-b117-1720ac4d95fd","ios":"levelo://app?vid=c68ec70b-727b-4c65-b117-1720ac4d95fd"},"vehicle_type_id":"4","last_reported":1749730863,"current_range_meters":19200,"station_id":"ce4bhg12rcd13ifvqf60","pricing_plan_id":"cebpf4jnsgd1na2vs0mg"},{"bike_id":"d24a68e6-3659-42f7-b178-4c4093372fc7","system_id":"levelo_inurba_marseille","lat":43.25718,"lon":5.41112,"is_reserved":false,"is_disabled":false,"rental_uris":{"android":"levelo://app?vid=d24a68e6-3659-42f7-b178-4c4093372fc7","ios":"levelo://app?vid=d24a68e6-3659-42f7-b178-4c4093372fc7"},"vehicle_type_id":"4","last_reported":1749730863,"current_range_meters":19200,"station_id":"ce4bhkp2rcd13ifvqgd0","pricing_plan_id":"cebpf4jnsgd1na2vs0mg"},{"bike_id":"34595850-f982-42b7-a8fa-5129353459d0","system_id":"levelo_inurba_marseille","lat":43.24164,"lon":5.36405,"is_reserved":false,"is_disabled":false,"rental_uris":{"android":"levelo://app?vid=34595850-f982-42b7-a8fa-5129353459d0","ios":"levelo://app?vid=34595850-f982-42b7-a8fa-5129353459d0"},"vehicle_type_id":"4","last_reported":1749730863,"current_range_meters":19200,"station_id":"cpo36qri1sfpv3e86is0","pricing_plan_id":"cebpf4jnsgd1na2vs0mg"},{"bike_id":"4a5e5322-1ec3-4365-83b9-cece4c20f53c","system_id":"levelo_inurba_marseille","lat":43.29582,"lon":5.36747,"is_reserved":false,"is_disabled":false,"rental_uris":{"android":"levelo://app?vid=4a5e5322-1ec3-4365-83b9-cece4c20f53c","ios":"levelo://app?vid=4a5e5322-1ec3-4365-83b9-cece4c20f53c"},"vehicle_type_id":"4","last_reported":1749730863,"current_range_meters":19600,"station_id":"ce4bgph2rcd13ifvqc2g","pricing_plan_id":"cebpf4jnsgd1na2vs0mg"},{"bike_id":"4c725a15-4a8c-4f29-9761-7302786f7b4f","system_id":"levelo_inurba_marseille","lat":43.3033,"lon":5.40435,"is_reserved":false,"is_disabled":false,"rental_uris":{"android":"levelo://app?vid=4c725a15-4a8c-4f29-9761-7302786f7b4f","ios":"levelo://app?vid=4c725a15-4a8c-4f29-9761-7302786f7b4f"},"vehicle_type_id":"4","last_reported":1749730863,"current_range_meters":19600,"station_id":"ce4bh012rcd13ifvqd10","pricing_plan_id":"cebpf4jnsgd1na2vs0mg"},{"bike_id":"2b0a5aeb-f3b6-4b29-9bde-f10c231d1b3e","system_id":"levelo_inurba_marseille","lat":43.27571,"lon":5.38407,"is_reserved":false,"is_disabled":false,"rental_uris":{"android":"levelo://app?vid=2b0a5aeb-f3b6-4b29-9bde-f10c231d1b3e","ios":"levelo://app?vid=2b0a5aeb-f3b6-4b29-9bde-f10c231d1b3e"},"vehicle_type_id":"4","last_reported":1749730863,"current_range_meters":19600,"station_id":"ce4bhh92rcd13ifvqfi0","pricing_plan_id":"cebpf4jnsgd1na2vs0mg"},{"bike_id":"53865f51-2fae-4c43-9321-3a6c38c18cb3","system_id":"levelo_inurba_marseille","lat":43.27839,"lon":5.39218,"is_reserved":false,"is_disabled":false,"rental_uris":{"android":"levelo://app?vid=53865f51-2fae-4c43-9321-3a6c38c18cb3","ios":"levelo://app?vid=53865f51-2fae-4c43-9321-3a6c38c18cb3"},"vehicle_type_id":"4","last_reported":1749730863,"current_range_meters":19600,"station_id":"ce4bhjp2rcd13ifvqga0","pricing_plan_id":"cebpf4jnsgd1na2vs0mg"},{"bike_id":"4775dbc1-7336-4a07-af80-61c6f78a1a3c","system_id":"levelo_inurba_marseille","lat":43.22932,"lon":5.35374,"is_reserved":false,"is_disabled":false,"rental_uris":{"android":"levelo://app?vid=4775dbc1-7336-4a07-af80-61c6f78a1a3c","ios":"levelo://app?vid=4775dbc1-7336-4a07-af80-61c6f78a1a3c"},"vehicle_type_id":"4","last_reported":1749730863,"current_range_meters":19600,"station_id":"cpo3532slgdg3j2ikp40","pricing_plan_id":"cebpf4jnsgd1na2vs0mg"},{"bike_id":"7b3deb20-fb12-48f7-9361-8ca1b7d1e644","system_id":"levelo_inurba_marseille","lat":43.28853,"lon":5.39319,"is_reserved":false,"is_disabled":false,"rental_uris":{"android":"levelo://app?vid=7b3deb20-fb12-48f7-9361-8ca1b7d1e644","ios":"levelo://app?vid=7b3deb20-fb12-48f7-9361-8ca1b7d1e644"},"vehicle_type_id":"4","last_reported":1749730863,"current_range_meters":20000,"station_id":"ce4bh2p2rcd13ifvqdi0","pricing_plan_id":"cebpf4jnsgd1na2vs0mg"},{"bike_id":"f72536cf-7870-487b-9acd-a79c696a9b7a","system_id":"levelo_inurba_marseille","lat":43.27578,"lon":5.384144,"is_reserved":false,"is_disabled":false,"rental_uris":{"android":"levelo://app?vid=f72536cf-7870-487b-9acd-a79c696a9b7a","ios":"levelo://app?vid=f72536cf-7870-487b-9acd-a79c696a9b7a"},"vehicle_type_id":"4","last_reported":1749730863,"current_range_meters":20000,"station_id":"ce4bhh92rcd13ifvqfi0","pricing_plan_id":"cebpf4jnsgd1na2vs0mg"},{"bike_id":"733b5fcf-ae4d-4fe5-b6dc-8818c95bfa80","system_id":"levelo_inurba_marseille","lat":43.27826,"lon":5.39204,"is_reserved":false,"is_disabled":false,"rental_uris":{"android":"levelo://app?vid=733b5fcf-ae4d-4fe5-b6dc-8818c95bfa80","ios":"levelo://app?vid=733b5fcf-ae4d-4fe5-b6dc-8818c95bfa80"},"vehicle_type_id":"4","last_reported":1749730863,"current_range_meters":20000,"station_id":"ce4bhjp2rcd13ifvqga0","pricing_plan_id":"cebpf4jnsgd1na2vs0mg"},{"bike_id":"ebde0757-a94a-4915-8c86-60ad7ee049c4","system_id":"levelo_inurba_marseille","lat":43.23189,"lon":5.35561,"is_reserved":false,"is_disabled":false,"rental_uris":{"android":"levelo://app?vid=ebde0757-a94a-4915-8c86-60ad7ee049c4","ios":"levelo://app?vid=ebde0757-a94a-4915-8c86-60ad7ee049c4"},"vehicle_type_id":"4","last_reported":1749730863,"current_range_meters":20000,"station_id":"ce4bhu92rcd13ifvqi70","pricing_plan_id":"cebpf4jnsgd1na2vs0mg"},{"bike_id":"e0806586-bd10-43e8-af77-c0a205908295","system_id":"levelo_inurba_marseille","lat":43.21754,"lon":5.346,"is_reserved":false,"is_disabled":false,"rental_uris":{"android":"levelo://app?vid=e0806586-bd10-43e8-af77-c0a205908295","ios":"levelo://app?vid=e0806586-bd10-43e8-af77-c0a205908295"},"vehicle_type_id":"4","last_reported":1749730863,"current_range_meters":20000,"station_id":"st_cvj6r9ubvosntc0bgbag","pricing_plan_id":"cebpf4jnsgd1na2vs0mg"},{"bike_id":"f18a0601-1dad-46f4-a79d-606dc3308886","system_id":"levelo_inurba_marseille","lat":43.21751,"lon":5.34613,"is_reserved":false,"is_disabled":false,"rental_uris":{"android":"levelo://app?vid=f18a0601-1dad-46f4-a79d-606dc3308886","ios":"levelo://app?vid=f18a0601-1dad-46f4-a79d-606dc3308886"},"vehicle_type_id":"4","last_reported":1749730863,"current_range_meters":20000,"station_id":"st_cvj6r9ubvosntc0bgbag","pricing_plan_id":"cebpf4jnsgd1na2vs0mg"},{"bike_id":"2d9eb491-ef60-4c87-8fa5-c0a977f848da","system_id":"levelo_inurba_marseille","lat":43.211989,"lon":5.350719,"is_reserved":false,"is_disabled":false,"rental_uris":{"android":"levelo://app?vid=2d9eb491-ef60-4c87-8fa5-c0a977f848da","ios":"levelo://app?vid=2d9eb491-ef60-4c87-8fa5-c0a977f848da"},"vehicle_type_id":"4","last_reported":1749730863,"current_range_meters":20000,"station_id":"st_cvj6sg6p6f1abm77japg","pricing_plan_id":"cebpf4jnsgd1na2vs0mg"},