{"last_updated":1719155203,"ttl":30,"version":"2.2","data":{"bikes":[{"bike_id":"81269665-b10d-43b4-985e-86ef92b9ce3b","system_id":"levelo_inurba_marseille","lat":43.31341,"lon":5.367098,"is_reserved":false,"is_disabled":false,"rental_uris":{"android":"levelo://app?vid=81269665-b10d-43b4-985e-86ef92b9ce3b","ios":"levelo://app?vid=81269665-b10d-43b4-985e-86ef92b9ce3b"},"vehicle_type_id":"4","last_reported":1719155203,"current_range_meters":13600,"station_id":"ce4bgr92rcd13ifvqc6g","pricing_plan_id":"cebpf4jnsgd1na2vs0mg"},{"bike_id":"3e6229a9-daa1-4e8e-b7ec-60b28f97252f","system_id":"levelo_inurba_marseille","lat":43.314527,"lon":5.373629,"is_reserved":false,"is_disabled":false,"rental_uris":{"android":"levelo://app?vid=3e6229a9-daa1-4e8e-b7ec-60b28f97252f","ios":"levelo://app?vid=3e6229a9-daa1-4e8e-b7ec-60b28f97252f"},"vehicle_type_id":"4","last_reported":1719155203,"current_range_meters":800,"station_id":"","pricing_plan_id":"cebpf4jnsgd1na2vs0mg"},{"bike_id":"d7c21ce2-a776-470c-b443-51e8cb8311e6","system_id":"levelo_inurba_marseille","lat":43.31463,"lon":5.37359,"is_reserved":false,"is_disabled":false,"rental_uris":{"android":"levelo://app?vid=d7c21ce2-a776-470c-b443-51e8cb8311e6","ios":"levelo://app?vid=d7c21ce2-a776-470c-b443-51e8cb8311e6"},"vehicle_type_id":"4","last_reported":1719155203,"current_range_meters":10800,"station_id":"","pricing_plan_id":"cebpf4jnsgd1na2vs0mg"},{"bike_id":"20f31c62-307b-4c16-93b6-6fcc5accd677","system_id":"levelo_inurba_marseille","lat":43.31458,"lon":5.373641,"is_reserved":false,"is_disabled":false,"rental_uris":{"android":"levelo://app?vid=20f31c62-307b-4c16-93b6-6fcc5accd677","ios":"levelo://app?vid=20f31c62-307b-4c16-93b6-6fcc5accd677"},"vehicle_type_id":"4","last_reported":1719155203,"current_range_meters":12000,"station_id":"","pricing_plan_id":"cebpf4jnsgd1na2vs0mg"},{"bike_id":"24d509b5-ef37-465b-b8cc-6a71986a5c4f","system_id":"levelo_inurba_marseille","lat":43.314583,"lon":5.37373,"is_reserved":false,"is_disabled":false,"rental_uris":{"android":"levelo://app?vid=24d509b5-ef37-465b-b8cc-6a71986a5c4f","ios":"levelo://app?vid=24d509b5-ef37-465b-b8cc-6a71986a5c4f"},"vehicle_type_id":"4","last_reported":1719155203,"current_range_meters":22400,"station_id":"","pricing_plan_id":"cebpf4jnsgd1na2vs0mg"},{"bike_id":"77460ccb-960a-4153-8783-e0a172f31a95","system_id":"levelo_inurba_marseille","lat":43.314588,"lon":5.373762,"is_reserved":false,"is_disabled":false,"rental_uris":{"android":"levelo://app?vid=77460ccb-960a-4153-8783-e0a172f31a95","ios":"levelo://app?vid=77460ccb-960a-4153-8783-e0a172f31a95"},"vehicle_type_id":"4","last_reported":1719155203,"current_range_meters":5200,"station_id":"","pricing_plan_id":"cebpf4jnsgd1na2vs0mg"},{"bike_id":"eaf719a6-d7ad-4e6d-afa7-918948e28723","system_id":"levelo_inurba_marseille","lat":43.30558,"lon":5.36546,"is_reserved":false,"is_disabled":false,"rental_uris":{"android":"levelo://app?vid=eaf719a6-d7ad-4e6d-afa7-918948e28723","ios":"levelo://app?vid=eaf719a6-d7ad-4e6d-afa7-918948e28723"},"vehicle_type_id":"4","last_reported":1719155203,"current_range_meters":0,"station_id":"ce4bgs12rcd13ifvqcag","pricing_plan_id":"cebpf4jnsgd1na2vs0mg"},{"bike_id":"8f46ed77-f9c0-4748-87fa-987abfb54d8c","system_id":"levelo_inurba_marseille","lat":43.305714,"lon":5.365633,"is_reserved":false,"is_disabled":false,"rental_uris":{"android":"levelo://app?vid=8f46ed77-f9c0-4748-87fa-987abfb54d8c","ios":"levelo://app?vid=8f46ed77-f9c0-4748-87fa-987abfb54d8c"},"vehicle_type_id":"4","last_reported":1719155203,"current_range_meters":5600,"station_id":"ce4bgs12rcd13ifvqcag","pricing_plan_id":"cebpf4jnsgd1na2vs0mg"},{"bike_id":"a43e7e1e-e283-47ba-bb74-77104a25b45c","system_id":"levelo_inurba_marseille","lat":43.30532,"lon":5.36661,"is_reserved":false,"is_disabled":false,"rental_uris":{"android":"levelo://app?vid=a43e7e1e-e283-47ba-bb74-77104a25b45c","ios":"levelo://app?vid=a43e7e1e-e283-47ba-bb74-77104a25b45c"},"vehicle_type_id":"4","last_reported":1719155203,"current_range_meters":18000,"station_id":"","pricing_plan_id":"cebpf4jnsgd1na2vs0mg"},{"bike_id":"13fa6b70-59f0-4848-ade0-023012d3d6b4","system_id":"levelo_inurba_marseille","lat":43.311125,"lon":5.377624,"is_reserved":false,"is_disabled":false,"rental_uris":{"android":"levelo://app?vid=13fa6b70-59f0-4848-ade0-023012d3d6b4","ios":"levelo://app?vid=13fa6b70-59f0-4848-ade0-023012d3d6b4"},"vehicle_type_id":"4","last_reported":1719155203,"current_range_meters":15200,"station_id":"ce4bgt92rcd13ifvqcg0","pricing_plan_id":"cebpf4jnsgd1na2vs0mg"},{"bike_id":"e71c3abb-b2c8-47be-8a90-613fa00b250d","system_id":"levelo_inurba_marseille","lat":43.31121,"lon":5.377736,"is_reserved":false,"is_disabled":false,"rental_uris":{"android":"levelo://app?vid=e71c3abb-b2c8-47be-8a90-613fa00b250d","ios":"levelo://app?vid=e71c3abb-b2c8-47be-8a90-613fa00b250d"},"vehicle_type_id":"4","last_reported":1719155203,"current_range_meters":0,"station_id":"ce4bgt92rcd13ifvqcg0","pricing_plan_id":"cebpf4jnsgd1na2vs0mg"},{"bike_id":"4e8a3766-cab8-490e-8363-3581d251f836","system_id":"levelo_inurba_marseille","lat":43.30405,"lon":5.3734,"is_reserved":false,"is_disabled":false,"rental_uris":{"android":"levelo://app?vid=4e8a3766-cab8-490e-8363-3581d251f836","ios":"levelo://app?vid=4e8a3766-cab8-490e-8363-3581d251f836"},"vehicle_type_id":"4","last_reported":1719155203,"current_range_meters":26000,"station_id":"","pricing_plan_id":"cebpf4jnsgd1na2vs0mg"},{"bike_id":"8ce1e43f-5e25-45e7-a996-6a2027caca55","system_id":"levelo_inurba_marseille","lat":43.315289,"lon":5.380349,"is_reserved":false,"is_disabled":false,"rental_uris":{"android":"levelo://app?vid=8ce1e43f-5e25-45e7-a996-6a2027caca55","ios":"levelo://app?vid=8ce1e43f-5e25-45e7-a996-6a2027caca55"},"vehicle_type_id":"4","last_reported":1719155203,"current_range_meters":1600,"station_id":"ce4bhsp2rcd13ifvqi50","pricing_plan_id":"cebpf4jnsgd1na2vs0mg"},{"bike_id":"1752e8b2-9b3b-4c77-b166-b537876db2bd","system_id":"levelo_inurba_marseille","lat":43.31526,"lon":5.380387,"is_reserved":false,"is_disabled":false,"rental_uris":{"android":"levelo://app?vid=1752e8b2-9b3b-4c77-b166-b537876db2bd","ios":"levelo://app?vid=1752e8b2-9b3b-4c77-b166-b537876db2bd"},"vehicle_type_id":"4","last_reported":1719155203,"current_range_meters":0,"station_id":"ce4bhsp2rcd13ifvqi50","pricing_plan_id":"cebpf4jnsgd1na2vs0mg"},{"bike_id":"1bc920c8-8b89-437c-9cde-5783116c5366","system_id":"levelo_inurba_marseille","lat":43.315293,"lon":5.380349,"is_reserved":false,"is_disabled":false,"rental_uris":{"android":"levelo://app?vid=1bc920c8-8b89-437c-9cde-5783116c5366","ios":"levelo://app?vid=1bc920c8-8b89-437c-9cde-5783116c5366"},"vehicle_type_id":"4","last_reported":1719155203,"current_range_meters":2000,"station_id":"ce4bhsp2rcd13ifvqi50","pricing_plan_id":"cebpf4jnsgd1na2vs0mg"},{"bike_id":"1aa9382d-bd55-4aff-8971-b23615fccdae","system_id":"levelo_inurba_marseille","lat":43.311,"lon":5.38145,"is_reserved":false,"is_disabled":false,"rental_uris":{"android":"levelo://app?vid=1aa9382d-bd55-4aff-8971-b23615fccdae","ios":"levelo://app?vid=1aa9382d-bd55-4aff-8971-b23615fccdae"},"vehicle_type_id":"4","last_reported":1719155203,"current_range_meters":1600,"station_id":"","pricing_plan_id":"cebpf4jnsgd1na2vs0mg"},{"bike_id":"c8d74784-cfa3-4dc0-a55e-c53d6b6b7590","system_id":"levelo_inurba_marseille","lat":43.31322,"lon":5.38197,"is_reserved":false,"is_disabled":false,"rental_uris":{"android":"levelo://app?vid=c8d74784-cfa3-4dc0-a55e-c53d6b6b7590","ios":"levelo://app?vid=c8d74784-cfa3-4dc0-a55e-c53d6b6b7590"},"vehicle_type_id":"4","last_reported":1719155203,"current_range_meters":18800,"station_id":"","pricing_plan_id":"cebpf4jnsgd1na2vs0mg"},{"bike_id":"bd49cbac-7555-44eb-9387-6ece5b2891dc","system_id":"levelo_inurba_marseille","lat":43.308012,"lon":5.381511,"is_reserved":false,"is_disabled":false,"rental_uris":{"android":"levelo://app?vid=bd49cbac-7555-44eb-9387-6ece5b2891dc","ios":"levelo://app?vid=bd49cbac-7555-44eb-9387-6ece5b2891dc"},"vehicle_type_id":"4","last_reported":1719155203,"current_range_meters":16000,"station_id":"ce4bgt12rcd13ifvqce0","pricing_plan_id":"cebpf4jnsgd1na2vs0mg"},{"bike_id":"6bbee00a-94cd-4f04-85b3-0dcc0a3bcd93","system_id":"levelo_inurba_marseille","lat":43.304606,"lon":5.379026,"is_reserved":false,"is_disabled":false,"rental_uris":{"android":"levelo://app?vid=6bbee00a-94cd-4f04-85b3-0dcc0a3bcd93","ios":"levelo://app?vid=6bbee00a-94cd-4f04-85b3-0dcc0a3bcd93"},"vehicle_type_id":"4","last_reported":1719155203,"current_range_meters":2400,"station_id":"ce4bgup2rcd13ifvqcn0","pricing_plan_id":"cebpf4jnsgd1na2vs0mg"},{"bike_id":"eb774c6e-a355-4740-b2d7-7f4d3650d9ff","system_id":"levelo_inurba_marseille","lat":43.304606,"lon":5.379026,"is_reserved":false,"is_disabled":false,"rental_uris":{"android":"levelo://app?vid=eb774c6e-a355-4740-b2d7-7f4d3650d9ff","ios":"levelo://app?vid=eb774c6e-a355-4740-b2d7-7f4d3650d9ff"},"vehicle_type_id":"4","last_reported":1719155203,"current_range_meters":800,"station_id":"ce4bgup2rcd13ifvqcn0","pricing_plan_id":"cebpf4jnsgd1na2vs0mg"},{"bike_id":"41f9ab69-2016-46e5-aa90-3666b062e79d","system_id":"levelo_inurba_marseille","lat":43.302784,"lon":5.377158,"is_reserved":false,"is_disabled":false,"rental_uris":{"android":"levelo://app?vid=41f9ab69-2016-46e5-aa90-3666b062e79d","ios":"levelo://app?vid=41f9ab69-2016-46e5-aa90-3666b062e79d"},"vehicle_type_id":"4","last_reported":1719155203,"current_range_meters":2400,"station_id":"ce4bguh2rcd13ifvqcj0","pricing_plan_id":"cebpf4jnsgd1na2vs0mg"},{"bike_id":"06575b70-0169-45c4-81dc-76a3b4ce5331","system_id":"levelo_inurba_marseille","lat":43.302784,"lon":5.377158,"is_reserved":false,"is_disabled":false,"rental_uris":{"android":"levelo://app?vid=06575b70-0169-45c4-81dc-76a3b4ce5331","ios":"levelo://app?vid=06575b70-0169-45c4-81dc-76a3b4ce5331"},"vehicle_type_id":"4","last_reported":1719155203,"current_range_meters":1600,"station_id":"ce4bguh2rcd13ifvqcj0","pricing_plan_id":"cebpf4jnsgd1na2vs0mg"},{"bike_id":"a6f8d2b7-c35c-4cfe-b10f-caf67b72e477","system_id":"levelo_inurba_marseille","lat":43.301429,"lon":5.37413,"is_reserved":false,"is_disabled":false,"rental_uris":{"android":"levelo://app?vid=a6f8d2b7-c35c-4cfe-b10f-caf67b72e477","ios":"levelo://app?vid=a6f8d2b7-c35c-4cfe-b10f-caf67b72e477"},"vehicle_type_id":"4","last_reported":1719155203,"current_range_meters":15200,"station_id":"ce4bgs92rcd13ifvqcc0","pricing_plan_id":"cebpf4jnsgd1na2vs0mg"},{"bike_id":"83adc229-8989-45ff-b0db-de0ff5abd8f8","system_id":"levelo_inurba_marseille","lat":43.302784,"lon":5.377158,"is_reserved":false,"is_disabled":false,"rental_uris":{"android":"levelo://app?vid=83adc229-8989-45ff-b0db-de0ff5abd8f8","ios":"levelo://app?vid=83adc229-8989-45ff-b0db-de0ff5abd8f8"},"vehicle_type_id":"4","last_reported":1719155203,"current_range_meters":400,"station_id":"ce4bguh2rcd13ifvqcj0","pricing_plan_id":"cebpf4jnsgd1na2vs0mg"},{"bike_id":"5c4ee6e6-0ea4-4b14-9a0a-ead114f2af8a","system_id":"levelo_inurba_marseille","lat":43.299222,"lon":5.365554,"is_reserved":false,"is_disabled":false,"rental_uris":{"android":"levelo://app?vid=5c4ee6e6-0ea4-4b14-9a0a-ead114f2af8a","ios":"levelo://app?vid=5c4ee6e6-0ea4-4b14-9a0a-ead114f2af8a"},"vehicle_type_id":"4","last_reported":1719155203,"current_range_meters":7200,"station_id":"ce4bgm92rcd13ifvqbr0","pricing_plan_id":"cebpf4jnsgd1na2vs0mg"},{"bike_id":"78b222d7-d900-4609-af09-fcba142c89e9","system_id":"levelo_inurba_marseille","lat":43.299222,"lon":5.365554,"is_reserved":false,"is_disabled":false,"rental_uris":{"android":"levelo://app?vid=78b222d7-d900-4609-af09-fcba142c89e9","ios":"levelo://app?vid=78b222d7-d900-4609-af09-fcba142c89e9"},"vehicle_type_id":"4","last_reported":1719155203,"current_range_meters":31200,"station_id":"ce4bgm92rcd13ifvqbr0","pricing_plan_id":"cebpf4jnsgd1na2vs0mg"},{"bike_id":"b7110e23-0a32-416e-9d7e-0aaf2556c733","system_id":"levelo_inurba_marseille","lat":43.298433,"lon":5.362774,"is_reserved":false,"is_disabled":false,"rental_uris":{"android":"levelo://app?vid=b7110e23-0a32-416e-9d7e-0aaf2556c733","ios":"levelo://app?vid=b7110e23-0a32-416e-9d7e-0aaf2556c733"},"vehicle_type_id":"4","last_reported":1719155203,"current_range_meters":19200,"station_id":"ce4bgpp2rcd13ifvqc3g","pricing_plan_id":"cebpf4jnsgd1na2vs0mg"},{"bike_id":"5cd721aa-8506-4d96-89bb-16c55dff26c8","system_id":"levelo_inurba_marseille","lat":43.311722,"lon":5.387247,"is_reserved":false,"is_disabled":false,"rental_uris":{"android":"levelo://app?vid=5cd721aa-8506-4d96-89bb-16c55dff26c8","ios":"levelo://app?vid=5cd721aa-8506-4d96-89bb-16c55dff26c8"},"vehicle_type_id":"4","last_reported":1719155203,"current_range_meters":26000,"station_id":"ce4bgv12rcd13ifvqcp0","pricing_plan_id":"cebpf4jnsgd1na2vs0mg"},{"bike_id":"9c6945ca-1d42-4add-80e6-3d1cd2e6be89","system_id":"levelo_inurba_marseille","lat":43.322872,"lon":5.382756,"is_reserved":false,"is_disabled":false,"rental_uris":{"android":"levelo://app?vid=9c6945ca-1d42-4add-80e6-3d1cd2e6be89","ios":"levelo://app?vid=9c6945ca-1d42-4add-80e6-3d1cd2e6be89"},"vehicle_type_id":"4","last_reported":1719155203,"current_range_meters":5600,"station_id":"ce4bhr12rcd13ifvqhqg","pricing_plan_id":"cebpf4jnsgd1na2vs0mg"},{"bike_id":"47d8b23c-4c93-414b-a0d6-0712a6743209","system_id":"levelo_inurba_marseille","lat":43.322872,"lon":5.382756,"is_reserved":false,"is_disabled":false,"rental_uris":{"android":"levelo://app?vid=47d8b23c-4c93-414b-a0d6-0712a6743209","ios":"levelo://app?vid=47d8b23c-4c93-414b-a0d6-0712a6743209"},"vehicle_type_id":"4","last_reported":1719155203,"current_range_meters":7200,"station_id":"ce4bhr12rcd13ifvqhqg","pricing_plan_id":"cebpf4jnsgd1na2vs0mg"},{"bike_id":"61c6c940-a71f-4b0d-aa9d-1e785555e8b7","system_id":"levelo_inurba_marseille","lat":43.297794,"lon":5.370888,"is_reserved":false,"is_disabled":false,"rental_uris":{"android":"levelo://app?vid=61c6c940-a71f-4b0d-aa9d-1e785555e8b7","ios":"levelo://app?vid=61c6c940-a71f-4b0d-aa9d-1e785555e8b7"},"vehicle_type_id":"4","last_reported":1719155203,"current_range_meters":14400,"station_id":"ce4bgop2rcd13ifvqc1g","pricing_plan_id":"cebpf4jnsgd1na2vs0mg"},{"bike_id":"4aba6f14-868b-46d1-9dae-c655a7457a26","system_id":"levelo_inurba_marseille","lat":43.322872,"lon":5.382756,"is_reserved":false,"is_disabled":false,"rental_uris":{"android":"levelo://app?vid=4aba6f14-868b-46d1-9dae-c655a7457a26","ios":"levelo://app?vid=4aba6f14-868b-46d1-9dae-c655a7457a26"},"vehicle_type_id":"4","last_reported":1719155203,"current_range_meters":32000,"station_id":"ce4bhr12rcd13ifvqhqg","pricing_plan_id":"cebpf4jnsgd1na2vs0mg"},{"bike_id":"f0a4d3f7-4b49-4d6c-82d3-639d3471fdb9","system_id":"levelo_inurba_marseille","lat":43.297163,"lon":5.365866,"is_reserved":false,"is_disabled":false,"rental_uris":{"android":"levelo://app?vid=f0a4d3f7-4b49-4d6c-82d3-639d3471fdb9","ios":"levelo://app?vid=f0a4d3f7-4b49-4d6c-82d3-639d3471fdb9"},"vehicle_type_id":"4","last_reported":1719155203,"current_range_meters":4400,"station_id":"ce4bgn12rcd13ifvqbt0","pricing_plan_id":"cebpf4jnsgd1na2vs0mg"},{"bike_id":"f150b6b6-fb27-4bd2-a9df-6635cdbe7332","system_id":"levelo_inurba_marseille","lat":43.296962,"lon":5.365897,"is_reserved":false,"is_disabled":false,"rental_uris":{"android":"levelo://app?vid=f150b6b6-fb27-4bd2-a9df-6635cdbe7332","ios":"levelo://app?vid=f150b6b6-fb27-4bd2-a9df-6635cdbe7332"},"vehicle_type_id":"4","last_reported":1719155203,"current_range_meters":22000,"station_id":"ce4bgn12rcd13ifvqbt0","pricing_plan_id":"cebpf4jnsgd1na2vs0mg"},{"bike_id":"adc4fc9b-0951-499d-9a40-1467dde958a6","system_id":"levelo_inurba_marseille","lat":43.296131,"lon":5.370791,"is_reserved":false,"is_disabled":false,"rental_uris":{"android":"levelo://app?vid=adc4fc9b-0951-499d-9a40-1467dde958a6","ios":"levelo://app?vid=adc4fc9b-0951-499d-9a40-1467dde958a6"},"vehicle_type_id":"4","last_reported":1719155203,"current_range_meters":27600,"station_id":"ce4bgnh2rcd13ifvqc0g","pricing_plan_id":"cebpf4jnsgd1na2vs0mg"},{"bike_id":"792ba260-df74-41ea-8264-338b975fa44d","system_id":"levelo_inurba_marseille","lat":43.31754,"lon":5.39023,"is_reserved":false,"is_disabled":false,"rental_uris":{"android":"levelo://app?vid=792ba260-df74-41ea-8264-338b975fa44d","ios":"levelo://app?vid=792ba260-df74-41ea-8264-338b975fa44d"},"vehicle_type_id":"4","last_reported":1719155203,"current_range_meters":19200,"station_id":"ce4bhqp2rcd13ifvqhng","pricing_plan_id":"cebpf4jnsgd1na2vs0mg"},{"bike_id":"410edfb9-720a-443f-9863-43c4bfdbc817","system_id":"levelo_inurba_marseille","lat":43.295748,"lon":5.37522,"is_reserved":false,"is_disabled":false,"rental_uris":{"android":"levelo://app?vid=410edfb9-720a-443f-9863-43c4bfdbc817","ios":"levelo://app?vid=410edfb9-720a-443f-9863-43c4bfdbc817"},"vehicle_type_id":"4","last_reported":1719155203,"current_range_meters":22000,"station_id":"ce4bgh92rcd13ifvqb50","pricing_plan_id":"cebpf4jnsgd1na2vs0mg"},{"bike_id":"8e332538-f829-4378-97ad-3af42481c45e","system_id":"levelo_inurba_marseille","lat":43.295697,"lon":5.375073,"is_reserved":false,"is_disabled":false,"rental_uris":{"android":"levelo://app?vid=8e332538-f829-4378-97ad-3af42481c45e","ios":"levelo://app?vid=8e332538-f829-4378-97ad-3af42481c45e"},"vehicle_type_id":"4","last_reported":1719155203,"current_range_meters":24000,"station_id":"ce4bgh92rcd13ifvqb50","pricing_plan_id":"cebpf4jnsgd1na2vs0mg"},{"bike_id":"7bc0fae7-ff83-40b7-b87d-c6deafe51571","system_id":"levelo_inurba_marseille","lat":43.295748,"lon":5.37522,"is_reserved":false,"is_disabled":false,"rental_uris":{"android":"levelo://app?vid=7bc0fae7-ff83-40b7-b87d-c6deafe51571","ios":"levelo://app?vid=7bc0fae7-ff83-40b7-b87d-c6deafe51571"},"vehicle_type_id":"4","last_reported":1719155203,"current_range_meters":0,"station_id":"ce4bgh92rcd13ifvqb50","pricing_plan_id":"cebpf4jnsgd1na2vs0mg"},{"bike_id":"0136d06e-34a6-46b8-86ca-60d5498cf6e8","system_id":"levelo_inurba_marseille","lat":43.299717,"lon":5.384845,"is_reserved":false,"is_disabled":false,"rental_uris":{"android":"levelo://app?vid=0136d06e-34a6-46b8-86ca-60d5498cf6e8","ios":"levelo://app?vid=0136d06e-34a6-46b8-86ca-60d5498cf6e8"},"vehicle_type_id":"4","last_reported":1719155203,"current_range_meters":0,"station_id":"ce4bgj92rcd13ifvqbd0","pricing_plan_id":"cebpf4jnsgd1na2vs0mg"},{"bike_id":"49376045-01ab-41de-8e6f-53786d34755b","system_id":"levelo_inurba_marseille","lat":43.32367,"lon":5.388836,"is_reserved":false,"is_disabled":false,"rental_uris":{"android":"levelo://app?vid=49376045-01ab-41de-8e6f-53786d34755b","ios":"levelo://app?vid=49376045-01ab-41de-8e6f-53786d34755b"},"vehicle_type_id":"4","last_reported":1719155203,"current_range_meters":0,"station_id":"ce4bhqp2rcd13ifvqhog","pricing_plan_id":"cebpf4jnsgd1na2vs0mg"},{"bike_id":"c19958da-6203-4653-b182-bbeef1c61d18","system_id":"levelo_inurba_marseille","lat":43.32367,"lon":5.388836,"is_reserved":false,"is_disabled":false,"rental_uris":{"android":"levelo://app?vid=c19958da-6203-4653-b182-bbeef1c61d18","ios":"levelo://app?vid=c19958da-6203-4653-b182-bbeef1c61d18"},"vehicle_type_id":"4","last_reported":1719155203,"current_range_meters":18000,"station_id":"ce4bhqp2rcd13ifvqhog","pricing_plan_id":"cebpf4jnsgd1na2vs0mg"},{"bike_id":"bc2dc140-3e54-4262-b4cd-bcebdaf804a9","system_id":"levelo_inurba_marseille","lat":43.29601,"lon":5.381084,"is_reserved":false,"is_disabled":false,"rental_uris":{"android":"levelo://app?vid=bc2dc140-3e54-4262-b4cd-bcebdaf804a9","ios":"levelo://app?vid=bc2dc140-3e54-4262-b4cd-bcebdaf804a9"},"vehicle_type_id":"4","last_reported":1719155203,"current_range_meters":25600,"station_id":"ce4bgl12rcd13ifvqbo0","pricing_plan_id":"cebpf4jnsgd1na2vs0mg"},{"bike_id":"60c37032-082f-47f3-8075-19309c31da67","system_id":"levelo_inurba_marseille","lat":43.293249,"lon":5.371578,"is_reserved":false,"is_disabled":false,"rental_uris":{"android":"levelo://app?vid=60c37032-082f-47f3-8075-19309c31da67","ios":"levelo://app?vid=60c37032-082f-47f3-8075-19309c31da67"},"vehicle_type_id":"4","last_reported":1719155203,"current_range_meters":0,"station_id":"ce4bgh92rcd13ifvqb40","pricing_plan_id":"cebpf4jnsgd1na2vs0mg"},{"bike_id":"4e80e02a-4523-485d-a592-57e555bff9d2","system_id":"levelo_inurba_marseille","lat":43.293249,"lon":5.371578,"is_reserved":false,"is_disabled":false,"rental_uris":{"android":"levelo://app?vid=4e80e02a-4523-485d-a592-57e555bff9d2","ios":"levelo://app?vid=4e80e02a-4523-485d-a592-57e555bff9d2"},"vehicle_type_id":"4","last_reported":1719155203,"current_range_meters":12800,"station_id":"ce4bgh92rcd13ifvqb40","pricing_plan_id":"cebpf4jnsgd1na2vs0mg"},{"bike_id":"f5182d67-4faa-490c-b06b-038f6709ce55","system_id":"levelo_inurba_marseille","lat":43.305994,"lon":5.393687,"is_reserved":false,"is_disabled":false,"rental_uris":{"android":"levelo://app?vid=f5182d67-4faa-490c-b06b-038f6709ce55","ios":"levelo://app?vid=f5182d67-4faa-490c-b06b-038f6709ce55"},"vehicle_type_id":"4","last_reported":1719155203,"current_range_meters":0,"station_id":"ce4bh0p2rcd13ifvqd80","pricing_plan_id":"cebpf4jnsgd1na2vs0mg"},{"bike_id":"1e6b7b8e-461e-434d-858f-12aac6334855","system_id":"levelo_inurba_marseille","lat":43.305994,"lon":5.393687,"is_reserved":false,"is_disabled":false,"rental_uris":{"android":"levelo://app?vid=1e6b7b8e-461e-434d-858f-12aac6334855","ios":"levelo://app?vid=1e6b7b8e-461e-434d-858f-12aac6334855"},"vehicle_type_id":"4","last_reported":1719155203,"current_range_meters":0,"station_id":"ce4bh0p2rcd13ifvqd80","pricing_plan_id":"cebpf4jnsgd1na2vs0mg"},{"bike_id":"0df2164b-103a-4cfa-85d9-a505d4dd5683","system_id":"levelo_inurba_marseille","lat":43.302992,"lon":5.392136,"is_reserved":false,"is_disabled":false,"rental_uris":{"android":"levelo://app?vid=0df2164b-103a-4cfa-85d9-a505d4dd5683","ios":"levelo://app?vid=0df2164b-103a-4cfa-85d9-a505d4dd5683"},"vehicle_type_id":"4","last_reported":1719155203,"current_range_meters":800,"station_id":"ce4bgkh2rcd13ifvqbk0","pricing_plan_id":"cebpf4jnsgd1na2vs0mg"},{"bike_id":"084154fd-7b92-4a8c-93c6-76cbb894a125","system_id":"levelo_inurba_marseille","lat":43.30085,"lon":5.390856,"is_reserved":false,"is_disabled":false,"rental_uris":{"android":"levelo://app?vid=084154fd-7b92-4a8c-93c6-76cbb894a125","ios":"levelo://app?vid=084154fd-7b92-4a8c-93c6-76cbb894a125"},"vehicle_type_id":"4","last_reported":1719155203,"current_range_meters":19200,"station_id":"ce4bh192rcd13ifvqdb0","pricing_plan_id":"cebpf4jnsgd1na2vs0mg"},{"bike_id":"736fe5f6-02f5-436e-8291-ddaccd7a8ae7","system_id":"levelo_inurba_marseille","lat":43.292311,"lon":5.360731,"is_reserved":false,"is_disabled":false,"rental_uris":{"android":"levelo://app?vid=736fe5f6-02f5-436e-8291-ddaccd7a8ae7","ios":"levelo://app?vid=736fe5f6-02f5-436e-8291-ddaccd7a8ae7"},"vehicle_type_id":"4","last_reported":1719155203,"current_range_meters":9600,"station_id":"ce4bhbh2rcd13ifvqeqg","pricing_plan_id":"cebpf4jnsgd1na2vs0mg"},{"bike_id":"84502095-eea9-4272-a785-9a0358d1af7b","system_id":"levelo_inurba_marseille","lat":43.29219,"lon":5.36052,"is_reserved":false,"is_disabled":false,"rental_uris":{"android":"levelo://app?vid=84502095-eea9-4272-a785-9a0358d1af7b","ios":"levelo://app?vid=84502095-eea9-4272-a785-9a0358d1af7b"},"vehicle_type_id":"4","last_reported":1719155203,"current_range_meters":0,"station_id":"ce4bhbh2rcd13ifvqeqg","pricing_plan_id":"cebpf4jnsgd1na2vs0mg"},{"bike_id":"299842b7-ab16-4c38-a5a4-f1c5cb45335d","system_id":"levelo_inurba_marseille","lat":43.29219,"lon":5.36048,"is_reserved":false,"is_disabled":false,"rental_uris":{"android":"levelo://app?vid=299842b7-ab16-4c38-a5a4-f1c5cb45335d","ios":"levelo://app?vid=299842b7-ab16-4c38-a5a4-f1c5cb45335d"},"vehicle_type_id":"4","last_reported":1719155203,"current_range_meters":0,"station_id":"ce4bhbh2rcd13ifvqeqg","pricing_plan_id":"cebpf4jnsgd1na2vs0mg"},{"bike_id":"454182c7-d66f-45bc-a8a8-890b23bb4b01","system_id":"levelo_inurba_marseille","lat":43.29353,"lon":5.3793,"is_reserved":false,"is_disabled":false,"rental_uris":{"android":"levelo://app?vid=454182c7-d66f-45bc-a8a8-890b23bb4b01","ios":"levelo://app?vid=454182c7-d66f-45bc-a8a8-890b23bb4b01"},"vehicle_type_id":"4","last_reported":1719155203,"current_range_meters":8000,"station_id":"","pricing_plan_id":"cebpf4jnsgd1na2vs0mg"},{"bike_id":"c57a6d01-2f98-4a3e-ae83-b07dd1bda990","system_id":"levelo_inurba_marseille","lat":43.291675,"lon":5.371583,"is_reserved":false,"is_disabled":false,"rental_uris":{"android":"levelo://app?vid=c57a6d01-2f98-4a3e-ae83-b07dd1bda990","ios":"levelo://app?vid=c57a6d01-2f98-4a3e-ae83-b07dd1bda990"},"vehicle_type_id":"4","last_reported":1719155203,"current_range_meters":2400,"station_id":"ce4bha92rcd13ifvqeh0","pricing_plan_id":"cebpf4jnsgd1na2vs0mg"},{"bike_id":"1a762e01-e598-458d-b02f-4ea24b8cb562","system_id":"levelo_inurba_marseille","lat":43.298764,"lon":5.388973,"is_reserved":false,"is_disabled":false,"rental_uris":{"android":"levelo://app?vid=1a762e01-e598-458d-b02f-4ea24b8cb562","ios":"levelo://app?vid=1a762e01-e598-458d-b02f-4ea24b8cb562"},"vehicle_type_id":"4","last_reported":1719155203,"current_range_meters":15600,"station_id":"ce4bh392rcd13ifvqdl0","pricing_plan_id":"cebpf4jnsgd1na2vs0mg"},{"bike_id":"7359bd22-652e-44e1-8462-4d01f4d9af80","system_id":"levelo_inurba_marseille","lat":43.298764,"lon":5.388973,"is_reserved":false,"is_disabled":false,"rental_uris":{"android":"levelo://app?vid=7359bd22-652e-44e1-8462-4d01f4d9af80","ios":"levelo://app?vid=7359bd22-652e-44e1-8462-4d01f4d9af80"},"vehicle_type_id":"4","last_reported":1719155203,"current_range_meters":400,"station_id":"ce4bh392rcd13ifvqdl0","pricing_plan_id":"cebpf4jnsgd1na2vs0mg"},{"bike_id":"ba061c2b-89b4-4f9f-b122-a6723ebc83da","system_id":"levelo_inurba_marseille","lat":43.298764,"lon":5.388973,"is_reserved":false,"is_disabled":false,"rental_uris":{"android":"levelo://app?vid=ba061c2b-89b4-4f9f-b122-a6723ebc83da","ios":"levelo://app?vid=ba061c2b-89b4-4f9f-b122-a6723ebc83da"},"vehicle_type_id":"4","last_reported":1719155203,"current_range_meters":0,"station_id":"ce4bh392rcd13ifvqdl0","pricing_plan_id":"cebpf4jnsgd1na2vs0mg"},{"bike_id":"b6a136b1-dc28-438f-bebe-60818c4e208d","system_id":"levelo_inurba_marseille","lat":43.292077,"lon":5.359123,"is_reserved":false,"is_disabled":false,"rental_uris":{"android":"levelo://app?vid=b6a136b1-dc28-438f-bebe-60818c4e208d","ios":"levelo://app?vid=b6a136b1-dc28-438f-bebe-60818c4e208d"},"vehicle_type_id":"4","last_reported":1719155203,"current_range_meters":0,"station_id":"","pricing_plan_id":"cebpf4jnsgd1na2vs0mg"},{"bike_id":"e9f8c0c0-ac3d-46e8-9470-e1799570f886","system_id":"levelo_inurba_marseille","lat":43.33227,"lon":5.38098,"is_reserved":false,"is_disabled":false,"rental_uris":{"android":"levelo://app?vid=e9f8c0c0-ac3d-46e8-9470-e1799570f886","ios":"levelo://app?vid=e9f8c0c0-ac3d-46e8-9470-e1799570f886"},"vehicle_type_id":"4","last_reported":1719155203,"current_range_meters":0,"station_id":"","pricing_plan_id":"cebpf4jnsgd1na2vs0mg"},{"bike_id":"90597689-318c-4843-8692-8ee2a67a89c5","system_id":"levelo_inurba_marseille","lat":43.302,"lon":5.39451,"is_reserved":false,"is_disabled":false,"rental_uris":{"android":"levelo://app?vid=90597689-318c-4843-8692-8ee2a67a89c5","ios":"levelo://app?vid=90597689-318c-4843-8692-8ee2a67a89c5"},"vehicle_type_id":"4","last_reported":1719155203,"current_range_meters":0,"station_id":"ce4bh0p2rcd13ifvqd70","pricing_plan_id":"cebpf4jnsgd1na2vs0mg"},{"bike_id":"ca4a2e81-c04c-46c8-b4c9-e157a00ac681","system_id":"levelo_inurba_marseille","lat":43.302008,"lon":5.394694,"is_reserved":false,"is_disabled":false,"rental_uris":{"android":"levelo://app?vid=ca4a2e81-c04c-46c8-b4c9-e157a00ac681","ios":"levelo://app?vid=ca4a2e81-c04c-46c8-b4c9-e157a00ac681"},"vehicle_type_id":"4","last_reported":1719155203,"current_range_meters":4000,"station_id":"ce4bh0p2rcd13ifvqd70","pricing_plan_id":"cebpf4jnsgd1na2vs0mg"},{"bike_id":"00743db1-dda3-4b5c-a6d6-52f7b4e1c883","system_id":"levelo_inurba_marseille","lat":43.290624,"lon":5.359245,"is_reserved":false,"is_disabled":false,"rental_uris":{"android":"levelo://app?vid=00743db1-dda3-4b5c-a6d6-52f7b4e1c883","ios":"levelo://app?vid=00743db1-dda3-4b5c-a6d6-52f7b4e1c883"},"vehicle_type_id":"4","last_reported":1719155203,"current_range_meters":29600,"station_id":"ce4bha92rcd13ifvqeg0","pricing_plan_id":"cebpf4jnsgd1na2vs0mg"},{"bike_id":"6c755cbd-bce3-41bb-aebd-12aecb4effc6","system_id":"levelo_inurba_marseille","lat":43.294153,"lon":5.386305,"is_reserved":false,"is_disabled":false,"rental_uris":{"android":"levelo://app?vid=6c755cbd-bce3-41bb-aebd-12aecb4effc6","ios":"levelo://app?vid=6c755cbd-bce3-41bb-aebd-12aecb4effc6"},"vehicle_type_id":"4","last_reported":1719155203,"current_range_meters":0,"station_id":"ce4bh2h2rcd13ifvqdh0","pricing_plan_id":"cebpf4jnsgd1na2vs0mg"},{"bike_id":"175ad1bc-5fc5-4e51-891d-4d341abbd68f","system_id":"levelo_inurba_marseille","lat":43.294153,"lon":5.386305,"is_reserved":false,"is_disabled":false,"rental_uris":{"android":"levelo://app?vid=175ad1bc-5fc5-4e51-891d-4d341abbd68f","ios":"levelo://app?vid=175ad1bc-5fc5-4e51-891d-4d341abbd68f"},"vehicle_type_id":"4","last_reported":1719155203,"current_range_meters":2000,"station_id":"ce4bh2h2rcd13ifvqdh0","pricing_plan_id":"cebpf4jnsgd1na2vs0mg"},{"bike_id":"12c74423-b7ed-4c94-bb6a-a11a694e18e1","system_id":"levelo_inurba_marseille","lat":43.289184,"lon":5.366408,"is_reserved":false,"is_disabled":false,"rental_uris":{"android":"levelo://app?vid=12c74423-b7ed-4c94-bb6a-a11a694e18e1","ios":"levelo://app?vid=12c74423-b7ed-4c94-bb6a-a11a694e18e1"},"vehicle_type_id":"4","last_reported":1719155203,"current_range_meters":0,"station_id":"ce4bhap2rcd13ifvqek0","pricing_plan_id":"cebpf4jnsgd1na2vs0mg"},{"bike_id":"cbad9564-7fda-4c40-ba69-d38141648466","system_id":"levelo_inurba_marseille","lat":43.289468,"lon":5.363719,"is_reserved":false,"is_disabled":false,"rental_uris":{"android":"levelo://app?vid=cbad9564-7fda-4c40-ba69-d38141648466","ios":"levelo://app?vid=cbad9564-7fda-4c40-ba69-d38141648466"},"vehicle_type_id":"4","last_reported":1719155203,"current_range_meters":3200,"station_id":"ce4bhc92rcd13ifvqetg","pricing_plan_id":"cebpf4jnsgd1na2vs0mg"},{"bike_id":"9783fa93-aee4-46d2-8c18-da5af07c3143","system_id":"levelo_inurba_marseille","lat":43.29029,"lon":5.37552,"is_reserved":false,"is_disabled":false,"rental_uris":{"android":"levelo://app?vid=9783fa93-aee4-46d2-8c18-da5af07c3143","ios":"levelo://app?vid=9783fa93-aee4-46d2-8c18-da5af07c3143"},"vehicle_type_id":"4","last_reported":1719155203,"current_range_meters":20800,"station_id":"ce4bh692rcd13ifvqe90","pricing_plan_id":"cebpf4jnsgd1na2vs0mg"},{"bike_id":"5946e25c-3fd1-4564-86a6-eb53f1185bbb","system_id":"levelo_inurba_marseille","lat":43.289468,"lon":5.363719,"is_reserved":false,"is_disabled":false,"rental_uris":{"android":"levelo://app?vid=5946e25c-3fd1-4564-86a6-eb53f1185bbb","ios":"levelo://app?vid=5946e25c-3fd1-4564-86a6-eb53f1185bbb"},"vehicle_type_id":"4","last_reported":1719155203,"current_range_meters":26800,"station_id":"ce4bhc92rcd13ifvqetg","pricing_plan_id":"cebpf4jnsgd1na2vs0mg"},{"bike_id":"b4c6f80d-fcc6-4062-b384-77105d6a1c7d","system_id":"levelo_inurba_marseille","lat":43.292644,"lon":5.384257,"is_reserved":false,"is_disabled":false,"rental_uris":{"android":"levelo://app?vid=b4c6f80d-fcc6-4062-b384-77105d6a1c7d","ios":"levelo://app?vid=b4c6f80d-fcc6-4062-b384-77105d6a1c7d"},"vehicle_type_id":"4","last_reported":1719155203,"current_range_meters":4400,"station_id":"ce4bh692rcd13ifvqea0","pricing_plan_id":"cebpf4jnsgd1na2vs0mg"},{"bike_id":"c8637873-7da4-408d-a8fa-682aa61f2280","system_id":"levelo_inurba_marseille","lat":43.290103,"lon":5.356114,"is_reserved":false,"is_disabled":false,"rental_uris":{"android":"levelo://app?vid=c8637873-7da4-408d-a8fa-682aa61f2280","ios":"levelo://app?vid=c8637873-7da4-408d-a8fa-682aa61f2280"},"vehicle_type_id":"4","last_reported":1719155203,"current_range_meters":22800,"station_id":"ce4bhb92rcd13ifvqen0","pricing_plan_id":"cebpf4jnsgd1na2vs0mg"},{"bike_id":"6a3866e6-d89b-4973-9c77-fd54f3a7a420","system_id":"levelo_inurba_marseille","lat":43.29006,"lon":5.35613,"is_reserved":false,"is_disabled":false,"rental_uris":{"android":"levelo://app?vid=6a3866e6-d89b-4973-9c77-fd54f3a7a420","ios":"levelo://app?vid=6a3866e6-d89b-4973-9c77-fd54f3a7a420"},"vehicle_type_id":"4","last_reported":1719155203,"current_range_meters":0,"station_id":"ce4bhb92rcd13ifvqen0","pricing_plan_id":"cebpf4jnsgd1na2vs0mg"},{"bike_id":"0b986813-0c11-4e9d-8a93-6654a512f22a","system_id":"levelo_inurba_marseille","lat":43.29004,"lon":5.35619,"is_reserved":false,"is_disabled":false,"rental_uris":{"android":"levelo://app?vid=0b986813-0c11-4e9d-8a93-6654a512f22a","ios":"levelo://app?vid=0b986813-0c11-4e9d-8a93-6654a512f22a"},"vehicle_type_id":"4","last_reported":1719155203,"current_range_meters":8800,"station_id":"ce4bhb92rcd13ifvqen0","pricing_plan_id":"cebpf4jnsgd1na2vs0mg"},{"bike_id":"559c4632-8446-43c3-81fe-297507cd1fc6","system_id":"levelo_inurba_marseille","lat":43.290995,"lon":5.381361,"is_reserved":false,"is_disabled":false,"rental_uris":{"android":"levelo://app?vid=559c4632-8446-43c3-81fe-297507cd1fc6","ios":"levelo://app?vid=559c4632-8446-43c3-81fe-297507cd1fc6"},"vehicle_type_id":"4","last_reported":1719155203,"current_range_meters":800,"station_id":"ce4bh512rcd13ifvqe2g","pricing_plan_id":"cebpf4jnsgd1na2vs0mg"},{"bike_id":"fea45840-bb7b-4d70-9be0-89c5143162d1","system_id":"levelo_inurba_marseille","lat":43.295169,"lon":5.390426,"is_reserved":false,"is_disabled":false,"rental_uris":{"android":"levelo://app?vid=fea45840-bb7b-4d70-9be0-89c5143162d1","ios":"levelo://app?vid=fea45840-bb7b-4d70-9be0-89c5143162d1"},"vehicle_type_id":"4","last_reported":1719155203,"current_range_meters":13200,"station_id":"ce4bh3p2rcd13ifvqdp0","pricing_plan_id":"cebpf4jnsgd1na2vs0mg"},{"bike_id":"7cffc5ab-1d98-4b39-9271-059357023ad7","system_id":"levelo_inurba_marseille","lat":43.33021,"lon":5.3905,"is_reserved":false,"is_disabled":false,"rental_uris":{"android":"levelo://app?vid=7cffc5ab-1d98-4b39-9271-059357023ad7","ios":"levelo://app?vid=7cffc5ab-1d98-4b39-9271-059357023ad7"},"vehicle_type_id":"4","last_reported":1719155203,"current_range_meters":0,"station_id":"ce4bhr92rcd13ifvqhrg","pricing_plan_id":"cebpf4jnsgd1na2vs0mg"},{"bike_id":"5921ab2a-e8ff-47c8-b536-5f66236783fe","system_id":"levelo_inurba_marseille","lat":43.330442,"lon":5.389148,"is_reserved":false,"is_disabled":false,"rental_uris":{"android":"levelo://app?vid=5921ab2a-e8ff-47c8-b536-5f66236783fe","ios":"levelo://app?vid=5921ab2a-e8ff-47c8-b536-5f66236783fe"},"vehicle_type_id":"4","last_reported":1719155203,"current_range_meters":400,"station_id":"ce4bhr92rcd13ifvqhrg","pricing_plan_id":"cebpf4jnsgd1na2vs0mg"},{"bike_id":"eac04ebe-07c9-4e30-98de-d4519d2e015d","system_id":"levelo_inurba_marseille","lat":43.2901,"lon":5.381269,"is_reserved":false,"is_disabled":false,"rental_uris":{"android":"levelo://app?vid=eac04ebe-07c9-4e30-98de-d4519d2e015d","ios":"levelo://app?vid=eac04ebe-07c9-4e30-98de-d4519d2e015d"},"vehicle_type_id":"4","last_reported":1719155203,"current_range_meters":28800,"station_id":"ce4bh4p2rcd13ifvqe1g","pricing_plan_id":"cebpf4jnsgd1na2vs0mg"},{"bike_id":"19d189cd-4ad2-4ef2-94af-dccb17de24dc","system_id":"levelo_inurba_marseille","lat":43.2885,"lon":5.3584,"is_reserved":false,"is_disabled":false,"rental_uris":{"android":"levelo://app?vid=19d189cd-4ad2-4ef2-94af-dccb17de24dc","ios":"levelo://app?vid=19d189cd-4ad2-4ef2-94af-dccb17de24dc"},"vehicle_type_id":"4","last_reported":1719155203,"current_range_meters":4800,"station_id":"ce4bhb12rcd13ifvqem0","pricing_plan_id":"cebpf4jnsgd1na2vs0mg"},{"bike_id":"05092e03-5cef-41c3-9575-df5db7507ebd","system_id":"levelo_inurba_marseille","lat":43.33739,"lon":5.37464,"is_reserved":false,"is_disabled":false,"rental_uris":{"android":"levelo://app?vid=05092e03-5cef-41c3-9575-df5db7507ebd","ios":"levelo://app?vid=05092e03-5cef-41c3-9575-df5db7507ebd"},"vehicle_type_id":"4","last_reported":1719155203,"current_range_meters":15600,"station_id":"","pricing_plan_id":"cebpf4jnsgd1na2vs0mg"},{"bike_id":"b7ee22bd-ae13-452a-afc8-81111aff7ac1","system_id":"levelo_inurba_marseille","lat":43.309371,"lon":5.401449,"is_reserved":false,"is_disabled":false,"rental_uris":{"android":"levelo://app?vid=b7ee22bd-ae13-452a-afc8-81111aff7ac1","ios":"levelo://app?vid=b7ee22bd-ae13-452a-afc8-81111aff7ac1"},"vehicle_type_id":"4","last_reported":1719155203,"current_range_meters":4400,"station_id":"ce4bgvp2rcd13ifvqct0","pricing_plan_id":"cebpf4jnsgd1na2vs0mg"},{"bike_id":"50a4e822-447e-4305-9419-dbab4786eda8","system_id":"levelo_inurba_marseille","lat":43.312609,"lon":5.401662,"is_reserved":false,"is_disabled":false,"rental_uris":{"android":"levelo://app?vid=50a4e822-447e-4305-9419-dbab4786eda8","ios":"levelo://app?vid=50a4e822-447e-4305-9419-dbab4786eda8"},"vehicle_type_id":"4","last_reported":1719155203,"current_range_meters":32000,"station_id":"ce4bh092rcd13ifvqd30","pricing_plan_id":"cebpf4jnsgd1na2vs0mg"},{"bike_id":"cb26591f-42e6-4b9e-bc69-7c230f67a082","system_id":"levelo_inurba_marseille","lat":43.312609,"lon":5.401662,"is_reserved":false,"is_disabled":false,"rental_uris":{"android":"levelo://app?vid=cb26591f-42e6-4b9e-bc69-7c230f67a082","ios":"levelo://app?vid=cb26591f-42e6-4b9e-bc69-7c230f67a082"},"vehicle_type_id":"4","last_reported":1719155203,"current_range_meters":31600,"station_id":"ce4bh092rcd13ifvqd30","pricing_plan_id":"cebpf4jnsgd1na2vs0mg"},{"bike_id":"8c22d018-62fb-468d-9d59-dbd573eeb3b9","system_id":"levelo_inurba_marseille","lat":43.312609,"lon":5.401662,"is_reserved":false,"is_disabled":false,"rental_uris":{"android":"levelo://app?vid=8c22d018-62fb-468d-9d59-dbd573eeb3b9","ios":"levelo://app?vid=8c22d018-62fb-468d-9d59-dbd573eeb3b9"},"vehicle_type_id":"4","last_reported":1719155203,"current_range_meters":24800,"station_id":"ce4bh092rcd13ifvqd30","pricing_plan_id":"cebpf4jnsgd1na2vs0mg"},{"bike_id":"5b5cae36-09e1-4bd0-aeb4-83d37c064d16","system_id":"levelo_inurba_marseille","lat":43.33746,"lon":5.37463,"is_reserved":false,"is_disabled":false,"rental_uris":{"android":"levelo://app?vid=5b5cae36-09e1-4bd0-aeb4-83d37c064d16","ios":"levelo://app?vid=5b5cae36-09e1-4bd0-aeb4-83d37c064d16"},"vehicle_type_id":"4","last_reported":1719155203,"current_range_meters":17600,"station_id":"","pricing_plan_id":"cebpf4jnsgd1na2vs0mg"},{"bike_id":"554792e7-b158-45c9-8ce8-843a21cc1209","system_id":"levelo_inurba_marseille","lat":43.31274,"lon":5.40178,"is_reserved":false,"is_disabled":false,"rental_uris":{"android":"levelo://app?vid=554792e7-b158-45c9-8ce8-843a21cc1209","ios":"levelo://app?vid=554792e7-b158-45c9-8ce8-843a21cc1209"},"vehicle_type_id":"4","last_reported":1719155203,"current_range_meters":30800,"station_id":"ce4bh092rcd13ifvqd30","pricing_plan_id":"cebpf4jnsgd1na2vs0mg"},{"bike_id":"a00c218c-138a-4388-aca4-2952a6961815","system_id":"levelo_inurba_marseille","lat":43.337479,"lon":5.37488,"is_reserved":false,"is_disabled":false,"rental_uris":{"android":"levelo://app?vid=a00c218c-138a-4388-aca4-2952a6961815","ios":"levelo://app?vid=a00c218c-138a-4388-aca4-2952a6961815"},"vehicle_type_id":"4","last_reported":1719155203,"current_range_meters":29200,"station_id":"","pricing_plan_id":"cebpf4jnsgd1na2vs0mg"},{"bike_id":"0e11bbab-a5d9-4098-a6f1-624d89f27c59","system_id":"levelo_inurba_marseille","lat":43.337572,"lon":5.374546,"is_reserved":false,"is_disabled":false,"rental_uris":{"android":"levelo://app?vid=0e11bbab-a5d9-4098-a6f1-624d89f27c59","ios":"levelo://app?vid=0e11bbab-a5d9-4098-a6f1-624d89f27c59"},"vehicle_type_id":"4","last_reported":1719155203,"current_range_meters":20000,"station_id":"","pricing_plan_id":"cebpf4jnsgd1na2vs0mg"},{"bike_id":"db534928-e6a2-47cc-a852-558fe66ed50c","system_id":"levelo_inurba_marseille","lat":43.337583,"lon":5.374633,"is_reserved":false,"is_disabled":false,"rental_uris":{"android":"levelo://app?vid=db534928-e6a2-47cc-a852-558fe66ed50c","ios":"levelo://app?vid=db534928-e6a2-47cc-a852-558fe66ed50c"},"vehicle_type_id":"4","last_reported":1719155203,"current_range_meters":18400,"station_id":"","pricing_plan_id":"cebpf4jnsgd1na2vs0mg"},{"bike_id":"e7be790b-07e4-40f3-b60f-da683b157943","system_id":"levelo_inurba_marseille","lat":43.33033,"lon":5.39238,"is_reserved":false,"is_disabled":false,"rental_uris":{"android":"levelo://app?vid=e7be790b-07e4-40f3-b60f-da683b157943","ios":"levelo://app?vid=e7be790b-07e4-40f3-b60f-da683b157943"},"vehicle_type_id":"4","last_reported":1719155203,"current_range_meters":14800,"station_id":"","pricing_plan_id":"cebpf4jnsgd1na2vs0mg"},{"bike_id":"a77bf3f1-dc55-4e35-8fe0-6292cee970ef","system_id":"levelo_inurba_marseille","lat":43.33035,"lon":5.39239,"is_reserved":false,"is_disabled":false,"rental_uris":{"android":"levelo://app?vid=a77bf3f1-dc55-4e35-8fe0-6292cee970ef","ios":"levelo://app?vid=a77bf3f1-dc55-4e35-8fe0-6292cee970ef"},"vehicle_type_id":"4","last_reported":1719155203,"current_range_meters":17600,"station_id":"","pricing_plan_id":"cebpf4jnsgd1na2vs0mg"},{"bike_id":"8aeffac4-4ce5-47d7-b186-6152fbdf291e","system_id":"levelo_inurba_marseille","lat":43.286593,"lon":5.363346,"is_reserved":false,"is_disabled":false,"rental_uris":{"android":"levelo://app?vid=8aeffac4-4ce5-47d7-b186-6152fbdf291e","ios":"levelo://app?vid=8aeffac4-4ce5-47d7-b186-6152fbdf291e"},"vehicle_type_id":"4","last_reported":1719155203,"current_range_meters":7600,"station_id":"ce4bhah2rcd13ifvqej0","pricing_plan_id":"cebpf4jnsgd1na2vs0mg"},{"bike_id":"ef6e0b86-c5fa-4d3d-b41b-6589e0ae2ab3","system_id":"levelo_inurba_marseille","lat":43.286591,"lon":5.363346,"is_reserved":false,"is_disabled":false,"rental_uris":{"android":"levelo://app?vid=ef6e0b86-c5fa-4d3d-b41b-6589e0ae2ab3","ios":"levelo://app?vid=ef6e0b86-c5fa-4d3d-b41b-6589e0ae2ab3"},"vehicle_type_id":"4","last_reported":1719155203,"current_range_meters":6400,"station_id":"ce4bhah2rcd13ifvqej0","pricing_plan_id":"cebpf4jnsgd1na2vs0mg"},{"bike_id":"9c262ba5-c564-4c48-8039-c26aa01a0fbe","system_id":"levelo_inurba_marseille","lat":43.289307,"lon":5.38406,"is_reserved":false,"is_disabled":false,"rental_uris":{"android":"levelo://app?vid=9c262ba5-c564-4c48-8039-c26aa01a0fbe","ios":"levelo://app?vid=9c262ba5-c564-4c48-8039-c26aa01a0fbe"},"vehicle_type_id":"4","last_reported":1719155203,"current_range_meters":15200,"station_id":"ce4bh612rcd13ifvqe6g","pricing_plan_id":"cebpf4jnsgd1na2vs0mg"},{"bike_id":"f3dde2ba-4b91-4ab5-be23-24be238c2077","system_id":"levelo_inurba_marseille","lat":43.289307,"lon":5.38406,"is_reserved":false,"is_disabled":false,"rental_uris":{"android":"levelo://app?vid=f3dde2ba-4b91-4ab5-be23-24be238c2077","ios":"levelo://app?vid=f3dde2ba-4b91-4ab5-be23-24be238c2077"},"vehicle_type_id":"4","last_reported":1719155203,"current_range_meters":0,"station_id":"ce4bh612rcd13ifvqe6g","pricing_plan_id":"cebpf4jnsgd1na2vs0mg"},{"bike_id":"b194fb8f-e1e0-4e32-ac0e-8443b98169fe","system_id":"levelo_inurba_marseille","lat":43.302759,"lon":5.400793,"is_reserved":false,"is_disabled":false,"rental_uris":{"android":"levelo://app?vid=b194fb8f-e1e0-4e32-ac0e-8443b98169fe","ios":"levelo://app?vid=b194fb8f-e1e0-4e32-ac0e-8443b98169fe"},"vehicle_type_id":"4","last_reported":1719155203,"current_range_meters":10000,"station_id":"ce4bgvh2rcd13ifvqcs0","pricing_plan_id":"cebpf4jnsgd1na2vs0mg"},{"bike_id":"caef7251-4167-4bd1-823c-7883c79c863b","system_id":"levelo_inurba_marseille","lat":43.28453,"lon":5.35892,"is_reserved":false,"is_disabled":false,"rental_uris":{"android":"levelo://app?vid=caef7251-4167-4bd1-823c-7883c79c863b","ios":"levelo://app?vid=caef7251-4167-4bd1-823c-7883c79c863b"},"vehicle_type_id":"4","last_reported":1719155203,"current_range_meters":0,"station_id":"ce4bhah2rcd13ifvqei0","pricing_plan_id":"cebpf4jnsgd1na2vs0mg"},{"bike_id":"7e24f969-65f7-4438-b0ee-2a76a44d1822","system_id":"levelo_inurba_marseille","lat":43.28669,"lon":5.38666,"is_reserved":false,"is_disabled":false,"rental_uris":{"android":"levelo://app?vid=7e24f969-65f7-4438-b0ee-2a76a44d1822","ios":"levelo://app?vid=7e24f969-65f7-4438-b0ee-2a76a44d1822"},"vehicle_type_id":"4","last_reported":1719155203,"current_range_meters":0,"station_id":"ce4bh492rcd13ifvqdug","pricing_plan_id":"cebpf4jnsgd1na2vs0mg"},{"bike_id":"f3afbcfa-fef5-4566-b335-b95d65d96a32","system_id":"levelo_inurba_marseille","lat":43.33713,"lon":5.3919,"is_reserved":false,"is_disabled":false,"rental_uris":{"android":"levelo://app?vid=f3afbcfa-fef5-4566-b335-b95d65d96a32","ios":"levelo://app?vid=f3afbcfa-fef5-4566-b335-b95d65d96a32"},"vehicle_type_id":"4","last_reported":1719155203,"current_range_meters":0,"station_id":"ce4bhr92rcd13ifvqhsg","pricing_plan_id":"cebpf4jnsgd1na2vs0mg"},{"bike_id":"fbacec57-0a1f-493a-9b2c-96c8a5acd65d","system_id":"levelo_inurba_marseille","lat":43.323464,"lon":5.406297,"is_reserved":false,"is_disabled":false,"rental_uris":{"android":"levelo://app?vid=fbacec57-0a1f-493a-9b2c-96c8a5acd65d","ios":"levelo://app?vid=fbacec57-0a1f-493a-9b2c-96c8a5acd65d"},"vehicle_type_id":"4","last_reported":1719155203,"current_range_meters":24400,"station_id":"ce4bhq92rcd13ifvqhjg","pricing_plan_id":"cebpf4jnsgd1na2vs0mg"},{"bike_id":"3720418d-da95-43ab-883e-5ec4534758a0","system_id":"levelo_inurba_marseille","lat":43.337168,"lon":5.391825,"is_reserved":false,"is_disabled":false,"rental_uris":{"android":"levelo://app?vid=3720418d-da95-43ab-883e-5ec4534758a0","ios":"levelo://app?vid=3720418d-da95-43ab-883e-5ec4534758a0"},"vehicle_type_id":"4","last_reported":1719155203,"current_range_meters":28800,"station_id":"ce4bhr92rcd13ifvqhsg","pricing_plan_id":"cebpf4jnsgd1na2vs0mg"},{"bike_id":"0068ca72-4466-4b48-a9d5-8b1ad92bb512","system_id":"levelo_inurba_marseille","lat":43.284793,"lon":5.384113,"is_reserved":false,"is_disabled":false,"rental_uris":{"android":"levelo://app?vid=0068ca72-4466-4b48-a9d5-8b1ad92bb512","ios":"levelo://app?vid=0068ca72-4466-4b48-a9d5-8b1ad92bb512"},"vehicle_type_id":"4","last_reported":1719155203,"current_range_meters":18400,"station_id":"ce4bh512rcd13ifvqe3g","pricing_plan_id":"cebpf4jnsgd1na2vs0mg"},{"bike_id":"0fc0f124-6683-46c3-98b6-10903657b217","system_id":"levelo_inurba_marseille","lat":43.29795,"lon":5.404086,"is_reserved":false,"is_disabled":false,"rental_uris":{"android":"levelo://app?vid=0fc0f124-6683-46c3-98b6-10903657b217","ios":"levelo://app?vid=0fc0f124-6683-46c3-98b6-10903657b217"},"vehicle_type_id":"4","last_reported":1719155203,"current_range_meters":24800,"station_id":"ce4bh112rcd13ifvqd90","pricing_plan_id":"cebpf4jnsgd1na2vs0mg"},{"bike_id":"861e2d53-332f-4064-929e-8de2e10a88ad","system_id":"levelo_inurba_marseille","lat":43.297946,"lon":5.404063,"is_reserved":false,"is_disabled":false,"rental_uris":{"android":"levelo://app?vid=861e2d53-332f-4064-929e-8de2e10a88ad","ios":"levelo://app?vid=861e2d53-332f-4064-929e-8de2e10a88ad"},"vehicle_type_id":"4","last_reported":1719155203,"current_range_meters":23200,"station_id":"ce4bh112rcd13ifvqd90","pricing_plan_id":"cebpf4jnsgd1na2vs0mg"},{"bike_id":"d2a93c9b-353b-479b-b7aa-69e95cc4b7f5","system_id":"levelo_inurba_marseille","lat":43.284776,"lon":5.385603,"is_reserved":false,"is_disabled":false,"rental_uris":{"android":"levelo://app?vid=d2a93c9b-353b-479b-b7aa-69e95cc4b7f5","ios":"levelo://app?vid=d2a93c9b-353b-479b-b7aa-69e95cc4b7f5"},"vehicle_type_id":"4","last_reported":1719155203,"current_range_meters":15200,"station_id":"ce4bh8p2rcd13ifvqeb0","pricing_plan_id":"cebpf4jnsgd1na2vs0mg"},{"bike_id":"4d1d15b3-db9a-4ed7-9c36-db26563756d5","system_id":"levelo_inurba_marseille","lat":43.28425,"lon":5.34985,"is_reserved":false,"is_disabled":false,"rental_uris":{"android":"levelo://app?vid=4d1d15b3-db9a-4ed7-9c36-db26563756d5","ios":"levelo://app?vid=4d1d15b3-db9a-4ed7-9c36-db26563756d5"},"vehicle_type_id":"4","last_reported":1719155203,"current_range_meters":3600,"station_id":"ce4bhbh2rcd13ifvqepg","pricing_plan_id":"cebpf4jnsgd1na2vs0mg"},{"bike_id":"cf2c68a1-8c2c-40fd-afb1-4e4a43dfa2a0","system_id":"levelo_inurba_marseille","lat":43.28417,"lon":5.34993,"is_reserved":false,"is_disabled":false,"rental_uris":{"android":"levelo://app?vid=cf2c68a1-8c2c-40fd-afb1-4e4a43dfa2a0","ios":"levelo://app?vid=cf2c68a1-8c2c-40fd-afb1-4e4a43dfa2a0"},"vehicle_type_id":"4","last_reported":1719155203,"current_range_meters":0,"station_id":"ce4bhbh2rcd13ifvqepg","pricing_plan_id":"cebpf4jnsgd1na2vs0mg"},{"bike_id":"d4b44ff5-f375-4ddb-aba7-87165ef99677","system_id":"levelo_inurba_marseille","lat":43.28413,"lon":5.34995,"is_reserved":false,"is_disabled":false,"rental_uris":{"android":"levelo://app?vid=d4b44ff5-f375-4ddb-aba7-87165ef99677","ios":"levelo://app?vid=d4b44ff5-f375-4ddb-aba7-87165ef99677"},"vehicle_type_id":"4","last_reported":1719155203,"current_range_meters":800,"station_id":"ce4bhbh2rcd13ifvqepg","pricing_plan_id":"cebpf4jnsgd1na2vs0mg"},{"bike_id":"754ffa45-00dd-437f-b717-a168cfa7e20b","system_id":"levelo_inurba_marseille","lat":43.28418,"lon":5.34978,"is_reserved":false,"is_disabled":false,"rental_uris":{"android":"levelo://app?vid=754ffa45-00dd-437f-b717-a168cfa7e20b","ios":"levelo://app?vid=754ffa45-00dd-437f-b717-a168cfa7e20b"},"vehicle_type_id":"4","last_reported":1719155203,"current_range_meters":4800,"station_id":"ce4bhbh2rcd13ifvqepg","pricing_plan_id":"cebpf4jnsgd1na2vs0mg"},{"bike_id":"dcbbe923-7b3f-4b88-9618-aba75bf00f96","system_id":"levelo_inurba_marseille","lat":43.284217,"lon":5.349697,"is_reserved":false,"is_disabled":false,"rental_uris":{"android":"levelo://app?vid=dcbbe923-7b3f-4b88-9618-aba75bf00f96","ios":"levelo://app?vid=dcbbe923-7b3f-4b88-9618-aba75bf00f96"},"vehicle_type_id":"4","last_reported":1719155203,"current_range_meters":2400,"station_id":"ce4bhbh2rcd13ifvqepg","pricing_plan_id":"cebpf4jnsgd1na2vs0mg"},{"bike_id":"ba7aaf5f-236a-4501-a834-ada54d65f63e","system_id":"levelo_inurba_marseille","lat":43.282709,"lon":5.350789,"is_reserved":false,"is_disabled":false,"rental_uris":{"android":"levelo://app?vid=ba7aaf5f-236a-4501-a834-ada54d65f63e","ios":"levelo://app?vid=ba7aaf5f-236a-4501-a834-ada54d65f63e"},"vehicle_type_id":"4","last_reported":1719155203,"current_range_meters":0,"station_id":"ce4bhbp2rcd13ifvqerg","pricing_plan_id":"cebpf4jnsgd1na2vs0mg"},{"bike_id":"052f930e-0cfe-4f13-b7e8-c79dd309f16c","system_id":"levelo_inurba_marseille","lat":43.28272,"lon":5.35062,"is_reserved":false,"is_disabled":false,"rental_uris":{"android":"levelo://app?vid=052f930e-0cfe-4f13-b7e8-c79dd309f16c","ios":"levelo://app?vid=052f930e-0cfe-4f13-b7e8-c79dd309f16c"},"vehicle_type_id":"4","last_reported":1719155203,"current_range_meters":4400,"station_id":"ce4bhbp2rcd13ifvqerg","pricing_plan_id":"cebpf4jnsgd1na2vs0mg"},{"bike_id":"ba24ee8a-4194-4ec5-9256-9c62f6271aa4","system_id":"levelo_inurba_marseille","lat":43.282744,"lon":5.350533,"is_reserved":false,"is_disabled":false,"rental_uris":{"android":"levelo://app?vid=ba24ee8a-4194-4ec5-9256-9c62f6271aa4","ios":"levelo://app?vid=ba24ee8a-4194-4ec5-9256-9c62f6271aa4"},"vehicle_type_id":"4","last_reported":1719155203,"current_range_meters":27200,"station_id":"ce4bhbp2rcd13ifvqerg","pricing_plan_id":"cebpf4jnsgd1na2vs0mg"},{"bike_id":"5b2a2de4-2a1a-459d-bc66-c3b0b14b503f","system_id":"levelo_inurba_marseille","lat":43.282744,"lon":5.350533,"is_reserved":false,"is_disabled":false,"rental_uris":{"android":"levelo://app?vid=5b2a2de4-2a1a-459d-bc66-c3b0b14b503f","ios":"levelo://app?vid=5b2a2de4-2a1a-459d-bc66-c3b0b14b503f"},"vehicle_type_id":"4","last_reported":1719155203,"current_range_meters":3600,"station_id":"ce4bhbp2rcd13ifvqerg","pricing_plan_id":"cebpf4jnsgd1na2vs0mg"},{"bike_id":"955fda2f-41d9-4b16-8981-9abfd55452b9","system_id":"levelo_inurba_marseille","lat":43.282744,"lon":5.350533,"is_reserved":false,"is_disabled":false,"rental_uris":{"android":"levelo://app?vid=955fda2f-41d9-4b16-8981-9abfd55452b9","ios":"levelo://app?vid=955fda2f-41d9-4b16-8981-9abfd55452b9"},"vehicle_type_id":"4","last_reported":1719155203,"current_range_meters":4800,"station_id":"ce4bhbp2rcd13ifvqerg","pricing_plan_id":"cebpf4jnsgd1na2vs0mg"},{"bike_id":"5fbcf41e-08a8-439f-a4b2-2403c615e1c0","system_id":"levelo_inurba_marseille","lat":43.28039,"lon":5.369297,"is_reserved":false,"is_disabled":false,"rental_uris":{"android":"levelo://app?vid=5fbcf41e-08a8-439f-a4b2-2403c615e1c0","ios":"levelo://app?vid=5fbcf41e-08a8-439f-a4b2-2403c615e1c0"},"vehicle_type_id":"4","last_reported":1719155203,"current_range_meters":4800,"station_id":"ce4bha12rcd13ifvqef0","pricing_plan_id":"cebpf4jnsgd1na2vs0mg"},{"bike_id":"d11e7eb8-9345-490c-9e5e-f3d8d894f6f8","system_id":"levelo_inurba_marseille","lat":43.28261,"lon":5.35047,"is_reserved":false,"is_disabled":false,"rental_uris":{"android":"levelo://app?vid=d11e7eb8-9345-490c-9e5e-f3d8d894f6f8","ios":"levelo://app?vid=d11e7eb8-9345-490c-9e5e-f3d8d894f6f8"},"vehicle_type_id":"4","last_reported":1719155203,"current_range_meters":26000,"station_id":"ce4bhbp2rcd13ifvqerg","pricing_plan_id":"cebpf4jnsgd1na2vs0mg"},{"bike_id":"c7413d08-beea-4719-b61a-09b563d51e76","system_id":"levelo_inurba_marseille","lat":43.28039,"lon":5.369297,"is_reserved":false,"is_disabled":false,"rental_uris":{"android":"levelo://app?vid=c7413d08-beea-4719-b61a-09b563d51e76","ios":"levelo://app?vid=c7413d08-beea-4719-b61a-09b563d51e76"},"vehicle_type_id":"4","last_reported":1719155203,"current_range_meters":26000,"station_id":"ce4bha12rcd13ifvqef0","pricing_plan_id":"cebpf4jnsgd1na2vs0mg"},{"bike_id":"d443fcd6-2d8e-475a-a0d3-228370a896c1","system_id":"levelo_inurba_marseille","lat":43.280382,"lon":5.369291,"is_reserved":false,"is_disabled":false,"rental_uris":{"android":"levelo://app?vid=d443fcd6-2d8e-475a-a0d3-228370a896c1","ios":"levelo://app?vid=d443fcd6-2d8e-475a-a0d3-228370a896c1"},"vehicle_type_id":"4","last_reported":1719155203,"current_range_meters":12400,"station_id":"ce4bha12rcd13ifvqef0","pricing_plan_id":"cebpf4jnsgd1na2vs0mg"},{"bike_id":"1494bbb4-1d86-470b-8090-d81cc9344447","system_id":"levelo_inurba_marseille","lat":43.28039,"lon":5.369297,"is_reserved":false,"is_disabled":false,"rental_uris":{"android":"levelo://app?vid=1494bbb4-1d86-470b-8090-d81cc9344447","ios":"levelo://app?vid=1494bbb4-1d86-470b-8090-d81cc9344447"},"vehicle_type_id":"4","last_reported":1719155203,"current_range_meters":2000,"station_id":"ce4bha12rcd13ifvqef0","pricing_plan_id":"cebpf4jnsgd1na2vs0mg"},{"bike_id":"46209498-9cc6-4f26-81f7-9d07a7936ec8","system_id":"levelo_inurba_marseille","lat":43.280382,"lon":5.369291,"is_reserved":false,"is_disabled":false,"rental_uris":{"android":"levelo://app?vid=46209498-9cc6-4f26-81f7-9d07a7936ec8","ios":"levelo://app?vid=46209498-9cc6-4f26-81f7-9d07a7936ec8"},"vehicle_type_id":"4","last_reported":1719155203,"current_range_meters":24000,"station_id":"ce4bha12rcd13ifvqef0","pricing_plan_id":"cebpf4jnsgd1na2vs0mg"},{"bike_id":"7b98f5e3-b5fe-44d6-b396-d025ee8a32f4","system_id":"levelo_inurba_marseille","lat":43.281,"lon":5.37853,"is_reserved":false,"is_disabled":false,"rental_uris":{"android":"levelo://app?vid=7b98f5e3-b5fe-44d6-b396-d025ee8a32f4","ios":"levelo://app?vid=7b98f5e3-b5fe-44d6-b396-d025ee8a32f4"},"vehicle_type_id":"4","last_reported":1719155203,"current_range_meters":31200,"station_id":"ce4bha12rcd13ifvqee0","pricing_plan_id":"cebpf4jnsgd1na2vs0mg"},{"bike_id":"c9f5727f-73c7-45a3-b9cf-3845601ac317","system_id":"levelo_inurba_marseille","lat":43.284462,"lon":5.392121,"is_reserved":false,"is_disabled":false,"rental_uris":{"android":"levelo://app?vid=c9f5727f-73c7-45a3-b9cf-3845601ac317","ios":"levelo://app?vid=c9f5727f-73c7-45a3-b9cf-3845601ac317"},"vehicle_type_id":"4","last_reported":1719155203,"current_range_meters":25200,"station_id":"ce4bhoh2rcd13ifvqh5g","pricing_plan_id":"cebpf4jnsgd1na2vs0mg"},{"bike_id":"98e3e1f3-eb0c-409e-9aac-06899db23412","system_id":"levelo_inurba_marseille","lat":43.326605,"lon":5.409903,"is_reserved":false,"is_disabled":false,"rental_uris":{"android":"levelo://app?vid=98e3e1f3-eb0c-409e-9aac-06899db23412","ios":"levelo://app?vid=98e3e1f3-eb0c-409e-9aac-06899db23412"},"vehicle_type_id":"4","last_reported":1719155203,"current_range_meters":2400,"station_id":"ce4bhpp2rcd13ifvqhgg","pricing_plan_id":"cebpf4jnsgd1na2vs0mg"},{"bike_id":"61ee56cb-94c4-4853-b877-794351e39aa7","system_id":"levelo_inurba_marseille","lat":43.326605,"lon":5.409903,"is_reserved":false,"is_disabled":false,"rental_uris":{"android":"levelo://app?vid=61ee56cb-94c4-4853-b877-794351e39aa7","ios":"levelo://app?vid=61ee56cb-94c4-4853-b877-794351e39aa7"},"vehicle_type_id":"4","last_reported":1719155203,"current_range_meters":26000,"station_id":"ce4bhpp2rcd13ifvqhgg","pricing_plan_id":"cebpf4jnsgd1na2vs0mg"},{"bike_id":"c39a91cc-391d-485b-9c0b-b64efa974cd1","system_id":"levelo_inurba_marseille","lat":43.304188,"lon":5.412904,"is_reserved":false,"is_disabled":false,"rental_uris":{"android":"levelo://app?vid=c39a91cc-391d-485b-9c0b-b64efa974cd1","ios":"levelo://app?vid=c39a91cc-391d-485b-9c0b-b64efa974cd1"},"vehicle_type_id":"4","last_reported":1719155203,"current_range_meters":11200,"station_id":"ce4bhop2rcd13ifvqh8g","pricing_plan_id":"cebpf4jnsgd1na2vs0mg"},{"bike_id":"a2d89d50-f77c-4a6e-82a1-7b491b564b6e","system_id":"levelo_inurba_marseille","lat":43.279087,"lon":5.380114,"is_reserved":false,"is_disabled":false,"rental_uris":{"android":"levelo://app?vid=a2d89d50-f77c-4a6e-82a1-7b491b564b6e","ios":"levelo://app?vid=a2d89d50-f77c-4a6e-82a1-7b491b564b6e"},"vehicle_type_id":"4","last_reported":1719155203,"current_range_meters":28400,"station_id":"ce4bhf92rcd13ifvqf50","pricing_plan_id":"cebpf4jnsgd1na2vs0mg"},{"bike_id":"b109807f-58a8-4d14-bea6-6772b5ea2a7b","system_id":"levelo_inurba_marseille","lat":43.287154,"lon":5.399979,"is_reserved":false,"is_disabled":false,"rental_uris":{"android":"levelo://app?vid=b109807f-58a8-4d14-bea6-6772b5ea2a7b","ios":"levelo://app?vid=b109807f-58a8-4d14-bea6-6772b5ea2a7b"},"vehicle_type_id":"4","last_reported":1719155203,"current_range_meters":22400,"station_id":"ce4bho92rcd13ifvqh3g","pricing_plan_id":"cebpf4jnsgd1na2vs0mg"},{"bike_id":"171f5c6b-33fb-45cb-8bcc-ceaea6d68d9d","system_id":"levelo_inurba_marseille","lat":43.279742,"lon":5.38744,"is_reserved":false,"is_disabled":false,"rental_uris":{"android":"levelo://app?vid=171f5c6b-33fb-45cb-8bcc-ceaea6d68d9d","ios":"levelo://app?vid=171f5c6b-33fb-45cb-8bcc-ceaea6d68d9d"},"vehicle_type_id":"4","last_reported":1719155203,"current_range_meters":0,"station_id":"ce4bhg12rcd13ifvqf80","pricing_plan_id":"cebpf4jnsgd1na2vs0mg"},{"bike_id":"d52d2ac0-b0cb-4bc0-ab67-e2c46b81fe79","system_id":"levelo_inurba_marseille","lat":43.292569,"lon":5.409107,"is_reserved":false,"is_disabled":false,"rental_uris":{"android":"levelo://app?vid=d52d2ac0-b0cb-4bc0-ab67-e2c46b81fe79","ios":"levelo://app?vid=d52d2ac0-b0cb-4bc0-ab67-e2c46b81fe79"},"vehicle_type_id":"4","last_reported":1719155203,"current_range_meters":3600,"station_id":"ce4bh192rcd13ifvqdc0","pricing_plan_id":"cebpf4jnsgd1na2vs0mg"},{"bike_id":"f346595e-20a4-449a-868a-a3174d6ee82e","system_id":"levelo_inurba_marseille","lat":43.292569,"lon":5.409107,"is_reserved":false,"is_disabled":false,"rental_uris":{"android":"levelo://app?vid=f346595e-20a4-449a-868a-a3174d6ee82e","ios":"levelo://app?vid=f346595e-20a4-449a-868a-a3174d6ee82e"},"vehicle_type_id":"4","last_reported":1719155203,"current_range_meters":22000,"station_id":"ce4bh192rcd13ifvqdc0","pricing_plan_id":"cebpf4jnsgd1na2vs0mg"},{"bike_id":"b582df68-566f-4620-b823-07f378deb29b","system_id":"levelo_inurba_marseille","lat":43.27618,"lon":5.361009,"is_reserved":false,"is_disabled":false,"rental_uris":{"android":"levelo://app?vid=b582df68-566f-4620-b823-07f378deb29b","ios":"levelo://app?vid=b582df68-566f-4620-b823-07f378deb29b"},"vehicle_type_id":"4","last_reported":1719155203,"current_range_meters":23200,"station_id":"ce4bgj92rcd13ifvqbe0","pricing_plan_id":"cebpf4jnsgd1na2vs0mg"},{"bike_id":"9fae7ea4-2674-4240-bfa5-704fb6deb1f6","system_id":"levelo_inurba_marseille","lat":43.276179,"lon":5.361009,"is_reserved":false,"is_disabled":false,"rental_uris":{"android":"levelo://app?vid=9fae7ea4-2674-4240-bfa5-704fb6deb1f6","ios":"levelo://app?vid=9fae7ea4-2674-4240-bfa5-704fb6deb1f6"},"vehicle_type_id":"4","last_reported":1719155203,"current_range_meters":15600,"station_id":"ce4bgj92rcd13ifvqbe0","pricing_plan_id":"cebpf4jnsgd1na2vs0mg"},{"bike_id":"c438d142-75c4-49dd-b1d5-16eb4fd1425e","system_id":"levelo_inurba_marseille","lat":43.276179,"lon":5.361009,"is_reserved":false,"is_disabled":false,"rental_uris":{"android":"levelo://app?vid=c438d142-75c4-49dd-b1d5-16eb4fd1425e","ios":"levelo://app?vid=c438d142-75c4-49dd-b1d5-16eb4fd1425e"},"vehicle_type_id":"4","last_reported":1719155203,"current_range_meters":15600,"station_id":"ce4bgj92rcd13ifvqbe0","pricing_plan_id":"cebpf4jnsgd1na2vs0mg"},{"bike_id":"4c23fc10-6399-4f4b-b7ce-649d8c398c75","system_id":"levelo_inurba_marseille","lat":43.27584,"lon":5.3588,"is_reserved":false,"is_disabled":false,"rental_uris":{"android":"levelo://app?vid=4c23fc10-6399-4f4b-b7ce-649d8c398c75","ios":"levelo://app?vid=4c23fc10-6399-4f4b-b7ce-649d8c398c75"},"vehicle_type_id":"4","last_reported":1719155203,"current_range_meters":3600,"station_id":"","pricing_plan_id":"cebpf4jnsgd1na2vs0mg"},{"bike_id":"397737d3-a319-43f1-8022-b7e05e968a7f","system_id":"levelo_inurba_marseille","lat":43.27567,"lon":5.36032,"is_reserved":false,"is_disabled":false,"rental_uris":{"android":"levelo://app?vid=397737d3-a319-43f1-8022-b7e05e968a7f","ios":"levelo://app?vid=397737d3-a319-43f1-8022-b7e05e968a7f"},"vehicle_type_id":"4","last_reported":1719155203,"current_range_meters":18000,"station_id":"","pricing_plan_id":"cebpf4jnsgd1na2vs0mg"},{"bike_id":"f3615187-e6f6-4d0a-9aea-ef48a3c4cd24","system_id":"levelo_inurba_marseille","lat":43.275812,"lon":5.377646,"is_reserved":false,"is_disabled":false,"rental_uris":{"android":"levelo://app?vid=f3615187-e6f6-4d0a-9aea-ef48a3c4cd24","ios":"levelo://app?vid=f3615187-e6f6-4d0a-9aea-ef48a3c4cd24"},"vehicle_type_id":"4","last_reported":1719155203,"current_range_meters":22800,"station_id":"","pricing_plan_id":"cebpf4jnsgd1na2vs0mg"},{"bike_id":"f96aa61e-18c5-4f34-8bc7-6e666bf0574d","system_id":"levelo_inurba_marseille","lat":43.27389,"lon":5.36264,"is_reserved":false,"is_disabled":false,"rental_uris":{"android":"levelo://app?vid=f96aa61e-18c5-4f34-8bc7-6e666bf0574d","ios":"levelo://app?vid=f96aa61e-18c5-4f34-8bc7-6e666bf0574d"},"vehicle_type_id":"4","last_reported":1719155203,"current_range_meters":0,"station_id":"ce4bhbh2rcd13ifvqeo0","pricing_plan_id":"cebpf4jnsgd1na2vs0mg"},{"bike_id":"08ebd102-565f-480e-8a0d-a9aba8fd25ca","system_id":"levelo_inurba_marseille","lat":43.278401,"lon":5.392152,"is_reserved":false,"is_disabled":false,"rental_uris":{"android":"levelo://app?vid=08ebd102-565f-480e-8a0d-a9aba8fd25ca","ios":"levelo://app?vid=08ebd102-565f-480e-8a0d-a9aba8fd25ca"},"vehicle_type_id":"4","last_reported":1719155203,"current_range_meters":0,"station_id":"ce4bhjp2rcd13ifvqga0","pricing_plan_id":"cebpf4jnsgd1na2vs0mg"},{"bike_id":"1eb6ae99-acd6-49bf-b15f-7d0b27e34799","system_id":"levelo_inurba_marseille","lat":43.278399,"lon":5.392139,"is_reserved":false,"is_disabled":false,"rental_uris":{"android":"levelo://app?vid=1eb6ae99-acd6-49bf-b15f-7d0b27e34799","ios":"levelo://app?vid=1eb6ae99-acd6-49bf-b15f-7d0b27e34799"},"vehicle_type_id":"4","last_reported":1719155203,"current_range_meters":4400,"station_id":"ce4bhjp2rcd13ifvqga0","pricing_plan_id":"cebpf4jnsgd1na2vs0mg"},{"bike_id":"126ec0a9-4f41-4113-b5ce-bf2c6b1a9323","system_id":"levelo_inurba_marseille","lat":43.27382,"lon":5.36255,"is_reserved":false,"is_disabled":false,"rental_uris":{"android":"levelo://app?vid=126ec0a9-4f41-4113-b5ce-bf2c6b1a9323","ios":"levelo://app?vid=126ec0a9-4f41-4113-b5ce-bf2c6b1a9323"},"vehicle_type_id":"4","last_reported":1719155203,"current_range_meters":0,"station_id":"ce4bhbh2rcd13ifvqeo0","pricing_plan_id":"cebpf4jnsgd1na2vs0mg"},{"bike_id":"32ae8339-43b6-4219-9b9e-1286be5089e0","system_id":"levelo_inurba_marseille","lat":43.27379,"lon":5.36273,"is_reserved":false,"is_disabled":false,"rental_uris":{"android":"levelo://app?vid=32ae8339-43b6-4219-9b9e-1286be5089e0","ios":"levelo://app?vid=32ae8339-43b6-4219-9b9e-1286be5089e0"},"vehicle_type_id":"4","last_reported":1719155203,"current_range_meters":0,"station_id":"ce4bhbh2rcd13ifvqeo0","pricing_plan_id":"cebpf4jnsgd1na2vs0mg"},{"bike_id":"4c4d3558-6dae-4c53-a745-e08df50494c1","system_id":"levelo_inurba_marseille","lat":43.27379,"lon":5.36271,"is_reserved":false,"is_disabled":false,"rental_uris":{"android":"levelo://app?vid=4c4d3558-6dae-4c53-a745-e08df50494c1","ios":"levelo://app?vid=4c4d3558-6dae-4c53-a745-e08df50494c1"},"vehicle_type_id":"4","last_reported":1719155203,"current_range_meters":0,"station_id":"ce4bhbh2rcd13ifvqeo0","pricing_plan_id":"cebpf4jnsgd1na2vs0mg"},{"bike_id":"4be751c7-b4e6-4310-9504-14ddd2e6aa3f","system_id":"levelo_inurba_marseille","lat":43.273613,"lon":5.362705,"is_reserved":false,"is_disabled":false,"rental_uris":{"android":"levelo://app?vid=4be751c7-b4e6-4310-9504-14ddd2e6aa3f","ios":"levelo://app?vid=4be751c7-b4e6-4310-9504-14ddd2e6aa3f"},"vehicle_type_id":"4","last_reported":1719155203,"current_range_meters":400,"station_id":"ce4bhbh2rcd13ifvqeo0","pricing_plan_id":"cebpf4jnsgd1na2vs0mg"},{"bike_id":"0e21e766-059a-4dbf-b124-f2da59be72e7","system_id":"levelo_inurba_marseille","lat":43.275625,"lon":5.384392,"is_reserved":false,"is_disabled":false,"rental_uris":{"android":"levelo://app?vid=0e21e766-059a-4dbf-b124-f2da59be72e7","ios":"levelo://app?vid=0e21e766-059a-4dbf-b124-f2da59be72e7"},"vehicle_type_id":"4","last_reported":1719155203,"current_range_meters":22800,"station_id":"ce4bhh92rcd13ifvqfi0","pricing_plan_id":"cebpf4jnsgd1na2vs0mg"},{"bike_id":"69087fe2-cab3-43a1-8916-0c03cbd13e63","system_id":"levelo_inurba_marseille","lat":43.27375,"lon":5.36257,"is_reserved":false,"is_disabled":false,"rental_uris":{"android":"levelo://app?vid=69087fe2-cab3-43a1-8916-0c03cbd13e63","ios":"levelo://app?vid=69087fe2-cab3-43a1-8916-0c03cbd13e63"},"vehicle_type_id":"4","last_reported":1719155203,"current_range_meters":10800,"station_id":"ce4bhbh2rcd13ifvqeo0","pricing_plan_id":"cebpf4jnsgd1na2vs0mg"},{"bike_id":"3d1a758e-0a90-408c-abac-459425e20257","system_id":"levelo_inurba_marseille","lat":43.27374,"lon":5.3626,"is_reserved":false,"is_disabled":false,"rental_uris":{"android":"levelo://app?vid=3d1a758e-0a90-408c-abac-459425e20257","ios":"levelo://app?vid=3d1a758e-0a90-408c-abac-459425e20257"},"vehicle_type_id":"4","last_reported":1719155203,"current_range_meters":0,"station_id":"","pricing_plan_id":"cebpf4jnsgd1na2vs0mg"},{"bike_id":"9620de09-f461-454b-af8d-b8fa388de29f","system_id":"levelo_inurba_marseille","lat":43.27374,"lon":5.36259,"is_reserved":false,"is_disabled":false,"rental_uris":{"android":"levelo://app?vid=9620de09-f461-454b-af8d-b8fa388de29f","ios":"levelo://app?vid=9620de09-f461-454b-af8d-b8fa388de29f"},"vehicle_type_id":"4","last_reported":1719155203,"current_range_meters":18800,"station_id":"","pricing_plan_id":"cebpf4jnsgd1na2vs0mg"},{"bike_id":"1ee902a1-4f72-4448-b28c-67b1f4af6722","system_id":"levelo_inurba_marseille","lat":43.273609,"lon":5.362708,"is_reserved":false,"is_disabled":false,"rental_uris":{"android":"levelo://app?vid=1ee902a1-4f72-4448-b28c-67b1f4af6722","ios":"levelo://app?vid=1ee902a1-4f72-4448-b28c-67b1f4af6722"},"vehicle_type_id":"4","last_reported":1719155203,"current_range_meters":0,"station_id":"ce4bhbh2rcd13ifvqeo0","pricing_plan_id":"cebpf4jnsgd1na2vs0mg"},{"bike_id":"5e773ef4-34cf-428c-b79b-522a470ac826","system_id":"levelo_inurba_marseille","lat":43.273609,"lon":5.362708,"is_reserved":false,"is_disabled":false,"rental_uris":{"android":"levelo://app?vid=5e773ef4-34cf-428c-b79b-522a470ac826","ios":"levelo://app?vid=5e773ef4-34cf-428c-b79b-522a470ac826"},"vehicle_type_id":"4","last_reported":1719155203,"current_range_meters":800,"station_id":"ce4bhbh2rcd13ifvqeo0","pricing_plan_id":"cebpf4jnsgd1na2vs0mg"},{"bike_id":"ee6f579d-bc0a-41dd-af8c-f9a11c90d5b1","system_id":"levelo_inurba_marseille","lat":43.336134,"lon":5.410341,"is_reserved":false,"is_disabled":false,"rental_uris":{"android":"levelo://app?vid=ee6f579d-bc0a-41dd-af8c-f9a11c90d5b1","ios":"levelo://app?vid=ee6f579d-bc0a-41dd-af8c-f9a11c90d5b1"},"vehicle_type_id":"4","last_reported":1719155203,"current_range_meters":6000,"station_id":"ce4bhqh2rcd13ifvqhmg","pricing_plan_id":"cebpf4jnsgd1na2vs0mg"},{"bike_id":"0b855851-0738-455a-8754-d41b9398f965","system_id":"levelo_inurba_marseille","lat":43.3361,"lon":5.41034,"is_reserved":false,"is_disabled":false,"rental_uris":{"android":"levelo://app?vid=0b855851-0738-455a-8754-d41b9398f965","ios":"levelo://app?vid=0b855851-0738-455a-8754-d41b9398f965"},"vehicle_type_id":"4","last_reported":1719155203,"current_range_meters":15600,"station_id":"ce4bhqh2rcd13ifvqhmg","pricing_plan_id":"cebpf4jnsgd1na2vs0mg"},{"bike_id":"db5737a0-3b82-451a-b1ea-fb4abbe4ab5a","system_id":"levelo_inurba_marseille","lat":43.275625,"lon":5.384392,"is_reserved":false,"is_disabled":false,"rental_uris":{"android":"levelo://app?vid=db5737a0-3b82-451a-b1ea-fb4abbe4ab5a","ios":"levelo://app?vid=db5737a0-3b82-451a-b1ea-fb4abbe4ab5a"},"vehicle_type_id":"4","last_reported":1719155203,"current_range_meters":0,"station_id":"ce4bhh92rcd13ifvqfi0","pricing_plan_id":"cebpf4jnsgd1na2vs0mg"},{"bike_id":"a3f0d680-d91a-4783-922c-ebe913818e15","system_id":"levelo_inurba_marseille","lat":43.275625,"lon":5.384392,"is_reserved":false,"is_disabled":false,"rental_uris":{"android":"levelo://app?vid=a3f0d680-d91a-4783-922c-ebe913818e15","ios":"levelo://app?vid=a3f0d680-d91a-4783-922c-ebe913818e15"},"vehicle_type_id":"4","last_reported":1719155203,"current_range_meters":0,"station_id":"ce4bhh92rcd13ifvqfi0","pricing_plan_id":"cebpf4jnsgd1na2vs0mg"},{"bike_id":"a327b550-85e1-4f63-a20a-5a2839793f5f","system_id":"levelo_inurba_marseille","lat":43.336134,"lon":5.410341,"is_reserved":false,"is_disabled":false,"rental_uris":{"android":"levelo://app?vid=a327b550-85e1-4f63-a20a-5a2839793f5f","ios":"levelo://app?vid=a327b550-85e1-4f63-a20a-5a2839793f5f"},"vehicle_type_id":"4","last_reported":1719155203,"current_range_meters":4800,"station_id":"ce4bhqh2rcd13ifvqhmg","pricing_plan_id":"cebpf4jnsgd1na2vs0mg"},{"bike_id":"23f3977b-10ae-493e-93cf-ff132d944eef","system_id":"levelo_inurba_marseille","lat":43.275625,"lon":5.384392,"is_reserved":false,"is_disabled":false,"rental_uris":{"android":"levelo://app?vid=23f3977b-10ae-493e-93cf-ff132d944eef","ios":"levelo://app?vid=23f3977b-10ae-493e-93cf-ff132d944eef"},"vehicle_type_id":"4","last_reported":1719155203,"current_range_meters":17600,"station_id":"ce4bhh92rcd13ifvqfi0","pricing_plan_id":"cebpf4jnsgd1na2vs0mg"},{"bike_id":"f760fab7-cbcc-46b2-b747-ab633a8e9688","system_id":"levelo_inurba_marseille","lat":43.275625,"lon":5.384392,"is_reserved":false,"is_disabled":false,"rental_uris":{"android":"levelo://app?vid=f760fab7-cbcc-46b2-b747-ab633a8e9688","ios":"levelo://app?vid=f760fab7-cbcc-46b2-b747-ab633a8e9688"},"vehicle_type_id":"4","last_reported":1719155203,"current_range_meters":3600,"station_id":"ce4bhh92rcd13ifvqfi0","pricing_plan_id":"cebpf4jnsgd1na2vs0mg"},{"bike_id":"d8f06320-eb09-4552-a0dd-e3ef32007f07","system_id":"levelo_inurba_marseille","lat":43.27551,"lon":5.38442,"is_reserved":false,"is_disabled":false,"rental_uris":{"android":"levelo://app?vid=d8f06320-eb09-4552-a0dd-e3ef32007f07","ios":"levelo://app?vid=d8f06320-eb09-4552-a0dd-e3ef32007f07"},"vehicle_type_id":"4","last_reported":1719155203,"current_range_meters":30400,"station_id":"","pricing_plan_id":"cebpf4jnsgd1na2vs0mg"},{"bike_id":"12e20ea2-aa90-4fb3-a377-7ea6b17b4710","system_id":"levelo_inurba_marseille","lat":43.279952,"lon":5.400085,"is_reserved":false,"is_disabled":false,"rental_uris":{"android":"levelo://app?vid=12e20ea2-aa90-4fb3-a377-7ea6b17b4710","ios":"levelo://app?vid=12e20ea2-aa90-4fb3-a377-7ea6b17b4710"},"vehicle_type_id":"4","last_reported":1719155203,"current_range_meters":29200,"station_id":"ce4bho92rcd13ifvqh4g","pricing_plan_id":"cebpf4jnsgd1na2vs0mg"},{"bike_id":"ed6556cb-04ce-47db-9a93-311a0fab8fc2","system_id":"levelo_inurba_marseille","lat":43.27992,"lon":5.40017,"is_reserved":false,"is_disabled":false,"rental_uris":{"android":"levelo://app?vid=ed6556cb-04ce-47db-9a93-311a0fab8fc2","ios":"levelo://app?vid=ed6556cb-04ce-47db-9a93-311a0fab8fc2"},"vehicle_type_id":"4","last_reported":1719155203,"current_range_meters":0,"station_id":"ce4bho92rcd13ifvqh4g","pricing_plan_id":"cebpf4jnsgd1na2vs0mg"},{"bike_id":"a363f013-52d8-4a76-80f2-40ce7dc50916","system_id":"levelo_inurba_marseille","lat":43.279952,"lon":5.400085,"is_reserved":false,"is_disabled":false,"rental_uris":{"android":"levelo://app?vid=a363f013-52d8-4a76-80f2-40ce7dc50916","ios":"levelo://app?vid=a363f013-52d8-4a76-80f2-40ce7dc50916"},"vehicle_type_id":"4","last_reported":1719155203,"current_range_meters":25600,"station_id":"ce4bho92rcd13ifvqh4g","pricing_plan_id":"cebpf4jnsgd1na2vs0mg"},{"bike_id":"7d2fdd12-d963-4dce-8b49-ddb8026d4fcd","system_id":"levelo_inurba_marseille","lat":43.317121,"lon":5.423936,"is_reserved":false,"is_disabled":false,"rental_uris":{"android":"levelo://app?vid=7d2fdd12-d963-4dce-8b49-ddb8026d4fcd","ios":"levelo://app?vid=7d2fdd12-d963-4dce-8b49-ddb8026d4fcd"},"vehicle_type_id":"4","last_reported":1719155203,"current_range_meters":19200,"station_id":"ce4bhp92rcd13ifvqhbg","pricing_plan_id":"cebpf4jnsgd1na2vs0mg"},{"bike_id":"3a633d73-72aa-4324-a23c-65e9f49b8830","system_id":"levelo_inurba_marseille","lat":43.274099,"lon":5.394019,"is_reserved":false,"is_disabled":false,"rental_uris":{"android":"levelo://app?vid=3a633d73-72aa-4324-a23c-65e9f49b8830","ios":"levelo://app?vid=3a633d73-72aa-4324-a23c-65e9f49b8830"},"vehicle_type_id":"4","last_reported":1719155203,"current_range_meters":800,"station_id":"ce4bhdp2rcd13ifvqf20","pricing_plan_id":"cebpf4jnsgd1na2vs0mg"},{"bike_id":"6ec9e212-1b73-4309-be35-4f7c9b4e80d7","system_id":"levelo_inurba_marseille","lat":43.295523,"lon":5.422926,"is_reserved":false,"is_disabled":false,"rental_uris":{"android":"levelo://app?vid=6ec9e212-1b73-4309-be35-4f7c9b4e80d7","ios":"levelo://app?vid=6ec9e212-1b73-4309-be35-4f7c9b4e80d7"},"vehicle_type_id":"4","last_reported":1719155203,"current_range_meters":30800,"station_id":"ce4bhph2rcd13ifvqhdg","pricing_plan_id":"cebpf4jnsgd1na2vs0mg"},{"bike_id":"e11bcb62-b913-4595-98d0-8ffe882d8fcc","system_id":"levelo_inurba_marseille","lat":43.278128,"lon":5.407195,"is_reserved":false,"is_disabled":false,"rental_uris":{"android":"levelo://app?vid=e11bcb62-b913-4595-98d0-8ffe882d8fcc","ios":"levelo://app?vid=e11bcb62-b913-4595-98d0-8ffe882d8fcc"},"vehicle_type_id":"4","last_reported":1719155203,"current_range_meters":8000,"station_id":"ce4bhnh2rcd13ifvqgtg","pricing_plan_id":"cebpf4jnsgd1na2vs0mg"},{"bike_id":"0ec637f2-1b26-4c77-a9c8-9ca720427b13","system_id":"levelo_inurba_marseille","lat":43.278128,"lon":5.407195,"is_reserved":false,"is_disabled":false,"rental_uris":{"android":"levelo://app?vid=0ec637f2-1b26-4c77-a9c8-9ca720427b13","ios":"levelo://app?vid=0ec637f2-1b26-4c77-a9c8-9ca720427b13"},"vehicle_type_id":"4","last_reported":1719155203,"current_range_meters":30800,"station_id":"ce4bhnh2rcd13ifvqgtg","pricing_plan_id":"cebpf4jnsgd1na2vs0mg"},{"bike_id":"420e93fd-44f3-4524-b050-b6214e3b6034","system_id":"levelo_inurba_marseille","lat":43.269319,"lon":5.389397,"is_reserved":false,"is_disabled":false,"rental_uris":{"android":"levelo://app?vid=420e93fd-44f3-4524-b050-b6214e3b6034","ios":"levelo://app?vid=420e93fd-44f3-4524-b050-b6214e3b6034"},"vehicle_type_id":"4","last_reported":1719155203,"current_range_meters":14800,"station_id":"ce4bhhh2rcd13ifvqfl0","pricing_plan_id":"cebpf4jnsgd1na2vs0mg"},{"bike_id":"28e2d292-a368-4165-95ab-7235bad9425f","system_id":"levelo_inurba_marseille","lat":43.269319,"lon":5.389397,"is_reserved":false,"is_disabled":false,"rental_uris":{"android":"levelo://app?vid=28e2d292-a368-4165-95ab-7235bad9425f","ios":"levelo://app?vid=28e2d292-a368-4165-95ab-7235bad9425f"},"vehicle_type_id":"4","last_reported":1719155203,"current_range_meters":4400,"station_id":"ce4bhhh2rcd13ifvqfl0","pricing_plan_id":"cebpf4jnsgd1na2vs0mg"},{"bike_id":"e43ba8f4-b22b-4b41-b9a1-acb41d73935f","system_id":"levelo_inurba_marseille","lat":43.269319,"lon":5.389397,"is_reserved":false,"is_disabled":false,"rental_uris":{"android":"levelo://app?vid=e43ba8f4-b22b-4b41-b9a1-acb41d73935f","ios":"levelo://app?vid=e43ba8f4-b22b-4b41-b9a1-acb41d73935f"},"vehicle_type_id":"4","last_reported":1719155203,"current_range_meters":19600,"station_id":"ce4bhhh2rcd13ifvqfl0","pricing_plan_id":"cebpf4jnsgd1na2vs0mg"},{"bike_id":"5bdebde6-5ba3-447a-8b22-340595c0159b","system_id":"levelo_inurba_marseille","lat":43.26681,"lon":5.382694,"is_reserved":false,"is_disabled":false,"rental_uris":{"android":"levelo://app?vid=5bdebde6-5ba3-447a-8b22-340595c0159b","ios":"levelo://app?vid=5bdebde6-5ba3-447a-8b22-340595c0159b"},"vehicle_type_id":"4","last_reported":1719155203,"current_range_meters":1600,"station_id":"ce4bhg92rcd13ifvqf90","pricing_plan_id":"cebpf4jnsgd1na2vs0mg"},{"bike_id":"80e407f3-b82e-44fe-933d-86b2b42ac20c","system_id":"levelo_inurba_marseille","lat":43.27996,"lon":5.416624,"is_reserved":false,"is_disabled":false,"rental_uris":{"android":"levelo://app?vid=80e407f3-b82e-44fe-933d-86b2b42ac20c","ios":"levelo://app?vid=80e407f3-b82e-44fe-933d-86b2b42ac20c"},"vehicle_type_id":"4","last_reported":1719155203,"current_range_meters":19600,"station_id":"ce4bho12rcd13ifvqh1g","pricing_plan_id":"cebpf4jnsgd1na2vs0mg"},{"bike_id":"146afefc-5904-4026-ba60-3cd8d0b8ff48","system_id":"levelo_inurba_marseille","lat":43.2715,"lon":5.40425,"is_reserved":false,"is_disabled":false,"rental_uris":{"android":"levelo://app?vid=146afefc-5904-4026-ba60-3cd8d0b8ff48","ios":"levelo://app?vid=146afefc-5904-4026-ba60-3cd8d0b8ff48"},"vehicle_type_id":"4","last_reported":1719155203,"current_range_meters":31600,"station_id":"","pricing_plan_id":"cebpf4jnsgd1na2vs0mg"},{"bike_id":"9208d7ae-2414-4b2a-a782-6707f03f643e","system_id":"levelo_inurba_marseille","lat":43.265569,"lon":5.390047,"is_reserved":false,"is_disabled":false,"rental_uris":{"android":"levelo://app?vid=9208d7ae-2414-4b2a-a782-6707f03f643e","ios":"levelo://app?vid=9208d7ae-2414-4b2a-a782-6707f03f643e"},"vehicle_type_id":"4","last_reported":1719155203,"current_range_meters":2000,"station_id":"ce4bhe12rcd13ifvqf30","pricing_plan_id":"cebpf4jnsgd1na2vs0mg"},{"bike_id":"34d42927-0258-4933-924b-8dd3a08735e0","system_id":"levelo_inurba_marseille","lat":43.308032,"lon":5.435215,"is_reserved":false,"is_disabled":false,"rental_uris":{"android":"levelo://app?vid=34d42927-0258-4933-924b-8dd3a08735e0","ios":"levelo://app?vid=34d42927-0258-4933-924b-8dd3a08735e0"},"vehicle_type_id":"4","last_reported":1719155203,"current_range_meters":2800,"station_id":"ce4bhph2rcd13ifvqheg","pricing_plan_id":"cebpf4jnsgd1na2vs0mg"},{"bike_id":"ae7fa3b3-3cd8-427a-a028-53c7f7d4a015","system_id":"levelo_inurba_marseille","lat":43.308051,"lon":5.43527,"is_reserved":false,"is_disabled":false,"rental_uris":{"android":"levelo://app?vid=ae7fa3b3-3cd8-427a-a028-53c7f7d4a015","ios":"levelo://app?vid=ae7fa3b3-3cd8-427a-a028-53c7f7d4a015"},"vehicle_type_id":"4","last_reported":1719155203,"current_range_meters":28000,"station_id":"ce4bhph2rcd13ifvqheg","pricing_plan_id":"cebpf4jnsgd1na2vs0mg"},{"bike_id":"6b1233e7-ed0c-49a4-8367-4ecfe7c07720","system_id":"levelo_inurba_marseille","lat":43.308051,"lon":5.43527,"is_reserved":false,"is_disabled":false,"rental_uris":{"android":"levelo://app?vid=6b1233e7-ed0c-49a4-8367-4ecfe7c07720","ios":"levelo://app?vid=6b1233e7-ed0c-49a4-8367-4ecfe7c07720"},"vehicle_type_id":"4","last_reported":1719155203,"current_range_meters":24400,"station_id":"ce4bhph2rcd13ifvqheg","pricing_plan_id":"cebpf4jnsgd1na2vs0mg"},{"bike_id":"9257a489-5ed8-49ee-933f-6041d28e0e6f","system_id":"levelo_inurba_marseille","lat":43.265569,"lon":5.390047,"is_reserved":false,"is_disabled":false,"rental_uris":{"android":"levelo://app?vid=9257a489-5ed8-49ee-933f-6041d28e0e6f","ios":"levelo://app?vid=9257a489-5ed8-49ee-933f-6041d28e0e6f"},"vehicle_type_id":"4","last_reported":1719155203,"current_range_meters":16000,"station_id":"ce4bhe12rcd13ifvqf30","pricing_plan_id":"cebpf4jnsgd1na2vs0mg"},{"bike_id":"5ed40a25-3cf0-4b70-806d-1940f86a30bf","system_id":"levelo_inurba_marseille","lat":43.308051,"lon":5.43527,"is_reserved":false,"is_disabled":false,"rental_uris":{"android":"levelo://app?vid=5ed40a25-3cf0-4b70-806d-1940f86a30bf","ios":"levelo://app?vid=5ed40a25-3cf0-4b70-806d-1940f86a30bf"},"vehicle_type_id":"4","last_reported":1719155203,"current_range_meters":21600,"station_id":"ce4bhph2rcd13ifvqheg","pricing_plan_id":"cebpf4jnsgd1na2vs0mg"},{"bike_id":"6ecc7a53-d96c-4fb9-96a5-1d652c3d5d55","system_id":"levelo_inurba_marseille","lat":43.265569,"lon":5.390047,"is_reserved":false,"is_disabled":false,"rental_uris":{"android":"levelo://app?vid=6ecc7a53-d96c-4fb9-96a5-1d652c3d5d55","ios":"levelo://app?vid=6ecc7a53-d96c-4fb9-96a5-1d652c3d5d55"},"vehicle_type_id":"4","last_reported":1719155203,"current_range_meters":11600,"station_id":"ce4bhe12rcd13ifvqf30","pricing_plan_id":"cebpf4jnsgd1na2vs0mg"},{"bike_id":"04b1c609-eb82-4c9e-8df5-cb5136857d72","system_id":"levelo_inurba_marseille","lat":43.308051,"lon":5.43527,"is_reserved":false,"is_disabled":false,"rental_uris":{"android":"levelo://app?vid=04b1c609-eb82-4c9e-8df5-cb5136857d72","ios":"levelo://app?vid=04b1c609-eb82-4c9e-8df5-cb5136857d72"},"vehicle_type_id":"4","last_reported":1719155203,"current_range_meters":28800,"station_id":"ce4bhph2rcd13ifvqheg","pricing_plan_id":"cebpf4jnsgd1na2vs0mg"},{"bike_id":"f3cfe14f-b316-4323-ba2a-9915cd99aacf","system_id":"levelo_inurba_marseille","lat":43.308051,"lon":5.43527,"is_reserved":false,"is_disabled":false,"rental_uris":{"android":"levelo://app?vid=f3cfe14f-b316-4323-ba2a-9915cd99aacf","ios":"levelo://app?vid=f3cfe14f-b316-4323-ba2a-9915cd99aacf"},"vehicle_type_id":"4","last_reported":1719155203,"current_range_meters":32000,"station_id":"ce4bhph2rcd13ifvqheg","pricing_plan_id":"cebpf4jnsgd1na2vs0mg"},{"bike_id":"50d03c83-4df8-4196-afdf-c15ae5986f6a","system_id":"levelo_inurba_marseille","lat":43.308051,"lon":5.43527,"is_reserved":false,"is_disabled":false,"rental_uris":{"android":"levelo://app?vid=50d03c83-4df8-4196-afdf-c15ae5986f6a","ios":"levelo://app?vid=50d03c83-4df8-4196-afdf-c15ae5986f6a"},"vehicle_type_id":"4","last_reported":1719155203,"current_range_meters":20400,"station_id":"ce4bhph2rcd13ifvqheg","pricing_plan_id":"cebpf4jnsgd1na2vs0mg"},{"bike_id":"dd401efe-23c1-459e-b1cb-c17f0f1578c1","system_id":"levelo_inurba_marseille","lat":43.26306,"lon":5.37622,"is_reserved":false,"is_disabled":false,"rental_uris":{"android":"levelo://app?vid=dd401efe-23c1-459e-b1cb-c17f0f1578c1","ios":"levelo://app?vid=dd401efe-23c1-459e-b1cb-c17f0f1578c1"},"vehicle_type_id":"4","last_reported":1719155203,"current_range_meters":0,"station_id":"","pricing_plan_id":"cebpf4jnsgd1na2vs0mg"},{"bike_id":"68ebea20-f433-40b5-a41b-953d7658a5fb","system_id":"levelo_inurba_marseille","lat":43.26949,"lon":5.40262,"is_reserved":false,"is_disabled":false,"rental_uris":{"android":"levelo://app?vid=68ebea20-f433-40b5-a41b-953d7658a5fb","ios":"levelo://app?vid=68ebea20-f433-40b5-a41b-953d7658a5fb"},"vehicle_type_id":"4","last_reported":1719155203,"current_range_meters":19600,"station_id":"cjm6bp8fraef2m0cb0m0","pricing_plan_id":"cebpf4jnsgd1na2vs0mg"},{"bike_id":"d2e7fc49-6a8e-4e7d-bcdb-3ce5e672352b","system_id":"levelo_inurba_marseille","lat":43.26218,"lon":5.37437,"is_reserved":false,"is_disabled":false,"rental_uris":{"android":"levelo://app?vid=d2e7fc49-6a8e-4e7d-bcdb-3ce5e672352b","ios":"levelo://app?vid=d2e7fc49-6a8e-4e7d-bcdb-3ce5e672352b"},"vehicle_type_id":"4","last_reported":1719155203,"current_range_meters":0,"station_id":"ce4bhgp2rcd13ifvqfc0","pricing_plan_id":"cebpf4jnsgd1na2vs0mg"},{"bike_id":"bc5c2dee-7a72-4110-abdc-ec3960c128d1","system_id":"levelo_inurba_marseille","lat":43.26212,"lon":5.37442,"is_reserved":false,"is_disabled":false,"rental_uris":{"android":"levelo://app?vid=bc5c2dee-7a72-4110-abdc-ec3960c128d1","ios":"levelo://app?vid=bc5c2dee-7a72-4110-abdc-ec3960c128d1"},"vehicle_type_id":"4","last_reported":1719155203,"current_range_meters":0,"station_id":"ce4bhgp2rcd13ifvqfc0","pricing_plan_id":"cebpf4jnsgd1na2vs0mg"},{"bike_id":"1d7173c7-99b6-44b9-b0b1-a9cab5296065","system_id":"levelo_inurba_marseille","lat":43.26211,"lon":5.37447,"is_reserved":false,"is_disabled":false,"rental_uris":{"android":"levelo://app?vid=1d7173c7-99b6-44b9-b0b1-a9cab5296065","ios":"levelo://app?vid=1d7173c7-99b6-44b9-b0b1-a9cab5296065"},"vehicle_type_id":"4","last_reported":1719155203,"current_range_meters":26800,"station_id":"ce4bhgp2rcd13ifvqfc0","pricing_plan_id":"cebpf4jnsgd1na2vs0mg"},{"bike_id":"21a18a02-381d-4700-acab-98af52c4fe97","system_id":"levelo_inurba_marseille","lat":43.26209,"lon":5.37443,"is_reserved":false,"is_disabled":false,"rental_uris":{"android":"levelo://app?vid=21a18a02-381d-4700-acab-98af52c4fe97","ios":"levelo://app?vid=21a18a02-381d-4700-acab-98af52c4fe97"},"vehicle_type_id":"4","last_reported":1719155203,"current_range_meters":0,"station_id":"ce4bhgp2rcd13ifvqfc0","pricing_plan_id":"cebpf4jnsgd1na2vs0mg"},{"bike_id":"14a27d44-2433-4d37-9ab5-e08afff4e2b5","system_id":"levelo_inurba_marseille","lat":43.261782,"lon":5.374515,"is_reserved":false,"is_disabled":false,"rental_uris":{"android":"levelo://app?vid=14a27d44-2433-4d37-9ab5-e08afff4e2b5","ios":"levelo://app?vid=14a27d44-2433-4d37-9ab5-e08afff4e2b5"},"vehicle_type_id":"4","last_reported":1719155203,"current_range_meters":30800,"station_id":"ce4bhgp2rcd13ifvqfc0","pricing_plan_id":"cebpf4jnsgd1na2vs0mg"},{"bike_id":"951dc8e7-7be3-40f4-9261-aec282c92c6a","system_id":"levelo_inurba_marseille","lat":43.26193,"lon":5.3745,"is_reserved":false,"is_disabled":false,"rental_uris":{"android":"levelo://app?vid=951dc8e7-7be3-40f4-9261-aec282c92c6a","ios":"levelo://app?vid=951dc8e7-7be3-40f4-9261-aec282c92c6a"},"vehicle_type_id":"4","last_reported":1719155203,"current_range_meters":8000,"station_id":"ce4bhgp2rcd13ifvqfc0","pricing_plan_id":"cebpf4jnsgd1na2vs0mg"},{"bike_id":"7992b42a-30a1-440e-bec9-d6671864fc69","system_id":"levelo_inurba_marseille","lat":43.26192,"lon":5.37446,"is_reserved":false,"is_disabled":false,"rental_uris":{"android":"levelo://app?vid=7992b42a-30a1-440e-bec9-d6671864fc69","ios":"levelo://app?vid=7992b42a-30a1-440e-bec9-d6671864fc69"},"vehicle_type_id":"4","last_reported":1719155203,"current_range_meters":11600,"station_id":"ce4bhgp2rcd13ifvqfc0","pricing_plan_id":"cebpf4jnsgd1na2vs0mg"},{"bike_id":"63a5fa0e-9ec4-42e5-9fe7-c94a82263067","system_id":"levelo_inurba_marseille","lat":43.26554,"lon":5.39493,"is_reserved":false,"is_disabled":false,"rental_uris":{"android":"levelo://app?vid=63a5fa0e-9ec4-42e5-9fe7-c94a82263067","ios":"levelo://app?vid=63a5fa0e-9ec4-42e5-9fe7-c94a82263067"},"vehicle_type_id":"4","last_reported":1719155203,"current_range_meters":13200,"station_id":"","pricing_plan_id":"cebpf4jnsgd1na2vs0mg"},{"bike_id":"67c38b2e-27f3-4d1c-b00e-a31e90a56b95","system_id":"levelo_inurba_marseille","lat":43.26202,"lon":5.379299,"is_reserved":false,"is_disabled":false,"rental_uris":{"android":"levelo://app?vid=67c38b2e-27f3-4d1c-b00e-a31e90a56b95","ios":"levelo://app?vid=67c38b2e-27f3-4d1c-b00e-a31e90a56b95"},"vehicle_type_id":"4","last_reported":1719155203,"current_range_meters":0,"station_id":"ce4bhjp2rcd13ifvqg90","pricing_plan_id":"cebpf4jnsgd1na2vs0mg"},{"bike_id":"52bbb09b-0057-4fa1-87c8-787e9f4d09e9","system_id":"levelo_inurba_marseille","lat":43.26202,"lon":5.379299,"is_reserved":false,"is_disabled":false,"rental_uris":{"android":"levelo://app?vid=52bbb09b-0057-4fa1-87c8-787e9f4d09e9","ios":"levelo://app?vid=52bbb09b-0057-4fa1-87c8-787e9f4d09e9"},"vehicle_type_id":"4","last_reported":1719155203,"current_range_meters":25600,"station_id":"ce4bhjp2rcd13ifvqg90","pricing_plan_id":"cebpf4jnsgd1na2vs0mg"},{"bike_id":"b8addbcd-2e09-4716-b16a-8151b3191c65","system_id":"levelo_inurba_marseille","lat":43.26202,"lon":5.379299,"is_reserved":false,"is_disabled":false,"rental_uris":{"android":"levelo://app?vid=b8addbcd-2e09-4716-b16a-8151b3191c65","ios":"levelo://app?vid=b8addbcd-2e09-4716-b16a-8151b3191c65"},"vehicle_type_id":"4","last_reported":1719155203,"current_range_meters":24400,"station_id":"ce4bhjp2rcd13ifvqg90","pricing_plan_id":"cebpf4jnsgd1na2vs0mg"},{"bike_id":"c6b1a3cd-423d-4f5d-b7ec-fa609e4a2e8b","system_id":"levelo_inurba_marseille","lat":43.262012,"lon":5.379307,"is_reserved":false,"is_disabled":false,"rental_uris":{"android":"levelo://app?vid=c6b1a3cd-423d-4f5d-b7ec-fa609e4a2e8b","ios":"levelo://app?vid=c6b1a3cd-423d-4f5d-b7ec-fa609e4a2e8b"},"vehicle_type_id":"4","last_reported":1719155203,"current_range_meters":1200,"station_id":"ce4bhjp2rcd13ifvqg90","pricing_plan_id":"cebpf4jnsgd1na2vs0mg"},{"bike_id":"28f24f3d-199d-4845-ad29-650c5858d4ed","system_id":"levelo_inurba_marseille","lat":43.271388,"lon":5.409269,"is_reserved":false,"is_disabled":false,"rental_uris":{"android":"levelo://app?vid=28f24f3d-199d-4845-ad29-650c5858d4ed","ios":"levelo://app?vid=28f24f3d-199d-4845-ad29-650c5858d4ed"},"vehicle_type_id":"4","last_reported":1719155203,"current_range_meters":30400,"station_id":"ce4bhl12rcd13ifvqgf0","pricing_plan_id":"cebpf4jnsgd1na2vs0mg"},{"bike_id":"6d7f16d0-6376-46f8-ae66-03f042fe5914","system_id":"levelo_inurba_marseille","lat":43.26202,"lon":5.379299,"is_reserved":false,"is_disabled":false,"rental_uris":{"android":"levelo://app?vid=6d7f16d0-6376-46f8-ae66-03f042fe5914","ios":"levelo://app?vid=6d7f16d0-6376-46f8-ae66-03f042fe5914"},"vehicle_type_id":"4","last_reported":1719155203,"current_range_meters":25600,"station_id":"ce4bhjp2rcd13ifvqg90","pricing_plan_id":"cebpf4jnsgd1na2vs0mg"},{"bike_id":"428c636f-be03-4ec3-9429-d330ba689690","system_id":"levelo_inurba_marseille","lat":43.26202,"lon":5.379299,"is_reserved":false,"is_disabled":false,"rental_uris":{"android":"levelo://app?vid=428c636f-be03-4ec3-9429-d330ba689690","ios":"levelo://app?vid=428c636f-be03-4ec3-9429-d330ba689690"},"vehicle_type_id":"4","last_reported":1719155203,"current_range_meters":18000,"station_id":"ce4bhjp2rcd13ifvqg90","pricing_plan_id":"cebpf4jnsgd1na2vs0mg"},{"bike_id":"26ccc173-2c41-4d36-9dfb-bbaa52c1dd05","system_id":"levelo_inurba_marseille","lat":43.26202,"lon":5.379299,"is_reserved":false,"is_disabled":false,"rental_uris":{"android":"levelo://app?vid=26ccc173-2c41-4d36-9dfb-bbaa52c1dd05","ios":"levelo://app?vid=26ccc173-2c41-4d36-9dfb-bbaa52c1dd05"},"vehicle_type_id":"4","last_reported":1719155203,"current_range_meters":3600,"station_id":"ce4bhjp2rcd13ifvqg90","pricing_plan_id":"cebpf4jnsgd1na2vs0mg"},{"bike_id":"16a0f277-ad0b-4898-a7b4-409f35c2b30d","system_id":"levelo_inurba_marseille","lat":43.271368,"lon":5.40928,"is_reserved":false,"is_disabled":false,"rental_uris":{"android":"levelo://app?vid=16a0f277-ad0b-4898-a7b4-409f35c2b30d","ios":"levelo://app?vid=16a0f277-ad0b-4898-a7b4-409f35c2b30d"},"vehicle_type_id":"4","last_reported":1719155203,"current_range_meters":18400,"station_id":"ce4bhl12rcd13ifvqgf0","pricing_plan_id":"cebpf4jnsgd1na2vs0mg"},{"bike_id":"988c3052-f085-458b-ba23-df9fa25c52c1","system_id":"levelo_inurba_marseille","lat":43.271368,"lon":5.40928,"is_reserved":false,"is_disabled":false,"rental_uris":{"android":"levelo://app?vid=988c3052-f085-458b-ba23-df9fa25c52c1","ios":"levelo://app?vid=988c3052-f085-458b-ba23-df9fa25c52c1"},"vehicle_type_id":"4","last_reported":1719155203,"current_range_meters":19600,"station_id":"ce4bhl12rcd13ifvqgf0","pricing_plan_id":"cebpf4jnsgd1na2vs0mg"},{"bike_id":"3acfe924-402c-4893-9a4b-60e0e31af59b","system_id":"levelo_inurba_marseille","lat":43.271368,"lon":5.40928,"is_reserved":false,"is_disabled":false,"rental_uris":{"android":"levelo://app?vid=3acfe924-402c-4893-9a4b-60e0e31af59b","ios":"levelo://app?vid=3acfe924-402c-4893-9a4b-60e0e31af59b"},"vehicle_type_id":"4","last_reported":1719155203,"current_range_meters":30800,"station_id":"ce4bhl12rcd13ifvqgf0","pricing_plan_id":"cebpf4jnsgd1na2vs0mg"},{"bike_id":"9f562851-a37a-47b0-bf06-e9172cda6b26","system_id":"levelo_inurba_marseille","lat":43.267959,"lon":5.402687,"is_reserved":false,"is_disabled":false,"rental_uris":{"android":"levelo://app?vid=9f562851-a37a-47b0-bf06-e9172cda6b26","ios":"levelo://app?vid=9f562851-a37a-47b0-bf06-e9172cda6b26"},"vehicle_type_id":"4","last_reported":1719155203,"current_range_meters":15600,"station_id":"ce501612rcd8frsf0b60","pricing_plan_id":"cebpf4jnsgd1na2vs0mg"},{"bike_id":"ed4c0401-0164-4ce3-9d21-ac53d2583e06","system_id":"levelo_inurba_marseille","lat":43.267959,"lon":5.402687,"is_reserved":false,"is_disabled":false,"rental_uris":{"android":"levelo://app?vid=ed4c0401-0164-4ce3-9d21-ac53d2583e06","ios":"levelo://app?vid=ed4c0401-0164-4ce3-9d21-ac53d2583e06"},"vehicle_type_id":"4","last_reported":1719155203,"current_range_meters":18800,"station_id":"ce501612rcd8frsf0b60","pricing_plan_id":"cebpf4jnsgd1na2vs0mg"},{"bike_id":"ab841e27-9209-46d1-ae3d-c4bd6e7ac3f8","system_id":"levelo_inurba_marseille","lat":43.264946,"lon":5.395416,"is_reserved":false,"is_disabled":false,"rental_uris":{"android":"levelo://app?vid=ab841e27-9209-46d1-ae3d-c4bd6e7ac3f8","ios":"levelo://app?vid=ab841e27-9209-46d1-ae3d-c4bd6e7ac3f8"},"vehicle_type_id":"4","last_reported":1719155203,"current_range_meters":17200,"station_id":"ce4bhi12rcd13ifvqfq0","pricing_plan_id":"cebpf4jnsgd1na2vs0mg"},{"bike_id":"8dec0121-79f6-4486-be05-74936aa40442","system_id":"levelo_inurba_marseille","lat":43.298768,"lon":5.43643,"is_reserved":false,"is_disabled":false,"rental_uris":{"android":"levelo://app?vid=8dec0121-79f6-4486-be05-74936aa40442","ios":"levelo://app?vid=8dec0121-79f6-4486-be05-74936aa40442"},"vehicle_type_id":"4","last_reported":1719155203,"current_range_meters":28400,"station_id":"ce4bhpp2rcd13ifvqhfg","pricing_plan_id":"cebpf4jnsgd1na2vs0mg"},{"bike_id":"7e4bc5b0-f026-4a1f-9f2d-dfc707549f98","system_id":"levelo_inurba_marseille","lat":43.298768,"lon":5.43643,"is_reserved":false,"is_disabled":false,"rental_uris":{"android":"levelo://app?vid=7e4bc5b0-f026-4a1f-9f2d-dfc707549f98","ios":"levelo://app?vid=7e4bc5b0-f026-4a1f-9f2d-dfc707549f98"},"vehicle_type_id":"4","last_reported":1719155203,"current_range_meters":20400,"station_id":"ce4bhpp2rcd13ifvqhfg","pricing_plan_id":"cebpf4jnsgd1na2vs0mg"},{"bike_id":"897562f1-fee7-42e2-bcf6-48640bc9edfd","system_id":"levelo_inurba_marseille","lat":43.26026,"lon":5.37543,"is_reserved":false,"is_disabled":false,"rental_uris":{"android":"levelo://app?vid=897562f1-fee7-42e2-bcf6-48640bc9edfd","ios":"levelo://app?vid=897562f1-fee7-42e2-bcf6-48640bc9edfd"},"vehicle_type_id":"4","last_reported":1719155203,"current_range_meters":16000,"station_id":"ce4bhgh2rcd13ifvqfa0","pricing_plan_id":"cebpf4jnsgd1na2vs0mg"},{"bike_id":"548547e8-293b-463f-8464-fb93afdaaaee","system_id":"levelo_inurba_marseille","lat":43.28319,"lon":5.42849,"is_reserved":false,"is_disabled":false,"rental_uris":{"android":"levelo://app?vid=548547e8-293b-463f-8464-fb93afdaaaee","ios":"levelo://app?vid=548547e8-293b-463f-8464-fb93afdaaaee"},"vehicle_type_id":"4","last_reported":1719155203,"current_range_meters":22800,"station_id":"","pricing_plan_id":"cebpf4jnsgd1na2vs0mg"},{"bike_id":"a602513e-1579-4575-b2f2-278f215cbdab","system_id":"levelo_inurba_marseille","lat":43.2607,"lon":5.393983,"is_reserved":false,"is_disabled":false,"rental_uris":{"android":"levelo://app?vid=a602513e-1579-4575-b2f2-278f215cbdab","ios":"levelo://app?vid=a602513e-1579-4575-b2f2-278f215cbdab"},"vehicle_type_id":"4","last_reported":1719155203,"current_range_meters":14400,"station_id":"ce4bhh92rcd13ifvqfj0","pricing_plan_id":"cebpf4jnsgd1na2vs0mg"},{"bike_id":"1a10f186-e13b-4fb7-aff2-8a92378d1113","system_id":"levelo_inurba_marseille","lat":43.2607,"lon":5.393983,"is_reserved":false,"is_disabled":false,"rental_uris":{"android":"levelo://app?vid=1a10f186-e13b-4fb7-aff2-8a92378d1113","ios":"levelo://app?vid=1a10f186-e13b-4fb7-aff2-8a92378d1113"},"vehicle_type_id":"4","last_reported":1719155203,"current_range_meters":26800,"station_id":"ce4bhh92rcd13ifvqfj0","pricing_plan_id":"cebpf4jnsgd1na2vs0mg"},{"bike_id":"39479b6b-00b1-409a-8518-8b848a61f0c4","system_id":"levelo_inurba_marseille","lat":43.2607,"lon":5.393983,"is_reserved":false,"is_disabled":false,"rental_uris":{"android":"levelo://app?vid=39479b6b-00b1-409a-8518-8b848a61f0c4","ios":"levelo://app?vid=39479b6b-00b1-409a-8518-8b848a61f0c4"},"vehicle_type_id":"4","last_reported":1719155203,"current_range_meters":25600,"station_id":"ce4bhh92rcd13ifvqfj0","pricing_plan_id":"cebpf4jnsgd1na2vs0mg"},{"bike_id":"ab125bcd-4c31-4e98-8306-18b8d8bc32d3","system_id":"levelo_inurba_marseille","lat":43.27497,"lon":5.42452,"is_reserved":false,"is_disabled":false,"rental_uris":{"android":"levelo://app?vid=ab125bcd-4c31-4e98-8306-18b8d8bc32d3","ios":"levelo://app?vid=ab125bcd-4c31-4e98-8306-18b8d8bc32d3"},"vehicle_type_id":"4","last_reported":1719155203,"current_range_meters":15600,"station_id":"ce4bhn92rcd13ifvqgrg","pricing_plan_id":"cebpf4jnsgd1na2vs0mg"},{"bike_id":"89e32ca1-88e8-4d84-83ac-c042498d7311","system_id":"levelo_inurba_marseille","lat":43.275028,"lon":5.424534,"is_reserved":false,"is_disabled":false,"rental_uris":{"android":"levelo://app?vid=89e32ca1-88e8-4d84-83ac-c042498d7311","ios":"levelo://app?vid=89e32ca1-88e8-4d84-83ac-c042498d7311"},"vehicle_type_id":"4","last_reported":1719155203,"current_range_meters":16000,"station_id":"ce4bhn92rcd13ifvqgrg","pricing_plan_id":"cebpf4jnsgd1na2vs0mg"},{"bike_id":"208c4e18-d9bf-4c31-b509-8e7eb1269599","system_id":"levelo_inurba_marseille","lat":43.255756,"lon":5.382303,"is_reserved":false,"is_disabled":false,"rental_uris":{"android":"levelo://app?vid=208c4e18-d9bf-4c31-b509-8e7eb1269599","ios":"levelo://app?vid=208c4e18-d9bf-4c31-b509-8e7eb1269599"},"vehicle_type_id":"4","last_reported":1719155203,"current_range_meters":0,"station_id":"ce4bhih2rcd13ifvqfs0","pricing_plan_id":"cebpf4jnsgd1na2vs0mg"},{"bike_id":"f58edac7-af54-4f65-9eca-4ef10156d591","system_id":"levelo_inurba_marseille","lat":43.255756,"lon":5.382303,"is_reserved":false,"is_disabled":false,"rental_uris":{"android":"levelo://app?vid=f58edac7-af54-4f65-9eca-4ef10156d591","ios":"levelo://app?vid=f58edac7-af54-4f65-9eca-4ef10156d591"},"vehicle_type_id":"4","last_reported":1719155203,"current_range_meters":28400,"station_id":"ce4bhih2rcd13ifvqfs0","pricing_plan_id":"cebpf4jnsgd1na2vs0mg"},{"bike_id":"6f4f19a4-d09f-4a39-bcd4-0d64af384d4c","system_id":"levelo_inurba_marseille","lat":43.258224,"lon":5.394369,"is_reserved":false,"is_disabled":false,"rental_uris":{"android":"levelo://app?vid=6f4f19a4-d09f-4a39-bcd4-0d64af384d4c","ios":"levelo://app?vid=6f4f19a4-d09f-4a39-bcd4-0d64af384d4c"},"vehicle_type_id":"4","last_reported":1719155203,"current_range_meters":12800,"station_id":"ce4bhip2rcd13ifvqft0","pricing_plan_id":"cebpf4jnsgd1na2vs0mg"},{"bike_id":"9537e92c-16db-45ad-9e69-c7382784922d","system_id":"levelo_inurba_marseille","lat":43.255756,"lon":5.382303,"is_reserved":false,"is_disabled":false,"rental_uris":{"android":"levelo://app?vid=9537e92c-16db-45ad-9e69-c7382784922d","ios":"levelo://app?vid=9537e92c-16db-45ad-9e69-c7382784922d"},"vehicle_type_id":"4","last_reported":1719155203,"current_range_meters":30800,"station_id":"ce4bhih2rcd13ifvqfs0","pricing_plan_id":"cebpf4jnsgd1na2vs0mg"},{"bike_id":"acdfdea2-c857-48d0-881c-c7b325256e68","system_id":"levelo_inurba_marseille","lat":43.255756,"lon":5.382303,"is_reserved":false,"is_disabled":false,"rental_uris":{"android":"levelo://app?vid=acdfdea2-c857-48d0-881c-c7b325256e68","ios":"levelo://app?vid=acdfdea2-c857-48d0-881c-c7b325256e68"},"vehicle_type_id":"4","last_reported":1719155203,"current_range_meters":23600,"station_id":"ce4bhih2rcd13ifvqfs0","pricing_plan_id":"cebpf4jnsgd1na2vs0mg"},{"bike_id":"fd887363-e32c-47c3-86e7-e2e3f9496619","system_id":"levelo_inurba_marseille","lat":43.25565,"lon":5.38157,"is_reserved":false,"is_disabled":false,"rental_uris":{"android":"levelo://app?vid=fd887363-e32c-47c3-86e7-e2e3f9496619","ios":"levelo://app?vid=fd887363-e32c-47c3-86e7-e2e3f9496619"},