{"last_updated":1714503940,"ttl":30,"version":"2.2","data":{"bikes":[{"bike_id":"e9a50d52-9e84-4dfd-9970-5295119879c3","system_id":"levelo_inurba_marseille","lat":43.313476,"lon":5.36699,"is_reserved":false,"is_disabled":false,"rental_uris":{"android":"levelo://app?vid=e9a50d52-9e84-4dfd-9970-5295119879c3","ios":"levelo://app?vid=e9a50d52-9e84-4dfd-9970-5295119879c3"},"vehicle_type_id":"4","last_reported":1714503940,"current_range_meters":0,"station_id":"ce4bgr92rcd13ifvqc6g","pricing_plan_id":"cebpf4jnsgd1na2vs0mg"},{"bike_id":"33ba13c3-3a6d-4682-b3f2-571afbdd73d4","system_id":"levelo_inurba_marseille","lat":43.312239,"lon":5.368562,"is_reserved":false,"is_disabled":false,"rental_uris":{"android":"levelo://app?vid=33ba13c3-3a6d-4682-b3f2-571afbdd73d4","ios":"levelo://app?vid=33ba13c3-3a6d-4682-b3f2-571afbdd73d4"},"vehicle_type_id":"4","last_reported":1714503940,"current_range_meters":3600,"station_id":"ce4bgl92rcd13ifvqbq0","pricing_plan_id":"cebpf4jnsgd1na2vs0mg"},{"bike_id":"95141bed-7e53-4e2c-805d-01ff2b228067","system_id":"levelo_inurba_marseille","lat":43.312239,"lon":5.368562,"is_reserved":false,"is_disabled":false,"rental_uris":{"android":"levelo://app?vid=95141bed-7e53-4e2c-805d-01ff2b228067","ios":"levelo://app?vid=95141bed-7e53-4e2c-805d-01ff2b228067"},"vehicle_type_id":"4","last_reported":1714503940,"current_range_meters":10400,"station_id":"ce4bgl92rcd13ifvqbq0","pricing_plan_id":"cebpf4jnsgd1na2vs0mg"},{"bike_id":"9cc2ab5d-8719-40aa-bb16-346f7d0b219c","system_id":"levelo_inurba_marseille","lat":43.31107,"lon":5.36952,"is_reserved":false,"is_disabled":false,"rental_uris":{"android":"levelo://app?vid=9cc2ab5d-8719-40aa-bb16-346f7d0b219c","ios":"levelo://app?vid=9cc2ab5d-8719-40aa-bb16-346f7d0b219c"},"vehicle_type_id":"4","last_reported":1714503940,"current_range_meters":0,"station_id":"","pricing_plan_id":"cebpf4jnsgd1na2vs0mg"},{"bike_id":"f0bccfa0-d026-4cf1-b1ad-821dfd922513","system_id":"levelo_inurba_marseille","lat":43.30917,"lon":5.368453,"is_reserved":false,"is_disabled":false,"rental_uris":{"android":"levelo://app?vid=f0bccfa0-d026-4cf1-b1ad-821dfd922513","ios":"levelo://app?vid=f0bccfa0-d026-4cf1-b1ad-821dfd922513"},"vehicle_type_id":"4","last_reported":1714503940,"current_range_meters":0,"station_id":"ce4bgn92rcd13ifvqbvg","pricing_plan_id":"cebpf4jnsgd1na2vs0mg"},{"bike_id":"4085ed39-5e2e-4042-9af4-9abb2d6df9db","system_id":"levelo_inurba_marseille","lat":43.309076,"lon":5.368465,"is_reserved":false,"is_disabled":false,"rental_uris":{"android":"levelo://app?vid=4085ed39-5e2e-4042-9af4-9abb2d6df9db","ios":"levelo://app?vid=4085ed39-5e2e-4042-9af4-9abb2d6df9db"},"vehicle_type_id":"4","last_reported":1714503940,"current_range_meters":800,"station_id":"ce4bgn92rcd13ifvqbvg","pricing_plan_id":"cebpf4jnsgd1na2vs0mg"},{"bike_id":"30efe9bf-c08a-4f9f-8d7d-55bf91ef5528","system_id":"levelo_inurba_marseille","lat":43.309076,"lon":5.368465,"is_reserved":false,"is_disabled":false,"rental_uris":{"android":"levelo://app?vid=30efe9bf-c08a-4f9f-8d7d-55bf91ef5528","ios":"levelo://app?vid=30efe9bf-c08a-4f9f-8d7d-55bf91ef5528"},"vehicle_type_id":"4","last_reported":1714503940,"current_range_meters":8800,"station_id":"ce4bgn92rcd13ifvqbvg","pricing_plan_id":"cebpf4jnsgd1na2vs0mg"},{"bike_id":"4b78a478-3125-465f-8bf6-871c8a77f40c","system_id":"levelo_inurba_marseille","lat":43.314811,"lon":5.373104,"is_reserved":false,"is_disabled":false,"rental_uris":{"android":"levelo://app?vid=4b78a478-3125-465f-8bf6-871c8a77f40c","ios":"levelo://app?vid=4b78a478-3125-465f-8bf6-871c8a77f40c"},"vehicle_type_id":"4","last_reported":1714503940,"current_range_meters":23200,"station_id":"ce4bgt12rcd13ifvqcd0","pricing_plan_id":"cebpf4jnsgd1na2vs0mg"},{"bike_id":"0a60dc47-4111-4c3d-ba5e-bc7e6287cf66","system_id":"levelo_inurba_marseille","lat":43.309039,"lon":5.371797,"is_reserved":false,"is_disabled":false,"rental_uris":{"android":"levelo://app?vid=0a60dc47-4111-4c3d-ba5e-bc7e6287cf66","ios":"levelo://app?vid=0a60dc47-4111-4c3d-ba5e-bc7e6287cf66"},"vehicle_type_id":"4","last_reported":1714503940,"current_range_meters":19200,"station_id":"ce4bguh2rcd13ifvqckg","pricing_plan_id":"cebpf4jnsgd1na2vs0mg"},{"bike_id":"78516493-1885-4c4e-ae8a-12ccddb9cd5a","system_id":"levelo_inurba_marseille","lat":43.309039,"lon":5.371797,"is_reserved":false,"is_disabled":false,"rental_uris":{"android":"levelo://app?vid=78516493-1885-4c4e-ae8a-12ccddb9cd5a","ios":"levelo://app?vid=78516493-1885-4c4e-ae8a-12ccddb9cd5a"},"vehicle_type_id":"4","last_reported":1714503940,"current_range_meters":25600,"station_id":"ce4bguh2rcd13ifvqckg","pricing_plan_id":"cebpf4jnsgd1na2vs0mg"},{"bike_id":"47b2f5b2-622f-417a-a087-2655dbd76db9","system_id":"levelo_inurba_marseille","lat":43.309772,"lon":5.373463,"is_reserved":false,"is_disabled":false,"rental_uris":{"android":"levelo://app?vid=47b2f5b2-622f-417a-a087-2655dbd76db9","ios":"levelo://app?vid=47b2f5b2-622f-417a-a087-2655dbd76db9"},"vehicle_type_id":"4","last_reported":1714503940,"current_range_meters":4800,"station_id":"ce4bguh2rcd13ifvqckg","pricing_plan_id":"cebpf4jnsgd1na2vs0mg"},{"bike_id":"141cc1b3-7a76-4f8f-84ab-c617f26fd24d","system_id":"levelo_inurba_marseille","lat":43.30537,"lon":5.367345,"is_reserved":false,"is_disabled":false,"rental_uris":{"android":"levelo://app?vid=141cc1b3-7a76-4f8f-84ab-c617f26fd24d","ios":"levelo://app?vid=141cc1b3-7a76-4f8f-84ab-c617f26fd24d"},"vehicle_type_id":"4","last_reported":1714503940,"current_range_meters":21200,"station_id":"ce4bgrp2rcd13ifvqc9g","pricing_plan_id":"cebpf4jnsgd1na2vs0mg"},{"bike_id":"1afa7883-dee5-40c4-a2af-7cf420d7b18b","system_id":"levelo_inurba_marseille","lat":43.30537,"lon":5.367345,"is_reserved":false,"is_disabled":false,"rental_uris":{"android":"levelo://app?vid=1afa7883-dee5-40c4-a2af-7cf420d7b18b","ios":"levelo://app?vid=1afa7883-dee5-40c4-a2af-7cf420d7b18b"},"vehicle_type_id":"4","last_reported":1714503940,"current_range_meters":16400,"station_id":"ce4bgrp2rcd13ifvqc9g","pricing_plan_id":"cebpf4jnsgd1na2vs0mg"},{"bike_id":"5c1acf7a-fc2d-4b2e-a31f-3d95c135c9c1","system_id":"levelo_inurba_marseille","lat":43.306246,"lon":5.372235,"is_reserved":false,"is_disabled":false,"rental_uris":{"android":"levelo://app?vid=5c1acf7a-fc2d-4b2e-a31f-3d95c135c9c1","ios":"levelo://app?vid=5c1acf7a-fc2d-4b2e-a31f-3d95c135c9c1"},"vehicle_type_id":"4","last_reported":1714503940,"current_range_meters":1600,"station_id":"ce4bgl92rcd13ifvqbq0","pricing_plan_id":"cebpf4jnsgd1na2vs0mg"},{"bike_id":"2227583e-af68-47b0-9fe3-e2d22c4f4032","system_id":"levelo_inurba_marseille","lat":43.305989,"lon":5.37225,"is_reserved":false,"is_disabled":false,"rental_uris":{"android":"levelo://app?vid=2227583e-af68-47b0-9fe3-e2d22c4f4032","ios":"levelo://app?vid=2227583e-af68-47b0-9fe3-e2d22c4f4032"},"vehicle_type_id":"4","last_reported":1714503940,"current_range_meters":23200,"station_id":"ce4bgqh2rcd13ifvqc4g","pricing_plan_id":"cebpf4jnsgd1na2vs0mg"},{"bike_id":"0ecb4d4d-42e3-4316-b8e0-da767c7a1bcd","system_id":"levelo_inurba_marseille","lat":43.30603,"lon":5.37237,"is_reserved":false,"is_disabled":false,"rental_uris":{"android":"levelo://app?vid=0ecb4d4d-42e3-4316-b8e0-da767c7a1bcd","ios":"levelo://app?vid=0ecb4d4d-42e3-4316-b8e0-da767c7a1bcd"},"vehicle_type_id":"4","last_reported":1714503940,"current_range_meters":1600,"station_id":"ce4bgqh2rcd13ifvqc4g","pricing_plan_id":"cebpf4jnsgd1na2vs0mg"},{"bike_id":"2e8bd93f-ed82-4552-9238-e3bdac782a83","system_id":"levelo_inurba_marseille","lat":43.305989,"lon":5.37225,"is_reserved":false,"is_disabled":false,"rental_uris":{"android":"levelo://app?vid=2e8bd93f-ed82-4552-9238-e3bdac782a83","ios":"levelo://app?vid=2e8bd93f-ed82-4552-9238-e3bdac782a83"},"vehicle_type_id":"4","last_reported":1714503940,"current_range_meters":18000,"station_id":"ce4bgqh2rcd13ifvqc4g","pricing_plan_id":"cebpf4jnsgd1na2vs0mg"},{"bike_id":"068e90aa-4779-4015-ab83-42238790f383","system_id":"levelo_inurba_marseille","lat":43.305989,"lon":5.37225,"is_reserved":false,"is_disabled":false,"rental_uris":{"android":"levelo://app?vid=068e90aa-4779-4015-ab83-42238790f383","ios":"levelo://app?vid=068e90aa-4779-4015-ab83-42238790f383"},"vehicle_type_id":"4","last_reported":1714503940,"current_range_meters":9600,"station_id":"ce4bgqh2rcd13ifvqc4g","pricing_plan_id":"cebpf4jnsgd1na2vs0mg"},{"bike_id":"4ac261f5-9ce2-4e4e-bc7a-6bc3baf29bdd","system_id":"levelo_inurba_marseille","lat":43.311131,"lon":5.377651,"is_reserved":false,"is_disabled":false,"rental_uris":{"android":"levelo://app?vid=4ac261f5-9ce2-4e4e-bc7a-6bc3baf29bdd","ios":"levelo://app?vid=4ac261f5-9ce2-4e4e-bc7a-6bc3baf29bdd"},"vehicle_type_id":"4","last_reported":1714503940,"current_range_meters":11600,"station_id":"ce4bgt92rcd13ifvqcg0","pricing_plan_id":"cebpf4jnsgd1na2vs0mg"},{"bike_id":"9438f6f0-6401-4671-9c8c-f2063f71566e","system_id":"levelo_inurba_marseille","lat":43.31115,"lon":5.37766,"is_reserved":false,"is_disabled":false,"rental_uris":{"android":"levelo://app?vid=9438f6f0-6401-4671-9c8c-f2063f71566e","ios":"levelo://app?vid=9438f6f0-6401-4671-9c8c-f2063f71566e"},"vehicle_type_id":"4","last_reported":1714503940,"current_range_meters":27600,"station_id":"ce4bgt92rcd13ifvqcg0","pricing_plan_id":"cebpf4jnsgd1na2vs0mg"},{"bike_id":"d7162a7f-a62d-48e5-94e2-ee4c6d84e079","system_id":"levelo_inurba_marseille","lat":43.311131,"lon":5.377651,"is_reserved":false,"is_disabled":false,"rental_uris":{"android":"levelo://app?vid=d7162a7f-a62d-48e5-94e2-ee4c6d84e079","ios":"levelo://app?vid=d7162a7f-a62d-48e5-94e2-ee4c6d84e079"},"vehicle_type_id":"4","last_reported":1714503940,"current_range_meters":800,"station_id":"ce4bgt92rcd13ifvqcg0","pricing_plan_id":"cebpf4jnsgd1na2vs0mg"},{"bike_id":"56d8f3d2-48da-43c5-9685-c984909aef9f","system_id":"levelo_inurba_marseille","lat":43.311211,"lon":5.377716,"is_reserved":false,"is_disabled":false,"rental_uris":{"android":"levelo://app?vid=56d8f3d2-48da-43c5-9685-c984909aef9f","ios":"levelo://app?vid=56d8f3d2-48da-43c5-9685-c984909aef9f"},"vehicle_type_id":"4","last_reported":1714503940,"current_range_meters":0,"station_id":"ce4bgt92rcd13ifvqcg0","pricing_plan_id":"cebpf4jnsgd1na2vs0mg"},{"bike_id":"d89ef1d3-80d8-4a24-b785-423aee3311a7","system_id":"levelo_inurba_marseille","lat":43.311125,"lon":5.377624,"is_reserved":false,"is_disabled":false,"rental_uris":{"android":"levelo://app?vid=d89ef1d3-80d8-4a24-b785-423aee3311a7","ios":"levelo://app?vid=d89ef1d3-80d8-4a24-b785-423aee3311a7"},"vehicle_type_id":"4","last_reported":1714503940,"current_range_meters":28000,"station_id":"ce4bgt92rcd13ifvqcg0","pricing_plan_id":"cebpf4jnsgd1na2vs0mg"},{"bike_id":"3d3f19de-22ec-4d1d-9b32-f6e3ea25e8f1","system_id":"levelo_inurba_marseille","lat":43.311131,"lon":5.377651,"is_reserved":false,"is_disabled":false,"rental_uris":{"android":"levelo://app?vid=3d3f19de-22ec-4d1d-9b32-f6e3ea25e8f1","ios":"levelo://app?vid=3d3f19de-22ec-4d1d-9b32-f6e3ea25e8f1"},"vehicle_type_id":"4","last_reported":1714503940,"current_range_meters":10400,"station_id":"ce4bgt92rcd13ifvqcg0","pricing_plan_id":"cebpf4jnsgd1na2vs0mg"},{"bike_id":"5abc4035-15bc-4c59-83e0-3c4c26734073","system_id":"levelo_inurba_marseille","lat":43.307945,"lon":5.376487,"is_reserved":false,"is_disabled":false,"rental_uris":{"android":"levelo://app?vid=5abc4035-15bc-4c59-83e0-3c4c26734073","ios":"levelo://app?vid=5abc4035-15bc-4c59-83e0-3c4c26734073"},"vehicle_type_id":"4","last_reported":1714503940,"current_range_meters":15600,"station_id":"ce4bgv92rcd13ifvqcq0","pricing_plan_id":"cebpf4jnsgd1na2vs0mg"},{"bike_id":"47361f63-ef42-48a6-9f4d-20959c5011d8","system_id":"levelo_inurba_marseille","lat":43.307945,"lon":5.376487,"is_reserved":false,"is_disabled":false,"rental_uris":{"android":"levelo://app?vid=47361f63-ef42-48a6-9f4d-20959c5011d8","ios":"levelo://app?vid=47361f63-ef42-48a6-9f4d-20959c5011d8"},"vehicle_type_id":"4","last_reported":1714503940,"current_range_meters":19200,"station_id":"ce4bgv92rcd13ifvqcq0","pricing_plan_id":"cebpf4jnsgd1na2vs0mg"},{"bike_id":"698c7ddf-1091-4fd7-8df4-454875d04224","system_id":"levelo_inurba_marseille","lat":43.315289,"lon":5.380349,"is_reserved":false,"is_disabled":false,"rental_uris":{"android":"levelo://app?vid=698c7ddf-1091-4fd7-8df4-454875d04224","ios":"levelo://app?vid=698c7ddf-1091-4fd7-8df4-454875d04224"},"vehicle_type_id":"4","last_reported":1714503940,"current_range_meters":400,"station_id":"ce4bhsp2rcd13ifvqi50","pricing_plan_id":"cebpf4jnsgd1na2vs0mg"},{"bike_id":"c0b2ad01-7e7d-4696-9d59-280200005868","system_id":"levelo_inurba_marseille","lat":43.30272,"lon":5.36868,"is_reserved":false,"is_disabled":false,"rental_uris":{"android":"levelo://app?vid=c0b2ad01-7e7d-4696-9d59-280200005868","ios":"levelo://app?vid=c0b2ad01-7e7d-4696-9d59-280200005868"},"vehicle_type_id":"4","last_reported":1714503940,"current_range_meters":13600,"station_id":"","pricing_plan_id":"cebpf4jnsgd1na2vs0mg"},{"bike_id":"590c010e-db7a-431d-add3-ec12a4bfd8c0","system_id":"levelo_inurba_marseille","lat":43.315289,"lon":5.380349,"is_reserved":false,"is_disabled":false,"rental_uris":{"android":"levelo://app?vid=590c010e-db7a-431d-add3-ec12a4bfd8c0","ios":"levelo://app?vid=590c010e-db7a-431d-add3-ec12a4bfd8c0"},"vehicle_type_id":"4","last_reported":1714503940,"current_range_meters":28400,"station_id":"ce4bhsp2rcd13ifvqi50","pricing_plan_id":"cebpf4jnsgd1na2vs0mg"},{"bike_id":"24c5e688-c380-4072-b712-0d50a8266f1e","system_id":"levelo_inurba_marseille","lat":43.301939,"lon":5.366286,"is_reserved":false,"is_disabled":false,"rental_uris":{"android":"levelo://app?vid=24c5e688-c380-4072-b712-0d50a8266f1e","ios":"levelo://app?vid=24c5e688-c380-4072-b712-0d50a8266f1e"},"vehicle_type_id":"4","last_reported":1714503940,"current_range_meters":8000,"station_id":"ce4bgrh2rcd13ifvqc8g","pricing_plan_id":"cebpf4jnsgd1na2vs0mg"},{"bike_id":"17d8b862-3470-4b23-949a-b3d38aa97f08","system_id":"levelo_inurba_marseille","lat":43.301939,"lon":5.366286,"is_reserved":false,"is_disabled":false,"rental_uris":{"android":"levelo://app?vid=17d8b862-3470-4b23-949a-b3d38aa97f08","ios":"levelo://app?vid=17d8b862-3470-4b23-949a-b3d38aa97f08"},"vehicle_type_id":"4","last_reported":1714503940,"current_range_meters":7200,"station_id":"ce4bgrh2rcd13ifvqc8g","pricing_plan_id":"cebpf4jnsgd1na2vs0mg"},{"bike_id":"8b3d05be-de17-4597-bf47-dbe8180f5f16","system_id":"levelo_inurba_marseille","lat":43.308012,"lon":5.381511,"is_reserved":false,"is_disabled":false,"rental_uris":{"android":"levelo://app?vid=8b3d05be-de17-4597-bf47-dbe8180f5f16","ios":"levelo://app?vid=8b3d05be-de17-4597-bf47-dbe8180f5f16"},"vehicle_type_id":"4","last_reported":1714503940,"current_range_meters":0,"station_id":"ce4bgt12rcd13ifvqce0","pricing_plan_id":"cebpf4jnsgd1na2vs0mg"},{"bike_id":"4ce0d4e7-8be6-4d64-b931-d0b4fc48d33a","system_id":"levelo_inurba_marseille","lat":43.308012,"lon":5.381511,"is_reserved":false,"is_disabled":false,"rental_uris":{"android":"levelo://app?vid=4ce0d4e7-8be6-4d64-b931-d0b4fc48d33a","ios":"levelo://app?vid=4ce0d4e7-8be6-4d64-b931-d0b4fc48d33a"},"vehicle_type_id":"4","last_reported":1714503940,"current_range_meters":0,"station_id":"ce4bgt12rcd13ifvqce0","pricing_plan_id":"cebpf4jnsgd1na2vs0mg"},{"bike_id":"5724849d-c26e-4b13-b10a-cbe8d0f0e127","system_id":"levelo_inurba_marseille","lat":43.308012,"lon":5.381511,"is_reserved":false,"is_disabled":false,"rental_uris":{"android":"levelo://app?vid=5724849d-c26e-4b13-b10a-cbe8d0f0e127","ios":"levelo://app?vid=5724849d-c26e-4b13-b10a-cbe8d0f0e127"},"vehicle_type_id":"4","last_reported":1714503940,"current_range_meters":17600,"station_id":"ce4bgt12rcd13ifvqce0","pricing_plan_id":"cebpf4jnsgd1na2vs0mg"},{"bike_id":"7f2366d1-8159-4208-aab7-2ceb59810221","system_id":"levelo_inurba_marseille","lat":43.324771,"lon":5.36557,"is_reserved":false,"is_disabled":false,"rental_uris":{"android":"levelo://app?vid=7f2366d1-8159-4208-aab7-2ceb59810221","ios":"levelo://app?vid=7f2366d1-8159-4208-aab7-2ceb59810221"},"vehicle_type_id":"4","last_reported":1714503940,"current_range_meters":16400,"station_id":"ce4bhs12rcd13ifvqhvg","pricing_plan_id":"cebpf4jnsgd1na2vs0mg"},{"bike_id":"478271a2-c857-4c44-88c4-4cdec904e587","system_id":"levelo_inurba_marseille","lat":43.324771,"lon":5.36557,"is_reserved":false,"is_disabled":false,"rental_uris":{"android":"levelo://app?vid=478271a2-c857-4c44-88c4-4cdec904e587","ios":"levelo://app?vid=478271a2-c857-4c44-88c4-4cdec904e587"},"vehicle_type_id":"4","last_reported":1714503940,"current_range_meters":14400,"station_id":"ce4bhs12rcd13ifvqhvg","pricing_plan_id":"cebpf4jnsgd1na2vs0mg"},{"bike_id":"d689d75b-2503-4c26-a0fd-e4e182d9b314","system_id":"levelo_inurba_marseille","lat":43.324771,"lon":5.36557,"is_reserved":false,"is_disabled":false,"rental_uris":{"android":"levelo://app?vid=d689d75b-2503-4c26-a0fd-e4e182d9b314","ios":"levelo://app?vid=d689d75b-2503-4c26-a0fd-e4e182d9b314"},"vehicle_type_id":"4","last_reported":1714503940,"current_range_meters":12800,"station_id":"ce4bhs12rcd13ifvqhvg","pricing_plan_id":"cebpf4jnsgd1na2vs0mg"},{"bike_id":"ec9ad42d-7bf5-43ef-a2cf-ce73f78031d9","system_id":"levelo_inurba_marseille","lat":43.324771,"lon":5.36557,"is_reserved":false,"is_disabled":false,"rental_uris":{"android":"levelo://app?vid=ec9ad42d-7bf5-43ef-a2cf-ce73f78031d9","ios":"levelo://app?vid=ec9ad42d-7bf5-43ef-a2cf-ce73f78031d9"},"vehicle_type_id":"4","last_reported":1714503940,"current_range_meters":8000,"station_id":"ce4bhs12rcd13ifvqhvg","pricing_plan_id":"cebpf4jnsgd1na2vs0mg"},{"bike_id":"0a4a6ca4-0474-4f68-b089-af26c0c8b25a","system_id":"levelo_inurba_marseille","lat":43.324771,"lon":5.36557,"is_reserved":false,"is_disabled":false,"rental_uris":{"android":"levelo://app?vid=0a4a6ca4-0474-4f68-b089-af26c0c8b25a","ios":"levelo://app?vid=0a4a6ca4-0474-4f68-b089-af26c0c8b25a"},"vehicle_type_id":"4","last_reported":1714503940,"current_range_meters":19200,"station_id":"ce4bhs12rcd13ifvqhvg","pricing_plan_id":"cebpf4jnsgd1na2vs0mg"},{"bike_id":"a220ad8e-30f9-4404-aa2e-6db3aa6afb45","system_id":"levelo_inurba_marseille","lat":43.324771,"lon":5.36557,"is_reserved":false,"is_disabled":false,"rental_uris":{"android":"levelo://app?vid=a220ad8e-30f9-4404-aa2e-6db3aa6afb45","ios":"levelo://app?vid=a220ad8e-30f9-4404-aa2e-6db3aa6afb45"},"vehicle_type_id":"4","last_reported":1714503940,"current_range_meters":9600,"station_id":"ce4bhs12rcd13ifvqhvg","pricing_plan_id":"cebpf4jnsgd1na2vs0mg"},{"bike_id":"cb5035c4-9e66-46e5-baea-a68bc4206adf","system_id":"levelo_inurba_marseille","lat":43.324821,"lon":5.365911,"is_reserved":false,"is_disabled":false,"rental_uris":{"android":"levelo://app?vid=cb5035c4-9e66-46e5-baea-a68bc4206adf","ios":"levelo://app?vid=cb5035c4-9e66-46e5-baea-a68bc4206adf"},"vehicle_type_id":"4","last_reported":1714503940,"current_range_meters":14000,"station_id":"ce4bhs12rcd13ifvqhvg","pricing_plan_id":"cebpf4jnsgd1na2vs0mg"},{"bike_id":"ff14dfe6-78af-413d-a3ea-3b224d7ea33d","system_id":"levelo_inurba_marseille","lat":43.324771,"lon":5.36557,"is_reserved":false,"is_disabled":false,"rental_uris":{"android":"levelo://app?vid=ff14dfe6-78af-413d-a3ea-3b224d7ea33d","ios":"levelo://app?vid=ff14dfe6-78af-413d-a3ea-3b224d7ea33d"},"vehicle_type_id":"4","last_reported":1714503940,"current_range_meters":23600,"station_id":"ce4bhs12rcd13ifvqhvg","pricing_plan_id":"cebpf4jnsgd1na2vs0mg"},{"bike_id":"9ff0830f-e0f2-4f56-8687-5dd0c71549f1","system_id":"levelo_inurba_marseille","lat":43.32481,"lon":5.36554,"is_reserved":false,"is_disabled":false,"rental_uris":{"android":"levelo://app?vid=9ff0830f-e0f2-4f56-8687-5dd0c71549f1","ios":"levelo://app?vid=9ff0830f-e0f2-4f56-8687-5dd0c71549f1"},"vehicle_type_id":"4","last_reported":1714503940,"current_range_meters":1600,"station_id":"ce4bhs12rcd13ifvqhvg","pricing_plan_id":"cebpf4jnsgd1na2vs0mg"},{"bike_id":"e560c9f7-9a68-4c7c-a574-1ae51de44590","system_id":"levelo_inurba_marseille","lat":43.324771,"lon":5.36557,"is_reserved":false,"is_disabled":false,"rental_uris":{"android":"levelo://app?vid=e560c9f7-9a68-4c7c-a574-1ae51de44590","ios":"levelo://app?vid=e560c9f7-9a68-4c7c-a574-1ae51de44590"},"vehicle_type_id":"4","last_reported":1714503940,"current_range_meters":9200,"station_id":"ce4bhs12rcd13ifvqhvg","pricing_plan_id":"cebpf4jnsgd1na2vs0mg"},{"bike_id":"b21ae7ee-dd87-4fb7-a859-109931d2977d","system_id":"levelo_inurba_marseille","lat":43.324771,"lon":5.36557,"is_reserved":false,"is_disabled":false,"rental_uris":{"android":"levelo://app?vid=b21ae7ee-dd87-4fb7-a859-109931d2977d","ios":"levelo://app?vid=b21ae7ee-dd87-4fb7-a859-109931d2977d"},"vehicle_type_id":"4","last_reported":1714503940,"current_range_meters":14800,"station_id":"ce4bhs12rcd13ifvqhvg","pricing_plan_id":"cebpf4jnsgd1na2vs0mg"},{"bike_id":"06ac2027-09f1-4680-aa1f-6ab726213cb9","system_id":"levelo_inurba_marseille","lat":43.324771,"lon":5.36557,"is_reserved":false,"is_disabled":false,"rental_uris":{"android":"levelo://app?vid=06ac2027-09f1-4680-aa1f-6ab726213cb9","ios":"levelo://app?vid=06ac2027-09f1-4680-aa1f-6ab726213cb9"},"vehicle_type_id":"4","last_reported":1714503940,"current_range_meters":9200,"station_id":"ce4bhs12rcd13ifvqhvg","pricing_plan_id":"cebpf4jnsgd1na2vs0mg"},{"bike_id":"b542f8ad-0de0-40a1-9ef7-53b385381a12","system_id":"levelo_inurba_marseille","lat":43.324771,"lon":5.36557,"is_reserved":false,"is_disabled":false,"rental_uris":{"android":"levelo://app?vid=b542f8ad-0de0-40a1-9ef7-53b385381a12","ios":"levelo://app?vid=b542f8ad-0de0-40a1-9ef7-53b385381a12"},"vehicle_type_id":"4","last_reported":1714503940,"current_range_meters":8000,"station_id":"ce4bhs12rcd13ifvqhvg","pricing_plan_id":"cebpf4jnsgd1na2vs0mg"},{"bike_id":"1c9411c0-d42f-4c9c-954b-623621242b42","system_id":"levelo_inurba_marseille","lat":43.324771,"lon":5.36557,"is_reserved":false,"is_disabled":false,"rental_uris":{"android":"levelo://app?vid=1c9411c0-d42f-4c9c-954b-623621242b42","ios":"levelo://app?vid=1c9411c0-d42f-4c9c-954b-623621242b42"},"vehicle_type_id":"4","last_reported":1714503940,"current_range_meters":13600,"station_id":"ce4bhs12rcd13ifvqhvg","pricing_plan_id":"cebpf4jnsgd1na2vs0mg"},{"bike_id":"263ddf92-f97b-4bde-af65-350aba08e4ca","system_id":"levelo_inurba_marseille","lat":43.324771,"lon":5.36557,"is_reserved":false,"is_disabled":false,"rental_uris":{"android":"levelo://app?vid=263ddf92-f97b-4bde-af65-350aba08e4ca","ios":"levelo://app?vid=263ddf92-f97b-4bde-af65-350aba08e4ca"},"vehicle_type_id":"4","last_reported":1714503940,"current_range_meters":11200,"station_id":"ce4bhs12rcd13ifvqhvg","pricing_plan_id":"cebpf4jnsgd1na2vs0mg"},{"bike_id":"38034195-f3ea-4a5f-9ad9-18410ccfb664","system_id":"levelo_inurba_marseille","lat":43.32483,"lon":5.36573,"is_reserved":false,"is_disabled":false,"rental_uris":{"android":"levelo://app?vid=38034195-f3ea-4a5f-9ad9-18410ccfb664","ios":"levelo://app?vid=38034195-f3ea-4a5f-9ad9-18410ccfb664"},"vehicle_type_id":"4","last_reported":1714503940,"current_range_meters":14800,"station_id":"ce4bhs12rcd13ifvqhvg","pricing_plan_id":"cebpf4jnsgd1na2vs0mg"},{"bike_id":"caadc003-ff39-41d7-a207-143cea53cb36","system_id":"levelo_inurba_marseille","lat":43.324834,"lon":5.365804,"is_reserved":false,"is_disabled":false,"rental_uris":{"android":"levelo://app?vid=caadc003-ff39-41d7-a207-143cea53cb36","ios":"levelo://app?vid=caadc003-ff39-41d7-a207-143cea53cb36"},"vehicle_type_id":"4","last_reported":1714503940,"current_range_meters":30800,"station_id":"ce4bhs12rcd13ifvqhvg","pricing_plan_id":"cebpf4jnsgd1na2vs0mg"},{"bike_id":"7a10f6e8-8083-4b57-a90f-541d4663b3eb","system_id":"levelo_inurba_marseille","lat":43.324771,"lon":5.36557,"is_reserved":false,"is_disabled":false,"rental_uris":{"android":"levelo://app?vid=7a10f6e8-8083-4b57-a90f-541d4663b3eb","ios":"levelo://app?vid=7a10f6e8-8083-4b57-a90f-541d4663b3eb"},"vehicle_type_id":"4","last_reported":1714503940,"current_range_meters":15200,"station_id":"ce4bhs12rcd13ifvqhvg","pricing_plan_id":"cebpf4jnsgd1na2vs0mg"},{"bike_id":"fca0512a-e514-43b3-a37e-665741369b77","system_id":"levelo_inurba_marseille","lat":43.324771,"lon":5.36557,"is_reserved":false,"is_disabled":false,"rental_uris":{"android":"levelo://app?vid=fca0512a-e514-43b3-a37e-665741369b77","ios":"levelo://app?vid=fca0512a-e514-43b3-a37e-665741369b77"},"vehicle_type_id":"4","last_reported":1714503940,"current_range_meters":18000,"station_id":"ce4bhs12rcd13ifvqhvg","pricing_plan_id":"cebpf4jnsgd1na2vs0mg"},{"bike_id":"c309f7ba-6ad6-4d3f-a1a7-a3843971cf8b","system_id":"levelo_inurba_marseille","lat":43.324771,"lon":5.36557,"is_reserved":false,"is_disabled":false,"rental_uris":{"android":"levelo://app?vid=c309f7ba-6ad6-4d3f-a1a7-a3843971cf8b","ios":"levelo://app?vid=c309f7ba-6ad6-4d3f-a1a7-a3843971cf8b"},"vehicle_type_id":"4","last_reported":1714503940,"current_range_meters":23600,"station_id":"ce4bhs12rcd13ifvqhvg","pricing_plan_id":"cebpf4jnsgd1na2vs0mg"},{"bike_id":"775b5193-55cb-42f1-b0fa-acd6f40ef433","system_id":"levelo_inurba_marseille","lat":43.324771,"lon":5.36557,"is_reserved":false,"is_disabled":false,"rental_uris":{"android":"levelo://app?vid=775b5193-55cb-42f1-b0fa-acd6f40ef433","ios":"levelo://app?vid=775b5193-55cb-42f1-b0fa-acd6f40ef433"},"vehicle_type_id":"4","last_reported":1714503940,"current_range_meters":28800,"station_id":"ce4bhs12rcd13ifvqhvg","pricing_plan_id":"cebpf4jnsgd1na2vs0mg"},{"bike_id":"20ee36ab-83ec-4fcb-9465-adbceb8bedfc","system_id":"levelo_inurba_marseille","lat":43.324771,"lon":5.36557,"is_reserved":false,"is_disabled":false,"rental_uris":{"android":"levelo://app?vid=20ee36ab-83ec-4fcb-9465-adbceb8bedfc","ios":"levelo://app?vid=20ee36ab-83ec-4fcb-9465-adbceb8bedfc"},"vehicle_type_id":"4","last_reported":1714503940,"current_range_meters":30400,"station_id":"ce4bhs12rcd13ifvqhvg","pricing_plan_id":"cebpf4jnsgd1na2vs0mg"},{"bike_id":"3233b655-0e42-4745-9352-e7ab6daacfd8","system_id":"levelo_inurba_marseille","lat":43.324771,"lon":5.36557,"is_reserved":false,"is_disabled":false,"rental_uris":{"android":"levelo://app?vid=3233b655-0e42-4745-9352-e7ab6daacfd8","ios":"levelo://app?vid=3233b655-0e42-4745-9352-e7ab6daacfd8"},"vehicle_type_id":"4","last_reported":1714503940,"current_range_meters":30800,"station_id":"ce4bhs12rcd13ifvqhvg","pricing_plan_id":"cebpf4jnsgd1na2vs0mg"},{"bike_id":"505c9fc0-49c3-4c39-ab88-1ba2555dbf58","system_id":"levelo_inurba_marseille","lat":43.32488,"lon":5.36557,"is_reserved":false,"is_disabled":false,"rental_uris":{"android":"levelo://app?vid=505c9fc0-49c3-4c39-ab88-1ba2555dbf58","ios":"levelo://app?vid=505c9fc0-49c3-4c39-ab88-1ba2555dbf58"},"vehicle_type_id":"4","last_reported":1714503940,"current_range_meters":10800,"station_id":"ce4bhs12rcd13ifvqhvg","pricing_plan_id":"cebpf4jnsgd1na2vs0mg"},{"bike_id":"2cb8d4af-041d-4bec-a228-7f59da5d6549","system_id":"levelo_inurba_marseille","lat":43.3249,"lon":5.36571,"is_reserved":false,"is_disabled":false,"rental_uris":{"android":"levelo://app?vid=2cb8d4af-041d-4bec-a228-7f59da5d6549","ios":"levelo://app?vid=2cb8d4af-041d-4bec-a228-7f59da5d6549"},"vehicle_type_id":"4","last_reported":1714503940,"current_range_meters":2400,"station_id":"ce4bhs12rcd13ifvqhvg","pricing_plan_id":"cebpf4jnsgd1na2vs0mg"},{"bike_id":"478d483e-5d07-457f-9701-2e5dcc816a1a","system_id":"levelo_inurba_marseille","lat":43.310804,"lon":5.38359,"is_reserved":false,"is_disabled":false,"rental_uris":{"android":"levelo://app?vid=478d483e-5d07-457f-9701-2e5dcc816a1a","ios":"levelo://app?vid=478d483e-5d07-457f-9701-2e5dcc816a1a"},"vehicle_type_id":"4","last_reported":1714503940,"current_range_meters":15600,"station_id":"ce4bgv92rcd13ifvqcr0","pricing_plan_id":"cebpf4jnsgd1na2vs0mg"},{"bike_id":"2750f35a-5ecf-4180-8a3a-bc1a5574ffd9","system_id":"levelo_inurba_marseille","lat":43.310804,"lon":5.38359,"is_reserved":false,"is_disabled":false,"rental_uris":{"android":"levelo://app?vid=2750f35a-5ecf-4180-8a3a-bc1a5574ffd9","ios":"levelo://app?vid=2750f35a-5ecf-4180-8a3a-bc1a5574ffd9"},"vehicle_type_id":"4","last_reported":1714503940,"current_range_meters":24400,"station_id":"ce4bgv92rcd13ifvqcr0","pricing_plan_id":"cebpf4jnsgd1na2vs0mg"},{"bike_id":"4c278f1e-a9be-4065-807d-8774a97b4c17","system_id":"levelo_inurba_marseille","lat":43.302784,"lon":5.377158,"is_reserved":false,"is_disabled":false,"rental_uris":{"android":"levelo://app?vid=4c278f1e-a9be-4065-807d-8774a97b4c17","ios":"levelo://app?vid=4c278f1e-a9be-4065-807d-8774a97b4c17"},"vehicle_type_id":"4","last_reported":1714503940,"current_range_meters":14400,"station_id":"ce4bguh2rcd13ifvqcj0","pricing_plan_id":"cebpf4jnsgd1na2vs0mg"},{"bike_id":"307b2ff8-9ad6-4128-8a2f-ba86690d45f8","system_id":"levelo_inurba_marseille","lat":43.310804,"lon":5.38359,"is_reserved":false,"is_disabled":false,"rental_uris":{"android":"levelo://app?vid=307b2ff8-9ad6-4128-8a2f-ba86690d45f8","ios":"levelo://app?vid=307b2ff8-9ad6-4128-8a2f-ba86690d45f8"},"vehicle_type_id":"4","last_reported":1714503940,"current_range_meters":9200,"station_id":"ce4bgv92rcd13ifvqcr0","pricing_plan_id":"cebpf4jnsgd1na2vs0mg"},{"bike_id":"4b678404-bcb7-469e-8217-1687e76be9e0","system_id":"levelo_inurba_marseille","lat":43.319935,"lon":5.381699,"is_reserved":false,"is_disabled":false,"rental_uris":{"android":"levelo://app?vid=4b678404-bcb7-469e-8217-1687e76be9e0","ios":"levelo://app?vid=4b678404-bcb7-469e-8217-1687e76be9e0"},"vehicle_type_id":"4","last_reported":1714503940,"current_range_meters":23200,"station_id":"ce4bhr12rcd13ifvqhpg","pricing_plan_id":"cebpf4jnsgd1na2vs0mg"},{"bike_id":"4eabf273-d6ab-4f69-aa17-5ce3078e9cfa","system_id":"levelo_inurba_marseille","lat":43.319935,"lon":5.381699,"is_reserved":false,"is_disabled":false,"rental_uris":{"android":"levelo://app?vid=4eabf273-d6ab-4f69-aa17-5ce3078e9cfa","ios":"levelo://app?vid=4eabf273-d6ab-4f69-aa17-5ce3078e9cfa"},"vehicle_type_id":"4","last_reported":1714503940,"current_range_meters":12800,"station_id":"ce4bhr12rcd13ifvqhpg","pricing_plan_id":"cebpf4jnsgd1na2vs0mg"},{"bike_id":"952baf88-6145-4f3f-b32f-66ddd2b06b56","system_id":"levelo_inurba_marseille","lat":43.319935,"lon":5.381699,"is_reserved":false,"is_disabled":false,"rental_uris":{"android":"levelo://app?vid=952baf88-6145-4f3f-b32f-66ddd2b06b56","ios":"levelo://app?vid=952baf88-6145-4f3f-b32f-66ddd2b06b56"},"vehicle_type_id":"4","last_reported":1714503940,"current_range_meters":6400,"station_id":"ce4bhr12rcd13ifvqhpg","pricing_plan_id":"cebpf4jnsgd1na2vs0mg"},{"bike_id":"72159ef7-60a0-4265-8e23-c1c78a9f4a53","system_id":"levelo_inurba_marseille","lat":43.319935,"lon":5.381699,"is_reserved":false,"is_disabled":false,"rental_uris":{"android":"levelo://app?vid=72159ef7-60a0-4265-8e23-c1c78a9f4a53","ios":"levelo://app?vid=72159ef7-60a0-4265-8e23-c1c78a9f4a53"},"vehicle_type_id":"4","last_reported":1714503940,"current_range_meters":8400,"station_id":"ce4bhr12rcd13ifvqhpg","pricing_plan_id":"cebpf4jnsgd1na2vs0mg"},{"bike_id":"bf7237d8-45ec-4e41-a5f9-2e40df36b0a3","system_id":"levelo_inurba_marseille","lat":43.319935,"lon":5.381699,"is_reserved":false,"is_disabled":false,"rental_uris":{"android":"levelo://app?vid=bf7237d8-45ec-4e41-a5f9-2e40df36b0a3","ios":"levelo://app?vid=bf7237d8-45ec-4e41-a5f9-2e40df36b0a3"},"vehicle_type_id":"4","last_reported":1714503940,"current_range_meters":8800,"station_id":"ce4bhr12rcd13ifvqhpg","pricing_plan_id":"cebpf4jnsgd1na2vs0mg"},{"bike_id":"9f1d05e4-6bf3-4a7e-a11a-eccceb1c2675","system_id":"levelo_inurba_marseille","lat":43.313571,"lon":5.384829,"is_reserved":false,"is_disabled":false,"rental_uris":{"android":"levelo://app?vid=9f1d05e4-6bf3-4a7e-a11a-eccceb1c2675","ios":"levelo://app?vid=9f1d05e4-6bf3-4a7e-a11a-eccceb1c2675"},"vehicle_type_id":"4","last_reported":1714503940,"current_range_meters":21200,"station_id":"ce4bgt92rcd13ifvqcf0","pricing_plan_id":"cebpf4jnsgd1na2vs0mg"},{"bike_id":"2e8a4084-6679-4e4a-81d8-683e251ed1ac","system_id":"levelo_inurba_marseille","lat":43.313571,"lon":5.384829,"is_reserved":false,"is_disabled":false,"rental_uris":{"android":"levelo://app?vid=2e8a4084-6679-4e4a-81d8-683e251ed1ac","ios":"levelo://app?vid=2e8a4084-6679-4e4a-81d8-683e251ed1ac"},"vehicle_type_id":"4","last_reported":1714503940,"current_range_meters":0,"station_id":"ce4bgt92rcd13ifvqcf0","pricing_plan_id":"cebpf4jnsgd1na2vs0mg"},{"bike_id":"ad4e83bd-614d-4fae-bc45-2353752384ba","system_id":"levelo_inurba_marseille","lat":43.299222,"lon":5.365554,"is_reserved":false,"is_disabled":false,"rental_uris":{"android":"levelo://app?vid=ad4e83bd-614d-4fae-bc45-2353752384ba","ios":"levelo://app?vid=ad4e83bd-614d-4fae-bc45-2353752384ba"},"vehicle_type_id":"4","last_reported":1714503940,"current_range_meters":30400,"station_id":"ce4bgm92rcd13ifvqbr0","pricing_plan_id":"cebpf4jnsgd1na2vs0mg"},{"bike_id":"f1fe2057-3e31-4d0b-8e98-f3ddd2daf036","system_id":"levelo_inurba_marseille","lat":43.299724,"lon":5.371829,"is_reserved":false,"is_disabled":false,"rental_uris":{"android":"levelo://app?vid=f1fe2057-3e31-4d0b-8e98-f3ddd2daf036","ios":"levelo://app?vid=f1fe2057-3e31-4d0b-8e98-f3ddd2daf036"},"vehicle_type_id":"4","last_reported":1714503940,"current_range_meters":8800,"station_id":"ce4bgr92rcd13ifvqc7g","pricing_plan_id":"cebpf4jnsgd1na2vs0mg"},{"bike_id":"b0c112c8-7eb7-4e2d-8797-96887a3d4e83","system_id":"levelo_inurba_marseille","lat":43.299222,"lon":5.365554,"is_reserved":false,"is_disabled":false,"rental_uris":{"android":"levelo://app?vid=b0c112c8-7eb7-4e2d-8797-96887a3d4e83","ios":"levelo://app?vid=b0c112c8-7eb7-4e2d-8797-96887a3d4e83"},"vehicle_type_id":"4","last_reported":1714503940,"current_range_meters":5600,"station_id":"ce4bgm92rcd13ifvqbr0","pricing_plan_id":"cebpf4jnsgd1na2vs0mg"},{"bike_id":"da91867e-823b-4372-91fe-643fbf371747","system_id":"levelo_inurba_marseille","lat":43.299724,"lon":5.371829,"is_reserved":false,"is_disabled":false,"rental_uris":{"android":"levelo://app?vid=da91867e-823b-4372-91fe-643fbf371747","ios":"levelo://app?vid=da91867e-823b-4372-91fe-643fbf371747"},"vehicle_type_id":"4","last_reported":1714503940,"current_range_meters":21600,"station_id":"ce4bgr92rcd13ifvqc7g","pricing_plan_id":"cebpf4jnsgd1na2vs0mg"},{"bike_id":"80364791-e971-4036-bd84-342fb226cbe9","system_id":"levelo_inurba_marseille","lat":43.2997,"lon":5.3718,"is_reserved":false,"is_disabled":false,"rental_uris":{"android":"levelo://app?vid=80364791-e971-4036-bd84-342fb226cbe9","ios":"levelo://app?vid=80364791-e971-4036-bd84-342fb226cbe9"},"vehicle_type_id":"4","last_reported":1714503940,"current_range_meters":400,"station_id":"ce4bgr92rcd13ifvqc7g","pricing_plan_id":"cebpf4jnsgd1na2vs0mg"},{"bike_id":"553b0886-197f-4fc2-9e4d-323f4860848e","system_id":"levelo_inurba_marseille","lat":43.29843,"lon":5.36274,"is_reserved":false,"is_disabled":false,"rental_uris":{"android":"levelo://app?vid=553b0886-197f-4fc2-9e4d-323f4860848e","ios":"levelo://app?vid=553b0886-197f-4fc2-9e4d-323f4860848e"},"vehicle_type_id":"4","last_reported":1714503940,"current_range_meters":0,"station_id":"ce4bgpp2rcd13ifvqc3g","pricing_plan_id":"cebpf4jnsgd1na2vs0mg"},{"bike_id":"a6a5e6dd-b0f2-4a14-bdf3-44ad0837b402","system_id":"levelo_inurba_marseille","lat":43.29839,"lon":5.36272,"is_reserved":false,"is_disabled":false,"rental_uris":{"android":"levelo://app?vid=a6a5e6dd-b0f2-4a14-bdf3-44ad0837b402","ios":"levelo://app?vid=a6a5e6dd-b0f2-4a14-bdf3-44ad0837b402"},"vehicle_type_id":"4","last_reported":1714503940,"current_range_meters":12400,"station_id":"ce4bgpp2rcd13ifvqc3g","pricing_plan_id":"cebpf4jnsgd1na2vs0mg"},{"bike_id":"73a85712-d7df-4869-b833-31197316af24","system_id":"levelo_inurba_marseille","lat":43.298433,"lon":5.362774,"is_reserved":false,"is_disabled":false,"rental_uris":{"android":"levelo://app?vid=73a85712-d7df-4869-b833-31197316af24","ios":"levelo://app?vid=73a85712-d7df-4869-b833-31197316af24"},"vehicle_type_id":"4","last_reported":1714503940,"current_range_meters":19600,"station_id":"ce4bgpp2rcd13ifvqc3g","pricing_plan_id":"cebpf4jnsgd1na2vs0mg"},{"bike_id":"2118daf5-57fa-414e-8429-1dbd7def2c77","system_id":"levelo_inurba_marseille","lat":43.29837,"lon":5.36267,"is_reserved":false,"is_disabled":false,"rental_uris":{"android":"levelo://app?vid=2118daf5-57fa-414e-8429-1dbd7def2c77","ios":"levelo://app?vid=2118daf5-57fa-414e-8429-1dbd7def2c77"},"vehicle_type_id":"4","last_reported":1714503940,"current_range_meters":16000,"station_id":"ce4bgpp2rcd13ifvqc3g","pricing_plan_id":"cebpf4jnsgd1na2vs0mg"},{"bike_id":"45b5943c-f41b-4cc0-a0d2-3543f9bf4ed0","system_id":"levelo_inurba_marseille","lat":43.299243,"lon":5.374807,"is_reserved":false,"is_disabled":false,"rental_uris":{"android":"levelo://app?vid=45b5943c-f41b-4cc0-a0d2-3543f9bf4ed0","ios":"levelo://app?vid=45b5943c-f41b-4cc0-a0d2-3543f9bf4ed0"},"vehicle_type_id":"4","last_reported":1714503940,"current_range_meters":30000,"station_id":"ce4bgjh2rcd13ifvqbg0","pricing_plan_id":"cebpf4jnsgd1na2vs0mg"},{"bike_id":"a2695fa3-c1f9-4210-a642-6620c811688b","system_id":"levelo_inurba_marseille","lat":43.311722,"lon":5.387247,"is_reserved":false,"is_disabled":false,"rental_uris":{"android":"levelo://app?vid=a2695fa3-c1f9-4210-a642-6620c811688b","ios":"levelo://app?vid=a2695fa3-c1f9-4210-a642-6620c811688b"},"vehicle_type_id":"4","last_reported":1714503940,"current_range_meters":15600,"station_id":"ce4bgv12rcd13ifvqcp0","pricing_plan_id":"cebpf4jnsgd1na2vs0mg"},{"bike_id":"0a2dd885-c95e-4381-8c98-b74779aa3340","system_id":"levelo_inurba_marseille","lat":43.31173,"lon":5.3872,"is_reserved":false,"is_disabled":false,"rental_uris":{"android":"levelo://app?vid=0a2dd885-c95e-4381-8c98-b74779aa3340","ios":"levelo://app?vid=0a2dd885-c95e-4381-8c98-b74779aa3340"},"vehicle_type_id":"4","last_reported":1714503940,"current_range_meters":7600,"station_id":"ce4bgv12rcd13ifvqcp0","pricing_plan_id":"cebpf4jnsgd1na2vs0mg"},{"bike_id":"28ace04e-9076-4dee-88c2-508f6c477920","system_id":"levelo_inurba_marseille","lat":43.311722,"lon":5.387247,"is_reserved":false,"is_disabled":false,"rental_uris":{"android":"levelo://app?vid=28ace04e-9076-4dee-88c2-508f6c477920","ios":"levelo://app?vid=28ace04e-9076-4dee-88c2-508f6c477920"},"vehicle_type_id":"4","last_reported":1714503940,"current_range_meters":8000,"station_id":"ce4bgv12rcd13ifvqcp0","pricing_plan_id":"cebpf4jnsgd1na2vs0mg"},{"bike_id":"d9ef0802-3308-41b9-ab50-259d37b6b36f","system_id":"levelo_inurba_marseille","lat":43.29779,"lon":5.37112,"is_reserved":false,"is_disabled":false,"rental_uris":{"android":"levelo://app?vid=d9ef0802-3308-41b9-ab50-259d37b6b36f","ios":"levelo://app?vid=d9ef0802-3308-41b9-ab50-259d37b6b36f"},"vehicle_type_id":"4","last_reported":1714503940,"current_range_meters":31200,"station_id":"ce4bgop2rcd13ifvqc1g","pricing_plan_id":"cebpf4jnsgd1na2vs0mg"},{"bike_id":"7e9e8d47-a952-48f3-9569-438087fa538d","system_id":"levelo_inurba_marseille","lat":43.301126,"lon":5.38063,"is_reserved":false,"is_disabled":false,"rental_uris":{"android":"levelo://app?vid=7e9e8d47-a952-48f3-9569-438087fa538d","ios":"levelo://app?vid=7e9e8d47-a952-48f3-9569-438087fa538d"},"vehicle_type_id":"4","last_reported":1714503940,"current_range_meters":19200,"station_id":"","pricing_plan_id":"cebpf4jnsgd1na2vs0mg"},{"bike_id":"6dac4800-ebdb-4a83-b88d-bc7748a02e30","system_id":"levelo_inurba_marseille","lat":43.322872,"lon":5.382756,"is_reserved":false,"is_disabled":false,"rental_uris":{"android":"levelo://app?vid=6dac4800-ebdb-4a83-b88d-bc7748a02e30","ios":"levelo://app?vid=6dac4800-ebdb-4a83-b88d-bc7748a02e30"},"vehicle_type_id":"4","last_reported":1714503940,"current_range_meters":1200,"station_id":"ce4bhr12rcd13ifvqhqg","pricing_plan_id":"cebpf4jnsgd1na2vs0mg"},{"bike_id":"3fe083d3-ec38-46c4-b4e5-55c2be2ec179","system_id":"levelo_inurba_marseille","lat":43.322872,"lon":5.382756,"is_reserved":false,"is_disabled":false,"rental_uris":{"android":"levelo://app?vid=3fe083d3-ec38-46c4-b4e5-55c2be2ec179","ios":"levelo://app?vid=3fe083d3-ec38-46c4-b4e5-55c2be2ec179"},"vehicle_type_id":"4","last_reported":1714503940,"current_range_meters":18400,"station_id":"ce4bhr12rcd13ifvqhqg","pricing_plan_id":"cebpf4jnsgd1na2vs0mg"},{"bike_id":"dc7aba95-9a85-4c0d-bec3-bf15ff917403","system_id":"levelo_inurba_marseille","lat":43.322872,"lon":5.382756,"is_reserved":false,"is_disabled":false,"rental_uris":{"android":"levelo://app?vid=dc7aba95-9a85-4c0d-bec3-bf15ff917403","ios":"levelo://app?vid=dc7aba95-9a85-4c0d-bec3-bf15ff917403"},"vehicle_type_id":"4","last_reported":1714503940,"current_range_meters":0,"station_id":"ce4bhr12rcd13ifvqhqg","pricing_plan_id":"cebpf4jnsgd1na2vs0mg"},{"bike_id":"726e1e87-cba6-41f7-ad2e-489ae4aa3f9f","system_id":"levelo_inurba_marseille","lat":43.322872,"lon":5.382756,"is_reserved":false,"is_disabled":false,"rental_uris":{"android":"levelo://app?vid=726e1e87-cba6-41f7-ad2e-489ae4aa3f9f","ios":"levelo://app?vid=726e1e87-cba6-41f7-ad2e-489ae4aa3f9f"},"vehicle_type_id":"4","last_reported":1714503940,"current_range_meters":31200,"station_id":"ce4bhr12rcd13ifvqhqg","pricing_plan_id":"cebpf4jnsgd1na2vs0mg"},{"bike_id":"1b154983-234d-4779-a000-17e9d3f1af4d","system_id":"levelo_inurba_marseille","lat":43.322872,"lon":5.382756,"is_reserved":false,"is_disabled":false,"rental_uris":{"android":"levelo://app?vid=1b154983-234d-4779-a000-17e9d3f1af4d","ios":"levelo://app?vid=1b154983-234d-4779-a000-17e9d3f1af4d"},"vehicle_type_id":"4","last_reported":1714503940,"current_range_meters":2800,"station_id":"ce4bhr12rcd13ifvqhqg","pricing_plan_id":"cebpf4jnsgd1na2vs0mg"},{"bike_id":"6506c128-ea5f-4a9e-8e94-9b1f3fce7950","system_id":"levelo_inurba_marseille","lat":43.322872,"lon":5.382756,"is_reserved":false,"is_disabled":false,"rental_uris":{"android":"levelo://app?vid=6506c128-ea5f-4a9e-8e94-9b1f3fce7950","ios":"levelo://app?vid=6506c128-ea5f-4a9e-8e94-9b1f3fce7950"},"vehicle_type_id":"4","last_reported":1714503940,"current_range_meters":22000,"station_id":"ce4bhr12rcd13ifvqhqg","pricing_plan_id":"cebpf4jnsgd1na2vs0mg"},{"bike_id":"04adf052-58f7-4508-a4d6-959fea14c14f","system_id":"levelo_inurba_marseille","lat":43.322872,"lon":5.382756,"is_reserved":false,"is_disabled":false,"rental_uris":{"android":"levelo://app?vid=04adf052-58f7-4508-a4d6-959fea14c14f","ios":"levelo://app?vid=04adf052-58f7-4508-a4d6-959fea14c14f"},"vehicle_type_id":"4","last_reported":1714503940,"current_range_meters":4400,"station_id":"ce4bhr12rcd13ifvqhqg","pricing_plan_id":"cebpf4jnsgd1na2vs0mg"},{"bike_id":"13f7c904-5b50-4161-96b0-d0ac2771cc55","system_id":"levelo_inurba_marseille","lat":43.2976,"lon":5.37099,"is_reserved":false,"is_disabled":false,"rental_uris":{"android":"levelo://app?vid=13f7c904-5b50-4161-96b0-d0ac2771cc55","ios":"levelo://app?vid=13f7c904-5b50-4161-96b0-d0ac2771cc55"},"vehicle_type_id":"4","last_reported":1714503940,"current_range_meters":3600,"station_id":"ce4bgop2rcd13ifvqc1g","pricing_plan_id":"cebpf4jnsgd1na2vs0mg"},{"bike_id":"d1aed8c1-d01c-42e8-9c9e-2e0535527a68","system_id":"levelo_inurba_marseille","lat":43.29714,"lon":5.36618,"is_reserved":false,"is_disabled":false,"rental_uris":{"android":"levelo://app?vid=d1aed8c1-d01c-42e8-9c9e-2e0535527a68","ios":"levelo://app?vid=d1aed8c1-d01c-42e8-9c9e-2e0535527a68"},"vehicle_type_id":"4","last_reported":1714503940,"current_range_meters":0,"station_id":"ce4bgn12rcd13ifvqbt0","pricing_plan_id":"cebpf4jnsgd1na2vs0mg"},{"bike_id":"0cf27b18-aab6-49df-9929-7efcd6bc6486","system_id":"levelo_inurba_marseille","lat":43.297163,"lon":5.365866,"is_reserved":false,"is_disabled":false,"rental_uris":{"android":"levelo://app?vid=0cf27b18-aab6-49df-9929-7efcd6bc6486","ios":"levelo://app?vid=0cf27b18-aab6-49df-9929-7efcd6bc6486"},"vehicle_type_id":"4","last_reported":1714503940,"current_range_meters":20800,"station_id":"ce4bgn12rcd13ifvqbt0","pricing_plan_id":"cebpf4jnsgd1na2vs0mg"},{"bike_id":"cd8c25db-9d18-4c4f-b4e8-97714b65750d","system_id":"levelo_inurba_marseille","lat":43.29706,"lon":5.36608,"is_reserved":false,"is_disabled":false,"rental_uris":{"android":"levelo://app?vid=cd8c25db-9d18-4c4f-b4e8-97714b65750d","ios":"levelo://app?vid=cd8c25db-9d18-4c4f-b4e8-97714b65750d"},"vehicle_type_id":"4","last_reported":1714503940,"current_range_meters":15600,"station_id":"ce4bgn12rcd13ifvqbt0","pricing_plan_id":"cebpf4jnsgd1na2vs0mg"},{"bike_id":"cd09bc4e-c67e-424b-a1da-88391dbfd8c0","system_id":"levelo_inurba_marseille","lat":43.297332,"lon":5.371072,"is_reserved":false,"is_disabled":false,"rental_uris":{"android":"levelo://app?vid=cd09bc4e-c67e-424b-a1da-88391dbfd8c0","ios":"levelo://app?vid=cd09bc4e-c67e-424b-a1da-88391dbfd8c0"},"vehicle_type_id":"4","last_reported":1714503940,"current_range_meters":14000,"station_id":"","pricing_plan_id":"cebpf4jnsgd1na2vs0mg"},{"bike_id":"05d73dc9-b9e7-48fb-aeff-2bd4fe75c863","system_id":"levelo_inurba_marseille","lat":43.2968,"lon":5.37291,"is_reserved":false,"is_disabled":false,"rental_uris":{"android":"levelo://app?vid=05d73dc9-b9e7-48fb-aeff-2bd4fe75c863","ios":"levelo://app?vid=05d73dc9-b9e7-48fb-aeff-2bd4fe75c863"},"vehicle_type_id":"4","last_reported":1714503940,"current_range_meters":28400,"station_id":"ce4bgk12rcd13ifvqbj0","pricing_plan_id":"cebpf4jnsgd1na2vs0mg"},{"bike_id":"d652ac13-4bc5-4544-af47-78dd90d44415","system_id":"levelo_inurba_marseille","lat":43.2968,"lon":5.37291,"is_reserved":false,"is_disabled":false,"rental_uris":{"android":"levelo://app?vid=d652ac13-4bc5-4544-af47-78dd90d44415","ios":"levelo://app?vid=d652ac13-4bc5-4544-af47-78dd90d44415"},"vehicle_type_id":"4","last_reported":1714503940,"current_range_meters":23600,"station_id":"ce4bgk12rcd13ifvqbj0","pricing_plan_id":"cebpf4jnsgd1na2vs0mg"},{"bike_id":"2eb0378d-06ed-42d6-bc42-5b067f936820","system_id":"levelo_inurba_marseille","lat":43.2968,"lon":5.37291,"is_reserved":false,"is_disabled":false,"rental_uris":{"android":"levelo://app?vid=2eb0378d-06ed-42d6-bc42-5b067f936820","ios":"levelo://app?vid=2eb0378d-06ed-42d6-bc42-5b067f936820"},"vehicle_type_id":"4","last_reported":1714503940,"current_range_meters":12800,"station_id":"ce4bgk12rcd13ifvqbj0","pricing_plan_id":"cebpf4jnsgd1na2vs0mg"},{"bike_id":"1ad7b9e0-c1e8-4759-b408-a72858d1359f","system_id":"levelo_inurba_marseille","lat":43.29626,"lon":5.37152,"is_reserved":false,"is_disabled":false,"rental_uris":{"android":"levelo://app?vid=1ad7b9e0-c1e8-4759-b408-a72858d1359f","ios":"levelo://app?vid=1ad7b9e0-c1e8-4759-b408-a72858d1359f"},"vehicle_type_id":"4","last_reported":1714503940,"current_range_meters":0,"station_id":"ce4bgnh2rcd13ifvqc0g","pricing_plan_id":"cebpf4jnsgd1na2vs0mg"},{"bike_id":"ac1de7db-b10e-4e77-a50d-50279b6dfb1e","system_id":"levelo_inurba_marseille","lat":43.29625,"lon":5.3715,"is_reserved":false,"is_disabled":false,"rental_uris":{"android":"levelo://app?vid=ac1de7db-b10e-4e77-a50d-50279b6dfb1e","ios":"levelo://app?vid=ac1de7db-b10e-4e77-a50d-50279b6dfb1e"},"vehicle_type_id":"4","last_reported":1714503940,"current_range_meters":28000,"station_id":"ce4bgnh2rcd13ifvqc0g","pricing_plan_id":"cebpf4jnsgd1na2vs0mg"},{"bike_id":"a16be519-06b6-46f0-a1fb-d17b722c969d","system_id":"levelo_inurba_marseille","lat":43.29625,"lon":5.37153,"is_reserved":false,"is_disabled":false,"rental_uris":{"android":"levelo://app?vid=a16be519-06b6-46f0-a1fb-d17b722c969d","ios":"levelo://app?vid=a16be519-06b6-46f0-a1fb-d17b722c969d"},"vehicle_type_id":"4","last_reported":1714503940,"current_range_meters":0,"station_id":"ce4bgnh2rcd13ifvqc0g","pricing_plan_id":"cebpf4jnsgd1na2vs0mg"},{"bike_id":"5ae55e6c-ed8b-44f1-b737-a9a7167e07b1","system_id":"levelo_inurba_marseille","lat":43.296131,"lon":5.370791,"is_reserved":false,"is_disabled":false,"rental_uris":{"android":"levelo://app?vid=5ae55e6c-ed8b-44f1-b737-a9a7167e07b1","ios":"levelo://app?vid=5ae55e6c-ed8b-44f1-b737-a9a7167e07b1"},"vehicle_type_id":"4","last_reported":1714503940,"current_range_meters":5600,"station_id":"ce4bgnh2rcd13ifvqc0g","pricing_plan_id":"cebpf4jnsgd1na2vs0mg"},{"bike_id":"e647ee65-6841-4d04-81a4-fd43347a2cab","system_id":"levelo_inurba_marseille","lat":43.29573,"lon":5.367355,"is_reserved":false,"is_disabled":false,"rental_uris":{"android":"levelo://app?vid=e647ee65-6841-4d04-81a4-fd43347a2cab","ios":"levelo://app?vid=e647ee65-6841-4d04-81a4-fd43347a2cab"},"vehicle_type_id":"4","last_reported":1714503940,"current_range_meters":18400,"station_id":"ce4bgph2rcd13ifvqc2g","pricing_plan_id":"cebpf4jnsgd1na2vs0mg"},{"bike_id":"39746e75-a7b3-4b0a-bdb9-766303f9d055","system_id":"levelo_inurba_marseille","lat":43.29582,"lon":5.36748,"is_reserved":false,"is_disabled":false,"rental_uris":{"android":"levelo://app?vid=39746e75-a7b3-4b0a-bdb9-766303f9d055","ios":"levelo://app?vid=39746e75-a7b3-4b0a-bdb9-766303f9d055"},"vehicle_type_id":"4","last_reported":1714503940,"current_range_meters":23600,"station_id":"ce4bgph2rcd13ifvqc2g","pricing_plan_id":"cebpf4jnsgd1na2vs0mg"},{"bike_id":"081d296f-c0f0-40eb-9291-f0ed4ccfa6d2","system_id":"levelo_inurba_marseille","lat":43.299028,"lon":5.381509,"is_reserved":false,"is_disabled":false,"rental_uris":{"android":"levelo://app?vid=081d296f-c0f0-40eb-9291-f0ed4ccfa6d2","ios":"levelo://app?vid=081d296f-c0f0-40eb-9291-f0ed4ccfa6d2"},"vehicle_type_id":"4","last_reported":1714503940,"current_range_meters":19200,"station_id":"ce4bgj12rcd13ifvqbc0","pricing_plan_id":"cebpf4jnsgd1na2vs0mg"},{"bike_id":"e3cd461e-b583-4708-ad36-d3aa7721e341","system_id":"levelo_inurba_marseille","lat":43.309589,"lon":5.390258,"is_reserved":false,"is_disabled":false,"rental_uris":{"android":"levelo://app?vid=e3cd461e-b583-4708-ad36-d3aa7721e341","ios":"levelo://app?vid=e3cd461e-b583-4708-ad36-d3aa7721e341"},"vehicle_type_id":"4","last_reported":1714503940,"current_range_meters":31200,"station_id":"ce4bgup2rcd13ifvqco0","pricing_plan_id":"cebpf4jnsgd1na2vs0mg"},{"bike_id":"82e4fb94-294f-4c2c-bc2a-a3371d755a7f","system_id":"levelo_inurba_marseille","lat":43.299075,"lon":5.381531,"is_reserved":false,"is_disabled":false,"rental_uris":{"android":"levelo://app?vid=82e4fb94-294f-4c2c-bc2a-a3371d755a7f","ios":"levelo://app?vid=82e4fb94-294f-4c2c-bc2a-a3371d755a7f"},"vehicle_type_id":"4","last_reported":1714503940,"current_range_meters":2000,"station_id":"","pricing_plan_id":"cebpf4jnsgd1na2vs0mg"},{"bike_id":"c84556b8-0e0e-45a2-b94b-59e04a81172d","system_id":"levelo_inurba_marseille","lat":43.299,"lon":5.38141,"is_reserved":false,"is_disabled":false,"rental_uris":{"android":"levelo://app?vid=c84556b8-0e0e-45a2-b94b-59e04a81172d","ios":"levelo://app?vid=c84556b8-0e0e-45a2-b94b-59e04a81172d"},"vehicle_type_id":"4","last_reported":1714503940,"current_range_meters":0,"station_id":"ce4bgj12rcd13ifvqbc0","pricing_plan_id":"cebpf4jnsgd1na2vs0mg"},{"bike_id":"3e90fa85-c942-47c4-a797-7ff343ed3b41","system_id":"levelo_inurba_marseille","lat":43.317559,"lon":5.390115,"is_reserved":false,"is_disabled":false,"rental_uris":{"android":"levelo://app?vid=3e90fa85-c942-47c4-a797-7ff343ed3b41","ios":"levelo://app?vid=3e90fa85-c942-47c4-a797-7ff343ed3b41"},"vehicle_type_id":"4","last_reported":1714503940,"current_range_meters":30800,"station_id":"ce4bhqp2rcd13ifvqhng","pricing_plan_id":"cebpf4jnsgd1na2vs0mg"},{"bike_id":"e91a6fa5-b985-4610-928f-61bbc4a9ce2c","system_id":"levelo_inurba_marseille","lat":43.317585,"lon":5.39013,"is_reserved":false,"is_disabled":false,"rental_uris":{"android":"levelo://app?vid=e91a6fa5-b985-4610-928f-61bbc4a9ce2c","ios":"levelo://app?vid=e91a6fa5-b985-4610-928f-61bbc4a9ce2c"},"vehicle_type_id":"4","last_reported":1714503940,"current_range_meters":24000,"station_id":"ce4bhqp2rcd13ifvqhng","pricing_plan_id":"cebpf4jnsgd1na2vs0mg"},{"bike_id":"e7f7f8c6-3502-40da-b88a-452fc9534ddc","system_id":"levelo_inurba_marseille","lat":43.31761,"lon":5.390127,"is_reserved":false,"is_disabled":false,"rental_uris":{"android":"levelo://app?vid=e7f7f8c6-3502-40da-b88a-452fc9534ddc","ios":"levelo://app?vid=e7f7f8c6-3502-40da-b88a-452fc9534ddc"},"vehicle_type_id":"4","last_reported":1714503940,"current_range_meters":26000,"station_id":"ce4bhqp2rcd13ifvqhng","pricing_plan_id":"cebpf4jnsgd1na2vs0mg"},{"bike_id":"7c9a0d23-1e6b-4a12-a9a7-6d97ddb39428","system_id":"levelo_inurba_marseille","lat":43.317576,"lon":5.390155,"is_reserved":false,"is_disabled":false,"rental_uris":{"android":"levelo://app?vid=7c9a0d23-1e6b-4a12-a9a7-6d97ddb39428","ios":"levelo://app?vid=7c9a0d23-1e6b-4a12-a9a7-6d97ddb39428"},"vehicle_type_id":"4","last_reported":1714503940,"current_range_meters":15200,"station_id":"ce4bhqp2rcd13ifvqhng","pricing_plan_id":"cebpf4jnsgd1na2vs0mg"},{"bike_id":"6806fa5d-9ca6-4ac5-b5b0-17cf11fdd5fa","system_id":"levelo_inurba_marseille","lat":43.31754,"lon":5.39017,"is_reserved":false,"is_disabled":false,"rental_uris":{"android":"levelo://app?vid=6806fa5d-9ca6-4ac5-b5b0-17cf11fdd5fa","ios":"levelo://app?vid=6806fa5d-9ca6-4ac5-b5b0-17cf11fdd5fa"},"vehicle_type_id":"4","last_reported":1714503940,"current_range_meters":4800,"station_id":"ce4bhqp2rcd13ifvqhng","pricing_plan_id":"cebpf4jnsgd1na2vs0mg"},{"bike_id":"160120ba-f068-445d-b9bd-561cc5fe6e33","system_id":"levelo_inurba_marseille","lat":43.317588,"lon":5.39016,"is_reserved":false,"is_disabled":false,"rental_uris":{"android":"levelo://app?vid=160120ba-f068-445d-b9bd-561cc5fe6e33","ios":"levelo://app?vid=160120ba-f068-445d-b9bd-561cc5fe6e33"},"vehicle_type_id":"4","last_reported":1714503940,"current_range_meters":17200,"station_id":"ce4bhqp2rcd13ifvqhng","pricing_plan_id":"cebpf4jnsgd1na2vs0mg"},{"bike_id":"f78bd38f-4723-47ae-aaaf-3862943893a1","system_id":"levelo_inurba_marseille","lat":43.317586,"lon":5.390161,"is_reserved":false,"is_disabled":false,"rental_uris":{"android":"levelo://app?vid=f78bd38f-4723-47ae-aaaf-3862943893a1","ios":"levelo://app?vid=f78bd38f-4723-47ae-aaaf-3862943893a1"},"vehicle_type_id":"4","last_reported":1714503940,"current_range_meters":20800,"station_id":"ce4bhqp2rcd13ifvqhng","pricing_plan_id":"cebpf4jnsgd1na2vs0mg"},{"bike_id":"37242e48-b0e9-4a6e-b541-d08e7b35f1ed","system_id":"levelo_inurba_marseille","lat":43.317553,"lon":5.390179,"is_reserved":false,"is_disabled":false,"rental_uris":{"android":"levelo://app?vid=37242e48-b0e9-4a6e-b541-d08e7b35f1ed","ios":"levelo://app?vid=37242e48-b0e9-4a6e-b541-d08e7b35f1ed"},"vehicle_type_id":"4","last_reported":1714503940,"current_range_meters":27200,"station_id":"ce4bhqp2rcd13ifvqhng","pricing_plan_id":"cebpf4jnsgd1na2vs0mg"},{"bike_id":"e840313d-cec8-4709-a736-da27dff2725e","system_id":"levelo_inurba_marseille","lat":43.31754,"lon":5.39021,"is_reserved":false,"is_disabled":false,"rental_uris":{"android":"levelo://app?vid=e840313d-cec8-4709-a736-da27dff2725e","ios":"levelo://app?vid=e840313d-cec8-4709-a736-da27dff2725e"},"vehicle_type_id":"4","last_reported":1714503940,"current_range_meters":24400,"station_id":"ce4bhqp2rcd13ifvqhng","pricing_plan_id":"cebpf4jnsgd1na2vs0mg"},{"bike_id":"f55b98f1-7bc2-4efe-92c3-bd68f99aa2b2","system_id":"levelo_inurba_marseille","lat":43.317636,"lon":5.390179,"is_reserved":false,"is_disabled":false,"rental_uris":{"android":"levelo://app?vid=f55b98f1-7bc2-4efe-92c3-bd68f99aa2b2","ios":"levelo://app?vid=f55b98f1-7bc2-4efe-92c3-bd68f99aa2b2"},"vehicle_type_id":"4","last_reported":1714503940,"current_range_meters":19600,"station_id":"ce4bhqp2rcd13ifvqhng","pricing_plan_id":"cebpf4jnsgd1na2vs0mg"},{"bike_id":"b5271f54-f37d-423a-b48c-8177de38a8f8","system_id":"levelo_inurba_marseille","lat":43.31757,"lon":5.39022,"is_reserved":false,"is_disabled":false,"rental_uris":{"android":"levelo://app?vid=b5271f54-f37d-423a-b48c-8177de38a8f8","ios":"levelo://app?vid=b5271f54-f37d-423a-b48c-8177de38a8f8"},"vehicle_type_id":"4","last_reported":1714503940,"current_range_meters":5600,"station_id":"ce4bhqp2rcd13ifvqhng","pricing_plan_id":"cebpf4jnsgd1na2vs0mg"},{"bike_id":"b1addad9-e6b9-42db-aafc-ca3fa67234a4","system_id":"levelo_inurba_marseille","lat":43.3176,"lon":5.39021,"is_reserved":false,"is_disabled":false,"rental_uris":{"android":"levelo://app?vid=b1addad9-e6b9-42db-aafc-ca3fa67234a4","ios":"levelo://app?vid=b1addad9-e6b9-42db-aafc-ca3fa67234a4"},"vehicle_type_id":"4","last_reported":1714503940,"current_range_meters":28000,"station_id":"ce4bhqp2rcd13ifvqhng","pricing_plan_id":"cebpf4jnsgd1na2vs0mg"},{"bike_id":"88b24db4-632b-4045-a01f-3d312d3ba27d","system_id":"levelo_inurba_marseille","lat":43.317625,"lon":5.390205,"is_reserved":false,"is_disabled":false,"rental_uris":{"android":"levelo://app?vid=88b24db4-632b-4045-a01f-3d312d3ba27d","ios":"levelo://app?vid=88b24db4-632b-4045-a01f-3d312d3ba27d"},"vehicle_type_id":"4","last_reported":1714503940,"current_range_meters":19200,"station_id":"ce4bhqp2rcd13ifvqhng","pricing_plan_id":"cebpf4jnsgd1na2vs0mg"},{"bike_id":"9b1f0b76-8d20-47d6-bff5-c2eea49877ab","system_id":"levelo_inurba_marseille","lat":43.317601,"lon":5.390221,"is_reserved":false,"is_disabled":false,"rental_uris":{"android":"levelo://app?vid=9b1f0b76-8d20-47d6-bff5-c2eea49877ab","ios":"levelo://app?vid=9b1f0b76-8d20-47d6-bff5-c2eea49877ab"},"vehicle_type_id":"4","last_reported":1714503940,"current_range_meters":10400,"station_id":"ce4bhqp2rcd13ifvqhng","pricing_plan_id":"cebpf4jnsgd1na2vs0mg"},{"bike_id":"77efcea7-0dcc-416d-9d14-2ee7b9085bd0","system_id":"levelo_inurba_marseille","lat":43.31759,"lon":5.39023,"is_reserved":false,"is_disabled":false,"rental_uris":{"android":"levelo://app?vid=77efcea7-0dcc-416d-9d14-2ee7b9085bd0","ios":"levelo://app?vid=77efcea7-0dcc-416d-9d14-2ee7b9085bd0"},"vehicle_type_id":"4","last_reported":1714503940,"current_range_meters":0,"station_id":"ce4bhqp2rcd13ifvqhng","pricing_plan_id":"cebpf4jnsgd1na2vs0mg"},{"bike_id":"57ca142f-bd81-4bd2-be4e-bd61cd00f86a","system_id":"levelo_inurba_marseille","lat":43.3176,"lon":5.39024,"is_reserved":false,"is_disabled":false,"rental_uris":{"android":"levelo://app?vid=57ca142f-bd81-4bd2-be4e-bd61cd00f86a","ios":"levelo://app?vid=57ca142f-bd81-4bd2-be4e-bd61cd00f86a"},"vehicle_type_id":"4","last_reported":1714503940,"current_range_meters":19600,"station_id":"ce4bhqp2rcd13ifvqhng","pricing_plan_id":"cebpf4jnsgd1na2vs0mg"},{"bike_id":"85cc422c-2575-4754-9304-235321be6f5c","system_id":"levelo_inurba_marseille","lat":43.296858,"lon":5.37805,"is_reserved":false,"is_disabled":false,"rental_uris":{"android":"levelo://app?vid=85cc422c-2575-4754-9304-235321be6f5c","ios":"levelo://app?vid=85cc422c-2575-4754-9304-235321be6f5c"},"vehicle_type_id":"4","last_reported":1714503940,"current_range_meters":21600,"station_id":"","pricing_plan_id":"cebpf4jnsgd1na2vs0mg"},{"bike_id":"9ddfac05-c16d-46ea-a703-6eb01df2ba77","system_id":"levelo_inurba_marseille","lat":43.298037,"lon":5.381066,"is_reserved":false,"is_disabled":false,"rental_uris":{"android":"levelo://app?vid=9ddfac05-c16d-46ea-a703-6eb01df2ba77","ios":"levelo://app?vid=9ddfac05-c16d-46ea-a703-6eb01df2ba77"},"vehicle_type_id":"4","last_reported":1714503940,"current_range_meters":23600,"station_id":"ce4bgip2rcd13ifvqbb0","pricing_plan_id":"cebpf4jnsgd1na2vs0mg"},{"bike_id":"f3b71ff1-fc0a-42dd-8e52-7cf1b7fcd090","system_id":"levelo_inurba_marseille","lat":43.298037,"lon":5.381066,"is_reserved":false,"is_disabled":false,"rental_uris":{"android":"levelo://app?vid=f3b71ff1-fc0a-42dd-8e52-7cf1b7fcd090","ios":"levelo://app?vid=f3b71ff1-fc0a-42dd-8e52-7cf1b7fcd090"},"vehicle_type_id":"4","last_reported":1714503940,"current_range_meters":400,"station_id":"ce4bgip2rcd13ifvqbb0","pricing_plan_id":"cebpf4jnsgd1na2vs0mg"},{"bike_id":"58b0b4e8-9c85-4a5a-903d-a2ef0d6802c8","system_id":"levelo_inurba_marseille","lat":43.298037,"lon":5.381066,"is_reserved":false,"is_disabled":false,"rental_uris":{"android":"levelo://app?vid=58b0b4e8-9c85-4a5a-903d-a2ef0d6802c8","ios":"levelo://app?vid=58b0b4e8-9c85-4a5a-903d-a2ef0d6802c8"},"vehicle_type_id":"4","last_reported":1714503940,"current_range_meters":27200,"station_id":"ce4bgip2rcd13ifvqbb0","pricing_plan_id":"cebpf4jnsgd1na2vs0mg"},{"bike_id":"65f8c5d5-7da9-41bf-9807-518b9f5127be","system_id":"levelo_inurba_marseille","lat":43.298037,"lon":5.381066,"is_reserved":false,"is_disabled":false,"rental_uris":{"android":"levelo://app?vid=65f8c5d5-7da9-41bf-9807-518b9f5127be","ios":"levelo://app?vid=65f8c5d5-7da9-41bf-9807-518b9f5127be"},"vehicle_type_id":"4","last_reported":1714503940,"current_range_meters":14000,"station_id":"ce4bgip2rcd13ifvqbb0","pricing_plan_id":"cebpf4jnsgd1na2vs0mg"},{"bike_id":"656a2d50-3d57-4983-a6b4-a5b345ce6e8b","system_id":"levelo_inurba_marseille","lat":43.298037,"lon":5.381066,"is_reserved":false,"is_disabled":false,"rental_uris":{"android":"levelo://app?vid=656a2d50-3d57-4983-a6b4-a5b345ce6e8b","ios":"levelo://app?vid=656a2d50-3d57-4983-a6b4-a5b345ce6e8b"},"vehicle_type_id":"4","last_reported":1714503940,"current_range_meters":30000,"station_id":"ce4bgip2rcd13ifvqbb0","pricing_plan_id":"cebpf4jnsgd1na2vs0mg"},{"bike_id":"30fcbd2a-c02e-4a5d-b4c8-5d61c08076d8","system_id":"levelo_inurba_marseille","lat":43.29798,"lon":5.38101,"is_reserved":false,"is_disabled":false,"rental_uris":{"android":"levelo://app?vid=30fcbd2a-c02e-4a5d-b4c8-5d61c08076d8","ios":"levelo://app?vid=30fcbd2a-c02e-4a5d-b4c8-5d61c08076d8"},"vehicle_type_id":"4","last_reported":1714503940,"current_range_meters":23200,"station_id":"ce4bgip2rcd13ifvqbb0","pricing_plan_id":"cebpf4jnsgd1na2vs0mg"},{"bike_id":"a14c9cf4-64f0-41f7-b2c5-fc5fb2ab7754","system_id":"levelo_inurba_marseille","lat":43.29794,"lon":5.38098,"is_reserved":false,"is_disabled":false,"rental_uris":{"android":"levelo://app?vid=a14c9cf4-64f0-41f7-b2c5-fc5fb2ab7754","ios":"levelo://app?vid=a14c9cf4-64f0-41f7-b2c5-fc5fb2ab7754"},"vehicle_type_id":"4","last_reported":1714503940,"current_range_meters":12400,"station_id":"ce4bgip2rcd13ifvqbb0","pricing_plan_id":"cebpf4jnsgd1na2vs0mg"},{"bike_id":"64f68f88-6419-4386-978a-bd17901fa0ee","system_id":"levelo_inurba_marseille","lat":43.298037,"lon":5.381066,"is_reserved":false,"is_disabled":false,"rental_uris":{"android":"levelo://app?vid=64f68f88-6419-4386-978a-bd17901fa0ee","ios":"levelo://app?vid=64f68f88-6419-4386-978a-bd17901fa0ee"},"vehicle_type_id":"4","last_reported":1714503940,"current_range_meters":30400,"station_id":"ce4bgip2rcd13ifvqbb0","pricing_plan_id":"cebpf4jnsgd1na2vs0mg"},{"bike_id":"28e727e7-4d4c-4d40-9c4b-1cdf520e31b1","system_id":"levelo_inurba_marseille","lat":43.29795,"lon":5.38107,"is_reserved":false,"is_disabled":false,"rental_uris":{"android":"levelo://app?vid=28e727e7-4d4c-4d40-9c4b-1cdf520e31b1","ios":"levelo://app?vid=28e727e7-4d4c-4d40-9c4b-1cdf520e31b1"},"vehicle_type_id":"4","last_reported":1714503940,"current_range_meters":9600,"station_id":"ce4bgip2rcd13ifvqbb0","pricing_plan_id":"cebpf4jnsgd1na2vs0mg"},{"bike_id":"14ebc073-fe58-45ab-a1a3-577c256a8d65","system_id":"levelo_inurba_marseille","lat":43.29791,"lon":5.381,"is_reserved":false,"is_disabled":false,"rental_uris":{"android":"levelo://app?vid=14ebc073-fe58-45ab-a1a3-577c256a8d65","ios":"levelo://app?vid=14ebc073-fe58-45ab-a1a3-577c256a8d65"},"vehicle_type_id":"4","last_reported":1714503940,"current_range_meters":18800,"station_id":"ce4bgip2rcd13ifvqbb0","pricing_plan_id":"cebpf4jnsgd1na2vs0mg"},{"bike_id":"0bb3f242-0046-40b6-99eb-3d9f3bbcb690","system_id":"levelo_inurba_marseille","lat":43.29789,"lon":5.38097,"is_reserved":false,"is_disabled":false,"rental_uris":{"android":"levelo://app?vid=0bb3f242-0046-40b6-99eb-3d9f3bbcb690","ios":"levelo://app?vid=0bb3f242-0046-40b6-99eb-3d9f3bbcb690"},"vehicle_type_id":"4","last_reported":1714503940,"current_range_meters":5600,"station_id":"ce4bgip2rcd13ifvqbb0","pricing_plan_id":"cebpf4jnsgd1na2vs0mg"},{"bike_id":"d46b6850-2406-4c3f-b828-1054d5d412f5","system_id":"levelo_inurba_marseille","lat":43.298037,"lon":5.381066,"is_reserved":false,"is_disabled":false,"rental_uris":{"android":"levelo://app?vid=d46b6850-2406-4c3f-b828-1054d5d412f5","ios":"levelo://app?vid=d46b6850-2406-4c3f-b828-1054d5d412f5"},"vehicle_type_id":"4","last_reported":1714503940,"current_range_meters":26400,"station_id":"ce4bgip2rcd13ifvqbb0","pricing_plan_id":"cebpf4jnsgd1na2vs0mg"},{"bike_id":"47735b4f-605e-47dd-ad9d-f0b5a33870f9","system_id":"levelo_inurba_marseille","lat":43.298037,"lon":5.381066,"is_reserved":false,"is_disabled":false,"rental_uris":{"android":"levelo://app?vid=47735b4f-605e-47dd-ad9d-f0b5a33870f9","ios":"levelo://app?vid=47735b4f-605e-47dd-ad9d-f0b5a33870f9"},"vehicle_type_id":"4","last_reported":1714503940,"current_range_meters":0,"station_id":"ce4bgip2rcd13ifvqbb0","pricing_plan_id":"cebpf4jnsgd1na2vs0mg"},{"bike_id":"addf7ad9-270e-4fc0-9e73-7044da6f902a","system_id":"levelo_inurba_marseille","lat":43.295748,"lon":5.37522,"is_reserved":false,"is_disabled":false,"rental_uris":{"android":"levelo://app?vid=addf7ad9-270e-4fc0-9e73-7044da6f902a","ios":"levelo://app?vid=addf7ad9-270e-4fc0-9e73-7044da6f902a"},"vehicle_type_id":"4","last_reported":1714503940,"current_range_meters":0,"station_id":"ce4bgh92rcd13ifvqb50","pricing_plan_id":"cebpf4jnsgd1na2vs0mg"},{"bike_id":"28010f05-d957-46ef-bd85-a7144df18b68","system_id":"levelo_inurba_marseille","lat":43.29789,"lon":5.38106,"is_reserved":false,"is_disabled":false,"rental_uris":{"android":"levelo://app?vid=28010f05-d957-46ef-bd85-a7144df18b68","ios":"levelo://app?vid=28010f05-d957-46ef-bd85-a7144df18b68"},"vehicle_type_id":"4","last_reported":1714503940,"current_range_meters":18400,"station_id":"ce4bgip2rcd13ifvqbb0","pricing_plan_id":"cebpf4jnsgd1na2vs0mg"},{"bike_id":"c453d916-b2cc-4a31-a94e-a6cf7cd924c1","system_id":"levelo_inurba_marseille","lat":43.298037,"lon":5.381066,"is_reserved":false,"is_disabled":false,"rental_uris":{"android":"levelo://app?vid=c453d916-b2cc-4a31-a94e-a6cf7cd924c1","ios":"levelo://app?vid=c453d916-b2cc-4a31-a94e-a6cf7cd924c1"},"vehicle_type_id":"4","last_reported":1714503940,"current_range_meters":16400,"station_id":"ce4bgip2rcd13ifvqbb0","pricing_plan_id":"cebpf4jnsgd1na2vs0mg"},{"bike_id":"31775f99-1c94-4d4b-a53a-439a1a109f00","system_id":"levelo_inurba_marseille","lat":43.30423,"lon":5.38886,"is_reserved":false,"is_disabled":false,"rental_uris":{"android":"levelo://app?vid=31775f99-1c94-4d4b-a53a-439a1a109f00","ios":"levelo://app?vid=31775f99-1c94-4d4b-a53a-439a1a109f00"},"vehicle_type_id":"4","last_reported":1714503940,"current_range_meters":11600,"station_id":"ce4bgk12rcd13ifvqbi0","pricing_plan_id":"cebpf4jnsgd1na2vs0mg"},{"bike_id":"885217a3-3db7-47ec-845f-447bdb687511","system_id":"levelo_inurba_marseille","lat":43.295748,"lon":5.37522,"is_reserved":false,"is_disabled":false,"rental_uris":{"android":"levelo://app?vid=885217a3-3db7-47ec-845f-447bdb687511","ios":"levelo://app?vid=885217a3-3db7-47ec-845f-447bdb687511"},"vehicle_type_id":"4","last_reported":1714503940,"current_range_meters":0,"station_id":"ce4bgh92rcd13ifvqb50","pricing_plan_id":"cebpf4jnsgd1na2vs0mg"},{"bike_id":"4ba08865-44d0-486d-9df0-52450e3fd260","system_id":"levelo_inurba_marseille","lat":43.29786,"lon":5.38107,"is_reserved":false,"is_disabled":false,"rental_uris":{"android":"levelo://app?vid=4ba08865-44d0-486d-9df0-52450e3fd260","ios":"levelo://app?vid=4ba08865-44d0-486d-9df0-52450e3fd260"},"vehicle_type_id":"4","last_reported":1714503940,"current_range_meters":12400,"station_id":"ce4bgip2rcd13ifvqbb0","pricing_plan_id":"cebpf4jnsgd1na2vs0mg"},{"bike_id":"9ff1ed8c-76db-4b7b-b7c1-26265e83e07c","system_id":"levelo_inurba_marseille","lat":43.302759,"lon":5.400793,"is_reserved":false,"is_disabled":false,"rental_uris":{"android":"levelo://app?vid=9ff1ed8c-76db-4b7b-b7c1-26265e83e07c","ios":"levelo://app?vid=9ff1ed8c-76db-4b7b-b7c1-26265e83e07c"},"vehicle_type_id":"4","last_reported":1714503940,"current_range_meters":10400,"station_id":"ce4bgvh2rcd13ifvqcs0","pricing_plan_id":"cebpf4jnsgd1na2vs0mg"},{"bike_id":"3d111399-4d65-44fd-a930-36bd13f5faca","system_id":"levelo_inurba_marseille","lat":43.29783,"lon":5.38104,"is_reserved":false,"is_disabled":false,"rental_uris":{"android":"levelo://app?vid=3d111399-4d65-44fd-a930-36bd13f5faca","ios":"levelo://app?vid=3d111399-4d65-44fd-a930-36bd13f5faca"},"vehicle_type_id":"4","last_reported":1714503940,"current_range_meters":5200,"station_id":"ce4bgip2rcd13ifvqbb0","pricing_plan_id":"cebpf4jnsgd1na2vs0mg"},{"bike_id":"8f664ac6-693d-44f7-bde7-b46fa79f1c1e","system_id":"levelo_inurba_marseille","lat":43.30423,"lon":5.3889,"is_reserved":false,"is_disabled":false,"rental_uris":{"android":"levelo://app?vid=8f664ac6-693d-44f7-bde7-b46fa79f1c1e","ios":"levelo://app?vid=8f664ac6-693d-44f7-bde7-b46fa79f1c1e"},"vehicle_type_id":"4","last_reported":1714503940,"current_range_meters":0,"station_id":"ce4bgk12rcd13ifvqbi0","pricing_plan_id":"cebpf4jnsgd1na2vs0mg"},{"bike_id":"f30398c6-e02f-4340-b4e4-ab7252e8fdd4","system_id":"levelo_inurba_marseille","lat":43.29785,"lon":5.38111,"is_reserved":false,"is_disabled":false,"rental_uris":{"android":"levelo://app?vid=f30398c6-e02f-4340-b4e4-ab7252e8fdd4","ios":"levelo://app?vid=f30398c6-e02f-4340-b4e4-ab7252e8fdd4"},"vehicle_type_id":"4","last_reported":1714503940,"current_range_meters":26400,"station_id":"ce4bgip2rcd13ifvqbb0","pricing_plan_id":"cebpf4jnsgd1na2vs0mg"},{"bike_id":"f51201b6-3226-4f42-a6f2-4db9732dcc30","system_id":"levelo_inurba_marseille","lat":43.29532,"lon":5.37377,"is_reserved":false,"is_disabled":false,"rental_uris":{"android":"levelo://app?vid=f51201b6-3226-4f42-a6f2-4db9732dcc30","ios":"levelo://app?vid=f51201b6-3226-4f42-a6f2-4db9732dcc30"},"vehicle_type_id":"4","last_reported":1714503940,"current_range_meters":14400,"station_id":"","pricing_plan_id":"cebpf4jnsgd1na2vs0mg"},{"bike_id":"0f445ae5-d681-4f79-8656-c4bf9f7100db","system_id":"levelo_inurba_marseille","lat":43.29617,"lon":5.37727,"is_reserved":false,"is_disabled":false,"rental_uris":{"android":"levelo://app?vid=0f445ae5-d681-4f79-8656-c4bf9f7100db","ios":"levelo://app?vid=0f445ae5-d681-4f79-8656-c4bf9f7100db"},"vehicle_type_id":"4","last_reported":1714503940,"current_range_meters":0,"station_id":"ce4bgi92rcd13ifvqb90","pricing_plan_id":"cebpf4jnsgd1na2vs0mg"},{"bike_id":"3a72e16c-c229-491c-8aa6-940d4b4790a9","system_id":"levelo_inurba_marseille","lat":43.297738,"lon":5.381124,"is_reserved":false,"is_disabled":false,"rental_uris":{"android":"levelo://app?vid=3a72e16c-c229-491c-8aa6-940d4b4790a9","ios":"levelo://app?vid=3a72e16c-c229-491c-8aa6-940d4b4790a9"},"vehicle_type_id":"4","last_reported":1714503940,"current_range_meters":4400,"station_id":"","pricing_plan_id":"cebpf4jnsgd1na2vs0mg"},{"bike_id":"6714a35e-f400-4807-a6cc-c8dc06bd2ba0","system_id":"levelo_inurba_marseille","lat":43.29778,"lon":5.38121,"is_reserved":false,"is_disabled":false,"rental_uris":{"android":"levelo://app?vid=6714a35e-f400-4807-a6cc-c8dc06bd2ba0","ios":"levelo://app?vid=6714a35e-f400-4807-a6cc-c8dc06bd2ba0"},"vehicle_type_id":"4","last_reported":1714503940,"current_range_meters":31200,"station_id":"ce4bgip2rcd13ifvqbb0","pricing_plan_id":"cebpf4jnsgd1na2vs0mg"},{"bike_id":"fb3e1f9d-2ff3-4efc-b14b-1fe805392cd5","system_id":"levelo_inurba_marseille","lat":43.29608,"lon":5.37728,"is_reserved":false,"is_disabled":false,"rental_uris":{"android":"levelo://app?vid=fb3e1f9d-2ff3-4efc-b14b-1fe805392cd5","ios":"levelo://app?vid=fb3e1f9d-2ff3-4efc-b14b-1fe805392cd5"},"vehicle_type_id":"4","last_reported":1714503940,"current_range_meters":4800,"station_id":"ce4bgi92rcd13ifvqb90","pricing_plan_id":"cebpf4jnsgd1na2vs0mg"},{"bike_id":"00f3184f-8695-4c40-b627-dfa1b4393532","system_id":"levelo_inurba_marseille","lat":43.299717,"lon":5.384845,"is_reserved":false,"is_disabled":false,"rental_uris":{"android":"levelo://app?vid=00f3184f-8695-4c40-b627-dfa1b4393532","ios":"levelo://app?vid=00f3184f-8695-4c40-b627-dfa1b4393532"},"vehicle_type_id":"4","last_reported":1714503940,"current_range_meters":0,"station_id":"ce4bgj92rcd13ifvqbd0","pricing_plan_id":"cebpf4jnsgd1na2vs0mg"},{"bike_id":"206a2b0a-78d9-4c98-8807-c515d5ea99db","system_id":"levelo_inurba_marseille","lat":43.295279,"lon":5.375048,"is_reserved":false,"is_disabled":false,"rental_uris":{"android":"levelo://app?vid=206a2b0a-78d9-4c98-8807-c515d5ea99db","ios":"levelo://app?vid=206a2b0a-78d9-4c98-8807-c515d5ea99db"},"vehicle_type_id":"4","last_reported":1714503940,"current_range_meters":26000,"station_id":"ce4bgkp2rcd13ifvqbmg","pricing_plan_id":"cebpf4jnsgd1na2vs0mg"},{"bike_id":"c8be0f59-ef81-4ed2-a31f-e4415c12480d","system_id":"levelo_inurba_marseille","lat":43.299377,"lon":5.384983,"is_reserved":false,"is_disabled":false,"rental_uris":{"android":"levelo://app?vid=c8be0f59-ef81-4ed2-a31f-e4415c12480d","ios":"levelo://app?vid=c8be0f59-ef81-4ed2-a31f-e4415c12480d"},"vehicle_type_id":"4","last_reported":1714503940,"current_range_meters":0,"station_id":"ce4bgj92rcd13ifvqbd0","pricing_plan_id":"cebpf4jnsgd1na2vs0mg"},{"bike_id":"182d15b8-aaf9-4216-b507-aae0b2120a3f","system_id":"levelo_inurba_marseille","lat":43.296004,"lon":5.379837,"is_reserved":false,"is_disabled":false,"rental_uris":{"android":"levelo://app?vid=182d15b8-aaf9-4216-b507-aae0b2120a3f","ios":"levelo://app?vid=182d15b8-aaf9-4216-b507-aae0b2120a3f"},"vehicle_type_id":"4","last_reported":1714503940,"current_range_meters":2400,"station_id":"","pricing_plan_id":"cebpf4jnsgd1na2vs0mg"},{"bike_id":"50ba30a7-4676-4969-b698-80d33bb4cd89","system_id":"levelo_inurba_marseille","lat":43.323657,"lon":5.388739,"is_reserved":false,"is_disabled":false,"rental_uris":{"android":"levelo://app?vid=50ba30a7-4676-4969-b698-80d33bb4cd89","ios":"levelo://app?vid=50ba30a7-4676-4969-b698-80d33bb4cd89"},"vehicle_type_id":"4","last_reported":1714503940,"current_range_meters":2400,"station_id":"ce4bhqp2rcd13ifvqhog","pricing_plan_id":"cebpf4jnsgd1na2vs0mg"},{"bike_id":"7be34543-7de1-4ccd-80dc-a7d6d72abb72","system_id":"levelo_inurba_marseille","lat":43.3237,"lon":5.38882,"is_reserved":false,"is_disabled":false,"rental_uris":{"android":"levelo://app?vid=7be34543-7de1-4ccd-80dc-a7d6d72abb72","ios":"levelo://app?vid=7be34543-7de1-4ccd-80dc-a7d6d72abb72"},"vehicle_type_id":"4","last_reported":1714503940,"current_range_meters":12800,"station_id":"ce4bhqp2rcd13ifvqhog","pricing_plan_id":"cebpf4jnsgd1na2vs0mg"},{"bike_id":"04782376-003f-4bcc-9d52-9ceb01e106e6","system_id":"levelo_inurba_marseille","lat":43.32367,"lon":5.38886,"is_reserved":false,"is_disabled":false,"rental_uris":{"android":"levelo://app?vid=04782376-003f-4bcc-9d52-9ceb01e106e6","ios":"levelo://app?vid=04782376-003f-4bcc-9d52-9ceb01e106e6"},"vehicle_type_id":"4","last_reported":1714503940,"current_range_meters":400,"station_id":"ce4bhqp2rcd13ifvqhog","pricing_plan_id":"cebpf4jnsgd1na2vs0mg"},{"bike_id":"cddcf61d-f9d2-4e6b-b035-445ffaa965e1","system_id":"levelo_inurba_marseille","lat":43.32369,"lon":5.38885,"is_reserved":false,"is_disabled":false,"rental_uris":{"android":"levelo://app?vid=cddcf61d-f9d2-4e6b-b035-445ffaa965e1","ios":"levelo://app?vid=cddcf61d-f9d2-4e6b-b035-445ffaa965e1"},"vehicle_type_id":"4","last_reported":1714503940,"current_range_meters":4400,"station_id":"ce4bhqp2rcd13ifvqhog","pricing_plan_id":"cebpf4jnsgd1na2vs0mg"},{"bike_id":"2527e999-45d3-4877-8cce-1ac48ad483ad","system_id":"levelo_inurba_marseille","lat":43.32373,"lon":5.38883,"is_reserved":false,"is_disabled":false,"rental_uris":{"android":"levelo://app?vid=2527e999-45d3-4877-8cce-1ac48ad483ad","ios":"levelo://app?vid=2527e999-45d3-4877-8cce-1ac48ad483ad"},"vehicle_type_id":"4","last_reported":1714503940,"current_range_meters":2000,"station_id":"ce4bhqp2rcd13ifvqhog","pricing_plan_id":"cebpf4jnsgd1na2vs0mg"},{"bike_id":"9f34e799-06ce-45c9-be38-62c08a79e3d6","system_id":"levelo_inurba_marseille","lat":43.3237,"lon":5.38889,"is_reserved":false,"is_disabled":false,"rental_uris":{"android":"levelo://app?vid=9f34e799-06ce-45c9-be38-62c08a79e3d6","ios":"levelo://app?vid=9f34e799-06ce-45c9-be38-62c08a79e3d6"},"vehicle_type_id":"4","last_reported":1714503940,"current_range_meters":19600,"station_id":"ce4bhqp2rcd13ifvqhog","pricing_plan_id":"cebpf4jnsgd1na2vs0mg"},{"bike_id":"b4ca9327-927a-4234-8265-711e2b4bfdb2","system_id":"levelo_inurba_marseille","lat":43.32367,"lon":5.388836,"is_reserved":false,"is_disabled":false,"rental_uris":{"android":"levelo://app?vid=b4ca9327-927a-4234-8265-711e2b4bfdb2","ios":"levelo://app?vid=b4ca9327-927a-4234-8265-711e2b4bfdb2"},"vehicle_type_id":"4","last_reported":1714503940,"current_range_meters":24800,"station_id":"ce4bhqp2rcd13ifvqhog","pricing_plan_id":"cebpf4jnsgd1na2vs0mg"},{"bike_id":"74c35409-45cb-4a96-b61c-9d10c96aa3e0","system_id":"levelo_inurba_marseille","lat":43.29614,"lon":5.3811,"is_reserved":false,"is_disabled":false,"rental_uris":{"android":"levelo://app?vid=74c35409-45cb-4a96-b61c-9d10c96aa3e0","ios":"levelo://app?vid=74c35409-45cb-4a96-b61c-9d10c96aa3e0"},"vehicle_type_id":"4","last_reported":1714503940,"current_range_meters":2000,"station_id":"ce4bgl12rcd13ifvqbo0","pricing_plan_id":"cebpf4jnsgd1na2vs0mg"},{"bike_id":"922c435d-f7d0-4b60-a884-f0749cbf9c6f","system_id":"levelo_inurba_marseille","lat":43.29602,"lon":5.381084,"is_reserved":false,"is_disabled":false,"rental_uris":{"android":"levelo://app?vid=922c435d-f7d0-4b60-a884-f0749cbf9c6f","ios":"levelo://app?vid=922c435d-f7d0-4b60-a884-f0749cbf9c6f"},"vehicle_type_id":"4","last_reported":1714503940,"current_range_meters":6400,"station_id":"ce4bgl12rcd13ifvqbo0","pricing_plan_id":"cebpf4jnsgd1na2vs0mg"},{"bike_id":"7f58ecd5-3f67-4ca2-855b-bbcb759f0fb2","system_id":"levelo_inurba_marseille","lat":43.29602,"lon":5.381084,"is_reserved":false,"is_disabled":false,"rental_uris":{"android":"levelo://app?vid=7f58ecd5-3f67-4ca2-855b-bbcb759f0fb2","ios":"levelo://app?vid=7f58ecd5-3f67-4ca2-855b-bbcb759f0fb2"},"vehicle_type_id":"4","last_reported":1714503940,"current_range_meters":8800,"station_id":"ce4bgl12rcd13ifvqbo0","pricing_plan_id":"cebpf4jnsgd1na2vs0mg"},{"bike_id":"055e114f-bec6-4da5-beb6-6bc8aa6f2ace","system_id":"levelo_inurba_marseille","lat":43.29601,"lon":5.38107,"is_reserved":false,"is_disabled":false,"rental_uris":{"android":"levelo://app?vid=055e114f-bec6-4da5-beb6-6bc8aa6f2ace","ios":"levelo://app?vid=055e114f-bec6-4da5-beb6-6bc8aa6f2ace"},"vehicle_type_id":"4","last_reported":1714503940,"current_range_meters":5600,"station_id":"ce4bgl12rcd13ifvqbo0","pricing_plan_id":"cebpf4jnsgd1na2vs0mg"},{"bike_id":"2af20604-8c72-4dd5-9784-dc69e8622a53","system_id":"levelo_inurba_marseille","lat":43.295972,"lon":5.381004,"is_reserved":false,"is_disabled":false,"rental_uris":{"android":"levelo://app?vid=2af20604-8c72-4dd5-9784-dc69e8622a53","ios":"levelo://app?vid=2af20604-8c72-4dd5-9784-dc69e8622a53"},"vehicle_type_id":"4","last_reported":1714503940,"current_range_meters":5200,"station_id":"ce4bgl12rcd13ifvqbo0","pricing_plan_id":"cebpf4jnsgd1na2vs0mg"},{"bike_id":"9611fcbf-4932-43d3-ae59-8e56c2a2b775","system_id":"levelo_inurba_marseille","lat":43.29602,"lon":5.381084,"is_reserved":false,"is_disabled":false,"rental_uris":{"android":"levelo://app?vid=9611fcbf-4932-43d3-ae59-8e56c2a2b775","ios":"levelo://app?vid=9611fcbf-4932-43d3-ae59-8e56c2a2b775"},"vehicle_type_id":"4","last_reported":1714503940,"current_range_meters":0,"station_id":"ce4bgl12rcd13ifvqbo0","pricing_plan_id":"cebpf4jnsgd1na2vs0mg"},{"bike_id":"4d46f625-7006-4f05-931d-574a6b05b718","system_id":"levelo_inurba_marseille","lat":43.29602,"lon":5.381084,"is_reserved":false,"is_disabled":false,"rental_uris":{"android":"levelo://app?vid=4d46f625-7006-4f05-931d-574a6b05b718","ios":"levelo://app?vid=4d46f625-7006-4f05-931d-574a6b05b718"},"vehicle_type_id":"4","last_reported":1714503940,"current_range_meters":16400,"station_id":"ce4bgl12rcd13ifvqbo0","pricing_plan_id":"cebpf4jnsgd1na2vs0mg"},{"bike_id":"7f57339b-ab2c-4378-a736-d5cb1e70219e","system_id":"levelo_inurba_marseille","lat":43.293144,"lon":5.371847,"is_reserved":false,"is_disabled":false,"rental_uris":{"android":"levelo://app?vid=7f57339b-ab2c-4378-a736-d5cb1e70219e","ios":"levelo://app?vid=7f57339b-ab2c-4378-a736-d5cb1e70219e"},"vehicle_type_id":"4","last_reported":1714503940,"current_range_meters":10400,"station_id":"ce4bgh92rcd13ifvqb40","pricing_plan_id":"cebpf4jnsgd1na2vs0mg"},{"bike_id":"977217a5-27d8-4cc2-96fc-b0bd666dca3b","system_id":"levelo_inurba_marseille","lat":43.293249,"lon":5.371578,"is_reserved":false,"is_disabled":false,"rental_uris":{"android":"levelo://app?vid=977217a5-27d8-4cc2-96fc-b0bd666dca3b","ios":"levelo://app?vid=977217a5-27d8-4cc2-96fc-b0bd666dca3b"},"vehicle_type_id":"4","last_reported":1714503940,"current_range_meters":14800,"station_id":"ce4bgh92rcd13ifvqb40","pricing_plan_id":"cebpf4jnsgd1na2vs0mg"},{"bike_id":"cd2bfd83-ba17-49e8-a48c-8f43fa014828","system_id":"levelo_inurba_marseille","lat":43.29311,"lon":5.37183,"is_reserved":false,"is_disabled":false,"rental_uris":{"android":"levelo://app?vid=cd2bfd83-ba17-49e8-a48c-8f43fa014828","ios":"levelo://app?vid=cd2bfd83-ba17-49e8-a48c-8f43fa014828"},"vehicle_type_id":"4","last_reported":1714503940,"current_range_meters":30400,"station_id":"ce4bgh92rcd13ifvqb40","pricing_plan_id":"cebpf4jnsgd1na2vs0mg"},{"bike_id":"034feeb7-1ec3-490f-9bc3-db1ce4326e4a","system_id":"levelo_inurba_marseille","lat":43.29308,"lon":5.37182,"is_reserved":false,"is_disabled":false,"rental_uris":{"android":"levelo://app?vid=034feeb7-1ec3-490f-9bc3-db1ce4326e4a","ios":"levelo://app?vid=034feeb7-1ec3-490f-9bc3-db1ce4326e4a"},"vehicle_type_id":"4","last_reported":1714503940,"current_range_meters":28000,"station_id":"ce4bgh92rcd13ifvqb40","pricing_plan_id":"cebpf4jnsgd1na2vs0mg"},{"bike_id":"3ae6a186-170f-4339-89e3-d50f5f98d818","system_id":"levelo_inurba_marseille","lat":43.29306,"lon":5.37173,"is_reserved":false,"is_disabled":false,"rental_uris":{"android":"levelo://app?vid=3ae6a186-170f-4339-89e3-d50f5f98d818","ios":"levelo://app?vid=3ae6a186-170f-4339-89e3-d50f5f98d818"},"vehicle_type_id":"4","last_reported":1714503940,"current_range_meters":23200,"station_id":"ce4bgh92rcd13ifvqb40","pricing_plan_id":"cebpf4jnsgd1na2vs0mg"},{"bike_id":"9d474d16-faec-4ef7-87ea-c6823ae3c5db","system_id":"levelo_inurba_marseille","lat":43.29303,"lon":5.37175,"is_reserved":false,"is_disabled":false,"rental_uris":{"android":"levelo://app?vid=9d474d16-faec-4ef7-87ea-c6823ae3c5db","ios":"levelo://app?vid=9d474d16-faec-4ef7-87ea-c6823ae3c5db"},"vehicle_type_id":"4","last_reported":1714503940,"current_range_meters":30000,"station_id":"ce4bgh92rcd13ifvqb40","pricing_plan_id":"cebpf4jnsgd1na2vs0mg"},{"bike_id":"b3b4ee19-dff0-4a99-a81e-565848c2de23","system_id":"levelo_inurba_marseille","lat":43.29303,"lon":5.37178,"is_reserved":false,"is_disabled":false,"rental_uris":{"android":"levelo://app?vid=b3b4ee19-dff0-4a99-a81e-565848c2de23","ios":"levelo://app?vid=b3b4ee19-dff0-4a99-a81e-565848c2de23"},"vehicle_type_id":"4","last_reported":1714503940,"current_range_meters":4800,"station_id":"ce4bgh92rcd13ifvqb40","pricing_plan_id":"cebpf4jnsgd1na2vs0mg"},{"bike_id":"31f5ba97-84be-4b8a-80bf-54d12fc2976f","system_id":"levelo_inurba_marseille","lat":43.29303,"lon":5.3718,"is_reserved":false,"is_disabled":false,"rental_uris":{"android":"levelo://app?vid=31f5ba97-84be-4b8a-80bf-54d12fc2976f","ios":"levelo://app?vid=31f5ba97-84be-4b8a-80bf-54d12fc2976f"},"vehicle_type_id":"4","last_reported":1714503940,"current_range_meters":20400,"station_id":"ce4bgh92rcd13ifvqb40","pricing_plan_id":"cebpf4jnsgd1na2vs0mg"},{"bike_id":"1ca831e1-719a-485c-a7de-07bb3ad71caa","system_id":"levelo_inurba_marseille","lat":43.29302,"lon":5.37173,"is_reserved":false,"is_disabled":false,"rental_uris":{"android":"levelo://app?vid=1ca831e1-719a-485c-a7de-07bb3ad71caa","ios":"levelo://app?vid=1ca831e1-719a-485c-a7de-07bb3ad71caa"},"vehicle_type_id":"4","last_reported":1714503940,"current_range_meters":12000,"station_id":"ce4bgh92rcd13ifvqb40","pricing_plan_id":"cebpf4jnsgd1na2vs0mg"},{"bike_id":"bbfcb9a3-f1a5-43be-9fd5-59e6ec6399da","system_id":"levelo_inurba_marseille","lat":43.29301,"lon":5.37172,"is_reserved":false,"is_disabled":false,"rental_uris":{"android":"levelo://app?vid=bbfcb9a3-f1a5-43be-9fd5-59e6ec6399da","ios":"levelo://app?vid=bbfcb9a3-f1a5-43be-9fd5-59e6ec6399da"},"vehicle_type_id":"4","last_reported":1714503940,"current_range_meters":0,"station_id":"ce4bgh92rcd13ifvqb40","pricing_plan_id":"cebpf4jnsgd1na2vs0mg"},{"bike_id":"9707d2ce-7b12-4641-ac1b-76c7fd95df35","system_id":"levelo_inurba_marseille","lat":43.29302,"lon":5.37183,"is_reserved":false,"is_disabled":false,"rental_uris":{"android":"levelo://app?vid=9707d2ce-7b12-4641-ac1b-76c7fd95df35","ios":"levelo://app?vid=9707d2ce-7b12-4641-ac1b-76c7fd95df35"},"vehicle_type_id":"4","last_reported":1714503940,"current_range_meters":0,"station_id":"ce4bgh92rcd13ifvqb40","pricing_plan_id":"cebpf4jnsgd1na2vs0mg"},{"bike_id":"e6046c28-10aa-442d-a3a0-6b8a4bcf8ece","system_id":"levelo_inurba_marseille","lat":43.29272,"lon":5.3684,"is_reserved":false,"is_disabled":false,"rental_uris":{"android":"levelo://app?vid=e6046c28-10aa-442d-a3a0-6b8a4bcf8ece","ios":"levelo://app?vid=e6046c28-10aa-442d-a3a0-6b8a4bcf8ece"},"vehicle_type_id":"4","last_reported":1714503940,"current_range_meters":14000,"station_id":"ce4bhbp2rcd13ifvqesg","pricing_plan_id":"cebpf4jnsgd1na2vs0mg"},{"bike_id":"ea92adb3-6164-4608-b848-9dad80e6d71d","system_id":"levelo_inurba_marseille","lat":43.292749,"lon":5.368402,"is_reserved":false,"is_disabled":false,"rental_uris":{"android":"levelo://app?vid=ea92adb3-6164-4608-b848-9dad80e6d71d","ios":"levelo://app?vid=ea92adb3-6164-4608-b848-9dad80e6d71d"},"vehicle_type_id":"4","last_reported":1714503940,"current_range_meters":18400,"station_id":"ce4bhbp2rcd13ifvqesg","pricing_plan_id":"cebpf4jnsgd1na2vs0mg"},{"bike_id":"8c095687-0b19-4311-b9ad-be3c3f3af46d","system_id":"levelo_inurba_marseille","lat":43.29301,"lon":5.37183,"is_reserved":false,"is_disabled":false,"rental_uris":{"android":"levelo://app?vid=8c095687-0b19-4311-b9ad-be3c3f3af46d","ios":"levelo://app?vid=8c095687-0b19-4311-b9ad-be3c3f3af46d"},"vehicle_type_id":"4","last_reported":1714503940,"current_range_meters":0,"station_id":"ce4bgh92rcd13ifvqb40","pricing_plan_id":"cebpf4jnsgd1na2vs0mg"},{"bike_id":"637e100c-7d24-4362-8901-7c02a8b2f3fe","system_id":"levelo_inurba_marseille","lat":43.293,"lon":5.37179,"is_reserved":false,"is_disabled":false,"rental_uris":{"android":"levelo://app?vid=637e100c-7d24-4362-8901-7c02a8b2f3fe","ios":"levelo://app?vid=637e100c-7d24-4362-8901-7c02a8b2f3fe"},"vehicle_type_id":"4","last_reported":1714503940,"current_range_meters":9600,"station_id":"ce4bgh92rcd13ifvqb40","pricing_plan_id":"cebpf4jnsgd1na2vs0mg"},{"bike_id":"1bc49e3e-c074-4434-90a1-197d3af3619b","system_id":"levelo_inurba_marseille","lat":43.29298,"lon":5.37182,"is_reserved":false,"is_disabled":false,"rental_uris":{"android":"levelo://app?vid=1bc49e3e-c074-4434-90a1-197d3af3619b","ios":"levelo://app?vid=1bc49e3e-c074-4434-90a1-197d3af3619b"},"vehicle_type_id":"4","last_reported":1714503940,"current_range_meters":6400,"station_id":"ce4bgh92rcd13ifvqb40","pricing_plan_id":"cebpf4jnsgd1na2vs0mg"},{"bike_id":"1510a7e5-f383-43c4-9f55-fe93184a2751","system_id":"levelo_inurba_marseille","lat":43.292982,"lon":5.371857,"is_reserved":false,"is_disabled":false,"rental_uris":{"android":"levelo://app?vid=1510a7e5-f383-43c4-9f55-fe93184a2751","ios":"levelo://app?vid=1510a7e5-f383-43c4-9f55-fe93184a2751"},"vehicle_type_id":"4","last_reported":1714503940,"current_range_meters":11600,"station_id":"ce4bgh92rcd13ifvqb40","pricing_plan_id":"cebpf4jnsgd1na2vs0mg"},{"bike_id":"09f7cb5d-9edd-47d2-a04e-f1b90dc48fc4","system_id":"levelo_inurba_marseille","lat":43.292749,"lon":5.368402,"is_reserved":false,"is_disabled":false,"rental_uris":{"android":"levelo://app?vid=09f7cb5d-9edd-47d2-a04e-f1b90dc48fc4","ios":"levelo://app?vid=09f7cb5d-9edd-47d2-a04e-f1b90dc48fc4"},"vehicle_type_id":"4","last_reported":1714503940,"current_range_meters":20400,"station_id":"ce4bhbp2rcd13ifvqesg","pricing_plan_id":"cebpf4jnsgd1na2vs0mg"},{"bike_id":"78b51b29-8223-4787-9870-a41c6fbc3d81","system_id":"levelo_inurba_marseille","lat":43.29263,"lon":5.36846,"is_reserved":false,"is_disabled":false,"rental_uris":{"android":"levelo://app?vid=78b51b29-8223-4787-9870-a41c6fbc3d81","ios":"levelo://app?vid=78b51b29-8223-4787-9870-a41c6fbc3d81"},"vehicle_type_id":"4","last_reported":1714503940,"current_range_meters":5600,"station_id":"ce4bhbp2rcd13ifvqesg","pricing_plan_id":"cebpf4jnsgd1na2vs0mg"},{"bike_id":"afa98e61-688f-441e-9070-81ac7d21aabe","system_id":"levelo_inurba_marseille","lat":43.29315,"lon":5.37457,"is_reserved":false,"is_disabled":false,"rental_uris":{"android":"levelo://app?vid=afa98e61-688f-441e-9070-81ac7d21aabe","ios":"levelo://app?vid=afa98e61-688f-441e-9070-81ac7d21aabe"},"vehicle_type_id":"4","last_reported":1714503940,"current_range_meters":0,"station_id":"ce4bgi12rcd13ifvqb70","pricing_plan_id":"cebpf4jnsgd1na2vs0mg"},{"bike_id":"8458ec4e-4af8-44c7-a66a-11f6ea64930c","system_id":"levelo_inurba_marseille","lat":43.293009,"lon":5.374584,"is_reserved":false,"is_disabled":false,"rental_uris":{"android":"levelo://app?vid=8458ec4e-4af8-44c7-a66a-11f6ea64930c","ios":"levelo://app?vid=8458ec4e-4af8-44c7-a66a-11f6ea64930c"},"vehicle_type_id":"4","last_reported":1714503940,"current_range_meters":20800,"station_id":"ce4bgi12rcd13ifvqb70","pricing_plan_id":"cebpf4jnsgd1na2vs0mg"},{"bike_id":"ba9a2c73-c961-41cc-8f48-1991a98d5e64","system_id":"levelo_inurba_marseille","lat":43.293009,"lon":5.374584,"is_reserved":false,"is_disabled":false,"rental_uris":{"android":"levelo://app?vid=ba9a2c73-c961-41cc-8f48-1991a98d5e64","ios":"levelo://app?vid=ba9a2c73-c961-41cc-8f48-1991a98d5e64"},"vehicle_type_id":"4","last_reported":1714503940,"current_range_meters":400,"station_id":"ce4bgi12rcd13ifvqb70","pricing_plan_id":"cebpf4jnsgd1na2vs0mg"},{"bike_id":"8abc3d7d-a6f1-4035-a0fc-45064b707c21","system_id":"levelo_inurba_marseille","lat":43.293009,"lon":5.374584,"is_reserved":false,"is_disabled":false,"rental_uris":{"android":"levelo://app?vid=8abc3d7d-a6f1-4035-a0fc-45064b707c21","ios":"levelo://app?vid=8abc3d7d-a6f1-4035-a0fc-45064b707c21"},"vehicle_type_id":"4","last_reported":1714503940,"current_range_meters":19200,"station_id":"ce4bgi12rcd13ifvqb70","pricing_plan_id":"cebpf4jnsgd1na2vs0mg"},{"bike_id":"efbdb828-443a-4ba2-b798-10569774abe0","system_id":"levelo_inurba_marseille","lat":43.305994,"lon":5.393687,"is_reserved":false,"is_disabled":false,"rental_uris":{"android":"levelo://app?vid=efbdb828-443a-4ba2-b798-10569774abe0","ios":"levelo://app?vid=efbdb828-443a-4ba2-b798-10569774abe0"},"vehicle_type_id":"4","last_reported":1714503940,"current_range_meters":31200,"station_id":"ce4bh0p2rcd13ifvqd80","pricing_plan_id":"cebpf4jnsgd1na2vs0mg"},{"bike_id":"fb6738c0-1d0f-4f97-8e95-bf19f7227889","system_id":"levelo_inurba_marseille","lat":43.29305,"lon":5.374674,"is_reserved":false,"is_disabled":false,"rental_uris":{"android":"levelo://app?vid=fb6738c0-1d0f-4f97-8e95-bf19f7227889","ios":"levelo://app?vid=fb6738c0-1d0f-4f97-8e95-bf19f7227889"},"vehicle_type_id":"4","last_reported":1714503940,"current_range_meters":12400,"station_id":"ce4bgi12rcd13ifvqb70","pricing_plan_id":"cebpf4jnsgd1na2vs0mg"},{"bike_id":"d7ad7dcf-00c6-4efb-8739-66df43a6edfe","system_id":"levelo_inurba_marseille","lat":43.293009,"lon":5.374584,"is_reserved":false,"is_disabled":false,"rental_uris":{"android":"levelo://app?vid=d7ad7dcf-00c6-4efb-8739-66df43a6edfe","ios":"levelo://app?vid=d7ad7dcf-00c6-4efb-8739-66df43a6edfe"},"vehicle_type_id":"4","last_reported":1714503940,"current_range_meters":11200,"station_id":"ce4bgi12rcd13ifvqb70","pricing_plan_id":"cebpf4jnsgd1na2vs0mg"},{"bike_id":"2bd060a4-ac95-481a-9d6b-7982da013f9f","system_id":"levelo_inurba_marseille","lat":43.293009,"lon":5.374584,"is_reserved":false,"is_disabled":false,"rental_uris":{"android":"levelo://app?vid=2bd060a4-ac95-481a-9d6b-7982da013f9f","ios":"levelo://app?vid=2bd060a4-ac95-481a-9d6b-7982da013f9f"},"vehicle_type_id":"4","last_reported":1714503940,"current_range_meters":800,"station_id":"ce4bgi12rcd13ifvqb70","pricing_plan_id":"cebpf4jnsgd1na2vs0mg"},{"bike_id":"332ec628-6857-427e-b1c9-6c1e0d2fd542","system_id":"levelo_inurba_marseille","lat":43.293009,"lon":5.374584,"is_reserved":false,"is_disabled":false,"rental_uris":{"android":"levelo://app?vid=332ec628-6857-427e-b1c9-6c1e0d2fd542","ios":"levelo://app?vid=332ec628-6857-427e-b1c9-6c1e0d2fd542"},"vehicle_type_id":"4","last_reported":1714503940,"current_range_meters":18000,"station_id":"ce4bgi12rcd13ifvqb70","pricing_plan_id":"cebpf4jnsgd1na2vs0mg"},{"bike_id":"81e3f2fb-b7bc-48e2-8fb7-fd807115f2a4","system_id":"levelo_inurba_marseille","lat":43.293009,"lon":5.374584,"is_reserved":false,"is_disabled":false,"rental_uris":{"android":"levelo://app?vid=81e3f2fb-b7bc-48e2-8fb7-fd807115f2a4","ios":"levelo://app?vid=81e3f2fb-b7bc-48e2-8fb7-fd807115f2a4"},"vehicle_type_id":"4","last_reported":1714503940,"current_range_meters":11600,"station_id":"ce4bgi12rcd13ifvqb70","pricing_plan_id":"cebpf4jnsgd1na2vs0mg"},{"bike_id":"10fc0f0b-55aa-4014-a756-ee929923d15c","system_id":"levelo_inurba_marseille","lat":43.293009,"lon":5.374584,"is_reserved":false,"is_disabled":false,"rental_uris":{"android":"levelo://app?vid=10fc0f0b-55aa-4014-a756-ee929923d15c","ios":"levelo://app?vid=10fc0f0b-55aa-4014-a756-ee929923d15c"},"vehicle_type_id":"4","last_reported":1714503940,"current_range_meters":17600,"station_id":"ce4bgi12rcd13ifvqb70","pricing_plan_id":"cebpf4jnsgd1na2vs0mg"},{"bike_id":"6da23a77-40f7-46d8-800c-bc288bd6b9c5","system_id":"levelo_inurba_marseille","lat":43.293009,"lon":5.374584,"is_reserved":false,"is_disabled":false,"rental_uris":{"android":"levelo://app?vid=6da23a77-40f7-46d8-800c-bc288bd6b9c5","ios":"levelo://app?vid=6da23a77-40f7-46d8-800c-bc288bd6b9c5"},"vehicle_type_id":"4","last_reported":1714503940,"current_range_meters":26800,"station_id":"ce4bgi12rcd13ifvqb70","pricing_plan_id":"cebpf4jnsgd1na2vs0mg"},{"bike_id":"8daff62d-f196-410e-a76b-607ff8898bd9","system_id":"levelo_inurba_marseille","lat":43.293009,"lon":5.374584,"is_reserved":false,"is_disabled":false,"rental_uris":{"android":"levelo://app?vid=8daff62d-f196-410e-a76b-607ff8898bd9","ios":"levelo://app?vid=8daff62d-f196-410e-a76b-607ff8898bd9"},"vehicle_type_id":"4","last_reported":1714503940,"current_range_meters":25200,"station_id":"ce4bgi12rcd13ifvqb70","pricing_plan_id":"cebpf4jnsgd1na2vs0mg"},{"bike_id":"797dc08c-7dd8-49a0-8518-ce98a191820a","system_id":"levelo_inurba_marseille","lat":43.293009,"lon":5.374584,"is_reserved":false,"is_disabled":false,"rental_uris":{"android":"levelo://app?vid=797dc08c-7dd8-49a0-8518-ce98a191820a","ios":"levelo://app?vid=797dc08c-7dd8-49a0-8518-ce98a191820a"},"vehicle_type_id":"4","last_reported":1714503940,"current_range_meters":18800,"station_id":"ce4bgi12rcd13ifvqb70","pricing_plan_id":"cebpf4jnsgd1na2vs0mg"},{"bike_id":"9802824a-4457-4b00-9270-c65048ec1c53","system_id":"levelo_inurba_marseille","lat":43.293009,"lon":5.374584,"is_reserved":false,"is_disabled":false,"rental_uris":{"android":"levelo://app?vid=9802824a-4457-4b00-9270-c65048ec1c53","ios":"levelo://app?vid=9802824a-4457-4b00-9270-c65048ec1c53"},"vehicle_type_id":"4","last_reported":1714503940,"current_range_meters":22000,"station_id":"ce4bgi12rcd13ifvqb70","pricing_plan_id":"cebpf4jnsgd1na2vs0mg"},{"bike_id":"d3eaab22-e25e-469c-aacd-6b6ec5926df5","system_id":"levelo_inurba_marseille","lat":43.293009,"lon":5.374584,"is_reserved":false,"is_disabled":false,"rental_uris":{"android":"levelo://app?vid=d3eaab22-e25e-469c-aacd-6b6ec5926df5","ios":"levelo://app?vid=d3eaab22-e25e-469c-aacd-6b6ec5926df5"},"vehicle_type_id":"4","last_reported":1714503940,"current_range_meters":23200,"station_id":"ce4bgi12rcd13ifvqb70","pricing_plan_id":"cebpf4jnsgd1na2vs0mg"},{"bike_id":"126f7182-b180-4386-8038-63449d7bd5b6","system_id":"levelo_inurba_marseille","lat":43.305994,"lon":5.393687,"is_reserved":false,"is_disabled":false,"rental_uris":{"android":"levelo://app?vid=126f7182-b180-4386-8038-63449d7bd5b6","ios":"levelo://app?vid=126f7182-b180-4386-8038-63449d7bd5b6"},"vehicle_type_id":"4","last_reported":1714503940,"current_range_meters":24000,"station_id":"ce4bh0p2rcd13ifvqd80","pricing_plan_id":"cebpf4jnsgd1na2vs0mg"},{"bike_id":"7e7dab3b-5f27-4a10-b01f-9d96c3f296c3","system_id":"levelo_inurba_marseille","lat":43.305994,"lon":5.393687,"is_reserved":false,"is_disabled":false,"rental_uris":{"android":"levelo://app?vid=7e7dab3b-5f27-4a10-b01f-9d96c3f296c3","ios":"levelo://app?vid=7e7dab3b-5f27-4a10-b01f-9d96c3f296c3"},"vehicle_type_id":"4","last_reported":1714503940,"current_range_meters":30400,"station_id":"ce4bh0p2rcd13ifvqd80","pricing_plan_id":"cebpf4jnsgd1na2vs0mg"},{"bike_id":"968a6d42-e8da-4650-99c5-3b8ff6c1bbca","system_id":"levelo_inurba_marseille","lat":43.305994,"lon":5.393687,"is_reserved":false,"is_disabled":false,"rental_uris":{"android":"levelo://app?vid=968a6d42-e8da-4650-99c5-3b8ff6c1bbca","ios":"levelo://app?vid=968a6d42-e8da-4650-99c5-3b8ff6c1bbca"},"vehicle_type_id":"4","last_reported":1714503940,"current_range_meters":24800,"station_id":"ce4bh0p2rcd13ifvqd80","pricing_plan_id":"cebpf4jnsgd1na2vs0mg"},{"bike_id":"d4ab1f3e-246d-40a5-ae60-d07e9e7143e5","system_id":"levelo_inurba_marseille","lat":43.293009,"lon":5.374584,"is_reserved":false,"is_disabled":false,"rental_uris":{"android":"levelo://app?vid=d4ab1f3e-246d-40a5-ae60-d07e9e7143e5","ios":"levelo://app?vid=d4ab1f3e-246d-40a5-ae60-d07e9e7143e5"},"vehicle_type_id":"4","last_reported":1714503940,"current_range_meters":24800,"station_id":"ce4bgi12rcd13ifvqb70","pricing_plan_id":"cebpf4jnsgd1na2vs0mg"},{"bike_id":"ff8045cd-23e1-417d-9bac-97515edc0085","system_id":"levelo_inurba_marseille","lat":43.303002,"lon":5.392142,"is_reserved":false,"is_disabled":false,"rental_uris":{"android":"levelo://app?vid=ff8045cd-23e1-417d-9bac-97515edc0085","ios":"levelo://app?vid=ff8045cd-23e1-417d-9bac-97515edc0085"},"vehicle_type_id":"4","last_reported":1714503940,"current_range_meters":0,"station_id":"ce4bgkh2rcd13ifvqbk0","pricing_plan_id":"cebpf4jnsgd1na2vs0mg"},{"bike_id":"feb49a15-5a08-42d8-ad9c-08e41a644320","system_id":"levelo_inurba_marseille","lat":43.303,"lon":5.39205,"is_reserved":false,"is_disabled":false,"rental_uris":{"android":"levelo://app?vid=feb49a15-5a08-42d8-ad9c-08e41a644320","ios":"levelo://app?vid=feb49a15-5a08-42d8-ad9c-08e41a644320"},"vehicle_type_id":"4","last_reported":1714503940,"current_range_meters":15200,"station_id":"ce4bgkh2rcd13ifvqbk0","pricing_plan_id":"cebpf4jnsgd1na2vs0mg"},{"bike_id":"df716cb4-3cef-4bcb-8d3d-022dceb2ebe4","system_id":"levelo_inurba_marseille","lat":43.292207,"lon":5.363047,"is_reserved":false,"is_disabled":false,"rental_uris":{"android":"levelo://app?vid=df716cb4-3cef-4bcb-8d3d-022dceb2ebe4","ios":"levelo://app?vid=df716cb4-3cef-4bcb-8d3d-022dceb2ebe4"},"vehicle_type_id":"4","last_reported":1714503940,"current_range_meters":22800,"station_id":"","pricing_plan_id":"cebpf4jnsgd1na2vs0mg"},{"bike_id":"5ada16e7-5a65-4e29-b588-47d488d086e7","system_id":"levelo_inurba_marseille","lat":43.303002,"lon":5.392142,"is_reserved":false,"is_disabled":false,"rental_uris":{"android":"levelo://app?vid=5ada16e7-5a65-4e29-b588-47d488d086e7","ios":"levelo://app?vid=5ada16e7-5a65-4e29-b588-47d488d086e7"},"vehicle_type_id":"4","last_reported":1714503940,"current_range_meters":800,"station_id":"ce4bgkh2rcd13ifvqbk0","pricing_plan_id":"cebpf4jnsgd1na2vs0mg"},{"bike_id":"b2599fea-9510-429a-ac8c-201503e7b872","system_id":"levelo_inurba_marseille","lat":43.30297,"lon":5.39214,"is_reserved":false,"is_disabled":false,"rental_uris":{"android":"levelo://app?vid=b2599fea-9510-429a-ac8c-201503e7b872","ios":"levelo://app?vid=b2599fea-9510-429a-ac8c-201503e7b872"},"vehicle_type_id":"4","last_reported":1714503940,"current_range_meters":9200,"station_id":"ce4bgkh2rcd13ifvqbk0","pricing_plan_id":"cebpf4jnsgd1na2vs0mg"},{"bike_id":"87486f04-8207-48c6-9bf6-811b1a0468b6","system_id":"levelo_inurba_marseille","lat":43.302992,"lon":5.392136,"is_reserved":false,"is_disabled":false,"rental_uris":{"android":"levelo://app?vid=87486f04-8207-48c6-9bf6-811b1a0468b6","ios":"levelo://app?vid=87486f04-8207-48c6-9bf6-811b1a0468b6"},"vehicle_type_id":"4","last_reported":1714503940,"current_range_meters":800,"station_id":"ce4bgkh2rcd13ifvqbk0","pricing_plan_id":"cebpf4jnsgd1na2vs0mg"},{"bike_id":"c5fffcb9-528e-4403-9e1a-154b45e3ec2e","system_id":"levelo_inurba_marseille","lat":43.292311,"lon":5.360731,"is_reserved":false,"is_disabled":false,"rental_uris":{"android":"levelo://app?vid=c5fffcb9-528e-4403-9e1a-154b45e3ec2e","ios":"levelo://app?vid=c5fffcb9-528e-4403-9e1a-154b45e3ec2e"},