{"last_updated":1752484708,"ttl":60,"version":"2.2","data":{"bikes":[{"bike_id":"feb1ed1d-b0db-45cc-9e1b-7311a8d72058","system_id":"levelo_inurba_marseille","lat":43.33747,"lon":5.37463,"is_reserved":false,"is_disabled":false,"rental_uris":{"android":"levelo://app?vid=feb1ed1d-b0db-45cc-9e1b-7311a8d72058","ios":"levelo://app?vid=feb1ed1d-b0db-45cc-9e1b-7311a8d72058"},"vehicle_type_id":"1","last_reported":1752484708,"current_range_meters":38400,"station_id":"","pricing_plan_id":"cebpf4jnsgd1na2vs0mg"},{"bike_id":"0075684b-a504-453b-9132-a72c307964f4","system_id":"levelo_inurba_marseille","lat":43.32119,"lon":5.36806,"is_reserved":false,"is_disabled":false,"rental_uris":{"android":"levelo://app?vid=0075684b-a504-453b-9132-a72c307964f4","ios":"levelo://app?vid=0075684b-a504-453b-9132-a72c307964f4"},"vehicle_type_id":"4","last_reported":1752484708,"current_range_meters":2800,"station_id":"ce4bhrh2rcd13ifvqhug","pricing_plan_id":"cebpf4jnsgd1na2vs0mg"},{"bike_id":"b39e387f-ec58-49c6-8e21-c69ee8c2a4ca","system_id":"levelo_inurba_marseille","lat":43.258871,"lon":5.380276,"is_reserved":false,"is_disabled":false,"rental_uris":{"android":"levelo://app?vid=b39e387f-ec58-49c6-8e21-c69ee8c2a4ca","ios":"levelo://app?vid=b39e387f-ec58-49c6-8e21-c69ee8c2a4ca"},"vehicle_type_id":"4","last_reported":1752484708,"current_range_meters":2800,"station_id":"ce4bh3h2rcd13ifvqdo0","pricing_plan_id":"cebpf4jnsgd1na2vs0mg"},{"bike_id":"dbba3321-20c7-4989-a7b5-ea9ab2c4b3e8","system_id":"levelo_inurba_marseille","lat":43.261935,"lon":5.374477,"is_reserved":false,"is_disabled":true,"rental_uris":{"android":"levelo://app?vid=dbba3321-20c7-4989-a7b5-ea9ab2c4b3e8","ios":"levelo://app?vid=dbba3321-20c7-4989-a7b5-ea9ab2c4b3e8"},"vehicle_type_id":"4","last_reported":1752484708,"current_range_meters":4000,"station_id":"ce4bhgp2rcd13ifvqfc0","pricing_plan_id":"cebpf4jnsgd1na2vs0mg"},{"bike_id":"db133adc-959d-4e45-86ee-219d3420f96d","system_id":"levelo_inurba_marseille","lat":43.29861,"lon":5.36286,"is_reserved":false,"is_disabled":false,"rental_uris":{"android":"levelo://app?vid=db133adc-959d-4e45-86ee-219d3420f96d","ios":"levelo://app?vid=db133adc-959d-4e45-86ee-219d3420f96d"},"vehicle_type_id":"4","last_reported":1752484708,"current_range_meters":5600,"station_id":"ce4bgpp2rcd13ifvqc3g","pricing_plan_id":"cebpf4jnsgd1na2vs0mg"},{"bike_id":"96d54fdb-5835-4cd8-9827-093c0b08e4ca","system_id":"levelo_inurba_marseille","lat":43.21182,"lon":5.35071,"is_reserved":false,"is_disabled":false,"rental_uris":{"android":"levelo://app?vid=96d54fdb-5835-4cd8-9827-093c0b08e4ca","ios":"levelo://app?vid=96d54fdb-5835-4cd8-9827-093c0b08e4ca"},"vehicle_type_id":"4","last_reported":1752484708,"current_range_meters":6400,"station_id":"st_cvj6sg6p6f1abm77japg","pricing_plan_id":"cebpf4jnsgd1na2vs0mg"},{"bike_id":"470d1e9d-8c05-40b8-a6b2-039f183b9f6a","system_id":"levelo_inurba_marseille","lat":43.231941,"lon":5.355505,"is_reserved":false,"is_disabled":true,"rental_uris":{"android":"levelo://app?vid=470d1e9d-8c05-40b8-a6b2-039f183b9f6a","ios":"levelo://app?vid=470d1e9d-8c05-40b8-a6b2-039f183b9f6a"},"vehicle_type_id":"4","last_reported":1752484708,"current_range_meters":6400,"station_id":"ce4bhu92rcd13ifvqi70","pricing_plan_id":"cebpf4jnsgd1na2vs0mg"},{"bike_id":"44dd919c-32df-4fe9-8b1c-c9988fb68d5b","system_id":"levelo_inurba_marseille","lat":43.269605,"lon":5.402919,"is_reserved":false,"is_disabled":true,"rental_uris":{"android":"levelo://app?vid=44dd919c-32df-4fe9-8b1c-c9988fb68d5b","ios":"levelo://app?vid=44dd919c-32df-4fe9-8b1c-c9988fb68d5b"},"vehicle_type_id":"4","last_reported":1752484708,"current_range_meters":6800,"station_id":"cjm6bp8fraef2m0cb0m0","pricing_plan_id":"cebpf4jnsgd1na2vs0mg"},{"bike_id":"c33cef27-41bf-463d-9e93-865d3053751f","system_id":"levelo_inurba_marseille","lat":43.27615,"lon":5.36098,"is_reserved":false,"is_disabled":false,"rental_uris":{"android":"levelo://app?vid=c33cef27-41bf-463d-9e93-865d3053751f","ios":"levelo://app?vid=c33cef27-41bf-463d-9e93-865d3053751f"},"vehicle_type_id":"4","last_reported":1752484708,"current_range_meters":7200,"station_id":"ce4bgj92rcd13ifvqbe0","pricing_plan_id":"cebpf4jnsgd1na2vs0mg"},{"bike_id":"5d522e77-ec27-4fd6-a510-ea7d6f16223a","system_id":"levelo_inurba_marseille","lat":43.27605,"lon":5.37099,"is_reserved":false,"is_disabled":false,"rental_uris":{"android":"levelo://app?vid=5d522e77-ec27-4fd6-a510-ea7d6f16223a","ios":"levelo://app?vid=5d522e77-ec27-4fd6-a510-ea7d6f16223a"},"vehicle_type_id":"4","last_reported":1752484708,"current_range_meters":8000,"station_id":"","pricing_plan_id":"cebpf4jnsgd1na2vs0mg"},{"bike_id":"6758c5eb-3052-426e-ac8c-3dc617b5b33f","system_id":"levelo_inurba_marseille","lat":43.31369,"lon":5.385,"is_reserved":false,"is_disabled":false,"rental_uris":{"android":"levelo://app?vid=6758c5eb-3052-426e-ac8c-3dc617b5b33f","ios":"levelo://app?vid=6758c5eb-3052-426e-ac8c-3dc617b5b33f"},"vehicle_type_id":"4","last_reported":1752484708,"current_range_meters":7200,"station_id":"ce4bgt92rcd13ifvqcf0","pricing_plan_id":"cebpf4jnsgd1na2vs0mg"},{"bike_id":"241a0a12-838a-47ce-bf56-c6834420c552","system_id":"levelo_inurba_marseille","lat":43.29852,"lon":5.36281,"is_reserved":false,"is_disabled":false,"rental_uris":{"android":"levelo://app?vid=241a0a12-838a-47ce-bf56-c6834420c552","ios":"levelo://app?vid=241a0a12-838a-47ce-bf56-c6834420c552"},"vehicle_type_id":"4","last_reported":1752484708,"current_range_meters":8000,"station_id":"ce4bgpp2rcd13ifvqc3g","pricing_plan_id":"cebpf4jnsgd1na2vs0mg"},{"bike_id":"6dd3191b-b740-4337-aed4-7b685ff90cc9","system_id":"levelo_inurba_marseille","lat":43.336085,"lon":5.410146,"is_reserved":false,"is_disabled":false,"rental_uris":{"android":"levelo://app?vid=6dd3191b-b740-4337-aed4-7b685ff90cc9","ios":"levelo://app?vid=6dd3191b-b740-4337-aed4-7b685ff90cc9"},"vehicle_type_id":"4","last_reported":1752484708,"current_range_meters":8000,"station_id":"ce4bhqh2rcd13ifvqhmg","pricing_plan_id":"cebpf4jnsgd1na2vs0mg"},{"bike_id":"bcfeb0b0-b94e-4e71-a216-f8eb5e1c603f","system_id":"levelo_inurba_marseille","lat":43.31119,"lon":5.37748,"is_reserved":false,"is_disabled":false,"rental_uris":{"android":"levelo://app?vid=bcfeb0b0-b94e-4e71-a216-f8eb5e1c603f","ios":"levelo://app?vid=bcfeb0b0-b94e-4e71-a216-f8eb5e1c603f"},"vehicle_type_id":"4","last_reported":1752484708,"current_range_meters":8400,"station_id":"ce4bgt92rcd13ifvqcg0","pricing_plan_id":"cebpf4jnsgd1na2vs0mg"},{"bike_id":"033db477-e453-4ec3-bad2-87e83037c8d7","system_id":"levelo_inurba_marseille","lat":43.29004,"lon":5.35604,"is_reserved":false,"is_disabled":false,"rental_uris":{"android":"levelo://app?vid=033db477-e453-4ec3-bad2-87e83037c8d7","ios":"levelo://app?vid=033db477-e453-4ec3-bad2-87e83037c8d7"},"vehicle_type_id":"4","last_reported":1752484708,"current_range_meters":8400,"station_id":"ce4bhb92rcd13ifvqen0","pricing_plan_id":"cebpf4jnsgd1na2vs0mg"},{"bike_id":"9a8b0931-f754-41b1-83c6-b9eee7982ee0","system_id":"levelo_inurba_marseille","lat":43.303569,"lon":5.418823,"is_reserved":false,"is_disabled":false,"rental_uris":{"android":"levelo://app?vid=9a8b0931-f754-41b1-83c6-b9eee7982ee0","ios":"levelo://app?vid=9a8b0931-f754-41b1-83c6-b9eee7982ee0"},"vehicle_type_id":"4","last_reported":1752484708,"current_range_meters":8800,"station_id":"ce4bhop2rcd13ifvqh7g","pricing_plan_id":"cebpf4jnsgd1na2vs0mg"},{"bike_id":"8b37f03f-f226-4bbc-8648-b109da7ba145","system_id":"levelo_inurba_marseille","lat":43.30536,"lon":5.366999,"is_reserved":false,"is_disabled":true,"rental_uris":{"android":"levelo://app?vid=8b37f03f-f226-4bbc-8648-b109da7ba145","ios":"levelo://app?vid=8b37f03f-f226-4bbc-8648-b109da7ba145"},"vehicle_type_id":"4","last_reported":1752484708,"current_range_meters":8800,"station_id":"","pricing_plan_id":"cebpf4jnsgd1na2vs0mg"},{"bike_id":"f23760ff-ab61-4853-aa67-28aac93822c1","system_id":"levelo_inurba_marseille","lat":43.337444,"lon":5.374475,"is_reserved":false,"is_disabled":false,"rental_uris":{"android":"levelo://app?vid=f23760ff-ab61-4853-aa67-28aac93822c1","ios":"levelo://app?vid=f23760ff-ab61-4853-aa67-28aac93822c1"},"vehicle_type_id":"4","last_reported":1752484708,"current_range_meters":8800,"station_id":"","pricing_plan_id":"cebpf4jnsgd1na2vs0mg"},{"bike_id":"7bb6743e-cd8c-4b57-b01b-ee37c3845066","system_id":"levelo_inurba_marseille","lat":43.25281,"lon":5.37578,"is_reserved":false,"is_disabled":false,"rental_uris":{"android":"levelo://app?vid=7bb6743e-cd8c-4b57-b01b-ee37c3845066","ios":"levelo://app?vid=7bb6743e-cd8c-4b57-b01b-ee37c3845066"},"vehicle_type_id":"4","last_reported":1752484708,"current_range_meters":9200,"station_id":"","pricing_plan_id":"cebpf4jnsgd1na2vs0mg"},{"bike_id":"6dd5347a-8512-41c8-8f48-b0b8c31c14f5","system_id":"levelo_inurba_marseille","lat":43.28845,"lon":5.35857,"is_reserved":false,"is_disabled":false,"rental_uris":{"android":"levelo://app?vid=6dd5347a-8512-41c8-8f48-b0b8c31c14f5","ios":"levelo://app?vid=6dd5347a-8512-41c8-8f48-b0b8c31c14f5"},"vehicle_type_id":"4","last_reported":1752484708,"current_range_meters":9600,"station_id":"ce4bhb12rcd13ifvqem0","pricing_plan_id":"cebpf4jnsgd1na2vs0mg"},{"bike_id":"4e18f6a0-cf0a-4e54-823e-14d073e25d70","system_id":"levelo_inurba_marseille","lat":43.28029,"lon":5.36935,"is_reserved":false,"is_disabled":true,"rental_uris":{"android":"levelo://app?vid=4e18f6a0-cf0a-4e54-823e-14d073e25d70","ios":"levelo://app?vid=4e18f6a0-cf0a-4e54-823e-14d073e25d70"},"vehicle_type_id":"4","last_reported":1752484708,"current_range_meters":9600,"station_id":"ce4bha12rcd13ifvqef0","pricing_plan_id":"cebpf4jnsgd1na2vs0mg"},{"bike_id":"2d20d04c-847b-4085-a58f-d98f887283c8","system_id":"levelo_inurba_marseille","lat":43.29701,"lon":5.37321,"is_reserved":false,"is_disabled":false,"rental_uris":{"android":"levelo://app?vid=2d20d04c-847b-4085-a58f-d98f887283c8","ios":"levelo://app?vid=2d20d04c-847b-4085-a58f-d98f887283c8"},"vehicle_type_id":"4","last_reported":1752484708,"current_range_meters":10000,"station_id":"ce4bgk12rcd13ifvqbj0","pricing_plan_id":"cebpf4jnsgd1na2vs0mg"},{"bike_id":"096a0ddd-fe8e-4298-9ec6-c8b6d3c5c4dd","system_id":"levelo_inurba_marseille","lat":43.30959,"lon":5.39024,"is_reserved":false,"is_disabled":false,"rental_uris":{"android":"levelo://app?vid=096a0ddd-fe8e-4298-9ec6-c8b6d3c5c4dd","ios":"levelo://app?vid=096a0ddd-fe8e-4298-9ec6-c8b6d3c5c4dd"},"vehicle_type_id":"4","last_reported":1752484708,"current_range_meters":10000,"station_id":"ce4bgup2rcd13ifvqco0","pricing_plan_id":"cebpf4jnsgd1na2vs0mg"},{"bike_id":"05f1aabc-0d5e-4449-a9b2-27b5f2230d59","system_id":"levelo_inurba_marseille","lat":43.29928,"lon":5.36541,"is_reserved":false,"is_disabled":false,"rental_uris":{"android":"levelo://app?vid=05f1aabc-0d5e-4449-a9b2-27b5f2230d59","ios":"levelo://app?vid=05f1aabc-0d5e-4449-a9b2-27b5f2230d59"},"vehicle_type_id":"4","last_reported":1752484708,"current_range_meters":10000,"station_id":"ce4bgm92rcd13ifvqbr0","pricing_plan_id":"cebpf4jnsgd1na2vs0mg"},{"bike_id":"0eadb807-73f6-424a-bcd7-3b07bd18ff50","system_id":"levelo_inurba_marseille","lat":43.32091,"lon":5.3679,"is_reserved":false,"is_disabled":false,"rental_uris":{"android":"levelo://app?vid=0eadb807-73f6-424a-bcd7-3b07bd18ff50","ios":"levelo://app?vid=0eadb807-73f6-424a-bcd7-3b07bd18ff50"},"vehicle_type_id":"4","last_reported":1752484708,"current_range_meters":10000,"station_id":"ce4bhrh2rcd13ifvqhug","pricing_plan_id":"cebpf4jnsgd1na2vs0mg"},{"bike_id":"2ef51ee8-5dba-4636-b65b-077dc6d0a7e6","system_id":"levelo_inurba_marseille","lat":43.2955,"lon":5.42259,"is_reserved":false,"is_disabled":false,"rental_uris":{"android":"levelo://app?vid=2ef51ee8-5dba-4636-b65b-077dc6d0a7e6","ios":"levelo://app?vid=2ef51ee8-5dba-4636-b65b-077dc6d0a7e6"},"vehicle_type_id":"4","last_reported":1752484708,"current_range_meters":10800,"station_id":"ce4bhph2rcd13ifvqhdg","pricing_plan_id":"cebpf4jnsgd1na2vs0mg"},{"bike_id":"08d804b1-df6f-4e13-8de0-b91da5966c34","system_id":"levelo_inurba_marseille","lat":43.32349,"lon":5.40605,"is_reserved":false,"is_disabled":false,"rental_uris":{"android":"levelo://app?vid=08d804b1-df6f-4e13-8de0-b91da5966c34","ios":"levelo://app?vid=08d804b1-df6f-4e13-8de0-b91da5966c34"},"vehicle_type_id":"4","last_reported":1752484708,"current_range_meters":10800,"station_id":"ce4bhq92rcd13ifvqhjg","pricing_plan_id":"cebpf4jnsgd1na2vs0mg"},{"bike_id":"ff7aa45c-0d3f-4caa-9191-18ba98829473","system_id":"levelo_inurba_marseille","lat":43.21739,"lon":5.34591,"is_reserved":false,"is_disabled":false,"rental_uris":{"android":"levelo://app?vid=ff7aa45c-0d3f-4caa-9191-18ba98829473","ios":"levelo://app?vid=ff7aa45c-0d3f-4caa-9191-18ba98829473"},"vehicle_type_id":"4","last_reported":1752484708,"current_range_meters":10800,"station_id":"st_cvj6r9ubvosntc0bgbag","pricing_plan_id":"cebpf4jnsgd1na2vs0mg"},{"bike_id":"e2ce6e8a-ef9f-4211-8776-042780e4931d","system_id":"levelo_inurba_marseille","lat":43.28432,"lon":5.3498,"is_reserved":false,"is_disabled":false,"rental_uris":{"android":"levelo://app?vid=e2ce6e8a-ef9f-4211-8776-042780e4931d","ios":"levelo://app?vid=e2ce6e8a-ef9f-4211-8776-042780e4931d"},"vehicle_type_id":"4","last_reported":1752484708,"current_range_meters":10800,"station_id":"ce4bhbh2rcd13ifvqepg","pricing_plan_id":"cebpf4jnsgd1na2vs0mg"},{"bike_id":"a44f68aa-b920-4eb6-845e-df1183944a6b","system_id":"levelo_inurba_marseille","lat":43.28582,"lon":5.35069,"is_reserved":false,"is_disabled":true,"rental_uris":{"android":"levelo://app?vid=a44f68aa-b920-4eb6-845e-df1183944a6b","ios":"levelo://app?vid=a44f68aa-b920-4eb6-845e-df1183944a6b"},"vehicle_type_id":"4","last_reported":1752484708,"current_range_meters":11200,"station_id":"","pricing_plan_id":"cebpf4jnsgd1na2vs0mg"},{"bike_id":"3d3a26b8-4b0d-409e-82a8-76c6ffd0d773","system_id":"levelo_inurba_marseille","lat":43.27055,"lon":5.40242,"is_reserved":false,"is_disabled":false,"rental_uris":{"android":"levelo://app?vid=3d3a26b8-4b0d-409e-82a8-76c6ffd0d773","ios":"levelo://app?vid=3d3a26b8-4b0d-409e-82a8-76c6ffd0d773"},"vehicle_type_id":"4","last_reported":1752484708,"current_range_meters":11600,"station_id":"ce4bhk92rcd13ifvqgc0","pricing_plan_id":"cebpf4jnsgd1na2vs0mg"},{"bike_id":"7d8c67ad-3e66-42f9-8c6e-098cca666cf3","system_id":"levelo_inurba_marseille","lat":43.32351,"lon":5.36764,"is_reserved":false,"is_disabled":false,"rental_uris":{"android":"levelo://app?vid=7d8c67ad-3e66-42f9-8c6e-098cca666cf3","ios":"levelo://app?vid=7d8c67ad-3e66-42f9-8c6e-098cca666cf3"},"vehicle_type_id":"4","last_reported":1752484708,"current_range_meters":11600,"station_id":"ce4bhsh2rcd13ifvqi2g","pricing_plan_id":"cebpf4jnsgd1na2vs0mg"},{"bike_id":"2d65076b-d4f8-4cf8-8f40-82d238f9e3e7","system_id":"levelo_inurba_marseille","lat":43.29912,"lon":5.43668,"is_reserved":false,"is_disabled":false,"rental_uris":{"android":"levelo://app?vid=2d65076b-d4f8-4cf8-8f40-82d238f9e3e7","ios":"levelo://app?vid=2d65076b-d4f8-4cf8-8f40-82d238f9e3e7"},"vehicle_type_id":"4","last_reported":1752484708,"current_range_meters":11600,"station_id":"ce4bhpp2rcd13ifvqhfg","pricing_plan_id":"cebpf4jnsgd1na2vs0mg"},{"bike_id":"1c197dec-ba6f-40e3-8d8c-14d0a0949eaf","system_id":"levelo_inurba_marseille","lat":43.2842,"lon":5.34991,"is_reserved":false,"is_disabled":false,"rental_uris":{"android":"levelo://app?vid=1c197dec-ba6f-40e3-8d8c-14d0a0949eaf","ios":"levelo://app?vid=1c197dec-ba6f-40e3-8d8c-14d0a0949eaf"},"vehicle_type_id":"4","last_reported":1752484708,"current_range_meters":12000,"station_id":"ce4bhbh2rcd13ifvqepg","pricing_plan_id":"cebpf4jnsgd1na2vs0mg"},{"bike_id":"01e9734c-ba4c-40d7-a9d7-402651da09dd","system_id":"levelo_inurba_marseille","lat":43.293029,"lon":5.374627,"is_reserved":false,"is_disabled":false,"rental_uris":{"android":"levelo://app?vid=01e9734c-ba4c-40d7-a9d7-402651da09dd","ios":"levelo://app?vid=01e9734c-ba4c-40d7-a9d7-402651da09dd"},"vehicle_type_id":"4","last_reported":1752484708,"current_range_meters":12000,"station_id":"ce4bgi12rcd13ifvqb70","pricing_plan_id":"cebpf4jnsgd1na2vs0mg"},{"bike_id":"58375fde-ca97-4dab-be52-59caf98323d3","system_id":"levelo_inurba_marseille","lat":43.265535,"lon":5.372842,"is_reserved":false,"is_disabled":true,"rental_uris":{"android":"levelo://app?vid=58375fde-ca97-4dab-be52-59caf98323d3","ios":"levelo://app?vid=58375fde-ca97-4dab-be52-59caf98323d3"},"vehicle_type_id":"4","last_reported":1752484708,"current_range_meters":12000,"station_id":"ce4bhg12rcd13ifvqf70","pricing_plan_id":"cebpf4jnsgd1na2vs0mg"},{"bike_id":"79ac9d5c-87ca-42a3-a25e-34606432c125","system_id":"levelo_inurba_marseille","lat":43.211893,"lon":5.350677,"is_reserved":false,"is_disabled":false,"rental_uris":{"android":"levelo://app?vid=79ac9d5c-87ca-42a3-a25e-34606432c125","ios":"levelo://app?vid=79ac9d5c-87ca-42a3-a25e-34606432c125"},"vehicle_type_id":"4","last_reported":1752484708,"current_range_meters":12000,"station_id":"st_cvj6sg6p6f1abm77japg","pricing_plan_id":"cebpf4jnsgd1na2vs0mg"},{"bike_id":"1700fcd6-30ad-4b74-a158-50e5dcb60b9b","system_id":"levelo_inurba_marseille","lat":43.289389,"lon":5.366265,"is_reserved":false,"is_disabled":true,"rental_uris":{"android":"levelo://app?vid=1700fcd6-30ad-4b74-a158-50e5dcb60b9b","ios":"levelo://app?vid=1700fcd6-30ad-4b74-a158-50e5dcb60b9b"},"vehicle_type_id":"4","last_reported":1752484708,"current_range_meters":12000,"station_id":"ce4bhap2rcd13ifvqek0","pricing_plan_id":"cebpf4jnsgd1na2vs0mg"},{"bike_id":"b2464811-ed1c-444d-b5b2-f0f5cb56794f","system_id":"levelo_inurba_marseille","lat":43.28703,"lon":5.352,"is_reserved":false,"is_disabled":true,"rental_uris":{"android":"levelo://app?vid=b2464811-ed1c-444d-b5b2-f0f5cb56794f","ios":"levelo://app?vid=b2464811-ed1c-444d-b5b2-f0f5cb56794f"},"vehicle_type_id":"4","last_reported":1752484708,"current_range_meters":12400,"station_id":"","pricing_plan_id":"cebpf4jnsgd1na2vs0mg"},{"bike_id":"1a469edf-5352-481f-91e3-cfaef6ee1547","system_id":"levelo_inurba_marseille","lat":43.21191,"lon":5.35075,"is_reserved":false,"is_disabled":false,"rental_uris":{"android":"levelo://app?vid=1a469edf-5352-481f-91e3-cfaef6ee1547","ios":"levelo://app?vid=1a469edf-5352-481f-91e3-cfaef6ee1547"},"vehicle_type_id":"4","last_reported":1752484708,"current_range_meters":12400,"station_id":"st_cvj6sg6p6f1abm77japg","pricing_plan_id":"cebpf4jnsgd1na2vs0mg"},{"bike_id":"9d31d9a3-9360-47cc-9360-3d8ed75b64a4","system_id":"levelo_inurba_marseille","lat":43.3288,"lon":5.3671,"is_reserved":false,"is_disabled":false,"rental_uris":{"android":"levelo://app?vid=9d31d9a3-9360-47cc-9360-3d8ed75b64a4","ios":"levelo://app?vid=9d31d9a3-9360-47cc-9360-3d8ed75b64a4"},"vehicle_type_id":"4","last_reported":1752484708,"current_range_meters":12400,"station_id":"","pricing_plan_id":"cebpf4jnsgd1na2vs0mg"},{"bike_id":"53a7c5a0-bf42-4a71-a975-ed65973eff06","system_id":"levelo_inurba_marseille","lat":43.302435,"lon":5.400675,"is_reserved":false,"is_disabled":false,"rental_uris":{"android":"levelo://app?vid=53a7c5a0-bf42-4a71-a975-ed65973eff06","ios":"levelo://app?vid=53a7c5a0-bf42-4a71-a975-ed65973eff06"},"vehicle_type_id":"4","last_reported":1752484708,"current_range_meters":12400,"station_id":"ce4bgvh2rcd13ifvqcs0","pricing_plan_id":"cebpf4jnsgd1na2vs0mg"},{"bike_id":"47aa1c94-32db-4d4c-9523-fe4d6c986358","system_id":"levelo_inurba_marseille","lat":43.27372,"lon":5.36257,"is_reserved":false,"is_disabled":false,"rental_uris":{"android":"levelo://app?vid=47aa1c94-32db-4d4c-9523-fe4d6c986358","ios":"levelo://app?vid=47aa1c94-32db-4d4c-9523-fe4d6c986358"},"vehicle_type_id":"4","last_reported":1752484708,"current_range_meters":12800,"station_id":"ce4bhbh2rcd13ifvqeo0","pricing_plan_id":"cebpf4jnsgd1na2vs0mg"},{"bike_id":"7b60e2b3-fe60-4caf-8d3e-4c917054d448","system_id":"levelo_inurba_marseille","lat":43.28416,"lon":5.34974,"is_reserved":false,"is_disabled":false,"rental_uris":{"android":"levelo://app?vid=7b60e2b3-fe60-4caf-8d3e-4c917054d448","ios":"levelo://app?vid=7b60e2b3-fe60-4caf-8d3e-4c917054d448"},"vehicle_type_id":"4","last_reported":1752484708,"current_range_meters":12800,"station_id":"ce4bhbh2rcd13ifvqepg","pricing_plan_id":"cebpf4jnsgd1na2vs0mg"},{"bike_id":"28f6661f-fa05-4b8f-8f5e-cb4158aac2c7","system_id":"levelo_inurba_marseille","lat":43.293789,"lon":5.37851,"is_reserved":false,"is_disabled":false,"rental_uris":{"android":"levelo://app?vid=28f6661f-fa05-4b8f-8f5e-cb4158aac2c7","ios":"levelo://app?vid=28f6661f-fa05-4b8f-8f5e-cb4158aac2c7"},"vehicle_type_id":"4","last_reported":1752484708,"current_range_meters":12800,"station_id":"ce4bgjh2rcd13ifvqbf0","pricing_plan_id":"cebpf4jnsgd1na2vs0mg"},{"bike_id":"79724c7a-8951-4858-8e03-5dd8592df824","system_id":"levelo_inurba_marseille","lat":43.30318,"lon":5.36899,"is_reserved":false,"is_disabled":false,"rental_uris":{"android":"levelo://app?vid=79724c7a-8951-4858-8e03-5dd8592df824","ios":"levelo://app?vid=79724c7a-8951-4858-8e03-5dd8592df824"},"vehicle_type_id":"4","last_reported":1752484708,"current_range_meters":13600,"station_id":"ce4bgqh2rcd13ifvqc5g","pricing_plan_id":"cebpf4jnsgd1na2vs0mg"},{"bike_id":"c7825de3-5be0-44b7-a304-74e7db07fb6d","system_id":"levelo_inurba_marseille","lat":43.274872,"lon":5.384458,"is_reserved":false,"is_disabled":false,"rental_uris":{"android":"levelo://app?vid=c7825de3-5be0-44b7-a304-74e7db07fb6d","ios":"levelo://app?vid=c7825de3-5be0-44b7-a304-74e7db07fb6d"},"vehicle_type_id":"4","last_reported":1752484708,"current_range_meters":13600,"station_id":"ce4bhh92rcd13ifvqfi0","pricing_plan_id":"cebpf4jnsgd1na2vs0mg"},{"bike_id":"ed74f810-226b-4edb-a7d8-2c9a86d071a4","system_id":"levelo_inurba_marseille","lat":43.21191,"lon":5.3507,"is_reserved":false,"is_disabled":false,"rental_uris":{"android":"levelo://app?vid=ed74f810-226b-4edb-a7d8-2c9a86d071a4","ios":"levelo://app?vid=ed74f810-226b-4edb-a7d8-2c9a86d071a4"},"vehicle_type_id":"4","last_reported":1752484708,"current_range_meters":13600,"station_id":"st_cvj6sg6p6f1abm77japg","pricing_plan_id":"cebpf4jnsgd1na2vs0mg"},{"bike_id":"002e6944-aa53-41b5-94a1-97e8a1b31e28","system_id":"levelo_inurba_marseille","lat":43.3152,"lon":5.37321,"is_reserved":false,"is_disabled":false,"rental_uris":{"android":"levelo://app?vid=002e6944-aa53-41b5-94a1-97e8a1b31e28","ios":"levelo://app?vid=002e6944-aa53-41b5-94a1-97e8a1b31e28"},"vehicle_type_id":"4","last_reported":1752484708,"current_range_meters":13600,"station_id":"ce4bgt12rcd13ifvqcd0","pricing_plan_id":"cebpf4jnsgd1na2vs0mg"},{"bike_id":"350baf57-19b6-4304-9c57-75c381c047e9","system_id":"levelo_inurba_marseille","lat":43.303197,"lon":5.369041,"is_reserved":false,"is_disabled":false,"rental_uris":{"android":"levelo://app?vid=350baf57-19b6-4304-9c57-75c381c047e9","ios":"levelo://app?vid=350baf57-19b6-4304-9c57-75c381c047e9"},"vehicle_type_id":"4","last_reported":1752484708,"current_range_meters":14000,"station_id":"ce4bgqh2rcd13ifvqc5g","pricing_plan_id":"cebpf4jnsgd1na2vs0mg"},{"bike_id":"2ec427da-b403-4a7e-86be-3f48ba535d18","system_id":"levelo_inurba_marseille","lat":43.21264,"lon":5.35131,"is_reserved":false,"is_disabled":false,"rental_uris":{"android":"levelo://app?vid=2ec427da-b403-4a7e-86be-3f48ba535d18","ios":"levelo://app?vid=2ec427da-b403-4a7e-86be-3f48ba535d18"},"vehicle_type_id":"4","last_reported":1752484708,"current_range_meters":14400,"station_id":"","pricing_plan_id":"cebpf4jnsgd1na2vs0mg"},{"bike_id":"8376f3aa-5a9a-4209-bf20-1d8114643d0b","system_id":"levelo_inurba_marseille","lat":43.297055,"lon":5.366048,"is_reserved":false,"is_disabled":false,"rental_uris":{"android":"levelo://app?vid=8376f3aa-5a9a-4209-bf20-1d8114643d0b","ios":"levelo://app?vid=8376f3aa-5a9a-4209-bf20-1d8114643d0b"},"vehicle_type_id":"4","last_reported":1752484708,"current_range_meters":14400,"station_id":"ce4bh092rcd13ifvqd20","pricing_plan_id":"cebpf4jnsgd1na2vs0mg"},{"bike_id":"45583b9b-98ff-4d18-a778-0d792c89bae3","system_id":"levelo_inurba_marseille","lat":43.2856,"lon":5.39488,"is_reserved":false,"is_disabled":false,"rental_uris":{"android":"levelo://app?vid=45583b9b-98ff-4d18-a778-0d792c89bae3","ios":"levelo://app?vid=45583b9b-98ff-4d18-a778-0d792c89bae3"},"vehicle_type_id":"4","last_reported":1752484708,"current_range_meters":14400,"station_id":"ce4bh292rcd13ifvqdg0","pricing_plan_id":"cebpf4jnsgd1na2vs0mg"},{"bike_id":"f5a47db5-6fb2-46bd-a2de-efa4ad13bf60","system_id":"levelo_inurba_marseille","lat":43.211927,"lon":5.350688,"is_reserved":false,"is_disabled":false,"rental_uris":{"android":"levelo://app?vid=f5a47db5-6fb2-46bd-a2de-efa4ad13bf60","ios":"levelo://app?vid=f5a47db5-6fb2-46bd-a2de-efa4ad13bf60"},"vehicle_type_id":"4","last_reported":1752484708,"current_range_meters":14400,"station_id":"st_cvj6sg6p6f1abm77japg","pricing_plan_id":"cebpf4jnsgd1na2vs0mg"},{"bike_id":"40392a3b-1d10-4dd5-b1d6-6477ad9a4c60","system_id":"levelo_inurba_marseille","lat":43.29065,"lon":5.38128,"is_reserved":false,"is_disabled":false,"rental_uris":{"android":"levelo://app?vid=40392a3b-1d10-4dd5-b1d6-6477ad9a4c60","ios":"levelo://app?vid=40392a3b-1d10-4dd5-b1d6-6477ad9a4c60"},"vehicle_type_id":"4","last_reported":1752484708,"current_range_meters":14400,"station_id":"ce4bh512rcd13ifvqe2g","pricing_plan_id":"cebpf4jnsgd1na2vs0mg"},{"bike_id":"ee0b1c96-a712-4f65-907c-d9228207e330","system_id":"levelo_inurba_marseille","lat":43.29007,"lon":5.35603,"is_reserved":false,"is_disabled":false,"rental_uris":{"android":"levelo://app?vid=ee0b1c96-a712-4f65-907c-d9228207e330","ios":"levelo://app?vid=ee0b1c96-a712-4f65-907c-d9228207e330"},"vehicle_type_id":"4","last_reported":1752484708,"current_range_meters":14400,"station_id":"ce4bhb92rcd13ifvqen0","pricing_plan_id":"cebpf4jnsgd1na2vs0mg"},{"bike_id":"c8c4de1a-846f-4f5b-aace-9fb14bf7ad52","system_id":"levelo_inurba_marseille","lat":43.211916,"lon":5.35072,"is_reserved":false,"is_disabled":false,"rental_uris":{"android":"levelo://app?vid=c8c4de1a-846f-4f5b-aace-9fb14bf7ad52","ios":"levelo://app?vid=c8c4de1a-846f-4f5b-aace-9fb14bf7ad52"},"vehicle_type_id":"4","last_reported":1752484708,"current_range_meters":14400,"station_id":"st_cvj6sg6p6f1abm77japg","pricing_plan_id":"cebpf4jnsgd1na2vs0mg"},{"bike_id":"e91ced2f-2041-4b38-8446-0d5d97adec95","system_id":"levelo_inurba_marseille","lat":43.25559,"lon":5.3826,"is_reserved":false,"is_disabled":true,"rental_uris":{"android":"levelo://app?vid=e91ced2f-2041-4b38-8446-0d5d97adec95","ios":"levelo://app?vid=e91ced2f-2041-4b38-8446-0d5d97adec95"},"vehicle_type_id":"4","last_reported":1752484708,"current_range_meters":14800,"station_id":"ce4bhih2rcd13ifvqfs0","pricing_plan_id":"cebpf4jnsgd1na2vs0mg"},{"bike_id":"1aedaa42-1f03-48cc-8e38-d983e72f730b","system_id":"levelo_inurba_marseille","lat":43.27055,"lon":5.42257,"is_reserved":false,"is_disabled":false,"rental_uris":{"android":"levelo://app?vid=1aedaa42-1f03-48cc-8e38-d983e72f730b","ios":"levelo://app?vid=1aedaa42-1f03-48cc-8e38-d983e72f730b"},"vehicle_type_id":"4","last_reported":1752484708,"current_range_meters":14800,"station_id":"ce4bhk92rcd13ifvqgb0","pricing_plan_id":"cebpf4jnsgd1na2vs0mg"},{"bike_id":"eee3ec2f-d975-402e-9dac-9087ec8a3652","system_id":"levelo_inurba_marseille","lat":43.31164,"lon":5.38706,"is_reserved":false,"is_disabled":false,"rental_uris":{"android":"levelo://app?vid=eee3ec2f-d975-402e-9dac-9087ec8a3652","ios":"levelo://app?vid=eee3ec2f-d975-402e-9dac-9087ec8a3652"},"vehicle_type_id":"4","last_reported":1752484708,"current_range_meters":16000,"station_id":"ce4bgv12rcd13ifvqcp0","pricing_plan_id":"cebpf4jnsgd1na2vs0mg"},{"bike_id":"8a01e88a-8371-4085-9838-47ae11897cd3","system_id":"levelo_inurba_marseille","lat":43.281553,"lon":5.42632,"is_reserved":false,"is_disabled":true,"rental_uris":{"android":"levelo://app?vid=8a01e88a-8371-4085-9838-47ae11897cd3","ios":"levelo://app?vid=8a01e88a-8371-4085-9838-47ae11897cd3"},"vehicle_type_id":"4","last_reported":1752484708,"current_range_meters":14800,"station_id":"ce4bhnh2rcd13ifvqgug","pricing_plan_id":"cebpf4jnsgd1na2vs0mg"},{"bike_id":"00d9c924-00ed-4fe8-a8f4-1b297c7ce946","system_id":"levelo_inurba_marseille","lat":43.21749,"lon":5.34605,"is_reserved":false,"is_disabled":false,"rental_uris":{"android":"levelo://app?vid=00d9c924-00ed-4fe8-a8f4-1b297c7ce946","ios":"levelo://app?vid=00d9c924-00ed-4fe8-a8f4-1b297c7ce946"},"vehicle_type_id":"4","last_reported":1752484708,"current_range_meters":0,"station_id":"st_cvj6r9ubvosntc0bgbag","pricing_plan_id":"cebpf4jnsgd1na2vs0mg"},{"bike_id":"b6771d12-4d0b-4004-8d85-15a22b02cf35","system_id":"levelo_inurba_marseille","lat":43.25575,"lon":5.382273,"is_reserved":false,"is_disabled":false,"rental_uris":{"android":"levelo://app?vid=b6771d12-4d0b-4004-8d85-15a22b02cf35","ios":"levelo://app?vid=b6771d12-4d0b-4004-8d85-15a22b02cf35"},"vehicle_type_id":"4","last_reported":1752484708,"current_range_meters":14800,"station_id":"ce4bhih2rcd13ifvqfs0","pricing_plan_id":"cebpf4jnsgd1na2vs0mg"},{"bike_id":"c9ff2100-8b0a-498d-a646-f7288590f021","system_id":"levelo_inurba_marseille","lat":43.3121,"lon":5.39434,"is_reserved":false,"is_disabled":false,"rental_uris":{"android":"levelo://app?vid=c9ff2100-8b0a-498d-a646-f7288590f021","ios":"levelo://app?vid=c9ff2100-8b0a-498d-a646-f7288590f021"},"vehicle_type_id":"4","last_reported":1752484708,"current_range_meters":14800,"station_id":"","pricing_plan_id":"cebpf4jnsgd1na2vs0mg"},{"bike_id":"088e6b1d-8a81-47e0-9ad0-36233ed399c0","system_id":"levelo_inurba_marseille","lat":43.279253,"lon":5.395718,"is_reserved":false,"is_disabled":true,"rental_uris":{"android":"levelo://app?vid=088e6b1d-8a81-47e0-9ad0-36233ed399c0","ios":"levelo://app?vid=088e6b1d-8a81-47e0-9ad0-36233ed399c0"},"vehicle_type_id":"4","last_reported":1752484708,"current_range_meters":14800,"station_id":"ce4bhf92rcd13ifvqf40","pricing_plan_id":"cebpf4jnsgd1na2vs0mg"},{"bike_id":"697d5fc4-b988-4a4e-8323-c1ce5ed61a61","system_id":"levelo_inurba_marseille","lat":43.211913,"lon":5.350742,"is_reserved":false,"is_disabled":false,"rental_uris":{"android":"levelo://app?vid=697d5fc4-b988-4a4e-8323-c1ce5ed61a61","ios":"levelo://app?vid=697d5fc4-b988-4a4e-8323-c1ce5ed61a61"},"vehicle_type_id":"4","last_reported":1752484708,"current_range_meters":15200,"station_id":"st_cvj6sg6p6f1abm77japg","pricing_plan_id":"cebpf4jnsgd1na2vs0mg"},{"bike_id":"b1f565f2-83c4-4631-9b4d-1d683a0261ef","system_id":"levelo_inurba_marseille","lat":43.21193,"lon":5.35078,"is_reserved":false,"is_disabled":false,"rental_uris":{"android":"levelo://app?vid=b1f565f2-83c4-4631-9b4d-1d683a0261ef","ios":"levelo://app?vid=b1f565f2-83c4-4631-9b4d-1d683a0261ef"},"vehicle_type_id":"4","last_reported":1752484708,"current_range_meters":15200,"station_id":"st_cvj6sg6p6f1abm77japg","pricing_plan_id":"cebpf4jnsgd1na2vs0mg"},{"bike_id":"a4d07f45-19f9-4df9-9728-be6623530a64","system_id":"levelo_inurba_marseille","lat":43.23711,"lon":5.38839,"is_reserved":false,"is_disabled":false,"rental_uris":{"android":"levelo://app?vid=a4d07f45-19f9-4df9-9728-be6623530a64","ios":"levelo://app?vid=a4d07f45-19f9-4df9-9728-be6623530a64"},"vehicle_type_id":"4","last_reported":1752484708,"current_range_meters":15200,"station_id":"","pricing_plan_id":"cebpf4jnsgd1na2vs0mg"},{"bike_id":"4c15aebe-18ab-4353-a234-87063157bf88","system_id":"levelo_inurba_marseille","lat":43.2417,"lon":5.39745,"is_reserved":false,"is_disabled":false,"rental_uris":{"android":"levelo://app?vid=4c15aebe-18ab-4353-a234-87063157bf88","ios":"levelo://app?vid=4c15aebe-18ab-4353-a234-87063157bf88"},"vehicle_type_id":"4","last_reported":1752484708,"current_range_meters":15200,"station_id":"ce4bhn12rcd13ifvqgpg","pricing_plan_id":"cebpf4jnsgd1na2vs0mg"},{"bike_id":"12d48e4d-a291-49bb-ab45-967804b53d7b","system_id":"levelo_inurba_marseille","lat":43.27625,"lon":5.36117,"is_reserved":false,"is_disabled":true,"rental_uris":{"android":"levelo://app?vid=12d48e4d-a291-49bb-ab45-967804b53d7b","ios":"levelo://app?vid=12d48e4d-a291-49bb-ab45-967804b53d7b"},"vehicle_type_id":"4","last_reported":1752484708,"current_range_meters":16000,"station_id":"ce4bgj92rcd13ifvqbe0","pricing_plan_id":"cebpf4jnsgd1na2vs0mg"},{"bike_id":"e1442ff3-c767-4bb3-901d-e5f60873ad13","system_id":"levelo_inurba_marseille","lat":43.2319,"lon":5.39984,"is_reserved":false,"is_disabled":false,"rental_uris":{"android":"levelo://app?vid=e1442ff3-c767-4bb3-901d-e5f60873ad13","ios":"levelo://app?vid=e1442ff3-c767-4bb3-901d-e5f60873ad13"},"vehicle_type_id":"4","last_reported":1752484708,"current_range_meters":16000,"station_id":"ce4bhn12rcd13ifvqgqg","pricing_plan_id":"cebpf4jnsgd1na2vs0mg"},{"bike_id":"e1928b01-bff5-4cea-b60c-f8d9223daef3","system_id":"levelo_inurba_marseille","lat":43.270739,"lon":5.422746,"is_reserved":false,"is_disabled":false,"rental_uris":{"android":"levelo://app?vid=e1928b01-bff5-4cea-b60c-f8d9223daef3","ios":"levelo://app?vid=e1928b01-bff5-4cea-b60c-f8d9223daef3"},"vehicle_type_id":"4","last_reported":1752484708,"current_range_meters":16000,"station_id":"ce4bhk92rcd13ifvqgb0","pricing_plan_id":"cebpf4jnsgd1na2vs0mg"},{"bike_id":"6ac174d4-75c5-4a9c-9699-97cd631c6e65","system_id":"levelo_inurba_marseille","lat":43.25468,"lon":5.39941,"is_reserved":false,"is_disabled":false,"rental_uris":{"android":"levelo://app?vid=6ac174d4-75c5-4a9c-9699-97cd631c6e65","ios":"levelo://app?vid=6ac174d4-75c5-4a9c-9699-97cd631c6e65"},"vehicle_type_id":"4","last_reported":1752484708,"current_range_meters":16000,"station_id":"","pricing_plan_id":"cebpf4jnsgd1na2vs0mg"},{"bike_id":"23a0fc67-4c39-4b74-8a86-2903d79b1606","system_id":"levelo_inurba_marseille","lat":43.231891,"lon":5.355532,"is_reserved":false,"is_disabled":false,"rental_uris":{"android":"levelo://app?vid=23a0fc67-4c39-4b74-8a86-2903d79b1606","ios":"levelo://app?vid=23a0fc67-4c39-4b74-8a86-2903d79b1606"},"vehicle_type_id":"4","last_reported":1752484708,"current_range_meters":16000,"station_id":"ce4bhu92rcd13ifvqi70","pricing_plan_id":"cebpf4jnsgd1na2vs0mg"},{"bike_id":"aadec9b8-803d-4b60-b623-b9c41bfc8025","system_id":"levelo_inurba_marseille","lat":43.27375,"lon":5.36252,"is_reserved":false,"is_disabled":false,"rental_uris":{"android":"levelo://app?vid=aadec9b8-803d-4b60-b623-b9c41bfc8025","ios":"levelo://app?vid=aadec9b8-803d-4b60-b623-b9c41bfc8025"},"vehicle_type_id":"4","last_reported":1752484708,"current_range_meters":16000,"station_id":"ce4bhbh2rcd13ifvqeo0","pricing_plan_id":"cebpf4jnsgd1na2vs0mg"},{"bike_id":"2c81c752-b139-48bc-a4ee-7fa7f8526278","system_id":"levelo_inurba_marseille","lat":43.217471,"lon":5.346053,"is_reserved":false,"is_disabled":true,"rental_uris":{"android":"levelo://app?vid=2c81c752-b139-48bc-a4ee-7fa7f8526278","ios":"levelo://app?vid=2c81c752-b139-48bc-a4ee-7fa7f8526278"},"vehicle_type_id":"4","last_reported":1752484708,"current_range_meters":16400,"station_id":"st_cvj6r9ubvosntc0bgbag","pricing_plan_id":"cebpf4jnsgd1na2vs0mg"},{"bike_id":"7af85081-c194-48da-aa89-eec88aabc21f","system_id":"levelo_inurba_marseille","lat":43.28671,"lon":5.38671,"is_reserved":false,"is_disabled":false,"rental_uris":{"android":"levelo://app?vid=7af85081-c194-48da-aa89-eec88aabc21f","ios":"levelo://app?vid=7af85081-c194-48da-aa89-eec88aabc21f"},"vehicle_type_id":"4","last_reported":1752484708,"current_range_meters":16400,"station_id":"ce4bh492rcd13ifvqdug","pricing_plan_id":"cebpf4jnsgd1na2vs0mg"},{"bike_id":"aa260077-cb0d-43c9-8e67-329c1b69779f","system_id":"levelo_inurba_marseille","lat":43.211917,"lon":5.350727,"is_reserved":false,"is_disabled":false,"rental_uris":{"android":"levelo://app?vid=aa260077-cb0d-43c9-8e67-329c1b69779f","ios":"levelo://app?vid=aa260077-cb0d-43c9-8e67-329c1b69779f"},"vehicle_type_id":"4","last_reported":1752484708,"current_range_meters":16400,"station_id":"st_cvj6sg6p6f1abm77japg","pricing_plan_id":"cebpf4jnsgd1na2vs0mg"},{"bike_id":"08e67338-a2ff-42fc-a939-92ad435f118e","system_id":"levelo_inurba_marseille","lat":43.27674,"lon":5.35714,"is_reserved":false,"is_disabled":false,"rental_uris":{"android":"levelo://app?vid=08e67338-a2ff-42fc-a939-92ad435f118e","ios":"levelo://app?vid=08e67338-a2ff-42fc-a939-92ad435f118e"},"vehicle_type_id":"4","last_reported":1752484708,"current_range_meters":16400,"station_id":"","pricing_plan_id":"cebpf4jnsgd1na2vs0mg"},{"bike_id":"5ba82df7-d2d4-4356-ac83-c57d105fd2ae","system_id":"levelo_inurba_marseille","lat":43.307968,"lon":5.376444,"is_reserved":false,"is_disabled":false,"rental_uris":{"android":"levelo://app?vid=5ba82df7-d2d4-4356-ac83-c57d105fd2ae","ios":"levelo://app?vid=5ba82df7-d2d4-4356-ac83-c57d105fd2ae"},"vehicle_type_id":"4","last_reported":1752484708,"current_range_meters":16800,"station_id":"ce4bgv92rcd13ifvqcq0","pricing_plan_id":"cebpf4jnsgd1na2vs0mg"},{"bike_id":"86ff6ad5-0612-4a71-a375-5d5132f5b609","system_id":"levelo_inurba_marseille","lat":43.29528,"lon":5.42232,"is_reserved":false,"is_disabled":false,"rental_uris":{"android":"levelo://app?vid=86ff6ad5-0612-4a71-a375-5d5132f5b609","ios":"levelo://app?vid=86ff6ad5-0612-4a71-a375-5d5132f5b609"},"vehicle_type_id":"4","last_reported":1752484708,"current_range_meters":16800,"station_id":"","pricing_plan_id":"cebpf4jnsgd1na2vs0mg"},{"bike_id":"0be8b6ff-89df-4994-876a-5f9632d04ae6","system_id":"levelo_inurba_marseille","lat":43.251137,"lon":5.403212,"is_reserved":false,"is_disabled":false,"rental_uris":{"android":"levelo://app?vid=0be8b6ff-89df-4994-876a-5f9632d04ae6","ios":"levelo://app?vid=0be8b6ff-89df-4994-876a-5f9632d04ae6"},"vehicle_type_id":"4","last_reported":1752484708,"current_range_meters":16800,"station_id":"ce4bhlh2rcd13ifvqgig","pricing_plan_id":"cebpf4jnsgd1na2vs0mg"},{"bike_id":"7ce50aa9-fb46-499f-bf35-1bc8f67c6be2","system_id":"levelo_inurba_marseille","lat":43.269409,"lon":5.402593,"is_reserved":false,"is_disabled":false,"rental_uris":{"android":"levelo://app?vid=7ce50aa9-fb46-499f-bf35-1bc8f67c6be2","ios":"levelo://app?vid=7ce50aa9-fb46-499f-bf35-1bc8f67c6be2"},"vehicle_type_id":"4","last_reported":1752484708,"current_range_meters":16800,"station_id":"cjm6bp8fraef2m0cb0m0","pricing_plan_id":"cebpf4jnsgd1na2vs0mg"},{"bike_id":"2c5a0a8d-b80f-43a1-91ae-93c8cb7cac46","system_id":"levelo_inurba_marseille","lat":43.290249,"lon":5.381227,"is_reserved":false,"is_disabled":false,"rental_uris":{"android":"levelo://app?vid=2c5a0a8d-b80f-43a1-91ae-93c8cb7cac46","ios":"levelo://app?vid=2c5a0a8d-b80f-43a1-91ae-93c8cb7cac46"},"vehicle_type_id":"4","last_reported":1752484708,"current_range_meters":16800,"station_id":"","pricing_plan_id":"cebpf4jnsgd1na2vs0mg"},{"bike_id":"00fc1402-4dd5-4160-81c9-e4ee05f4960b","system_id":"levelo_inurba_marseille","lat":43.22502,"lon":5.34801,"is_reserved":false,"is_disabled":false,"rental_uris":{"android":"levelo://app?vid=00fc1402-4dd5-4160-81c9-e4ee05f4960b","ios":"levelo://app?vid=00fc1402-4dd5-4160-81c9-e4ee05f4960b"},"vehicle_type_id":"4","last_reported":1752484708,"current_range_meters":16800,"station_id":"st_cvj5dfep6f1abm77gieg","pricing_plan_id":"cebpf4jnsgd1na2vs0mg"},{"bike_id":"7cbe10cc-b944-418e-b9d1-e3b65ee5bb74","system_id":"levelo_inurba_marseille","lat":43.29892,"lon":5.43666,"is_reserved":false,"is_disabled":false,"rental_uris":{"android":"levelo://app?vid=7cbe10cc-b944-418e-b9d1-e3b65ee5bb74","ios":"levelo://app?vid=7cbe10cc-b944-418e-b9d1-e3b65ee5bb74"},"vehicle_type_id":"4","last_reported":1752484708,"current_range_meters":17200,"station_id":"ce4bhpp2rcd13ifvqhfg","pricing_plan_id":"cebpf4jnsgd1na2vs0mg"},{"bike_id":"ff273063-b26e-410d-a8db-735ccf894b50","system_id":"levelo_inurba_marseille","lat":43.24076,"lon":5.37799,"is_reserved":false,"is_disabled":false,"rental_uris":{"android":"levelo://app?vid=ff273063-b26e-410d-a8db-735ccf894b50","ios":"levelo://app?vid=ff273063-b26e-410d-a8db-735ccf894b50"},"vehicle_type_id":"4","last_reported":1752484708,"current_range_meters":17200,"station_id":"ce4bhnp2rcd13ifvqgvg","pricing_plan_id":"cebpf4jnsgd1na2vs0mg"},{"bike_id":"ce7e0f9d-fa84-4dc1-9d84-21a2c2d40a27","system_id":"levelo_inurba_marseille","lat":43.24068,"lon":5.37773,"is_reserved":false,"is_disabled":false,"rental_uris":{"android":"levelo://app?vid=ce7e0f9d-fa84-4dc1-9d84-21a2c2d40a27","ios":"levelo://app?vid=ce7e0f9d-fa84-4dc1-9d84-21a2c2d40a27"},"vehicle_type_id":"4","last_reported":1752484708,"current_range_meters":17200,"station_id":"ce4bhnp2rcd13ifvqgvg","pricing_plan_id":"cebpf4jnsgd1na2vs0mg"},{"bike_id":"c2857b8a-2544-48ae-936c-90bab1dd6ab6","system_id":"levelo_inurba_marseille","lat":43.211944,"lon":5.350701,"is_reserved":false,"is_disabled":false,"rental_uris":{"android":"levelo://app?vid=c2857b8a-2544-48ae-936c-90bab1dd6ab6","ios":"levelo://app?vid=c2857b8a-2544-48ae-936c-90bab1dd6ab6"},"vehicle_type_id":"4","last_reported":1752484708,"current_range_meters":17200,"station_id":"st_cvj6sg6p6f1abm77japg","pricing_plan_id":"cebpf4jnsgd1na2vs0mg"},{"bike_id":"6fee592a-7fa0-4dae-8ae0-16cfb5f47269","system_id":"levelo_inurba_marseille","lat":43.23195,"lon":5.35553,"is_reserved":false,"is_disabled":false,"rental_uris":{"android":"levelo://app?vid=6fee592a-7fa0-4dae-8ae0-16cfb5f47269","ios":"levelo://app?vid=6fee592a-7fa0-4dae-8ae0-16cfb5f47269"},"vehicle_type_id":"4","last_reported":1752484708,"current_range_meters":16800,"station_id":"ce4bhu92rcd13ifvqi70","pricing_plan_id":"cebpf4jnsgd1na2vs0mg"},{"bike_id":"1eb30bbc-25a0-4a0b-b6cc-68f11abcb23c","system_id":"levelo_inurba_marseille","lat":43.28621,"lon":5.37084,"is_reserved":false,"is_disabled":false,"rental_uris":{"android":"levelo://app?vid=1eb30bbc-25a0-4a0b-b6cc-68f11abcb23c","ios":"levelo://app?vid=1eb30bbc-25a0-4a0b-b6cc-68f11abcb23c"},"vehicle_type_id":"4","last_reported":1752484708,"current_range_meters":17200,"station_id":"ce4bht12rcd13ifvqi60","pricing_plan_id":"cebpf4jnsgd1na2vs0mg"},{"bike_id":"fd45ce6f-4b8c-407a-91aa-8c33650e607a","system_id":"levelo_inurba_marseille","lat":43.279936,"lon":5.416651,"is_reserved":false,"is_disabled":false,"rental_uris":{"android":"levelo://app?vid=fd45ce6f-4b8c-407a-91aa-8c33650e607a","ios":"levelo://app?vid=fd45ce6f-4b8c-407a-91aa-8c33650e607a"},"vehicle_type_id":"4","last_reported":1752484708,"current_range_meters":17600,"station_id":"ce4bho12rcd13ifvqh1g","pricing_plan_id":"cebpf4jnsgd1na2vs0mg"},{"bike_id":"44e10618-e1b8-4569-bc24-980853c4bf04","system_id":"levelo_inurba_marseille","lat":43.229237,"lon":5.353728,"is_reserved":false,"is_disabled":true,"rental_uris":{"android":"levelo://app?vid=44e10618-e1b8-4569-bc24-980853c4bf04","ios":"levelo://app?vid=44e10618-e1b8-4569-bc24-980853c4bf04"},"vehicle_type_id":"4","last_reported":1752484708,"current_range_meters":17600,"station_id":"cpo3532slgdg3j2ikp40","pricing_plan_id":"cebpf4jnsgd1na2vs0mg"},{"bike_id":"d0f90c24-dd03-411b-9731-55305f76b7c8","system_id":"levelo_inurba_marseille","lat":43.21198,"lon":5.3507,"is_reserved":false,"is_disabled":false,"rental_uris":{"android":"levelo://app?vid=d0f90c24-dd03-411b-9731-55305f76b7c8","ios":"levelo://app?vid=d0f90c24-dd03-411b-9731-55305f76b7c8"},"vehicle_type_id":"4","last_reported":1752484708,"current_range_meters":17600,"station_id":"st_cvj6sg6p6f1abm77japg","pricing_plan_id":"cebpf4jnsgd1na2vs0mg"},{"bike_id":"8c3a661a-d9b9-4888-8437-6d02eabbdf12","system_id":"levelo_inurba_marseille","lat":43.2803,"lon":5.369303,"is_reserved":false,"is_disabled":false,"rental_uris":{"android":"levelo://app?vid=8c3a661a-d9b9-4888-8437-6d02eabbdf12","ios":"levelo://app?vid=8c3a661a-d9b9-4888-8437-6d02eabbdf12"},"vehicle_type_id":"4","last_reported":1752484708,"current_range_meters":17600,"station_id":"ce4bha12rcd13ifvqef0","pricing_plan_id":"cebpf4jnsgd1na2vs0mg"},{"bike_id":"f10941ce-d19a-4475-b0ba-1c38d332727e","system_id":"levelo_inurba_marseille","lat":43.3213,"lon":5.38717,"is_reserved":false,"is_disabled":false,"rental_uris":{"android":"levelo://app?vid=f10941ce-d19a-4475-b0ba-1c38d332727e","ios":"levelo://app?vid=f10941ce-d19a-4475-b0ba-1c38d332727e"},"vehicle_type_id":"4","last_reported":1752484708,"current_range_meters":17600,"station_id":"","pricing_plan_id":"cebpf4jnsgd1na2vs0mg"},{"bike_id":"64fdd83b-fe61-4d3d-bee6-621252bee845","system_id":"levelo_inurba_marseille","lat":43.29042,"lon":5.39957,"is_reserved":false,"is_disabled":false,"rental_uris":{"android":"levelo://app?vid=64fdd83b-fe61-4d3d-bee6-621252bee845","ios":"levelo://app?vid=64fdd83b-fe61-4d3d-bee6-621252bee845"},"vehicle_type_id":"4","last_reported":1752484708,"current_range_meters":18000,"station_id":"ce4bh392rcd13ifvqdm0","pricing_plan_id":"cebpf4jnsgd1na2vs0mg"},{"bike_id":"e0b88937-0cb8-4374-8110-357b6a1974b9","system_id":"levelo_inurba_marseille","lat":43.24058,"lon":5.37766,"is_reserved":false,"is_disabled":false,"rental_uris":{"android":"levelo://app?vid=e0b88937-0cb8-4374-8110-357b6a1974b9","ios":"levelo://app?vid=e0b88937-0cb8-4374-8110-357b6a1974b9"},"vehicle_type_id":"4","last_reported":1752484708,"current_range_meters":17600,"station_id":"ce4bhnp2rcd13ifvqgvg","pricing_plan_id":"cebpf4jnsgd1na2vs0mg"},{"bike_id":"4162cd04-24c8-4467-994d-a4f476a4c277","system_id":"levelo_inurba_marseille","lat":43.29194,"lon":5.35799,"is_reserved":false,"is_disabled":false,"rental_uris":{"android":"levelo://app?vid=4162cd04-24c8-4467-994d-a4f476a4c277","ios":"levelo://app?vid=4162cd04-24c8-4467-994d-a4f476a4c277"},"vehicle_type_id":"4","last_reported":1752484708,"current_range_meters":17600,"station_id":"ce4bhb12rcd13ifvqel0","pricing_plan_id":"cebpf4jnsgd1na2vs0mg"},{"bike_id":"da75db8b-8943-4abe-858e-79fbcfcae3a3","system_id":"levelo_inurba_marseille","lat":43.24076,"lon":5.37748,"is_reserved":false,"is_disabled":false,"rental_uris":{"android":"levelo://app?vid=da75db8b-8943-4abe-858e-79fbcfcae3a3","ios":"levelo://app?vid=da75db8b-8943-4abe-858e-79fbcfcae3a3"},"vehicle_type_id":"4","last_reported":1752484708,"current_range_meters":17600,"station_id":"ce4bhnp2rcd13ifvqgvg","pricing_plan_id":"cebpf4jnsgd1na2vs0mg"},{"bike_id":"6d928e54-6b23-484e-8e87-2414a8848624","system_id":"levelo_inurba_marseille","lat":43.30124,"lon":5.37373,"is_reserved":false,"is_disabled":false,"rental_uris":{"android":"levelo://app?vid=6d928e54-6b23-484e-8e87-2414a8848624","ios":"levelo://app?vid=6d928e54-6b23-484e-8e87-2414a8848624"},"vehicle_type_id":"4","last_reported":1752484708,"current_range_meters":17600,"station_id":"ce4bgs92rcd13ifvqcc0","pricing_plan_id":"cebpf4jnsgd1na2vs0mg"},{"bike_id":"d3efc34f-1637-4aa4-bd76-22e640d007bc","system_id":"levelo_inurba_marseille","lat":43.28425,"lon":5.34982,"is_reserved":false,"is_disabled":false,"rental_uris":{"android":"levelo://app?vid=d3efc34f-1637-4aa4-bd76-22e640d007bc","ios":"levelo://app?vid=d3efc34f-1637-4aa4-bd76-22e640d007bc"},"vehicle_type_id":"4","last_reported":1752484708,"current_range_meters":17600,"station_id":"ce4bhbh2rcd13ifvqepg","pricing_plan_id":"cebpf4jnsgd1na2vs0mg"},{"bike_id":"b1185ede-9b9a-4a2c-8fba-43d98d3f0449","system_id":"levelo_inurba_marseille","lat":43.27945,"lon":5.41033,"is_reserved":false,"is_disabled":false,"rental_uris":{"android":"levelo://app?vid=b1185ede-9b9a-4a2c-8fba-43d98d3f0449","ios":"levelo://app?vid=b1185ede-9b9a-4a2c-8fba-43d98d3f0449"},"vehicle_type_id":"4","last_reported":1752484708,"current_range_meters":17600,"station_id":"ce4bhnp2rcd13ifvqh0g","pricing_plan_id":"cebpf4jnsgd1na2vs0mg"},{"bike_id":"ce4d14d7-9e5a-40df-9fcf-5fd8b2e9178f","system_id":"levelo_inurba_marseille","lat":43.25704,"lon":5.41119,"is_reserved":false,"is_disabled":false,"rental_uris":{"android":"levelo://app?vid=ce4d14d7-9e5a-40df-9fcf-5fd8b2e9178f","ios":"levelo://app?vid=ce4d14d7-9e5a-40df-9fcf-5fd8b2e9178f"},"vehicle_type_id":"4","last_reported":1752484708,"current_range_meters":18000,"station_id":"ce4bhkp2rcd13ifvqgd0","pricing_plan_id":"cebpf4jnsgd1na2vs0mg"},{"bike_id":"fc63a067-9cf2-4c58-bfdd-3270ab1898f2","system_id":"levelo_inurba_marseille","lat":43.229293,"lon":5.353711,"is_reserved":false,"is_disabled":false,"rental_uris":{"android":"levelo://app?vid=fc63a067-9cf2-4c58-bfdd-3270ab1898f2","ios":"levelo://app?vid=fc63a067-9cf2-4c58-bfdd-3270ab1898f2"},"vehicle_type_id":"4","last_reported":1752484708,"current_range_meters":18000,"station_id":"cpo3532slgdg3j2ikp40","pricing_plan_id":"cebpf4jnsgd1na2vs0mg"},{"bike_id":"f39d7b02-c837-4ad8-b2fa-cccb6f683794","system_id":"levelo_inurba_marseille","lat":43.30359,"lon":5.41878,"is_reserved":false,"is_disabled":false,"rental_uris":{"android":"levelo://app?vid=f39d7b02-c837-4ad8-b2fa-cccb6f683794","ios":"levelo://app?vid=f39d7b02-c837-4ad8-b2fa-cccb6f683794"},"vehicle_type_id":"4","last_reported":1752484708,"current_range_meters":18000,"station_id":"ce4bhop2rcd13ifvqh7g","pricing_plan_id":"cebpf4jnsgd1na2vs0mg"},{"bike_id":"a2bbb8c8-a2fa-422c-bae1-55c4f8a2124a","system_id":"levelo_inurba_marseille","lat":43.31673,"lon":5.40482,"is_reserved":false,"is_disabled":false,"rental_uris":{"android":"levelo://app?vid=a2bbb8c8-a2fa-422c-bae1-55c4f8a2124a","ios":"levelo://app?vid=a2bbb8c8-a2fa-422c-bae1-55c4f8a2124a"},"vehicle_type_id":"4","last_reported":1752484708,"current_range_meters":18000,"station_id":"ce4bh012rcd13ifvqd00","pricing_plan_id":"cebpf4jnsgd1na2vs0mg"},{"bike_id":"8fc534fb-78ff-4c8e-8f03-34a77e9a857a","system_id":"levelo_inurba_marseille","lat":43.28,"lon":5.40013,"is_reserved":false,"is_disabled":false,"rental_uris":{"android":"levelo://app?vid=8fc534fb-78ff-4c8e-8f03-34a77e9a857a","ios":"levelo://app?vid=8fc534fb-78ff-4c8e-8f03-34a77e9a857a"},"vehicle_type_id":"4","last_reported":1752484708,"current_range_meters":18000,"station_id":"ce4bho92rcd13ifvqh4g","pricing_plan_id":"cebpf4jnsgd1na2vs0mg"},{"bike_id":"5c604cee-8163-4508-b1f3-ec8c5d644770","system_id":"levelo_inurba_marseille","lat":43.23196,"lon":5.35552,"is_reserved":false,"is_disabled":false,"rental_uris":{"android":"levelo://app?vid=5c604cee-8163-4508-b1f3-ec8c5d644770","ios":"levelo://app?vid=5c604cee-8163-4508-b1f3-ec8c5d644770"},"vehicle_type_id":"4","last_reported":1752484708,"current_range_meters":18000,"station_id":"ce4bhu92rcd13ifvqi70","pricing_plan_id":"cebpf4jnsgd1na2vs0mg"},{"bike_id":"48a72147-d63a-4fad-9403-9184689656c8","system_id":"levelo_inurba_marseille","lat":43.24398,"lon":5.370654,"is_reserved":false,"is_disabled":true,"rental_uris":{"android":"levelo://app?vid=48a72147-d63a-4fad-9403-9184689656c8","ios":"levelo://app?vid=48a72147-d63a-4fad-9403-9184689656c8"},"vehicle_type_id":"4","last_reported":1752484708,"current_range_meters":18000,"station_id":"ce4bhhh2rcd13ifvqfk0","pricing_plan_id":"cebpf4jnsgd1na2vs0mg"},{"bike_id":"22060ed4-4224-4eb8-b34f-7fe6bdc84783","system_id":"levelo_inurba_marseille","lat":43.31492,"lon":5.37305,"is_reserved":false,"is_disabled":false,"rental_uris":{"android":"levelo://app?vid=22060ed4-4224-4eb8-b34f-7fe6bdc84783","ios":"levelo://app?vid=22060ed4-4224-4eb8-b34f-7fe6bdc84783"},"vehicle_type_id":"4","last_reported":1752484708,"current_range_meters":18000,"station_id":"ce4bgt12rcd13ifvqcd0","pricing_plan_id":"cebpf4jnsgd1na2vs0mg"},{"bike_id":"1ff5b7a7-f53f-4d9e-b007-2bf9ff951874","system_id":"levelo_inurba_marseille","lat":43.262023,"lon":5.37929,"is_reserved":false,"is_disabled":false,"rental_uris":{"android":"levelo://app?vid=1ff5b7a7-f53f-4d9e-b007-2bf9ff951874","ios":"levelo://app?vid=1ff5b7a7-f53f-4d9e-b007-2bf9ff951874"},"vehicle_type_id":"4","last_reported":1752484708,"current_range_meters":18000,"station_id":"ce4bhjp2rcd13ifvqg90","pricing_plan_id":"cebpf4jnsgd1na2vs0mg"},{"bike_id":"f6618e0c-2b00-4ee7-8d7c-c845eca6b5fb","system_id":"levelo_inurba_marseille","lat":43.315357,"lon":5.380361,"is_reserved":false,"is_disabled":false,"rental_uris":{"android":"levelo://app?vid=f6618e0c-2b00-4ee7-8d7c-c845eca6b5fb","ios":"levelo://app?vid=f6618e0c-2b00-4ee7-8d7c-c845eca6b5fb"},"vehicle_type_id":"4","last_reported":1752484708,"current_range_meters":18800,"station_id":"ce4bhsp2rcd13ifvqi50","pricing_plan_id":"cebpf4jnsgd1na2vs0mg"},{"bike_id":"11106e69-89ed-4341-b4bb-b14fbe08d9c6","system_id":"levelo_inurba_marseille","lat":43.28616,"lon":5.3949,"is_reserved":false,"is_disabled":false,"rental_uris":{"android":"levelo://app?vid=11106e69-89ed-4341-b4bb-b14fbe08d9c6","ios":"levelo://app?vid=11106e69-89ed-4341-b4bb-b14fbe08d9c6"},"vehicle_type_id":"4","last_reported":1752484708,"current_range_meters":18800,"station_id":"ce4bh292rcd13ifvqdg0","pricing_plan_id":"cebpf4jnsgd1na2vs0mg"},{"bike_id":"1a069fe5-31de-4261-99cb-02cbe013e2b5","system_id":"levelo_inurba_marseille","lat":43.2781,"lon":5.40716,"is_reserved":false,"is_disabled":false,"rental_uris":{"android":"levelo://app?vid=1a069fe5-31de-4261-99cb-02cbe013e2b5","ios":"levelo://app?vid=1a069fe5-31de-4261-99cb-02cbe013e2b5"},"vehicle_type_id":"4","last_reported":1752484708,"current_range_meters":18000,"station_id":"ce4bhnh2rcd13ifvqgtg","pricing_plan_id":"cebpf4jnsgd1na2vs0mg"},{"bike_id":"9ec7ded0-07a0-4052-88cd-c68cfaa8fdd7","system_id":"levelo_inurba_marseille","lat":43.217477,"lon":5.346042,"is_reserved":false,"is_disabled":false,"rental_uris":{"android":"levelo://app?vid=9ec7ded0-07a0-4052-88cd-c68cfaa8fdd7","ios":"levelo://app?vid=9ec7ded0-07a0-4052-88cd-c68cfaa8fdd7"},"vehicle_type_id":"4","last_reported":1752484708,"current_range_meters":18800,"station_id":"st_cvj6r9ubvosntc0bgbag","pricing_plan_id":"cebpf4jnsgd1na2vs0mg"},{"bike_id":"264552e2-1f32-4b53-8bee-53576560429c","system_id":"levelo_inurba_marseille","lat":43.26558,"lon":5.3729,"is_reserved":false,"is_disabled":false,"rental_uris":{"android":"levelo://app?vid=264552e2-1f32-4b53-8bee-53576560429c","ios":"levelo://app?vid=264552e2-1f32-4b53-8bee-53576560429c"},"vehicle_type_id":"4","last_reported":1752484708,"current_range_meters":18800,"station_id":"ce4bhg12rcd13ifvqf70","pricing_plan_id":"cebpf4jnsgd1na2vs0mg"},{"bike_id":"d5bdb42a-191c-47e3-ab8a-d1a3820648f6","system_id":"levelo_inurba_marseille","lat":43.29044,"lon":5.39973,"is_reserved":false,"is_disabled":false,"rental_uris":{"android":"levelo://app?vid=d5bdb42a-191c-47e3-ab8a-d1a3820648f6","ios":"levelo://app?vid=d5bdb42a-191c-47e3-ab8a-d1a3820648f6"},"vehicle_type_id":"4","last_reported":1752484708,"current_range_meters":19600,"station_id":"ce4bh392rcd13ifvqdm0","pricing_plan_id":"cebpf4jnsgd1na2vs0mg"},{"bike_id":"52cb12ce-7568-4969-9d5b-e929fc857857","system_id":"levelo_inurba_marseille","lat":43.29065,"lon":5.38012,"is_reserved":false,"is_disabled":true,"rental_uris":{"android":"levelo://app?vid=52cb12ce-7568-4969-9d5b-e929fc857857","ios":"levelo://app?vid=52cb12ce-7568-4969-9d5b-e929fc857857"},"vehicle_type_id":"4","last_reported":1752484708,"current_range_meters":18800,"station_id":"","pricing_plan_id":"cebpf4jnsgd1na2vs0mg"},{"bike_id":"abd54454-eac9-4f10-9247-3e0bb034a891","system_id":"levelo_inurba_marseille","lat":43.282639,"lon":5.350808,"is_reserved":false,"is_disabled":false,"rental_uris":{"android":"levelo://app?vid=abd54454-eac9-4f10-9247-3e0bb034a891","ios":"levelo://app?vid=abd54454-eac9-4f10-9247-3e0bb034a891"},"vehicle_type_id":"4","last_reported":1752484708,"current_range_meters":18800,"station_id":"ce4bhbp2rcd13ifvqerg","pricing_plan_id":"cebpf4jnsgd1na2vs0mg"},{"bike_id":"5e4610cb-c909-4ce9-8f9c-f51b08a5beaf","system_id":"levelo_inurba_marseille","lat":43.29368,"lon":5.37849,"is_reserved":false,"is_disabled":false,"rental_uris":{"android":"levelo://app?vid=5e4610cb-c909-4ce9-8f9c-f51b08a5beaf","ios":"levelo://app?vid=5e4610cb-c909-4ce9-8f9c-f51b08a5beaf"},"vehicle_type_id":"4","last_reported":1752484708,"current_range_meters":18000,"station_id":"ce4bgjh2rcd13ifvqbf0","pricing_plan_id":"cebpf4jnsgd1na2vs0mg"},{"bike_id":"6c6d4d9a-6141-481c-9c1a-8e61054bdc43","system_id":"levelo_inurba_marseille","lat":43.24794,"lon":5.41798,"is_reserved":false,"is_disabled":false,"rental_uris":{"android":"levelo://app?vid=6c6d4d9a-6141-481c-9c1a-8e61054bdc43","ios":"levelo://app?vid=6c6d4d9a-6141-481c-9c1a-8e61054bdc43"},"vehicle_type_id":"4","last_reported":1752484708,"current_range_meters":18800,"station_id":"","pricing_plan_id":"cebpf4jnsgd1na2vs0mg"},{"bike_id":"6ad77e3e-b64b-46c5-aacd-f441bffa9a51","system_id":"levelo_inurba_marseille","lat":43.25109,"lon":5.403303,"is_reserved":false,"is_disabled":false,"rental_uris":{"android":"levelo://app?vid=6ad77e3e-b64b-46c5-aacd-f441bffa9a51","ios":"levelo://app?vid=6ad77e3e-b64b-46c5-aacd-f441bffa9a51"},"vehicle_type_id":"4","last_reported":1752484708,"current_range_meters":18800,"station_id":"ce4bhlh2rcd13ifvqgig","pricing_plan_id":"cebpf4jnsgd1na2vs0mg"},{"bike_id":"b211c38b-8c37-4f04-b2fa-0f21bedeb117","system_id":"levelo_inurba_marseille","lat":43.281538,"lon":5.426354,"is_reserved":false,"is_disabled":false,"rental_uris":{"android":"levelo://app?vid=b211c38b-8c37-4f04-b2fa-0f21bedeb117","ios":"levelo://app?vid=b211c38b-8c37-4f04-b2fa-0f21bedeb117"},"vehicle_type_id":"4","last_reported":1752484708,"current_range_meters":18800,"station_id":"ce4bhnh2rcd13ifvqgug","pricing_plan_id":"cebpf4jnsgd1na2vs0mg"},{"bike_id":"ccf95bcc-c6df-4bd6-86e7-91784ca96b15","system_id":"levelo_inurba_marseille","lat":43.29998,"lon":5.37168,"is_reserved":false,"is_disabled":true,"rental_uris":{"android":"levelo://app?vid=ccf95bcc-c6df-4bd6-86e7-91784ca96b15","ios":"levelo://app?vid=ccf95bcc-c6df-4bd6-86e7-91784ca96b15"},"vehicle_type_id":"4","last_reported":1752484708,"current_range_meters":18800,"station_id":"ce4bgr92rcd13ifvqc7g","pricing_plan_id":"cebpf4jnsgd1na2vs0mg"},{"bike_id":"c3eb31c9-e106-4cd2-bb91-f2d0ee3e7a6f","system_id":"levelo_inurba_marseille","lat":43.24023,"lon":5.36244,"is_reserved":false,"is_disabled":false,"rental_uris":{"android":"levelo://app?vid=c3eb31c9-e106-4cd2-bb91-f2d0ee3e7a6f","ios":"levelo://app?vid=c3eb31c9-e106-4cd2-bb91-f2d0ee3e7a6f"},"vehicle_type_id":"4","last_reported":1752484708,"current_range_meters":18800,"station_id":"","pricing_plan_id":"cebpf4jnsgd1na2vs0mg"},{"bike_id":"7793d338-95ee-4f85-a19f-7bcc62e8f39c","system_id":"levelo_inurba_marseille","lat":43.30141,"lon":5.37418,"is_reserved":false,"is_disabled":false,"rental_uris":{"android":"levelo://app?vid=7793d338-95ee-4f85-a19f-7bcc62e8f39c","ios":"levelo://app?vid=7793d338-95ee-4f85-a19f-7bcc62e8f39c"},"vehicle_type_id":"4","last_reported":1752484708,"current_range_meters":18800,"station_id":"ce4bgs92rcd13ifvqcc0","pricing_plan_id":"cebpf4jnsgd1na2vs0mg"},{"bike_id":"c3d311ea-1bbd-4c30-bbc0-89bb57769889","system_id":"levelo_inurba_marseille","lat":43.29622,"lon":5.3772,"is_reserved":false,"is_disabled":false,"rental_uris":{"android":"levelo://app?vid=c3d311ea-1bbd-4c30-bbc0-89bb57769889","ios":"levelo://app?vid=c3d311ea-1bbd-4c30-bbc0-89bb57769889"},"vehicle_type_id":"4","last_reported":1752484708,"current_range_meters":19200,"station_id":"ce4bgi92rcd13ifvqb90","pricing_plan_id":"cebpf4jnsgd1na2vs0mg"},{"bike_id":"f2e49c32-f10c-4e91-93ab-4ab9167f079f","system_id":"levelo_inurba_marseille","lat":43.26049,"lon":5.39385,"is_reserved":false,"is_disabled":false,"rental_uris":{"android":"levelo://app?vid=f2e49c32-f10c-4e91-93ab-4ab9167f079f","ios":"levelo://app?vid=f2e49c32-f10c-4e91-93ab-4ab9167f079f"},"vehicle_type_id":"4","last_reported":1752484708,"current_range_meters":19200,"station_id":"ce4bhh92rcd13ifvqfj0","pricing_plan_id":"cebpf4jnsgd1na2vs0mg"},{"bike_id":"7cd861ea-9075-47f2-9deb-2015aa500b74","system_id":"levelo_inurba_marseille","lat":43.299715,"lon":5.384742,"is_reserved":false,"is_disabled":true,"rental_uris":{"android":"levelo://app?vid=7cd861ea-9075-47f2-9deb-2015aa500b74","ios":"levelo://app?vid=7cd861ea-9075-47f2-9deb-2015aa500b74"},"vehicle_type_id":"4","last_reported":1752484708,"current_range_meters":19200,"station_id":"","pricing_plan_id":"cebpf4jnsgd1na2vs0mg"},{"bike_id":"0f6e2d1e-1402-4217-bd46-d4dccc77d350","system_id":"levelo_inurba_marseille","lat":43.29283,"lon":5.36607,"is_reserved":false,"is_disabled":true,"rental_uris":{"android":"levelo://app?vid=0f6e2d1e-1402-4217-bd46-d4dccc77d350","ios":"levelo://app?vid=0f6e2d1e-1402-4217-bd46-d4dccc77d350"},"vehicle_type_id":"4","last_reported":1752484708,"current_range_meters":19200,"station_id":"","pricing_plan_id":"cebpf4jnsgd1na2vs0mg"},{"bike_id":"2ab7d655-face-469d-b1de-b3156f48f484","system_id":"levelo_inurba_marseille","lat":43.280003,"lon":5.416747,"is_reserved":false,"is_disabled":false,"rental_uris":{"android":"levelo://app?vid=2ab7d655-face-469d-b1de-b3156f48f484","ios":"levelo://app?vid=2ab7d655-face-469d-b1de-b3156f48f484"},"vehicle_type_id":"4","last_reported":1752484708,"current_range_meters":19200,"station_id":"ce4bho12rcd13ifvqh1g","pricing_plan_id":"cebpf4jnsgd1na2vs0mg"},{"bike_id":"7eaeb775-7c92-4f38-9d5e-21c9e06595c4","system_id":"levelo_inurba_marseille","lat":43.240748,"lon":5.37752,"is_reserved":false,"is_disabled":false,"rental_uris":{"android":"levelo://app?vid=7eaeb775-7c92-4f38-9d5e-21c9e06595c4","ios":"levelo://app?vid=7eaeb775-7c92-4f38-9d5e-21c9e06595c4"},"vehicle_type_id":"4","last_reported":1752484708,"current_range_meters":19200,"station_id":"ce4bhnp2rcd13ifvqgvg","pricing_plan_id":"cebpf4jnsgd1na2vs0mg"},{"bike_id":"360e9dac-cdac-42dd-95dc-7a51e0271c0a","system_id":"levelo_inurba_marseille","lat":43.28615,"lon":5.35108,"is_reserved":false,"is_disabled":false,"rental_uris":{"android":"levelo://app?vid=360e9dac-cdac-42dd-95dc-7a51e0271c0a","ios":"levelo://app?vid=360e9dac-cdac-42dd-95dc-7a51e0271c0a"},"vehicle_type_id":"4","last_reported":1752484708,"current_range_meters":19200,"station_id":"ce4bhch2rcd13ifvqeug","pricing_plan_id":"cebpf4jnsgd1na2vs0mg"},{"bike_id":"c3e1b753-70e0-4809-adbe-54fffe591976","system_id":"levelo_inurba_marseille","lat":43.28419,"lon":5.34981,"is_reserved":false,"is_disabled":false,"rental_uris":{"android":"levelo://app?vid=c3e1b753-70e0-4809-adbe-54fffe591976","ios":"levelo://app?vid=c3e1b753-70e0-4809-adbe-54fffe591976"},"vehicle_type_id":"4","last_reported":1752484708,"current_range_meters":19200,"station_id":"ce4bhbh2rcd13ifvqepg","pricing_plan_id":"cebpf4jnsgd1na2vs0mg"},{"bike_id":"d7345bd6-482c-45c1-a31f-8da9edb02a99","system_id":"levelo_inurba_marseille","lat":43.315397,"lon":5.38027,"is_reserved":false,"is_disabled":false,"rental_uris":{"android":"levelo://app?vid=d7345bd6-482c-45c1-a31f-8da9edb02a99","ios":"levelo://app?vid=d7345bd6-482c-45c1-a31f-8da9edb02a99"},"vehicle_type_id":"4","last_reported":1752484708,"current_range_meters":19200,"station_id":"ce4bhsp2rcd13ifvqi50","pricing_plan_id":"cebpf4jnsgd1na2vs0mg"},{"bike_id":"1aaa7e29-8268-4a68-b982-06e4cb580b86","system_id":"levelo_inurba_marseille","lat":43.33613,"lon":5.41038,"is_reserved":false,"is_disabled":false,"rental_uris":{"android":"levelo://app?vid=1aaa7e29-8268-4a68-b982-06e4cb580b86","ios":"levelo://app?vid=1aaa7e29-8268-4a68-b982-06e4cb580b86"},"vehicle_type_id":"4","last_reported":1752484708,"current_range_meters":19200,"station_id":"ce4bhqh2rcd13ifvqhmg","pricing_plan_id":"cebpf4jnsgd1na2vs0mg"},{"bike_id":"6d759733-8785-4e8a-bb14-bad01a7758f4","system_id":"levelo_inurba_marseille","lat":43.25725,"lon":5.41126,"is_reserved":false,"is_disabled":false,"rental_uris":{"android":"levelo://app?vid=6d759733-8785-4e8a-bb14-bad01a7758f4","ios":"levelo://app?vid=6d759733-8785-4e8a-bb14-bad01a7758f4"},"vehicle_type_id":"4","last_reported":1752484708,"current_range_meters":19600,"station_id":"ce4bhkp2rcd13ifvqgd0","pricing_plan_id":"cebpf4jnsgd1na2vs0mg"},{"bike_id":"b240e759-208a-4da0-84b3-070a79f0b6c0","system_id":"levelo_inurba_marseille","lat":43.25117,"lon":5.403139,"is_reserved":false,"is_disabled":false,"rental_uris":{"android":"levelo://app?vid=b240e759-208a-4da0-84b3-070a79f0b6c0","ios":"levelo://app?vid=b240e759-208a-4da0-84b3-070a79f0b6c0"},"vehicle_type_id":"4","last_reported":1752484708,"current_range_meters":19600,"station_id":"ce4bhlh2rcd13ifvqgig","pricing_plan_id":"cebpf4jnsgd1na2vs0mg"},{"bike_id":"d7159adf-94a3-498c-948b-458c9b026277","system_id":"levelo_inurba_marseille","lat":43.22509,"lon":5.34773,"is_reserved":false,"is_disabled":false,"rental_uris":{"android":"levelo://app?vid=d7159adf-94a3-498c-948b-458c9b026277","ios":"levelo://app?vid=d7159adf-94a3-498c-948b-458c9b026277"},"vehicle_type_id":"4","last_reported":1752484708,"current_range_meters":19600,"station_id":"","pricing_plan_id":"cebpf4jnsgd1na2vs0mg"},{"bike_id":"62936865-b560-4edf-91f6-dc3cbff51cec","system_id":"levelo_inurba_marseille","lat":43.272426,"lon":5.36263,"is_reserved":false,"is_disabled":false,"rental_uris":{"android":"levelo://app?vid=62936865-b560-4edf-91f6-dc3cbff51cec","ios":"levelo://app?vid=62936865-b560-4edf-91f6-dc3cbff51cec"},"vehicle_type_id":"4","last_reported":1752484708,"current_range_meters":19600,"station_id":"","pricing_plan_id":"cebpf4jnsgd1na2vs0mg"},{"bike_id":"09a93a64-fbb1-49a9-be1f-f86a34310e71","system_id":"levelo_inurba_marseille","lat":43.211936,"lon":5.350719,"is_reserved":false,"is_disabled":false,"rental_uris":{"android":"levelo://app?vid=09a93a64-fbb1-49a9-be1f-f86a34310e71","ios":"levelo://app?vid=09a93a64-fbb1-49a9-be1f-f86a34310e71"},"vehicle_type_id":"4","last_reported":1752484708,"current_range_meters":19600,"station_id":"st_cvj6sg6p6f1abm77japg","pricing_plan_id":"cebpf4jnsgd1na2vs0mg"},{"bike_id":"5b8c7ab1-f6fb-416d-a41f-0535f2b5b4d0","system_id":"levelo_inurba_marseille","lat":43.26214,"lon":5.37437,"is_reserved":false,"is_disabled":false,"rental_uris":{"android":"levelo://app?vid=5b8c7ab1-f6fb-416d-a41f-0535f2b5b4d0","ios":"levelo://app?vid=5b8c7ab1-f6fb-416d-a41f-0535f2b5b4d0"},"vehicle_type_id":"4","last_reported":1752484708,"current_range_meters":20000,"station_id":"ce4bhgp2rcd13ifvqfc0","pricing_plan_id":"cebpf4jnsgd1na2vs0mg"},{"bike_id":"c721e394-5d5d-4900-9e11-2bd1a6cf3eea","system_id":"levelo_inurba_marseille","lat":43.25089,"lon":5.40342,"is_reserved":false,"is_disabled":false,"rental_uris":{"android":"levelo://app?vid=c721e394-5d5d-4900-9e11-2bd1a6cf3eea","ios":"levelo://app?vid=c721e394-5d5d-4900-9e11-2bd1a6cf3eea"},"vehicle_type_id":"4","last_reported":1752484708,"current_range_meters":20000,"station_id":"ce4bhlh2rcd13ifvqgig","pricing_plan_id":"cebpf4jnsgd1na2vs0mg"},{"bike_id":"0196692f-9dd4-4f43-ab4a-8a90a506eba0","system_id":"levelo_inurba_marseille","lat":43.292634,"lon":5.384339,"is_reserved":false,"is_disabled":false,"rental_uris":{"android":"levelo://app?vid=0196692f-9dd4-4f43-ab4a-8a90a506eba0","ios":"levelo://app?vid=0196692f-9dd4-4f43-ab4a-8a90a506eba0"},"vehicle_type_id":"4","last_reported":1752484708,"current_range_meters":20000,"station_id":"","pricing_plan_id":"cebpf4jnsgd1na2vs0mg"},{"bike_id":"b6d21ae6-cd0a-41f0-8ea5-6d51267f4b48","system_id":"levelo_inurba_marseille","lat":43.32375,"lon":5.38884,"is_reserved":false,"is_disabled":false,"rental_uris":{"android":"levelo://app?vid=b6d21ae6-cd0a-41f0-8ea5-6d51267f4b48","ios":"levelo://app?vid=b6d21ae6-cd0a-41f0-8ea5-6d51267f4b48"},"vehicle_type_id":"4","last_reported":1752484708,"current_range_meters":20000,"station_id":"ce4bhqp2rcd13ifvqhog","pricing_plan_id":"cebpf4jnsgd1na2vs0mg"},{"bike_id":"babe5762-fedf-4cf6-9d2f-d3d3bdc6c315","system_id":"levelo_inurba_marseille","lat":43.292536,"lon":5.384474,"is_reserved":false,"is_disabled":false,"rental_uris":{"android":"levelo://app?vid=babe5762-fedf-4cf6-9d2f-d3d3bdc6c315","ios":"levelo://app?vid=babe5762-fedf-4cf6-9d2f-d3d3bdc6c315"},"vehicle_type_id":"4","last_reported":1752484708,"current_range_meters":20000,"station_id":"ce4bh692rcd13ifvqea0","pricing_plan_id":"cebpf4jnsgd1na2vs0mg"},{"bike_id":"28a0d5c9-af70-4194-8b1e-e42c84fb2c50","system_id":"levelo_inurba_marseille","lat":43.292624,"lon":5.40916,"is_reserved":false,"is_disabled":false,"rental_uris":{"android":"levelo://app?vid=28a0d5c9-af70-4194-8b1e-e42c84fb2c50","ios":"levelo://app?vid=28a0d5c9-af70-4194-8b1e-e42c84fb2c50"},"vehicle_type_id":"4","last_reported":1752484708,"current_range_meters":20000,"station_id":"","pricing_plan_id":"cebpf4jnsgd1na2vs0mg"},{"bike_id":"9c39830b-ce85-4249-8871-2a47f21d4c8a","system_id":"levelo_inurba_marseille","lat":43.314788,"lon":5.373048,"is_reserved":false,"is_disabled":false,"rental_uris":{"android":"levelo://app?vid=9c39830b-ce85-4249-8871-2a47f21d4c8a","ios":"levelo://app?vid=9c39830b-ce85-4249-8871-2a47f21d4c8a"},"vehicle_type_id":"4","last_reported":1752484708,"current_range_meters":20000,"station_id":"ce4bgt12rcd13ifvqcd0","pricing_plan_id":"cebpf4jnsgd1na2vs0mg"},{"bike_id":"de3c7479-ad03-448f-a78e-88898eddd51a","system_id":"levelo_inurba_marseille","lat":43.32958,"lon":5.39742,"is_reserved":false,"is_disabled":false,"rental_uris":{"android":"levelo://app?vid=de3c7479-ad03-448f-a78e-88898eddd51a","ios":"levelo://app?vid=de3c7479-ad03-448f-a78e-88898eddd51a"},"vehicle_type_id":"4","last_reported":1752484708,"current_range_meters":20400,"station_id":"","pricing_plan_id":"cebpf4jnsgd1na2vs0mg"},{"bike_id":"903197e4-3da2-471b-9537-d88bae7e31c4","system_id":"levelo_inurba_marseille","lat":43.26484,"lon":5.39543,"is_reserved":false,"is_disabled":true,"rental_uris":{"android":"levelo://app?vid=903197e4-3da2-471b-9537-d88bae7e31c4","ios":"levelo://app?vid=903197e4-3da2-471b-9537-d88bae7e31c4"},"vehicle_type_id":"4","last_reported":1752484708,"current_range_meters":20400,"station_id":"ce4bhi12rcd13ifvqfq0","pricing_plan_id":"cebpf4jnsgd1na2vs0mg"},{"bike_id":"4852acc5-0cd4-4ac5-bd4c-3f245414b4fd","system_id":"levelo_inurba_marseille","lat":43.21195,"lon":5.35104,"is_reserved":false,"is_disabled":false,"rental_uris":{"android":"levelo://app?vid=4852acc5-0cd4-4ac5-bd4c-3f245414b4fd","ios":"levelo://app?vid=4852acc5-0cd4-4ac5-bd4c-3f245414b4fd"},"vehicle_type_id":"4","last_reported":1752484708,"current_range_meters":20400,"station_id":"st_cvj6sg6p6f1abm77japg","pricing_plan_id":"cebpf4jnsgd1na2vs0mg"},{"bike_id":"a7a99eea-be7d-4e82-bd62-17471838aa1b","system_id":"levelo_inurba_marseille","lat":43.259353,"lon":5.408946,"is_reserved":false,"is_disabled":false,"rental_uris":{"android":"levelo://app?vid=a7a99eea-be7d-4e82-bd62-17471838aa1b","ios":"levelo://app?vid=a7a99eea-be7d-4e82-bd62-17471838aa1b"},"vehicle_type_id":"4","last_reported":1752484708,"current_range_meters":20400,"station_id":"ce4bhm92rcd13ifvqglg","pricing_plan_id":"cebpf4jnsgd1na2vs0mg"},{"bike_id":"be2b2736-1c67-42bc-9491-564413c4b6bc","system_id":"levelo_inurba_marseille","lat":43.26924,"lon":5.40275,"is_reserved":false,"is_disabled":false,"rental_uris":{"android":"levelo://app?vid=be2b2736-1c67-42bc-9491-564413c4b6bc","ios":"levelo://app?vid=be2b2736-1c67-42bc-9491-564413c4b6bc"},"vehicle_type_id":"4","last_reported":1752484708,"current_range_meters":20400,"station_id":"cjm6bp8fraef2m0cb0m0","pricing_plan_id":"cebpf4jnsgd1na2vs0mg"},{"bike_id":"d4a35763-cd68-4119-93e5-ee92dbacf514","system_id":"levelo_inurba_marseille","lat":43.31707,"lon":5.40458,"is_reserved":false,"is_disabled":false,"rental_uris":{"android":"levelo://app?vid=d4a35763-cd68-4119-93e5-ee92dbacf514","ios":"levelo://app?vid=d4a35763-cd68-4119-93e5-ee92dbacf514"},"vehicle_type_id":"4","last_reported":1752484708,"current_range_meters":20400,"station_id":"ce4bh012rcd13ifvqd00","pricing_plan_id":"cebpf4jnsgd1na2vs0mg"},{"bike_id":"f8e08a0b-9785-41dc-861f-64465e1a97db","system_id":"levelo_inurba_marseille","lat":43.28425,"lon":5.37519,"is_reserved":false,"is_disabled":false,"rental_uris":{"android":"levelo://app?vid=f8e08a0b-9785-41dc-861f-64465e1a97db","ios":"levelo://app?vid=f8e08a0b-9785-41dc-861f-64465e1a97db"},"vehicle_type_id":"4","last_reported":1752484708,"current_range_meters":20400,"station_id":"ce4bh412rcd13ifvqds0","pricing_plan_id":"cebpf4jnsgd1na2vs0mg"},{"bike_id":"ed3a226b-4ec7-465a-b998-9c1369112c1f","system_id":"levelo_inurba_marseille","lat":43.23151,"lon":5.43704,"is_reserved":false,"is_disabled":false,"rental_uris":{"android":"levelo://app?vid=ed3a226b-4ec7-465a-b998-9c1369112c1f","ios":"levelo://app?vid=ed3a226b-4ec7-465a-b998-9c1369112c1f"},"vehicle_type_id":"4","last_reported":1752484708,"current_range_meters":20400,"station_id":"ce4bhmp2rcd13ifvqgog","pricing_plan_id":"cebpf4jnsgd1na2vs0mg"},{"bike_id":"b6dcbc03-f603-412f-a5fc-876a2d57ebd0","system_id":"levelo_inurba_marseille","lat":43.24178,"lon":5.39735,"is_reserved":false,"is_disabled":false,"rental_uris":{"android":"levelo://app?vid=b6dcbc03-f603-412f-a5fc-876a2d57ebd0","ios":"levelo://app?vid=b6dcbc03-f603-412f-a5fc-876a2d57ebd0"},"vehicle_type_id":"4","last_reported":1752484708,"current_range_meters":20400,"station_id":"ce4bhn12rcd13ifvqgpg","pricing_plan_id":"cebpf4jnsgd1na2vs0mg"},{"bike_id":"658f50e6-1337-4390-a6cd-952305396a2b","system_id":"levelo_inurba_marseille","lat":43.28414,"lon":5.34984,"is_reserved":false,"is_disabled":false,"rental_uris":{"android":"levelo://app?vid=658f50e6-1337-4390-a6cd-952305396a2b","ios":"levelo://app?vid=658f50e6-1337-4390-a6cd-952305396a2b"},"vehicle_type_id":"4","last_reported":1752484708,"current_range_meters":20800,"station_id":"ce4bhbh2rcd13ifvqepg","pricing_plan_id":"cebpf4jnsgd1na2vs0mg"},{"bike_id":"7344a727-b91f-481e-b08a-0f3465e83901","system_id":"levelo_inurba_marseille","lat":43.27686,"lon":5.41681,"is_reserved":false,"is_disabled":false,"rental_uris":{"android":"levelo://app?vid=7344a727-b91f-481e-b08a-0f3465e83901","ios":"levelo://app?vid=7344a727-b91f-481e-b08a-0f3465e83901"},"vehicle_type_id":"4","last_reported":1752484708,"current_range_meters":20800,"station_id":"","pricing_plan_id":"cebpf4jnsgd1na2vs0mg"},{"bike_id":"489e603b-6303-4c5a-a3da-d47c39cd6b15","system_id":"levelo_inurba_marseille","lat":43.24738,"lon":5.37405,"is_reserved":false,"is_disabled":false,"rental_uris":{"android":"levelo://app?vid=489e603b-6303-4c5a-a3da-d47c39cd6b15","ios":"levelo://app?vid=489e603b-6303-4c5a-a3da-d47c39cd6b15"},"vehicle_type_id":"4","last_reported":1752484708,"current_range_meters":20800,"station_id":"","pricing_plan_id":"cebpf4jnsgd1na2vs0mg"},{"bike_id":"57e65e27-7542-4c21-8ba1-cece6c6890fa","system_id":"levelo_inurba_marseille","lat":43.30362,"lon":5.40449,"is_reserved":false,"is_disabled":false,"rental_uris":{"android":"levelo://app?vid=57e65e27-7542-4c21-8ba1-cece6c6890fa","ios":"levelo://app?vid=57e65e27-7542-4c21-8ba1-cece6c6890fa"},"vehicle_type_id":"4","last_reported":1752484708,"current_range_meters":20800,"station_id":"ce4bh012rcd13ifvqd10","pricing_plan_id":"cebpf4jnsgd1na2vs0mg"},{"bike_id":"b1158bc5-1de7-463b-b2c1-1d87c9d2ed36","system_id":"levelo_inurba_marseille","lat":43.27959,"lon":5.3878,"is_reserved":false,"is_disabled":true,"rental_uris":{"android":"levelo://app?vid=b1158bc5-1de7-463b-b2c1-1d87c9d2ed36","ios":"levelo://app?vid=b1158bc5-1de7-463b-b2c1-1d87c9d2ed36"},"vehicle_type_id":"4","last_reported":1752484708,"current_range_meters":20400,"station_id":"ce4bhg12rcd13ifvqf80","pricing_plan_id":"cebpf4jnsgd1na2vs0mg"},{"bike_id":"4996935f-7751-445b-b56b-2f7d8aee605e","system_id":"levelo_inurba_marseille","lat":43.27376,"lon":5.36254,"is_reserved":false,"is_disabled":false,"rental_uris":{"android":"levelo://app?vid=4996935f-7751-445b-b56b-2f7d8aee605e","ios":"levelo://app?vid=4996935f-7751-445b-b56b-2f7d8aee605e"},"vehicle_type_id":"4","last_reported":1752484708,"current_range_meters":20800,"station_id":"ce4bhbh2rcd13ifvqeo0","pricing_plan_id":"cebpf4jnsgd1na2vs0mg"},{"bike_id":"70e99ac6-c5f8-4a24-b517-2afb9240895c","system_id":"levelo_inurba_marseille","lat":43.24174,"lon":5.397043,"is_reserved":false,"is_disabled":false,"rental_uris":{"android":"levelo://app?vid=70e99ac6-c5f8-4a24-b517-2afb9240895c","ios":"levelo://app?vid=70e99ac6-c5f8-4a24-b517-2afb9240895c"},"vehicle_type_id":"4","last_reported":1752484708,"current_range_meters":20800,"station_id":"ce4bhn12rcd13ifvqgpg","pricing_plan_id":"cebpf4jnsgd1na2vs0mg"},{"bike_id":"77cf3f78-1a2b-4c70-bf5f-3659c51dd623","system_id":"levelo_inurba_marseille","lat":43.27064,"lon":5.40249,"is_reserved":false,"is_disabled":false,"rental_uris":{"android":"levelo://app?vid=77cf3f78-1a2b-4c70-bf5f-3659c51dd623","ios":"levelo://app?vid=77cf3f78-1a2b-4c70-bf5f-3659c51dd623"},"vehicle_type_id":"4","last_reported":1752484708,"current_range_meters":20800,"station_id":"ce4bhk92rcd13ifvqgc0","pricing_plan_id":"cebpf4jnsgd1na2vs0mg"},{"bike_id":"ae635687-0768-4b12-bf2f-267a5d509b33","system_id":"levelo_inurba_marseille","lat":43.29223,"lon":5.36069,"is_reserved":false,"is_disabled":false,"rental_uris":{"android":"levelo://app?vid=ae635687-0768-4b12-bf2f-267a5d509b33","ios":"levelo://app?vid=ae635687-0768-4b12-bf2f-267a5d509b33"},"vehicle_type_id":"4","last_reported":1752484708,"current_range_meters":20800,"station_id":"ce4bhbh2rcd13ifvqeqg","pricing_plan_id":"cebpf4jnsgd1na2vs0mg"},{"bike_id":"273482ea-31e6-4ab8-8324-145476285d04","system_id":"levelo_inurba_marseille","lat":43.30897,"lon":5.37189,"is_reserved":false,"is_disabled":false,"rental_uris":{"android":"levelo://app?vid=273482ea-31e6-4ab8-8324-145476285d04","ios":"levelo://app?vid=273482ea-31e6-4ab8-8324-145476285d04"},"vehicle_type_id":"4","last_reported":1752484708,"current_range_meters":21600,"station_id":"ce4bguh2rcd13ifvqckg","pricing_plan_id":"cebpf4jnsgd1na2vs0mg"},{"bike_id":"4e71ffc4-8dbc-4932-9548-54c84e5f0512","system_id":"levelo_inurba_marseille","lat":43.26059,"lon":5.39396,"is_reserved":false,"is_disabled":false,"rental_uris":{"android":"levelo://app?vid=4e71ffc4-8dbc-4932-9548-54c84e5f0512","ios":"levelo://app?vid=4e71ffc4-8dbc-4932-9548-54c84e5f0512"},"vehicle_type_id":"4","last_reported":1752484708,"current_range_meters":21600,"station_id":"ce4bhh92rcd13ifvqfj0","pricing_plan_id":"cebpf4jnsgd1na2vs0mg"},{"bike_id":"18c1f988-2144-4ca0-9922-2654b2d9091d","system_id":"levelo_inurba_marseille","lat":43.296728,"lon":5.366342,"is_reserved":false,"is_disabled":false,"rental_uris":{"android":"levelo://app?vid=18c1f988-2144-4ca0-9922-2654b2d9091d","ios":"levelo://app?vid=18c1f988-2144-4ca0-9922-2654b2d9091d"},"vehicle_type_id":"4","last_reported":1752484708,"current_range_meters":21600,"station_id":"ce4bgn12rcd13ifvqbt0","pricing_plan_id":"cebpf4jnsgd1na2vs0mg"},{"bike_id":"8aec406c-ffed-4c5b-a4bf-bf08b89f35e1","system_id":"levelo_inurba_marseille","lat":43.29717,"lon":5.36581,"is_reserved":false,"is_disabled":false,"rental_uris":{"android":"levelo://app?vid=8aec406c-ffed-4c5b-a4bf-bf08b89f35e1","ios":"levelo://app?vid=8aec406c-ffed-4c5b-a4bf-bf08b89f35e1"},"vehicle_type_id":"4","last_reported":1752484708,"current_range_meters":22000,"station_id":"ce4bgn12rcd13ifvqbt0","pricing_plan_id":"cebpf4jnsgd1na2vs0mg"},{"bike_id":"8d5ce25f-d12f-4826-9e51-72d41cab5d9b","system_id":"levelo_inurba_marseille","lat":43.29309,"lon":5.37449,"is_reserved":false,"is_disabled":false,"rental_uris":{"android":"levelo://app?vid=8d5ce25f-d12f-4826-9e51-72d41cab5d9b","ios":"levelo://app?vid=8d5ce25f-d12f-4826-9e51-72d41cab5d9b"},"vehicle_type_id":"4","last_reported":1752484708,"current_range_meters":21600,"station_id":"ce4bgi12rcd13ifvqb70","pricing_plan_id":"cebpf4jnsgd1na2vs0mg"},{"bike_id":"b899f22e-5828-4407-bcf7-8129df4150d0","system_id":"levelo_inurba_marseille","lat":43.315375,"lon":5.380262,"is_reserved":false,"is_disabled":false,"rental_uris":{"android":"levelo://app?vid=b899f22e-5828-4407-bcf7-8129df4150d0","ios":"levelo://app?vid=b899f22e-5828-4407-bcf7-8129df4150d0"},"vehicle_type_id":"4","last_reported":1752484708,"current_range_meters":21600,"station_id":"ce4bhsp2rcd13ifvqi50","pricing_plan_id":"cebpf4jnsgd1na2vs0mg"},{"bike_id":"a39ce3d0-af82-4a6e-98f2-a132cbb0bc50","system_id":"levelo_inurba_marseille","lat":43.29896,"lon":5.43668,"is_reserved":false,"is_disabled":false,"rental_uris":{"android":"levelo://app?vid=a39ce3d0-af82-4a6e-98f2-a132cbb0bc50","ios":"levelo://app?vid=a39ce3d0-af82-4a6e-98f2-a132cbb0bc50"},"vehicle_type_id":"4","last_reported":1752484708,"current_range_meters":22000,"station_id":"ce4bhpp2rcd13ifvqhfg","pricing_plan_id":"cebpf4jnsgd1na2vs0mg"},{"bike_id":"9acc9a93-612a-45e9-ad2c-6e81e8832947","system_id":"levelo_inurba_marseille","lat":43.21743,"lon":5.34615,"is_reserved":false,"is_disabled":false,"rental_uris":{"android":"levelo://app?vid=9acc9a93-612a-45e9-ad2c-6e81e8832947","ios":"levelo://app?vid=9acc9a93-612a-45e9-ad2c-6e81e8832947"},"vehicle_type_id":"4","last_reported":1752484708,"current_range_meters":22000,"station_id":"","pricing_plan_id":"cebpf4jnsgd1na2vs0mg"},{"bike_id":"05cf78c7-46eb-4147-99a5-1d8a71f880d3","system_id":"levelo_inurba_marseille","lat":43.30952,"lon":5.39042,"is_reserved":false,"is_disabled":false,"rental_uris":{"android":"levelo://app?vid=05cf78c7-46eb-4147-99a5-1d8a71f880d3","ios":"levelo://app?vid=05cf78c7-46eb-4147-99a5-1d8a71f880d3"},"vehicle_type_id":"4","last_reported":1752484708,"current_range_meters":21600,"station_id":"ce4bgup2rcd13ifvqco0","pricing_plan_id":"cebpf4jnsgd1na2vs0mg"},{"bike_id":"86c67b7d-2543-41c1-9be9-7026f729fdc6","system_id":"levelo_inurba_marseille","lat":43.3172,"lon":5.42417,"is_reserved":false,"is_disabled":false,"rental_uris":{"android":"levelo://app?vid=86c67b7d-2543-41c1-9be9-7026f729fdc6","ios":"levelo://app?vid=86c67b7d-2543-41c1-9be9-7026f729fdc6"},"vehicle_type_id":"4","last_reported":1752484708,"current_range_meters":22000,"station_id":"ce4bhp92rcd13ifvqhbg","pricing_plan_id":"cebpf4jnsgd1na2vs0mg"},{"bike_id":"0d7d62c5-1739-465c-8189-69a915708ab1","system_id":"levelo_inurba_marseille","lat":43.29883,"lon":5.43645,"is_reserved":false,"is_disabled":false,"rental_uris":{"android":"levelo://app?vid=0d7d62c5-1739-465c-8189-69a915708ab1","ios":"levelo://app?vid=0d7d62c5-1739-465c-8189-69a915708ab1"},"vehicle_type_id":"4","last_reported":1752484708,"current_range_meters":22400,"station_id":"ce4bhpp2rcd13ifvqhfg","pricing_plan_id":"cebpf4jnsgd1na2vs0mg"},{"bike_id":"5037592d-7321-4b10-a5fe-461e1a053b0e","system_id":"levelo_inurba_marseille","lat":43.28849,"lon":5.39298,"is_reserved":false,"is_disabled":false,"rental_uris":{"android":"levelo://app?vid=5037592d-7321-4b10-a5fe-461e1a053b0e","ios":"levelo://app?vid=5037592d-7321-4b10-a5fe-461e1a053b0e"},"vehicle_type_id":"4","last_reported":1752484708,"current_range_meters":22000,"station_id":"ce4bh2p2rcd13ifvqdi0","pricing_plan_id":"cebpf4jnsgd1na2vs0mg"},{"bike_id":"7c9dd713-4a18-42e3-96d2-69c4b14de4e4","system_id":"levelo_inurba_marseille","lat":43.29732,"lon":5.37702,"is_reserved":false,"is_disabled":false,"rental_uris":{"android":"levelo://app?vid=7c9dd713-4a18-42e3-96d2-69c4b14de4e4","ios":"levelo://app?vid=7c9dd713-4a18-42e3-96d2-69c4b14de4e4"},"vehicle_type_id":"4","last_reported":1752484708,"current_range_meters":22400,"station_id":"ce4bgkh2rcd13ifvqbl0","pricing_plan_id":"cebpf4jnsgd1na2vs0mg"},{"bike_id":"207f14e4-e932-48cd-b580-896fad164148","system_id":"levelo_inurba_marseille","lat":43.26209,"lon":5.37441,"is_reserved":false,"is_disabled":false,"rental_uris":{"android":"levelo://app?vid=207f14e4-e932-48cd-b580-896fad164148","ios":"levelo://app?vid=207f14e4-e932-48cd-b580-896fad164148"},"vehicle_type_id":"4","last_reported":1752484708,"current_range_meters":22400,"station_id":"ce4bhgp2rcd13ifvqfc0","pricing_plan_id":"cebpf4jnsgd1na2vs0mg"},{"bike_id":"cad04688-3672-495a-a95b-97ccd3c56550","system_id":"levelo_inurba_marseille","lat":43.29275,"lon":5.3844,"is_reserved":false,"is_disabled":false,"rental_uris":{"android":"levelo://app?vid=cad04688-3672-495a-a95b-97ccd3c56550","ios":"levelo://app?vid=cad04688-3672-495a-a95b-97ccd3c56550"},"vehicle_type_id":"4","last_reported":1752484708,"current_range_meters":22400,"station_id":"ce4bh692rcd13ifvqea0","pricing_plan_id":"cebpf4jnsgd1na2vs0mg"},{"bike_id":"b0d25ced-3b13-4fff-99ce-49ff71cddc9d","system_id":"levelo_inurba_marseille","lat":43.28487,"lon":5.38417,"is_reserved":false,"is_disabled":false,"rental_uris":{"android":"levelo://app?vid=b0d25ced-3b13-4fff-99ce-49ff71cddc9d","ios":"levelo://app?vid=b0d25ced-3b13-4fff-99ce-49ff71cddc9d"},"vehicle_type_id":"4","last_reported":1752484708,"current_range_meters":22400,"station_id":"ce4bh512rcd13ifvqe3g","pricing_plan_id":"cebpf4jnsgd1na2vs0mg"},{"bike_id":"8fc15437-905b-4a26-a508-d32c4625959c","system_id":"levelo_inurba_marseille","lat":43.27992,"lon":5.41666,"is_reserved":false,"is_disabled":false,"rental_uris":{"android":"levelo://app?vid=8fc15437-905b-4a26-a508-d32c4625959c","ios":"levelo://app?vid=8fc15437-905b-4a26-a508-d32c4625959c"},"vehicle_type_id":"4","last_reported":1752484708,"current_range_meters":22400,"station_id":"ce4bho12rcd13ifvqh1g","pricing_plan_id":"cebpf4jnsgd1na2vs0mg"},{"bike_id":"c599d0e6-4f14-4281-a1fd-b8b1bb66057b","system_id":"levelo_inurba_marseille","lat":43.32104,"lon":5.36802,"is_reserved":false,"is_disabled":false,"rental_uris":{"android":"levelo://app?vid=c599d0e6-4f14-4281-a1fd-b8b1bb66057b","ios":"levelo://app?vid=c599d0e6-4f14-4281-a1fd-b8b1bb66057b"},"vehicle_type_id":"4","last_reported":1752484708,"current_range_meters":22800,"station_id":"ce4bhrh2rcd13ifvqhug","pricing_plan_id":"cebpf4jnsgd1na2vs0mg"},{"bike_id":"c5d0d411-91f8-4398-8d24-a5ad70d16364","system_id":"levelo_inurba_marseille","lat":43.217439,"lon":5.346045,"is_reserved":false,"is_disabled":false,"rental_uris":{"android":"levelo://app?vid=c5d0d411-91f8-4398-8d24-a5ad70d16364","ios":"levelo://app?vid=c5d0d411-91f8-4398-8d24-a5ad70d16364"},"vehicle_type_id":"4","last_reported":1752484708,"current_range_meters":22800,"station_id":"st_cvj6r9ubvosntc0bgbag","pricing_plan_id":"cebpf4jnsgd1na2vs0mg"},{"bike_id":"478492f0-c815-4b8c-bec6-e0ed015fbdaf","system_id":"levelo_inurba_marseille","lat":43.211919,"lon":5.350688,"is_reserved":false,"is_disabled":false,"rental_uris":{"android":"levelo://app?vid=478492f0-c815-4b8c-bec6-e0ed015fbdaf","ios":"levelo://app?vid=478492f0-c815-4b8c-bec6-e0ed015fbdaf"},"vehicle_type_id":"4","last_reported":1752484708,"current_range_meters":22800,"station_id":"st_cvj6sg6p6f1abm77japg","pricing_plan_id":"cebpf4jnsgd1na2vs0mg"},{"bike_id":"5b53521a-85c8-44d2-a3bc-d69b864e411b","system_id":"levelo_inurba_marseille","lat":43.28038,"lon":5.36943,"is_reserved":false,"is_disabled":false,"rental_uris":{"android":"levelo://app?vid=5b53521a-85c8-44d2-a3bc-d69b864e411b","ios":"levelo://app?vid=5b53521a-85c8-44d2-a3bc-d69b864e411b"},"vehicle_type_id":"4","last_reported":1752484708,"current_range_meters":22400,"station_id":"ce4bha12rcd13ifvqef0","pricing_plan_id":"cebpf4jnsgd1na2vs0mg"},{"bike_id":"e875ba05-0311-438b-a1ff-af174969b660","system_id":"levelo_inurba_marseille","lat":43.279499,"lon":5.4104,"is_reserved":false,"is_disabled":true,"rental_uris":{"android":"levelo://app?vid=e875ba05-0311-438b-a1ff-af174969b660","ios":"levelo://app?vid=e875ba05-0311-438b-a1ff-af174969b660"},"vehicle_type_id":"4","last_reported":1752484708,"current_range_meters":22800,"station_id":"ce4bhnp2rcd13ifvqh0g","pricing_plan_id":"cebpf4jnsgd1na2vs0mg"},{"bike_id":"6a5df355-1eb9-4b2d-afbc-e7cfa8aadeac","system_id":"levelo_inurba_marseille","lat":43.26193,"lon":5.37447,"is_reserved":false,"is_disabled":false,"rental_uris":{"android":"levelo://app?vid=6a5df355-1eb9-4b2d-afbc-e7cfa8aadeac","ios":"levelo://app?vid=6a5df355-1eb9-4b2d-afbc-e7cfa8aadeac"},"vehicle_type_id":"4","last_reported":1752484708,"current_range_meters":22800,"station_id":"ce4bhgp2rcd13ifvqfc0","pricing_plan_id":"cebpf4jnsgd1na2vs0mg"},{"bike_id":"e8ab6d9c-1798-4e4c-9b26-a93b7c85f909","system_id":"levelo_inurba_marseille","lat":43.29993,"lon":5.37214,"is_reserved":false,"is_disabled":true,"rental_uris":{"android":"levelo://app?vid=e8ab6d9c-1798-4e4c-9b26-a93b7c85f909","ios":"levelo://app?vid=e8ab6d9c-1798-4e4c-9b26-a93b7c85f909"},"vehicle_type_id":"4","last_reported":1752484708,"current_range_meters":22800,"station_id":"ce4bgr92rcd13ifvqc7g","pricing_plan_id":"cebpf4jnsgd1na2vs0mg"},{"bike_id":"fa5683f7-17f8-43cb-8cf9-13e28d22ea66","system_id":"levelo_inurba_marseille","lat":43.31491,"lon":5.37302,"is_reserved":false,"is_disabled":false,"rental_uris":{"android":"levelo://app?vid=fa5683f7-17f8-43cb-8cf9-13e28d22ea66","ios":"levelo://app?vid=fa5683f7-17f8-43cb-8cf9-13e28d22ea66"},"vehicle_type_id":"4","last_reported":1752484708,"current_range_meters":22800,"station_id":"ce4bgt12rcd13ifvqcd0","pricing_plan_id":"cebpf4jnsgd1na2vs0mg"},{"bike_id":"d4290ce5-118c-40b6-a70d-d229cb2426cd","system_id":"levelo_inurba_marseille","lat":43.29186,"lon":5.35801,"is_reserved":false,"is_disabled":false,"rental_uris":{"android":"levelo://app?vid=d4290ce5-118c-40b6-a70d-d229cb2426cd","ios":"levelo://app?vid=d4290ce5-118c-40b6-a70d-d229cb2426cd"},"vehicle_type_id":"4","last_reported":1752484708,"current_range_meters":22800,"station_id":"ce4bhb12rcd13ifvqel0","pricing_plan_id":"cebpf4jnsgd1na2vs0mg"},{"bike_id":"9846ab09-e95d-46c3-9a2e-75071891ddd3","system_id":"levelo_inurba_marseille","lat":43.243845,"lon":5.370525,"is_reserved":false,"is_disabled":false,"rental_uris":{"android":"levelo://app?vid=9846ab09-e95d-46c3-9a2e-75071891ddd3","ios":"levelo://app?vid=9846ab09-e95d-46c3-9a2e-75071891ddd3"},"vehicle_type_id":"4","last_reported":1752484708,"current_range_meters":23200,"station_id":"ce4bhhh2rcd13ifvqfk0","pricing_plan_id":"cebpf4jnsgd1na2vs0mg"},{"bike_id":"ccfe7759-3514-465c-80bc-ef3d61b8e63e","system_id":"levelo_inurba_marseille","lat":43.27687,"lon":5.38892,"is_reserved":false,"is_disabled":false,"rental_uris":{"android":"levelo://app?vid=ccfe7759-3514-465c-80bc-ef3d61b8e63e","ios":"levelo://app?vid=ccfe7759-3514-465c-80bc-ef3d61b8e63e"},"vehicle_type_id":"4","last_reported":1752484708,"current_range_meters":23200,"station_id":"ce4bhi12rcd13ifvqfo0","pricing_plan_id":"cebpf4jnsgd1na2vs0mg"},{"bike_id":"e101c2dd-ed1e-49e3-9761-89517cdd4f23","system_id":"levelo_inurba_marseille","lat":43.30541,"lon":5.36523,"is_reserved":false,"is_disabled":false,"rental_uris":{"android":"levelo://app?vid=e101c2dd-ed1e-49e3-9761-89517cdd4f23","ios":"levelo://app?vid=e101c2dd-ed1e-49e3-9761-89517cdd4f23"},"vehicle_type_id":"4","last_reported":1752484708,"current_range_meters":23200,"station_id":"ce4bgs12rcd13ifvqcag","pricing_plan_id":"cebpf4jnsgd1na2vs0mg"},{"bike_id":"74edda43-f1a1-4391-b975-b49a77c3c145","system_id":"levelo_inurba_marseille","lat":43.28265,"lon":5.35073,"is_reserved":false,"is_disabled":false,"rental_uris":{"android":"levelo://app?vid=74edda43-f1a1-4391-b975-b49a77c3c145","ios":"levelo://app?vid=74edda43-f1a1-4391-b975-b49a77c3c145"},"vehicle_type_id":"4","last_reported":1752484708,"current_range_meters":23200,"station_id":"ce4bhbp2rcd13ifvqerg","pricing_plan_id":"cebpf4jnsgd1na2vs0mg"},{"bike_id":"9afa1b60-a152-401b-b216-d1f84afec00f","system_id":"levelo_inurba_marseille","lat":43.2318,"lon":5.39992,"is_reserved":false,"is_disabled":false,"rental_uris":{"android":"levelo://app?vid=9afa1b60-a152-401b-b216-d1f84afec00f","ios":"levelo://app?vid=9afa1b60-a152-401b-b216-d1f84afec00f"},"vehicle_type_id":"4","last_reported":1752484708,"current_range_meters":22800,"station_id":"ce4bhn12rcd13ifvqgqg","pricing_plan_id":"cebpf4jnsgd1na2vs0mg"},{"bike_id":"6e19714d-fce4-4ddb-bb20-c6c0e9dffcf4","system_id":"levelo_inurba_marseille","lat":43.29854,"lon":5.3628,"is_reserved":false,"is_disabled":false,"rental_uris":{"android":"levelo://app?vid=6e19714d-fce4-4ddb-bb20-c6c0e9dffcf4","ios":"levelo://app?vid=6e19714d-fce4-4ddb-bb20-c6c0e9dffcf4"},"vehicle_type_id":"4","last_reported":1752484708,"current_range_meters":23200,"station_id":"ce4bgpp2rcd13ifvqc3g","pricing_plan_id":"cebpf4jnsgd1na2vs0mg"},{"bike_id":"a894a837-27c3-4ab6-bc60-0b72e54e8520","system_id":"levelo_inurba_marseille","lat":43.28978,"lon":5.37827,"is_reserved":false,"is_disabled":false,"rental_uris":{"android":"levelo://app?vid=a894a837-27c3-4ab6-bc60-0b72e54e8520","ios":"levelo://app?vid=a894a837-27c3-4ab6-bc60-0b72e54e8520"},"vehicle_type_id":"4","last_reported":1752484708,"current_range_meters":23200,"station_id":"ce4bh9p2rcd13ifvqed0","pricing_plan_id":"cebpf4jnsgd1na2vs0mg"},{"bike_id":"b4fae3d7-2ad8-4cbc-85b2-4145b01ed9bf","system_id":"levelo_inurba_marseille","lat":43.27635,"lon":5.36115,"is_reserved":false,"is_disabled":false,"rental_uris":{"android":"levelo://app?vid=b4fae3d7-2ad8-4cbc-85b2-4145b01ed9bf","ios":"levelo://app?vid=b4fae3d7-2ad8-4cbc-85b2-4145b01ed9bf"},"vehicle_type_id":"4","last_reported":1752484708,"current_range_meters":22800,"station_id":"ce4bgj92rcd13ifvqbe0","pricing_plan_id":"cebpf4jnsgd1na2vs0mg"},{"bike_id":"143925b4-f6c0-4873-9a5e-998493772a13","system_id":"levelo_inurba_marseille","lat":43.336083,"lon":5.41028,"is_reserved":false,"is_disabled":false,"rental_uris":{"android":"levelo://app?vid=143925b4-f6c0-4873-9a5e-998493772a13","ios":"levelo://app?vid=143925b4-f6c0-4873-9a5e-998493772a13"},"vehicle_type_id":"4","last_reported":1752484708,"current_range_meters":23200,"station_id":"ce4bhqh2rcd13ifvqhmg","pricing_plan_id":"cebpf4jnsgd1na2vs0mg"},{"bike_id":"a088e24a-8012-4489-9b40-3941b8ee1795","system_id":"levelo_inurba_marseille","lat":43.2318,"lon":5.39988,"is_reserved":false,"is_disabled":false,"rental_uris":{"android":"levelo://app?vid=a088e24a-8012-4489-9b40-3941b8ee1795","ios":"levelo://app?vid=a088e24a-8012-4489-9b40-3941b8ee1795"},"vehicle_type_id":"4","last_reported":1752484708,"current_range_meters":24000,"station_id":"ce4bhn12rcd13ifvqgqg","pricing_plan_id":"cebpf4jnsgd1na2vs0mg"},{"bike_id":"8a8f4fc8-8fc3-4e8a-a231-6103af527c6d","system_id":"levelo_inurba_marseille","lat":43.28611,"lon":5.37062,"is_reserved":false,"is_disabled":false,"rental_uris":{"android":"levelo://app?vid=8a8f4fc8-8fc3-4e8a-a231-6103af527c6d","ios":"levelo://app?vid=8a8f4fc8-8fc3-4e8a-a231-6103af527c6d"},"vehicle_type_id":"4","last_reported":1752484708,"current_range_meters":24000,"station_id":"ce4bht12rcd13ifvqi60","pricing_plan_id":"cebpf4jnsgd1na2vs0mg"},{"bike_id":"081d7095-8522-4d74-aa87-88ced553f37d","system_id":"levelo_inurba_marseille","lat":43.26204,"lon":5.37928,"is_reserved":false,"is_disabled":false,"rental_uris":{"android":"levelo://app?vid=081d7095-8522-4d74-aa87-88ced553f37d","ios":"levelo://app?vid=081d7095-8522-4d74-aa87-88ced553f37d"},"vehicle_type_id":"4","last_reported":1752484708,"current_range_meters":23200,"station_id":"ce4bhjp2rcd13ifvqg90","pricing_plan_id":"cebpf4jnsgd1na2vs0mg"},{"bike_id":"3c9d84dc-70e8-47e9-97e2-16790dfc74fa","system_id":"levelo_inurba_marseille","lat":43.25583,"lon":5.38269,"is_reserved":false,"is_disabled":false,"rental_uris":{"android":"levelo://app?vid=3c9d84dc-70e8-47e9-97e2-16790dfc74fa","ios":"levelo://app?vid=3c9d84dc-70e8-47e9-97e2-16790dfc74fa"},"vehicle_type_id":"4","last_reported":1752484708,"current_range_meters":24000,"station_id":"ce4bhih2rcd13ifvqfs0","pricing_plan_id":"cebpf4jnsgd1na2vs0mg"},{"bike_id":"1f874d4f-71e3-40bb-9320-1de65e0370a8","system_id":"levelo_inurba_marseille","lat":43.310626,"lon":5.383552,"is_reserved":false,"is_disabled":false,"rental_uris":{"android":"levelo://app?vid=1f874d4f-71e3-40bb-9320-1de65e0370a8","ios":"levelo://app?vid=1f874d4f-71e3-40bb-9320-1de65e0370a8"},"vehicle_type_id":"4","last_reported":1752484708,"current_range_meters":24000,"station_id":"ce4bgv12rcd13ifvqcp0","pricing_plan_id":"cebpf4jnsgd1na2vs0mg"},{"bike_id":"a790a5fe-7d53-4a97-9c5a-c1f2b9303d46","system_id":"levelo_inurba_marseille","lat":43.30806,"lon":5.38164,"is_reserved":false,"is_disabled":false,"rental_uris":{"android":"levelo://app?vid=a790a5fe-7d53-4a97-9c5a-c1f2b9303d46","ios":"levelo://app?vid=a790a5fe-7d53-4a97-9c5a-c1f2b9303d46"},"vehicle_type_id":"4","last_reported":1752484708,"current_range_meters":24000,"station_id":"ce4bgt12rcd13ifvqce0","pricing_plan_id":"cebpf4jnsgd1na2vs0mg"},{"bike_id":"bfd0178f-eedb-42d0-8728-deb35b75d055","system_id":"levelo_inurba_marseille","lat":43.24149,"lon":5.3643,"is_reserved":false,"is_disabled":false,"rental_uris":{"android":"levelo://app?vid=bfd0178f-eedb-42d0-8728-deb35b75d055","ios":"levelo://app?vid=bfd0178f-eedb-42d0-8728-deb35b75d055"},"vehicle_type_id":"4","last_reported":1752484708,"current_range_meters":24000,"station_id":"cpo36qri1sfpv3e86is0","pricing_plan_id":"cebpf4jnsgd1na2vs0mg"},{"bike_id":"37f393c5-717a-4601-ac3d-e99cf486af7b","system_id":"levelo_inurba_marseille","lat":43.283707,"lon":5.386424,"is_reserved":false,"is_disabled":true,"rental_uris":{"android":"levelo://app?vid=37f393c5-717a-4601-ac3d-e99cf486af7b","ios":"levelo://app?vid=37f393c5-717a-4601-ac3d-e99cf486af7b"},"vehicle_type_id":"4","last_reported":1752484708,"current_range_meters":24000,"station_id":"ce4bh492rcd13ifvqdvg","pricing_plan_id":"cebpf4jnsgd1na2vs0mg"},{"bike_id":"d6a66dd6-0f41-4627-9395-d6db87d54065","system_id":"levelo_inurba_marseille","lat":43.28708,"lon":5.39998,"is_reserved":false,"is_disabled":true,"rental_uris":{"android":"levelo://app?vid=d6a66dd6-0f41-4627-9395-d6db87d54065","ios":"levelo://app?vid=d6a66dd6-0f41-4627-9395-d6db87d54065"},"vehicle_type_id":"4","last_reported":1752484708,"current_range_meters":24000,"station_id":"ce4bho92rcd13ifvqh3g","pricing_plan_id":"cebpf4jnsgd1na2vs0mg"},{"bike_id":"f29b19fe-bfe6-4927-b6df-6db5b2f3a50d","system_id":"levelo_inurba_marseille","lat":43.28959,"lon":5.37821,"is_reserved":false,"is_disabled":false,"rental_uris":{"android":"levelo://app?vid=f29b19fe-bfe6-4927-b6df-6db5b2f3a50d","ios":"levelo://app?vid=f29b19fe-bfe6-4927-b6df-6db5b2f3a50d"},"vehicle_type_id":"4","last_reported":1752484708,"current_range_meters":24000,"station_id":"ce4bh9p2rcd13ifvqed0","pricing_plan_id":"cebpf4jnsgd1na2vs0mg"},{"bike_id":"cb75c1c1-c4b8-4909-bafa-ebbfc4ca7af4","system_id":"levelo_inurba_marseille","lat":43.2842,"lon":5.34983,"is_reserved":false,"is_disabled":false,"rental_uris":{"android":"levelo://app?vid=cb75c1c1-c4b8-4909-bafa-ebbfc4ca7af4","ios":"levelo://app?vid=cb75c1c1-c4b8-4909-bafa-ebbfc4ca7af4"},"vehicle_type_id":"4","last_reported":1752484708,"current_range_meters":24400,"station_id":"ce4bhbh2rcd13ifvqepg","pricing_plan_id":"cebpf4jnsgd1na2vs0mg"},{"bike_id":"b1d6dad2-d3a6-4d12-9072-cb12788e8f1a","system_id":"levelo_inurba_marseille","lat":43.29561,"lon":5.37454,"is_reserved":false,"is_disabled":false,"rental_uris":{"android":"levelo://app?vid=b1d6dad2-d3a6-4d12-9072-cb12788e8f1a","ios":"levelo://app?vid=b1d6dad2-d3a6-4d12-9072-cb12788e8f1a"},"vehicle_type_id":"4","last_reported":1752484708,"current_range_meters":24400,"station_id":"","pricing_plan_id":"cebpf4jnsgd1na2vs0mg"},{"bike_id":"17ebf178-2fe1-4e11-93bf-1c435c14612f","system_id":"levelo_inurba_marseille","lat":43.26562,"lon":5.39015,"is_reserved":false,"is_disabled":false,"rental_uris":{"android":"levelo://app?vid=17ebf178-2fe1-4e11-93bf-1c435c14612f","ios":"levelo://app?vid=17ebf178-2fe1-4e11-93bf-1c435c14612f"},"vehicle_type_id":"4","last_reported":1752484708,"current_range_meters":24400,"station_id":"ce4bhe12rcd13ifvqf30","pricing_plan_id":"cebpf4jnsgd1na2vs0mg"},{"bike_id":"af1dd823-a453-480b-a6d7-f580c2c61004","system_id":"levelo_inurba_marseille","lat":43.303,"lon":5.3921,"is_reserved":false,"is_disabled":false,"rental_uris":{"android":"levelo://app?vid=af1dd823-a453-480b-a6d7-f580c2c61004","ios":"levelo://app?vid=af1dd823-a453-480b-a6d7-f580c2c61004"},"vehicle_type_id":"4","last_reported":1752484708,"current_range_meters":24000,"station_id":"ce4bgkh2rcd13ifvqbk0","pricing_plan_id":"cebpf4jnsgd1na2vs0mg"},{"bike_id":"7dab29db-0c05-4e7e-a9dd-b3b9812a29c7","system_id":"levelo_inurba_marseille","lat":43.28266,"lon":5.35071,"is_reserved":false,"is_disabled":false,"rental_uris":{"android":"levelo://app?vid=7dab29db-0c05-4e7e-a9dd-b3b9812a29c7","ios":"levelo://app?vid=7dab29db-0c05-4e7e-a9dd-b3b9812a29c7"},"vehicle_type_id":"4","last_reported":1752484708,"current_range_meters":24400,"station_id":"ce4bhbp2rcd13ifvqerg","pricing_plan_id":"cebpf4jnsgd1na2vs0mg"},{"bike_id":"8577aaca-7915-49c3-b3eb-bc84fe946baf","system_id":"levelo_inurba_marseille","lat":43.27597,"lon":5.41684,"is_reserved":false,"is_disabled":false,"rental_uris":{"android":"levelo://app?vid=8577aaca-7915-49c3-b3eb-bc84fe946baf","ios":"levelo://app?vid=8577aaca-7915-49c3-b3eb-bc84fe946baf"},"vehicle_type_id":"4","last_reported":1752484708,"current_range_meters":24400,"station_id":"","pricing_plan_id":"cebpf4jnsgd1na2vs0mg"},{"bike_id":"5006af0d-25b9-4993-a418-e88f1cc41340","system_id":"levelo_inurba_marseille","lat":43.337444,"lon":5.374475,"is_reserved":false,"is_disabled":false,"rental_uris":{"android":"levelo://app?vid=5006af0d-25b9-4993-a418-e88f1cc41340","ios":"levelo://app?vid=5006af0d-25b9-4993-a418-e88f1cc41340"},"vehicle_type_id":"4","last_reported":1752484708,"current_range_meters":24400,"station_id":"","pricing_plan_id":"cebpf4jnsgd1na2vs0mg"},{"bike_id":"96f21603-3658-4af3-9f1f-d8e1980510be","system_id":"levelo_inurba_marseille","lat":43.30416,"lon":5.41279,"is_reserved":false,"is_disabled":false,"rental_uris":{"android":"levelo://app?vid=96f21603-3658-4af3-9f1f-d8e1980510be","ios":"levelo://app?vid=96f21603-3658-4af3-9f1f-d8e1980510be"},