{"last_updated":1726592914,"ttl":30,"version":"2.2","data":{"bikes":[{"bike_id":"5d0fe655-8ab3-4a3e-84bf-d9eb48df3f58","system_id":"levelo_inurba_marseille","lat":43.33023,"lon":5.39033,"is_reserved":false,"is_disabled":false,"rental_uris":{"android":"levelo://app?vid=5d0fe655-8ab3-4a3e-84bf-d9eb48df3f58","ios":"levelo://app?vid=5d0fe655-8ab3-4a3e-84bf-d9eb48df3f58"},"vehicle_type_id":"4","last_reported":1726592914,"current_range_meters":28400,"station_id":"ce4bhr92rcd13ifvqhrg","pricing_plan_id":"cebpf4jnsgd1na2vs0mg"},{"bike_id":"ec1baed6-ed26-4ba9-ac20-e9ce5c3a10ec","system_id":"levelo_inurba_marseille","lat":43.2957,"lon":5.37526,"is_reserved":false,"is_disabled":false,"rental_uris":{"android":"levelo://app?vid=ec1baed6-ed26-4ba9-ac20-e9ce5c3a10ec","ios":"levelo://app?vid=ec1baed6-ed26-4ba9-ac20-e9ce5c3a10ec"},"vehicle_type_id":"4","last_reported":1726592914,"current_range_meters":25200,"station_id":"ce4bgh92rcd13ifvqb50","pricing_plan_id":"cebpf4jnsgd1na2vs0mg"},{"bike_id":"d8a7bbae-3d0e-457c-8e82-e6128d956f4d","system_id":"levelo_inurba_marseille","lat":43.274872,"lon":5.424531,"is_reserved":false,"is_disabled":false,"rental_uris":{"android":"levelo://app?vid=d8a7bbae-3d0e-457c-8e82-e6128d956f4d","ios":"levelo://app?vid=d8a7bbae-3d0e-457c-8e82-e6128d956f4d"},"vehicle_type_id":"4","last_reported":1726592914,"current_range_meters":12000,"station_id":"ce4bhn92rcd13ifvqgrg","pricing_plan_id":"cebpf4jnsgd1na2vs0mg"},{"bike_id":"65712b9a-28c5-4e00-ab3a-ec23b0f45f3c","system_id":"levelo_inurba_marseille","lat":43.27933,"lon":5.4104,"is_reserved":false,"is_disabled":false,"rental_uris":{"android":"levelo://app?vid=65712b9a-28c5-4e00-ab3a-ec23b0f45f3c","ios":"levelo://app?vid=65712b9a-28c5-4e00-ab3a-ec23b0f45f3c"},"vehicle_type_id":"4","last_reported":1726592914,"current_range_meters":8400,"station_id":"ce4bhnp2rcd13ifvqh0g","pricing_plan_id":"cebpf4jnsgd1na2vs0mg"},{"bike_id":"48af152c-364d-4642-97e8-aaac7f8e89df","system_id":"levelo_inurba_marseille","lat":43.26503,"lon":5.3947,"is_reserved":false,"is_disabled":false,"rental_uris":{"android":"levelo://app?vid=48af152c-364d-4642-97e8-aaac7f8e89df","ios":"levelo://app?vid=48af152c-364d-4642-97e8-aaac7f8e89df"},"vehicle_type_id":"4","last_reported":1726592914,"current_range_meters":24400,"station_id":"ce4bhi12rcd13ifvqfq0","pricing_plan_id":"cebpf4jnsgd1na2vs0mg"},{"bike_id":"43176770-eaee-4996-86c7-d408161e4ce6","system_id":"levelo_inurba_marseille","lat":43.29897,"lon":5.43658,"is_reserved":false,"is_disabled":false,"rental_uris":{"android":"levelo://app?vid=43176770-eaee-4996-86c7-d408161e4ce6","ios":"levelo://app?vid=43176770-eaee-4996-86c7-d408161e4ce6"},"vehicle_type_id":"4","last_reported":1726592914,"current_range_meters":4400,"station_id":"ce4bhpp2rcd13ifvqhfg","pricing_plan_id":"cebpf4jnsgd1na2vs0mg"},{"bike_id":"98dbbabc-9f8d-44e6-86dd-2ae0464166df","system_id":"levelo_inurba_marseille","lat":43.31333,"lon":5.39689,"is_reserved":false,"is_disabled":false,"rental_uris":{"android":"levelo://app?vid=98dbbabc-9f8d-44e6-86dd-2ae0464166df","ios":"levelo://app?vid=98dbbabc-9f8d-44e6-86dd-2ae0464166df"},"vehicle_type_id":"4","last_reported":1726592914,"current_range_meters":23200,"station_id":"ce4bgvp2rcd13ifvqcu0","pricing_plan_id":"cebpf4jnsgd1na2vs0mg"},{"bike_id":"0cf350ec-67c6-4d43-bbae-1526735404e9","system_id":"levelo_inurba_marseille","lat":43.273789,"lon":5.362643,"is_reserved":false,"is_disabled":false,"rental_uris":{"android":"levelo://app?vid=0cf350ec-67c6-4d43-bbae-1526735404e9","ios":"levelo://app?vid=0cf350ec-67c6-4d43-bbae-1526735404e9"},"vehicle_type_id":"4","last_reported":1726592914,"current_range_meters":27600,"station_id":"ce4bhbh2rcd13ifvqeo0","pricing_plan_id":"cebpf4jnsgd1na2vs0mg"},{"bike_id":"017ad941-2bc7-4c23-aa10-a9af1a423d28","system_id":"levelo_inurba_marseille","lat":43.33008,"lon":5.3904,"is_reserved":false,"is_disabled":false,"rental_uris":{"android":"levelo://app?vid=017ad941-2bc7-4c23-aa10-a9af1a423d28","ios":"levelo://app?vid=017ad941-2bc7-4c23-aa10-a9af1a423d28"},"vehicle_type_id":"4","last_reported":1726592914,"current_range_meters":14800,"station_id":"ce4bhr92rcd13ifvqhrg","pricing_plan_id":"cebpf4jnsgd1na2vs0mg"},{"bike_id":"760334fe-4993-4cb4-b5da-82eeca3c26d8","system_id":"levelo_inurba_marseille","lat":43.2707,"lon":5.42276,"is_reserved":false,"is_disabled":false,"rental_uris":{"android":"levelo://app?vid=760334fe-4993-4cb4-b5da-82eeca3c26d8","ios":"levelo://app?vid=760334fe-4993-4cb4-b5da-82eeca3c26d8"},"vehicle_type_id":"4","last_reported":1726592914,"current_range_meters":36000,"station_id":"ce4bhk92rcd13ifvqgb0","pricing_plan_id":"cebpf4jnsgd1na2vs0mg"},{"bike_id":"927394c3-f10e-46ec-bc8c-a0bee8036dfb","system_id":"levelo_inurba_marseille","lat":43.295471,"lon":5.39239,"is_reserved":false,"is_disabled":false,"rental_uris":{"android":"levelo://app?vid=927394c3-f10e-46ec-bc8c-a0bee8036dfb","ios":"levelo://app?vid=927394c3-f10e-46ec-bc8c-a0bee8036dfb"},"vehicle_type_id":"4","last_reported":1726592914,"current_range_meters":38000,"station_id":"ce4bh092rcd13ifvqd20","pricing_plan_id":"cebpf4jnsgd1na2vs0mg"},{"bike_id":"9744c27e-f804-4dfe-9740-a6c67417692b","system_id":"levelo_inurba_marseille","lat":43.28664,"lon":5.38674,"is_reserved":false,"is_disabled":false,"rental_uris":{"android":"levelo://app?vid=9744c27e-f804-4dfe-9740-a6c67417692b","ios":"levelo://app?vid=9744c27e-f804-4dfe-9740-a6c67417692b"},"vehicle_type_id":"4","last_reported":1726592914,"current_range_meters":4800,"station_id":"ce4bh492rcd13ifvqdug","pricing_plan_id":"cebpf4jnsgd1na2vs0mg"},{"bike_id":"4c90e0e2-fdc1-4eba-a15a-c3983c060732","system_id":"levelo_inurba_marseille","lat":43.295685,"lon":5.399732,"is_reserved":false,"is_disabled":false,"rental_uris":{"android":"levelo://app?vid=4c90e0e2-fdc1-4eba-a15a-c3983c060732","ios":"levelo://app?vid=4c90e0e2-fdc1-4eba-a15a-c3983c060732"},"vehicle_type_id":"4","last_reported":1726592914,"current_range_meters":8800,"station_id":"ce4bh312rcd13ifvqdj0","pricing_plan_id":"cebpf4jnsgd1na2vs0mg"},{"bike_id":"51ffdbc0-5cb1-45e3-b68d-3913f0b4eb83","system_id":"levelo_inurba_marseille","lat":43.29788,"lon":5.38094,"is_reserved":false,"is_disabled":false,"rental_uris":{"android":"levelo://app?vid=51ffdbc0-5cb1-45e3-b68d-3913f0b4eb83","ios":"levelo://app?vid=51ffdbc0-5cb1-45e3-b68d-3913f0b4eb83"},"vehicle_type_id":"4","last_reported":1726592914,"current_range_meters":16400,"station_id":"ce4bgip2rcd13ifvqbb0","pricing_plan_id":"cebpf4jnsgd1na2vs0mg"},{"bike_id":"c1687d61-ff3d-45dc-bac0-c8c8596741ca","system_id":"levelo_inurba_marseille","lat":43.30595,"lon":5.39355,"is_reserved":false,"is_disabled":false,"rental_uris":{"android":"levelo://app?vid=c1687d61-ff3d-45dc-bac0-c8c8596741ca","ios":"levelo://app?vid=c1687d61-ff3d-45dc-bac0-c8c8596741ca"},"vehicle_type_id":"4","last_reported":1726592914,"current_range_meters":22800,"station_id":"ce4bh0p2rcd13ifvqd80","pricing_plan_id":"cebpf4jnsgd1na2vs0mg"},{"bike_id":"41e9230d-54c6-4609-a980-430c0cc5c2ab","system_id":"levelo_inurba_marseille","lat":43.2319,"lon":5.35551,"is_reserved":false,"is_disabled":false,"rental_uris":{"android":"levelo://app?vid=41e9230d-54c6-4609-a980-430c0cc5c2ab","ios":"levelo://app?vid=41e9230d-54c6-4609-a980-430c0cc5c2ab"},"vehicle_type_id":"4","last_reported":1726592914,"current_range_meters":4800,"station_id":"ce4bhu92rcd13ifvqi70","pricing_plan_id":"cebpf4jnsgd1na2vs0mg"},{"bike_id":"36587967-1e79-47c3-ba21-dd6bfe64ec87","system_id":"levelo_inurba_marseille","lat":43.32361,"lon":5.38882,"is_reserved":false,"is_disabled":false,"rental_uris":{"android":"levelo://app?vid=36587967-1e79-47c3-ba21-dd6bfe64ec87","ios":"levelo://app?vid=36587967-1e79-47c3-ba21-dd6bfe64ec87"},"vehicle_type_id":"4","last_reported":1726592914,"current_range_meters":14800,"station_id":"ce4bhqp2rcd13ifvqhog","pricing_plan_id":"cebpf4jnsgd1na2vs0mg"},{"bike_id":"e8f01e28-5e79-467a-9e5c-d081a8389981","system_id":"levelo_inurba_marseille","lat":43.31362,"lon":5.38499,"is_reserved":false,"is_disabled":false,"rental_uris":{"android":"levelo://app?vid=e8f01e28-5e79-467a-9e5c-d081a8389981","ios":"levelo://app?vid=e8f01e28-5e79-467a-9e5c-d081a8389981"},"vehicle_type_id":"4","last_reported":1726592914,"current_range_meters":6800,"station_id":"ce4bgt92rcd13ifvqcf0","pricing_plan_id":"cebpf4jnsgd1na2vs0mg"},{"bike_id":"8043d702-42a5-4215-848a-8c7838ed1702","system_id":"levelo_inurba_marseille","lat":43.32295,"lon":5.38275,"is_reserved":false,"is_disabled":false,"rental_uris":{"android":"levelo://app?vid=8043d702-42a5-4215-848a-8c7838ed1702","ios":"levelo://app?vid=8043d702-42a5-4215-848a-8c7838ed1702"},"vehicle_type_id":"4","last_reported":1726592914,"current_range_meters":27200,"station_id":"ce4bhr12rcd13ifvqhqg","pricing_plan_id":"cebpf4jnsgd1na2vs0mg"},{"bike_id":"36ff1673-e996-4918-8958-9ffc564ae753","system_id":"levelo_inurba_marseille","lat":43.29256,"lon":5.40911,"is_reserved":false,"is_disabled":false,"rental_uris":{"android":"levelo://app?vid=36ff1673-e996-4918-8958-9ffc564ae753","ios":"levelo://app?vid=36ff1673-e996-4918-8958-9ffc564ae753"},"vehicle_type_id":"4","last_reported":1726592914,"current_range_meters":30800,"station_id":"ce4bh192rcd13ifvqdc0","pricing_plan_id":"cebpf4jnsgd1na2vs0mg"},{"bike_id":"2d357179-dff4-4854-a155-8dd6667cfb61","system_id":"levelo_inurba_marseille","lat":43.29208,"lon":5.35813,"is_reserved":false,"is_disabled":false,"rental_uris":{"android":"levelo://app?vid=2d357179-dff4-4854-a155-8dd6667cfb61","ios":"levelo://app?vid=2d357179-dff4-4854-a155-8dd6667cfb61"},"vehicle_type_id":"4","last_reported":1726592914,"current_range_meters":30000,"station_id":"ce4bhb12rcd13ifvqel0","pricing_plan_id":"cebpf4jnsgd1na2vs0mg"},{"bike_id":"3fe2159e-d356-48d9-916a-4af263f92b90","system_id":"levelo_inurba_marseille","lat":43.29024,"lon":5.38636,"is_reserved":false,"is_disabled":false,"rental_uris":{"android":"levelo://app?vid=3fe2159e-d356-48d9-916a-4af263f92b90","ios":"levelo://app?vid=3fe2159e-d356-48d9-916a-4af263f92b90"},"vehicle_type_id":"4","last_reported":1726592914,"current_range_meters":30000,"station_id":"ce4bh4p2rcd13ifvqe0g","pricing_plan_id":"cebpf4jnsgd1na2vs0mg"},{"bike_id":"b058d11b-4a96-4f40-ba6b-1117023d30f4","system_id":"levelo_inurba_marseille","lat":43.28692,"lon":5.37398,"is_reserved":false,"is_disabled":false,"rental_uris":{"android":"levelo://app?vid=b058d11b-4a96-4f40-ba6b-1117023d30f4","ios":"levelo://app?vid=b058d11b-4a96-4f40-ba6b-1117023d30f4"},"vehicle_type_id":"4","last_reported":1726592914,"current_range_meters":30800,"station_id":"ce4bh3p2rcd13ifvqdq0","pricing_plan_id":"cebpf4jnsgd1na2vs0mg"},{"bike_id":"9cc15c2c-d0cc-4036-8a3c-0e0a536667d7","system_id":"levelo_inurba_marseille","lat":43.29262,"lon":5.38438,"is_reserved":false,"is_disabled":false,"rental_uris":{"android":"levelo://app?vid=9cc15c2c-d0cc-4036-8a3c-0e0a536667d7","ios":"levelo://app?vid=9cc15c2c-d0cc-4036-8a3c-0e0a536667d7"},"vehicle_type_id":"4","last_reported":1726592914,"current_range_meters":1600,"station_id":"ce4bh692rcd13ifvqea0","pricing_plan_id":"cebpf4jnsgd1na2vs0mg"},{"bike_id":"2a5808e5-1612-4dc1-a62b-b9c71459256c","system_id":"levelo_inurba_marseille","lat":43.34084,"lon":5.39112,"is_reserved":false,"is_disabled":false,"rental_uris":{"android":"levelo://app?vid=2a5808e5-1612-4dc1-a62b-b9c71459256c","ios":"levelo://app?vid=2a5808e5-1612-4dc1-a62b-b9c71459256c"},"vehicle_type_id":"4","last_reported":1726592914,"current_range_meters":9600,"station_id":"","pricing_plan_id":"cebpf4jnsgd1na2vs0mg"},{"bike_id":"9def4d63-7cec-4ef3-bac5-883bf42519e2","system_id":"levelo_inurba_marseille","lat":43.2845,"lon":5.35887,"is_reserved":false,"is_disabled":false,"rental_uris":{"android":"levelo://app?vid=9def4d63-7cec-4ef3-bac5-883bf42519e2","ios":"levelo://app?vid=9def4d63-7cec-4ef3-bac5-883bf42519e2"},"vehicle_type_id":"4","last_reported":1726592914,"current_range_meters":16800,"station_id":"ce4bhah2rcd13ifvqei0","pricing_plan_id":"cebpf4jnsgd1na2vs0mg"},{"bike_id":"1f47c36d-4dbb-4773-a0be-b409af0ad90b","system_id":"levelo_inurba_marseille","lat":43.30307,"lon":5.36906,"is_reserved":false,"is_disabled":false,"rental_uris":{"android":"levelo://app?vid=1f47c36d-4dbb-4773-a0be-b409af0ad90b","ios":"levelo://app?vid=1f47c36d-4dbb-4773-a0be-b409af0ad90b"},"vehicle_type_id":"4","last_reported":1726592914,"current_range_meters":16000,"station_id":"ce4bgqh2rcd13ifvqc5g","pricing_plan_id":"cebpf4jnsgd1na2vs0mg"},{"bike_id":"69fabb06-4e65-4b54-9c62-ea4ce601487a","system_id":"levelo_inurba_marseille","lat":43.32286,"lon":5.38264,"is_reserved":false,"is_disabled":false,"rental_uris":{"android":"levelo://app?vid=69fabb06-4e65-4b54-9c62-ea4ce601487a","ios":"levelo://app?vid=69fabb06-4e65-4b54-9c62-ea4ce601487a"},"vehicle_type_id":"4","last_reported":1726592914,"current_range_meters":14800,"station_id":"ce4bhr12rcd13ifvqhqg","pricing_plan_id":"cebpf4jnsgd1na2vs0mg"},{"bike_id":"8e348505-df72-410a-93d0-1c9770028c82","system_id":"levelo_inurba_marseille","lat":43.30796,"lon":5.43521,"is_reserved":false,"is_disabled":false,"rental_uris":{"android":"levelo://app?vid=8e348505-df72-410a-93d0-1c9770028c82","ios":"levelo://app?vid=8e348505-df72-410a-93d0-1c9770028c82"},"vehicle_type_id":"4","last_reported":1726592914,"current_range_meters":36000,"station_id":"ce4bhph2rcd13ifvqheg","pricing_plan_id":"cebpf4jnsgd1na2vs0mg"},{"bike_id":"bbe69ae2-d3f7-4eb7-b84e-6bc71ca4c20d","system_id":"levelo_inurba_marseille","lat":43.27913,"lon":5.39569,"is_reserved":false,"is_disabled":false,"rental_uris":{"android":"levelo://app?vid=bbe69ae2-d3f7-4eb7-b84e-6bc71ca4c20d","ios":"levelo://app?vid=bbe69ae2-d3f7-4eb7-b84e-6bc71ca4c20d"},"vehicle_type_id":"4","last_reported":1726592914,"current_range_meters":4800,"station_id":"ce4bhf92rcd13ifvqf40","pricing_plan_id":"cebpf4jnsgd1na2vs0mg"},{"bike_id":"92925b61-a2f8-49c4-a0b3-cb1b239386a9","system_id":"levelo_inurba_marseille","lat":43.31359,"lon":5.38493,"is_reserved":false,"is_disabled":false,"rental_uris":{"android":"levelo://app?vid=92925b61-a2f8-49c4-a0b3-cb1b239386a9","ios":"levelo://app?vid=92925b61-a2f8-49c4-a0b3-cb1b239386a9"},"vehicle_type_id":"4","last_reported":1726592914,"current_range_meters":14400,"station_id":"ce4bgt92rcd13ifvqcf0","pricing_plan_id":"cebpf4jnsgd1na2vs0mg"},{"bike_id":"498e795b-c158-46ba-9d30-4a239a5ef6a1","system_id":"levelo_inurba_marseille","lat":43.308929,"lon":5.396638,"is_reserved":false,"is_disabled":false,"rental_uris":{"android":"levelo://app?vid=498e795b-c158-46ba-9d30-4a239a5ef6a1","ios":"levelo://app?vid=498e795b-c158-46ba-9d30-4a239a5ef6a1"},"vehicle_type_id":"4","last_reported":1726592914,"current_range_meters":19600,"station_id":"ce4bh012rcd13ifvqcv0","pricing_plan_id":"cebpf4jnsgd1na2vs0mg"},{"bike_id":"7912119e-bf7a-45cb-b431-7c607c11ea93","system_id":"levelo_inurba_marseille","lat":43.25578,"lon":5.38243,"is_reserved":false,"is_disabled":false,"rental_uris":{"android":"levelo://app?vid=7912119e-bf7a-45cb-b431-7c607c11ea93","ios":"levelo://app?vid=7912119e-bf7a-45cb-b431-7c607c11ea93"},"vehicle_type_id":"4","last_reported":1726592914,"current_range_meters":38800,"station_id":"ce4bhih2rcd13ifvqfs0","pricing_plan_id":"cebpf4jnsgd1na2vs0mg"},{"bike_id":"033d8293-396c-4ad0-9622-185421ecc1ff","system_id":"levelo_inurba_marseille","lat":43.28454,"lon":5.35882,"is_reserved":false,"is_disabled":false,"rental_uris":{"android":"levelo://app?vid=033d8293-396c-4ad0-9622-185421ecc1ff","ios":"levelo://app?vid=033d8293-396c-4ad0-9622-185421ecc1ff"},"vehicle_type_id":"4","last_reported":1726592914,"current_range_meters":26800,"station_id":"ce4bhah2rcd13ifvqei0","pricing_plan_id":"cebpf4jnsgd1na2vs0mg"},{"bike_id":"8727a114-9875-465a-a587-6fe778259f39","system_id":"levelo_inurba_marseille","lat":43.27922,"lon":5.39575,"is_reserved":false,"is_disabled":false,"rental_uris":{"android":"levelo://app?vid=8727a114-9875-465a-a587-6fe778259f39","ios":"levelo://app?vid=8727a114-9875-465a-a587-6fe778259f39"},"vehicle_type_id":"4","last_reported":1726592914,"current_range_meters":30400,"station_id":"ce4bhf92rcd13ifvqf40","pricing_plan_id":"cebpf4jnsgd1na2vs0mg"},{"bike_id":"f409a27c-3291-4d9b-ac57-9e74e75d80d1","system_id":"levelo_inurba_marseille","lat":43.32363,"lon":5.38877,"is_reserved":false,"is_disabled":false,"rental_uris":{"android":"levelo://app?vid=f409a27c-3291-4d9b-ac57-9e74e75d80d1","ios":"levelo://app?vid=f409a27c-3291-4d9b-ac57-9e74e75d80d1"},"vehicle_type_id":"4","last_reported":1726592914,"current_range_meters":12800,"station_id":"ce4bhqp2rcd13ifvqhog","pricing_plan_id":"cebpf4jnsgd1na2vs0mg"},{"bike_id":"b9a202f5-31e6-4d51-a85f-b0fe89a86cc4","system_id":"levelo_inurba_marseille","lat":43.29967,"lon":5.38491,"is_reserved":false,"is_disabled":false,"rental_uris":{"android":"levelo://app?vid=b9a202f5-31e6-4d51-a85f-b0fe89a86cc4","ios":"levelo://app?vid=b9a202f5-31e6-4d51-a85f-b0fe89a86cc4"},"vehicle_type_id":"4","last_reported":1726592914,"current_range_meters":7200,"station_id":"ce4bgj92rcd13ifvqbd0","pricing_plan_id":"cebpf4jnsgd1na2vs0mg"},{"bike_id":"fe8ac5df-d92a-42b3-97d4-af1ec0da8d0b","system_id":"levelo_inurba_marseille","lat":43.29522,"lon":5.39048,"is_reserved":false,"is_disabled":false,"rental_uris":{"android":"levelo://app?vid=fe8ac5df-d92a-42b3-97d4-af1ec0da8d0b","ios":"levelo://app?vid=fe8ac5df-d92a-42b3-97d4-af1ec0da8d0b"},"vehicle_type_id":"4","last_reported":1726592914,"current_range_meters":16400,"station_id":"ce4bh3p2rcd13ifvqdp0","pricing_plan_id":"cebpf4jnsgd1na2vs0mg"},{"bike_id":"14ef65c9-0835-413d-8719-866202a7a6e1","system_id":"levelo_inurba_marseille","lat":43.31317,"lon":5.39689,"is_reserved":false,"is_disabled":false,"rental_uris":{"android":"levelo://app?vid=14ef65c9-0835-413d-8719-866202a7a6e1","ios":"levelo://app?vid=14ef65c9-0835-413d-8719-866202a7a6e1"},"vehicle_type_id":"4","last_reported":1726592914,"current_range_meters":9200,"station_id":"ce4bgvp2rcd13ifvqcu0","pricing_plan_id":"cebpf4jnsgd1na2vs0mg"},{"bike_id":"cd561793-347f-42fa-ab8f-f8154b6b10dd","system_id":"levelo_inurba_marseille","lat":43.25722,"lon":5.41114,"is_reserved":false,"is_disabled":false,"rental_uris":{"android":"levelo://app?vid=cd561793-347f-42fa-ab8f-f8154b6b10dd","ios":"levelo://app?vid=cd561793-347f-42fa-ab8f-f8154b6b10dd"},"vehicle_type_id":"4","last_reported":1726592914,"current_range_meters":15200,"station_id":"ce4bhkp2rcd13ifvqgd0","pricing_plan_id":"cebpf4jnsgd1na2vs0mg"},{"bike_id":"42cf8691-a27a-4c18-89de-067af3689b54","system_id":"levelo_inurba_marseille","lat":43.30433,"lon":5.38888,"is_reserved":false,"is_disabled":false,"rental_uris":{"android":"levelo://app?vid=42cf8691-a27a-4c18-89de-067af3689b54","ios":"levelo://app?vid=42cf8691-a27a-4c18-89de-067af3689b54"},"vehicle_type_id":"4","last_reported":1726592914,"current_range_meters":17600,"station_id":"ce4bgk12rcd13ifvqbi0","pricing_plan_id":"cebpf4jnsgd1na2vs0mg"},{"bike_id":"c8fa8a4c-8650-46f8-986c-5e87b41628f5","system_id":"levelo_inurba_marseille","lat":43.30545,"lon":5.36558,"is_reserved":false,"is_disabled":false,"rental_uris":{"android":"levelo://app?vid=c8fa8a4c-8650-46f8-986c-5e87b41628f5","ios":"levelo://app?vid=c8fa8a4c-8650-46f8-986c-5e87b41628f5"},"vehicle_type_id":"4","last_reported":1726592914,"current_range_meters":11600,"station_id":"ce4bgs12rcd13ifvqcag","pricing_plan_id":"cebpf4jnsgd1na2vs0mg"},{"bike_id":"ee7cab51-ac41-4df2-a570-0b8afed077f6","system_id":"levelo_inurba_marseille","lat":43.33022,"lon":5.3904,"is_reserved":false,"is_disabled":false,"rental_uris":{"android":"levelo://app?vid=ee7cab51-ac41-4df2-a570-0b8afed077f6","ios":"levelo://app?vid=ee7cab51-ac41-4df2-a570-0b8afed077f6"},"vehicle_type_id":"4","last_reported":1726592914,"current_range_meters":29600,"station_id":"ce4bhr92rcd13ifvqhrg","pricing_plan_id":"cebpf4jnsgd1na2vs0mg"},{"bike_id":"c7f93bf2-2b30-4c5c-aa72-447b3f4a28ea","system_id":"levelo_inurba_marseille","lat":43.29896,"lon":5.43664,"is_reserved":false,"is_disabled":false,"rental_uris":{"android":"levelo://app?vid=c7f93bf2-2b30-4c5c-aa72-447b3f4a28ea","ios":"levelo://app?vid=c7f93bf2-2b30-4c5c-aa72-447b3f4a28ea"},"vehicle_type_id":"4","last_reported":1726592914,"current_range_meters":8400,"station_id":"ce4bhpp2rcd13ifvqhfg","pricing_plan_id":"cebpf4jnsgd1na2vs0mg"},{"bike_id":"e70183f5-13aa-406b-bbef-07d1bcfdeb56","system_id":"levelo_inurba_marseille","lat":43.254883,"lon":5.376451,"is_reserved":false,"is_disabled":false,"rental_uris":{"android":"levelo://app?vid=e70183f5-13aa-406b-bbef-07d1bcfdeb56","ios":"levelo://app?vid=e70183f5-13aa-406b-bbef-07d1bcfdeb56"},"vehicle_type_id":"4","last_reported":1726592914,"current_range_meters":20000,"station_id":"ce4bhh12rcd13ifvqff0","pricing_plan_id":"cebpf4jnsgd1na2vs0mg"},{"bike_id":"d8c0eaa6-b64a-4b5a-a581-722baf8502e4","system_id":"levelo_inurba_marseille","lat":43.31702,"lon":5.37746,"is_reserved":false,"is_disabled":false,"rental_uris":{"android":"levelo://app?vid=d8c0eaa6-b64a-4b5a-a581-722baf8502e4","ios":"levelo://app?vid=d8c0eaa6-b64a-4b5a-a581-722baf8502e4"},"vehicle_type_id":"4","last_reported":1726592914,"current_range_meters":37600,"station_id":"ce4bgth2rcd13ifvqch0","pricing_plan_id":"cebpf4jnsgd1na2vs0mg"},{"bike_id":"64802318-fc5f-42a3-a12d-ff72dad9810f","system_id":"levelo_inurba_marseille","lat":43.26803,"lon":5.40268,"is_reserved":false,"is_disabled":false,"rental_uris":{"android":"levelo://app?vid=64802318-fc5f-42a3-a12d-ff72dad9810f","ios":"levelo://app?vid=64802318-fc5f-42a3-a12d-ff72dad9810f"},"vehicle_type_id":"4","last_reported":1726592914,"current_range_meters":28000,"station_id":"ce501612rcd8frsf0b60","pricing_plan_id":"cebpf4jnsgd1na2vs0mg"},{"bike_id":"0250389a-85e6-44d8-8212-e48e94d9c2b3","system_id":"levelo_inurba_marseille","lat":43.27671,"lon":5.38871,"is_reserved":false,"is_disabled":false,"rental_uris":{"android":"levelo://app?vid=0250389a-85e6-44d8-8212-e48e94d9c2b3","ios":"levelo://app?vid=0250389a-85e6-44d8-8212-e48e94d9c2b3"},"vehicle_type_id":"4","last_reported":1726592914,"current_range_meters":15200,"station_id":"ce4bhi12rcd13ifvqfo0","pricing_plan_id":"cebpf4jnsgd1na2vs0mg"},{"bike_id":"43e11506-1051-47ba-832c-e0bfaa9fd32e","system_id":"levelo_inurba_marseille","lat":43.318937,"lon":5.407506,"is_reserved":false,"is_disabled":false,"rental_uris":{"android":"levelo://app?vid=43e11506-1051-47ba-832c-e0bfaa9fd32e","ios":"levelo://app?vid=43e11506-1051-47ba-832c-e0bfaa9fd32e"},"vehicle_type_id":"4","last_reported":1726592914,"current_range_meters":23200,"station_id":"ce4bhq12rcd13ifvqhig","pricing_plan_id":"cebpf4jnsgd1na2vs0mg"},{"bike_id":"b88d8bac-711e-49d2-9eee-8f0f2fcec434","system_id":"levelo_inurba_marseille","lat":43.3303,"lon":5.39038,"is_reserved":false,"is_disabled":false,"rental_uris":{"android":"levelo://app?vid=b88d8bac-711e-49d2-9eee-8f0f2fcec434","ios":"levelo://app?vid=b88d8bac-711e-49d2-9eee-8f0f2fcec434"},"vehicle_type_id":"4","last_reported":1726592914,"current_range_meters":28400,"station_id":"ce4bhr92rcd13ifvqhrg","pricing_plan_id":"cebpf4jnsgd1na2vs0mg"},{"bike_id":"2e2254f6-d3ed-4277-af5f-ee204e464f40","system_id":"levelo_inurba_marseille","lat":43.29937,"lon":5.41323,"is_reserved":false,"is_disabled":false,"rental_uris":{"android":"levelo://app?vid=2e2254f6-d3ed-4277-af5f-ee204e464f40","ios":"levelo://app?vid=2e2254f6-d3ed-4277-af5f-ee204e464f40"},"vehicle_type_id":"4","last_reported":1726592914,"current_range_meters":38800,"station_id":"ce4bhp12rcd13ifvqh9g","pricing_plan_id":"cebpf4jnsgd1na2vs0mg"},{"bike_id":"8cb592d9-f82f-4171-894f-8d7ffa6525e5","system_id":"levelo_inurba_marseille","lat":43.232,"lon":5.35549,"is_reserved":false,"is_disabled":false,"rental_uris":{"android":"levelo://app?vid=8cb592d9-f82f-4171-894f-8d7ffa6525e5","ios":"levelo://app?vid=8cb592d9-f82f-4171-894f-8d7ffa6525e5"},"vehicle_type_id":"4","last_reported":1726592914,"current_range_meters":18000,"station_id":"ce4bhu92rcd13ifvqi70","pricing_plan_id":"cebpf4jnsgd1na2vs0mg"},{"bike_id":"14439b63-45d0-4571-8a07-9da558078c76","system_id":"levelo_inurba_marseille","lat":43.2808,"lon":5.39659,"is_reserved":false,"is_disabled":false,"rental_uris":{"android":"levelo://app?vid=14439b63-45d0-4571-8a07-9da558078c76","ios":"levelo://app?vid=14439b63-45d0-4571-8a07-9da558078c76"},"vehicle_type_id":"4","last_reported":1726592914,"current_range_meters":22800,"station_id":"ce4bho12rcd13ifvqh2g","pricing_plan_id":"cebpf4jnsgd1na2vs0mg"},{"bike_id":"699d09b8-17ae-4b5a-81a4-f0906a954e6d","system_id":"levelo_inurba_marseille","lat":43.32286,"lon":5.38265,"is_reserved":false,"is_disabled":false,"rental_uris":{"android":"levelo://app?vid=699d09b8-17ae-4b5a-81a4-f0906a954e6d","ios":"levelo://app?vid=699d09b8-17ae-4b5a-81a4-f0906a954e6d"},"vehicle_type_id":"4","last_reported":1726592914,"current_range_meters":14000,"station_id":"ce4bhr12rcd13ifvqhqg","pricing_plan_id":"cebpf4jnsgd1na2vs0mg"},{"bike_id":"20a4a91d-8541-4958-9b2e-4e75165c8a2a","system_id":"levelo_inurba_marseille","lat":43.30799,"lon":5.43518,"is_reserved":false,"is_disabled":false,"rental_uris":{"android":"levelo://app?vid=20a4a91d-8541-4958-9b2e-4e75165c8a2a","ios":"levelo://app?vid=20a4a91d-8541-4958-9b2e-4e75165c8a2a"},"vehicle_type_id":"4","last_reported":1726592914,"current_range_meters":12800,"station_id":"ce4bhph2rcd13ifvqheg","pricing_plan_id":"cebpf4jnsgd1na2vs0mg"},{"bike_id":"c3bcca86-6294-4639-9d07-9722d40f464e","system_id":"levelo_inurba_marseille","lat":43.29897,"lon":5.43658,"is_reserved":false,"is_disabled":false,"rental_uris":{"android":"levelo://app?vid=c3bcca86-6294-4639-9d07-9722d40f464e","ios":"levelo://app?vid=c3bcca86-6294-4639-9d07-9722d40f464e"},"vehicle_type_id":"4","last_reported":1726592914,"current_range_meters":32000,"station_id":"ce4bhpp2rcd13ifvqhfg","pricing_plan_id":"cebpf4jnsgd1na2vs0mg"},{"bike_id":"464b765a-5bcf-418f-9058-526dab1b44f9","system_id":"levelo_inurba_marseille","lat":43.32289,"lon":5.38281,"is_reserved":false,"is_disabled":false,"rental_uris":{"android":"levelo://app?vid=464b765a-5bcf-418f-9058-526dab1b44f9","ios":"levelo://app?vid=464b765a-5bcf-418f-9058-526dab1b44f9"},"vehicle_type_id":"4","last_reported":1726592914,"current_range_meters":25600,"station_id":"ce4bhr12rcd13ifvqhqg","pricing_plan_id":"cebpf4jnsgd1na2vs0mg"},{"bike_id":"8d4fa9ce-4f53-4bbd-8ebe-9fa61a6486de","system_id":"levelo_inurba_marseille","lat":43.27619,"lon":5.36106,"is_reserved":false,"is_disabled":false,"rental_uris":{"android":"levelo://app?vid=8d4fa9ce-4f53-4bbd-8ebe-9fa61a6486de","ios":"levelo://app?vid=8d4fa9ce-4f53-4bbd-8ebe-9fa61a6486de"},"vehicle_type_id":"4","last_reported":1726592914,"current_range_meters":16400,"station_id":"ce4bgj92rcd13ifvqbe0","pricing_plan_id":"cebpf4jnsgd1na2vs0mg"},{"bike_id":"8e3c84db-879d-4669-8d43-f74eed3d4c1b","system_id":"levelo_inurba_marseille","lat":43.27376,"lon":5.36262,"is_reserved":false,"is_disabled":false,"rental_uris":{"android":"levelo://app?vid=8e3c84db-879d-4669-8d43-f74eed3d4c1b","ios":"levelo://app?vid=8e3c84db-879d-4669-8d43-f74eed3d4c1b"},"vehicle_type_id":"4","last_reported":1726592914,"current_range_meters":38800,"station_id":"ce4bhbh2rcd13ifvqeo0","pricing_plan_id":"cebpf4jnsgd1na2vs0mg"},{"bike_id":"932e06e0-9bec-4e3e-8b15-5d116b9a2067","system_id":"levelo_inurba_marseille","lat":43.27905,"lon":5.38005,"is_reserved":false,"is_disabled":false,"rental_uris":{"android":"levelo://app?vid=932e06e0-9bec-4e3e-8b15-5d116b9a2067","ios":"levelo://app?vid=932e06e0-9bec-4e3e-8b15-5d116b9a2067"},"vehicle_type_id":"4","last_reported":1726592914,"current_range_meters":8800,"station_id":"ce4bhf92rcd13ifvqf50","pricing_plan_id":"cebpf4jnsgd1na2vs0mg"},{"bike_id":"b1db6496-7d7b-4acc-a88c-e5406d38e100","system_id":"levelo_inurba_marseille","lat":43.23198,"lon":5.35551,"is_reserved":false,"is_disabled":false,"rental_uris":{"android":"levelo://app?vid=b1db6496-7d7b-4acc-a88c-e5406d38e100","ios":"levelo://app?vid=b1db6496-7d7b-4acc-a88c-e5406d38e100"},"vehicle_type_id":"4","last_reported":1726592914,"current_range_meters":26800,"station_id":"ce4bhu92rcd13ifvqi70","pricing_plan_id":"cebpf4jnsgd1na2vs0mg"},{"bike_id":"bdf96426-7300-4609-9b97-8ef0b2553305","system_id":"levelo_inurba_marseille","lat":43.248033,"lon":5.374455,"is_reserved":false,"is_disabled":false,"rental_uris":{"android":"levelo://app?vid=bdf96426-7300-4609-9b97-8ef0b2553305","ios":"levelo://app?vid=bdf96426-7300-4609-9b97-8ef0b2553305"},"vehicle_type_id":"4","last_reported":1726592914,"current_range_meters":9200,"station_id":"ce4bhgh2rcd13ifvqfb0","pricing_plan_id":"cebpf4jnsgd1na2vs0mg"},{"bike_id":"e2c9f7f8-ff99-4417-b919-296442dc56e4","system_id":"levelo_inurba_marseille","lat":43.3018,"lon":5.366,"is_reserved":false,"is_disabled":false,"rental_uris":{"android":"levelo://app?vid=e2c9f7f8-ff99-4417-b919-296442dc56e4","ios":"levelo://app?vid=e2c9f7f8-ff99-4417-b919-296442dc56e4"},"vehicle_type_id":"4","last_reported":1726592914,"current_range_meters":38800,"station_id":"ce4bgrh2rcd13ifvqc8g","pricing_plan_id":"cebpf4jnsgd1na2vs0mg"},{"bike_id":"b645ac77-0d58-4fa9-8ad3-947af8bdb1d9","system_id":"levelo_inurba_marseille","lat":43.29897,"lon":5.43669,"is_reserved":false,"is_disabled":false,"rental_uris":{"android":"levelo://app?vid=b645ac77-0d58-4fa9-8ad3-947af8bdb1d9","ios":"levelo://app?vid=b645ac77-0d58-4fa9-8ad3-947af8bdb1d9"},"vehicle_type_id":"4","last_reported":1726592914,"current_range_meters":24400,"station_id":"ce4bhpp2rcd13ifvqhfg","pricing_plan_id":"cebpf4jnsgd1na2vs0mg"},{"bike_id":"ef6a169f-82b0-412c-ac79-228b11eb64da","system_id":"levelo_inurba_marseille","lat":43.29038,"lon":5.38642,"is_reserved":false,"is_disabled":false,"rental_uris":{"android":"levelo://app?vid=ef6a169f-82b0-412c-ac79-228b11eb64da","ios":"levelo://app?vid=ef6a169f-82b0-412c-ac79-228b11eb64da"},"vehicle_type_id":"4","last_reported":1726592914,"current_range_meters":26800,"station_id":"ce4bh4p2rcd13ifvqe0g","pricing_plan_id":"cebpf4jnsgd1na2vs0mg"},{"bike_id":"bcea188d-01f4-4c66-a44d-f9e1d5f0ea9b","system_id":"levelo_inurba_marseille","lat":43.28714,"lon":5.379285,"is_reserved":false,"is_disabled":false,"rental_uris":{"android":"levelo://app?vid=bcea188d-01f4-4c66-a44d-f9e1d5f0ea9b","ios":"levelo://app?vid=bcea188d-01f4-4c66-a44d-f9e1d5f0ea9b"},"vehicle_type_id":"4","last_reported":1726592914,"current_range_meters":8000,"station_id":"ce4bh9p2rcd13ifvqec0","pricing_plan_id":"cebpf4jnsgd1na2vs0mg"},{"bike_id":"33478d08-afd6-49fb-9316-9a8bcd749991","system_id":"levelo_inurba_marseille","lat":43.27917,"lon":5.39576,"is_reserved":false,"is_disabled":false,"rental_uris":{"android":"levelo://app?vid=33478d08-afd6-49fb-9316-9a8bcd749991","ios":"levelo://app?vid=33478d08-afd6-49fb-9316-9a8bcd749991"},"vehicle_type_id":"4","last_reported":1726592914,"current_range_meters":11600,"station_id":"ce4bhf92rcd13ifvqf40","pricing_plan_id":"cebpf4jnsgd1na2vs0mg"},{"bike_id":"b6da37ac-3842-47eb-a61d-b79e4dfac12c","system_id":"levelo_inurba_marseille","lat":43.28286,"lon":5.40217,"is_reserved":false,"is_disabled":false,"rental_uris":{"android":"levelo://app?vid=b6da37ac-3842-47eb-a61d-b79e4dfac12c","ios":"levelo://app?vid=b6da37ac-3842-47eb-a61d-b79e4dfac12c"},"vehicle_type_id":"4","last_reported":1726592914,"current_range_meters":28800,"station_id":"ce4bh192rcd13ifvqdd0","pricing_plan_id":"cebpf4jnsgd1na2vs0mg"},{"bike_id":"6666eb00-b72b-423b-8ff4-4a53bf361fa0","system_id":"levelo_inurba_marseille","lat":43.29026,"lon":5.38646,"is_reserved":false,"is_disabled":false,"rental_uris":{"android":"levelo://app?vid=6666eb00-b72b-423b-8ff4-4a53bf361fa0","ios":"levelo://app?vid=6666eb00-b72b-423b-8ff4-4a53bf361fa0"},"vehicle_type_id":"4","last_reported":1726592914,"current_range_meters":2000,"station_id":"ce4bh4p2rcd13ifvqe0g","pricing_plan_id":"cebpf4jnsgd1na2vs0mg"},{"bike_id":"e836156f-966e-4b75-8bf0-18495ca20864","system_id":"levelo_inurba_marseille","lat":43.28614,"lon":5.35103,"is_reserved":false,"is_disabled":false,"rental_uris":{"android":"levelo://app?vid=e836156f-966e-4b75-8bf0-18495ca20864","ios":"levelo://app?vid=e836156f-966e-4b75-8bf0-18495ca20864"},"vehicle_type_id":"4","last_reported":1726592914,"current_range_meters":10000,"station_id":"ce4bhch2rcd13ifvqeug","pricing_plan_id":"cebpf4jnsgd1na2vs0mg"},{"bike_id":"677498c9-746b-4650-9a8e-2c7479635944","system_id":"levelo_inurba_marseille","lat":43.33026,"lon":5.39046,"is_reserved":false,"is_disabled":false,"rental_uris":{"android":"levelo://app?vid=677498c9-746b-4650-9a8e-2c7479635944","ios":"levelo://app?vid=677498c9-746b-4650-9a8e-2c7479635944"},"vehicle_type_id":"4","last_reported":1726592914,"current_range_meters":20400,"station_id":"ce4bhr92rcd13ifvqhrg","pricing_plan_id":"cebpf4jnsgd1na2vs0mg"},{"bike_id":"f71e3465-fcf4-44fb-9720-2597008ef306","system_id":"levelo_inurba_marseille","lat":43.29922,"lon":5.36541,"is_reserved":false,"is_disabled":false,"rental_uris":{"android":"levelo://app?vid=f71e3465-fcf4-44fb-9720-2597008ef306","ios":"levelo://app?vid=f71e3465-fcf4-44fb-9720-2597008ef306"},"vehicle_type_id":"4","last_reported":1726592914,"current_range_meters":38800,"station_id":"ce4bgm92rcd13ifvqbr0","pricing_plan_id":"cebpf4jnsgd1na2vs0mg"},{"bike_id":"e99fd3da-9d85-48ec-88b3-0b975f3dd034","system_id":"levelo_inurba_marseille","lat":43.32654,"lon":5.40993,"is_reserved":false,"is_disabled":false,"rental_uris":{"android":"levelo://app?vid=e99fd3da-9d85-48ec-88b3-0b975f3dd034","ios":"levelo://app?vid=e99fd3da-9d85-48ec-88b3-0b975f3dd034"},"vehicle_type_id":"4","last_reported":1726592914,"current_range_meters":14000,"station_id":"ce4bhpp2rcd13ifvqhgg","pricing_plan_id":"cebpf4jnsgd1na2vs0mg"},{"bike_id":"0e7fa0af-7f2f-4ef9-9134-c3fffbdc0a42","system_id":"levelo_inurba_marseille","lat":43.31368,"lon":5.38506,"is_reserved":false,"is_disabled":false,"rental_uris":{"android":"levelo://app?vid=0e7fa0af-7f2f-4ef9-9134-c3fffbdc0a42","ios":"levelo://app?vid=0e7fa0af-7f2f-4ef9-9134-c3fffbdc0a42"},"vehicle_type_id":"4","last_reported":1726592914,"current_range_meters":32400,"station_id":"ce4bgt92rcd13ifvqcf0","pricing_plan_id":"cebpf4jnsgd1na2vs0mg"},{"bike_id":"3c1c23aa-d4a7-4b26-a072-d2f5e1544c4c","system_id":"levelo_inurba_marseille","lat":43.2984,"lon":5.36266,"is_reserved":false,"is_disabled":false,"rental_uris":{"android":"levelo://app?vid=3c1c23aa-d4a7-4b26-a072-d2f5e1544c4c","ios":"levelo://app?vid=3c1c23aa-d4a7-4b26-a072-d2f5e1544c4c"},"vehicle_type_id":"4","last_reported":1726592914,"current_range_meters":38800,"station_id":"ce4bgpp2rcd13ifvqc3g","pricing_plan_id":"cebpf4jnsgd1na2vs0mg"},{"bike_id":"e322896a-9301-4e00-8a2b-00ac0afcf56a","system_id":"levelo_inurba_marseille","lat":43.29716,"lon":5.36624,"is_reserved":false,"is_disabled":false,"rental_uris":{"android":"levelo://app?vid=e322896a-9301-4e00-8a2b-00ac0afcf56a","ios":"levelo://app?vid=e322896a-9301-4e00-8a2b-00ac0afcf56a"},"vehicle_type_id":"4","last_reported":1726592914,"current_range_meters":38800,"station_id":"ce4bgn12rcd13ifvqbt0","pricing_plan_id":"cebpf4jnsgd1na2vs0mg"},{"bike_id":"8f2f47a5-348c-495c-96fd-ce5e2f76169d","system_id":"levelo_inurba_marseille","lat":43.29536,"lon":5.39398,"is_reserved":false,"is_disabled":false,"rental_uris":{"android":"levelo://app?vid=8f2f47a5-348c-495c-96fd-ce5e2f76169d","ios":"levelo://app?vid=8f2f47a5-348c-495c-96fd-ce5e2f76169d"},"vehicle_type_id":"4","last_reported":1726592914,"current_range_meters":14000,"station_id":"ce4bh292rcd13ifvqdf0","pricing_plan_id":"cebpf4jnsgd1na2vs0mg"},{"bike_id":"888214a9-e934-4d9e-9f8a-f2f24b79a616","system_id":"levelo_inurba_marseille","lat":43.30136,"lon":5.39866,"is_reserved":false,"is_disabled":false,"rental_uris":{"android":"levelo://app?vid=888214a9-e934-4d9e-9f8a-f2f24b79a616","ios":"levelo://app?vid=888214a9-e934-4d9e-9f8a-f2f24b79a616"},"vehicle_type_id":"4","last_reported":1726592914,"current_range_meters":20400,"station_id":"ce4bh0h2rcd13ifvqd40","pricing_plan_id":"cebpf4jnsgd1na2vs0mg"},{"bike_id":"2065fa7b-c310-43cc-bfc4-bfc65023949a","system_id":"levelo_inurba_marseille","lat":43.24998,"lon":5.38933,"is_reserved":false,"is_disabled":false,"rental_uris":{"android":"levelo://app?vid=2065fa7b-c310-43cc-bfc4-bfc65023949a","ios":"levelo://app?vid=2065fa7b-c310-43cc-bfc4-bfc65023949a"},"vehicle_type_id":"4","last_reported":1726592914,"current_range_meters":16000,"station_id":"ce4bhgp2rcd13ifvqfd0","pricing_plan_id":"cebpf4jnsgd1na2vs0mg"},{"bike_id":"d46154a4-9981-41a2-bfc1-6f7cd43e6a94","system_id":"levelo_inurba_marseille","lat":43.30927,"lon":5.40147,"is_reserved":false,"is_disabled":false,"rental_uris":{"android":"levelo://app?vid=d46154a4-9981-41a2-bfc1-6f7cd43e6a94","ios":"levelo://app?vid=d46154a4-9981-41a2-bfc1-6f7cd43e6a94"},"vehicle_type_id":"4","last_reported":1726592914,"current_range_meters":25600,"station_id":"ce4bgvp2rcd13ifvqct0","pricing_plan_id":"cebpf4jnsgd1na2vs0mg"},{"bike_id":"99684f50-b398-427b-a4e9-7ca0a0382c79","system_id":"levelo_inurba_marseille","lat":43.23199,"lon":5.35544,"is_reserved":false,"is_disabled":false,"rental_uris":{"android":"levelo://app?vid=99684f50-b398-427b-a4e9-7ca0a0382c79","ios":"levelo://app?vid=99684f50-b398-427b-a4e9-7ca0a0382c79"},"vehicle_type_id":"4","last_reported":1726592914,"current_range_meters":38800,"station_id":"ce4bhu92rcd13ifvqi70","pricing_plan_id":"cebpf4jnsgd1na2vs0mg"},{"bike_id":"3035210a-8e82-44b6-b145-b99eb6bcaa5e","system_id":"levelo_inurba_marseille","lat":43.28458,"lon":5.35894,"is_reserved":false,"is_disabled":false,"rental_uris":{"android":"levelo://app?vid=3035210a-8e82-44b6-b145-b99eb6bcaa5e","ios":"levelo://app?vid=3035210a-8e82-44b6-b145-b99eb6bcaa5e"},"vehicle_type_id":"4","last_reported":1726592914,"current_range_meters":15200,"station_id":"ce4bhah2rcd13ifvqei0","pricing_plan_id":"cebpf4jnsgd1na2vs0mg"},{"bike_id":"d782c430-b2c7-45ce-aaaf-78dc9a80ca97","system_id":"levelo_inurba_marseille","lat":43.3302,"lon":5.39049,"is_reserved":false,"is_disabled":false,"rental_uris":{"android":"levelo://app?vid=d782c430-b2c7-45ce-aaaf-78dc9a80ca97","ios":"levelo://app?vid=d782c430-b2c7-45ce-aaaf-78dc9a80ca97"},"vehicle_type_id":"4","last_reported":1726592914,"current_range_meters":26800,"station_id":"ce4bhr92rcd13ifvqhrg","pricing_plan_id":"cebpf4jnsgd1na2vs0mg"},{"bike_id":"dd4b5128-6c65-4324-96d6-df731de78aa8","system_id":"levelo_inurba_marseille","lat":43.33023,"lon":5.39036,"is_reserved":false,"is_disabled":false,"rental_uris":{"android":"levelo://app?vid=dd4b5128-6c65-4324-96d6-df731de78aa8","ios":"levelo://app?vid=dd4b5128-6c65-4324-96d6-df731de78aa8"},"vehicle_type_id":"4","last_reported":1726592914,"current_range_meters":25200,"station_id":"ce4bhr92rcd13ifvqhrg","pricing_plan_id":"cebpf4jnsgd1na2vs0mg"},{"bike_id":"6c1468de-e14a-407b-9a20-3cdfa0922744","system_id":"levelo_inurba_marseille","lat":43.28462,"lon":5.35892,"is_reserved":false,"is_disabled":false,"rental_uris":{"android":"levelo://app?vid=6c1468de-e14a-407b-9a20-3cdfa0922744","ios":"levelo://app?vid=6c1468de-e14a-407b-9a20-3cdfa0922744"},"vehicle_type_id":"4","last_reported":1726592914,"current_range_meters":38800,"station_id":"ce4bhah2rcd13ifvqei0","pricing_plan_id":"cebpf4jnsgd1na2vs0mg"},{"bike_id":"496e6e0a-03c0-469b-a66b-529cb267131d","system_id":"levelo_inurba_marseille","lat":43.24177,"lon":5.39735,"is_reserved":false,"is_disabled":false,"rental_uris":{"android":"levelo://app?vid=496e6e0a-03c0-469b-a66b-529cb267131d","ios":"levelo://app?vid=496e6e0a-03c0-469b-a66b-529cb267131d"},"vehicle_type_id":"4","last_reported":1726592914,"current_range_meters":31200,"station_id":"ce4bhn12rcd13ifvqgpg","pricing_plan_id":"cebpf4jnsgd1na2vs0mg"},{"bike_id":"2b714e73-49f8-4f26-bb6d-7d72ce23aabc","system_id":"levelo_inurba_marseille","lat":43.23053,"lon":5.35488,"is_reserved":false,"is_disabled":false,"rental_uris":{"android":"levelo://app?vid=2b714e73-49f8-4f26-bb6d-7d72ce23aabc","ios":"levelo://app?vid=2b714e73-49f8-4f26-bb6d-7d72ce23aabc"},"vehicle_type_id":"4","last_reported":1726592914,"current_range_meters":11600,"station_id":"cpo3342slgdg3j2ifvpg","pricing_plan_id":"cebpf4jnsgd1na2vs0mg"},{"bike_id":"652602f9-cf0c-4250-b345-7ab1133036f9","system_id":"levelo_inurba_marseille","lat":43.30134,"lon":5.39877,"is_reserved":false,"is_disabled":false,"rental_uris":{"android":"levelo://app?vid=652602f9-cf0c-4250-b345-7ab1133036f9","ios":"levelo://app?vid=652602f9-cf0c-4250-b345-7ab1133036f9"},"vehicle_type_id":"4","last_reported":1726592914,"current_range_meters":6400,"station_id":"ce4bh0h2rcd13ifvqd40","pricing_plan_id":"cebpf4jnsgd1na2vs0mg"},{"bike_id":"24b6223a-97c2-4a98-b8cd-63273ae1c7bd","system_id":"levelo_inurba_marseille","lat":43.31352,"lon":5.38495,"is_reserved":false,"is_disabled":false,"rental_uris":{"android":"levelo://app?vid=24b6223a-97c2-4a98-b8cd-63273ae1c7bd","ios":"levelo://app?vid=24b6223a-97c2-4a98-b8cd-63273ae1c7bd"},"vehicle_type_id":"4","last_reported":1726592914,"current_range_meters":32400,"station_id":"ce4bgt92rcd13ifvqcf0","pricing_plan_id":"cebpf4jnsgd1na2vs0mg"},{"bike_id":"09a9083f-e5fe-4928-a0df-7e196ecdfb02","system_id":"levelo_inurba_marseille","lat":43.27947,"lon":5.4105,"is_reserved":false,"is_disabled":false,"rental_uris":{"android":"levelo://app?vid=09a9083f-e5fe-4928-a0df-7e196ecdfb02","ios":"levelo://app?vid=09a9083f-e5fe-4928-a0df-7e196ecdfb02"},"vehicle_type_id":"4","last_reported":1726592914,"current_range_meters":26000,"station_id":"ce4bhnp2rcd13ifvqh0g","pricing_plan_id":"cebpf4jnsgd1na2vs0mg"},{"bike_id":"dff3dd77-7187-4652-8073-1f3353d0530f","system_id":"levelo_inurba_marseille","lat":43.28688,"lon":5.38104,"is_reserved":false,"is_disabled":false,"rental_uris":{"android":"levelo://app?vid=dff3dd77-7187-4652-8073-1f3353d0530f","ios":"levelo://app?vid=dff3dd77-7187-4652-8073-1f3353d0530f"},"vehicle_type_id":"4","last_reported":1726592914,"current_range_meters":6400,"station_id":"ce4bha12rcd13ifvqee0","pricing_plan_id":"cebpf4jnsgd1na2vs0mg"},{"bike_id":"8ab9fe4d-c184-4acf-a19d-e1133a2f9e06","system_id":"levelo_inurba_marseille","lat":43.23943,"lon":5.36637,"is_reserved":false,"is_disabled":false,"rental_uris":{"android":"levelo://app?vid=8ab9fe4d-c184-4acf-a19d-e1133a2f9e06","ios":"levelo://app?vid=8ab9fe4d-c184-4acf-a19d-e1133a2f9e06"},"vehicle_type_id":"4","last_reported":1726592914,"current_range_meters":2800,"station_id":"ce4bhi12rcd13ifvqfp0","pricing_plan_id":"cebpf4jnsgd1na2vs0mg"},{"bike_id":"2e4c0d1a-a4a2-40d5-9c70-26993c46a5f6","system_id":"levelo_inurba_marseille","lat":43.23193,"lon":5.35546,"is_reserved":false,"is_disabled":false,"rental_uris":{"android":"levelo://app?vid=2e4c0d1a-a4a2-40d5-9c70-26993c46a5f6","ios":"levelo://app?vid=2e4c0d1a-a4a2-40d5-9c70-26993c46a5f6"},"vehicle_type_id":"4","last_reported":1726592914,"current_range_meters":38800,"station_id":"ce4bhu92rcd13ifvqi70","pricing_plan_id":"cebpf4jnsgd1na2vs0mg"},{"bike_id":"5939b51a-ff13-4940-a75e-a5df5523ff2f","system_id":"levelo_inurba_marseille","lat":43.24672,"lon":5.38159,"is_reserved":false,"is_disabled":false,"rental_uris":{"android":"levelo://app?vid=5939b51a-ff13-4940-a75e-a5df5523ff2f","ios":"levelo://app?vid=5939b51a-ff13-4940-a75e-a5df5523ff2f"},"vehicle_type_id":"4","last_reported":1726592914,"current_range_meters":8000,"station_id":"ce4bhih2rcd13ifvqfr0","pricing_plan_id":"cebpf4jnsgd1na2vs0mg"},{"bike_id":"883b0f70-5b2a-4fae-ad4d-f95872e47fd9","system_id":"levelo_inurba_marseille","lat":43.289325,"lon":5.384056,"is_reserved":false,"is_disabled":false,"rental_uris":{"android":"levelo://app?vid=883b0f70-5b2a-4fae-ad4d-f95872e47fd9","ios":"levelo://app?vid=883b0f70-5b2a-4fae-ad4d-f95872e47fd9"},"vehicle_type_id":"4","last_reported":1726592914,"current_range_meters":16800,"station_id":"ce4bho92rcd13ifvqh4g","pricing_plan_id":"cebpf4jnsgd1na2vs0mg"},{"bike_id":"2798510c-1b4b-4272-8f83-144ceb6da2fb","system_id":"levelo_inurba_marseille","lat":43.29553,"lon":5.42294,"is_reserved":false,"is_disabled":false,"rental_uris":{"android":"levelo://app?vid=2798510c-1b4b-4272-8f83-144ceb6da2fb","ios":"levelo://app?vid=2798510c-1b4b-4272-8f83-144ceb6da2fb"},"vehicle_type_id":"4","last_reported":1726592914,"current_range_meters":8400,"station_id":"ce4bhph2rcd13ifvqhdg","pricing_plan_id":"cebpf4jnsgd1na2vs0mg"},{"bike_id":"4fe04e03-91b0-4daa-b72b-920723f6a5e1","system_id":"levelo_inurba_marseille","lat":43.306452,"lon":5.401034,"is_reserved":false,"is_disabled":false,"rental_uris":{"android":"levelo://app?vid=4fe04e03-91b0-4daa-b72b-920723f6a5e1","ios":"levelo://app?vid=4fe04e03-91b0-4daa-b72b-920723f6a5e1"},"vehicle_type_id":"4","last_reported":1726592914,"current_range_meters":27600,"station_id":"ce4bh0h2rcd13ifvqd50","pricing_plan_id":"cebpf4jnsgd1na2vs0mg"},{"bike_id":"255def12-1a7e-4787-b2e4-a6a54888a394","system_id":"levelo_inurba_marseille","lat":43.3247,"lon":5.3659,"is_reserved":false,"is_disabled":false,"rental_uris":{"android":"levelo://app?vid=255def12-1a7e-4787-b2e4-a6a54888a394","ios":"levelo://app?vid=255def12-1a7e-4787-b2e4-a6a54888a394"},"vehicle_type_id":"4","last_reported":1726592914,"current_range_meters":6800,"station_id":"ce4bhs12rcd13ifvqhvg","pricing_plan_id":"cebpf4jnsgd1na2vs0mg"},{"bike_id":"6dd17a2f-59bb-4453-859d-2c09ab795824","system_id":"levelo_inurba_marseille","lat":43.33024,"lon":5.39043,"is_reserved":false,"is_disabled":false,"rental_uris":{"android":"levelo://app?vid=6dd17a2f-59bb-4453-859d-2c09ab795824","ios":"levelo://app?vid=6dd17a2f-59bb-4453-859d-2c09ab795824"},"vehicle_type_id":"4","last_reported":1726592914,"current_range_meters":29600,"station_id":"ce4bhr92rcd13ifvqhrg","pricing_plan_id":"cebpf4jnsgd1na2vs0mg"},{"bike_id":"a15bf1db-d86c-4161-8572-8c44b835fab8","system_id":"levelo_inurba_marseille","lat":43.26057,"lon":5.39398,"is_reserved":false,"is_disabled":false,"rental_uris":{"android":"levelo://app?vid=a15bf1db-d86c-4161-8572-8c44b835fab8","ios":"levelo://app?vid=a15bf1db-d86c-4161-8572-8c44b835fab8"},"vehicle_type_id":"4","last_reported":1726592914,"current_range_meters":3200,"station_id":"ce4bhh92rcd13ifvqfj0","pricing_plan_id":"cebpf4jnsgd1na2vs0mg"},{"bike_id":"0e35b643-b45a-4dae-92ea-4f02271e281d","system_id":"levelo_inurba_marseille","lat":43.31755,"lon":5.39006,"is_reserved":false,"is_disabled":false,"rental_uris":{"android":"levelo://app?vid=0e35b643-b45a-4dae-92ea-4f02271e281d","ios":"levelo://app?vid=0e35b643-b45a-4dae-92ea-4f02271e281d"},"vehicle_type_id":"4","last_reported":1726592914,"current_range_meters":13600,"station_id":"ce4bhqp2rcd13ifvqhng","pricing_plan_id":"cebpf4jnsgd1na2vs0mg"},{"bike_id":"70fc7e83-326c-4da5-9b44-70451b78b4c2","system_id":"levelo_inurba_marseille","lat":43.3248,"lon":5.36568,"is_reserved":false,"is_disabled":false,"rental_uris":{"android":"levelo://app?vid=70fc7e83-326c-4da5-9b44-70451b78b4c2","ios":"levelo://app?vid=70fc7e83-326c-4da5-9b44-70451b78b4c2"},"vehicle_type_id":"4","last_reported":1726592914,"current_range_meters":15200,"station_id":"ce4bhs12rcd13ifvqhvg","pricing_plan_id":"cebpf4jnsgd1na2vs0mg"},{"bike_id":"0308f358-78cd-4ed3-9f73-03a0aff7b7aa","system_id":"levelo_inurba_marseille","lat":43.29901,"lon":5.43654,"is_reserved":false,"is_disabled":false,"rental_uris":{"android":"levelo://app?vid=0308f358-78cd-4ed3-9f73-03a0aff7b7aa","ios":"levelo://app?vid=0308f358-78cd-4ed3-9f73-03a0aff7b7aa"},"vehicle_type_id":"4","last_reported":1726592914,"current_range_meters":17600,"station_id":"ce4bhpp2rcd13ifvqhfg","pricing_plan_id":"cebpf4jnsgd1na2vs0mg"},{"bike_id":"a794786c-22f6-41d6-ac7e-89be02eddac4","system_id":"levelo_inurba_marseille","lat":43.295868,"lon":5.375231,"is_reserved":false,"is_disabled":false,"rental_uris":{"android":"levelo://app?vid=a794786c-22f6-41d6-ac7e-89be02eddac4","ios":"levelo://app?vid=a794786c-22f6-41d6-ac7e-89be02eddac4"},"vehicle_type_id":"4","last_reported":1726592914,"current_range_meters":34000,"station_id":"ce4bgh92rcd13ifvqb50","pricing_plan_id":"cebpf4jnsgd1na2vs0mg"},{"bike_id":"84fff7ff-831a-4fef-a815-767fc6abb806","system_id":"levelo_inurba_marseille","lat":43.27988,"lon":5.40004,"is_reserved":false,"is_disabled":false,"rental_uris":{"android":"levelo://app?vid=84fff7ff-831a-4fef-a815-767fc6abb806","ios":"levelo://app?vid=84fff7ff-831a-4fef-a815-767fc6abb806"},"vehicle_type_id":"4","last_reported":1726592914,"current_range_meters":19200,"station_id":"ce4bho92rcd13ifvqh4g","pricing_plan_id":"cebpf4jnsgd1na2vs0mg"},{"bike_id":"88fafa0e-18d8-4d48-a42c-020306491765","system_id":"levelo_inurba_marseille","lat":43.25088,"lon":5.39506,"is_reserved":false,"is_disabled":false,"rental_uris":{"android":"levelo://app?vid=88fafa0e-18d8-4d48-a42c-020306491765","ios":"levelo://app?vid=88fafa0e-18d8-4d48-a42c-020306491765"},"vehicle_type_id":"4","last_reported":1726592914,"current_range_meters":31200,"station_id":"ce4bhm12rcd13ifvqgkg","pricing_plan_id":"cebpf4jnsgd1na2vs0mg"},{"bike_id":"65eecb51-7024-4f30-af20-d65f809bce2b","system_id":"levelo_inurba_marseille","lat":43.31341,"lon":5.37931,"is_reserved":false,"is_disabled":false,"rental_uris":{"android":"levelo://app?vid=65eecb51-7024-4f30-af20-d65f809bce2b","ios":"levelo://app?vid=65eecb51-7024-4f30-af20-d65f809bce2b"},"vehicle_type_id":"4","last_reported":1726592914,"current_range_meters":7200,"station_id":"","pricing_plan_id":"cebpf4jnsgd1na2vs0mg"},{"bike_id":"2c77c5f0-cb55-4024-8106-9340ac23b8eb","system_id":"levelo_inurba_marseille","lat":43.26552,"lon":5.3729,"is_reserved":false,"is_disabled":false,"rental_uris":{"android":"levelo://app?vid=2c77c5f0-cb55-4024-8106-9340ac23b8eb","ios":"levelo://app?vid=2c77c5f0-cb55-4024-8106-9340ac23b8eb"},"vehicle_type_id":"4","last_reported":1726592914,"current_range_meters":24000,"station_id":"ce4bhg12rcd13ifvqf70","pricing_plan_id":"cebpf4jnsgd1na2vs0mg"},{"bike_id":"908f7c20-f699-4f3a-bfb6-525922676f70","system_id":"levelo_inurba_marseille","lat":43.27997,"lon":5.40005,"is_reserved":false,"is_disabled":false,"rental_uris":{"android":"levelo://app?vid=908f7c20-f699-4f3a-bfb6-525922676f70","ios":"levelo://app?vid=908f7c20-f699-4f3a-bfb6-525922676f70"},"vehicle_type_id":"4","last_reported":1726592914,"current_range_meters":28800,"station_id":"ce4bho92rcd13ifvqh4g","pricing_plan_id":"cebpf4jnsgd1na2vs0mg"},{"bike_id":"5ad76090-8691-48ec-9040-016e70c34f7b","system_id":"levelo_inurba_marseille","lat":43.28035,"lon":5.36946,"is_reserved":false,"is_disabled":false,"rental_uris":{"android":"levelo://app?vid=5ad76090-8691-48ec-9040-016e70c34f7b","ios":"levelo://app?vid=5ad76090-8691-48ec-9040-016e70c34f7b"},"vehicle_type_id":"4","last_reported":1726592914,"current_range_meters":32800,"station_id":"ce4bha12rcd13ifvqef0","pricing_plan_id":"cebpf4jnsgd1na2vs0mg"},{"bike_id":"135f7a05-ba61-4293-bc8a-22a6432afaf0","system_id":"levelo_inurba_marseille","lat":43.29722,"lon":5.36613,"is_reserved":false,"is_disabled":false,"rental_uris":{"android":"levelo://app?vid=135f7a05-ba61-4293-bc8a-22a6432afaf0","ios":"levelo://app?vid=135f7a05-ba61-4293-bc8a-22a6432afaf0"},"vehicle_type_id":"4","last_reported":1726592914,"current_range_meters":38800,"station_id":"ce4bgn12rcd13ifvqbt0","pricing_plan_id":"cebpf4jnsgd1na2vs0mg"},{"bike_id":"c5937029-add3-4f15-b9a2-17fd481e6b21","system_id":"levelo_inurba_marseille","lat":43.29008,"lon":5.35618,"is_reserved":false,"is_disabled":false,"rental_uris":{"android":"levelo://app?vid=c5937029-add3-4f15-b9a2-17fd481e6b21","ios":"levelo://app?vid=c5937029-add3-4f15-b9a2-17fd481e6b21"},"vehicle_type_id":"4","last_reported":1726592914,"current_range_meters":8000,"station_id":"ce4bhb92rcd13ifvqen0","pricing_plan_id":"cebpf4jnsgd1na2vs0mg"},{"bike_id":"f2e19ac7-8773-44e6-9d45-cf283658f473","system_id":"levelo_inurba_marseille","lat":43.30873,"lon":5.39642,"is_reserved":false,"is_disabled":false,"rental_uris":{"android":"levelo://app?vid=f2e19ac7-8773-44e6-9d45-cf283658f473","ios":"levelo://app?vid=f2e19ac7-8773-44e6-9d45-cf283658f473"},"vehicle_type_id":"4","last_reported":1726592914,"current_range_meters":11600,"station_id":"ce4bh012rcd13ifvqcv0","pricing_plan_id":"cebpf4jnsgd1na2vs0mg"},{"bike_id":"de0b1410-fd64-4729-8215-5f15114b3e7d","system_id":"levelo_inurba_marseille","lat":43.29324,"lon":5.41163,"is_reserved":false,"is_disabled":false,"rental_uris":{"android":"levelo://app?vid=de0b1410-fd64-4729-8215-5f15114b3e7d","ios":"levelo://app?vid=de0b1410-fd64-4729-8215-5f15114b3e7d"},"vehicle_type_id":"4","last_reported":1726592914,"current_range_meters":36000,"station_id":"","pricing_plan_id":"cebpf4jnsgd1na2vs0mg"},{"bike_id":"e1055f26-c66c-41ee-bf2f-25406c6db080","system_id":"levelo_inurba_marseille","lat":43.33018,"lon":5.39042,"is_reserved":false,"is_disabled":false,"rental_uris":{"android":"levelo://app?vid=e1055f26-c66c-41ee-bf2f-25406c6db080","ios":"levelo://app?vid=e1055f26-c66c-41ee-bf2f-25406c6db080"},"vehicle_type_id":"4","last_reported":1726592914,"current_range_meters":38400,"station_id":"ce4bhr92rcd13ifvqhrg","pricing_plan_id":"cebpf4jnsgd1na2vs0mg"},{"bike_id":"a80803cf-d2ba-455f-99a9-64b1d95e5f09","system_id":"levelo_inurba_marseille","lat":43.29518,"lon":5.39044,"is_reserved":false,"is_disabled":false,"rental_uris":{"android":"levelo://app?vid=a80803cf-d2ba-455f-99a9-64b1d95e5f09","ios":"levelo://app?vid=a80803cf-d2ba-455f-99a9-64b1d95e5f09"},"vehicle_type_id":"4","last_reported":1726592914,"current_range_meters":37600,"station_id":"ce4bh3p2rcd13ifvqdp0","pricing_plan_id":"cebpf4jnsgd1na2vs0mg"},{"bike_id":"a13b8302-4ea2-4c29-8731-e0e42e68149a","system_id":"levelo_inurba_marseille","lat":43.32294,"lon":5.38265,"is_reserved":false,"is_disabled":false,"rental_uris":{"android":"levelo://app?vid=a13b8302-4ea2-4c29-8731-e0e42e68149a","ios":"levelo://app?vid=a13b8302-4ea2-4c29-8731-e0e42e68149a"},"vehicle_type_id":"4","last_reported":1726592914,"current_range_meters":38800,"station_id":"ce4bhr12rcd13ifvqhqg","pricing_plan_id":"cebpf4jnsgd1na2vs0mg"},{"bike_id":"dc17347b-6de9-4ce4-9462-db5c81d57c80","system_id":"levelo_inurba_marseille","lat":43.2396,"lon":5.36634,"is_reserved":false,"is_disabled":false,"rental_uris":{"android":"levelo://app?vid=dc17347b-6de9-4ce4-9462-db5c81d57c80","ios":"levelo://app?vid=dc17347b-6de9-4ce4-9462-db5c81d57c80"},"vehicle_type_id":"4","last_reported":1726592914,"current_range_meters":5600,"station_id":"ce4bhi12rcd13ifvqfp0","pricing_plan_id":"cebpf4jnsgd1na2vs0mg"},{"bike_id":"ce1e6254-7131-49d1-8c9c-fb1cdd0a26d4","system_id":"levelo_inurba_marseille","lat":43.292206,"lon":5.360315,"is_reserved":false,"is_disabled":false,"rental_uris":{"android":"levelo://app?vid=ce1e6254-7131-49d1-8c9c-fb1cdd0a26d4","ios":"levelo://app?vid=ce1e6254-7131-49d1-8c9c-fb1cdd0a26d4"},"vehicle_type_id":"4","last_reported":1726592914,"current_range_meters":35600,"station_id":"ce4bhbh2rcd13ifvqeqg","pricing_plan_id":"cebpf4jnsgd1na2vs0mg"},{"bike_id":"db7df4a6-605a-4035-a15c-80a3493b0d52","system_id":"levelo_inurba_marseille","lat":43.292847,"lon":5.38999,"is_reserved":false,"is_disabled":false,"rental_uris":{"android":"levelo://app?vid=db7df4a6-605a-4035-a15c-80a3493b0d52","ios":"levelo://app?vid=db7df4a6-605a-4035-a15c-80a3493b0d52"},"vehicle_type_id":"4","last_reported":1726592914,"current_range_meters":8800,"station_id":"","pricing_plan_id":"cebpf4jnsgd1na2vs0mg"},{"bike_id":"00b6ec3d-3f2d-4491-935d-4937cc120f6c","system_id":"levelo_inurba_marseille","lat":43.29265,"lon":5.38435,"is_reserved":false,"is_disabled":false,"rental_uris":{"android":"levelo://app?vid=00b6ec3d-3f2d-4491-935d-4937cc120f6c","ios":"levelo://app?vid=00b6ec3d-3f2d-4491-935d-4937cc120f6c"},"vehicle_type_id":"4","last_reported":1726592914,"current_range_meters":16000,"station_id":"ce4bh692rcd13ifvqea0","pricing_plan_id":"cebpf4jnsgd1na2vs0mg"},{"bike_id":"cbaf03bf-0340-4293-a424-18d0ef0b595f","system_id":"levelo_inurba_marseille","lat":43.2989,"lon":5.43657,"is_reserved":false,"is_disabled":false,"rental_uris":{"android":"levelo://app?vid=cbaf03bf-0340-4293-a424-18d0ef0b595f","ios":"levelo://app?vid=cbaf03bf-0340-4293-a424-18d0ef0b595f"},"vehicle_type_id":"4","last_reported":1726592914,"current_range_meters":20000,"station_id":"ce4bhpp2rcd13ifvqhfg","pricing_plan_id":"cebpf4jnsgd1na2vs0mg"},{"bike_id":"25325a8a-2e85-4e60-97c1-7920b8843e3a","system_id":"levelo_inurba_marseille","lat":43.281567,"lon":5.426466,"is_reserved":false,"is_disabled":false,"rental_uris":{"android":"levelo://app?vid=25325a8a-2e85-4e60-97c1-7920b8843e3a","ios":"levelo://app?vid=25325a8a-2e85-4e60-97c1-7920b8843e3a"},"vehicle_type_id":"4","last_reported":1726592914,"current_range_meters":3600,"station_id":"ce4bhnh2rcd13ifvqgug","pricing_plan_id":"cebpf4jnsgd1na2vs0mg"},{"bike_id":"d8e751ce-68d8-4843-af31-f29be99d953d","system_id":"levelo_inurba_marseille","lat":43.23957,"lon":5.36629,"is_reserved":false,"is_disabled":false,"rental_uris":{"android":"levelo://app?vid=d8e751ce-68d8-4843-af31-f29be99d953d","ios":"levelo://app?vid=d8e751ce-68d8-4843-af31-f29be99d953d"},"vehicle_type_id":"4","last_reported":1726592914,"current_range_meters":12000,"station_id":"ce4bhi12rcd13ifvqfp0","pricing_plan_id":"cebpf4jnsgd1na2vs0mg"},{"bike_id":"ac0e27a9-a199-4114-9237-e60e67a6666d","system_id":"levelo_inurba_marseille","lat":43.281543,"lon":5.426484,"is_reserved":false,"is_disabled":false,"rental_uris":{"android":"levelo://app?vid=ac0e27a9-a199-4114-9237-e60e67a6666d","ios":"levelo://app?vid=ac0e27a9-a199-4114-9237-e60e67a6666d"},"vehicle_type_id":"4","last_reported":1726592914,"current_range_meters":11200,"station_id":"ce4bhnh2rcd13ifvqgug","pricing_plan_id":"cebpf4jnsgd1na2vs0mg"},{"bike_id":"73e17ec8-e47d-415b-a693-9917ccf29905","system_id":"levelo_inurba_marseille","lat":43.31754,"lon":5.39015,"is_reserved":false,"is_disabled":false,"rental_uris":{"android":"levelo://app?vid=73e17ec8-e47d-415b-a693-9917ccf29905","ios":"levelo://app?vid=73e17ec8-e47d-415b-a693-9917ccf29905"},"vehicle_type_id":"4","last_reported":1726592914,"current_range_meters":38800,"station_id":"ce4bhqp2rcd13ifvqhng","pricing_plan_id":"cebpf4jnsgd1na2vs0mg"},{"bike_id":"bb9b0b96-fc7b-46c6-8bd7-e61f24aa0921","system_id":"levelo_inurba_marseille","lat":43.32359,"lon":5.38876,"is_reserved":false,"is_disabled":false,"rental_uris":{"android":"levelo://app?vid=bb9b0b96-fc7b-46c6-8bd7-e61f24aa0921","ios":"levelo://app?vid=bb9b0b96-fc7b-46c6-8bd7-e61f24aa0921"},"vehicle_type_id":"4","last_reported":1726592914,"current_range_meters":4400,"station_id":"ce4bhqp2rcd13ifvqhog","pricing_plan_id":"cebpf4jnsgd1na2vs0mg"},{"bike_id":"69cecb63-35dc-493e-b55a-e8a958918033","system_id":"levelo_inurba_marseille","lat":43.29047,"lon":5.35909,"is_reserved":false,"is_disabled":false,"rental_uris":{"android":"levelo://app?vid=69cecb63-35dc-493e-b55a-e8a958918033","ios":"levelo://app?vid=69cecb63-35dc-493e-b55a-e8a958918033"},"vehicle_type_id":"4","last_reported":1726592914,"current_range_meters":38800,"station_id":"ce4bha92rcd13ifvqeg0","pricing_plan_id":"cebpf4jnsgd1na2vs0mg"},{"bike_id":"c82d7f3c-afe2-4dff-9dcb-16ae1a7b7ae3","system_id":"levelo_inurba_marseille","lat":43.32286,"lon":5.38269,"is_reserved":false,"is_disabled":false,"rental_uris":{"android":"levelo://app?vid=c82d7f3c-afe2-4dff-9dcb-16ae1a7b7ae3","ios":"levelo://app?vid=c82d7f3c-afe2-4dff-9dcb-16ae1a7b7ae3"},"vehicle_type_id":"4","last_reported":1726592914,"current_range_meters":9200,"station_id":"ce4bhr12rcd13ifvqhqg","pricing_plan_id":"cebpf4jnsgd1na2vs0mg"},{"bike_id":"cd5bcc1f-6586-4314-9ac3-73bb4c6b0673","system_id":"levelo_inurba_marseille","lat":43.274872,"lon":5.424514,"is_reserved":false,"is_disabled":false,"rental_uris":{"android":"levelo://app?vid=cd5bcc1f-6586-4314-9ac3-73bb4c6b0673","ios":"levelo://app?vid=cd5bcc1f-6586-4314-9ac3-73bb4c6b0673"},"vehicle_type_id":"4","last_reported":1726592914,"current_range_meters":24400,"station_id":"ce4bhn92rcd13ifvqgrg","pricing_plan_id":"cebpf4jnsgd1na2vs0mg"},{"bike_id":"2cf8f2c1-1b7e-4f50-accd-dd993e9f32eb","system_id":"levelo_inurba_marseille","lat":43.29078,"lon":5.37166,"is_reserved":false,"is_disabled":false,"rental_uris":{"android":"levelo://app?vid=2cf8f2c1-1b7e-4f50-accd-dd993e9f32eb","ios":"levelo://app?vid=2cf8f2c1-1b7e-4f50-accd-dd993e9f32eb"},"vehicle_type_id":"4","last_reported":1726592914,"current_range_meters":16800,"station_id":"ce4bh5p2rcd13ifvqe4g","pricing_plan_id":"cebpf4jnsgd1na2vs0mg"},{"bike_id":"328d45f9-980e-4811-97c0-47d761861509","system_id":"levelo_inurba_marseille","lat":43.29847,"lon":5.37836,"is_reserved":false,"is_disabled":false,"rental_uris":{"android":"levelo://app?vid=328d45f9-980e-4811-97c0-47d761861509","ios":"levelo://app?vid=328d45f9-980e-4811-97c0-47d761861509"},"vehicle_type_id":"4","last_reported":1726592914,"current_range_meters":16400,"station_id":"ce4bgkh2rcd13ifvqbl0","pricing_plan_id":"cebpf4jnsgd1na2vs0mg"},{"bike_id":"fb7daacd-447d-45d9-b7a0-0a90c8305923","system_id":"levelo_inurba_marseille","lat":43.29023,"lon":5.38636,"is_reserved":false,"is_disabled":false,"rental_uris":{"android":"levelo://app?vid=fb7daacd-447d-45d9-b7a0-0a90c8305923","ios":"levelo://app?vid=fb7daacd-447d-45d9-b7a0-0a90c8305923"},"vehicle_type_id":"4","last_reported":1726592914,"current_range_meters":30800,"station_id":"ce4bh4p2rcd13ifvqe0g","pricing_plan_id":"cebpf4jnsgd1na2vs0mg"},{"bike_id":"b1512e21-0d75-4511-8316-0151c5567a4e","system_id":"levelo_inurba_marseille","lat":43.29718,"lon":5.36628,"is_reserved":false,"is_disabled":false,"rental_uris":{"android":"levelo://app?vid=b1512e21-0d75-4511-8316-0151c5567a4e","ios":"levelo://app?vid=b1512e21-0d75-4511-8316-0151c5567a4e"},"vehicle_type_id":"4","last_reported":1726592914,"current_range_meters":21600,"station_id":"ce4bgn12rcd13ifvqbt0","pricing_plan_id":"cebpf4jnsgd1na2vs0mg"},{"bike_id":"3dc3da81-2806-4512-aaef-0e95a47855d9","system_id":"levelo_inurba_marseille","lat":43.30589,"lon":5.39361,"is_reserved":false,"is_disabled":false,"rental_uris":{"android":"levelo://app?vid=3dc3da81-2806-4512-aaef-0e95a47855d9","ios":"levelo://app?vid=3dc3da81-2806-4512-aaef-0e95a47855d9"},"vehicle_type_id":"4","last_reported":1726592914,"current_range_meters":38800,"station_id":"ce4bh0p2rcd13ifvqd80","pricing_plan_id":"cebpf4jnsgd1na2vs0mg"},{"bike_id":"fa690805-233a-4a70-a9f3-33f1b67cdb1f","system_id":"levelo_inurba_marseille","lat":43.3228,"lon":5.38269,"is_reserved":false,"is_disabled":false,"rental_uris":{"android":"levelo://app?vid=fa690805-233a-4a70-a9f3-33f1b67cdb1f","ios":"levelo://app?vid=fa690805-233a-4a70-a9f3-33f1b67cdb1f"},"vehicle_type_id":"4","last_reported":1726592914,"current_range_meters":31200,"station_id":"ce4bhr12rcd13ifvqhqg","pricing_plan_id":"cebpf4jnsgd1na2vs0mg"},{"bike_id":"8b608b96-fedf-4511-8d4b-09bad2606e1a","system_id":"levelo_inurba_marseille","lat":43.27723,"lon":5.4114,"is_reserved":false,"is_disabled":false,"rental_uris":{"android":"levelo://app?vid=8b608b96-fedf-4511-8d4b-09bad2606e1a","ios":"levelo://app?vid=8b608b96-fedf-4511-8d4b-09bad2606e1a"},"vehicle_type_id":"4","last_reported":1726592914,"current_range_meters":9200,"station_id":"","pricing_plan_id":"cebpf4jnsgd1na2vs0mg"},{"bike_id":"74fcf1e7-64a1-42f8-bcec-bf0af491e527","system_id":"levelo_inurba_marseille","lat":43.31713,"lon":5.43708,"is_reserved":false,"is_disabled":false,"rental_uris":{"android":"levelo://app?vid=74fcf1e7-64a1-42f8-bcec-bf0af491e527","ios":"levelo://app?vid=74fcf1e7-64a1-42f8-bcec-bf0af491e527"},"vehicle_type_id":"4","last_reported":1726592914,"current_range_meters":8000,"station_id":"ce4bhp92rcd13ifvqhcg","pricing_plan_id":"cebpf4jnsgd1na2vs0mg"},{"bike_id":"becaca93-0c59-4dc4-85fc-604fa9fc5de1","system_id":"levelo_inurba_marseille","lat":43.279602,"lon":5.387423,"is_reserved":false,"is_disabled":false,"rental_uris":{"android":"levelo://app?vid=becaca93-0c59-4dc4-85fc-604fa9fc5de1","ios":"levelo://app?vid=becaca93-0c59-4dc4-85fc-604fa9fc5de1"},"vehicle_type_id":"4","last_reported":1726592914,"current_range_meters":25200,"station_id":"ce4bhg12rcd13ifvqf80","pricing_plan_id":"cebpf4jnsgd1na2vs0mg"},{"bike_id":"7934c2b6-1bac-43bf-8ede-d33bc81e347b","system_id":"levelo_inurba_marseille","lat":43.23966,"lon":5.36632,"is_reserved":false,"is_disabled":false,"rental_uris":{"android":"levelo://app?vid=7934c2b6-1bac-43bf-8ede-d33bc81e347b","ios":"levelo://app?vid=7934c2b6-1bac-43bf-8ede-d33bc81e347b"},"vehicle_type_id":"4","last_reported":1726592914,"current_range_meters":2800,"station_id":"ce4bhi12rcd13ifvqfp0","pricing_plan_id":"cebpf4jnsgd1na2vs0mg"},{"bike_id":"8e1fdf17-2211-46da-9d6a-081bb876b3c5","system_id":"levelo_inurba_marseille","lat":43.29254,"lon":5.40902,"is_reserved":false,"is_disabled":false,"rental_uris":{"android":"levelo://app?vid=8e1fdf17-2211-46da-9d6a-081bb876b3c5","ios":"levelo://app?vid=8e1fdf17-2211-46da-9d6a-081bb876b3c5"},"vehicle_type_id":"4","last_reported":1726592914,"current_range_meters":28400,"station_id":"ce4bh192rcd13ifvqdc0","pricing_plan_id":"cebpf4jnsgd1na2vs0mg"},{"bike_id":"2ec83d37-5232-4493-8ff7-255d972f2175","system_id":"levelo_inurba_marseille","lat":43.3048,"lon":5.37897,"is_reserved":false,"is_disabled":false,"rental_uris":{"android":"levelo://app?vid=2ec83d37-5232-4493-8ff7-255d972f2175","ios":"levelo://app?vid=2ec83d37-5232-4493-8ff7-255d972f2175"},"vehicle_type_id":"4","last_reported":1726592914,"current_range_meters":25200,"station_id":"ce4bgup2rcd13ifvqcn0","pricing_plan_id":"cebpf4jnsgd1na2vs0mg"},{"bike_id":"36aeed49-da71-4106-9676-9768d0b45ee4","system_id":"levelo_inurba_marseille","lat":43.27753,"lon":5.39109,"is_reserved":false,"is_disabled":false,"rental_uris":{"android":"levelo://app?vid=36aeed49-da71-4106-9676-9768d0b45ee4","ios":"levelo://app?vid=36aeed49-da71-4106-9676-9768d0b45ee4"},"vehicle_type_id":"4","last_reported":1726592914,"current_range_meters":22000,"station_id":"","pricing_plan_id":"cebpf4jnsgd1na2vs0mg"},{"bike_id":"d14c76fc-b820-4f6e-8966-e0c1b3e5d953","system_id":"levelo_inurba_marseille","lat":43.31362,"lon":5.38496,"is_reserved":false,"is_disabled":false,"rental_uris":{"android":"levelo://app?vid=d14c76fc-b820-4f6e-8966-e0c1b3e5d953","ios":"levelo://app?vid=d14c76fc-b820-4f6e-8966-e0c1b3e5d953"},"vehicle_type_id":"4","last_reported":1726592914,"current_range_meters":24000,"station_id":"ce4bgt92rcd13ifvqcf0","pricing_plan_id":"cebpf4jnsgd1na2vs0mg"},{"bike_id":"0cf4a01b-cc0e-4753-bf59-043f4590544e","system_id":"levelo_inurba_marseille","lat":43.30882,"lon":5.39651,"is_reserved":false,"is_disabled":false,"rental_uris":{"android":"levelo://app?vid=0cf4a01b-cc0e-4753-bf59-043f4590544e","ios":"levelo://app?vid=0cf4a01b-cc0e-4753-bf59-043f4590544e"},"vehicle_type_id":"4","last_reported":1726592914,"current_range_meters":6000,"station_id":"ce4bh012rcd13ifvqcv0","pricing_plan_id":"cebpf4jnsgd1na2vs0mg"},{"bike_id":"42e147af-6f9b-4f23-8ed9-148329387cf8","system_id":"levelo_inurba_marseille","lat":43.31277,"lon":5.40158,"is_reserved":false,"is_disabled":false,"rental_uris":{"android":"levelo://app?vid=42e147af-6f9b-4f23-8ed9-148329387cf8","ios":"levelo://app?vid=42e147af-6f9b-4f23-8ed9-148329387cf8"},"vehicle_type_id":"4","last_reported":1726592914,"current_range_meters":23200,"station_id":"ce4bh092rcd13ifvqd30","pricing_plan_id":"cebpf4jnsgd1na2vs0mg"},{"bike_id":"cfdc2328-49da-4b8e-b27a-68c5ad7833d6","system_id":"levelo_inurba_marseille","lat":43.28666,"lon":5.36352,"is_reserved":false,"is_disabled":false,"rental_uris":{"android":"levelo://app?vid=cfdc2328-49da-4b8e-b27a-68c5ad7833d6","ios":"levelo://app?vid=cfdc2328-49da-4b8e-b27a-68c5ad7833d6"},"vehicle_type_id":"4","last_reported":1726592914,"current_range_meters":38400,"station_id":"ce4bhah2rcd13ifvqej0","pricing_plan_id":"cebpf4jnsgd1na2vs0mg"},{"bike_id":"5697b565-5732-441d-9415-866fb3503fec","system_id":"levelo_inurba_marseille","lat":43.30775,"lon":5.37651,"is_reserved":false,"is_disabled":false,"rental_uris":{"android":"levelo://app?vid=5697b565-5732-441d-9415-866fb3503fec","ios":"levelo://app?vid=5697b565-5732-441d-9415-866fb3503fec"},"vehicle_type_id":"4","last_reported":1726592914,"current_range_meters":4800,"station_id":"ce4bgv92rcd13ifvqcq0","pricing_plan_id":"cebpf4jnsgd1na2vs0mg"},{"bike_id":"eae9f011-84c2-4d78-948c-713331e5e7d5","system_id":"levelo_inurba_marseille","lat":43.28421,"lon":5.34974,"is_reserved":false,"is_disabled":false,"rental_uris":{"android":"levelo://app?vid=eae9f011-84c2-4d78-948c-713331e5e7d5","ios":"levelo://app?vid=eae9f011-84c2-4d78-948c-713331e5e7d5"},"vehicle_type_id":"4","last_reported":1726592914,"current_range_meters":32400,"station_id":"ce4bhbh2rcd13ifvqepg","pricing_plan_id":"cebpf4jnsgd1na2vs0mg"},{"bike_id":"29af1355-6724-4f9a-8a9c-b3ee41f86f18","system_id":"levelo_inurba_marseille","lat":43.28719,"lon":5.3794,"is_reserved":false,"is_disabled":false,"rental_uris":{"android":"levelo://app?vid=29af1355-6724-4f9a-8a9c-b3ee41f86f18","ios":"levelo://app?vid=29af1355-6724-4f9a-8a9c-b3ee41f86f18"},"vehicle_type_id":"4","last_reported":1726592914,"current_range_meters":30400,"station_id":"ce4bh9p2rcd13ifvqec0","pricing_plan_id":"cebpf4jnsgd1na2vs0mg"},{"bike_id":"014342d2-88ff-45af-84b2-8b3d64032cf7","system_id":"levelo_inurba_marseille","lat":43.313995,"lon":5.375435,"is_reserved":false,"is_disabled":false,"rental_uris":{"android":"levelo://app?vid=014342d2-88ff-45af-84b2-8b3d64032cf7","ios":"levelo://app?vid=014342d2-88ff-45af-84b2-8b3d64032cf7"},"vehicle_type_id":"4","last_reported":1726592914,"current_range_meters":28000,"station_id":"ce4bgv92rcd13ifvqcq0","pricing_plan_id":"cebpf4jnsgd1na2vs0mg"},{"bike_id":"c9a8064e-e6cd-4eea-ae35-9ae9830c160c","system_id":"levelo_inurba_marseille","lat":43.29004,"lon":5.35616,"is_reserved":false,"is_disabled":false,"rental_uris":{"android":"levelo://app?vid=c9a8064e-e6cd-4eea-ae35-9ae9830c160c","ios":"levelo://app?vid=c9a8064e-e6cd-4eea-ae35-9ae9830c160c"},"vehicle_type_id":"4","last_reported":1726592914,"current_range_meters":16000,"station_id":"ce4bhb92rcd13ifvqen0","pricing_plan_id":"cebpf4jnsgd1na2vs0mg"},{"bike_id":"70a56108-96ed-4142-9d42-dc14255f2988","system_id":"levelo_inurba_marseille","lat":43.26991,"lon":5.39898,"is_reserved":false,"is_disabled":false,"rental_uris":{"android":"levelo://app?vid=70a56108-96ed-4142-9d42-dc14255f2988","ios":"levelo://app?vid=70a56108-96ed-4142-9d42-dc14255f2988"},"vehicle_type_id":"4","last_reported":1726592914,"current_range_meters":24800,"station_id":"","pricing_plan_id":"cebpf4jnsgd1na2vs0mg"},{"bike_id":"763311e2-11d6-4b84-a9e9-b0617866ec04","system_id":"levelo_inurba_marseille","lat":43.31327,"lon":5.39689,"is_reserved":false,"is_disabled":false,"rental_uris":{"android":"levelo://app?vid=763311e2-11d6-4b84-a9e9-b0617866ec04","ios":"levelo://app?vid=763311e2-11d6-4b84-a9e9-b0617866ec04"},"vehicle_type_id":"4","last_reported":1726592914,"current_range_meters":12800,"station_id":"ce4bgvp2rcd13ifvqcu0","pricing_plan_id":"cebpf4jnsgd1na2vs0mg"},{"bike_id":"aa8b7cdb-15d5-4564-a036-3a3b2fc0ac1c","system_id":"levelo_inurba_marseille","lat":43.292206,"lon":5.360509,"is_reserved":false,"is_disabled":false,"rental_uris":{"android":"levelo://app?vid=aa8b7cdb-15d5-4564-a036-3a3b2fc0ac1c","ios":"levelo://app?vid=aa8b7cdb-15d5-4564-a036-3a3b2fc0ac1c"},"vehicle_type_id":"4","last_reported":1726592914,"current_range_meters":10800,"station_id":"ce4bhbh2rcd13ifvqeqg","pricing_plan_id":"cebpf4jnsgd1na2vs0mg"},{"bike_id":"5446ade6-4285-4a5d-b7d9-ca3b5a29cae0","system_id":"levelo_inurba_marseille","lat":43.32367,"lon":5.38886,"is_reserved":false,"is_disabled":false,"rental_uris":{"android":"levelo://app?vid=5446ade6-4285-4a5d-b7d9-ca3b5a29cae0","ios":"levelo://app?vid=5446ade6-4285-4a5d-b7d9-ca3b5a29cae0"},"vehicle_type_id":"4","last_reported":1726592914,"current_range_meters":28400,"station_id":"ce4bhqp2rcd13ifvqhog","pricing_plan_id":"cebpf4jnsgd1na2vs0mg"},{"bike_id":"95f8bd80-423e-4ea8-ad50-2e9854f65eb3","system_id":"levelo_inurba_marseille","lat":43.27993,"lon":5.40017,"is_reserved":false,"is_disabled":false,"rental_uris":{"android":"levelo://app?vid=95f8bd80-423e-4ea8-ad50-2e9854f65eb3","ios":"levelo://app?vid=95f8bd80-423e-4ea8-ad50-2e9854f65eb3"},"vehicle_type_id":"4","last_reported":1726592914,"current_range_meters":8000,"station_id":"ce4bho92rcd13ifvqh4g","pricing_plan_id":"cebpf4jnsgd1na2vs0mg"},{"bike_id":"2a9eb325-09d8-4812-bd52-afbf993e623b","system_id":"levelo_inurba_marseille","lat":43.25816,"lon":5.39423,"is_reserved":false,"is_disabled":false,"rental_uris":{"android":"levelo://app?vid=2a9eb325-09d8-4812-bd52-afbf993e623b","ios":"levelo://app?vid=2a9eb325-09d8-4812-bd52-afbf993e623b"},"vehicle_type_id":"4","last_reported":1726592914,"current_range_meters":20000,"station_id":"ce4bhip2rcd13ifvqft0","pricing_plan_id":"cebpf4jnsgd1na2vs0mg"},{"bike_id":"5a4ca154-6e15-482a-b5f6-f4eeb5dbcd24","system_id":"levelo_inurba_marseille","lat":43.262533,"lon":5.374633,"is_reserved":false,"is_disabled":false,"rental_uris":{"android":"levelo://app?vid=5a4ca154-6e15-482a-b5f6-f4eeb5dbcd24","ios":"levelo://app?vid=5a4ca154-6e15-482a-b5f6-f4eeb5dbcd24"},"vehicle_type_id":"4","last_reported":1726592914,"current_range_meters":25600,"station_id":"ce4bhgp2rcd13ifvqfc0","pricing_plan_id":"cebpf4jnsgd1na2vs0mg"},{"bike_id":"6f387a41-1a28-4619-ac86-26875678b81b","system_id":"levelo_inurba_marseille","lat":43.29897,"lon":5.43672,"is_reserved":false,"is_disabled":false,"rental_uris":{"android":"levelo://app?vid=6f387a41-1a28-4619-ac86-26875678b81b","ios":"levelo://app?vid=6f387a41-1a28-4619-ac86-26875678b81b"},"vehicle_type_id":"4","last_reported":1726592914,"current_range_meters":20400,"station_id":"ce4bhpp2rcd13ifvqhfg","pricing_plan_id":"cebpf4jnsgd1na2vs0mg"},{"bike_id":"08a96999-3b6f-4ec9-b5e5-273165d05677","system_id":"levelo_inurba_marseille","lat":43.29526,"lon":5.38542,"is_reserved":false,"is_disabled":false,"rental_uris":{"android":"levelo://app?vid=08a96999-3b6f-4ec9-b5e5-273165d05677","ios":"levelo://app?vid=08a96999-3b6f-4ec9-b5e5-273165d05677"},"vehicle_type_id":"4","last_reported":1726592914,"current_range_meters":20000,"station_id":"ce4bgih2rcd13ifvqba0","pricing_plan_id":"cebpf4jnsgd1na2vs0mg"},{"bike_id":"1f510e63-455e-494f-a944-3f25660a4883","system_id":"levelo_inurba_marseille","lat":43.2903,"lon":5.38652,"is_reserved":false,"is_disabled":false,"rental_uris":{"android":"levelo://app?vid=1f510e63-455e-494f-a944-3f25660a4883","ios":"levelo://app?vid=1f510e63-455e-494f-a944-3f25660a4883"},"vehicle_type_id":"4","last_reported":1726592914,"current_range_meters":37600,"station_id":"ce4bh4p2rcd13ifvqe0g","pricing_plan_id":"cebpf4jnsgd1na2vs0mg"},{"bike_id":"a8f1af3e-44e6-40fc-8168-23dc78f8f5c3","system_id":"levelo_inurba_marseille","lat":43.306244,"lon":5.372332,"is_reserved":false,"is_disabled":false,"rental_uris":{"android":"levelo://app?vid=a8f1af3e-44e6-40fc-8168-23dc78f8f5c3","ios":"levelo://app?vid=a8f1af3e-44e6-40fc-8168-23dc78f8f5c3"},"vehicle_type_id":"4","last_reported":1726592914,"current_range_meters":3600,"station_id":"ce4bgqh2rcd13ifvqc4g","pricing_plan_id":"cebpf4jnsgd1na2vs0mg"},{"bike_id":"d2e9915b-6def-4d28-9ee7-7a207ee3e5e7","system_id":"levelo_inurba_marseille","lat":43.27614,"lon":5.36119,"is_reserved":false,"is_disabled":false,"rental_uris":{"android":"levelo://app?vid=d2e9915b-6def-4d28-9ee7-7a207ee3e5e7","ios":"levelo://app?vid=d2e9915b-6def-4d28-9ee7-7a207ee3e5e7"},"vehicle_type_id":"4","last_reported":1726592914,"current_range_meters":26800,"station_id":"ce4bgj92rcd13ifvqbe0","pricing_plan_id":"cebpf4jnsgd1na2vs0mg"},{"bike_id":"dbd98bc5-b0a2-4da5-bab8-fcdfea9ab87e","system_id":"levelo_inurba_marseille","lat":43.29713,"lon":5.36624,"is_reserved":false,"is_disabled":false,"rental_uris":{"android":"levelo://app?vid=dbd98bc5-b0a2-4da5-bab8-fcdfea9ab87e","ios":"levelo://app?vid=dbd98bc5-b0a2-4da5-bab8-fcdfea9ab87e"},"vehicle_type_id":"4","last_reported":1726592914,"current_range_meters":38400,"station_id":"ce4bgn12rcd13ifvqbt0","pricing_plan_id":"cebpf4jnsgd1na2vs0mg"},{"bike_id":"ca42bf31-578d-4027-86c9-a89c31ecd503","system_id":"levelo_inurba_marseille","lat":43.32362,"lon":5.38884,"is_reserved":false,"is_disabled":false,"rental_uris":{"android":"levelo://app?vid=ca42bf31-578d-4027-86c9-a89c31ecd503","ios":"levelo://app?vid=ca42bf31-578d-4027-86c9-a89c31ecd503"},"vehicle_type_id":"4","last_reported":1726592914,"current_range_meters":10800,"station_id":"ce4bhqp2rcd13ifvqhog","pricing_plan_id":"cebpf4jnsgd1na2vs0mg"},{"bike_id":"f3b7686e-6b58-4756-b87e-b1df65bb196e","system_id":"levelo_inurba_marseille","lat":43.25579,"lon":5.38229,"is_reserved":false,"is_disabled":false,"rental_uris":{"android":"levelo://app?vid=f3b7686e-6b58-4756-b87e-b1df65bb196e","ios":"levelo://app?vid=f3b7686e-6b58-4756-b87e-b1df65bb196e"},"vehicle_type_id":"4","last_reported":1726592914,"current_range_meters":29600,"station_id":"ce4bhih2rcd13ifvqfs0","pricing_plan_id":"cebpf4jnsgd1na2vs0mg"},{"bike_id":"0e41f1e6-9c0f-4b21-a785-7a4c6e282185","system_id":"levelo_inurba_marseille","lat":43.32479,"lon":5.36564,"is_reserved":false,"is_disabled":false,"rental_uris":{"android":"levelo://app?vid=0e41f1e6-9c0f-4b21-a785-7a4c6e282185","ios":"levelo://app?vid=0e41f1e6-9c0f-4b21-a785-7a4c6e282185"},"vehicle_type_id":"4","last_reported":1726592914,"current_range_meters":20800,"station_id":"ce4bhs12rcd13ifvqhvg","pricing_plan_id":"cebpf4jnsgd1na2vs0mg"},{"bike_id":"b19bdb04-768d-4ba2-a58f-5557970c2c47","system_id":"levelo_inurba_marseille","lat":43.31753,"lon":5.39027,"is_reserved":false,"is_disabled":false,"rental_uris":{"android":"levelo://app?vid=b19bdb04-768d-4ba2-a58f-5557970c2c47","ios":"levelo://app?vid=b19bdb04-768d-4ba2-a58f-5557970c2c47"},"vehicle_type_id":"4","last_reported":1726592914,"current_range_meters":25200,"station_id":"ce4bhqp2rcd13ifvqhng","pricing_plan_id":"cebpf4jnsgd1na2vs0mg"},{"bike_id":"ab6fbebf-fd10-4f8e-aa27-f7b38c8f2571","system_id":"levelo_inurba_marseille","lat":43.28265,"lon":5.3507,"is_reserved":false,"is_disabled":false,"rental_uris":{"android":"levelo://app?vid=ab6fbebf-fd10-4f8e-aa27-f7b38c8f2571","ios":"levelo://app?vid=ab6fbebf-fd10-4f8e-aa27-f7b38c8f2571"},"vehicle_type_id":"4","last_reported":1726592914,"current_range_meters":22400,"station_id":"ce4bhbp2rcd13ifvqerg","pricing_plan_id":"cebpf4jnsgd1na2vs0mg"},{"bike_id":"b87368fb-f632-414b-a86f-ddd2a1431826","system_id":"levelo_inurba_marseille","lat":43.315274,"lon":5.380363,"is_reserved":false,"is_disabled":false,"rental_uris":{"android":"levelo://app?vid=b87368fb-f632-414b-a86f-ddd2a1431826","ios":"levelo://app?vid=b87368fb-f632-414b-a86f-ddd2a1431826"},"vehicle_type_id":"4","last_reported":1726592914,"current_range_meters":27200,"station_id":"ce4bhsp2rcd13ifvqi50","pricing_plan_id":"cebpf4jnsgd1na2vs0mg"},{"bike_id":"110f240c-282b-4952-824c-db726a1b2b0b","system_id":"levelo_inurba_marseille","lat":43.32291,"lon":5.38276,"is_reserved":false,"is_disabled":false,"rental_uris":{"android":"levelo://app?vid=110f240c-282b-4952-824c-db726a1b2b0b","ios":"levelo://app?vid=110f240c-282b-4952-824c-db726a1b2b0b"},"vehicle_type_id":"4","last_reported":1726592914,"current_range_meters":35200,"station_id":"ce4bhr12rcd13ifvqhqg","pricing_plan_id":"cebpf4jnsgd1na2vs0mg"},{"bike_id":"6ead8666-6294-4534-b14d-136e73cd286f","system_id":"levelo_inurba_marseille","lat":43.28862,"lon":5.35851,"is_reserved":false,"is_disabled":false,"rental_uris":{"android":"levelo://app?vid=6ead8666-6294-4534-b14d-136e73cd286f","ios":"levelo://app?vid=6ead8666-6294-4534-b14d-136e73cd286f"},"vehicle_type_id":"4","last_reported":1726592914,"current_range_meters":24000,"station_id":"ce4bhb12rcd13ifvqem0","pricing_plan_id":"cebpf4jnsgd1na2vs0mg"},{"bike_id":"faf25bd3-0800-40c2-867d-517246246507","system_id":"levelo_inurba_marseille","lat":43.31272,"lon":5.40175,"is_reserved":false,"is_disabled":false,"rental_uris":{"android":"levelo://app?vid=faf25bd3-0800-40c2-867d-517246246507","ios":"levelo://app?vid=faf25bd3-0800-40c2-867d-517246246507"},"vehicle_type_id":"4","last_reported":1726592914,"current_range_meters":28000,"station_id":"ce4bh092rcd13ifvqd30","pricing_plan_id":"cebpf4jnsgd1na2vs0mg"},{"bike_id":"12d5ea12-c78a-4e47-a174-d2950ae5e2b8","system_id":"levelo_inurba_marseille","lat":43.28858,"lon":5.35864,"is_reserved":false,"is_disabled":false,"rental_uris":{"android":"levelo://app?vid=12d5ea12-c78a-4e47-a174-d2950ae5e2b8","ios":"levelo://app?vid=12d5ea12-c78a-4e47-a174-d2950ae5e2b8"},"vehicle_type_id":"4","last_reported":1726592914,"current_range_meters":26000,"station_id":"ce4bhb12rcd13ifvqem0","pricing_plan_id":"cebpf4jnsgd1na2vs0mg"},{"bike_id":"5bb1d010-0238-448f-a470-fc44e8685316","system_id":"levelo_inurba_marseille","lat":43.23198,"lon":5.35546,"is_reserved":false,"is_disabled":false,"rental_uris":{"android":"levelo://app?vid=5bb1d010-0238-448f-a470-fc44e8685316","ios":"levelo://app?vid=5bb1d010-0238-448f-a470-fc44e8685316"},"vehicle_type_id":"4","last_reported":1726592914,"current_range_meters":33600,"station_id":"ce4bhu92rcd13ifvqi70","pricing_plan_id":"cebpf4jnsgd1na2vs0mg"},{"bike_id":"7ed691ad-cf2e-4278-8166-adc7971f7075","system_id":"levelo_inurba_marseille","lat":43.33024,"lon":5.39033,"is_reserved":false,"is_disabled":false,"rental_uris":{"android":"levelo://app?vid=7ed691ad-cf2e-4278-8166-adc7971f7075","ios":"levelo://app?vid=7ed691ad-cf2e-4278-8166-adc7971f7075"},"vehicle_type_id":"4","last_reported":1726592914,"current_range_meters":24000,"station_id":"ce4bhr92rcd13ifvqhrg","pricing_plan_id":"cebpf4jnsgd1na2vs0mg"},{"bike_id":"a774a980-1461-47a5-86e2-5fe8d0608fe7","system_id":"levelo_inurba_marseille","lat":43.31712,"lon":5.43718,"is_reserved":false,"is_disabled":false,"rental_uris":{"android":"levelo://app?vid=a774a980-1461-47a5-86e2-5fe8d0608fe7","ios":"levelo://app?vid=a774a980-1461-47a5-86e2-5fe8d0608fe7"},"vehicle_type_id":"4","last_reported":1726592914,"current_range_meters":23200,"station_id":"ce4bhp92rcd13ifvqhcg","pricing_plan_id":"cebpf4jnsgd1na2vs0mg"},{"bike_id":"3f6da51c-ee59-4d40-aaf1-215c6db6e0e8","system_id":"levelo_inurba_marseille","lat":43.32293,"lon":5.38262,"is_reserved":false,"is_disabled":false,"rental_uris":{"android":"levelo://app?vid=3f6da51c-ee59-4d40-aaf1-215c6db6e0e8","ios":"levelo://app?vid=3f6da51c-ee59-4d40-aaf1-215c6db6e0e8"},"vehicle_type_id":"4","last_reported":1726592914,"current_range_meters":30400,"station_id":"ce4bhr12rcd13ifvqhqg","pricing_plan_id":"cebpf4jnsgd1na2vs0mg"},{"bike_id":"bdb39330-5975-4c48-aab8-9dba954320be","system_id":"levelo_inurba_marseille","lat":43.29709,"lon":5.36606,"is_reserved":false,"is_disabled":false,"rental_uris":{"android":"levelo://app?vid=bdb39330-5975-4c48-aab8-9dba954320be","ios":"levelo://app?vid=bdb39330-5975-4c48-aab8-9dba954320be"},"vehicle_type_id":"4","last_reported":1726592914,"current_range_meters":16000,"station_id":"ce4bgn12rcd13ifvqbt0","pricing_plan_id":"cebpf4jnsgd1na2vs0mg"},{"bike_id":"90e92013-5635-462d-8771-7dba287c887f","system_id":"levelo_inurba_marseille","lat":43.28157,"lon":5.42643,"is_reserved":false,"is_disabled":false,"rental_uris":{"android":"levelo://app?vid=90e92013-5635-462d-8771-7dba287c887f","ios":"levelo://app?vid=90e92013-5635-462d-8771-7dba287c887f"},"vehicle_type_id":"4","last_reported":1726592914,"current_range_meters":17200,"station_id":"ce4bhnh2rcd13ifvqgug","pricing_plan_id":"cebpf4jnsgd1na2vs0mg"},{"bike_id":"ffc66140-10c8-4137-ae5a-d076c5621c31","system_id":"levelo_inurba_marseille","lat":43.27496,"lon":5.42459,"is_reserved":false,"is_disabled":false,"rental_uris":{"android":"levelo://app?vid=ffc66140-10c8-4137-ae5a-d076c5621c31","ios":"levelo://app?vid=ffc66140-10c8-4137-ae5a-d076c5621c31"},"vehicle_type_id":"4","last_reported":1726592914,"current_range_meters":34800,"station_id":"ce4bhn92rcd13ifvqgrg","pricing_plan_id":"cebpf4jnsgd1na2vs0mg"},{"bike_id":"4ff09b2d-9d56-4d6f-b629-ba98ed8f5d76","system_id":"levelo_inurba_marseille","lat":43.26942,"lon":5.40256,"is_reserved":false,"is_disabled":false,"rental_uris":{"android":"levelo://app?vid=4ff09b2d-9d56-4d6f-b629-ba98ed8f5d76","ios":"levelo://app?vid=4ff09b2d-9d56-4d6f-b629-ba98ed8f5d76"},"vehicle_type_id":"4","last_reported":1726592914,"current_range_meters":4000,"station_id":"cjm6bp8fraef2m0cb0m0","pricing_plan_id":"cebpf4jnsgd1na2vs0mg"},{"bike_id":"11e648ca-ee43-4eb3-87a1-10869755416a","system_id":"levelo_inurba_marseille","lat":43.29261,"lon":5.40907,"is_reserved":false,"is_disabled":false,"rental_uris":{"android":"levelo://app?vid=11e648ca-ee43-4eb3-87a1-10869755416a","ios":"levelo://app?vid=11e648ca-ee43-4eb3-87a1-10869755416a"},"vehicle_type_id":"4","last_reported":1726592914,"current_range_meters":9200,"station_id":"ce4bh192rcd13ifvqdc0","pricing_plan_id":"cebpf4jnsgd1na2vs0mg"},{"bike_id":"f6fdaa6c-8ffe-4864-97b4-d218c88f7394","system_id":"levelo_inurba_marseille","lat":43.27371,"lon":5.36263,"is_reserved":false,"is_disabled":false,"rental_uris":{"android":"levelo://app?vid=f6fdaa6c-8ffe-4864-97b4-d218c88f7394","ios":"levelo://app?vid=f6fdaa6c-8ffe-4864-97b4-d218c88f7394"},"vehicle_type_id":"4","last_reported":1726592914,"current_range_meters":38800,"station_id":"ce4bhbh2rcd13ifvqeo0","pricing_plan_id":"cebpf4jnsgd1na2vs0mg"},{"bike_id":"7b645483-238f-48f7-9ffd-0c0103becab3","system_id":"levelo_inurba_marseille","lat":43.30798,"lon":5.43527,"is_reserved":false,"is_disabled":false,"rental_uris":{"android":"levelo://app?vid=7b645483-238f-48f7-9ffd-0c0103becab3","ios":"levelo://app?vid=7b645483-238f-48f7-9ffd-0c0103becab3"},"vehicle_type_id":"4","last_reported":1726592914,"current_range_meters":10800,"station_id":"ce4bhph2rcd13ifvqheg","pricing_plan_id":"cebpf4jnsgd1na2vs0mg"},{"bike_id":"6dccc787-0219-4452-a0ce-ca5b8d9e28d1","system_id":"levelo_inurba_marseille","lat":43.28467,"lon":5.35885,"is_reserved":false,"is_disabled":false,"rental_uris":{"android":"levelo://app?vid=6dccc787-0219-4452-a0ce-ca5b8d9e28d1","ios":"levelo://app?vid=6dccc787-0219-4452-a0ce-ca5b8d9e28d1"},"vehicle_type_id":"4","last_reported":1726592914,"current_range_meters":4400,"station_id":"ce4bhah2rcd13ifvqei0","pricing_plan_id":"cebpf4jnsgd1na2vs0mg"},{"bike_id":"1b3ef600-108a-4901-81a4-e6a20e22f7ed","system_id":"levelo_inurba_marseille","lat":43.2954,"lon":5.39394,"is_reserved":false,"is_disabled":false,"rental_uris":{"android":"levelo://app?vid=1b3ef600-108a-4901-81a4-e6a20e22f7ed","ios":"levelo://app?vid=1b3ef600-108a-4901-81a4-e6a20e22f7ed"},"vehicle_type_id":"4","last_reported":1726592914,"current_range_meters":22800,"station_id":"ce4bh292rcd13ifvqdf0","pricing_plan_id":"cebpf4jnsgd1na2vs0mg"},{"bike_id":"6df9fc46-3b77-403b-b323-f0f0db711f97","system_id":"levelo_inurba_marseille","lat":43.27615,"lon":5.36112,"is_reserved":false,"is_disabled":false,"rental_uris":{"android":"levelo://app?vid=6df9fc46-3b77-403b-b323-f0f0db711f97","ios":"levelo://app?vid=6df9fc46-3b77-403b-b323-f0f0db711f97"},"vehicle_type_id":"4","last_reported":1726592914,"current_range_meters":30000,"station_id":"ce4bgj92rcd13ifvqbe0","pricing_plan_id":"cebpf4jnsgd1na2vs0mg"},{"bike_id":"0a33859e-bd8e-40d6-89a3-928c4c40622d","system_id":"levelo_inurba_marseille","lat":43.29955,"lon":5.41326,"is_reserved":false,"is_disabled":false,"rental_uris":{"android":"levelo://app?vid=0a33859e-bd8e-40d6-89a3-928c4c40622d","ios":"levelo://app?vid=0a33859e-bd8e-40d6-89a3-928c4c40622d"},"vehicle_type_id":"4","last_reported":1726592914,"current_range_meters":28400,"station_id":"ce4bhp12rcd13ifvqh9g","pricing_plan_id":"cebpf4jnsgd1na2vs0mg"},{"bike_id":"928fd075-ab9f-4d35-b26e-02f0edde7b44","system_id":"levelo_inurba_marseille","lat":43.31062,"lon":5.38346,"is_reserved":false,"is_disabled":false,"rental_uris":{"android":"levelo://app?vid=928fd075-ab9f-4d35-b26e-02f0edde7b44","ios":"levelo://app?vid=928fd075-ab9f-4d35-b26e-02f0edde7b44"},"vehicle_type_id":"4","last_reported":1726592914,"current_range_meters":19200,"station_id":"ce4bgv92rcd13ifvqcr0","pricing_plan_id":"cebpf4jnsgd1na2vs0mg"},{"bike_id":"996c1db0-6d53-45eb-9f9b-ed64ea715095","system_id":"levelo_inurba_marseille","lat":43.28862,"lon":5.3585,"is_reserved":false,"is_disabled":false,"rental_uris":{"android":"levelo://app?vid=996c1db0-6d53-45eb-9f9b-ed64ea715095","ios":"levelo://app?vid=996c1db0-6d53-45eb-9f9b-ed64ea715095"},"vehicle_type_id":"4","last_reported":1726592914,"current_range_meters":24000,"station_id":"ce4bhb12rcd13ifvqem0","pricing_plan_id":"cebpf4jnsgd1na2vs0mg"},{"bike_id":"655a87f1-6331-487f-8f4f-0ae35951cc0d","system_id":"levelo_inurba_marseille","lat":43.27567,"lon":5.38426,"is_reserved":false,"is_disabled":false,"rental_uris":{"android":"levelo://app?vid=655a87f1-6331-487f-8f4f-0ae35951cc0d","ios":"levelo://app?vid=655a87f1-6331-487f-8f4f-0ae35951cc0d"},"vehicle_type_id":"4","last_reported":1726592914,"current_range_meters":18800,"station_id":"ce4bhh92rcd13ifvqfi0","pricing_plan_id":"cebpf4jnsgd1na2vs0mg"},{"bike_id":"824a6152-7b9b-4e45-bb76-a77d1dbff3f6","system_id":"levelo_inurba_marseille","lat":43.28028,"lon":5.36947,"is_reserved":false,"is_disabled":false,"rental_uris":{"android":"levelo://app?vid=824a6152-7b9b-4e45-bb76-a77d1dbff3f6","ios":"levelo://app?vid=824a6152-7b9b-4e45-bb76-a77d1dbff3f6"},"vehicle_type_id":"4","last_reported":1726592914,"current_range_meters":6400,"station_id":"ce4bha12rcd13ifvqef0","pricing_plan_id":"cebpf4jnsgd1na2vs0mg"},{"bike_id":"51881640-74b9-4836-b880-594363a57c01","system_id":"levelo_inurba_marseille","lat":43.27912,"lon":5.38018,"is_reserved":false,"is_disabled":false,"rental_uris":{"android":"levelo://app?vid=51881640-74b9-4836-b880-594363a57c01","ios":"levelo://app?vid=51881640-74b9-4836-b880-594363a57c01"},"vehicle_type_id":"4","last_reported":1726592914,"current_range_meters":21600,"station_id":"ce4bhf92rcd13ifvqf50","pricing_plan_id":"cebpf4jnsgd1na2vs0mg"},{"bike_id":"d89585e2-e8c7-482a-ae7a-5e7b841380f8","system_id":"levelo_inurba_marseille","lat":43.29926,"lon":5.36549,"is_reserved":false,"is_disabled":false,"rental_uris":{"android":"levelo://app?vid=d89585e2-e8c7-482a-ae7a-5e7b841380f8","ios":"levelo://app?vid=d89585e2-e8c7-482a-ae7a-5e7b841380f8"},"vehicle_type_id":"4","last_reported":1726592914,"current_range_meters":34000,"station_id":"ce4bgm92rcd13ifvqbr0","pricing_plan_id":"cebpf4jnsgd1na2vs0mg"},{"bike_id":"ac92ede7-4299-4a39-8395-ae0b535578ed","system_id":"levelo_inurba_marseille","lat":43.31754,"lon":5.39017,"is_reserved":false,"is_disabled":false,"rental_uris":{"android":"levelo://app?vid=ac92ede7-4299-4a39-8395-ae0b535578ed","ios":"levelo://app?vid=ac92ede7-4299-4a39-8395-ae0b535578ed"},"vehicle_type_id":"4","last_reported":1726592914,"current_range_meters":24400,"station_id":"ce4bhqp2rcd13ifvqhng","pricing_plan_id":"cebpf4jnsgd1na2vs0mg"},{"bike_id":"aac90c2f-f3ec-412b-956d-ba70b7515be8","system_id":"levelo_inurba_marseille","lat":43.2923,"lon":5.36058,"is_reserved":false,"is_disabled":false,"rental_uris":{"android":"levelo://app?vid=aac90c2f-f3ec-412b-956d-ba70b7515be8","ios":"levelo://app?vid=aac90c2f-f3ec-412b-956d-ba70b7515be8"},"vehicle_type_id":"4","last_reported":1726592914,"current_range_meters":32000,"station_id":"","pricing_plan_id":"cebpf4jnsgd1na2vs0mg"},{"bike_id":"740327c0-0bd8-43ff-bd42-634d1f3aab13","system_id":"levelo_inurba_marseille","lat":43.31071,"lon":5.38354,"is_reserved":false,"is_disabled":false,"rental_uris":{"android":"levelo://app?vid=740327c0-0bd8-43ff-bd42-634d1f3aab13","ios":"levelo://app?vid=740327c0-0bd8-43ff-bd42-634d1f3aab13"},"vehicle_type_id":"4","last_reported":1726592914,"current_range_meters":28800,"station_id":"ce4bgv92rcd13ifvqcr0","pricing_plan_id":"cebpf4jnsgd1na2vs0mg"},{"bike_id":"7e0c5a11-79d5-4fbe-9669-bf2a57964368","system_id":"levelo_inurba_marseille","lat":43.3373,"lon":5.39185,"is_reserved":false,"is_disabled":false,"rental_uris":{"android":"levelo://app?vid=7e0c5a11-79d5-4fbe-9669-bf2a57964368","ios":"levelo://app?vid=7e0c5a11-79d5-4fbe-9669-bf2a57964368"},"vehicle_type_id":"4","last_reported":1726592914,"current_range_meters":38800,"station_id":"ce4bhr92rcd13ifvqhsg","pricing_plan_id":"cebpf4jnsgd1na2vs0mg"},{"bike_id":"685022df-6d81-434e-a3db-6d224f227602","system_id":"levelo_inurba_marseille","lat":43.31334,"lon":5.39683,"is_reserved":false,"is_disabled":false,"rental_uris":{"android":"levelo://app?vid=685022df-6d81-434e-a3db-6d224f227602","ios":"levelo://app?vid=685022df-6d81-434e-a3db-6d224f227602"},"vehicle_type_id":"4","last_reported":1726592914,"current_range_meters":36000,"station_id":"ce4bgvp2rcd13ifvqcu0","pricing_plan_id":"cebpf4jnsgd1na2vs0mg"},{"bike_id":"55afc702-ddc7-4181-9fe1-d1a152ac0a39","system_id":"levelo_inurba_marseille","lat":43.28104,"lon":5.37839,"is_reserved":false,"is_disabled":false,"rental_uris":{"android":"levelo://app?vid=55afc702-ddc7-4181-9fe1-d1a152ac0a39","ios":"levelo://app?vid=55afc702-ddc7-4181-9fe1-d1a152ac0a39"},"vehicle_type_id":"4","last_reported":1726592914,"current_range_meters":33200,"station_id":"ce4bha12rcd13ifvqee0","pricing_plan_id":"cebpf4jnsgd1na2vs0mg"},{"bike_id":"33e1c357-22f6-443b-8f02-ad5c1a6a9d21","system_id":"levelo_inurba_marseille","lat":43.301208,"lon":5.398837,"is_reserved":false,"is_disabled":false,"rental_uris":{"android":"levelo://app?vid=33e1c357-22f6-443b-8f02-ad5c1a6a9d21","ios":"levelo://app?vid=33e1c357-22f6-443b-8f02-ad5c1a6a9d21"},"vehicle_type_id":"4","last_reported":1726592914,"current_range_meters":28800,"station_id":"ce4bh0h2rcd13ifvqd40","pricing_plan_id":"cebpf4jnsgd1na2vs0mg"},{"bike_id":"aab019e7-4e8c-4ff0-9718-cb6bd0ea4553","system_id":"levelo_inurba_marseille","lat":43.31697,"lon":5.40471,"is_reserved":false,"is_disabled":false,"rental_uris":{"android":"levelo://app?vid=aab019e7-4e8c-4ff0-9718-cb6bd0ea4553","ios":"levelo://app?vid=aab019e7-4e8c-4ff0-9718-cb6bd0ea4553"},"vehicle_type_id":"4","last_reported":1726592914,"current_range_meters":28400,"station_id":"ce4bh012rcd13ifvqd00","pricing_plan_id":"cebpf4jnsgd1na2vs0mg"},{"bike_id":"f07998af-575b-45ce-b27f-073e8f9f8dc6","system_id":"levelo_inurba_marseille","lat":43.293087,"lon":5.401168,"is_reserved":false,"is_disabled":false,"rental_uris":{"android":"levelo://app?vid=f07998af-575b-45ce-b27f-073e8f9f8dc6","ios":"levelo://app?vid=f07998af-575b-45ce-b27f-073e8f9f8dc6"},"vehicle_type_id":"4","last_reported":1726592914,"current_range_meters":33600,"station_id":"ce4bh312rcd13ifvqdk0","pricing_plan_id":"cebpf4jnsgd1na2vs0mg"},{"bike_id":"82857a78-d73b-45d9-b3ec-1f1c80c4181c","system_id":"levelo_inurba_marseille","lat":43.29227,"lon":5.36076,"is_reserved":false,"is_disabled":false,"rental_uris":{"android":"levelo://app?vid=82857a78-d73b-45d9-b3ec-1f1c80c4181c","ios":"levelo://app?vid=82857a78-d73b-45d9-b3ec-1f1c80c4181c"},"vehicle_type_id":"4","last_reported":1726592914,"current_range_meters":13600,"station_id":"ce4bhbh2rcd13ifvqeqg","pricing_plan_id":"cebpf4jnsgd1na2vs0mg"},{"bike_id":"2b5ef1eb-1b38-4886-b3aa-b832a745f4f0","system_id":"levelo_inurba_marseille","lat":43.23192,"lon":5.35553,"is_reserved":false,"is_disabled":false,"rental_uris":{"android":"levelo://app?vid=2b5ef1eb-1b38-4886-b3aa-b832a745f4f0","ios":"levelo://app?vid=2b5ef1eb-1b38-4886-b3aa-b832a745f4f0"},"vehicle_type_id":"4","last_reported":1726592914,"current_range_meters":37600,"station_id":"ce4bhu92rcd13ifvqi70","pricing_plan_id":"cebpf4jnsgd1na2vs0mg"},{"bike_id":"0f3c0c73-d057-4133-8de9-85791da67c48","system_id":"levelo_inurba_marseille","lat":43.29897,"lon":5.43664,"is_reserved":false,"is_disabled":false,"rental_uris":{"android":"levelo://app?vid=0f3c0c73-d057-4133-8de9-85791da67c48","ios":"levelo://app?vid=0f3c0c73-d057-4133-8de9-85791da67c48"},"vehicle_type_id":"4","last_reported":1726592914,"current_range_meters":2000,"station_id":"ce4bhpp2rcd13ifvqhfg","pricing_plan_id":"cebpf4jnsgd1na2vs0mg"},{"bike_id":"0e12d68f-01a0-4627-bd28-ffd862cd97fc","system_id":"levelo_inurba_marseille","lat":43.29202,"lon":5.39322,"is_reserved":false,"is_disabled":false,"rental_uris":{"android":"levelo://app?vid=0e12d68f-01a0-4627-bd28-ffd862cd97fc","ios":"levelo://app?vid=0e12d68f-01a0-4627-bd28-ffd862cd97fc"},"vehicle_type_id":"4","last_reported":1726592914,"current_range_meters":6400,"station_id":"ce4bh192rcd13ifvqdd0","pricing_plan_id":"cebpf4jnsgd1na2vs0mg"},{"bike_id":"e26ac645-74e4-48ed-9744-044559d3c12b","system_id":"levelo_inurba_marseille","lat":43.28852,"lon":5.3585,"is_reserved":false,"is_disabled":false,"rental_uris":{"android":"levelo://app?vid=e26ac645-74e4-48ed-9744-044559d3c12b","ios":"levelo://app?vid=e26ac645-74e4-48ed-9744-044559d3c12b"},"vehicle_type_id":"4","last_reported":1726592914,"current_range_meters":22800,"station_id":"ce4bhb12rcd13ifvqem0","pricing_plan_id":"cebpf4jnsgd1na2vs0mg"},{"bike_id":"0df06088-362e-49d9-8f54-f66df627f855","system_id":"levelo_inurba_marseille","lat":43.31718,"lon":5.36956,"is_reserved":false,"is_disabled":false,"rental_uris":{"android":"levelo://app?vid=0df06088-362e-49d9-8f54-f66df627f855","ios":"levelo://app?vid=0df06088-362e-49d9-8f54-f66df627f855"},"vehicle_type_id":"4","last_reported":1726592914,"current_range_meters":37600,"station_id":"","pricing_plan_id":"cebpf4jnsgd1na2vs0mg"},{"bike_id":"30b1c089-4e52-4a7a-a137-74d4ef2d3fbd","system_id":"levelo_inurba_marseille","lat":43.23194,"lon":5.35547,"is_reserved":false,"is_disabled":false,"rental_uris":{"android":"levelo://app?vid=30b1c089-4e52-4a7a-a137-74d4ef2d3fbd","ios":"levelo://app?vid=30b1c089-4e52-4a7a-a137-74d4ef2d3fbd"},"vehicle_type_id":"4","last_reported":1726592914,"current_range_meters":34000,"station_id":"ce4bhu92rcd13ifvqi70","pricing_plan_id":"cebpf4jnsgd1na2vs0mg"},{"bike_id":"9615b441-a349-4da1-abd3-6fde369005f3","system_id":"levelo_inurba_marseille","lat":43.24635,"lon":5.38193,"is_reserved":false,"is_disabled":false,"rental_uris":{"android":"levelo://app?vid=9615b441-a349-4da1-abd3-6fde369005f3","ios":"levelo://app?vid=9615b441-a349-4da1-abd3-6fde369005f3"},"vehicle_type_id":"4","last_reported":1726592914,"current_range_meters":35600,"station_id":"ce4bhih2rcd13ifvqfr0","pricing_plan_id":"cebpf4jnsgd1na2vs0mg"},{"bike_id":"0e2ff15d-f95d-476f-8ece-17ac7b70ff0c","system_id":"levelo_inurba_marseille","lat":43.29551,"lon":5.42292,"is_reserved":false,"is_disabled":false,"rental_uris":{"android":"levelo://app?vid=0e2ff15d-f95d-476f-8ece-17ac7b70ff0c","ios":"levelo://app?vid=0e2ff15d-f95d-476f-8ece-17ac7b70ff0c"},"vehicle_type_id":"4","last_reported":1726592914,"current_range_meters":38000,"station_id":"ce4bhph2rcd13ifvqhdg","pricing_plan_id":"cebpf4jnsgd1na2vs0mg"},{"bike_id":"01ed6ba2-c13c-4466-888b-7cd59be171e2","system_id":"levelo_inurba_marseille","lat":43.301178,"lon":5.398606,"is_reserved":false,"is_disabled":false,"rental_uris":{"android":"levelo://app?vid=01ed6ba2-c13c-4466-888b-7cd59be171e2","ios":"levelo://app?vid=01ed6ba2-c13c-4466-888b-7cd59be171e2"},"vehicle_type_id":"4","last_reported":1726592914,"current_range_meters":25600,"station_id":"ce4bh0h2rcd13ifvqd40","pricing_plan_id":"cebpf4jnsgd1na2vs0mg"},{"bike_id":"f97ab29a-263d-471f-a9ca-8af97397cdd7","system_id":"levelo_inurba_marseille","lat":43.2396,"lon":5.3663,"is_reserved":false,"is_disabled":false,"rental_uris":{"android":"levelo://app?vid=f97ab29a-263d-471f-a9ca-8af97397cdd7","ios":"levelo://app?vid=f97ab29a-263d-471f-a9ca-8af97397cdd7"},"vehicle_type_id":"4","last_reported":1726592914,"current_range_meters":19600,"station_id":"ce4bhi12rcd13ifvqfp0","pricing_plan_id":"cebpf4jnsgd1na2vs0mg"},{"bike_id":"1702ab4d-9c37-4953-9af7-3fef754e78e1","system_id":"levelo_inurba_marseille","lat":43.29882,"lon":5.38912,"is_reserved":false,"is_disabled":false,"rental_uris":{"android":"levelo://app?vid=1702ab4d-9c37-4953-9af7-3fef754e78e1","ios":"levelo://app?vid=1702ab4d-9c37-4953-9af7-3fef754e78e1"},"vehicle_type_id":"4","last_reported":1726592914,"current_range_meters":8400,"station_id":"ce4bh392rcd13ifvqdl0","pricing_plan_id":"cebpf4jnsgd1na2vs0mg"},{"bike_id":"530913ba-544c-4ef5-b106-80672f69876a","system_id":"levelo_inurba_marseille","lat":43.31361,"lon":5.38487,"is_reserved":false,"is_disabled":false,"rental_uris":{"android":"levelo://app?vid=530913ba-544c-4ef5-b106-80672f69876a","ios":"levelo://app?vid=530913ba-544c-4ef5-b106-80672f69876a"},"vehicle_type_id":"4","last_reported":1726592914,"current_range_meters":18000,"station_id":"ce4bgt92rcd13ifvqcf0","pricing_plan_id":"cebpf4jnsgd1na2vs0mg"},{"bike_id":"865af4eb-06a9-4180-92b9-9a163b21f72d","system_id":"levelo_inurba_marseille","lat":43.30131,"lon":5.39872,"is_reserved":false,"is_disabled":false,"rental_uris":{"android":"levelo://app?vid=865af4eb-06a9-4180-92b9-9a163b21f72d","ios":"levelo://app?vid=865af4eb-06a9-4180-92b9-9a163b21f72d"},"vehicle_type_id":"4","last_reported":1726592914,"current_range_meters":39200,"station_id":"ce4bh0h2rcd13ifvqd40","pricing_plan_id":"cebpf4jnsgd1na2vs0mg"},