{"last_updated":1722229779,"ttl":30,"version":"2.2","data":{"bikes":[{"bike_id":"0a5ba1f6-61e5-464e-9918-0b5f937ed88d","system_id":"levelo_inurba_marseille","lat":43.31341,"lon":5.367098,"is_reserved":false,"is_disabled":false,"rental_uris":{"android":"levelo://app?vid=0a5ba1f6-61e5-464e-9918-0b5f937ed88d","ios":"levelo://app?vid=0a5ba1f6-61e5-464e-9918-0b5f937ed88d"},"vehicle_type_id":"4","last_reported":1722229779,"current_range_meters":10000,"station_id":"ce4bgr92rcd13ifvqc6g","pricing_plan_id":"cebpf4jnsgd1na2vs0mg"},{"bike_id":"29aa732d-98af-404e-ac3a-113a4cbb7958","system_id":"levelo_inurba_marseille","lat":43.313391,"lon":5.36706,"is_reserved":false,"is_disabled":false,"rental_uris":{"android":"levelo://app?vid=29aa732d-98af-404e-ac3a-113a4cbb7958","ios":"levelo://app?vid=29aa732d-98af-404e-ac3a-113a4cbb7958"},"vehicle_type_id":"4","last_reported":1722229779,"current_range_meters":26000,"station_id":"ce4bgr92rcd13ifvqc6g","pricing_plan_id":"cebpf4jnsgd1na2vs0mg"},{"bike_id":"a31fa0fc-8964-4a99-ab05-b22f2c2adb45","system_id":"levelo_inurba_marseille","lat":43.313391,"lon":5.36706,"is_reserved":false,"is_disabled":false,"rental_uris":{"android":"levelo://app?vid=a31fa0fc-8964-4a99-ab05-b22f2c2adb45","ios":"levelo://app?vid=a31fa0fc-8964-4a99-ab05-b22f2c2adb45"},"vehicle_type_id":"4","last_reported":1722229779,"current_range_meters":23200,"station_id":"ce4bgr92rcd13ifvqc6g","pricing_plan_id":"cebpf4jnsgd1na2vs0mg"},{"bike_id":"7382fc53-0db6-4594-9141-39d578698bda","system_id":"levelo_inurba_marseille","lat":43.313391,"lon":5.36706,"is_reserved":false,"is_disabled":false,"rental_uris":{"android":"levelo://app?vid=7382fc53-0db6-4594-9141-39d578698bda","ios":"levelo://app?vid=7382fc53-0db6-4594-9141-39d578698bda"},"vehicle_type_id":"4","last_reported":1722229779,"current_range_meters":24800,"station_id":"ce4bgr92rcd13ifvqc6g","pricing_plan_id":"cebpf4jnsgd1na2vs0mg"},{"bike_id":"ee687ee6-7ef1-4522-a682-ae326e0b6f60","system_id":"levelo_inurba_marseille","lat":43.309076,"lon":5.368465,"is_reserved":false,"is_disabled":false,"rental_uris":{"android":"levelo://app?vid=ee687ee6-7ef1-4522-a682-ae326e0b6f60","ios":"levelo://app?vid=ee687ee6-7ef1-4522-a682-ae326e0b6f60"},"vehicle_type_id":"4","last_reported":1722229779,"current_range_meters":20800,"station_id":"ce4bgn92rcd13ifvqbvg","pricing_plan_id":"cebpf4jnsgd1na2vs0mg"},{"bike_id":"e70f8ace-341b-41fb-bd19-076c94926078","system_id":"levelo_inurba_marseille","lat":43.309076,"lon":5.368465,"is_reserved":false,"is_disabled":false,"rental_uris":{"android":"levelo://app?vid=e70f8ace-341b-41fb-bd19-076c94926078","ios":"levelo://app?vid=e70f8ace-341b-41fb-bd19-076c94926078"},"vehicle_type_id":"4","last_reported":1722229779,"current_range_meters":9200,"station_id":"ce4bgn92rcd13ifvqbvg","pricing_plan_id":"cebpf4jnsgd1na2vs0mg"},{"bike_id":"0f103796-da6f-4897-b9a3-23e440050625","system_id":"levelo_inurba_marseille","lat":43.309076,"lon":5.368465,"is_reserved":false,"is_disabled":false,"rental_uris":{"android":"levelo://app?vid=0f103796-da6f-4897-b9a3-23e440050625","ios":"levelo://app?vid=0f103796-da6f-4897-b9a3-23e440050625"},"vehicle_type_id":"4","last_reported":1722229779,"current_range_meters":17200,"station_id":"ce4bgn92rcd13ifvqbvg","pricing_plan_id":"cebpf4jnsgd1na2vs0mg"},{"bike_id":"baa31c0f-6143-4558-b0d9-acb0765db671","system_id":"levelo_inurba_marseille","lat":43.314811,"lon":5.373103,"is_reserved":false,"is_disabled":false,"rental_uris":{"android":"levelo://app?vid=baa31c0f-6143-4558-b0d9-acb0765db671","ios":"levelo://app?vid=baa31c0f-6143-4558-b0d9-acb0765db671"},"vehicle_type_id":"4","last_reported":1722229779,"current_range_meters":30800,"station_id":"ce4bgt12rcd13ifvqcd0","pricing_plan_id":"cebpf4jnsgd1na2vs0mg"},{"bike_id":"613f1255-39a6-4976-add4-2612658fbdf1","system_id":"levelo_inurba_marseille","lat":43.314811,"lon":5.373103,"is_reserved":false,"is_disabled":false,"rental_uris":{"android":"levelo://app?vid=613f1255-39a6-4976-add4-2612658fbdf1","ios":"levelo://app?vid=613f1255-39a6-4976-add4-2612658fbdf1"},"vehicle_type_id":"4","last_reported":1722229779,"current_range_meters":20400,"station_id":"ce4bgt12rcd13ifvqcd0","pricing_plan_id":"cebpf4jnsgd1na2vs0mg"},{"bike_id":"1a68066c-123f-4d56-920e-4b276636c08a","system_id":"levelo_inurba_marseille","lat":43.314811,"lon":5.373103,"is_reserved":false,"is_disabled":false,"rental_uris":{"android":"levelo://app?vid=1a68066c-123f-4d56-920e-4b276636c08a","ios":"levelo://app?vid=1a68066c-123f-4d56-920e-4b276636c08a"},"vehicle_type_id":"4","last_reported":1722229779,"current_range_meters":4400,"station_id":"ce4bgt12rcd13ifvqcd0","pricing_plan_id":"cebpf4jnsgd1na2vs0mg"},{"bike_id":"87fd203d-09f4-4b7b-8d5d-38ac5dafce57","system_id":"levelo_inurba_marseille","lat":43.314811,"lon":5.373103,"is_reserved":false,"is_disabled":false,"rental_uris":{"android":"levelo://app?vid=87fd203d-09f4-4b7b-8d5d-38ac5dafce57","ios":"levelo://app?vid=87fd203d-09f4-4b7b-8d5d-38ac5dafce57"},"vehicle_type_id":"4","last_reported":1722229779,"current_range_meters":28800,"station_id":"ce4bgt12rcd13ifvqcd0","pricing_plan_id":"cebpf4jnsgd1na2vs0mg"},{"bike_id":"978a0795-7438-4c64-9a6a-b1e426d188d6","system_id":"levelo_inurba_marseille","lat":43.317504,"lon":5.368761,"is_reserved":false,"is_disabled":false,"rental_uris":{"android":"levelo://app?vid=978a0795-7438-4c64-9a6a-b1e426d188d6","ios":"levelo://app?vid=978a0795-7438-4c64-9a6a-b1e426d188d6"},"vehicle_type_id":"4","last_reported":1722229779,"current_range_meters":0,"station_id":"","pricing_plan_id":"cebpf4jnsgd1na2vs0mg"},{"bike_id":"683abc36-076d-4474-833a-77e87f3334ef","system_id":"levelo_inurba_marseille","lat":43.314811,"lon":5.373104,"is_reserved":false,"is_disabled":false,"rental_uris":{"android":"levelo://app?vid=683abc36-076d-4474-833a-77e87f3334ef","ios":"levelo://app?vid=683abc36-076d-4474-833a-77e87f3334ef"},"vehicle_type_id":"4","last_reported":1722229779,"current_range_meters":27600,"station_id":"ce4bgt12rcd13ifvqcd0","pricing_plan_id":"cebpf4jnsgd1na2vs0mg"},{"bike_id":"c50b662c-59a2-4ab5-9cb2-f1e9b8e0f0f3","system_id":"levelo_inurba_marseille","lat":43.314811,"lon":5.373103,"is_reserved":false,"is_disabled":false,"rental_uris":{"android":"levelo://app?vid=c50b662c-59a2-4ab5-9cb2-f1e9b8e0f0f3","ios":"levelo://app?vid=c50b662c-59a2-4ab5-9cb2-f1e9b8e0f0f3"},"vehicle_type_id":"4","last_reported":1722229779,"current_range_meters":18000,"station_id":"ce4bgt12rcd13ifvqcd0","pricing_plan_id":"cebpf4jnsgd1na2vs0mg"},{"bike_id":"91838723-ebf4-4243-b5ec-4510038f7500","system_id":"levelo_inurba_marseille","lat":43.309034,"lon":5.371783,"is_reserved":false,"is_disabled":false,"rental_uris":{"android":"levelo://app?vid=91838723-ebf4-4243-b5ec-4510038f7500","ios":"levelo://app?vid=91838723-ebf4-4243-b5ec-4510038f7500"},"vehicle_type_id":"4","last_reported":1722229779,"current_range_meters":28000,"station_id":"ce4bguh2rcd13ifvqckg","pricing_plan_id":"cebpf4jnsgd1na2vs0mg"},{"bike_id":"6ea3fb5d-11df-48c5-b181-c652c965187f","system_id":"levelo_inurba_marseille","lat":43.308889,"lon":5.371943,"is_reserved":false,"is_disabled":false,"rental_uris":{"android":"levelo://app?vid=6ea3fb5d-11df-48c5-b181-c652c965187f","ios":"levelo://app?vid=6ea3fb5d-11df-48c5-b181-c652c965187f"},"vehicle_type_id":"4","last_reported":1722229779,"current_range_meters":23200,"station_id":"ce4bguh2rcd13ifvqckg","pricing_plan_id":"cebpf4jnsgd1na2vs0mg"},{"bike_id":"9d41ccf1-76a2-48a1-91a7-c78f72057496","system_id":"levelo_inurba_marseille","lat":43.305712,"lon":5.365641,"is_reserved":false,"is_disabled":false,"rental_uris":{"android":"levelo://app?vid=9d41ccf1-76a2-48a1-91a7-c78f72057496","ios":"levelo://app?vid=9d41ccf1-76a2-48a1-91a7-c78f72057496"},"vehicle_type_id":"4","last_reported":1722229779,"current_range_meters":18800,"station_id":"ce4bgs12rcd13ifvqcag","pricing_plan_id":"cebpf4jnsgd1na2vs0mg"},{"bike_id":"a06240ca-887b-468c-82f0-383eb62a9bc3","system_id":"levelo_inurba_marseille","lat":43.30537,"lon":5.367345,"is_reserved":false,"is_disabled":false,"rental_uris":{"android":"levelo://app?vid=a06240ca-887b-468c-82f0-383eb62a9bc3","ios":"levelo://app?vid=a06240ca-887b-468c-82f0-383eb62a9bc3"},"vehicle_type_id":"4","last_reported":1722229779,"current_range_meters":20800,"station_id":"ce4bgrp2rcd13ifvqc9g","pricing_plan_id":"cebpf4jnsgd1na2vs0mg"},{"bike_id":"1c5238de-eb0b-4193-96f2-5650cefd2ae8","system_id":"levelo_inurba_marseille","lat":43.305714,"lon":5.365633,"is_reserved":false,"is_disabled":false,"rental_uris":{"android":"levelo://app?vid=1c5238de-eb0b-4193-96f2-5650cefd2ae8","ios":"levelo://app?vid=1c5238de-eb0b-4193-96f2-5650cefd2ae8"},"vehicle_type_id":"4","last_reported":1722229779,"current_range_meters":26800,"station_id":"ce4bgs12rcd13ifvqcag","pricing_plan_id":"cebpf4jnsgd1na2vs0mg"},{"bike_id":"7386a58b-4d1f-42a4-864f-b85fa50f7b2b","system_id":"levelo_inurba_marseille","lat":43.305714,"lon":5.365633,"is_reserved":false,"is_disabled":false,"rental_uris":{"android":"levelo://app?vid=7386a58b-4d1f-42a4-864f-b85fa50f7b2b","ios":"levelo://app?vid=7386a58b-4d1f-42a4-864f-b85fa50f7b2b"},"vehicle_type_id":"4","last_reported":1722229779,"current_range_meters":21200,"station_id":"ce4bgs12rcd13ifvqcag","pricing_plan_id":"cebpf4jnsgd1na2vs0mg"},{"bike_id":"f10b4eaa-10ba-4cce-9984-3b75d62e9d89","system_id":"levelo_inurba_marseille","lat":43.305714,"lon":5.365633,"is_reserved":false,"is_disabled":false,"rental_uris":{"android":"levelo://app?vid=f10b4eaa-10ba-4cce-9984-3b75d62e9d89","ios":"levelo://app?vid=f10b4eaa-10ba-4cce-9984-3b75d62e9d89"},"vehicle_type_id":"4","last_reported":1722229779,"current_range_meters":28800,"station_id":"ce4bgs12rcd13ifvqcag","pricing_plan_id":"cebpf4jnsgd1na2vs0mg"},{"bike_id":"c4b5df69-0914-4cf9-ab1d-5dd0f4716cbf","system_id":"levelo_inurba_marseille","lat":43.305714,"lon":5.365633,"is_reserved":false,"is_disabled":false,"rental_uris":{"android":"levelo://app?vid=c4b5df69-0914-4cf9-ab1d-5dd0f4716cbf","ios":"levelo://app?vid=c4b5df69-0914-4cf9-ab1d-5dd0f4716cbf"},"vehicle_type_id":"4","last_reported":1722229779,"current_range_meters":25600,"station_id":"ce4bgs12rcd13ifvqcag","pricing_plan_id":"cebpf4jnsgd1na2vs0mg"},{"bike_id":"b10aefe9-8db5-4354-acaf-b259bf1e5f89","system_id":"levelo_inurba_marseille","lat":43.305714,"lon":5.365633,"is_reserved":false,"is_disabled":false,"rental_uris":{"android":"levelo://app?vid=b10aefe9-8db5-4354-acaf-b259bf1e5f89","ios":"levelo://app?vid=b10aefe9-8db5-4354-acaf-b259bf1e5f89"},"vehicle_type_id":"4","last_reported":1722229779,"current_range_meters":7600,"station_id":"ce4bgs12rcd13ifvqcag","pricing_plan_id":"cebpf4jnsgd1na2vs0mg"},{"bike_id":"df38549a-556f-4f13-a4d5-e2b2c4629fef","system_id":"levelo_inurba_marseille","lat":43.311123,"lon":5.377583,"is_reserved":false,"is_disabled":false,"rental_uris":{"android":"levelo://app?vid=df38549a-556f-4f13-a4d5-e2b2c4629fef","ios":"levelo://app?vid=df38549a-556f-4f13-a4d5-e2b2c4629fef"},"vehicle_type_id":"4","last_reported":1722229779,"current_range_meters":16000,"station_id":"ce4bgt92rcd13ifvqcg0","pricing_plan_id":"cebpf4jnsgd1na2vs0mg"},{"bike_id":"f9c906f2-a926-440b-b49e-8e282808a9f3","system_id":"levelo_inurba_marseille","lat":43.311131,"lon":5.377651,"is_reserved":false,"is_disabled":false,"rental_uris":{"android":"levelo://app?vid=f9c906f2-a926-440b-b49e-8e282808a9f3","ios":"levelo://app?vid=f9c906f2-a926-440b-b49e-8e282808a9f3"},"vehicle_type_id":"4","last_reported":1722229779,"current_range_meters":30800,"station_id":"ce4bgt92rcd13ifvqcg0","pricing_plan_id":"cebpf4jnsgd1na2vs0mg"},{"bike_id":"e25b5cae-f75f-4158-bfb3-e281b2f36a6e","system_id":"levelo_inurba_marseille","lat":43.311131,"lon":5.377651,"is_reserved":false,"is_disabled":false,"rental_uris":{"android":"levelo://app?vid=e25b5cae-f75f-4158-bfb3-e281b2f36a6e","ios":"levelo://app?vid=e25b5cae-f75f-4158-bfb3-e281b2f36a6e"},"vehicle_type_id":"4","last_reported":1722229779,"current_range_meters":23600,"station_id":"ce4bgt92rcd13ifvqcg0","pricing_plan_id":"cebpf4jnsgd1na2vs0mg"},{"bike_id":"bd10161c-1cfb-4b31-8609-395336c5555d","system_id":"levelo_inurba_marseille","lat":43.311125,"lon":5.377624,"is_reserved":false,"is_disabled":false,"rental_uris":{"android":"levelo://app?vid=bd10161c-1cfb-4b31-8609-395336c5555d","ios":"levelo://app?vid=bd10161c-1cfb-4b31-8609-395336c5555d"},"vehicle_type_id":"4","last_reported":1722229779,"current_range_meters":18400,"station_id":"ce4bgt92rcd13ifvqcg0","pricing_plan_id":"cebpf4jnsgd1na2vs0mg"},{"bike_id":"cc25fb76-484c-4905-b397-763841a393dc","system_id":"levelo_inurba_marseille","lat":43.311131,"lon":5.377651,"is_reserved":false,"is_disabled":false,"rental_uris":{"android":"levelo://app?vid=cc25fb76-484c-4905-b397-763841a393dc","ios":"levelo://app?vid=cc25fb76-484c-4905-b397-763841a393dc"},"vehicle_type_id":"4","last_reported":1722229779,"current_range_meters":19200,"station_id":"ce4bgt92rcd13ifvqcg0","pricing_plan_id":"cebpf4jnsgd1na2vs0mg"},{"bike_id":"34d45664-3f15-43bd-9a8c-6e8774612cd9","system_id":"levelo_inurba_marseille","lat":43.311125,"lon":5.377624,"is_reserved":false,"is_disabled":false,"rental_uris":{"android":"levelo://app?vid=34d45664-3f15-43bd-9a8c-6e8774612cd9","ios":"levelo://app?vid=34d45664-3f15-43bd-9a8c-6e8774612cd9"},"vehicle_type_id":"4","last_reported":1722229779,"current_range_meters":20000,"station_id":"ce4bgt92rcd13ifvqcg0","pricing_plan_id":"cebpf4jnsgd1na2vs0mg"},{"bike_id":"e26685c0-96cb-4680-b861-557a624cd12b","system_id":"levelo_inurba_marseille","lat":43.311131,"lon":5.377651,"is_reserved":false,"is_disabled":false,"rental_uris":{"android":"levelo://app?vid=e26685c0-96cb-4680-b861-557a624cd12b","ios":"levelo://app?vid=e26685c0-96cb-4680-b861-557a624cd12b"},"vehicle_type_id":"4","last_reported":1722229779,"current_range_meters":8800,"station_id":"ce4bgt92rcd13ifvqcg0","pricing_plan_id":"cebpf4jnsgd1na2vs0mg"},{"bike_id":"868ec954-39ff-4e1a-ad16-7984205d8e4b","system_id":"levelo_inurba_marseille","lat":43.311125,"lon":5.377624,"is_reserved":false,"is_disabled":false,"rental_uris":{"android":"levelo://app?vid=868ec954-39ff-4e1a-ad16-7984205d8e4b","ios":"levelo://app?vid=868ec954-39ff-4e1a-ad16-7984205d8e4b"},"vehicle_type_id":"4","last_reported":1722229779,"current_range_meters":19200,"station_id":"ce4bgt92rcd13ifvqcg0","pricing_plan_id":"cebpf4jnsgd1na2vs0mg"},{"bike_id":"700f1045-dad0-48f7-bf57-2a56db0ed0a3","system_id":"levelo_inurba_marseille","lat":43.311125,"lon":5.377624,"is_reserved":false,"is_disabled":false,"rental_uris":{"android":"levelo://app?vid=700f1045-dad0-48f7-bf57-2a56db0ed0a3","ios":"levelo://app?vid=700f1045-dad0-48f7-bf57-2a56db0ed0a3"},"vehicle_type_id":"4","last_reported":1722229779,"current_range_meters":2000,"station_id":"ce4bgt92rcd13ifvqcg0","pricing_plan_id":"cebpf4jnsgd1na2vs0mg"},{"bike_id":"b3418391-b577-484e-9c13-faff95589cfe","system_id":"levelo_inurba_marseille","lat":43.308569,"lon":5.376296,"is_reserved":false,"is_disabled":false,"rental_uris":{"android":"levelo://app?vid=b3418391-b577-484e-9c13-faff95589cfe","ios":"levelo://app?vid=b3418391-b577-484e-9c13-faff95589cfe"},"vehicle_type_id":"4","last_reported":1722229779,"current_range_meters":15600,"station_id":"","pricing_plan_id":"cebpf4jnsgd1na2vs0mg"},{"bike_id":"3ff576a5-6f7d-4a3f-a108-99a306f1e5e9","system_id":"levelo_inurba_marseille","lat":43.311125,"lon":5.377624,"is_reserved":false,"is_disabled":false,"rental_uris":{"android":"levelo://app?vid=3ff576a5-6f7d-4a3f-a108-99a306f1e5e9","ios":"levelo://app?vid=3ff576a5-6f7d-4a3f-a108-99a306f1e5e9"},"vehicle_type_id":"4","last_reported":1722229779,"current_range_meters":13600,"station_id":"ce4bgt92rcd13ifvqcg0","pricing_plan_id":"cebpf4jnsgd1na2vs0mg"},{"bike_id":"92ce7b38-f082-4dff-aca9-3a257ec2efc2","system_id":"levelo_inurba_marseille","lat":43.311131,"lon":5.377651,"is_reserved":false,"is_disabled":false,"rental_uris":{"android":"levelo://app?vid=92ce7b38-f082-4dff-aca9-3a257ec2efc2","ios":"levelo://app?vid=92ce7b38-f082-4dff-aca9-3a257ec2efc2"},"vehicle_type_id":"4","last_reported":1722229779,"current_range_meters":26000,"station_id":"ce4bgt92rcd13ifvqcg0","pricing_plan_id":"cebpf4jnsgd1na2vs0mg"},{"bike_id":"c44b0748-0b91-41e4-91ed-feb12d46e94e","system_id":"levelo_inurba_marseille","lat":43.311125,"lon":5.377624,"is_reserved":false,"is_disabled":false,"rental_uris":{"android":"levelo://app?vid=c44b0748-0b91-41e4-91ed-feb12d46e94e","ios":"levelo://app?vid=c44b0748-0b91-41e4-91ed-feb12d46e94e"},"vehicle_type_id":"4","last_reported":1722229779,"current_range_meters":11600,"station_id":"ce4bgt92rcd13ifvqcg0","pricing_plan_id":"cebpf4jnsgd1na2vs0mg"},{"bike_id":"8e4b62c1-1b42-432e-a945-5a5d553b6f1f","system_id":"levelo_inurba_marseille","lat":43.311125,"lon":5.377624,"is_reserved":false,"is_disabled":false,"rental_uris":{"android":"levelo://app?vid=8e4b62c1-1b42-432e-a945-5a5d553b6f1f","ios":"levelo://app?vid=8e4b62c1-1b42-432e-a945-5a5d553b6f1f"},"vehicle_type_id":"4","last_reported":1722229779,"current_range_meters":2800,"station_id":"ce4bgt92rcd13ifvqcg0","pricing_plan_id":"cebpf4jnsgd1na2vs0mg"},{"bike_id":"fe81f82f-863e-4c8c-aa63-c6c6b92df1da","system_id":"levelo_inurba_marseille","lat":43.305368,"lon":5.367343,"is_reserved":false,"is_disabled":false,"rental_uris":{"android":"levelo://app?vid=fe81f82f-863e-4c8c-aa63-c6c6b92df1da","ios":"levelo://app?vid=fe81f82f-863e-4c8c-aa63-c6c6b92df1da"},"vehicle_type_id":"4","last_reported":1722229779,"current_range_meters":13600,"station_id":"ce4bgrp2rcd13ifvqc9g","pricing_plan_id":"cebpf4jnsgd1na2vs0mg"},{"bike_id":"8728c5a9-1436-4cc9-9b0e-27d6bcddf667","system_id":"levelo_inurba_marseille","lat":43.307945,"lon":5.376487,"is_reserved":false,"is_disabled":false,"rental_uris":{"android":"levelo://app?vid=8728c5a9-1436-4cc9-9b0e-27d6bcddf667","ios":"levelo://app?vid=8728c5a9-1436-4cc9-9b0e-27d6bcddf667"},"vehicle_type_id":"4","last_reported":1722229779,"current_range_meters":26800,"station_id":"ce4bgv92rcd13ifvqcq0","pricing_plan_id":"cebpf4jnsgd1na2vs0mg"},{"bike_id":"648eb5e8-e43e-44cd-8005-9adc6b0b3f3c","system_id":"levelo_inurba_marseille","lat":43.307945,"lon":5.376487,"is_reserved":false,"is_disabled":false,"rental_uris":{"android":"levelo://app?vid=648eb5e8-e43e-44cd-8005-9adc6b0b3f3c","ios":"levelo://app?vid=648eb5e8-e43e-44cd-8005-9adc6b0b3f3c"},"vehicle_type_id":"4","last_reported":1722229779,"current_range_meters":29200,"station_id":"ce4bgv92rcd13ifvqcq0","pricing_plan_id":"cebpf4jnsgd1na2vs0mg"},{"bike_id":"9bbf3a4a-60bd-4a4e-ad9f-ccc4a04e4982","system_id":"levelo_inurba_marseille","lat":43.307945,"lon":5.376487,"is_reserved":false,"is_disabled":false,"rental_uris":{"android":"levelo://app?vid=9bbf3a4a-60bd-4a4e-ad9f-ccc4a04e4982","ios":"levelo://app?vid=9bbf3a4a-60bd-4a4e-ad9f-ccc4a04e4982"},"vehicle_type_id":"4","last_reported":1722229779,"current_range_meters":30800,"station_id":"ce4bgv92rcd13ifvqcq0","pricing_plan_id":"cebpf4jnsgd1na2vs0mg"},{"bike_id":"2dc77417-a227-4779-8fc8-126540aadacd","system_id":"levelo_inurba_marseille","lat":43.307945,"lon":5.376487,"is_reserved":false,"is_disabled":false,"rental_uris":{"android":"levelo://app?vid=2dc77417-a227-4779-8fc8-126540aadacd","ios":"levelo://app?vid=2dc77417-a227-4779-8fc8-126540aadacd"},"vehicle_type_id":"4","last_reported":1722229779,"current_range_meters":8000,"station_id":"ce4bgv92rcd13ifvqcq0","pricing_plan_id":"cebpf4jnsgd1na2vs0mg"},{"bike_id":"dd41edf8-a6a5-4774-bad0-8e56ffd9913e","system_id":"levelo_inurba_marseille","lat":43.307945,"lon":5.376487,"is_reserved":false,"is_disabled":false,"rental_uris":{"android":"levelo://app?vid=dd41edf8-a6a5-4774-bad0-8e56ffd9913e","ios":"levelo://app?vid=dd41edf8-a6a5-4774-bad0-8e56ffd9913e"},"vehicle_type_id":"4","last_reported":1722229779,"current_range_meters":31200,"station_id":"ce4bgv92rcd13ifvqcq0","pricing_plan_id":"cebpf4jnsgd1na2vs0mg"},{"bike_id":"766ea381-e6ed-48a0-a2e9-b1e5dd2ecc58","system_id":"levelo_inurba_marseille","lat":43.30799,"lon":5.3768,"is_reserved":false,"is_disabled":false,"rental_uris":{"android":"levelo://app?vid=766ea381-e6ed-48a0-a2e9-b1e5dd2ecc58","ios":"levelo://app?vid=766ea381-e6ed-48a0-a2e9-b1e5dd2ecc58"},"vehicle_type_id":"4","last_reported":1722229779,"current_range_meters":20400,"station_id":"ce4bgv92rcd13ifvqcq0","pricing_plan_id":"cebpf4jnsgd1na2vs0mg"},{"bike_id":"31d4002c-67e4-46f5-a6ff-7daf82afdd86","system_id":"levelo_inurba_marseille","lat":43.317075,"lon":5.377367,"is_reserved":false,"is_disabled":false,"rental_uris":{"android":"levelo://app?vid=31d4002c-67e4-46f5-a6ff-7daf82afdd86","ios":"levelo://app?vid=31d4002c-67e4-46f5-a6ff-7daf82afdd86"},"vehicle_type_id":"4","last_reported":1722229779,"current_range_meters":27600,"station_id":"ce4bgth2rcd13ifvqch0","pricing_plan_id":"cebpf4jnsgd1na2vs0mg"},{"bike_id":"ab35743a-e22d-479e-a817-0468a1d4c8b8","system_id":"levelo_inurba_marseille","lat":43.317074,"lon":5.377509,"is_reserved":false,"is_disabled":false,"rental_uris":{"android":"levelo://app?vid=ab35743a-e22d-479e-a817-0468a1d4c8b8","ios":"levelo://app?vid=ab35743a-e22d-479e-a817-0468a1d4c8b8"},"vehicle_type_id":"4","last_reported":1722229779,"current_range_meters":30400,"station_id":"ce4bgth2rcd13ifvqch0","pricing_plan_id":"cebpf4jnsgd1na2vs0mg"},{"bike_id":"594acd35-e873-45ea-9900-1c2ff5a41484","system_id":"levelo_inurba_marseille","lat":43.317075,"lon":5.377367,"is_reserved":false,"is_disabled":false,"rental_uris":{"android":"levelo://app?vid=594acd35-e873-45ea-9900-1c2ff5a41484","ios":"levelo://app?vid=594acd35-e873-45ea-9900-1c2ff5a41484"},"vehicle_type_id":"4","last_reported":1722229779,"current_range_meters":26800,"station_id":"ce4bgth2rcd13ifvqch0","pricing_plan_id":"cebpf4jnsgd1na2vs0mg"},{"bike_id":"8e5d2a60-972f-45c2-9a4c-91a8a8d6b19d","system_id":"levelo_inurba_marseille","lat":43.317236,"lon":5.377579,"is_reserved":false,"is_disabled":false,"rental_uris":{"android":"levelo://app?vid=8e5d2a60-972f-45c2-9a4c-91a8a8d6b19d","ios":"levelo://app?vid=8e5d2a60-972f-45c2-9a4c-91a8a8d6b19d"},"vehicle_type_id":"4","last_reported":1722229779,"current_range_meters":15600,"station_id":"ce4bgth2rcd13ifvqch0","pricing_plan_id":"cebpf4jnsgd1na2vs0mg"},{"bike_id":"8d524771-e319-4c1b-bfcb-ad58cd6a0c0a","system_id":"levelo_inurba_marseille","lat":43.30304,"lon":5.368987,"is_reserved":false,"is_disabled":false,"rental_uris":{"android":"levelo://app?vid=8d524771-e319-4c1b-bfcb-ad58cd6a0c0a","ios":"levelo://app?vid=8d524771-e319-4c1b-bfcb-ad58cd6a0c0a"},"vehicle_type_id":"4","last_reported":1722229779,"current_range_meters":27600,"station_id":"ce4bgqh2rcd13ifvqc5g","pricing_plan_id":"cebpf4jnsgd1na2vs0mg"},{"bike_id":"622a202c-40b6-4589-ad83-1500d35e4f05","system_id":"levelo_inurba_marseille","lat":43.315289,"lon":5.380349,"is_reserved":false,"is_disabled":false,"rental_uris":{"android":"levelo://app?vid=622a202c-40b6-4589-ad83-1500d35e4f05","ios":"levelo://app?vid=622a202c-40b6-4589-ad83-1500d35e4f05"},"vehicle_type_id":"4","last_reported":1722229779,"current_range_meters":20000,"station_id":"ce4bhsp2rcd13ifvqi50","pricing_plan_id":"cebpf4jnsgd1na2vs0mg"},{"bike_id":"2bbd9eb5-ef10-44a3-a004-70b8b2927dee","system_id":"levelo_inurba_marseille","lat":43.315289,"lon":5.380349,"is_reserved":false,"is_disabled":false,"rental_uris":{"android":"levelo://app?vid=2bbd9eb5-ef10-44a3-a004-70b8b2927dee","ios":"levelo://app?vid=2bbd9eb5-ef10-44a3-a004-70b8b2927dee"},"vehicle_type_id":"4","last_reported":1722229779,"current_range_meters":31200,"station_id":"ce4bhsp2rcd13ifvqi50","pricing_plan_id":"cebpf4jnsgd1na2vs0mg"},{"bike_id":"80b3344c-092f-4e97-a348-77a2a028d693","system_id":"levelo_inurba_marseille","lat":43.315289,"lon":5.380349,"is_reserved":false,"is_disabled":false,"rental_uris":{"android":"levelo://app?vid=80b3344c-092f-4e97-a348-77a2a028d693","ios":"levelo://app?vid=80b3344c-092f-4e97-a348-77a2a028d693"},"vehicle_type_id":"4","last_reported":1722229779,"current_range_meters":30800,"station_id":"ce4bhsp2rcd13ifvqi50","pricing_plan_id":"cebpf4jnsgd1na2vs0mg"},{"bike_id":"34a39733-b305-442f-b010-cf0228cd18cc","system_id":"levelo_inurba_marseille","lat":43.315289,"lon":5.380349,"is_reserved":false,"is_disabled":false,"rental_uris":{"android":"levelo://app?vid=34a39733-b305-442f-b010-cf0228cd18cc","ios":"levelo://app?vid=34a39733-b305-442f-b010-cf0228cd18cc"},"vehicle_type_id":"4","last_reported":1722229779,"current_range_meters":3200,"station_id":"ce4bhsp2rcd13ifvqi50","pricing_plan_id":"cebpf4jnsgd1na2vs0mg"},{"bike_id":"72b758ca-6e2d-4f6a-8b72-ef063568b00b","system_id":"levelo_inurba_marseille","lat":43.315293,"lon":5.380349,"is_reserved":false,"is_disabled":false,"rental_uris":{"android":"levelo://app?vid=72b758ca-6e2d-4f6a-8b72-ef063568b00b","ios":"levelo://app?vid=72b758ca-6e2d-4f6a-8b72-ef063568b00b"},"vehicle_type_id":"4","last_reported":1722229779,"current_range_meters":22400,"station_id":"ce4bhsp2rcd13ifvqi50","pricing_plan_id":"cebpf4jnsgd1na2vs0mg"},{"bike_id":"3bc1f457-3758-4b55-9080-1eaaa8206eae","system_id":"levelo_inurba_marseille","lat":43.308012,"lon":5.381511,"is_reserved":false,"is_disabled":false,"rental_uris":{"android":"levelo://app?vid=3bc1f457-3758-4b55-9080-1eaaa8206eae","ios":"levelo://app?vid=3bc1f457-3758-4b55-9080-1eaaa8206eae"},"vehicle_type_id":"4","last_reported":1722229779,"current_range_meters":30400,"station_id":"ce4bgt12rcd13ifvqce0","pricing_plan_id":"cebpf4jnsgd1na2vs0mg"},{"bike_id":"6c4f1025-b0c7-4743-b9f2-e624c99b9e57","system_id":"levelo_inurba_marseille","lat":43.308012,"lon":5.381511,"is_reserved":false,"is_disabled":false,"rental_uris":{"android":"levelo://app?vid=6c4f1025-b0c7-4743-b9f2-e624c99b9e57","ios":"levelo://app?vid=6c4f1025-b0c7-4743-b9f2-e624c99b9e57"},"vehicle_type_id":"4","last_reported":1722229779,"current_range_meters":17200,"station_id":"ce4bgt12rcd13ifvqce0","pricing_plan_id":"cebpf4jnsgd1na2vs0mg"},{"bike_id":"83521211-ded4-4bf8-ae4d-007acda76103","system_id":"levelo_inurba_marseille","lat":43.308012,"lon":5.381511,"is_reserved":false,"is_disabled":false,"rental_uris":{"android":"levelo://app?vid=83521211-ded4-4bf8-ae4d-007acda76103","ios":"levelo://app?vid=83521211-ded4-4bf8-ae4d-007acda76103"},"vehicle_type_id":"4","last_reported":1722229779,"current_range_meters":24000,"station_id":"ce4bgt12rcd13ifvqce0","pricing_plan_id":"cebpf4jnsgd1na2vs0mg"},{"bike_id":"99908ba4-1961-43c5-9021-00176c00e605","system_id":"levelo_inurba_marseille","lat":43.308012,"lon":5.381511,"is_reserved":false,"is_disabled":false,"rental_uris":{"android":"levelo://app?vid=99908ba4-1961-43c5-9021-00176c00e605","ios":"levelo://app?vid=99908ba4-1961-43c5-9021-00176c00e605"},"vehicle_type_id":"4","last_reported":1722229779,"current_range_meters":31200,"station_id":"ce4bgt12rcd13ifvqce0","pricing_plan_id":"cebpf4jnsgd1na2vs0mg"},{"bike_id":"a8be494b-da3f-4de9-81d2-91db36d2f2e5","system_id":"levelo_inurba_marseille","lat":43.308012,"lon":5.381511,"is_reserved":false,"is_disabled":false,"rental_uris":{"android":"levelo://app?vid=a8be494b-da3f-4de9-81d2-91db36d2f2e5","ios":"levelo://app?vid=a8be494b-da3f-4de9-81d2-91db36d2f2e5"},"vehicle_type_id":"4","last_reported":1722229779,"current_range_meters":31200,"station_id":"ce4bgt12rcd13ifvqce0","pricing_plan_id":"cebpf4jnsgd1na2vs0mg"},{"bike_id":"9f4445fc-389b-44e4-b9d1-395bc35864f7","system_id":"levelo_inurba_marseille","lat":43.308012,"lon":5.381511,"is_reserved":false,"is_disabled":false,"rental_uris":{"android":"levelo://app?vid=9f4445fc-389b-44e4-b9d1-395bc35864f7","ios":"levelo://app?vid=9f4445fc-389b-44e4-b9d1-395bc35864f7"},"vehicle_type_id":"4","last_reported":1722229779,"current_range_meters":31200,"station_id":"ce4bgt12rcd13ifvqce0","pricing_plan_id":"cebpf4jnsgd1na2vs0mg"},{"bike_id":"2da2c2d6-c1be-49fd-b1d6-da0190d22f60","system_id":"levelo_inurba_marseille","lat":43.308012,"lon":5.381511,"is_reserved":false,"is_disabled":false,"rental_uris":{"android":"levelo://app?vid=2da2c2d6-c1be-49fd-b1d6-da0190d22f60","ios":"levelo://app?vid=2da2c2d6-c1be-49fd-b1d6-da0190d22f60"},"vehicle_type_id":"4","last_reported":1722229779,"current_range_meters":7600,"station_id":"ce4bgt12rcd13ifvqce0","pricing_plan_id":"cebpf4jnsgd1na2vs0mg"},{"bike_id":"2be52971-389f-4562-8813-4ecc5343caea","system_id":"levelo_inurba_marseille","lat":43.308012,"lon":5.381511,"is_reserved":false,"is_disabled":false,"rental_uris":{"android":"levelo://app?vid=2be52971-389f-4562-8813-4ecc5343caea","ios":"levelo://app?vid=2be52971-389f-4562-8813-4ecc5343caea"},"vehicle_type_id":"4","last_reported":1722229779,"current_range_meters":27200,"station_id":"ce4bgt12rcd13ifvqce0","pricing_plan_id":"cebpf4jnsgd1na2vs0mg"},{"bike_id":"196aad49-f13f-4be8-af0d-a10e5801709c","system_id":"levelo_inurba_marseille","lat":43.308012,"lon":5.381511,"is_reserved":false,"is_disabled":false,"rental_uris":{"android":"levelo://app?vid=196aad49-f13f-4be8-af0d-a10e5801709c","ios":"levelo://app?vid=196aad49-f13f-4be8-af0d-a10e5801709c"},"vehicle_type_id":"4","last_reported":1722229779,"current_range_meters":14000,"station_id":"ce4bgt12rcd13ifvqce0","pricing_plan_id":"cebpf4jnsgd1na2vs0mg"},{"bike_id":"b0918606-dea7-4f74-b3ec-a8f654fa95b2","system_id":"levelo_inurba_marseille","lat":43.308012,"lon":5.381511,"is_reserved":false,"is_disabled":false,"rental_uris":{"android":"levelo://app?vid=b0918606-dea7-4f74-b3ec-a8f654fa95b2","ios":"levelo://app?vid=b0918606-dea7-4f74-b3ec-a8f654fa95b2"},"vehicle_type_id":"4","last_reported":1722229779,"current_range_meters":10000,"station_id":"ce4bgt12rcd13ifvqce0","pricing_plan_id":"cebpf4jnsgd1na2vs0mg"},{"bike_id":"d5b9621f-a362-4cfd-b56f-1a89092b5dbd","system_id":"levelo_inurba_marseille","lat":43.308012,"lon":5.381511,"is_reserved":false,"is_disabled":false,"rental_uris":{"android":"levelo://app?vid=d5b9621f-a362-4cfd-b56f-1a89092b5dbd","ios":"levelo://app?vid=d5b9621f-a362-4cfd-b56f-1a89092b5dbd"},"vehicle_type_id":"4","last_reported":1722229779,"current_range_meters":12800,"station_id":"ce4bgt12rcd13ifvqce0","pricing_plan_id":"cebpf4jnsgd1na2vs0mg"},{"bike_id":"bc9ba09b-9401-41d1-afd7-3e8baeb33031","system_id":"levelo_inurba_marseille","lat":43.308012,"lon":5.381511,"is_reserved":false,"is_disabled":false,"rental_uris":{"android":"levelo://app?vid=bc9ba09b-9401-41d1-afd7-3e8baeb33031","ios":"levelo://app?vid=bc9ba09b-9401-41d1-afd7-3e8baeb33031"},"vehicle_type_id":"4","last_reported":1722229779,"current_range_meters":23600,"station_id":"ce4bgt12rcd13ifvqce0","pricing_plan_id":"cebpf4jnsgd1na2vs0mg"},{"bike_id":"4b7e71fb-ee98-4f3e-b19b-3b48c752fdf3","system_id":"levelo_inurba_marseille","lat":43.308012,"lon":5.381511,"is_reserved":false,"is_disabled":false,"rental_uris":{"android":"levelo://app?vid=4b7e71fb-ee98-4f3e-b19b-3b48c752fdf3","ios":"levelo://app?vid=4b7e71fb-ee98-4f3e-b19b-3b48c752fdf3"},"vehicle_type_id":"4","last_reported":1722229779,"current_range_meters":400,"station_id":"ce4bgt12rcd13ifvqce0","pricing_plan_id":"cebpf4jnsgd1na2vs0mg"},{"bike_id":"1656bb05-d46b-4264-8171-8a1552fb8f51","system_id":"levelo_inurba_marseille","lat":43.308012,"lon":5.381511,"is_reserved":false,"is_disabled":false,"rental_uris":{"android":"levelo://app?vid=1656bb05-d46b-4264-8171-8a1552fb8f51","ios":"levelo://app?vid=1656bb05-d46b-4264-8171-8a1552fb8f51"},"vehicle_type_id":"4","last_reported":1722229779,"current_range_meters":21200,"station_id":"ce4bgt12rcd13ifvqce0","pricing_plan_id":"cebpf4jnsgd1na2vs0mg"},{"bike_id":"99d3947b-c868-46bc-aa09-2d22c33e9d07","system_id":"levelo_inurba_marseille","lat":43.30603,"lon":5.380157,"is_reserved":false,"is_disabled":false,"rental_uris":{"android":"levelo://app?vid=99d3947b-c868-46bc-aa09-2d22c33e9d07","ios":"levelo://app?vid=99d3947b-c868-46bc-aa09-2d22c33e9d07"},"vehicle_type_id":"4","last_reported":1722229779,"current_range_meters":11600,"station_id":"","pricing_plan_id":"cebpf4jnsgd1na2vs0mg"},{"bike_id":"255465bf-d775-4a8f-8efa-1cc09303b839","system_id":"levelo_inurba_marseille","lat":43.324771,"lon":5.36557,"is_reserved":false,"is_disabled":false,"rental_uris":{"android":"levelo://app?vid=255465bf-d775-4a8f-8efa-1cc09303b839","ios":"levelo://app?vid=255465bf-d775-4a8f-8efa-1cc09303b839"},"vehicle_type_id":"4","last_reported":1722229779,"current_range_meters":16000,"station_id":"ce4bhs12rcd13ifvqhvg","pricing_plan_id":"cebpf4jnsgd1na2vs0mg"},{"bike_id":"8c143f63-e15c-45a8-b4c2-dbd154462432","system_id":"levelo_inurba_marseille","lat":43.304606,"lon":5.379026,"is_reserved":false,"is_disabled":false,"rental_uris":{"android":"levelo://app?vid=8c143f63-e15c-45a8-b4c2-dbd154462432","ios":"levelo://app?vid=8c143f63-e15c-45a8-b4c2-dbd154462432"},"vehicle_type_id":"4","last_reported":1722229779,"current_range_meters":6000,"station_id":"ce4bgup2rcd13ifvqcn0","pricing_plan_id":"cebpf4jnsgd1na2vs0mg"},{"bike_id":"ba89a0db-4b19-472f-951c-4a766762e7fa","system_id":"levelo_inurba_marseille","lat":43.304606,"lon":5.379026,"is_reserved":false,"is_disabled":false,"rental_uris":{"android":"levelo://app?vid=ba89a0db-4b19-472f-951c-4a766762e7fa","ios":"levelo://app?vid=ba89a0db-4b19-472f-951c-4a766762e7fa"},"vehicle_type_id":"4","last_reported":1722229779,"current_range_meters":3600,"station_id":"ce4bgup2rcd13ifvqcn0","pricing_plan_id":"cebpf4jnsgd1na2vs0mg"},{"bike_id":"583031ff-03db-497d-9e0a-e45f62930bed","system_id":"levelo_inurba_marseille","lat":43.304606,"lon":5.379026,"is_reserved":false,"is_disabled":false,"rental_uris":{"android":"levelo://app?vid=583031ff-03db-497d-9e0a-e45f62930bed","ios":"levelo://app?vid=583031ff-03db-497d-9e0a-e45f62930bed"},"vehicle_type_id":"4","last_reported":1722229779,"current_range_meters":30000,"station_id":"ce4bgup2rcd13ifvqcn0","pricing_plan_id":"cebpf4jnsgd1na2vs0mg"},{"bike_id":"7d56fcc9-da90-4e2f-a3c6-57d542794e99","system_id":"levelo_inurba_marseille","lat":43.304606,"lon":5.379026,"is_reserved":false,"is_disabled":false,"rental_uris":{"android":"levelo://app?vid=7d56fcc9-da90-4e2f-a3c6-57d542794e99","ios":"levelo://app?vid=7d56fcc9-da90-4e2f-a3c6-57d542794e99"},"vehicle_type_id":"4","last_reported":1722229779,"current_range_meters":22400,"station_id":"ce4bgup2rcd13ifvqcn0","pricing_plan_id":"cebpf4jnsgd1na2vs0mg"},{"bike_id":"4c63c8cb-9263-442f-b3c6-4bc2f9e23bef","system_id":"levelo_inurba_marseille","lat":43.304606,"lon":5.379026,"is_reserved":false,"is_disabled":false,"rental_uris":{"android":"levelo://app?vid=4c63c8cb-9263-442f-b3c6-4bc2f9e23bef","ios":"levelo://app?vid=4c63c8cb-9263-442f-b3c6-4bc2f9e23bef"},"vehicle_type_id":"4","last_reported":1722229779,"current_range_meters":4400,"station_id":"ce4bgup2rcd13ifvqcn0","pricing_plan_id":"cebpf4jnsgd1na2vs0mg"},{"bike_id":"0e77b0cc-0c17-40be-b80b-01f6cef92129","system_id":"levelo_inurba_marseille","lat":43.30467,"lon":5.37912,"is_reserved":false,"is_disabled":false,"rental_uris":{"android":"levelo://app?vid=0e77b0cc-0c17-40be-b80b-01f6cef92129","ios":"levelo://app?vid=0e77b0cc-0c17-40be-b80b-01f6cef92129"},"vehicle_type_id":"4","last_reported":1722229779,"current_range_meters":28000,"station_id":"ce4bgup2rcd13ifvqcn0","pricing_plan_id":"cebpf4jnsgd1na2vs0mg"},{"bike_id":"e234968e-167e-42ea-a340-36385042d08c","system_id":"levelo_inurba_marseille","lat":43.304606,"lon":5.379026,"is_reserved":false,"is_disabled":false,"rental_uris":{"android":"levelo://app?vid=e234968e-167e-42ea-a340-36385042d08c","ios":"levelo://app?vid=e234968e-167e-42ea-a340-36385042d08c"},"vehicle_type_id":"4","last_reported":1722229779,"current_range_meters":18000,"station_id":"ce4bgup2rcd13ifvqcn0","pricing_plan_id":"cebpf4jnsgd1na2vs0mg"},{"bike_id":"9f81cfea-f59d-419a-8e7b-e1324edef0b8","system_id":"levelo_inurba_marseille","lat":43.304606,"lon":5.379026,"is_reserved":false,"is_disabled":false,"rental_uris":{"android":"levelo://app?vid=9f81cfea-f59d-419a-8e7b-e1324edef0b8","ios":"levelo://app?vid=9f81cfea-f59d-419a-8e7b-e1324edef0b8"},"vehicle_type_id":"4","last_reported":1722229779,"current_range_meters":10400,"station_id":"ce4bgup2rcd13ifvqcn0","pricing_plan_id":"cebpf4jnsgd1na2vs0mg"},{"bike_id":"126ec9bd-df27-4ef2-96de-5c314afc5de5","system_id":"levelo_inurba_marseille","lat":43.3046,"lon":5.37906,"is_reserved":false,"is_disabled":false,"rental_uris":{"android":"levelo://app?vid=126ec9bd-df27-4ef2-96de-5c314afc5de5","ios":"levelo://app?vid=126ec9bd-df27-4ef2-96de-5c314afc5de5"},"vehicle_type_id":"4","last_reported":1722229779,"current_range_meters":15200,"station_id":"ce4bgup2rcd13ifvqcn0","pricing_plan_id":"cebpf4jnsgd1na2vs0mg"},{"bike_id":"5f15046f-2910-474d-820d-3aac902ac3dc","system_id":"levelo_inurba_marseille","lat":43.304606,"lon":5.379026,"is_reserved":false,"is_disabled":false,"rental_uris":{"android":"levelo://app?vid=5f15046f-2910-474d-820d-3aac902ac3dc","ios":"levelo://app?vid=5f15046f-2910-474d-820d-3aac902ac3dc"},"vehicle_type_id":"4","last_reported":1722229779,"current_range_meters":26000,"station_id":"ce4bgup2rcd13ifvqcn0","pricing_plan_id":"cebpf4jnsgd1na2vs0mg"},{"bike_id":"a3ddebe0-5065-4fbe-9946-3ab7ec4f5036","system_id":"levelo_inurba_marseille","lat":43.304606,"lon":5.379026,"is_reserved":false,"is_disabled":false,"rental_uris":{"android":"levelo://app?vid=a3ddebe0-5065-4fbe-9946-3ab7ec4f5036","ios":"levelo://app?vid=a3ddebe0-5065-4fbe-9946-3ab7ec4f5036"},"vehicle_type_id":"4","last_reported":1722229779,"current_range_meters":12800,"station_id":"ce4bgup2rcd13ifvqcn0","pricing_plan_id":"cebpf4jnsgd1na2vs0mg"},{"bike_id":"8fabbf59-37fa-487a-a3dc-04a5b8239c87","system_id":"levelo_inurba_marseille","lat":43.3046,"lon":5.37907,"is_reserved":false,"is_disabled":false,"rental_uris":{"android":"levelo://app?vid=8fabbf59-37fa-487a-a3dc-04a5b8239c87","ios":"levelo://app?vid=8fabbf59-37fa-487a-a3dc-04a5b8239c87"},"vehicle_type_id":"4","last_reported":1722229779,"current_range_meters":20000,"station_id":"ce4bgup2rcd13ifvqcn0","pricing_plan_id":"cebpf4jnsgd1na2vs0mg"},{"bike_id":"f6b199be-1f60-46c5-8324-d2030e171683","system_id":"levelo_inurba_marseille","lat":43.304606,"lon":5.379026,"is_reserved":false,"is_disabled":false,"rental_uris":{"android":"levelo://app?vid=f6b199be-1f60-46c5-8324-d2030e171683","ios":"levelo://app?vid=f6b199be-1f60-46c5-8324-d2030e171683"},"vehicle_type_id":"4","last_reported":1722229779,"current_range_meters":23200,"station_id":"ce4bgup2rcd13ifvqcn0","pricing_plan_id":"cebpf4jnsgd1na2vs0mg"},{"bike_id":"850f48dd-d41a-4e68-a2cd-e711f0e1d017","system_id":"levelo_inurba_marseille","lat":43.30464,"lon":5.37913,"is_reserved":false,"is_disabled":false,"rental_uris":{"android":"levelo://app?vid=850f48dd-d41a-4e68-a2cd-e711f0e1d017","ios":"levelo://app?vid=850f48dd-d41a-4e68-a2cd-e711f0e1d017"},"vehicle_type_id":"4","last_reported":1722229779,"current_range_meters":24800,"station_id":"ce4bgup2rcd13ifvqcn0","pricing_plan_id":"cebpf4jnsgd1na2vs0mg"},{"bike_id":"e1ebc60a-12c9-4f98-8801-80f9a719b290","system_id":"levelo_inurba_marseille","lat":43.304606,"lon":5.379026,"is_reserved":false,"is_disabled":false,"rental_uris":{"android":"levelo://app?vid=e1ebc60a-12c9-4f98-8801-80f9a719b290","ios":"levelo://app?vid=e1ebc60a-12c9-4f98-8801-80f9a719b290"},"vehicle_type_id":"4","last_reported":1722229779,"current_range_meters":20800,"station_id":"ce4bgup2rcd13ifvqcn0","pricing_plan_id":"cebpf4jnsgd1na2vs0mg"},{"bike_id":"7d07cf03-f053-43f6-acfb-6f247d398345","system_id":"levelo_inurba_marseille","lat":43.304606,"lon":5.379026,"is_reserved":false,"is_disabled":false,"rental_uris":{"android":"levelo://app?vid=7d07cf03-f053-43f6-acfb-6f247d398345","ios":"levelo://app?vid=7d07cf03-f053-43f6-acfb-6f247d398345"},"vehicle_type_id":"4","last_reported":1722229779,"current_range_meters":4400,"station_id":"ce4bgup2rcd13ifvqcn0","pricing_plan_id":"cebpf4jnsgd1na2vs0mg"},{"bike_id":"cdd4df3f-b10c-4796-9016-ab2280344166","system_id":"levelo_inurba_marseille","lat":43.304606,"lon":5.379026,"is_reserved":false,"is_disabled":false,"rental_uris":{"android":"levelo://app?vid=cdd4df3f-b10c-4796-9016-ab2280344166","ios":"levelo://app?vid=cdd4df3f-b10c-4796-9016-ab2280344166"},"vehicle_type_id":"4","last_reported":1722229779,"current_range_meters":2800,"station_id":"ce4bgup2rcd13ifvqcn0","pricing_plan_id":"cebpf4jnsgd1na2vs0mg"},{"bike_id":"3f841927-b0a5-4920-92f0-04672e726ab0","system_id":"levelo_inurba_marseille","lat":43.304606,"lon":5.379026,"is_reserved":false,"is_disabled":false,"rental_uris":{"android":"levelo://app?vid=3f841927-b0a5-4920-92f0-04672e726ab0","ios":"levelo://app?vid=3f841927-b0a5-4920-92f0-04672e726ab0"},"vehicle_type_id":"4","last_reported":1722229779,"current_range_meters":16800,"station_id":"ce4bgup2rcd13ifvqcn0","pricing_plan_id":"cebpf4jnsgd1na2vs0mg"},{"bike_id":"257f42eb-50d8-4c64-97bc-cc215b1efe28","system_id":"levelo_inurba_marseille","lat":43.304606,"lon":5.379026,"is_reserved":false,"is_disabled":false,"rental_uris":{"android":"levelo://app?vid=257f42eb-50d8-4c64-97bc-cc215b1efe28","ios":"levelo://app?vid=257f42eb-50d8-4c64-97bc-cc215b1efe28"},"vehicle_type_id":"4","last_reported":1722229779,"current_range_meters":10000,"station_id":"ce4bgup2rcd13ifvqcn0","pricing_plan_id":"cebpf4jnsgd1na2vs0mg"},{"bike_id":"e331a2eb-88cf-4896-a814-5f0128495d28","system_id":"levelo_inurba_marseille","lat":43.304606,"lon":5.379026,"is_reserved":false,"is_disabled":false,"rental_uris":{"android":"levelo://app?vid=e331a2eb-88cf-4896-a814-5f0128495d28","ios":"levelo://app?vid=e331a2eb-88cf-4896-a814-5f0128495d28"},"vehicle_type_id":"4","last_reported":1722229779,"current_range_meters":3600,"station_id":"ce4bgup2rcd13ifvqcn0","pricing_plan_id":"cebpf4jnsgd1na2vs0mg"},{"bike_id":"be3f5830-29d9-4a0b-b531-a01795aca422","system_id":"levelo_inurba_marseille","lat":43.32478,"lon":5.365743,"is_reserved":false,"is_disabled":false,"rental_uris":{"android":"levelo://app?vid=be3f5830-29d9-4a0b-b531-a01795aca422","ios":"levelo://app?vid=be3f5830-29d9-4a0b-b531-a01795aca422"},"vehicle_type_id":"4","last_reported":1722229779,"current_range_meters":9200,"station_id":"ce4bhs12rcd13ifvqhvg","pricing_plan_id":"cebpf4jnsgd1na2vs0mg"},{"bike_id":"74cc53fe-08f4-4458-a5bb-e16201c707dd","system_id":"levelo_inurba_marseille","lat":43.324792,"lon":5.36575,"is_reserved":false,"is_disabled":false,"rental_uris":{"android":"levelo://app?vid=74cc53fe-08f4-4458-a5bb-e16201c707dd","ios":"levelo://app?vid=74cc53fe-08f4-4458-a5bb-e16201c707dd"},"vehicle_type_id":"4","last_reported":1722229779,"current_range_meters":26000,"station_id":"ce4bhs12rcd13ifvqhvg","pricing_plan_id":"cebpf4jnsgd1na2vs0mg"},{"bike_id":"5a611f75-6d2d-47bc-9c12-511970371114","system_id":"levelo_inurba_marseille","lat":43.324771,"lon":5.36557,"is_reserved":false,"is_disabled":false,"rental_uris":{"android":"levelo://app?vid=5a611f75-6d2d-47bc-9c12-511970371114","ios":"levelo://app?vid=5a611f75-6d2d-47bc-9c12-511970371114"},"vehicle_type_id":"4","last_reported":1722229779,"current_range_meters":16800,"station_id":"ce4bhs12rcd13ifvqhvg","pricing_plan_id":"cebpf4jnsgd1na2vs0mg"},{"bike_id":"1604aa3b-aa3b-4caa-9443-1bdc729fc0e8","system_id":"levelo_inurba_marseille","lat":43.304606,"lon":5.379026,"is_reserved":false,"is_disabled":false,"rental_uris":{"android":"levelo://app?vid=1604aa3b-aa3b-4caa-9443-1bdc729fc0e8","ios":"levelo://app?vid=1604aa3b-aa3b-4caa-9443-1bdc729fc0e8"},"vehicle_type_id":"4","last_reported":1722229779,"current_range_meters":4000,"station_id":"ce4bgup2rcd13ifvqcn0","pricing_plan_id":"cebpf4jnsgd1na2vs0mg"},{"bike_id":"e5f29880-ec6c-4301-93e7-088b626b1788","system_id":"levelo_inurba_marseille","lat":43.324771,"lon":5.36557,"is_reserved":false,"is_disabled":false,"rental_uris":{"android":"levelo://app?vid=e5f29880-ec6c-4301-93e7-088b626b1788","ios":"levelo://app?vid=e5f29880-ec6c-4301-93e7-088b626b1788"},"vehicle_type_id":"4","last_reported":1722229779,"current_range_meters":23600,"station_id":"ce4bhs12rcd13ifvqhvg","pricing_plan_id":"cebpf4jnsgd1na2vs0mg"},{"bike_id":"8e60a4f6-eedc-4314-a77b-38369dd1a32d","system_id":"levelo_inurba_marseille","lat":43.324771,"lon":5.36557,"is_reserved":false,"is_disabled":false,"rental_uris":{"android":"levelo://app?vid=8e60a4f6-eedc-4314-a77b-38369dd1a32d","ios":"levelo://app?vid=8e60a4f6-eedc-4314-a77b-38369dd1a32d"},"vehicle_type_id":"4","last_reported":1722229779,"current_range_meters":11200,"station_id":"ce4bhs12rcd13ifvqhvg","pricing_plan_id":"cebpf4jnsgd1na2vs0mg"},{"bike_id":"59fead70-93d9-450f-b6d3-1fe4113aaaae","system_id":"levelo_inurba_marseille","lat":43.324771,"lon":5.36557,"is_reserved":false,"is_disabled":false,"rental_uris":{"android":"levelo://app?vid=59fead70-93d9-450f-b6d3-1fe4113aaaae","ios":"levelo://app?vid=59fead70-93d9-450f-b6d3-1fe4113aaaae"},"vehicle_type_id":"4","last_reported":1722229779,"current_range_meters":30000,"station_id":"ce4bhs12rcd13ifvqhvg","pricing_plan_id":"cebpf4jnsgd1na2vs0mg"},{"bike_id":"b3f59491-36f5-4574-ae2d-bfc8b08b61e1","system_id":"levelo_inurba_marseille","lat":43.324771,"lon":5.36557,"is_reserved":false,"is_disabled":false,"rental_uris":{"android":"levelo://app?vid=b3f59491-36f5-4574-ae2d-bfc8b08b61e1","ios":"levelo://app?vid=b3f59491-36f5-4574-ae2d-bfc8b08b61e1"},"vehicle_type_id":"4","last_reported":1722229779,"current_range_meters":17600,"station_id":"ce4bhs12rcd13ifvqhvg","pricing_plan_id":"cebpf4jnsgd1na2vs0mg"},{"bike_id":"dc225280-5ca4-4fe4-869c-4aa544dde70c","system_id":"levelo_inurba_marseille","lat":43.324771,"lon":5.36557,"is_reserved":false,"is_disabled":false,"rental_uris":{"android":"levelo://app?vid=dc225280-5ca4-4fe4-869c-4aa544dde70c","ios":"levelo://app?vid=dc225280-5ca4-4fe4-869c-4aa544dde70c"},"vehicle_type_id":"4","last_reported":1722229779,"current_range_meters":31200,"station_id":"ce4bhs12rcd13ifvqhvg","pricing_plan_id":"cebpf4jnsgd1na2vs0mg"},{"bike_id":"9a68c8ff-6813-401f-8c7a-fdfc32489356","system_id":"levelo_inurba_marseille","lat":43.324771,"lon":5.36557,"is_reserved":false,"is_disabled":false,"rental_uris":{"android":"levelo://app?vid=9a68c8ff-6813-401f-8c7a-fdfc32489356","ios":"levelo://app?vid=9a68c8ff-6813-401f-8c7a-fdfc32489356"},"vehicle_type_id":"4","last_reported":1722229779,"current_range_meters":15200,"station_id":"ce4bhs12rcd13ifvqhvg","pricing_plan_id":"cebpf4jnsgd1na2vs0mg"},{"bike_id":"5fedab46-a29a-4df3-a1ee-103a38d11088","system_id":"levelo_inurba_marseille","lat":43.310804,"lon":5.38359,"is_reserved":false,"is_disabled":false,"rental_uris":{"android":"levelo://app?vid=5fedab46-a29a-4df3-a1ee-103a38d11088","ios":"levelo://app?vid=5fedab46-a29a-4df3-a1ee-103a38d11088"},"vehicle_type_id":"4","last_reported":1722229779,"current_range_meters":6000,"station_id":"ce4bgv92rcd13ifvqcr0","pricing_plan_id":"cebpf4jnsgd1na2vs0mg"},{"bike_id":"6d9bc55b-ba4a-499b-a994-5194f00d9d80","system_id":"levelo_inurba_marseille","lat":43.310804,"lon":5.38359,"is_reserved":false,"is_disabled":false,"rental_uris":{"android":"levelo://app?vid=6d9bc55b-ba4a-499b-a994-5194f00d9d80","ios":"levelo://app?vid=6d9bc55b-ba4a-499b-a994-5194f00d9d80"},"vehicle_type_id":"4","last_reported":1722229779,"current_range_meters":800,"station_id":"ce4bgv92rcd13ifvqcr0","pricing_plan_id":"cebpf4jnsgd1na2vs0mg"},{"bike_id":"b663d3a8-f002-4f12-981e-59eaf1a2a655","system_id":"levelo_inurba_marseille","lat":43.310804,"lon":5.38359,"is_reserved":false,"is_disabled":false,"rental_uris":{"android":"levelo://app?vid=b663d3a8-f002-4f12-981e-59eaf1a2a655","ios":"levelo://app?vid=b663d3a8-f002-4f12-981e-59eaf1a2a655"},"vehicle_type_id":"4","last_reported":1722229779,"current_range_meters":400,"station_id":"ce4bgv92rcd13ifvqcr0","pricing_plan_id":"cebpf4jnsgd1na2vs0mg"},{"bike_id":"ae2ade13-2847-4eef-8ecd-03ed8c2f6d9d","system_id":"levelo_inurba_marseille","lat":43.310804,"lon":5.38359,"is_reserved":false,"is_disabled":false,"rental_uris":{"android":"levelo://app?vid=ae2ade13-2847-4eef-8ecd-03ed8c2f6d9d","ios":"levelo://app?vid=ae2ade13-2847-4eef-8ecd-03ed8c2f6d9d"},"vehicle_type_id":"4","last_reported":1722229779,"current_range_meters":4400,"station_id":"ce4bgv92rcd13ifvqcr0","pricing_plan_id":"cebpf4jnsgd1na2vs0mg"},{"bike_id":"8b6a5053-8164-4838-913b-283072ed0f05","system_id":"levelo_inurba_marseille","lat":43.310804,"lon":5.38359,"is_reserved":false,"is_disabled":false,"rental_uris":{"android":"levelo://app?vid=8b6a5053-8164-4838-913b-283072ed0f05","ios":"levelo://app?vid=8b6a5053-8164-4838-913b-283072ed0f05"},"vehicle_type_id":"4","last_reported":1722229779,"current_range_meters":10000,"station_id":"ce4bgv92rcd13ifvqcr0","pricing_plan_id":"cebpf4jnsgd1na2vs0mg"},{"bike_id":"be8efa08-593b-4def-bfae-b7f812856985","system_id":"levelo_inurba_marseille","lat":43.310804,"lon":5.38359,"is_reserved":false,"is_disabled":false,"rental_uris":{"android":"levelo://app?vid=be8efa08-593b-4def-bfae-b7f812856985","ios":"levelo://app?vid=be8efa08-593b-4def-bfae-b7f812856985"},"vehicle_type_id":"4","last_reported":1722229779,"current_range_meters":4800,"station_id":"ce4bgv92rcd13ifvqcr0","pricing_plan_id":"cebpf4jnsgd1na2vs0mg"},{"bike_id":"e538162a-8d01-4b90-936f-7a05eabc5c0f","system_id":"levelo_inurba_marseille","lat":43.310804,"lon":5.38359,"is_reserved":false,"is_disabled":false,"rental_uris":{"android":"levelo://app?vid=e538162a-8d01-4b90-936f-7a05eabc5c0f","ios":"levelo://app?vid=e538162a-8d01-4b90-936f-7a05eabc5c0f"},"vehicle_type_id":"4","last_reported":1722229779,"current_range_meters":13200,"station_id":"ce4bgv92rcd13ifvqcr0","pricing_plan_id":"cebpf4jnsgd1na2vs0mg"},{"bike_id":"84c2d4cc-b5ff-4241-8cc7-3bf97bbcd2de","system_id":"levelo_inurba_marseille","lat":43.310804,"lon":5.38359,"is_reserved":false,"is_disabled":false,"rental_uris":{"android":"levelo://app?vid=84c2d4cc-b5ff-4241-8cc7-3bf97bbcd2de","ios":"levelo://app?vid=84c2d4cc-b5ff-4241-8cc7-3bf97bbcd2de"},"vehicle_type_id":"4","last_reported":1722229779,"current_range_meters":4800,"station_id":"ce4bgv92rcd13ifvqcr0","pricing_plan_id":"cebpf4jnsgd1na2vs0mg"},{"bike_id":"b141f6a9-5817-4adf-b674-6acda5571f09","system_id":"levelo_inurba_marseille","lat":43.310804,"lon":5.38359,"is_reserved":false,"is_disabled":false,"rental_uris":{"android":"levelo://app?vid=b141f6a9-5817-4adf-b674-6acda5571f09","ios":"levelo://app?vid=b141f6a9-5817-4adf-b674-6acda5571f09"},"vehicle_type_id":"4","last_reported":1722229779,"current_range_meters":5200,"station_id":"ce4bgv92rcd13ifvqcr0","pricing_plan_id":"cebpf4jnsgd1na2vs0mg"},{"bike_id":"8ff7c600-b52f-4b47-ab13-205a97bcb20b","system_id":"levelo_inurba_marseille","lat":43.310804,"lon":5.38359,"is_reserved":false,"is_disabled":false,"rental_uris":{"android":"levelo://app?vid=8ff7c600-b52f-4b47-ab13-205a97bcb20b","ios":"levelo://app?vid=8ff7c600-b52f-4b47-ab13-205a97bcb20b"},"vehicle_type_id":"4","last_reported":1722229779,"current_range_meters":21600,"station_id":"ce4bgv92rcd13ifvqcr0","pricing_plan_id":"cebpf4jnsgd1na2vs0mg"},{"bike_id":"09d07885-6440-4f2b-8210-4d6c7bc3c07b","system_id":"levelo_inurba_marseille","lat":43.310804,"lon":5.38359,"is_reserved":false,"is_disabled":false,"rental_uris":{"android":"levelo://app?vid=09d07885-6440-4f2b-8210-4d6c7bc3c07b","ios":"levelo://app?vid=09d07885-6440-4f2b-8210-4d6c7bc3c07b"},"vehicle_type_id":"4","last_reported":1722229779,"current_range_meters":17200,"station_id":"ce4bgv92rcd13ifvqcr0","pricing_plan_id":"cebpf4jnsgd1na2vs0mg"},{"bike_id":"e8cc915f-fcb8-4fa0-a8af-81d8a0d9f032","system_id":"levelo_inurba_marseille","lat":43.302784,"lon":5.377158,"is_reserved":false,"is_disabled":false,"rental_uris":{"android":"levelo://app?vid=e8cc915f-fcb8-4fa0-a8af-81d8a0d9f032","ios":"levelo://app?vid=e8cc915f-fcb8-4fa0-a8af-81d8a0d9f032"},"vehicle_type_id":"4","last_reported":1722229779,"current_range_meters":23600,"station_id":"ce4bguh2rcd13ifvqcj0","pricing_plan_id":"cebpf4jnsgd1na2vs0mg"},{"bike_id":"849d8521-8e38-4c1a-9b94-88c0d45170dd","system_id":"levelo_inurba_marseille","lat":43.302784,"lon":5.377158,"is_reserved":false,"is_disabled":false,"rental_uris":{"android":"levelo://app?vid=849d8521-8e38-4c1a-9b94-88c0d45170dd","ios":"levelo://app?vid=849d8521-8e38-4c1a-9b94-88c0d45170dd"},"vehicle_type_id":"4","last_reported":1722229779,"current_range_meters":27200,"station_id":"ce4bguh2rcd13ifvqcj0","pricing_plan_id":"cebpf4jnsgd1na2vs0mg"},{"bike_id":"fcfb7f11-83d1-4318-8be9-d7d3f9c6a4d7","system_id":"levelo_inurba_marseille","lat":43.301429,"lon":5.37413,"is_reserved":false,"is_disabled":false,"rental_uris":{"android":"levelo://app?vid=fcfb7f11-83d1-4318-8be9-d7d3f9c6a4d7","ios":"levelo://app?vid=fcfb7f11-83d1-4318-8be9-d7d3f9c6a4d7"},"vehicle_type_id":"4","last_reported":1722229779,"current_range_meters":20000,"station_id":"ce4bgs92rcd13ifvqcc0","pricing_plan_id":"cebpf4jnsgd1na2vs0mg"},{"bike_id":"b176ceaa-5449-4f91-987c-2eb1aac45b11","system_id":"levelo_inurba_marseille","lat":43.319935,"lon":5.381699,"is_reserved":false,"is_disabled":false,"rental_uris":{"android":"levelo://app?vid=b176ceaa-5449-4f91-987c-2eb1aac45b11","ios":"levelo://app?vid=b176ceaa-5449-4f91-987c-2eb1aac45b11"},"vehicle_type_id":"4","last_reported":1722229779,"current_range_meters":20400,"station_id":"ce4bhr12rcd13ifvqhpg","pricing_plan_id":"cebpf4jnsgd1na2vs0mg"},{"bike_id":"021fb77c-ef54-41de-97b9-e5366fe67f0d","system_id":"levelo_inurba_marseille","lat":43.319935,"lon":5.381699,"is_reserved":false,"is_disabled":false,"rental_uris":{"android":"levelo://app?vid=021fb77c-ef54-41de-97b9-e5366fe67f0d","ios":"levelo://app?vid=021fb77c-ef54-41de-97b9-e5366fe67f0d"},"vehicle_type_id":"4","last_reported":1722229779,"current_range_meters":30000,"station_id":"ce4bhr12rcd13ifvqhpg","pricing_plan_id":"cebpf4jnsgd1na2vs0mg"},{"bike_id":"0de0233d-c522-4627-9d5c-2a4fa9568ed7","system_id":"levelo_inurba_marseille","lat":43.319935,"lon":5.381699,"is_reserved":false,"is_disabled":false,"rental_uris":{"android":"levelo://app?vid=0de0233d-c522-4627-9d5c-2a4fa9568ed7","ios":"levelo://app?vid=0de0233d-c522-4627-9d5c-2a4fa9568ed7"},"vehicle_type_id":"4","last_reported":1722229779,"current_range_meters":31200,"station_id":"ce4bhr12rcd13ifvqhpg","pricing_plan_id":"cebpf4jnsgd1na2vs0mg"},{"bike_id":"4ce1f320-353a-4877-b337-14ebe4394225","system_id":"levelo_inurba_marseille","lat":43.31994,"lon":5.381488,"is_reserved":false,"is_disabled":false,"rental_uris":{"android":"levelo://app?vid=4ce1f320-353a-4877-b337-14ebe4394225","ios":"levelo://app?vid=4ce1f320-353a-4877-b337-14ebe4394225"},"vehicle_type_id":"4","last_reported":1722229779,"current_range_meters":29200,"station_id":"ce4bhr12rcd13ifvqhpg","pricing_plan_id":"cebpf4jnsgd1na2vs0mg"},{"bike_id":"ae597df3-63f6-42ce-9ee1-16dc4d37beb0","system_id":"levelo_inurba_marseille","lat":43.319935,"lon":5.381699,"is_reserved":false,"is_disabled":false,"rental_uris":{"android":"levelo://app?vid=ae597df3-63f6-42ce-9ee1-16dc4d37beb0","ios":"levelo://app?vid=ae597df3-63f6-42ce-9ee1-16dc4d37beb0"},"vehicle_type_id":"4","last_reported":1722229779,"current_range_meters":31200,"station_id":"ce4bhr12rcd13ifvqhpg","pricing_plan_id":"cebpf4jnsgd1na2vs0mg"},{"bike_id":"c5998038-0bcf-4ada-aa72-f3fa64ee84af","system_id":"levelo_inurba_marseille","lat":43.319935,"lon":5.381699,"is_reserved":false,"is_disabled":false,"rental_uris":{"android":"levelo://app?vid=c5998038-0bcf-4ada-aa72-f3fa64ee84af","ios":"levelo://app?vid=c5998038-0bcf-4ada-aa72-f3fa64ee84af"},"vehicle_type_id":"4","last_reported":1722229779,"current_range_meters":31200,"station_id":"ce4bhr12rcd13ifvqhpg","pricing_plan_id":"cebpf4jnsgd1na2vs0mg"},{"bike_id":"0c653501-29e3-481e-8e8c-25616cbd788c","system_id":"levelo_inurba_marseille","lat":43.319935,"lon":5.381699,"is_reserved":false,"is_disabled":false,"rental_uris":{"android":"levelo://app?vid=0c653501-29e3-481e-8e8c-25616cbd788c","ios":"levelo://app?vid=0c653501-29e3-481e-8e8c-25616cbd788c"},"vehicle_type_id":"4","last_reported":1722229779,"current_range_meters":31200,"station_id":"ce4bhr12rcd13ifvqhpg","pricing_plan_id":"cebpf4jnsgd1na2vs0mg"},{"bike_id":"38eb4d6e-2981-4c55-bc89-c8b340f372e2","system_id":"levelo_inurba_marseille","lat":43.319935,"lon":5.381699,"is_reserved":false,"is_disabled":false,"rental_uris":{"android":"levelo://app?vid=38eb4d6e-2981-4c55-bc89-c8b340f372e2","ios":"levelo://app?vid=38eb4d6e-2981-4c55-bc89-c8b340f372e2"},"vehicle_type_id":"4","last_reported":1722229779,"current_range_meters":31200,"station_id":"ce4bhr12rcd13ifvqhpg","pricing_plan_id":"cebpf4jnsgd1na2vs0mg"},{"bike_id":"31337444-bbd0-4f4b-a5c2-1c53b78ff090","system_id":"levelo_inurba_marseille","lat":43.31998,"lon":5.38171,"is_reserved":false,"is_disabled":false,"rental_uris":{"android":"levelo://app?vid=31337444-bbd0-4f4b-a5c2-1c53b78ff090","ios":"levelo://app?vid=31337444-bbd0-4f4b-a5c2-1c53b78ff090"},"vehicle_type_id":"4","last_reported":1722229779,"current_range_meters":0,"station_id":"ce4bhr12rcd13ifvqhpg","pricing_plan_id":"cebpf4jnsgd1na2vs0mg"},{"bike_id":"8463d9d6-6979-4709-866d-a26a09cba72c","system_id":"levelo_inurba_marseille","lat":43.313586,"lon":5.38493,"is_reserved":false,"is_disabled":false,"rental_uris":{"android":"levelo://app?vid=8463d9d6-6979-4709-866d-a26a09cba72c","ios":"levelo://app?vid=8463d9d6-6979-4709-866d-a26a09cba72c"},"vehicle_type_id":"4","last_reported":1722229779,"current_range_meters":23600,"station_id":"ce4bgt92rcd13ifvqcf0","pricing_plan_id":"cebpf4jnsgd1na2vs0mg"},{"bike_id":"33ef7425-2ec0-4226-904d-d670d445e1eb","system_id":"levelo_inurba_marseille","lat":43.313614,"lon":5.384952,"is_reserved":false,"is_disabled":false,"rental_uris":{"android":"levelo://app?vid=33ef7425-2ec0-4226-904d-d670d445e1eb","ios":"levelo://app?vid=33ef7425-2ec0-4226-904d-d670d445e1eb"},"vehicle_type_id":"4","last_reported":1722229779,"current_range_meters":19200,"station_id":"ce4bgt92rcd13ifvqcf0","pricing_plan_id":"cebpf4jnsgd1na2vs0mg"},{"bike_id":"18d453e4-7805-431d-be3c-23a7d6e6c359","system_id":"levelo_inurba_marseille","lat":43.313571,"lon":5.384829,"is_reserved":false,"is_disabled":false,"rental_uris":{"android":"levelo://app?vid=18d453e4-7805-431d-be3c-23a7d6e6c359","ios":"levelo://app?vid=18d453e4-7805-431d-be3c-23a7d6e6c359"},"vehicle_type_id":"4","last_reported":1722229779,"current_range_meters":30000,"station_id":"ce4bgt92rcd13ifvqcf0","pricing_plan_id":"cebpf4jnsgd1na2vs0mg"},{"bike_id":"54f8ce6b-23e5-4df8-baec-a2dbf7ad7d14","system_id":"levelo_inurba_marseille","lat":43.313691,"lon":5.384954,"is_reserved":false,"is_disabled":false,"rental_uris":{"android":"levelo://app?vid=54f8ce6b-23e5-4df8-baec-a2dbf7ad7d14","ios":"levelo://app?vid=54f8ce6b-23e5-4df8-baec-a2dbf7ad7d14"},"vehicle_type_id":"4","last_reported":1722229779,"current_range_meters":14000,"station_id":"ce4bgt92rcd13ifvqcf0","pricing_plan_id":"cebpf4jnsgd1na2vs0mg"},{"bike_id":"bc492da2-32ed-43e2-9158-d21b05ff9dcb","system_id":"levelo_inurba_marseille","lat":43.313621,"lon":5.384963,"is_reserved":false,"is_disabled":false,"rental_uris":{"android":"levelo://app?vid=bc492da2-32ed-43e2-9158-d21b05ff9dcb","ios":"levelo://app?vid=bc492da2-32ed-43e2-9158-d21b05ff9dcb"},"vehicle_type_id":"4","last_reported":1722229779,"current_range_meters":30800,"station_id":"ce4bgt92rcd13ifvqcf0","pricing_plan_id":"cebpf4jnsgd1na2vs0mg"},{"bike_id":"ebbad0dc-dea5-4baf-95ec-b55215fba989","system_id":"levelo_inurba_marseille","lat":43.313626,"lon":5.384966,"is_reserved":false,"is_disabled":false,"rental_uris":{"android":"levelo://app?vid=ebbad0dc-dea5-4baf-95ec-b55215fba989","ios":"levelo://app?vid=ebbad0dc-dea5-4baf-95ec-b55215fba989"},"vehicle_type_id":"4","last_reported":1722229779,"current_range_meters":24800,"station_id":"ce4bgt92rcd13ifvqcf0","pricing_plan_id":"cebpf4jnsgd1na2vs0mg"},{"bike_id":"9ba6a11a-7b34-4fdd-90c9-351e33243b66","system_id":"levelo_inurba_marseille","lat":43.313631,"lon":5.384973,"is_reserved":false,"is_disabled":false,"rental_uris":{"android":"levelo://app?vid=9ba6a11a-7b34-4fdd-90c9-351e33243b66","ios":"levelo://app?vid=9ba6a11a-7b34-4fdd-90c9-351e33243b66"},"vehicle_type_id":"4","last_reported":1722229779,"current_range_meters":17600,"station_id":"ce4bgt92rcd13ifvqcf0","pricing_plan_id":"cebpf4jnsgd1na2vs0mg"},{"bike_id":"7d8c487f-9a73-4662-9069-10ac2e7525c7","system_id":"levelo_inurba_marseille","lat":43.313571,"lon":5.384829,"is_reserved":false,"is_disabled":false,"rental_uris":{"android":"levelo://app?vid=7d8c487f-9a73-4662-9069-10ac2e7525c7","ios":"levelo://app?vid=7d8c487f-9a73-4662-9069-10ac2e7525c7"},"vehicle_type_id":"4","last_reported":1722229779,"current_range_meters":14400,"station_id":"ce4bgt92rcd13ifvqcf0","pricing_plan_id":"cebpf4jnsgd1na2vs0mg"},{"bike_id":"deadde53-ce40-4881-9f0c-b0e6ea972646","system_id":"levelo_inurba_marseille","lat":43.313633,"lon":5.384987,"is_reserved":false,"is_disabled":false,"rental_uris":{"android":"levelo://app?vid=deadde53-ce40-4881-9f0c-b0e6ea972646","ios":"levelo://app?vid=deadde53-ce40-4881-9f0c-b0e6ea972646"},"vehicle_type_id":"4","last_reported":1722229779,"current_range_meters":28000,"station_id":"ce4bgt92rcd13ifvqcf0","pricing_plan_id":"cebpf4jnsgd1na2vs0mg"},{"bike_id":"3e21be38-3edc-4bda-b53d-5475bc419dfa","system_id":"levelo_inurba_marseille","lat":43.313571,"lon":5.384829,"is_reserved":false,"is_disabled":false,"rental_uris":{"android":"levelo://app?vid=3e21be38-3edc-4bda-b53d-5475bc419dfa","ios":"levelo://app?vid=3e21be38-3edc-4bda-b53d-5475bc419dfa"},"vehicle_type_id":"4","last_reported":1722229779,"current_range_meters":20000,"station_id":"ce4bgt92rcd13ifvqcf0","pricing_plan_id":"cebpf4jnsgd1na2vs0mg"},{"bike_id":"ead704da-4088-445f-95b6-812ccba404ad","system_id":"levelo_inurba_marseille","lat":43.305364,"lon":5.384119,"is_reserved":false,"is_disabled":false,"rental_uris":{"android":"levelo://app?vid=ead704da-4088-445f-95b6-812ccba404ad","ios":"levelo://app?vid=ead704da-4088-445f-95b6-812ccba404ad"},"vehicle_type_id":"4","last_reported":1722229779,"current_range_meters":12800,"station_id":"ce4bgg92rcd13ifvqb30","pricing_plan_id":"cebpf4jnsgd1na2vs0mg"},{"bike_id":"854ac808-ac66-4d94-aeb8-69149b51267c","system_id":"levelo_inurba_marseille","lat":43.305364,"lon":5.384119,"is_reserved":false,"is_disabled":false,"rental_uris":{"android":"levelo://app?vid=854ac808-ac66-4d94-aeb8-69149b51267c","ios":"levelo://app?vid=854ac808-ac66-4d94-aeb8-69149b51267c"},"vehicle_type_id":"4","last_reported":1722229779,"current_range_meters":2400,"station_id":"ce4bgg92rcd13ifvqb30","pricing_plan_id":"cebpf4jnsgd1na2vs0mg"},{"bike_id":"85a8a0fd-aaa9-4051-9607-e86416060232","system_id":"levelo_inurba_marseille","lat":43.305364,"lon":5.384119,"is_reserved":false,"is_disabled":false,"rental_uris":{"android":"levelo://app?vid=85a8a0fd-aaa9-4051-9607-e86416060232","ios":"levelo://app?vid=85a8a0fd-aaa9-4051-9607-e86416060232"},"vehicle_type_id":"4","last_reported":1722229779,"current_range_meters":16400,"station_id":"ce4bgg92rcd13ifvqb30","pricing_plan_id":"cebpf4jnsgd1na2vs0mg"},{"bike_id":"698b6d19-492d-4034-bf8f-3145a2aca533","system_id":"levelo_inurba_marseille","lat":43.305364,"lon":5.384119,"is_reserved":false,"is_disabled":false,"rental_uris":{"android":"levelo://app?vid=698b6d19-492d-4034-bf8f-3145a2aca533","ios":"levelo://app?vid=698b6d19-492d-4034-bf8f-3145a2aca533"},"vehicle_type_id":"4","last_reported":1722229779,"current_range_meters":6400,"station_id":"ce4bgg92rcd13ifvqb30","pricing_plan_id":"cebpf4jnsgd1na2vs0mg"},{"bike_id":"16e2c939-9454-43de-87b5-04e64014b558","system_id":"levelo_inurba_marseille","lat":43.305364,"lon":5.384119,"is_reserved":false,"is_disabled":false,"rental_uris":{"android":"levelo://app?vid=16e2c939-9454-43de-87b5-04e64014b558","ios":"levelo://app?vid=16e2c939-9454-43de-87b5-04e64014b558"},"vehicle_type_id":"4","last_reported":1722229779,"current_range_meters":23200,"station_id":"ce4bgg92rcd13ifvqb30","pricing_plan_id":"cebpf4jnsgd1na2vs0mg"},{"bike_id":"16383519-e9d9-4f02-b382-d2516953aec9","system_id":"levelo_inurba_marseille","lat":43.298433,"lon":5.362774,"is_reserved":false,"is_disabled":false,"rental_uris":{"android":"levelo://app?vid=16383519-e9d9-4f02-b382-d2516953aec9","ios":"levelo://app?vid=16383519-e9d9-4f02-b382-d2516953aec9"},"vehicle_type_id":"4","last_reported":1722229779,"current_range_meters":6000,"station_id":"ce4bgpp2rcd13ifvqc3g","pricing_plan_id":"cebpf4jnsgd1na2vs0mg"},{"bike_id":"be16a7ae-1545-41bd-9a0d-d24ff3decc82","system_id":"levelo_inurba_marseille","lat":43.305364,"lon":5.384119,"is_reserved":false,"is_disabled":false,"rental_uris":{"android":"levelo://app?vid=be16a7ae-1545-41bd-9a0d-d24ff3decc82","ios":"levelo://app?vid=be16a7ae-1545-41bd-9a0d-d24ff3decc82"},"vehicle_type_id":"4","last_reported":1722229779,"current_range_meters":11200,"station_id":"ce4bgg92rcd13ifvqb30","pricing_plan_id":"cebpf4jnsgd1na2vs0mg"},{"bike_id":"1210cef5-4fbb-41c7-830e-f310efaaa25d","system_id":"levelo_inurba_marseille","lat":43.305364,"lon":5.384119,"is_reserved":false,"is_disabled":false,"rental_uris":{"android":"levelo://app?vid=1210cef5-4fbb-41c7-830e-f310efaaa25d","ios":"levelo://app?vid=1210cef5-4fbb-41c7-830e-f310efaaa25d"},"vehicle_type_id":"4","last_reported":1722229779,"current_range_meters":31200,"station_id":"ce4bgg92rcd13ifvqb30","pricing_plan_id":"cebpf4jnsgd1na2vs0mg"},{"bike_id":"f9d116ad-7ebc-46d1-bb51-33ca58e9585a","system_id":"levelo_inurba_marseille","lat":43.305364,"lon":5.384119,"is_reserved":false,"is_disabled":false,"rental_uris":{"android":"levelo://app?vid=f9d116ad-7ebc-46d1-bb51-33ca58e9585a","ios":"levelo://app?vid=f9d116ad-7ebc-46d1-bb51-33ca58e9585a"},"vehicle_type_id":"4","last_reported":1722229779,"current_range_meters":23200,"station_id":"ce4bgg92rcd13ifvqb30","pricing_plan_id":"cebpf4jnsgd1na2vs0mg"},{"bike_id":"f6e8a765-64e1-47e0-9aa4-31277ef78d46","system_id":"levelo_inurba_marseille","lat":43.298433,"lon":5.362774,"is_reserved":false,"is_disabled":false,"rental_uris":{"android":"levelo://app?vid=f6e8a765-64e1-47e0-9aa4-31277ef78d46","ios":"levelo://app?vid=f6e8a765-64e1-47e0-9aa4-31277ef78d46"},"vehicle_type_id":"4","last_reported":1722229779,"current_range_meters":21600,"station_id":"ce4bgpp2rcd13ifvqc3g","pricing_plan_id":"cebpf4jnsgd1na2vs0mg"},{"bike_id":"57e53c10-bc33-4687-ac5a-75d31b8ec096","system_id":"levelo_inurba_marseille","lat":43.305364,"lon":5.384119,"is_reserved":false,"is_disabled":false,"rental_uris":{"android":"levelo://app?vid=57e53c10-bc33-4687-ac5a-75d31b8ec096","ios":"levelo://app?vid=57e53c10-bc33-4687-ac5a-75d31b8ec096"},"vehicle_type_id":"4","last_reported":1722229779,"current_range_meters":31200,"station_id":"ce4bgg92rcd13ifvqb30","pricing_plan_id":"cebpf4jnsgd1na2vs0mg"},{"bike_id":"191af202-68eb-4a06-9a5d-d86fd799300f","system_id":"levelo_inurba_marseille","lat":43.311722,"lon":5.387247,"is_reserved":false,"is_disabled":false,"rental_uris":{"android":"levelo://app?vid=191af202-68eb-4a06-9a5d-d86fd799300f","ios":"levelo://app?vid=191af202-68eb-4a06-9a5d-d86fd799300f"},"vehicle_type_id":"4","last_reported":1722229779,"current_range_meters":22400,"station_id":"ce4bgv12rcd13ifvqcp0","pricing_plan_id":"cebpf4jnsgd1na2vs0mg"},{"bike_id":"73bf8264-fc4a-45cd-8679-65440ff9c859","system_id":"levelo_inurba_marseille","lat":43.311722,"lon":5.387247,"is_reserved":false,"is_disabled":false,"rental_uris":{"android":"levelo://app?vid=73bf8264-fc4a-45cd-8679-65440ff9c859","ios":"levelo://app?vid=73bf8264-fc4a-45cd-8679-65440ff9c859"},"vehicle_type_id":"4","last_reported":1722229779,"current_range_meters":31200,"station_id":"ce4bgv12rcd13ifvqcp0","pricing_plan_id":"cebpf4jnsgd1na2vs0mg"},{"bike_id":"d1572e21-f2d6-4406-837f-654bfc112662","system_id":"levelo_inurba_marseille","lat":43.311722,"lon":5.387247,"is_reserved":false,"is_disabled":false,"rental_uris":{"android":"levelo://app?vid=d1572e21-f2d6-4406-837f-654bfc112662","ios":"levelo://app?vid=d1572e21-f2d6-4406-837f-654bfc112662"},"vehicle_type_id":"4","last_reported":1722229779,"current_range_meters":31200,"station_id":"ce4bgv12rcd13ifvqcp0","pricing_plan_id":"cebpf4jnsgd1na2vs0mg"},{"bike_id":"6d966ddf-fe46-4ef3-a1bc-a9129bec758d","system_id":"levelo_inurba_marseille","lat":43.311722,"lon":5.387247,"is_reserved":false,"is_disabled":false,"rental_uris":{"android":"levelo://app?vid=6d966ddf-fe46-4ef3-a1bc-a9129bec758d","ios":"levelo://app?vid=6d966ddf-fe46-4ef3-a1bc-a9129bec758d"},"vehicle_type_id":"4","last_reported":1722229779,"current_range_meters":23600,"station_id":"ce4bgv12rcd13ifvqcp0","pricing_plan_id":"cebpf4jnsgd1na2vs0mg"},{"bike_id":"351869d6-7b9a-4dbf-98a9-a769197051e6","system_id":"levelo_inurba_marseille","lat":43.311722,"lon":5.387247,"is_reserved":false,"is_disabled":false,"rental_uris":{"android":"levelo://app?vid=351869d6-7b9a-4dbf-98a9-a769197051e6","ios":"levelo://app?vid=351869d6-7b9a-4dbf-98a9-a769197051e6"},"vehicle_type_id":"4","last_reported":1722229779,"current_range_meters":21600,"station_id":"ce4bgv12rcd13ifvqcp0","pricing_plan_id":"cebpf4jnsgd1na2vs0mg"},{"bike_id":"16503af2-6c55-494e-99d3-0ac55180a079","system_id":"levelo_inurba_marseille","lat":43.298768,"lon":5.43643,"is_reserved":false,"is_disabled":false,"rental_uris":{"android":"levelo://app?vid=16503af2-6c55-494e-99d3-0ac55180a079","ios":"levelo://app?vid=16503af2-6c55-494e-99d3-0ac55180a079"},"vehicle_type_id":"4","last_reported":1722229779,"current_range_meters":9200,"station_id":"ce4bhpp2rcd13ifvqhfg","pricing_plan_id":"cebpf4jnsgd1na2vs0mg"},{"bike_id":"a452c4e7-765e-4bbd-968e-9fb10b1b5a93","system_id":"levelo_inurba_marseille","lat":43.30146,"lon":5.38061,"is_reserved":false,"is_disabled":false,"rental_uris":{"android":"levelo://app?vid=a452c4e7-765e-4bbd-968e-9fb10b1b5a93","ios":"levelo://app?vid=a452c4e7-765e-4bbd-968e-9fb10b1b5a93"},"vehicle_type_id":"4","last_reported":1722229779,"current_range_meters":25200,"station_id":"","pricing_plan_id":"cebpf4jnsgd1na2vs0mg"},{"bike_id":"8d90ba99-0997-4631-a29e-00e77da1075c","system_id":"levelo_inurba_marseille","lat":43.30153,"lon":5.38074,"is_reserved":false,"is_disabled":false,"rental_uris":{"android":"levelo://app?vid=8d90ba99-0997-4631-a29e-00e77da1075c","ios":"levelo://app?vid=8d90ba99-0997-4631-a29e-00e77da1075c"},"vehicle_type_id":"4","last_reported":1722229779,"current_range_meters":22000,"station_id":"","pricing_plan_id":"cebpf4jnsgd1na2vs0mg"},{"bike_id":"f90131a6-0365-47af-9020-f438a68ac0a4","system_id":"levelo_inurba_marseille","lat":43.30155,"lon":5.3808,"is_reserved":false,"is_disabled":false,"rental_uris":{"android":"levelo://app?vid=f90131a6-0365-47af-9020-f438a68ac0a4","ios":"levelo://app?vid=f90131a6-0365-47af-9020-f438a68ac0a4"},"vehicle_type_id":"4","last_reported":1722229779,"current_range_meters":10000,"station_id":"","pricing_plan_id":"cebpf4jnsgd1na2vs0mg"},{"bike_id":"c688db4c-b06e-45c3-95bb-4471fbcd9e20","system_id":"levelo_inurba_marseille","lat":43.301542,"lon":5.380857,"is_reserved":false,"is_disabled":false,"rental_uris":{"android":"levelo://app?vid=c688db4c-b06e-45c3-95bb-4471fbcd9e20","ios":"levelo://app?vid=c688db4c-b06e-45c3-95bb-4471fbcd9e20"},"vehicle_type_id":"4","last_reported":1722229779,"current_range_meters":31200,"station_id":"","pricing_plan_id":"cebpf4jnsgd1na2vs0mg"},{"bike_id":"f411f2c7-d401-4b4e-802f-04db6d38700b","system_id":"levelo_inurba_marseille","lat":43.30148,"lon":5.3808,"is_reserved":false,"is_disabled":false,"rental_uris":{"android":"levelo://app?vid=f411f2c7-d401-4b4e-802f-04db6d38700b","ios":"levelo://app?vid=f411f2c7-d401-4b4e-802f-04db6d38700b"},"vehicle_type_id":"4","last_reported":1722229779,"current_range_meters":12800,"station_id":"","pricing_plan_id":"cebpf4jnsgd1na2vs0mg"},{"bike_id":"930bdd79-e955-4858-b4a0-e0dfc904d217","system_id":"levelo_inurba_marseille","lat":43.301451,"lon":5.380834,"is_reserved":false,"is_disabled":false,"rental_uris":{"android":"levelo://app?vid=930bdd79-e955-4858-b4a0-e0dfc904d217","ios":"levelo://app?vid=930bdd79-e955-4858-b4a0-e0dfc904d217"},"vehicle_type_id":"4","last_reported":1722229779,"current_range_meters":12000,"station_id":"","pricing_plan_id":"cebpf4jnsgd1na2vs0mg"},{"bike_id":"e169bd3a-a6d3-4c0e-b7cb-6984a6617127","system_id":"levelo_inurba_marseille","lat":43.30152,"lon":5.38094,"is_reserved":false,"is_disabled":false,"rental_uris":{"android":"levelo://app?vid=e169bd3a-a6d3-4c0e-b7cb-6984a6617127","ios":"levelo://app?vid=e169bd3a-a6d3-4c0e-b7cb-6984a6617127"},"vehicle_type_id":"4","last_reported":1722229779,"current_range_meters":6800,"station_id":"","pricing_plan_id":"cebpf4jnsgd1na2vs0mg"},{"bike_id":"700e64ad-ad8f-4e08-b8e7-e572a855479e","system_id":"levelo_inurba_marseille","lat":43.30147,"lon":5.38089,"is_reserved":false,"is_disabled":false,"rental_uris":{"android":"levelo://app?vid=700e64ad-ad8f-4e08-b8e7-e572a855479e","ios":"levelo://app?vid=700e64ad-ad8f-4e08-b8e7-e572a855479e"},"vehicle_type_id":"4","last_reported":1722229779,"current_range_meters":2400,"station_id":"","pricing_plan_id":"cebpf4jnsgd1na2vs0mg"},{"bike_id":"035feb10-d44e-4d22-bc19-490480ee2d4f","system_id":"levelo_inurba_marseille","lat":43.322872,"lon":5.382756,"is_reserved":false,"is_disabled":false,"rental_uris":{"android":"levelo://app?vid=035feb10-d44e-4d22-bc19-490480ee2d4f","ios":"levelo://app?vid=035feb10-d44e-4d22-bc19-490480ee2d4f"},"vehicle_type_id":"4","last_reported":1722229779,"current_range_meters":31200,"station_id":"ce4bhr12rcd13ifvqhqg","pricing_plan_id":"cebpf4jnsgd1na2vs0mg"},{"bike_id":"0cb9fca5-bf3c-423f-a18e-2816fdd8b752","system_id":"levelo_inurba_marseille","lat":43.322872,"lon":5.382756,"is_reserved":false,"is_disabled":false,"rental_uris":{"android":"levelo://app?vid=0cb9fca5-bf3c-423f-a18e-2816fdd8b752","ios":"levelo://app?vid=0cb9fca5-bf3c-423f-a18e-2816fdd8b752"},"vehicle_type_id":"4","last_reported":1722229779,"current_range_meters":30800,"station_id":"ce4bhr12rcd13ifvqhqg","pricing_plan_id":"cebpf4jnsgd1na2vs0mg"},{"bike_id":"e155e203-39c2-4909-8447-3407bb35a435","system_id":"levelo_inurba_marseille","lat":43.322872,"lon":5.382756,"is_reserved":false,"is_disabled":false,"rental_uris":{"android":"levelo://app?vid=e155e203-39c2-4909-8447-3407bb35a435","ios":"levelo://app?vid=e155e203-39c2-4909-8447-3407bb35a435"},"vehicle_type_id":"4","last_reported":1722229779,"current_range_meters":28000,"station_id":"ce4bhr12rcd13ifvqhqg","pricing_plan_id":"cebpf4jnsgd1na2vs0mg"},{"bike_id":"77ebd6f7-0e15-4246-8feb-b1d720ac899a","system_id":"levelo_inurba_marseille","lat":43.30075,"lon":5.38124,"is_reserved":false,"is_disabled":false,"rental_uris":{"android":"levelo://app?vid=77ebd6f7-0e15-4246-8feb-b1d720ac899a","ios":"levelo://app?vid=77ebd6f7-0e15-4246-8feb-b1d720ac899a"},"vehicle_type_id":"4","last_reported":1722229779,"current_range_meters":12400,"station_id":"","pricing_plan_id":"cebpf4jnsgd1na2vs0mg"},{"bike_id":"ef797485-5159-4420-bda8-035f4112fe36","system_id":"levelo_inurba_marseille","lat":43.298923,"lon":5.377934,"is_reserved":false,"is_disabled":false,"rental_uris":{"android":"levelo://app?vid=ef797485-5159-4420-bda8-035f4112fe36","ios":"levelo://app?vid=ef797485-5159-4420-bda8-035f4112fe36"},"vehicle_type_id":"4","last_reported":1722229779,"current_range_meters":6000,"station_id":"","pricing_plan_id":"cebpf4jnsgd1na2vs0mg"},{"bike_id":"16361635-e3e1-4d04-a4c7-b861d7597b64","system_id":"levelo_inurba_marseille","lat":43.2969,"lon":5.372926,"is_reserved":false,"is_disabled":false,"rental_uris":{"android":"levelo://app?vid=16361635-e3e1-4d04-a4c7-b861d7597b64","ios":"levelo://app?vid=16361635-e3e1-4d04-a4c7-b861d7597b64"},"vehicle_type_id":"4","last_reported":1722229779,"current_range_meters":0,"station_id":"ce4bgk12rcd13ifvqbj0","pricing_plan_id":"cebpf4jnsgd1na2vs0mg"},{"bike_id":"f4ec52e6-e348-4813-bcb2-afb4ea2cf690","system_id":"levelo_inurba_marseille","lat":43.2968,"lon":5.37291,"is_reserved":false,"is_disabled":false,"rental_uris":{"android":"levelo://app?vid=f4ec52e6-e348-4813-bcb2-afb4ea2cf690","ios":"levelo://app?vid=f4ec52e6-e348-4813-bcb2-afb4ea2cf690"},"vehicle_type_id":"4","last_reported":1722229779,"current_range_meters":28400,"station_id":"ce4bgk12rcd13ifvqbj0","pricing_plan_id":"cebpf4jnsgd1na2vs0mg"},{"bike_id":"aabe5636-8b2c-4b07-b9b2-f6406a64fb3f","system_id":"levelo_inurba_marseille","lat":43.31636,"lon":5.38925,"is_reserved":false,"is_disabled":false,"rental_uris":{"android":"levelo://app?vid=aabe5636-8b2c-4b07-b9b2-f6406a64fb3f","ios":"levelo://app?vid=aabe5636-8b2c-4b07-b9b2-f6406a64fb3f"},"vehicle_type_id":"4","last_reported":1722229779,"current_range_meters":16000,"station_id":"","pricing_plan_id":"cebpf4jnsgd1na2vs0mg"},{"bike_id":"cbbcd543-c0ec-4622-b095-47cc2acc6710","system_id":"levelo_inurba_marseille","lat":43.296129,"lon":5.370777,"is_reserved":false,"is_disabled":false,"rental_uris":{"android":"levelo://app?vid=cbbcd543-c0ec-4622-b095-47cc2acc6710","ios":"levelo://app?vid=cbbcd543-c0ec-4622-b095-47cc2acc6710"},"vehicle_type_id":"4","last_reported":1722229779,"current_range_meters":0,"station_id":"ce4bgnh2rcd13ifvqc0g","pricing_plan_id":"cebpf4jnsgd1na2vs0mg"},{"bike_id":"08500c29-9e67-474c-abb0-eee753dc4eae","system_id":"levelo_inurba_marseille","lat":43.29573,"lon":5.367355,"is_reserved":false,"is_disabled":false,"rental_uris":{"android":"levelo://app?vid=08500c29-9e67-474c-abb0-eee753dc4eae","ios":"levelo://app?vid=08500c29-9e67-474c-abb0-eee753dc4eae"},"vehicle_type_id":"4","last_reported":1722229779,"current_range_meters":26000,"station_id":"ce4bgph2rcd13ifvqc2g","pricing_plan_id":"cebpf4jnsgd1na2vs0mg"},{"bike_id":"56c40e5d-b7c2-40cd-9102-6a90f1952e1f","system_id":"levelo_inurba_marseille","lat":43.29603,"lon":5.37058,"is_reserved":false,"is_disabled":false,"rental_uris":{"android":"levelo://app?vid=56c40e5d-b7c2-40cd-9102-6a90f1952e1f","ios":"levelo://app?vid=56c40e5d-b7c2-40cd-9102-6a90f1952e1f"},"vehicle_type_id":"4","last_reported":1722229779,"current_range_meters":13200,"station_id":"","pricing_plan_id":"cebpf4jnsgd1na2vs0mg"},{"bike_id":"8fbb9c39-687d-4bd9-900b-fafda04a7f1b","system_id":"levelo_inurba_marseille","lat":43.29998,"lon":5.38273,"is_reserved":false,"is_disabled":false,"rental_uris":{"android":"levelo://app?vid=8fbb9c39-687d-4bd9-900b-fafda04a7f1b","ios":"levelo://app?vid=8fbb9c39-687d-4bd9-900b-fafda04a7f1b"},"vehicle_type_id":"4","last_reported":1722229779,"current_range_meters":4800,"station_id":"","pricing_plan_id":"cebpf4jnsgd1na2vs0mg"},{"bike_id":"983ff03e-8e9f-45fe-bb97-a20664ed90aa","system_id":"levelo_inurba_marseille","lat":43.296935,"lon":5.376544,"is_reserved":false,"is_disabled":false,"rental_uris":{"android":"levelo://app?vid=983ff03e-8e9f-45fe-bb97-a20664ed90aa","ios":"levelo://app?vid=983ff03e-8e9f-45fe-bb97-a20664ed90aa"},"vehicle_type_id":"4","last_reported":1722229779,"current_range_meters":21200,"station_id":"ce4bgkh2rcd13ifvqbl0","pricing_plan_id":"cebpf4jnsgd1na2vs0mg"},{"bike_id":"d351548d-8ada-4c37-8c23-b99dc1659cf5","system_id":"levelo_inurba_marseille","lat":43.299028,"lon":5.381509,"is_reserved":false,"is_disabled":false,"rental_uris":{"android":"levelo://app?vid=d351548d-8ada-4c37-8c23-b99dc1659cf5","ios":"levelo://app?vid=d351548d-8ada-4c37-8c23-b99dc1659cf5"},"vehicle_type_id":"4","last_reported":1722229779,"current_range_meters":14400,"station_id":"ce4bgj12rcd13ifvqbc0","pricing_plan_id":"cebpf4jnsgd1na2vs0mg"},{"bike_id":"19a7a1bc-86e5-46d7-9caa-0cc0c6014069","system_id":"levelo_inurba_marseille","lat":43.296935,"lon":5.376544,"is_reserved":false,"is_disabled":false,"rental_uris":{"android":"levelo://app?vid=19a7a1bc-86e5-46d7-9caa-0cc0c6014069","ios":"levelo://app?vid=19a7a1bc-86e5-46d7-9caa-0cc0c6014069"},"vehicle_type_id":"4","last_reported":1722229779,"current_range_meters":24400,"station_id":"ce4bgkh2rcd13ifvqbl0","pricing_plan_id":"cebpf4jnsgd1na2vs0mg"},{"bike_id":"b9641f6d-97dc-4216-a073-90275ad19382","system_id":"levelo_inurba_marseille","lat":43.299028,"lon":5.381509,"is_reserved":false,"is_disabled":false,"rental_uris":{"android":"levelo://app?vid=b9641f6d-97dc-4216-a073-90275ad19382","ios":"levelo://app?vid=b9641f6d-97dc-4216-a073-90275ad19382"},"vehicle_type_id":"4","last_reported":1722229779,"current_range_meters":18400,"station_id":"ce4bgj12rcd13ifvqbc0","pricing_plan_id":"cebpf4jnsgd1na2vs0mg"},{"bike_id":"787071f6-ecff-407c-b379-e9767c8ba897","system_id":"levelo_inurba_marseille","lat":43.299028,"lon":5.381509,"is_reserved":false,"is_disabled":false,"rental_uris":{"android":"levelo://app?vid=787071f6-ecff-407c-b379-e9767c8ba897","ios":"levelo://app?vid=787071f6-ecff-407c-b379-e9767c8ba897"},"vehicle_type_id":"4","last_reported":1722229779,"current_range_meters":31200,"station_id":"ce4bgj12rcd13ifvqbc0","pricing_plan_id":"cebpf4jnsgd1na2vs0mg"},{"bike_id":"b02430b2-4a68-4527-b9b6-cc09d309e178","system_id":"levelo_inurba_marseille","lat":43.309589,"lon":5.390258,"is_reserved":false,"is_disabled":false,"rental_uris":{"android":"levelo://app?vid=b02430b2-4a68-4527-b9b6-cc09d309e178","ios":"levelo://app?vid=b02430b2-4a68-4527-b9b6-cc09d309e178"},"vehicle_type_id":"4","last_reported":1722229779,"current_range_meters":29200,"station_id":"ce4bgup2rcd13ifvqco0","pricing_plan_id":"cebpf4jnsgd1na2vs0mg"},{"bike_id":"fb5b3703-fe0c-47f4-b0c6-784c0c87b9e3","system_id":"levelo_inurba_marseille","lat":43.309589,"lon":5.390258,"is_reserved":false,"is_disabled":false,"rental_uris":{"android":"levelo://app?vid=fb5b3703-fe0c-47f4-b0c6-784c0c87b9e3","ios":"levelo://app?vid=fb5b3703-fe0c-47f4-b0c6-784c0c87b9e3"},"vehicle_type_id":"4","last_reported":1722229779,"current_range_meters":26800,"station_id":"ce4bgup2rcd13ifvqco0","pricing_plan_id":"cebpf4jnsgd1na2vs0mg"},{"bike_id":"d3ab51ad-3f7f-45cd-9de8-1e65aaccbb8d","system_id":"levelo_inurba_marseille","lat":43.296935,"lon":5.376544,"is_reserved":false,"is_disabled":false,"rental_uris":{"android":"levelo://app?vid=d3ab51ad-3f7f-45cd-9de8-1e65aaccbb8d","ios":"levelo://app?vid=d3ab51ad-3f7f-45cd-9de8-1e65aaccbb8d"},"vehicle_type_id":"4","last_reported":1722229779,"current_range_meters":30800,"station_id":"ce4bgkh2rcd13ifvqbl0","pricing_plan_id":"cebpf4jnsgd1na2vs0mg"},{"bike_id":"9eef998c-d76f-431c-bcd1-b661a7d44e98","system_id":"levelo_inurba_marseille","lat":43.231919,"lon":5.355532,"is_reserved":false,"is_disabled":false,"rental_uris":{"android":"levelo://app?vid=9eef998c-d76f-431c-bcd1-b661a7d44e98","ios":"levelo://app?vid=9eef998c-d76f-431c-bcd1-b661a7d44e98"},"vehicle_type_id":"4","last_reported":1722229779,"current_range_meters":31200,"station_id":"ce4bhu92rcd13ifvqi70","pricing_plan_id":"cebpf4jnsgd1na2vs0mg"},{"bike_id":"ea151fb6-f653-4062-9c69-1edd0e9bbf9c","system_id":"levelo_inurba_marseille","lat":43.3175,"lon":5.390156,"is_reserved":false,"is_disabled":false,"rental_uris":{"android":"levelo://app?vid=ea151fb6-f653-4062-9c69-1edd0e9bbf9c","ios":"levelo://app?vid=ea151fb6-f653-4062-9c69-1edd0e9bbf9c"},"vehicle_type_id":"4","last_reported":1722229779,"current_range_meters":27600,"station_id":"ce4bhqp2rcd13ifvqhng","pricing_plan_id":"cebpf4jnsgd1na2vs0mg"},{"bike_id":"9aaadf88-50ce-4e15-844a-b19ba67c0ccf","system_id":"levelo_inurba_marseille","lat":43.317557,"lon":5.390173,"is_reserved":false,"is_disabled":false,"rental_uris":{"android":"levelo://app?vid=9aaadf88-50ce-4e15-844a-b19ba67c0ccf","ios":"levelo://app?vid=9aaadf88-50ce-4e15-844a-b19ba67c0ccf"},"vehicle_type_id":"4","last_reported":1722229779,"current_range_meters":21600,"station_id":"ce4bhqp2rcd13ifvqhng","pricing_plan_id":"cebpf4jnsgd1na2vs0mg"},{"bike_id":"9469f5ee-74f1-42f8-b92e-cb91e35e412f","system_id":"levelo_inurba_marseille","lat":43.317557,"lon":5.390173,"is_reserved":false,"is_disabled":false,"rental_uris":{"android":"levelo://app?vid=9469f5ee-74f1-42f8-b92e-cb91e35e412f","ios":"levelo://app?vid=9469f5ee-74f1-42f8-b92e-cb91e35e412f"},"vehicle_type_id":"4","last_reported":1722229779,"current_range_meters":25600,"station_id":"ce4bhqp2rcd13ifvqhng","pricing_plan_id":"cebpf4jnsgd1na2vs0mg"},{"bike_id":"25ef7f69-9de0-4205-9b5a-bf1d8382bfe1","system_id":"levelo_inurba_marseille","lat":43.317557,"lon":5.390173,"is_reserved":false,"is_disabled":false,"rental_uris":{"android":"levelo://app?vid=25ef7f69-9de0-4205-9b5a-bf1d8382bfe1","ios":"levelo://app?vid=25ef7f69-9de0-4205-9b5a-bf1d8382bfe1"},"vehicle_type_id":"4","last_reported":1722229779,"current_range_meters":18800,"station_id":"ce4bhqp2rcd13ifvqhng","pricing_plan_id":"cebpf4jnsgd1na2vs0mg"},{"bike_id":"ccc4f216-8df5-48bc-8647-f1e3030ca19b","system_id":"levelo_inurba_marseille","lat":43.317557,"lon":5.390173,"is_reserved":false,"is_disabled":false,"rental_uris":{"android":"levelo://app?vid=ccc4f216-8df5-48bc-8647-f1e3030ca19b","ios":"levelo://app?vid=ccc4f216-8df5-48bc-8647-f1e3030ca19b"},"vehicle_type_id":"4","last_reported":1722229779,"current_range_meters":20000,"station_id":"ce4bhqp2rcd13ifvqhng","pricing_plan_id":"cebpf4jnsgd1na2vs0mg"},{"bike_id":"82dda571-5d66-425f-9a45-956b96fa2fce","system_id":"levelo_inurba_marseille","lat":43.317557,"lon":5.390173,"is_reserved":false,"is_disabled":false,"rental_uris":{"android":"levelo://app?vid=82dda571-5d66-425f-9a45-956b96fa2fce","ios":"levelo://app?vid=82dda571-5d66-425f-9a45-956b96fa2fce"},"vehicle_type_id":"4","last_reported":1722229779,"current_range_meters":29600,"station_id":"ce4bhqp2rcd13ifvqhng","pricing_plan_id":"cebpf4jnsgd1na2vs0mg"},{"bike_id":"b38a7c2a-3c19-4484-9ca0-cb1b85acb456","system_id":"levelo_inurba_marseille","lat":43.317557,"lon":5.390173,"is_reserved":false,"is_disabled":false,"rental_uris":{"android":"levelo://app?vid=b38a7c2a-3c19-4484-9ca0-cb1b85acb456","ios":"levelo://app?vid=b38a7c2a-3c19-4484-9ca0-cb1b85acb456"},"vehicle_type_id":"4","last_reported":1722229779,"current_range_meters":25200,"station_id":"ce4bhqp2rcd13ifvqhng","pricing_plan_id":"cebpf4jnsgd1na2vs0mg"},{"bike_id":"d86556b2-8bd2-47ea-80bb-5ef183c0c7c3","system_id":"levelo_inurba_marseille","lat":43.298037,"lon":5.381066,"is_reserved":false,"is_disabled":false,"rental_uris":{"android":"levelo://app?vid=d86556b2-8bd2-47ea-80bb-5ef183c0c7c3","ios":"levelo://app?vid=d86556b2-8bd2-47ea-80bb-5ef183c0c7c3"},"vehicle_type_id":"4","last_reported":1722229779,"current_range_meters":30800,"station_id":"ce4bgip2rcd13ifvqbb0","pricing_plan_id":"cebpf4jnsgd1na2vs0mg"},{"bike_id":"0cf6efa2-4094-4eb7-9fd3-beebfa1be19f","system_id":"levelo_inurba_marseille","lat":43.29799,"lon":5.38123,"is_reserved":false,"is_disabled":false,"rental_uris":{"android":"levelo://app?vid=0cf6efa2-4094-4eb7-9fd3-beebfa1be19f","ios":"levelo://app?vid=0cf6efa2-4094-4eb7-9fd3-beebfa1be19f"},"vehicle_type_id":"4","last_reported":1722229779,"current_range_meters":25600,"station_id":"ce4bgip2rcd13ifvqbb0","pricing_plan_id":"cebpf4jnsgd1na2vs0mg"},{"bike_id":"e744a18d-9dbc-47bb-9e7a-ced0c284e02e","system_id":"levelo_inurba_marseille","lat":43.295748,"lon":5.37522,"is_reserved":false,"is_disabled":false,"rental_uris":{"android":"levelo://app?vid=e744a18d-9dbc-47bb-9e7a-ced0c284e02e","ios":"levelo://app?vid=e744a18d-9dbc-47bb-9e7a-ced0c284e02e"},"vehicle_type_id":"4","last_reported":1722229779,"current_range_meters":28000,"station_id":"ce4bgh92rcd13ifvqb50","pricing_plan_id":"cebpf4jnsgd1na2vs0mg"},{"bike_id":"8a36f349-36fa-40ca-b232-6dd0b29d6e41","system_id":"levelo_inurba_marseille","lat":43.293009,"lon":5.374584,"is_reserved":false,"is_disabled":false,"rental_uris":{"android":"levelo://app?vid=8a36f349-36fa-40ca-b232-6dd0b29d6e41","ios":"levelo://app?vid=8a36f349-36fa-40ca-b232-6dd0b29d6e41"},"vehicle_type_id":"4","last_reported":1722229779,"current_range_meters":12000,"station_id":"ce4bgi12rcd13ifvqb70","pricing_plan_id":"cebpf4jnsgd1na2vs0mg"},{"bike_id":"5db62783-62c1-489d-b148-b8dd35a0770c","system_id":"levelo_inurba_marseille","lat":43.295279,"lon":5.375048,"is_reserved":false,"is_disabled":false,"rental_uris":{"android":"levelo://app?vid=5db62783-62c1-489d-b148-b8dd35a0770c","ios":"levelo://app?vid=5db62783-62c1-489d-b148-b8dd35a0770c"},"vehicle_type_id":"4","last_reported":1722229779,"current_range_meters":12400,"station_id":"ce4bgkp2rcd13ifvqbmg","pricing_plan_id":"cebpf4jnsgd1na2vs0mg"},{"bike_id":"9b15acef-b8af-45e0-93df-2b934c14565b","system_id":"levelo_inurba_marseille","lat":43.296263,"lon":5.377094,"is_reserved":false,"is_disabled":false,"rental_uris":{"android":"levelo://app?vid=9b15acef-b8af-45e0-93df-2b934c14565b","ios":"levelo://app?vid=9b15acef-b8af-45e0-93df-2b934c14565b"},"vehicle_type_id":"4","last_reported":1722229779,"current_range_meters":26800,"station_id":"ce4bgi92rcd13ifvqb90","pricing_plan_id":"cebpf4jnsgd1na2vs0mg"},{"bike_id":"e22304ab-34bc-4102-843d-d08b6455d6ac","system_id":"levelo_inurba_marseille","lat":43.299717,"lon":5.384845,"is_reserved":false,"is_disabled":false,"rental_uris":{"android":"levelo://app?vid=e22304ab-34bc-4102-843d-d08b6455d6ac","ios":"levelo://app?vid=e22304ab-34bc-4102-843d-d08b6455d6ac"},"vehicle_type_id":"4","last_reported":1722229779,"current_range_meters":22000,"station_id":"ce4bgj92rcd13ifvqbd0","pricing_plan_id":"cebpf4jnsgd1na2vs0mg"},{"bike_id":"6a68318b-5bcb-46f6-b551-ee61ffaae56f","system_id":"levelo_inurba_marseille","lat":43.295279,"lon":5.375048,"is_reserved":false,"is_disabled":false,"rental_uris":{"android":"levelo://app?vid=6a68318b-5bcb-46f6-b551-ee61ffaae56f","ios":"levelo://app?vid=6a68318b-5bcb-46f6-b551-ee61ffaae56f"},"vehicle_type_id":"4","last_reported":1722229779,"current_range_meters":14400,"station_id":"ce4bgkp2rcd13ifvqbmg","pricing_plan_id":"cebpf4jnsgd1na2vs0mg"},{"bike_id":"c96a40c0-fbb5-40f7-847f-236867c69378","system_id":"levelo_inurba_marseille","lat":43.32367,"lon":5.388836,"is_reserved":false,"is_disabled":false,"rental_uris":{"android":"levelo://app?vid=c96a40c0-fbb5-40f7-847f-236867c69378","ios":"levelo://app?vid=c96a40c0-fbb5-40f7-847f-236867c69378"},"vehicle_type_id":"4","last_reported":1722229779,"current_range_meters":19200,"station_id":"ce4bhqp2rcd13ifvqhog","pricing_plan_id":"cebpf4jnsgd1na2vs0mg"},{"bike_id":"bcda2da4-3545-4f35-846b-175463b92ba4","system_id":"levelo_inurba_marseille","lat":43.32367,"lon":5.388836,"is_reserved":false,"is_disabled":false,"rental_uris":{"android":"levelo://app?vid=bcda2da4-3545-4f35-846b-175463b92ba4","ios":"levelo://app?vid=bcda2da4-3545-4f35-846b-175463b92ba4"},"vehicle_type_id":"4","last_reported":1722229779,"current_range_meters":22000,"station_id":"ce4bhqp2rcd13ifvqhog","pricing_plan_id":"cebpf4jnsgd1na2vs0mg"},{"bike_id":"7b4e5ed3-7212-45f8-8b69-d8c4b3f8bcdb","system_id":"levelo_inurba_marseille","lat":43.32367,"lon":5.388836,"is_reserved":false,"is_disabled":false,"rental_uris":{"android":"levelo://app?vid=7b4e5ed3-7212-45f8-8b69-d8c4b3f8bcdb","ios":"levelo://app?vid=7b4e5ed3-7212-45f8-8b69-d8c4b3f8bcdb"},"vehicle_type_id":"4","last_reported":1722229779,"current_range_meters":23600,"station_id":"ce4bhqp2rcd13ifvqhog","pricing_plan_id":"cebpf4jnsgd1na2vs0mg"},{"bike_id":"54dc018e-9511-4c9c-b376-cd8a979ca73e","system_id":"levelo_inurba_marseille","lat":43.32367,"lon":5.388836,"is_reserved":false,"is_disabled":false,"rental_uris":{"android":"levelo://app?vid=54dc018e-9511-4c9c-b376-cd8a979ca73e","ios":"levelo://app?vid=54dc018e-9511-4c9c-b376-cd8a979ca73e"},"vehicle_type_id":"4","last_reported":1722229779,"current_range_meters":12400,"station_id":"ce4bhqp2rcd13ifvqhog","pricing_plan_id":"cebpf4jnsgd1na2vs0mg"},{"bike_id":"7f4e09ee-91bb-473b-9e72-e47ab9457747","system_id":"levelo_inurba_marseille","lat":43.32315,"lon":5.38936,"is_reserved":false,"is_disabled":false,"rental_uris":{"android":"levelo://app?vid=7f4e09ee-91bb-473b-9e72-e47ab9457747","ios":"levelo://app?vid=7f4e09ee-91bb-473b-9e72-e47ab9457747"},"vehicle_type_id":"4","last_reported":1722229779,"current_range_meters":14400,"station_id":"","pricing_plan_id":"cebpf4jnsgd1na2vs0mg"},{"bike_id":"c15b24c4-b77e-49a6-bf53-30269e940a61","system_id":"levelo_inurba_marseille","lat":43.32367,"lon":5.388836,"is_reserved":false,"is_disabled":false,"rental_uris":{"android":"levelo://app?vid=c15b24c4-b77e-49a6-bf53-30269e940a61","ios":"levelo://app?vid=c15b24c4-b77e-49a6-bf53-30269e940a61"},"vehicle_type_id":"4","last_reported":1722229779,"current_range_meters":6400,"station_id":"ce4bhqp2rcd13ifvqhog","pricing_plan_id":"cebpf4jnsgd1na2vs0mg"},{"bike_id":"cb7b9226-7861-4483-9c0a-ce4bd41643e5","system_id":"levelo_inurba_marseille","lat":43.32312,"lon":5.38943,"is_reserved":false,"is_disabled":false,"rental_uris":{"android":"levelo://app?vid=cb7b9226-7861-4483-9c0a-ce4bd41643e5","ios":"levelo://app?vid=cb7b9226-7861-4483-9c0a-ce4bd41643e5"},"vehicle_type_id":"4","last_reported":1722229779,"current_range_meters":17200,"station_id":"","pricing_plan_id":"cebpf4jnsgd1na2vs0mg"},{"bike_id":"fff9ce80-e3a6-4300-a750-f133cdb858c3","system_id":"levelo_inurba_marseille","lat":43.29351,"lon":5.37132,"is_reserved":false,"is_disabled":false,"rental_uris":{"android":"levelo://app?vid=fff9ce80-e3a6-4300-a750-f133cdb858c3","ios":"levelo://app?vid=fff9ce80-e3a6-4300-a750-f133cdb858c3"},"vehicle_type_id":"4","last_reported":1722229779,"current_range_meters":8000,"station_id":"","pricing_plan_id":"cebpf4jnsgd1na2vs0mg"},{"bike_id":"7900b982-c13d-48a4-98c9-b718f8563e9f","system_id":"levelo_inurba_marseille","lat":43.293259,"lon":5.371586,"is_reserved":false,"is_disabled":false,"rental_uris":{"android":"levelo://app?vid=7900b982-c13d-48a4-98c9-b718f8563e9f","ios":"levelo://app?vid=7900b982-c13d-48a4-98c9-b718f8563e9f"},"vehicle_type_id":"4","last_reported":1722229779,"current_range_meters":30400,"station_id":"ce4bgh92rcd13ifvqb40","pricing_plan_id":"cebpf4jnsgd1na2vs0mg"},{"bike_id":"44dd29c8-d030-42f2-bfa9-cef51d98f8b2","system_id":"levelo_inurba_marseille","lat":43.293259,"lon":5.371586,"is_reserved":false,"is_disabled":false,"rental_uris":{"android":"levelo://app?vid=44dd29c8-d030-42f2-bfa9-cef51d98f8b2","ios":"levelo://app?vid=44dd29c8-d030-42f2-bfa9-cef51d98f8b2"},"vehicle_type_id":"4","last_reported":1722229779,"current_range_meters":28400,"station_id":"ce4bgh92rcd13ifvqb40","pricing_plan_id":"cebpf4jnsgd1na2vs0mg"},{"bike_id":"1d9beca8-b54b-491e-8ff2-1da58c31f89f","system_id":"levelo_inurba_marseille","lat":43.292749,"lon":5.368402,"is_reserved":false,"is_disabled":false,"rental_uris":{"android":"levelo://app?vid=1d9beca8-b54b-491e-8ff2-1da58c31f89f","ios":"levelo://app?vid=1d9beca8-b54b-491e-8ff2-1da58c31f89f"},"vehicle_type_id":"4","last_reported":1722229779,"current_range_meters":27600,"station_id":"ce4bhbp2rcd13ifvqesg","pricing_plan_id":"cebpf4jnsgd1na2vs0mg"},{"bike_id":"5935e556-9bdd-4275-96a5-d120b58ba933","system_id":"levelo_inurba_marseille","lat":43.30609,"lon":5.39356,"is_reserved":false,"is_disabled":false,"rental_uris":{"android":"levelo://app?vid=5935e556-9bdd-4275-96a5-d120b58ba933","ios":"levelo://app?vid=5935e556-9bdd-4275-96a5-d120b58ba933"},"vehicle_type_id":"4","last_reported":1722229779,"current_range_meters":26000,"station_id":"ce4bh0p2rcd13ifvqd80","pricing_plan_id":"cebpf4jnsgd1na2vs0mg"},{"bike_id":"89c626f8-f5f8-4184-9855-78c8b0f4562c","system_id":"levelo_inurba_marseille","lat":43.306,"lon":5.39355,"is_reserved":false,"is_disabled":false,"rental_uris":{"android":"levelo://app?vid=89c626f8-f5f8-4184-9855-78c8b0f4562c","ios":"levelo://app?vid=89c626f8-f5f8-4184-9855-78c8b0f4562c"},"vehicle_type_id":"4","last_reported":1722229779,"current_range_meters":28800,"station_id":"ce4bh0p2rcd13ifvqd80","pricing_plan_id":"cebpf4jnsgd1na2vs0mg"},{"bike_id":"5e7953a1-b667-4fc5-a624-53415d374886","system_id":"levelo_inurba_marseille","lat":43.30602,"lon":5.39356,"is_reserved":false,"is_disabled":false,"rental_uris":{"android":"levelo://app?vid=5e7953a1-b667-4fc5-a624-53415d374886","ios":"levelo://app?vid=5e7953a1-b667-4fc5-a624-53415d374886"},"vehicle_type_id":"4","last_reported":1722229779,"current_range_meters":22800,"station_id":"ce4bh0p2rcd13ifvqd80","pricing_plan_id":"cebpf4jnsgd1na2vs0mg"},{"bike_id":"0153df51-4a73-4f92-8d7e-413a1dbf12d4","system_id":"levelo_inurba_marseille","lat":43.293009,"lon":5.374584,"is_reserved":false,"is_disabled":false,"rental_uris":{"android":"levelo://app?vid=0153df51-4a73-4f92-8d7e-413a1dbf12d4","ios":"levelo://app?vid=0153df51-4a73-4f92-8d7e-413a1dbf12d4"},"vehicle_type_id":"4","last_reported":1722229779,"current_range_meters":15600,"station_id":"ce4bgi12rcd13ifvqb70","pricing_plan_id":"cebpf4jnsgd1na2vs0mg"},{"bike_id":"d208fb5c-bfbe-47af-a84d-b8cb67a1dc35","system_id":"levelo_inurba_marseille","lat":43.293009,"lon":5.374584,"is_reserved":false,"is_disabled":false,"rental_uris":{"android":"levelo://app?vid=d208fb5c-bfbe-47af-a84d-b8cb67a1dc35","ios":"levelo://app?vid=d208fb5c-bfbe-47af-a84d-b8cb67a1dc35"},"vehicle_type_id":"4","last_reported":1722229779,"current_range_meters":16000,"station_id":"ce4bgi12rcd13ifvqb70","pricing_plan_id":"cebpf4jnsgd1na2vs0mg"},{"bike_id":"99234267-d45b-48a8-bb00-5b75f25cf6dd","system_id":"levelo_inurba_marseille","lat":43.305994,"lon":5.393687,"is_reserved":false,"is_disabled":false,"rental_uris":{"android":"levelo://app?vid=99234267-d45b-48a8-bb00-5b75f25cf6dd","ios":"levelo://app?vid=99234267-d45b-48a8-bb00-5b75f25cf6dd"},"vehicle_type_id":"4","last_reported":1722229779,"current_range_meters":30400,"station_id":"ce4bh0p2rcd13ifvqd80","pricing_plan_id":"cebpf4jnsgd1na2vs0mg"},{"bike_id":"d8763617-0ff2-4966-859f-7ef538361000","system_id":"levelo_inurba_marseille","lat":43.303002,"lon":5.392142,"is_reserved":false,"is_disabled":false,"rental_uris":{"android":"levelo://app?vid=d8763617-0ff2-4966-859f-7ef538361000","ios":"levelo://app?vid=d8763617-0ff2-4966-859f-7ef538361000"},"vehicle_type_id":"4","last_reported":1722229779,"current_range_meters":23200,"station_id":"ce4bgkh2rcd13ifvqbk0","pricing_plan_id":"cebpf4jnsgd1na2vs0mg"},{"bike_id":"4454efe5-d276-416e-b973-3c6c059f17eb","system_id":"levelo_inurba_marseille","lat":43.2923,"lon":5.360757,"is_reserved":false,"is_disabled":false,"rental_uris":{"android":"levelo://app?vid=4454efe5-d276-416e-b973-3c6c059f17eb","ios":"levelo://app?vid=4454efe5-d276-416e-b973-3c6c059f17eb"},"vehicle_type_id":"4","last_reported":1722229779,"current_range_meters":25600,"station_id":"","pricing_plan_id":"cebpf4jnsgd1na2vs0mg"},{"bike_id":"033662f6-5c29-4e66-9b58-6eef9bc3ec68","system_id":"levelo_inurba_marseille","lat":43.300933,"lon":5.39071,"is_reserved":false,"is_disabled":false,"rental_uris":{"android":"levelo://app?vid=033662f6-5c29-4e66-9b58-6eef9bc3ec68","ios":"levelo://app?vid=033662f6-5c29-4e66-9b58-6eef9bc3ec68"},"vehicle_type_id":"4","last_reported":1722229779,"current_range_meters":5600,"station_id":"ce4bh192rcd13ifvqdb0","pricing_plan_id":"cebpf4jnsgd1na2vs0mg"},{"bike_id":"570fbb6d-17c5-4511-87b3-9ecf549476aa","system_id":"levelo_inurba_marseille","lat":43.292311,"lon":5.360731,"is_reserved":false,"is_disabled":false,"rental_uris":{"android":"levelo://app?vid=570fbb6d-17c5-4511-87b3-9ecf549476aa","ios":"levelo://app?vid=570fbb6d-17c5-4511-87b3-9ecf549476aa"},"vehicle_type_id":"4","last_reported":1722229779,"current_range_meters":28000,"station_id":"ce4bhbh2rcd13ifvqeqg","pricing_plan_id":"cebpf4jnsgd1na2vs0mg"},{"bike_id":"f99f9845-1c87-416f-bda7-10b353bcb399","system_id":"levelo_inurba_marseille","lat":43.29222,"lon":5.36078,"is_reserved":false,"is_disabled":false,"rental_uris":{"android":"levelo://app?vid=f99f9845-1c87-416f-bda7-10b353bcb399","ios":"levelo://app?vid=f99f9845-1c87-416f-bda7-10b353bcb399"},"vehicle_type_id":"4","last_reported":1722229779,"current_range_meters":31200,"station_id":"ce4bhbh2rcd13ifvqeqg","pricing_plan_id":"cebpf4jnsgd1na2vs0mg"},{"bike_id":"66a2b585-4e4c-4bd6-896b-5ca8080137db","system_id":"levelo_inurba_marseille","lat":43.30085,"lon":5.390856,"is_reserved":false,"is_disabled":false,"rental_uris":{"android":"levelo://app?vid=66a2b585-4e4c-4bd6-896b-5ca8080137db","ios":"levelo://app?vid=66a2b585-4e4c-4bd6-896b-5ca8080137db"},"vehicle_type_id":"4","last_reported":1722229779,"current_range_meters":31600,"station_id":"ce4bh192rcd13ifvqdb0","pricing_plan_id":"cebpf4jnsgd1na2vs0mg"},{"bike_id":"f5fba800-861e-43d6-bf57-a3080d699aa7","system_id":"levelo_inurba_marseille","lat":43.292311,"lon":5.360731,"is_reserved":false,"is_disabled":false,"rental_uris":{"android":"levelo://app?vid=f5fba800-861e-43d6-bf57-a3080d699aa7","ios":"levelo://app?vid=f5fba800-861e-43d6-bf57-a3080d699aa7"},"vehicle_type_id":"4","last_reported":1722229779,"current_range_meters":28000,"station_id":"ce4bhbh2rcd13ifvqeqg","pricing_plan_id":"cebpf4jnsgd1na2vs0mg"},{"bike_id":"6671edd6-be25-4fe9-86f5-ab5edfa83c3d","system_id":"levelo_inurba_marseille","lat":43.29219,"lon":5.36075,"is_reserved":false,"is_disabled":false,"rental_uris":{"android":"levelo://app?vid=6671edd6-be25-4fe9-86f5-ab5edfa83c3d","ios":"levelo://app?vid=6671edd6-be25-4fe9-86f5-ab5edfa83c3d"},