{"last_updated":1709190508,"ttl":30,"version":"2.2","data":{"bikes":[{"bike_id":"4519e54f-614f-4efe-a1b4-d33115798b4c","system_id":"levelo_inurba_marseille","lat":43.31341,"lon":5.367098,"is_reserved":false,"is_disabled":false,"rental_uris":{"android":"levelo://app?vid=4519e54f-614f-4efe-a1b4-d33115798b4c","ios":"levelo://app?vid=4519e54f-614f-4efe-a1b4-d33115798b4c"},"vehicle_type_id":"4","last_reported":1709190508,"current_range_meters":28400,"station_id":"ce4bgr92rcd13ifvqc6g","pricing_plan_id":"cebpf4jnsgd1na2vs0mg"},{"bike_id":"af3114b8-b2f9-4bd7-9bef-1e2240f4cd49","system_id":"levelo_inurba_marseille","lat":43.313391,"lon":5.36706,"is_reserved":false,"is_disabled":false,"rental_uris":{"android":"levelo://app?vid=af3114b8-b2f9-4bd7-9bef-1e2240f4cd49","ios":"levelo://app?vid=af3114b8-b2f9-4bd7-9bef-1e2240f4cd49"},"vehicle_type_id":"4","last_reported":1709190508,"current_range_meters":21600,"station_id":"ce4bgr92rcd13ifvqc6g","pricing_plan_id":"cebpf4jnsgd1na2vs0mg"},{"bike_id":"1738dc27-008a-4a35-a646-0b501414ce18","system_id":"levelo_inurba_marseille","lat":43.313391,"lon":5.36706,"is_reserved":false,"is_disabled":false,"rental_uris":{"android":"levelo://app?vid=1738dc27-008a-4a35-a646-0b501414ce18","ios":"levelo://app?vid=1738dc27-008a-4a35-a646-0b501414ce18"},"vehicle_type_id":"4","last_reported":1709190508,"current_range_meters":30000,"station_id":"ce4bgr92rcd13ifvqc6g","pricing_plan_id":"cebpf4jnsgd1na2vs0mg"},{"bike_id":"4607a0b7-3281-4081-88e3-e2750a4b22c3","system_id":"levelo_inurba_marseille","lat":43.313391,"lon":5.36706,"is_reserved":false,"is_disabled":false,"rental_uris":{"android":"levelo://app?vid=4607a0b7-3281-4081-88e3-e2750a4b22c3","ios":"levelo://app?vid=4607a0b7-3281-4081-88e3-e2750a4b22c3"},"vehicle_type_id":"4","last_reported":1709190508,"current_range_meters":24400,"station_id":"ce4bgr92rcd13ifvqc6g","pricing_plan_id":"cebpf4jnsgd1na2vs0mg"},{"bike_id":"d86e1145-bb5b-4d3b-a538-ccbe21e1c365","system_id":"levelo_inurba_marseille","lat":43.31341,"lon":5.367098,"is_reserved":false,"is_disabled":false,"rental_uris":{"android":"levelo://app?vid=d86e1145-bb5b-4d3b-a538-ccbe21e1c365","ios":"levelo://app?vid=d86e1145-bb5b-4d3b-a538-ccbe21e1c365"},"vehicle_type_id":"4","last_reported":1709190508,"current_range_meters":21200,"station_id":"ce4bgr92rcd13ifvqc6g","pricing_plan_id":"cebpf4jnsgd1na2vs0mg"},{"bike_id":"6b8f56cd-5f80-42a8-807f-d3d89f507002","system_id":"levelo_inurba_marseille","lat":43.31341,"lon":5.367098,"is_reserved":false,"is_disabled":false,"rental_uris":{"android":"levelo://app?vid=6b8f56cd-5f80-42a8-807f-d3d89f507002","ios":"levelo://app?vid=6b8f56cd-5f80-42a8-807f-d3d89f507002"},"vehicle_type_id":"4","last_reported":1709190508,"current_range_meters":24400,"station_id":"ce4bgr92rcd13ifvqc6g","pricing_plan_id":"cebpf4jnsgd1na2vs0mg"},{"bike_id":"72e0f712-729a-4176-8287-0eae4177679c","system_id":"levelo_inurba_marseille","lat":43.312239,"lon":5.368562,"is_reserved":false,"is_disabled":false,"rental_uris":{"android":"levelo://app?vid=72e0f712-729a-4176-8287-0eae4177679c","ios":"levelo://app?vid=72e0f712-729a-4176-8287-0eae4177679c"},"vehicle_type_id":"4","last_reported":1709190508,"current_range_meters":26000,"station_id":"ce4bgl92rcd13ifvqbq0","pricing_plan_id":"cebpf4jnsgd1na2vs0mg"},{"bike_id":"a9455748-5d2f-4bc1-94af-84a0e43ed520","system_id":"levelo_inurba_marseille","lat":43.312239,"lon":5.368562,"is_reserved":false,"is_disabled":false,"rental_uris":{"android":"levelo://app?vid=a9455748-5d2f-4bc1-94af-84a0e43ed520","ios":"levelo://app?vid=a9455748-5d2f-4bc1-94af-84a0e43ed520"},"vehicle_type_id":"4","last_reported":1709190508,"current_range_meters":22800,"station_id":"ce4bgl92rcd13ifvqbq0","pricing_plan_id":"cebpf4jnsgd1na2vs0mg"},{"bike_id":"d10e2d6c-501d-48fe-a256-b7664a6b99e1","system_id":"levelo_inurba_marseille","lat":43.312239,"lon":5.368562,"is_reserved":false,"is_disabled":false,"rental_uris":{"android":"levelo://app?vid=d10e2d6c-501d-48fe-a256-b7664a6b99e1","ios":"levelo://app?vid=d10e2d6c-501d-48fe-a256-b7664a6b99e1"},"vehicle_type_id":"4","last_reported":1709190508,"current_range_meters":8400,"station_id":"ce4bgl92rcd13ifvqbq0","pricing_plan_id":"cebpf4jnsgd1na2vs0mg"},{"bike_id":"f23baa4d-a568-4134-a4f8-1fe83f829577","system_id":"levelo_inurba_marseille","lat":43.312239,"lon":5.368562,"is_reserved":false,"is_disabled":false,"rental_uris":{"android":"levelo://app?vid=f23baa4d-a568-4134-a4f8-1fe83f829577","ios":"levelo://app?vid=f23baa4d-a568-4134-a4f8-1fe83f829577"},"vehicle_type_id":"4","last_reported":1709190508,"current_range_meters":23200,"station_id":"ce4bgl92rcd13ifvqbq0","pricing_plan_id":"cebpf4jnsgd1na2vs0mg"},{"bike_id":"03c51a84-cffe-4e3a-a10e-0319ec4a5e63","system_id":"levelo_inurba_marseille","lat":43.309076,"lon":5.368465,"is_reserved":false,"is_disabled":false,"rental_uris":{"android":"levelo://app?vid=03c51a84-cffe-4e3a-a10e-0319ec4a5e63","ios":"levelo://app?vid=03c51a84-cffe-4e3a-a10e-0319ec4a5e63"},"vehicle_type_id":"4","last_reported":1709190508,"current_range_meters":12800,"station_id":"ce4bgn92rcd13ifvqbvg","pricing_plan_id":"cebpf4jnsgd1na2vs0mg"},{"bike_id":"985896e0-4369-4e46-85fe-8c65a6ebf5f7","system_id":"levelo_inurba_marseille","lat":43.309076,"lon":5.368465,"is_reserved":false,"is_disabled":false,"rental_uris":{"android":"levelo://app?vid=985896e0-4369-4e46-85fe-8c65a6ebf5f7","ios":"levelo://app?vid=985896e0-4369-4e46-85fe-8c65a6ebf5f7"},"vehicle_type_id":"4","last_reported":1709190508,"current_range_meters":28400,"station_id":"ce4bgn92rcd13ifvqbvg","pricing_plan_id":"cebpf4jnsgd1na2vs0mg"},{"bike_id":"c3dcce06-fe21-47cf-a9a8-30965157b96d","system_id":"levelo_inurba_marseille","lat":43.309076,"lon":5.368465,"is_reserved":false,"is_disabled":false,"rental_uris":{"android":"levelo://app?vid=c3dcce06-fe21-47cf-a9a8-30965157b96d","ios":"levelo://app?vid=c3dcce06-fe21-47cf-a9a8-30965157b96d"},"vehicle_type_id":"4","last_reported":1709190508,"current_range_meters":28800,"station_id":"ce4bgn92rcd13ifvqbvg","pricing_plan_id":"cebpf4jnsgd1na2vs0mg"},{"bike_id":"b89b19e4-80b5-4e76-b79d-708d90e88f4d","system_id":"levelo_inurba_marseille","lat":43.309076,"lon":5.368465,"is_reserved":false,"is_disabled":false,"rental_uris":{"android":"levelo://app?vid=b89b19e4-80b5-4e76-b79d-708d90e88f4d","ios":"levelo://app?vid=b89b19e4-80b5-4e76-b79d-708d90e88f4d"},"vehicle_type_id":"4","last_reported":1709190508,"current_range_meters":0,"station_id":"ce4bgn92rcd13ifvqbvg","pricing_plan_id":"cebpf4jnsgd1na2vs0mg"},{"bike_id":"07593034-62aa-4871-b988-c0f03192bbd8","system_id":"levelo_inurba_marseille","lat":43.309076,"lon":5.368465,"is_reserved":false,"is_disabled":false,"rental_uris":{"android":"levelo://app?vid=07593034-62aa-4871-b988-c0f03192bbd8","ios":"levelo://app?vid=07593034-62aa-4871-b988-c0f03192bbd8"},"vehicle_type_id":"4","last_reported":1709190508,"current_range_meters":22800,"station_id":"ce4bgn92rcd13ifvqbvg","pricing_plan_id":"cebpf4jnsgd1na2vs0mg"},{"bike_id":"e1ba59e8-9c29-4f4f-8f89-488d6c714756","system_id":"levelo_inurba_marseille","lat":43.309076,"lon":5.368465,"is_reserved":false,"is_disabled":false,"rental_uris":{"android":"levelo://app?vid=e1ba59e8-9c29-4f4f-8f89-488d6c714756","ios":"levelo://app?vid=e1ba59e8-9c29-4f4f-8f89-488d6c714756"},"vehicle_type_id":"4","last_reported":1709190508,"current_range_meters":10000,"station_id":"ce4bgn92rcd13ifvqbvg","pricing_plan_id":"cebpf4jnsgd1na2vs0mg"},{"bike_id":"ff8d275b-6cc8-417b-896d-4d2007c9fe1a","system_id":"levelo_inurba_marseille","lat":43.309076,"lon":5.368465,"is_reserved":false,"is_disabled":false,"rental_uris":{"android":"levelo://app?vid=ff8d275b-6cc8-417b-896d-4d2007c9fe1a","ios":"levelo://app?vid=ff8d275b-6cc8-417b-896d-4d2007c9fe1a"},"vehicle_type_id":"4","last_reported":1709190508,"current_range_meters":31600,"station_id":"ce4bgn92rcd13ifvqbvg","pricing_plan_id":"cebpf4jnsgd1na2vs0mg"},{"bike_id":"268160d0-2e33-421f-9153-7318b340cba1","system_id":"levelo_inurba_marseille","lat":43.314811,"lon":5.373103,"is_reserved":false,"is_disabled":false,"rental_uris":{"android":"levelo://app?vid=268160d0-2e33-421f-9153-7318b340cba1","ios":"levelo://app?vid=268160d0-2e33-421f-9153-7318b340cba1"},"vehicle_type_id":"4","last_reported":1709190508,"current_range_meters":26400,"station_id":"ce4bgt12rcd13ifvqcd0","pricing_plan_id":"cebpf4jnsgd1na2vs0mg"},{"bike_id":"dc12fe7b-6283-4b14-8b69-83b8f7da1777","system_id":"levelo_inurba_marseille","lat":43.309039,"lon":5.371797,"is_reserved":false,"is_disabled":false,"rental_uris":{"android":"levelo://app?vid=dc12fe7b-6283-4b14-8b69-83b8f7da1777","ios":"levelo://app?vid=dc12fe7b-6283-4b14-8b69-83b8f7da1777"},"vehicle_type_id":"4","last_reported":1709190508,"current_range_meters":18400,"station_id":"ce4bguh2rcd13ifvqckg","pricing_plan_id":"cebpf4jnsgd1na2vs0mg"},{"bike_id":"c6fecc98-1c1f-47b1-a3de-427d3f05ef26","system_id":"levelo_inurba_marseille","lat":43.309039,"lon":5.371797,"is_reserved":false,"is_disabled":false,"rental_uris":{"android":"levelo://app?vid=c6fecc98-1c1f-47b1-a3de-427d3f05ef26","ios":"levelo://app?vid=c6fecc98-1c1f-47b1-a3de-427d3f05ef26"},"vehicle_type_id":"4","last_reported":1709190508,"current_range_meters":6800,"station_id":"ce4bguh2rcd13ifvqckg","pricing_plan_id":"cebpf4jnsgd1na2vs0mg"},{"bike_id":"786b3f40-87b3-47a1-b8ad-9aed0db8007f","system_id":"levelo_inurba_marseille","lat":43.309034,"lon":5.371783,"is_reserved":false,"is_disabled":false,"rental_uris":{"android":"levelo://app?vid=786b3f40-87b3-47a1-b8ad-9aed0db8007f","ios":"levelo://app?vid=786b3f40-87b3-47a1-b8ad-9aed0db8007f"},"vehicle_type_id":"4","last_reported":1709190508,"current_range_meters":15200,"station_id":"ce4bguh2rcd13ifvqckg","pricing_plan_id":"cebpf4jnsgd1na2vs0mg"},{"bike_id":"35ba0b67-9884-4889-9669-b8a378b9dad0","system_id":"levelo_inurba_marseille","lat":43.309039,"lon":5.371797,"is_reserved":false,"is_disabled":false,"rental_uris":{"android":"levelo://app?vid=35ba0b67-9884-4889-9669-b8a378b9dad0","ios":"levelo://app?vid=35ba0b67-9884-4889-9669-b8a378b9dad0"},"vehicle_type_id":"4","last_reported":1709190508,"current_range_meters":31600,"station_id":"ce4bguh2rcd13ifvqckg","pricing_plan_id":"cebpf4jnsgd1na2vs0mg"},{"bike_id":"a6f2f72c-ed20-4bcf-a6db-e1bb77bdf548","system_id":"levelo_inurba_marseille","lat":43.309039,"lon":5.371797,"is_reserved":false,"is_disabled":false,"rental_uris":{"android":"levelo://app?vid=a6f2f72c-ed20-4bcf-a6db-e1bb77bdf548","ios":"levelo://app?vid=a6f2f72c-ed20-4bcf-a6db-e1bb77bdf548"},"vehicle_type_id":"4","last_reported":1709190508,"current_range_meters":4400,"station_id":"ce4bguh2rcd13ifvqckg","pricing_plan_id":"cebpf4jnsgd1na2vs0mg"},{"bike_id":"9c0e9e79-3518-464e-bfbd-24840d5f3c19","system_id":"levelo_inurba_marseille","lat":43.309039,"lon":5.371797,"is_reserved":false,"is_disabled":false,"rental_uris":{"android":"levelo://app?vid=9c0e9e79-3518-464e-bfbd-24840d5f3c19","ios":"levelo://app?vid=9c0e9e79-3518-464e-bfbd-24840d5f3c19"},"vehicle_type_id":"4","last_reported":1709190508,"current_range_meters":25200,"station_id":"ce4bguh2rcd13ifvqckg","pricing_plan_id":"cebpf4jnsgd1na2vs0mg"},{"bike_id":"4ce374d8-1527-4171-b1f0-0c50b6303dc6","system_id":"levelo_inurba_marseille","lat":43.309039,"lon":5.371797,"is_reserved":false,"is_disabled":false,"rental_uris":{"android":"levelo://app?vid=4ce374d8-1527-4171-b1f0-0c50b6303dc6","ios":"levelo://app?vid=4ce374d8-1527-4171-b1f0-0c50b6303dc6"},"vehicle_type_id":"4","last_reported":1709190508,"current_range_meters":31600,"station_id":"ce4bguh2rcd13ifvqckg","pricing_plan_id":"cebpf4jnsgd1na2vs0mg"},{"bike_id":"e182d170-3a90-42fc-8e63-3c9202027820","system_id":"levelo_inurba_marseille","lat":43.309034,"lon":5.371783,"is_reserved":false,"is_disabled":false,"rental_uris":{"android":"levelo://app?vid=e182d170-3a90-42fc-8e63-3c9202027820","ios":"levelo://app?vid=e182d170-3a90-42fc-8e63-3c9202027820"},"vehicle_type_id":"4","last_reported":1709190508,"current_range_meters":5200,"station_id":"ce4bguh2rcd13ifvqckg","pricing_plan_id":"cebpf4jnsgd1na2vs0mg"},{"bike_id":"29cbf719-bde7-45d8-8444-b08b520964cc","system_id":"levelo_inurba_marseille","lat":43.309039,"lon":5.371797,"is_reserved":false,"is_disabled":false,"rental_uris":{"android":"levelo://app?vid=29cbf719-bde7-45d8-8444-b08b520964cc","ios":"levelo://app?vid=29cbf719-bde7-45d8-8444-b08b520964cc"},"vehicle_type_id":"4","last_reported":1709190508,"current_range_meters":25600,"station_id":"ce4bguh2rcd13ifvqckg","pricing_plan_id":"cebpf4jnsgd1na2vs0mg"},{"bike_id":"1bd4a497-0f5e-4e9e-87bd-968c02c4d1dc","system_id":"levelo_inurba_marseille","lat":43.309034,"lon":5.371783,"is_reserved":false,"is_disabled":false,"rental_uris":{"android":"levelo://app?vid=1bd4a497-0f5e-4e9e-87bd-968c02c4d1dc","ios":"levelo://app?vid=1bd4a497-0f5e-4e9e-87bd-968c02c4d1dc"},"vehicle_type_id":"4","last_reported":1709190508,"current_range_meters":20000,"station_id":"ce4bguh2rcd13ifvqckg","pricing_plan_id":"cebpf4jnsgd1na2vs0mg"},{"bike_id":"aeacdcdb-f80d-42fb-b4ea-147030a76e8a","system_id":"levelo_inurba_marseille","lat":43.309034,"lon":5.371783,"is_reserved":false,"is_disabled":false,"rental_uris":{"android":"levelo://app?vid=aeacdcdb-f80d-42fb-b4ea-147030a76e8a","ios":"levelo://app?vid=aeacdcdb-f80d-42fb-b4ea-147030a76e8a"},"vehicle_type_id":"4","last_reported":1709190508,"current_range_meters":31200,"station_id":"ce4bguh2rcd13ifvqckg","pricing_plan_id":"cebpf4jnsgd1na2vs0mg"},{"bike_id":"b93bf5bb-f649-4ff9-a1ac-58c2458f0226","system_id":"levelo_inurba_marseille","lat":43.307784,"lon":5.373918,"is_reserved":false,"is_disabled":false,"rental_uris":{"android":"levelo://app?vid=b93bf5bb-f649-4ff9-a1ac-58c2458f0226","ios":"levelo://app?vid=b93bf5bb-f649-4ff9-a1ac-58c2458f0226"},"vehicle_type_id":"4","last_reported":1709190508,"current_range_meters":8000,"station_id":"","pricing_plan_id":"cebpf4jnsgd1na2vs0mg"},{"bike_id":"c7bd8a2f-2a2b-452b-bbf1-97f63074dd4a","system_id":"levelo_inurba_marseille","lat":43.305368,"lon":5.367343,"is_reserved":false,"is_disabled":false,"rental_uris":{"android":"levelo://app?vid=c7bd8a2f-2a2b-452b-bbf1-97f63074dd4a","ios":"levelo://app?vid=c7bd8a2f-2a2b-452b-bbf1-97f63074dd4a"},"vehicle_type_id":"4","last_reported":1709190508,"current_range_meters":14800,"station_id":"ce4bgrp2rcd13ifvqc9g","pricing_plan_id":"cebpf4jnsgd1na2vs0mg"},{"bike_id":"de516dfb-bfd3-45f0-83cd-bcd3c609b41a","system_id":"levelo_inurba_marseille","lat":43.305368,"lon":5.367343,"is_reserved":false,"is_disabled":false,"rental_uris":{"android":"levelo://app?vid=de516dfb-bfd3-45f0-83cd-bcd3c609b41a","ios":"levelo://app?vid=de516dfb-bfd3-45f0-83cd-bcd3c609b41a"},"vehicle_type_id":"4","last_reported":1709190508,"current_range_meters":31200,"station_id":"ce4bgrp2rcd13ifvqc9g","pricing_plan_id":"cebpf4jnsgd1na2vs0mg"},{"bike_id":"31ecd2dc-2a24-4dc8-b756-cb974bd5f9ea","system_id":"levelo_inurba_marseille","lat":43.305368,"lon":5.367343,"is_reserved":false,"is_disabled":false,"rental_uris":{"android":"levelo://app?vid=31ecd2dc-2a24-4dc8-b756-cb974bd5f9ea","ios":"levelo://app?vid=31ecd2dc-2a24-4dc8-b756-cb974bd5f9ea"},"vehicle_type_id":"4","last_reported":1709190508,"current_range_meters":25600,"station_id":"ce4bgrp2rcd13ifvqc9g","pricing_plan_id":"cebpf4jnsgd1na2vs0mg"},{"bike_id":"cddca430-0c62-4c30-9424-9adea8c04e54","system_id":"levelo_inurba_marseille","lat":43.305368,"lon":5.367343,"is_reserved":false,"is_disabled":false,"rental_uris":{"android":"levelo://app?vid=cddca430-0c62-4c30-9424-9adea8c04e54","ios":"levelo://app?vid=cddca430-0c62-4c30-9424-9adea8c04e54"},"vehicle_type_id":"4","last_reported":1709190508,"current_range_meters":25200,"station_id":"ce4bgrp2rcd13ifvqc9g","pricing_plan_id":"cebpf4jnsgd1na2vs0mg"},{"bike_id":"9691c093-030d-45be-92dd-edd6a7d78818","system_id":"levelo_inurba_marseille","lat":43.305706,"lon":5.365654,"is_reserved":false,"is_disabled":false,"rental_uris":{"android":"levelo://app?vid=9691c093-030d-45be-92dd-edd6a7d78818","ios":"levelo://app?vid=9691c093-030d-45be-92dd-edd6a7d78818"},"vehicle_type_id":"4","last_reported":1709190508,"current_range_meters":14800,"station_id":"ce4bgs12rcd13ifvqcag","pricing_plan_id":"cebpf4jnsgd1na2vs0mg"},{"bike_id":"e405fb1e-4001-42f5-bee2-70edd6ed2090","system_id":"levelo_inurba_marseille","lat":43.305706,"lon":5.365654,"is_reserved":false,"is_disabled":false,"rental_uris":{"android":"levelo://app?vid=e405fb1e-4001-42f5-bee2-70edd6ed2090","ios":"levelo://app?vid=e405fb1e-4001-42f5-bee2-70edd6ed2090"},"vehicle_type_id":"4","last_reported":1709190508,"current_range_meters":9600,"station_id":"ce4bgs12rcd13ifvqcag","pricing_plan_id":"cebpf4jnsgd1na2vs0mg"},{"bike_id":"b2c59119-d663-4ce9-9ba7-b4c6d0250f18","system_id":"levelo_inurba_marseille","lat":43.305368,"lon":5.367343,"is_reserved":false,"is_disabled":false,"rental_uris":{"android":"levelo://app?vid=b2c59119-d663-4ce9-9ba7-b4c6d0250f18","ios":"levelo://app?vid=b2c59119-d663-4ce9-9ba7-b4c6d0250f18"},"vehicle_type_id":"4","last_reported":1709190508,"current_range_meters":17200,"station_id":"ce4bgrp2rcd13ifvqc9g","pricing_plan_id":"cebpf4jnsgd1na2vs0mg"},{"bike_id":"b97b2172-d038-454b-b85c-224e297a158a","system_id":"levelo_inurba_marseille","lat":43.305368,"lon":5.367343,"is_reserved":false,"is_disabled":false,"rental_uris":{"android":"levelo://app?vid=b97b2172-d038-454b-b85c-224e297a158a","ios":"levelo://app?vid=b97b2172-d038-454b-b85c-224e297a158a"},"vehicle_type_id":"4","last_reported":1709190508,"current_range_meters":15600,"station_id":"ce4bgrp2rcd13ifvqc9g","pricing_plan_id":"cebpf4jnsgd1na2vs0mg"},{"bike_id":"f2bfe4c0-d592-4eef-8f73-241c750bad46","system_id":"levelo_inurba_marseille","lat":43.305706,"lon":5.365654,"is_reserved":false,"is_disabled":false,"rental_uris":{"android":"levelo://app?vid=f2bfe4c0-d592-4eef-8f73-241c750bad46","ios":"levelo://app?vid=f2bfe4c0-d592-4eef-8f73-241c750bad46"},"vehicle_type_id":"4","last_reported":1709190508,"current_range_meters":23200,"station_id":"ce4bgs12rcd13ifvqcag","pricing_plan_id":"cebpf4jnsgd1na2vs0mg"},{"bike_id":"5244c123-f31e-4e14-a840-4ed0069973ba","system_id":"levelo_inurba_marseille","lat":43.305706,"lon":5.365654,"is_reserved":false,"is_disabled":false,"rental_uris":{"android":"levelo://app?vid=5244c123-f31e-4e14-a840-4ed0069973ba","ios":"levelo://app?vid=5244c123-f31e-4e14-a840-4ed0069973ba"},"vehicle_type_id":"4","last_reported":1709190508,"current_range_meters":30400,"station_id":"ce4bgs12rcd13ifvqcag","pricing_plan_id":"cebpf4jnsgd1na2vs0mg"},{"bike_id":"bf4cf93c-9f18-41f8-a12a-5f134f60557f","system_id":"levelo_inurba_marseille","lat":43.305368,"lon":5.367343,"is_reserved":false,"is_disabled":false,"rental_uris":{"android":"levelo://app?vid=bf4cf93c-9f18-41f8-a12a-5f134f60557f","ios":"levelo://app?vid=bf4cf93c-9f18-41f8-a12a-5f134f60557f"},"vehicle_type_id":"4","last_reported":1709190508,"current_range_meters":18400,"station_id":"ce4bgrp2rcd13ifvqc9g","pricing_plan_id":"cebpf4jnsgd1na2vs0mg"},{"bike_id":"2dd1a939-9914-451f-af3d-3e5af992fa95","system_id":"levelo_inurba_marseille","lat":43.305368,"lon":5.367343,"is_reserved":false,"is_disabled":false,"rental_uris":{"android":"levelo://app?vid=2dd1a939-9914-451f-af3d-3e5af992fa95","ios":"levelo://app?vid=2dd1a939-9914-451f-af3d-3e5af992fa95"},"vehicle_type_id":"4","last_reported":1709190508,"current_range_meters":12800,"station_id":"ce4bgrp2rcd13ifvqc9g","pricing_plan_id":"cebpf4jnsgd1na2vs0mg"},{"bike_id":"a1c9ff74-5bcd-4436-aef3-368a4a9ca47c","system_id":"levelo_inurba_marseille","lat":43.305989,"lon":5.37225,"is_reserved":false,"is_disabled":false,"rental_uris":{"android":"levelo://app?vid=a1c9ff74-5bcd-4436-aef3-368a4a9ca47c","ios":"levelo://app?vid=a1c9ff74-5bcd-4436-aef3-368a4a9ca47c"},"vehicle_type_id":"4","last_reported":1709190508,"current_range_meters":21600,"station_id":"ce4bgqh2rcd13ifvqc4g","pricing_plan_id":"cebpf4jnsgd1na2vs0mg"},{"bike_id":"e4fa92ef-732f-4553-b681-292d019a55da","system_id":"levelo_inurba_marseille","lat":43.305989,"lon":5.37225,"is_reserved":false,"is_disabled":false,"rental_uris":{"android":"levelo://app?vid=e4fa92ef-732f-4553-b681-292d019a55da","ios":"levelo://app?vid=e4fa92ef-732f-4553-b681-292d019a55da"},"vehicle_type_id":"4","last_reported":1709190508,"current_range_meters":24800,"station_id":"ce4bgqh2rcd13ifvqc4g","pricing_plan_id":"cebpf4jnsgd1na2vs0mg"},{"bike_id":"8f5aa1e5-9bc0-4141-8840-2e3165fa0cf9","system_id":"levelo_inurba_marseille","lat":43.311125,"lon":5.377624,"is_reserved":false,"is_disabled":false,"rental_uris":{"android":"levelo://app?vid=8f5aa1e5-9bc0-4141-8840-2e3165fa0cf9","ios":"levelo://app?vid=8f5aa1e5-9bc0-4141-8840-2e3165fa0cf9"},"vehicle_type_id":"4","last_reported":1709190508,"current_range_meters":22800,"station_id":"ce4bgt92rcd13ifvqcg0","pricing_plan_id":"cebpf4jnsgd1na2vs0mg"},{"bike_id":"13e2901f-ed27-467a-bbb8-8fec419d2f8f","system_id":"levelo_inurba_marseille","lat":43.311131,"lon":5.377651,"is_reserved":false,"is_disabled":false,"rental_uris":{"android":"levelo://app?vid=13e2901f-ed27-467a-bbb8-8fec419d2f8f","ios":"levelo://app?vid=13e2901f-ed27-467a-bbb8-8fec419d2f8f"},"vehicle_type_id":"4","last_reported":1709190508,"current_range_meters":3600,"station_id":"ce4bgt92rcd13ifvqcg0","pricing_plan_id":"cebpf4jnsgd1na2vs0mg"},{"bike_id":"dafbe0f0-7539-439d-a825-355300f9afaa","system_id":"levelo_inurba_marseille","lat":43.311125,"lon":5.377624,"is_reserved":false,"is_disabled":false,"rental_uris":{"android":"levelo://app?vid=dafbe0f0-7539-439d-a825-355300f9afaa","ios":"levelo://app?vid=dafbe0f0-7539-439d-a825-355300f9afaa"},"vehicle_type_id":"4","last_reported":1709190508,"current_range_meters":10000,"station_id":"ce4bgt92rcd13ifvqcg0","pricing_plan_id":"cebpf4jnsgd1na2vs0mg"},{"bike_id":"1c57786c-18fb-4da8-85d9-e23b389c8b42","system_id":"levelo_inurba_marseille","lat":43.311131,"lon":5.377651,"is_reserved":false,"is_disabled":false,"rental_uris":{"android":"levelo://app?vid=1c57786c-18fb-4da8-85d9-e23b389c8b42","ios":"levelo://app?vid=1c57786c-18fb-4da8-85d9-e23b389c8b42"},"vehicle_type_id":"4","last_reported":1709190508,"current_range_meters":13200,"station_id":"ce4bgt92rcd13ifvqcg0","pricing_plan_id":"cebpf4jnsgd1na2vs0mg"},{"bike_id":"f486e532-8153-47c3-90cb-dd7cc604dcbb","system_id":"levelo_inurba_marseille","lat":43.31119,"lon":5.377622,"is_reserved":false,"is_disabled":false,"rental_uris":{"android":"levelo://app?vid=f486e532-8153-47c3-90cb-dd7cc604dcbb","ios":"levelo://app?vid=f486e532-8153-47c3-90cb-dd7cc604dcbb"},"vehicle_type_id":"4","last_reported":1709190508,"current_range_meters":7200,"station_id":"ce4bgt92rcd13ifvqcg0","pricing_plan_id":"cebpf4jnsgd1na2vs0mg"},{"bike_id":"4f8aa132-b9da-47bc-ab01-8129f16f4d7c","system_id":"levelo_inurba_marseille","lat":43.311205,"lon":5.377634,"is_reserved":false,"is_disabled":false,"rental_uris":{"android":"levelo://app?vid=4f8aa132-b9da-47bc-ab01-8129f16f4d7c","ios":"levelo://app?vid=4f8aa132-b9da-47bc-ab01-8129f16f4d7c"},"vehicle_type_id":"4","last_reported":1709190508,"current_range_meters":6000,"station_id":"ce4bgt92rcd13ifvqcg0","pricing_plan_id":"cebpf4jnsgd1na2vs0mg"},{"bike_id":"99153880-7a12-4359-852c-d67a498b2ea8","system_id":"levelo_inurba_marseille","lat":43.311125,"lon":5.377624,"is_reserved":false,"is_disabled":false,"rental_uris":{"android":"levelo://app?vid=99153880-7a12-4359-852c-d67a498b2ea8","ios":"levelo://app?vid=99153880-7a12-4359-852c-d67a498b2ea8"},"vehicle_type_id":"4","last_reported":1709190508,"current_range_meters":17200,"station_id":"ce4bgt92rcd13ifvqcg0","pricing_plan_id":"cebpf4jnsgd1na2vs0mg"},{"bike_id":"0f2fa234-0819-45a2-bb7f-b82046c0b206","system_id":"levelo_inurba_marseille","lat":43.311189,"lon":5.37768,"is_reserved":false,"is_disabled":false,"rental_uris":{"android":"levelo://app?vid=0f2fa234-0819-45a2-bb7f-b82046c0b206","ios":"levelo://app?vid=0f2fa234-0819-45a2-bb7f-b82046c0b206"},"vehicle_type_id":"4","last_reported":1709190508,"current_range_meters":12400,"station_id":"ce4bgt92rcd13ifvqcg0","pricing_plan_id":"cebpf4jnsgd1na2vs0mg"},{"bike_id":"01d08735-493f-4ad5-bbec-4f790e2332ec","system_id":"levelo_inurba_marseille","lat":43.311131,"lon":5.377651,"is_reserved":false,"is_disabled":false,"rental_uris":{"android":"levelo://app?vid=01d08735-493f-4ad5-bbec-4f790e2332ec","ios":"levelo://app?vid=01d08735-493f-4ad5-bbec-4f790e2332ec"},"vehicle_type_id":"4","last_reported":1709190508,"current_range_meters":12000,"station_id":"ce4bgt92rcd13ifvqcg0","pricing_plan_id":"cebpf4jnsgd1na2vs0mg"},{"bike_id":"906fb2d5-0c99-438b-af11-80ea98413451","system_id":"levelo_inurba_marseille","lat":43.3112,"lon":5.37772,"is_reserved":false,"is_disabled":false,"rental_uris":{"android":"levelo://app?vid=906fb2d5-0c99-438b-af11-80ea98413451","ios":"levelo://app?vid=906fb2d5-0c99-438b-af11-80ea98413451"},"vehicle_type_id":"4","last_reported":1709190508,"current_range_meters":1200,"station_id":"ce4bgt92rcd13ifvqcg0","pricing_plan_id":"cebpf4jnsgd1na2vs0mg"},{"bike_id":"bbf849f5-10d9-4a37-a11c-12f52cbe8d38","system_id":"levelo_inurba_marseille","lat":43.307945,"lon":5.376487,"is_reserved":false,"is_disabled":false,"rental_uris":{"android":"levelo://app?vid=bbf849f5-10d9-4a37-a11c-12f52cbe8d38","ios":"levelo://app?vid=bbf849f5-10d9-4a37-a11c-12f52cbe8d38"},"vehicle_type_id":"4","last_reported":1709190508,"current_range_meters":28800,"station_id":"ce4bgv92rcd13ifvqcq0","pricing_plan_id":"cebpf4jnsgd1na2vs0mg"},{"bike_id":"f89e61c5-67dc-4a3a-9829-719379cbb2ba","system_id":"levelo_inurba_marseille","lat":43.307945,"lon":5.376487,"is_reserved":false,"is_disabled":false,"rental_uris":{"android":"levelo://app?vid=f89e61c5-67dc-4a3a-9829-719379cbb2ba","ios":"levelo://app?vid=f89e61c5-67dc-4a3a-9829-719379cbb2ba"},"vehicle_type_id":"4","last_reported":1709190508,"current_range_meters":31200,"station_id":"ce4bgv92rcd13ifvqcq0","pricing_plan_id":"cebpf4jnsgd1na2vs0mg"},{"bike_id":"b801cf7a-92b2-43ea-81c7-83e3ed973cab","system_id":"levelo_inurba_marseille","lat":43.307945,"lon":5.376487,"is_reserved":false,"is_disabled":false,"rental_uris":{"android":"levelo://app?vid=b801cf7a-92b2-43ea-81c7-83e3ed973cab","ios":"levelo://app?vid=b801cf7a-92b2-43ea-81c7-83e3ed973cab"},"vehicle_type_id":"4","last_reported":1709190508,"current_range_meters":30400,"station_id":"ce4bgv92rcd13ifvqcq0","pricing_plan_id":"cebpf4jnsgd1na2vs0mg"},{"bike_id":"315a9786-50c2-4381-8c11-10c4f8a6325d","system_id":"levelo_inurba_marseille","lat":43.307945,"lon":5.376487,"is_reserved":false,"is_disabled":false,"rental_uris":{"android":"levelo://app?vid=315a9786-50c2-4381-8c11-10c4f8a6325d","ios":"levelo://app?vid=315a9786-50c2-4381-8c11-10c4f8a6325d"},"vehicle_type_id":"4","last_reported":1709190508,"current_range_meters":29200,"station_id":"ce4bgv92rcd13ifvqcq0","pricing_plan_id":"cebpf4jnsgd1na2vs0mg"},{"bike_id":"ce74ae47-c46f-48c5-8887-a9092bd22d15","system_id":"levelo_inurba_marseille","lat":43.307945,"lon":5.376487,"is_reserved":false,"is_disabled":false,"rental_uris":{"android":"levelo://app?vid=ce74ae47-c46f-48c5-8887-a9092bd22d15","ios":"levelo://app?vid=ce74ae47-c46f-48c5-8887-a9092bd22d15"},"vehicle_type_id":"4","last_reported":1709190508,"current_range_meters":3200,"station_id":"ce4bgv92rcd13ifvqcq0","pricing_plan_id":"cebpf4jnsgd1na2vs0mg"},{"bike_id":"b2fb9c86-c541-4498-b202-4d22d283bacd","system_id":"levelo_inurba_marseille","lat":43.310671,"lon":5.37857,"is_reserved":false,"is_disabled":false,"rental_uris":{"android":"levelo://app?vid=b2fb9c86-c541-4498-b202-4d22d283bacd","ios":"levelo://app?vid=b2fb9c86-c541-4498-b202-4d22d283bacd"},"vehicle_type_id":"4","last_reported":1709190508,"current_range_meters":19600,"station_id":"","pricing_plan_id":"cebpf4jnsgd1na2vs0mg"},{"bike_id":"974c4b67-1f70-4271-a8a4-e9dfa167a4a2","system_id":"levelo_inurba_marseille","lat":43.316974,"lon":5.377407,"is_reserved":false,"is_disabled":false,"rental_uris":{"android":"levelo://app?vid=974c4b67-1f70-4271-a8a4-e9dfa167a4a2","ios":"levelo://app?vid=974c4b67-1f70-4271-a8a4-e9dfa167a4a2"},"vehicle_type_id":"4","last_reported":1709190508,"current_range_meters":30800,"station_id":"ce4bgth2rcd13ifvqch0","pricing_plan_id":"cebpf4jnsgd1na2vs0mg"},{"bike_id":"067643dc-cede-458e-b74f-2ed1c99f1f21","system_id":"levelo_inurba_marseille","lat":43.317075,"lon":5.377367,"is_reserved":false,"is_disabled":false,"rental_uris":{"android":"levelo://app?vid=067643dc-cede-458e-b74f-2ed1c99f1f21","ios":"levelo://app?vid=067643dc-cede-458e-b74f-2ed1c99f1f21"},"vehicle_type_id":"4","last_reported":1709190508,"current_range_meters":0,"station_id":"ce4bgth2rcd13ifvqch0","pricing_plan_id":"cebpf4jnsgd1na2vs0mg"},{"bike_id":"53a1515e-cb2e-4a60-ac72-67976ff8ac45","system_id":"levelo_inurba_marseille","lat":43.317063,"lon":5.377487,"is_reserved":false,"is_disabled":false,"rental_uris":{"android":"levelo://app?vid=53a1515e-cb2e-4a60-ac72-67976ff8ac45","ios":"levelo://app?vid=53a1515e-cb2e-4a60-ac72-67976ff8ac45"},"vehicle_type_id":"4","last_reported":1709190508,"current_range_meters":28000,"station_id":"ce4bgth2rcd13ifvqch0","pricing_plan_id":"cebpf4jnsgd1na2vs0mg"},{"bike_id":"b52ef2eb-138d-494c-9874-df123a2d8179","system_id":"levelo_inurba_marseille","lat":43.317075,"lon":5.377367,"is_reserved":false,"is_disabled":false,"rental_uris":{"android":"levelo://app?vid=b52ef2eb-138d-494c-9874-df123a2d8179","ios":"levelo://app?vid=b52ef2eb-138d-494c-9874-df123a2d8179"},"vehicle_type_id":"4","last_reported":1709190508,"current_range_meters":29200,"station_id":"ce4bgth2rcd13ifvqch0","pricing_plan_id":"cebpf4jnsgd1na2vs0mg"},{"bike_id":"5553d1e1-067c-42bb-8be9-33ad13e39b04","system_id":"levelo_inurba_marseille","lat":43.317075,"lon":5.377367,"is_reserved":false,"is_disabled":false,"rental_uris":{"android":"levelo://app?vid=5553d1e1-067c-42bb-8be9-33ad13e39b04","ios":"levelo://app?vid=5553d1e1-067c-42bb-8be9-33ad13e39b04"},"vehicle_type_id":"4","last_reported":1709190508,"current_range_meters":31200,"station_id":"ce4bgth2rcd13ifvqch0","pricing_plan_id":"cebpf4jnsgd1na2vs0mg"},{"bike_id":"a3b5adde-b6ae-4764-a239-47305abe482a","system_id":"levelo_inurba_marseille","lat":43.317075,"lon":5.377367,"is_reserved":false,"is_disabled":false,"rental_uris":{"android":"levelo://app?vid=a3b5adde-b6ae-4764-a239-47305abe482a","ios":"levelo://app?vid=a3b5adde-b6ae-4764-a239-47305abe482a"},"vehicle_type_id":"4","last_reported":1709190508,"current_range_meters":27200,"station_id":"ce4bgth2rcd13ifvqch0","pricing_plan_id":"cebpf4jnsgd1na2vs0mg"},{"bike_id":"218c66bf-c1b4-448a-bc98-40d3efaa9527","system_id":"levelo_inurba_marseille","lat":43.303046,"lon":5.368981,"is_reserved":false,"is_disabled":false,"rental_uris":{"android":"levelo://app?vid=218c66bf-c1b4-448a-bc98-40d3efaa9527","ios":"levelo://app?vid=218c66bf-c1b4-448a-bc98-40d3efaa9527"},"vehicle_type_id":"4","last_reported":1709190508,"current_range_meters":23600,"station_id":"ce4bgqh2rcd13ifvqc5g","pricing_plan_id":"cebpf4jnsgd1na2vs0mg"},{"bike_id":"7a37dc31-432e-4c6f-bd8c-d6033030794f","system_id":"levelo_inurba_marseille","lat":43.303046,"lon":5.368981,"is_reserved":false,"is_disabled":false,"rental_uris":{"android":"levelo://app?vid=7a37dc31-432e-4c6f-bd8c-d6033030794f","ios":"levelo://app?vid=7a37dc31-432e-4c6f-bd8c-d6033030794f"},"vehicle_type_id":"4","last_reported":1709190508,"current_range_meters":31200,"station_id":"ce4bgqh2rcd13ifvqc5g","pricing_plan_id":"cebpf4jnsgd1na2vs0mg"},{"bike_id":"78c29e5f-c868-4cf1-90e1-7b60b95220ff","system_id":"levelo_inurba_marseille","lat":43.315273,"lon":5.380373,"is_reserved":false,"is_disabled":false,"rental_uris":{"android":"levelo://app?vid=78c29e5f-c868-4cf1-90e1-7b60b95220ff","ios":"levelo://app?vid=78c29e5f-c868-4cf1-90e1-7b60b95220ff"},"vehicle_type_id":"4","last_reported":1709190508,"current_range_meters":11200,"station_id":"ce4bhsp2rcd13ifvqi50","pricing_plan_id":"cebpf4jnsgd1na2vs0mg"},{"bike_id":"26a7f886-fca9-4dc9-91d8-0ae613d6d4f3","system_id":"levelo_inurba_marseille","lat":43.292311,"lon":5.360731,"is_reserved":false,"is_disabled":false,"rental_uris":{"android":"levelo://app?vid=26a7f886-fca9-4dc9-91d8-0ae613d6d4f3","ios":"levelo://app?vid=26a7f886-fca9-4dc9-91d8-0ae613d6d4f3"},"vehicle_type_id":"4","last_reported":1709190508,"current_range_meters":4000,"station_id":"ce4bhbh2rcd13ifvqeqg","pricing_plan_id":"cebpf4jnsgd1na2vs0mg"},{"bike_id":"5d718f0f-2b5a-4472-a7b7-67a5a53695b9","system_id":"levelo_inurba_marseille","lat":43.31596,"lon":5.38135,"is_reserved":false,"is_disabled":false,"rental_uris":{"android":"levelo://app?vid=5d718f0f-2b5a-4472-a7b7-67a5a53695b9","ios":"levelo://app?vid=5d718f0f-2b5a-4472-a7b7-67a5a53695b9"},"vehicle_type_id":"4","last_reported":1709190508,"current_range_meters":18800,"station_id":"","pricing_plan_id":"cebpf4jnsgd1na2vs0mg"},{"bike_id":"6b58f745-ec58-4be1-bbaf-949a5dff48a4","system_id":"levelo_inurba_marseille","lat":43.301939,"lon":5.366286,"is_reserved":false,"is_disabled":false,"rental_uris":{"android":"levelo://app?vid=6b58f745-ec58-4be1-bbaf-949a5dff48a4","ios":"levelo://app?vid=6b58f745-ec58-4be1-bbaf-949a5dff48a4"},"vehicle_type_id":"4","last_reported":1709190508,"current_range_meters":0,"station_id":"ce4bgrh2rcd13ifvqc8g","pricing_plan_id":"cebpf4jnsgd1na2vs0mg"},{"bike_id":"ee059c51-e592-4afb-a297-734214d3baa3","system_id":"levelo_inurba_marseille","lat":43.308012,"lon":5.381511,"is_reserved":false,"is_disabled":false,"rental_uris":{"android":"levelo://app?vid=ee059c51-e592-4afb-a297-734214d3baa3","ios":"levelo://app?vid=ee059c51-e592-4afb-a297-734214d3baa3"},"vehicle_type_id":"4","last_reported":1709190508,"current_range_meters":11600,"station_id":"ce4bgt12rcd13ifvqce0","pricing_plan_id":"cebpf4jnsgd1na2vs0mg"},{"bike_id":"cee599ef-1c9c-4933-9dd3-c6c882ab6ead","system_id":"levelo_inurba_marseille","lat":43.308012,"lon":5.381511,"is_reserved":false,"is_disabled":false,"rental_uris":{"android":"levelo://app?vid=cee599ef-1c9c-4933-9dd3-c6c882ab6ead","ios":"levelo://app?vid=cee599ef-1c9c-4933-9dd3-c6c882ab6ead"},"vehicle_type_id":"4","last_reported":1709190508,"current_range_meters":24400,"station_id":"ce4bgt12rcd13ifvqce0","pricing_plan_id":"cebpf4jnsgd1na2vs0mg"},{"bike_id":"e4a84e54-27be-483d-8088-79d9fe94c154","system_id":"levelo_inurba_marseille","lat":43.308012,"lon":5.381511,"is_reserved":false,"is_disabled":false,"rental_uris":{"android":"levelo://app?vid=e4a84e54-27be-483d-8088-79d9fe94c154","ios":"levelo://app?vid=e4a84e54-27be-483d-8088-79d9fe94c154"},"vehicle_type_id":"4","last_reported":1709190508,"current_range_meters":3600,"station_id":"ce4bgt12rcd13ifvqce0","pricing_plan_id":"cebpf4jnsgd1na2vs0mg"},{"bike_id":"ccf41000-310d-4e80-b054-1c6c1194d929","system_id":"levelo_inurba_marseille","lat":43.308012,"lon":5.381511,"is_reserved":false,"is_disabled":false,"rental_uris":{"android":"levelo://app?vid=ccf41000-310d-4e80-b054-1c6c1194d929","ios":"levelo://app?vid=ccf41000-310d-4e80-b054-1c6c1194d929"},"vehicle_type_id":"4","last_reported":1709190508,"current_range_meters":23600,"station_id":"ce4bgt12rcd13ifvqce0","pricing_plan_id":"cebpf4jnsgd1na2vs0mg"},{"bike_id":"bfefbc54-4c70-4807-a3b7-f712a04771fd","system_id":"levelo_inurba_marseille","lat":43.308012,"lon":5.381511,"is_reserved":false,"is_disabled":false,"rental_uris":{"android":"levelo://app?vid=bfefbc54-4c70-4807-a3b7-f712a04771fd","ios":"levelo://app?vid=bfefbc54-4c70-4807-a3b7-f712a04771fd"},"vehicle_type_id":"4","last_reported":1709190508,"current_range_meters":31600,"station_id":"ce4bgt12rcd13ifvqce0","pricing_plan_id":"cebpf4jnsgd1na2vs0mg"},{"bike_id":"2eb51b90-4de7-4aa0-a44e-a07f8a807e44","system_id":"levelo_inurba_marseille","lat":43.308012,"lon":5.381511,"is_reserved":false,"is_disabled":false,"rental_uris":{"android":"levelo://app?vid=2eb51b90-4de7-4aa0-a44e-a07f8a807e44","ios":"levelo://app?vid=2eb51b90-4de7-4aa0-a44e-a07f8a807e44"},"vehicle_type_id":"4","last_reported":1709190508,"current_range_meters":25200,"station_id":"ce4bgt12rcd13ifvqce0","pricing_plan_id":"cebpf4jnsgd1na2vs0mg"},{"bike_id":"3ccdb9d7-ee5e-48ef-b5c3-3330608502dd","system_id":"levelo_inurba_marseille","lat":43.308012,"lon":5.381511,"is_reserved":false,"is_disabled":false,"rental_uris":{"android":"levelo://app?vid=3ccdb9d7-ee5e-48ef-b5c3-3330608502dd","ios":"levelo://app?vid=3ccdb9d7-ee5e-48ef-b5c3-3330608502dd"},"vehicle_type_id":"4","last_reported":1709190508,"current_range_meters":4400,"station_id":"ce4bgt12rcd13ifvqce0","pricing_plan_id":"cebpf4jnsgd1na2vs0mg"},{"bike_id":"95ca83d0-5aca-4394-8501-8245caeac4ea","system_id":"levelo_inurba_marseille","lat":43.308012,"lon":5.381511,"is_reserved":false,"is_disabled":false,"rental_uris":{"android":"levelo://app?vid=95ca83d0-5aca-4394-8501-8245caeac4ea","ios":"levelo://app?vid=95ca83d0-5aca-4394-8501-8245caeac4ea"},"vehicle_type_id":"4","last_reported":1709190508,"current_range_meters":21200,"station_id":"ce4bgt12rcd13ifvqce0","pricing_plan_id":"cebpf4jnsgd1na2vs0mg"},{"bike_id":"ee7394f9-7116-4d78-94a0-ef16ec54d0d5","system_id":"levelo_inurba_marseille","lat":43.308012,"lon":5.381511,"is_reserved":false,"is_disabled":false,"rental_uris":{"android":"levelo://app?vid=ee7394f9-7116-4d78-94a0-ef16ec54d0d5","ios":"levelo://app?vid=ee7394f9-7116-4d78-94a0-ef16ec54d0d5"},"vehicle_type_id":"4","last_reported":1709190508,"current_range_meters":23600,"station_id":"ce4bgt12rcd13ifvqce0","pricing_plan_id":"cebpf4jnsgd1na2vs0mg"},{"bike_id":"8e4f76ec-8635-4cef-8dca-64db0321c8ee","system_id":"levelo_inurba_marseille","lat":43.304606,"lon":5.379026,"is_reserved":false,"is_disabled":false,"rental_uris":{"android":"levelo://app?vid=8e4f76ec-8635-4cef-8dca-64db0321c8ee","ios":"levelo://app?vid=8e4f76ec-8635-4cef-8dca-64db0321c8ee"},"vehicle_type_id":"4","last_reported":1709190508,"current_range_meters":14800,"station_id":"ce4bgup2rcd13ifvqcn0","pricing_plan_id":"cebpf4jnsgd1na2vs0mg"},{"bike_id":"09cd0ed1-50ef-4ad8-ab82-23633ed71d65","system_id":"levelo_inurba_marseille","lat":43.304606,"lon":5.379026,"is_reserved":false,"is_disabled":false,"rental_uris":{"android":"levelo://app?vid=09cd0ed1-50ef-4ad8-ab82-23633ed71d65","ios":"levelo://app?vid=09cd0ed1-50ef-4ad8-ab82-23633ed71d65"},"vehicle_type_id":"4","last_reported":1709190508,"current_range_meters":26000,"station_id":"ce4bgup2rcd13ifvqcn0","pricing_plan_id":"cebpf4jnsgd1na2vs0mg"},{"bike_id":"5bb70cad-2dd0-42b8-959b-038095bd616e","system_id":"levelo_inurba_marseille","lat":43.304606,"lon":5.379026,"is_reserved":false,"is_disabled":false,"rental_uris":{"android":"levelo://app?vid=5bb70cad-2dd0-42b8-959b-038095bd616e","ios":"levelo://app?vid=5bb70cad-2dd0-42b8-959b-038095bd616e"},"vehicle_type_id":"4","last_reported":1709190508,"current_range_meters":18400,"station_id":"ce4bgup2rcd13ifvqcn0","pricing_plan_id":"cebpf4jnsgd1na2vs0mg"},{"bike_id":"7955fba1-fd24-48c4-bf47-aba4de46f05d","system_id":"levelo_inurba_marseille","lat":43.304606,"lon":5.379026,"is_reserved":false,"is_disabled":false,"rental_uris":{"android":"levelo://app?vid=7955fba1-fd24-48c4-bf47-aba4de46f05d","ios":"levelo://app?vid=7955fba1-fd24-48c4-bf47-aba4de46f05d"},"vehicle_type_id":"4","last_reported":1709190508,"current_range_meters":5600,"station_id":"ce4bgup2rcd13ifvqcn0","pricing_plan_id":"cebpf4jnsgd1na2vs0mg"},{"bike_id":"441571c9-3579-430b-97d3-c87c2e86eb32","system_id":"levelo_inurba_marseille","lat":43.304606,"lon":5.379026,"is_reserved":false,"is_disabled":false,"rental_uris":{"android":"levelo://app?vid=441571c9-3579-430b-97d3-c87c2e86eb32","ios":"levelo://app?vid=441571c9-3579-430b-97d3-c87c2e86eb32"},"vehicle_type_id":"4","last_reported":1709190508,"current_range_meters":9600,"station_id":"ce4bgup2rcd13ifvqcn0","pricing_plan_id":"cebpf4jnsgd1na2vs0mg"},{"bike_id":"58408cb3-1060-4793-97b3-7be6ab29b06b","system_id":"levelo_inurba_marseille","lat":43.30462,"lon":5.379,"is_reserved":false,"is_disabled":false,"rental_uris":{"android":"levelo://app?vid=58408cb3-1060-4793-97b3-7be6ab29b06b","ios":"levelo://app?vid=58408cb3-1060-4793-97b3-7be6ab29b06b"},"vehicle_type_id":"4","last_reported":1709190508,"current_range_meters":26000,"station_id":"ce4bgup2rcd13ifvqcn0","pricing_plan_id":"cebpf4jnsgd1na2vs0mg"},{"bike_id":"b046f895-1925-42fd-bba9-f6b94c6e5e50","system_id":"levelo_inurba_marseille","lat":43.304606,"lon":5.379026,"is_reserved":false,"is_disabled":false,"rental_uris":{"android":"levelo://app?vid=b046f895-1925-42fd-bba9-f6b94c6e5e50","ios":"levelo://app?vid=b046f895-1925-42fd-bba9-f6b94c6e5e50"},"vehicle_type_id":"4","last_reported":1709190508,"current_range_meters":27600,"station_id":"ce4bgup2rcd13ifvqcn0","pricing_plan_id":"cebpf4jnsgd1na2vs0mg"},{"bike_id":"2bf9d27f-1c19-4326-8cd9-59a613efd66a","system_id":"levelo_inurba_marseille","lat":43.304606,"lon":5.379026,"is_reserved":false,"is_disabled":false,"rental_uris":{"android":"levelo://app?vid=2bf9d27f-1c19-4326-8cd9-59a613efd66a","ios":"levelo://app?vid=2bf9d27f-1c19-4326-8cd9-59a613efd66a"},"vehicle_type_id":"4","last_reported":1709190508,"current_range_meters":16400,"station_id":"ce4bgup2rcd13ifvqcn0","pricing_plan_id":"cebpf4jnsgd1na2vs0mg"},{"bike_id":"2f4ce9fc-ef32-452a-b4a1-31b0f48b2338","system_id":"levelo_inurba_marseille","lat":43.304606,"lon":5.379026,"is_reserved":false,"is_disabled":false,"rental_uris":{"android":"levelo://app?vid=2f4ce9fc-ef32-452a-b4a1-31b0f48b2338","ios":"levelo://app?vid=2f4ce9fc-ef32-452a-b4a1-31b0f48b2338"},"vehicle_type_id":"4","last_reported":1709190508,"current_range_meters":3200,"station_id":"ce4bgup2rcd13ifvqcn0","pricing_plan_id":"cebpf4jnsgd1na2vs0mg"},{"bike_id":"fe08b0d6-3e66-490e-bd48-d6fa04d8e51c","system_id":"levelo_inurba_marseille","lat":43.304606,"lon":5.379026,"is_reserved":false,"is_disabled":false,"rental_uris":{"android":"levelo://app?vid=fe08b0d6-3e66-490e-bd48-d6fa04d8e51c","ios":"levelo://app?vid=fe08b0d6-3e66-490e-bd48-d6fa04d8e51c"},"vehicle_type_id":"4","last_reported":1709190508,"current_range_meters":25200,"station_id":"ce4bgup2rcd13ifvqcn0","pricing_plan_id":"cebpf4jnsgd1na2vs0mg"},{"bike_id":"edb27c6e-5382-492c-8564-aa12c9b8798f","system_id":"levelo_inurba_marseille","lat":43.304606,"lon":5.379026,"is_reserved":false,"is_disabled":false,"rental_uris":{"android":"levelo://app?vid=edb27c6e-5382-492c-8564-aa12c9b8798f","ios":"levelo://app?vid=edb27c6e-5382-492c-8564-aa12c9b8798f"},"vehicle_type_id":"4","last_reported":1709190508,"current_range_meters":2000,"station_id":"ce4bgup2rcd13ifvqcn0","pricing_plan_id":"cebpf4jnsgd1na2vs0mg"},{"bike_id":"72cb2463-32bf-4a7e-8763-d4785fe0cdb0","system_id":"levelo_inurba_marseille","lat":43.304606,"lon":5.379026,"is_reserved":false,"is_disabled":false,"rental_uris":{"android":"levelo://app?vid=72cb2463-32bf-4a7e-8763-d4785fe0cdb0","ios":"levelo://app?vid=72cb2463-32bf-4a7e-8763-d4785fe0cdb0"},"vehicle_type_id":"4","last_reported":1709190508,"current_range_meters":29200,"station_id":"ce4bgup2rcd13ifvqcn0","pricing_plan_id":"cebpf4jnsgd1na2vs0mg"},{"bike_id":"c85a60e1-1d84-4bc6-968b-59bf615f8fbc","system_id":"levelo_inurba_marseille","lat":43.304606,"lon":5.379026,"is_reserved":false,"is_disabled":false,"rental_uris":{"android":"levelo://app?vid=c85a60e1-1d84-4bc6-968b-59bf615f8fbc","ios":"levelo://app?vid=c85a60e1-1d84-4bc6-968b-59bf615f8fbc"},"vehicle_type_id":"4","last_reported":1709190508,"current_range_meters":17600,"station_id":"ce4bgup2rcd13ifvqcn0","pricing_plan_id":"cebpf4jnsgd1na2vs0mg"},{"bike_id":"bdc4f890-a47b-4e5e-8bbb-e051977c5084","system_id":"levelo_inurba_marseille","lat":43.304606,"lon":5.379026,"is_reserved":false,"is_disabled":false,"rental_uris":{"android":"levelo://app?vid=bdc4f890-a47b-4e5e-8bbb-e051977c5084","ios":"levelo://app?vid=bdc4f890-a47b-4e5e-8bbb-e051977c5084"},"vehicle_type_id":"4","last_reported":1709190508,"current_range_meters":26400,"station_id":"ce4bgup2rcd13ifvqcn0","pricing_plan_id":"cebpf4jnsgd1na2vs0mg"},{"bike_id":"cc175429-f460-4618-a1c6-ace9c8892280","system_id":"levelo_inurba_marseille","lat":43.304606,"lon":5.379026,"is_reserved":false,"is_disabled":false,"rental_uris":{"android":"levelo://app?vid=cc175429-f460-4618-a1c6-ace9c8892280","ios":"levelo://app?vid=cc175429-f460-4618-a1c6-ace9c8892280"},"vehicle_type_id":"4","last_reported":1709190508,"current_range_meters":8400,"station_id":"ce4bgup2rcd13ifvqcn0","pricing_plan_id":"cebpf4jnsgd1na2vs0mg"},{"bike_id":"31242039-b590-49ef-a2cc-0ac5a2e0c30f","system_id":"levelo_inurba_marseille","lat":43.304606,"lon":5.379026,"is_reserved":false,"is_disabled":false,"rental_uris":{"android":"levelo://app?vid=31242039-b590-49ef-a2cc-0ac5a2e0c30f","ios":"levelo://app?vid=31242039-b590-49ef-a2cc-0ac5a2e0c30f"},"vehicle_type_id":"4","last_reported":1709190508,"current_range_meters":27600,"station_id":"ce4bgup2rcd13ifvqcn0","pricing_plan_id":"cebpf4jnsgd1na2vs0mg"},{"bike_id":"212f4d6a-3681-4190-b8ac-9abc24b7c392","system_id":"levelo_inurba_marseille","lat":43.304606,"lon":5.379026,"is_reserved":false,"is_disabled":false,"rental_uris":{"android":"levelo://app?vid=212f4d6a-3681-4190-b8ac-9abc24b7c392","ios":"levelo://app?vid=212f4d6a-3681-4190-b8ac-9abc24b7c392"},"vehicle_type_id":"4","last_reported":1709190508,"current_range_meters":21600,"station_id":"ce4bgup2rcd13ifvqcn0","pricing_plan_id":"cebpf4jnsgd1na2vs0mg"},{"bike_id":"0279b964-001c-4abb-8627-e49d48abdb8b","system_id":"levelo_inurba_marseille","lat":43.304606,"lon":5.379026,"is_reserved":false,"is_disabled":false,"rental_uris":{"android":"levelo://app?vid=0279b964-001c-4abb-8627-e49d48abdb8b","ios":"levelo://app?vid=0279b964-001c-4abb-8627-e49d48abdb8b"},"vehicle_type_id":"4","last_reported":1709190508,"current_range_meters":27600,"station_id":"ce4bgup2rcd13ifvqcn0","pricing_plan_id":"cebpf4jnsgd1na2vs0mg"},{"bike_id":"38b1606b-93b1-4da3-b482-5e53096a952f","system_id":"levelo_inurba_marseille","lat":43.304606,"lon":5.379026,"is_reserved":false,"is_disabled":false,"rental_uris":{"android":"levelo://app?vid=38b1606b-93b1-4da3-b482-5e53096a952f","ios":"levelo://app?vid=38b1606b-93b1-4da3-b482-5e53096a952f"},"vehicle_type_id":"4","last_reported":1709190508,"current_range_meters":22400,"station_id":"ce4bgup2rcd13ifvqcn0","pricing_plan_id":"cebpf4jnsgd1na2vs0mg"},{"bike_id":"cc195d7f-e420-465b-a7f8-987cea8e2cbb","system_id":"levelo_inurba_marseille","lat":43.304606,"lon":5.379026,"is_reserved":false,"is_disabled":false,"rental_uris":{"android":"levelo://app?vid=cc195d7f-e420-465b-a7f8-987cea8e2cbb","ios":"levelo://app?vid=cc195d7f-e420-465b-a7f8-987cea8e2cbb"},"vehicle_type_id":"4","last_reported":1709190508,"current_range_meters":25200,"station_id":"ce4bgup2rcd13ifvqcn0","pricing_plan_id":"cebpf4jnsgd1na2vs0mg"},{"bike_id":"6d8d8ecc-ed54-4ed4-aa8e-34b97d00422f","system_id":"levelo_inurba_marseille","lat":43.304606,"lon":5.379026,"is_reserved":false,"is_disabled":false,"rental_uris":{"android":"levelo://app?vid=6d8d8ecc-ed54-4ed4-aa8e-34b97d00422f","ios":"levelo://app?vid=6d8d8ecc-ed54-4ed4-aa8e-34b97d00422f"},"vehicle_type_id":"4","last_reported":1709190508,"current_range_meters":27600,"station_id":"ce4bgup2rcd13ifvqcn0","pricing_plan_id":"cebpf4jnsgd1na2vs0mg"},{"bike_id":"fa1ab9d0-888a-4816-b66a-f19c91215bc7","system_id":"levelo_inurba_marseille","lat":43.30458,"lon":5.37901,"is_reserved":false,"is_disabled":false,"rental_uris":{"android":"levelo://app?vid=fa1ab9d0-888a-4816-b66a-f19c91215bc7","ios":"levelo://app?vid=fa1ab9d0-888a-4816-b66a-f19c91215bc7"},"vehicle_type_id":"4","last_reported":1709190508,"current_range_meters":18400,"station_id":"ce4bgup2rcd13ifvqcn0","pricing_plan_id":"cebpf4jnsgd1na2vs0mg"},{"bike_id":"49746332-5805-4697-9bd7-6fc342b7b43e","system_id":"levelo_inurba_marseille","lat":43.304606,"lon":5.379026,"is_reserved":false,"is_disabled":false,"rental_uris":{"android":"levelo://app?vid=49746332-5805-4697-9bd7-6fc342b7b43e","ios":"levelo://app?vid=49746332-5805-4697-9bd7-6fc342b7b43e"},"vehicle_type_id":"4","last_reported":1709190508,"current_range_meters":28000,"station_id":"ce4bgup2rcd13ifvqcn0","pricing_plan_id":"cebpf4jnsgd1na2vs0mg"},{"bike_id":"c1c38682-6571-4ed0-9be0-eba64901ab2c","system_id":"levelo_inurba_marseille","lat":43.304606,"lon":5.379026,"is_reserved":false,"is_disabled":false,"rental_uris":{"android":"levelo://app?vid=c1c38682-6571-4ed0-9be0-eba64901ab2c","ios":"levelo://app?vid=c1c38682-6571-4ed0-9be0-eba64901ab2c"},"vehicle_type_id":"4","last_reported":1709190508,"current_range_meters":26800,"station_id":"ce4bgup2rcd13ifvqcn0","pricing_plan_id":"cebpf4jnsgd1na2vs0mg"},{"bike_id":"aca37f8f-ef02-47cc-a00b-06d10fc6c2f6","system_id":"levelo_inurba_marseille","lat":43.304606,"lon":5.379026,"is_reserved":false,"is_disabled":false,"rental_uris":{"android":"levelo://app?vid=aca37f8f-ef02-47cc-a00b-06d10fc6c2f6","ios":"levelo://app?vid=aca37f8f-ef02-47cc-a00b-06d10fc6c2f6"},"vehicle_type_id":"4","last_reported":1709190508,"current_range_meters":23200,"station_id":"ce4bgup2rcd13ifvqcn0","pricing_plan_id":"cebpf4jnsgd1na2vs0mg"},{"bike_id":"6061f73f-40e2-40bd-b255-18d2332bb320","system_id":"levelo_inurba_marseille","lat":43.304606,"lon":5.379026,"is_reserved":false,"is_disabled":false,"rental_uris":{"android":"levelo://app?vid=6061f73f-40e2-40bd-b255-18d2332bb320","ios":"levelo://app?vid=6061f73f-40e2-40bd-b255-18d2332bb320"},"vehicle_type_id":"4","last_reported":1709190508,"current_range_meters":26800,"station_id":"ce4bgup2rcd13ifvqcn0","pricing_plan_id":"cebpf4jnsgd1na2vs0mg"},{"bike_id":"ef9d2a49-ef44-4556-949c-e321bcab9308","system_id":"levelo_inurba_marseille","lat":43.304606,"lon":5.379026,"is_reserved":false,"is_disabled":false,"rental_uris":{"android":"levelo://app?vid=ef9d2a49-ef44-4556-949c-e321bcab9308","ios":"levelo://app?vid=ef9d2a49-ef44-4556-949c-e321bcab9308"},"vehicle_type_id":"4","last_reported":1709190508,"current_range_meters":9200,"station_id":"ce4bgup2rcd13ifvqcn0","pricing_plan_id":"cebpf4jnsgd1na2vs0mg"},{"bike_id":"5bae21be-c453-43b9-9ea9-f2a01be2ee3e","system_id":"levelo_inurba_marseille","lat":43.304606,"lon":5.379026,"is_reserved":false,"is_disabled":false,"rental_uris":{"android":"levelo://app?vid=5bae21be-c453-43b9-9ea9-f2a01be2ee3e","ios":"levelo://app?vid=5bae21be-c453-43b9-9ea9-f2a01be2ee3e"},"vehicle_type_id":"4","last_reported":1709190508,"current_range_meters":21600,"station_id":"ce4bgup2rcd13ifvqcn0","pricing_plan_id":"cebpf4jnsgd1na2vs0mg"},{"bike_id":"e4bd8612-b46e-4a74-947a-3ead914c552b","system_id":"levelo_inurba_marseille","lat":43.304606,"lon":5.379026,"is_reserved":false,"is_disabled":false,"rental_uris":{"android":"levelo://app?vid=e4bd8612-b46e-4a74-947a-3ead914c552b","ios":"levelo://app?vid=e4bd8612-b46e-4a74-947a-3ead914c552b"},"vehicle_type_id":"4","last_reported":1709190508,"current_range_meters":30400,"station_id":"ce4bgup2rcd13ifvqcn0","pricing_plan_id":"cebpf4jnsgd1na2vs0mg"},{"bike_id":"866b33f5-cf5b-4763-bdcd-782c09526660","system_id":"levelo_inurba_marseille","lat":43.324771,"lon":5.36557,"is_reserved":false,"is_disabled":false,"rental_uris":{"android":"levelo://app?vid=866b33f5-cf5b-4763-bdcd-782c09526660","ios":"levelo://app?vid=866b33f5-cf5b-4763-bdcd-782c09526660"},"vehicle_type_id":"4","last_reported":1709190508,"current_range_meters":25200,"station_id":"ce4bhs12rcd13ifvqhvg","pricing_plan_id":"cebpf4jnsgd1na2vs0mg"},{"bike_id":"a7b2b967-bcd7-42de-974b-724e27b4667a","system_id":"levelo_inurba_marseille","lat":43.304606,"lon":5.379026,"is_reserved":false,"is_disabled":false,"rental_uris":{"android":"levelo://app?vid=a7b2b967-bcd7-42de-974b-724e27b4667a","ios":"levelo://app?vid=a7b2b967-bcd7-42de-974b-724e27b4667a"},"vehicle_type_id":"4","last_reported":1709190508,"current_range_meters":28000,"station_id":"ce4bgup2rcd13ifvqcn0","pricing_plan_id":"cebpf4jnsgd1na2vs0mg"},{"bike_id":"d26c4504-8028-4fb3-96db-6bea15703997","system_id":"levelo_inurba_marseille","lat":43.324771,"lon":5.36557,"is_reserved":false,"is_disabled":false,"rental_uris":{"android":"levelo://app?vid=d26c4504-8028-4fb3-96db-6bea15703997","ios":"levelo://app?vid=d26c4504-8028-4fb3-96db-6bea15703997"},"vehicle_type_id":"4","last_reported":1709190508,"current_range_meters":29600,"station_id":"ce4bhs12rcd13ifvqhvg","pricing_plan_id":"cebpf4jnsgd1na2vs0mg"},{"bike_id":"8700be56-7ea5-4a4f-9105-49bae036d513","system_id":"levelo_inurba_marseille","lat":43.324819,"lon":5.36555,"is_reserved":false,"is_disabled":false,"rental_uris":{"android":"levelo://app?vid=8700be56-7ea5-4a4f-9105-49bae036d513","ios":"levelo://app?vid=8700be56-7ea5-4a4f-9105-49bae036d513"},"vehicle_type_id":"4","last_reported":1709190508,"current_range_meters":13600,"station_id":"ce4bhs12rcd13ifvqhvg","pricing_plan_id":"cebpf4jnsgd1na2vs0mg"},{"bike_id":"5a269137-364d-491b-844c-135942edaef3","system_id":"levelo_inurba_marseille","lat":43.324844,"lon":5.365709,"is_reserved":false,"is_disabled":false,"rental_uris":{"android":"levelo://app?vid=5a269137-364d-491b-844c-135942edaef3","ios":"levelo://app?vid=5a269137-364d-491b-844c-135942edaef3"},"vehicle_type_id":"4","last_reported":1709190508,"current_range_meters":12400,"station_id":"ce4bhs12rcd13ifvqhvg","pricing_plan_id":"cebpf4jnsgd1na2vs0mg"},{"bike_id":"b600732d-629b-465c-91f2-f9f32a680e47","system_id":"levelo_inurba_marseille","lat":43.324848,"lon":5.365747,"is_reserved":false,"is_disabled":false,"rental_uris":{"android":"levelo://app?vid=b600732d-629b-465c-91f2-f9f32a680e47","ios":"levelo://app?vid=b600732d-629b-465c-91f2-f9f32a680e47"},"vehicle_type_id":"4","last_reported":1709190508,"current_range_meters":28800,"station_id":"ce4bhs12rcd13ifvqhvg","pricing_plan_id":"cebpf4jnsgd1na2vs0mg"},{"bike_id":"d9653294-7aab-431f-ac25-20fe06bde7da","system_id":"levelo_inurba_marseille","lat":43.324771,"lon":5.36557,"is_reserved":false,"is_disabled":false,"rental_uris":{"android":"levelo://app?vid=d9653294-7aab-431f-ac25-20fe06bde7da","ios":"levelo://app?vid=d9653294-7aab-431f-ac25-20fe06bde7da"},"vehicle_type_id":"4","last_reported":1709190508,"current_range_meters":9600,"station_id":"ce4bhs12rcd13ifvqhvg","pricing_plan_id":"cebpf4jnsgd1na2vs0mg"},{"bike_id":"10c09295-4320-4db4-bc75-adcfc30c7db1","system_id":"levelo_inurba_marseille","lat":43.324771,"lon":5.36557,"is_reserved":false,"is_disabled":false,"rental_uris":{"android":"levelo://app?vid=10c09295-4320-4db4-bc75-adcfc30c7db1","ios":"levelo://app?vid=10c09295-4320-4db4-bc75-adcfc30c7db1"},"vehicle_type_id":"4","last_reported":1709190508,"current_range_meters":28000,"station_id":"ce4bhs12rcd13ifvqhvg","pricing_plan_id":"cebpf4jnsgd1na2vs0mg"},{"bike_id":"9e992d52-b9cf-4981-bcea-59d2c084d9e1","system_id":"levelo_inurba_marseille","lat":43.324771,"lon":5.36557,"is_reserved":false,"is_disabled":false,"rental_uris":{"android":"levelo://app?vid=9e992d52-b9cf-4981-bcea-59d2c084d9e1","ios":"levelo://app?vid=9e992d52-b9cf-4981-bcea-59d2c084d9e1"},"vehicle_type_id":"4","last_reported":1709190508,"current_range_meters":26400,"station_id":"ce4bhs12rcd13ifvqhvg","pricing_plan_id":"cebpf4jnsgd1na2vs0mg"},{"bike_id":"ae9f02a3-55df-494c-a497-34c50952ecc7","system_id":"levelo_inurba_marseille","lat":43.310804,"lon":5.38359,"is_reserved":false,"is_disabled":false,"rental_uris":{"android":"levelo://app?vid=ae9f02a3-55df-494c-a497-34c50952ecc7","ios":"levelo://app?vid=ae9f02a3-55df-494c-a497-34c50952ecc7"},"vehicle_type_id":"4","last_reported":1709190508,"current_range_meters":14400,"station_id":"ce4bgv92rcd13ifvqcr0","pricing_plan_id":"cebpf4jnsgd1na2vs0mg"},{"bike_id":"ca50f05f-9cfa-4702-b2cf-29eaad47e1f5","system_id":"levelo_inurba_marseille","lat":43.310804,"lon":5.38359,"is_reserved":false,"is_disabled":false,"rental_uris":{"android":"levelo://app?vid=ca50f05f-9cfa-4702-b2cf-29eaad47e1f5","ios":"levelo://app?vid=ca50f05f-9cfa-4702-b2cf-29eaad47e1f5"},"vehicle_type_id":"4","last_reported":1709190508,"current_range_meters":9600,"station_id":"ce4bgv92rcd13ifvqcr0","pricing_plan_id":"cebpf4jnsgd1na2vs0mg"},{"bike_id":"534f3461-00b9-4325-85a0-dd1f847cfda2","system_id":"levelo_inurba_marseille","lat":43.310804,"lon":5.38359,"is_reserved":false,"is_disabled":false,"rental_uris":{"android":"levelo://app?vid=534f3461-00b9-4325-85a0-dd1f847cfda2","ios":"levelo://app?vid=534f3461-00b9-4325-85a0-dd1f847cfda2"},"vehicle_type_id":"4","last_reported":1709190508,"current_range_meters":18800,"station_id":"ce4bgv92rcd13ifvqcr0","pricing_plan_id":"cebpf4jnsgd1na2vs0mg"},{"bike_id":"4e020314-c3cc-4076-b9a6-a1d042fd7102","system_id":"levelo_inurba_marseille","lat":43.310804,"lon":5.38359,"is_reserved":false,"is_disabled":false,"rental_uris":{"android":"levelo://app?vid=4e020314-c3cc-4076-b9a6-a1d042fd7102","ios":"levelo://app?vid=4e020314-c3cc-4076-b9a6-a1d042fd7102"},"vehicle_type_id":"4","last_reported":1709190508,"current_range_meters":0,"station_id":"ce4bgv92rcd13ifvqcr0","pricing_plan_id":"cebpf4jnsgd1na2vs0mg"},{"bike_id":"8d8eb9a9-b394-4405-b817-db4edf8ee059","system_id":"levelo_inurba_marseille","lat":43.310804,"lon":5.38359,"is_reserved":false,"is_disabled":false,"rental_uris":{"android":"levelo://app?vid=8d8eb9a9-b394-4405-b817-db4edf8ee059","ios":"levelo://app?vid=8d8eb9a9-b394-4405-b817-db4edf8ee059"},"vehicle_type_id":"4","last_reported":1709190508,"current_range_meters":24400,"station_id":"ce4bgv92rcd13ifvqcr0","pricing_plan_id":"cebpf4jnsgd1na2vs0mg"},{"bike_id":"53117ab7-b3dd-414c-b15d-e5538248df19","system_id":"levelo_inurba_marseille","lat":43.310804,"lon":5.38359,"is_reserved":false,"is_disabled":false,"rental_uris":{"android":"levelo://app?vid=53117ab7-b3dd-414c-b15d-e5538248df19","ios":"levelo://app?vid=53117ab7-b3dd-414c-b15d-e5538248df19"},"vehicle_type_id":"4","last_reported":1709190508,"current_range_meters":15200,"station_id":"ce4bgv92rcd13ifvqcr0","pricing_plan_id":"cebpf4jnsgd1na2vs0mg"},{"bike_id":"dbdcee27-7a1e-4865-b70d-56a0ec847711","system_id":"levelo_inurba_marseille","lat":43.30285,"lon":5.37696,"is_reserved":false,"is_disabled":false,"rental_uris":{"android":"levelo://app?vid=dbdcee27-7a1e-4865-b70d-56a0ec847711","ios":"levelo://app?vid=dbdcee27-7a1e-4865-b70d-56a0ec847711"},"vehicle_type_id":"4","last_reported":1709190508,"current_range_meters":26800,"station_id":"ce4bguh2rcd13ifvqcj0","pricing_plan_id":"cebpf4jnsgd1na2vs0mg"},{"bike_id":"ee3a3505-dbb8-4079-bdf4-da50cc9c9b9d","system_id":"levelo_inurba_marseille","lat":43.310745,"lon":5.383642,"is_reserved":false,"is_disabled":false,"rental_uris":{"android":"levelo://app?vid=ee3a3505-dbb8-4079-bdf4-da50cc9c9b9d","ios":"levelo://app?vid=ee3a3505-dbb8-4079-bdf4-da50cc9c9b9d"},"vehicle_type_id":"4","last_reported":1709190508,"current_range_meters":4400,"station_id":"ce4bgv92rcd13ifvqcr0","pricing_plan_id":"cebpf4jnsgd1na2vs0mg"},{"bike_id":"9ea946c6-1b67-4b31-9106-8c4c4c2a2356","system_id":"levelo_inurba_marseille","lat":43.3015,"lon":5.3739,"is_reserved":false,"is_disabled":false,"rental_uris":{"android":"levelo://app?vid=9ea946c6-1b67-4b31-9106-8c4c4c2a2356","ios":"levelo://app?vid=9ea946c6-1b67-4b31-9106-8c4c4c2a2356"},"vehicle_type_id":"4","last_reported":1709190508,"current_range_meters":31200,"station_id":"ce4bgs92rcd13ifvqcc0","pricing_plan_id":"cebpf4jnsgd1na2vs0mg"},{"bike_id":"b7dd6a93-729a-45dd-b058-bd9def008c6f","system_id":"levelo_inurba_marseille","lat":43.302783,"lon":5.376951,"is_reserved":false,"is_disabled":false,"rental_uris":{"android":"levelo://app?vid=b7dd6a93-729a-45dd-b058-bd9def008c6f","ios":"levelo://app?vid=b7dd6a93-729a-45dd-b058-bd9def008c6f"},"vehicle_type_id":"4","last_reported":1709190508,"current_range_meters":23200,"station_id":"ce4bhs92rcd13ifvqi0g","pricing_plan_id":"cebpf4jnsgd1na2vs0mg"},{"bike_id":"85f0800b-3545-4717-9188-45e237501abf","system_id":"levelo_inurba_marseille","lat":43.30277,"lon":5.37698,"is_reserved":false,"is_disabled":false,"rental_uris":{"android":"levelo://app?vid=85f0800b-3545-4717-9188-45e237501abf","ios":"levelo://app?vid=85f0800b-3545-4717-9188-45e237501abf"},"vehicle_type_id":"4","last_reported":1709190508,"current_range_meters":29200,"station_id":"ce4bhs92rcd13ifvqi0g","pricing_plan_id":"cebpf4jnsgd1na2vs0mg"},{"bike_id":"65819ab9-50e5-4a46-857c-58333596bc86","system_id":"levelo_inurba_marseille","lat":43.302774,"lon":5.377026,"is_reserved":false,"is_disabled":false,"rental_uris":{"android":"levelo://app?vid=65819ab9-50e5-4a46-857c-58333596bc86","ios":"levelo://app?vid=65819ab9-50e5-4a46-857c-58333596bc86"},"vehicle_type_id":"4","last_reported":1709190508,"current_range_meters":19200,"station_id":"ce4bhs92rcd13ifvqi0g","pricing_plan_id":"cebpf4jnsgd1na2vs0mg"},{"bike_id":"bab7b3f9-a14e-4b86-bae3-13c8547f1fdb","system_id":"levelo_inurba_marseille","lat":43.302729,"lon":5.376991,"is_reserved":false,"is_disabled":false,"rental_uris":{"android":"levelo://app?vid=bab7b3f9-a14e-4b86-bae3-13c8547f1fdb","ios":"levelo://app?vid=bab7b3f9-a14e-4b86-bae3-13c8547f1fdb"},"vehicle_type_id":"4","last_reported":1709190508,"current_range_meters":31600,"station_id":"ce4bhs92rcd13ifvqi0g","pricing_plan_id":"cebpf4jnsgd1na2vs0mg"},{"bike_id":"8556bd47-cb4f-4ecc-8d87-33c187c50e7a","system_id":"levelo_inurba_marseille","lat":43.30141,"lon":5.37408,"is_reserved":false,"is_disabled":false,"rental_uris":{"android":"levelo://app?vid=8556bd47-cb4f-4ecc-8d87-33c187c50e7a","ios":"levelo://app?vid=8556bd47-cb4f-4ecc-8d87-33c187c50e7a"},"vehicle_type_id":"4","last_reported":1709190508,"current_range_meters":11600,"station_id":"ce4bgs92rcd13ifvqcc0","pricing_plan_id":"cebpf4jnsgd1na2vs0mg"},{"bike_id":"d8c8bc36-0119-4647-8ff2-89d8d50e9446","system_id":"levelo_inurba_marseille","lat":43.301429,"lon":5.37413,"is_reserved":false,"is_disabled":false,"rental_uris":{"android":"levelo://app?vid=d8c8bc36-0119-4647-8ff2-89d8d50e9446","ios":"levelo://app?vid=d8c8bc36-0119-4647-8ff2-89d8d50e9446"},"vehicle_type_id":"4","last_reported":1709190508,"current_range_meters":26000,"station_id":"ce4bgs92rcd13ifvqcc0","pricing_plan_id":"cebpf4jnsgd1na2vs0mg"},{"bike_id":"38bffb32-7bc7-4f09-8226-40170503f8bf","system_id":"levelo_inurba_marseille","lat":43.30142,"lon":5.374172,"is_reserved":false,"is_disabled":false,"rental_uris":{"android":"levelo://app?vid=38bffb32-7bc7-4f09-8226-40170503f8bf","ios":"levelo://app?vid=38bffb32-7bc7-4f09-8226-40170503f8bf"},"vehicle_type_id":"4","last_reported":1709190508,"current_range_meters":31200,"station_id":"ce4bgs92rcd13ifvqcc0","pricing_plan_id":"cebpf4jnsgd1na2vs0mg"},{"bike_id":"750243a4-c039-40bb-9590-7b2a11c06ded","system_id":"levelo_inurba_marseille","lat":43.30143,"lon":5.37413,"is_reserved":false,"is_disabled":false,"rental_uris":{"android":"levelo://app?vid=750243a4-c039-40bb-9590-7b2a11c06ded","ios":"levelo://app?vid=750243a4-c039-40bb-9590-7b2a11c06ded"},"vehicle_type_id":"4","last_reported":1709190508,"current_range_meters":28000,"station_id":"ce4bgs92rcd13ifvqcc0","pricing_plan_id":"cebpf4jnsgd1na2vs0mg"},{"bike_id":"3f6adb24-2e69-4d8a-99ee-d70b7c241a2a","system_id":"levelo_inurba_marseille","lat":43.301429,"lon":5.37413,"is_reserved":false,"is_disabled":false,"rental_uris":{"android":"levelo://app?vid=3f6adb24-2e69-4d8a-99ee-d70b7c241a2a","ios":"levelo://app?vid=3f6adb24-2e69-4d8a-99ee-d70b7c241a2a"},"vehicle_type_id":"4","last_reported":1709190508,"current_range_meters":20800,"station_id":"ce4bgs92rcd13ifvqcc0","pricing_plan_id":"cebpf4jnsgd1na2vs0mg"},{"bike_id":"89c55543-dca0-4783-9dec-90b91dcda9fc","system_id":"levelo_inurba_marseille","lat":43.301429,"lon":5.37413,"is_reserved":false,"is_disabled":false,"rental_uris":{"android":"levelo://app?vid=89c55543-dca0-4783-9dec-90b91dcda9fc","ios":"levelo://app?vid=89c55543-dca0-4783-9dec-90b91dcda9fc"},"vehicle_type_id":"4","last_reported":1709190508,"current_range_meters":27200,"station_id":"ce4bgs92rcd13ifvqcc0","pricing_plan_id":"cebpf4jnsgd1na2vs0mg"},{"bike_id":"af2bcac5-1daf-4dce-b592-4fd369916b4e","system_id":"levelo_inurba_marseille","lat":43.304606,"lon":5.379026,"is_reserved":false,"is_disabled":false,"rental_uris":{"android":"levelo://app?vid=af2bcac5-1daf-4dce-b592-4fd369916b4e","ios":"levelo://app?vid=af2bcac5-1daf-4dce-b592-4fd369916b4e"},"vehicle_type_id":"4","last_reported":1709190508,"current_range_meters":23200,"station_id":"ce4bgup2rcd13ifvqcn0","pricing_plan_id":"cebpf4jnsgd1na2vs0mg"},{"bike_id":"db4a4886-bd63-412a-8fb8-7a23cf6cffa7","system_id":"levelo_inurba_marseille","lat":43.319935,"lon":5.381699,"is_reserved":false,"is_disabled":false,"rental_uris":{"android":"levelo://app?vid=db4a4886-bd63-412a-8fb8-7a23cf6cffa7","ios":"levelo://app?vid=db4a4886-bd63-412a-8fb8-7a23cf6cffa7"},"vehicle_type_id":"4","last_reported":1709190508,"current_range_meters":4800,"station_id":"ce4bhr12rcd13ifvqhpg","pricing_plan_id":"cebpf4jnsgd1na2vs0mg"},{"bike_id":"c4adf242-0b7f-42ae-86de-f804e7a0d935","system_id":"levelo_inurba_marseille","lat":43.319935,"lon":5.381699,"is_reserved":false,"is_disabled":false,"rental_uris":{"android":"levelo://app?vid=c4adf242-0b7f-42ae-86de-f804e7a0d935","ios":"levelo://app?vid=c4adf242-0b7f-42ae-86de-f804e7a0d935"},"vehicle_type_id":"4","last_reported":1709190508,"current_range_meters":19200,"station_id":"ce4bhr12rcd13ifvqhpg","pricing_plan_id":"cebpf4jnsgd1na2vs0mg"},{"bike_id":"7dbd20fe-2823-4b49-8e76-90a5e5152595","system_id":"levelo_inurba_marseille","lat":43.313571,"lon":5.384829,"is_reserved":false,"is_disabled":false,"rental_uris":{"android":"levelo://app?vid=7dbd20fe-2823-4b49-8e76-90a5e5152595","ios":"levelo://app?vid=7dbd20fe-2823-4b49-8e76-90a5e5152595"},"vehicle_type_id":"4","last_reported":1709190508,"current_range_meters":31600,"station_id":"ce4bgt92rcd13ifvqcf0","pricing_plan_id":"cebpf4jnsgd1na2vs0mg"},{"bike_id":"80049055-daec-4b0a-ac63-1caf41a6c3be","system_id":"levelo_inurba_marseille","lat":43.313571,"lon":5.384829,"is_reserved":false,"is_disabled":false,"rental_uris":{"android":"levelo://app?vid=80049055-daec-4b0a-ac63-1caf41a6c3be","ios":"levelo://app?vid=80049055-daec-4b0a-ac63-1caf41a6c3be"},"vehicle_type_id":"4","last_reported":1709190508,"current_range_meters":16000,"station_id":"ce4bgt92rcd13ifvqcf0","pricing_plan_id":"cebpf4jnsgd1na2vs0mg"},{"bike_id":"c3869c33-f840-4c40-be6d-5610e964f492","system_id":"levelo_inurba_marseille","lat":43.313571,"lon":5.384829,"is_reserved":false,"is_disabled":false,"rental_uris":{"android":"levelo://app?vid=c3869c33-f840-4c40-be6d-5610e964f492","ios":"levelo://app?vid=c3869c33-f840-4c40-be6d-5610e964f492"},"vehicle_type_id":"4","last_reported":1709190508,"current_range_meters":2400,"station_id":"ce4bgt92rcd13ifvqcf0","pricing_plan_id":"cebpf4jnsgd1na2vs0mg"},{"bike_id":"774dcd22-82b7-425f-8ef1-c54999cfbd27","system_id":"levelo_inurba_marseille","lat":43.313571,"lon":5.384829,"is_reserved":false,"is_disabled":false,"rental_uris":{"android":"levelo://app?vid=774dcd22-82b7-425f-8ef1-c54999cfbd27","ios":"levelo://app?vid=774dcd22-82b7-425f-8ef1-c54999cfbd27"},"vehicle_type_id":"4","last_reported":1709190508,"current_range_meters":31600,"station_id":"ce4bgt92rcd13ifvqcf0","pricing_plan_id":"cebpf4jnsgd1na2vs0mg"},{"bike_id":"06b1d19d-20f7-4880-b0ca-b15e5a357335","system_id":"levelo_inurba_marseille","lat":43.313571,"lon":5.384829,"is_reserved":false,"is_disabled":false,"rental_uris":{"android":"levelo://app?vid=06b1d19d-20f7-4880-b0ca-b15e5a357335","ios":"levelo://app?vid=06b1d19d-20f7-4880-b0ca-b15e5a357335"},"vehicle_type_id":"4","last_reported":1709190508,"current_range_meters":23600,"station_id":"ce4bgt92rcd13ifvqcf0","pricing_plan_id":"cebpf4jnsgd1na2vs0mg"},{"bike_id":"68d49b87-0b53-489d-9bbd-3349b7ef12fd","system_id":"levelo_inurba_marseille","lat":43.313571,"lon":5.384829,"is_reserved":false,"is_disabled":false,"rental_uris":{"android":"levelo://app?vid=68d49b87-0b53-489d-9bbd-3349b7ef12fd","ios":"levelo://app?vid=68d49b87-0b53-489d-9bbd-3349b7ef12fd"},"vehicle_type_id":"4","last_reported":1709190508,"current_range_meters":21600,"station_id":"ce4bgt92rcd13ifvqcf0","pricing_plan_id":"cebpf4jnsgd1na2vs0mg"},{"bike_id":"33534bf6-af0d-41f0-a829-f69daf387285","system_id":"levelo_inurba_marseille","lat":43.313571,"lon":5.384829,"is_reserved":false,"is_disabled":false,"rental_uris":{"android":"levelo://app?vid=33534bf6-af0d-41f0-a829-f69daf387285","ios":"levelo://app?vid=33534bf6-af0d-41f0-a829-f69daf387285"},"vehicle_type_id":"4","last_reported":1709190508,"current_range_meters":27200,"station_id":"ce4bgt92rcd13ifvqcf0","pricing_plan_id":"cebpf4jnsgd1na2vs0mg"},{"bike_id":"1d2c1f6b-ed3b-4778-a176-2994093398a4","system_id":"levelo_inurba_marseille","lat":43.29987,"lon":5.37176,"is_reserved":false,"is_disabled":false,"rental_uris":{"android":"levelo://app?vid=1d2c1f6b-ed3b-4778-a176-2994093398a4","ios":"levelo://app?vid=1d2c1f6b-ed3b-4778-a176-2994093398a4"},"vehicle_type_id":"4","last_reported":1709190508,"current_range_meters":27600,"station_id":"ce4bgr92rcd13ifvqc7g","pricing_plan_id":"cebpf4jnsgd1na2vs0mg"},{"bike_id":"f7f093cd-5d1a-4b74-9f8b-ee0be8d9cc26","system_id":"levelo_inurba_marseille","lat":43.299222,"lon":5.365554,"is_reserved":false,"is_disabled":false,"rental_uris":{"android":"levelo://app?vid=f7f093cd-5d1a-4b74-9f8b-ee0be8d9cc26","ios":"levelo://app?vid=f7f093cd-5d1a-4b74-9f8b-ee0be8d9cc26"},"vehicle_type_id":"4","last_reported":1709190508,"current_range_meters":28800,"station_id":"ce4bgm92rcd13ifvqbr0","pricing_plan_id":"cebpf4jnsgd1na2vs0mg"},{"bike_id":"ec540c8a-cd3a-4313-b12a-45c10fc84622","system_id":"levelo_inurba_marseille","lat":43.299222,"lon":5.365554,"is_reserved":false,"is_disabled":false,"rental_uris":{"android":"levelo://app?vid=ec540c8a-cd3a-4313-b12a-45c10fc84622","ios":"levelo://app?vid=ec540c8a-cd3a-4313-b12a-45c10fc84622"},"vehicle_type_id":"4","last_reported":1709190508,"current_range_meters":19200,"station_id":"ce4bgm92rcd13ifvqbr0","pricing_plan_id":"cebpf4jnsgd1na2vs0mg"},{"bike_id":"a4f136dc-8b5f-419a-aadc-e44a26999d65","system_id":"levelo_inurba_marseille","lat":43.299222,"lon":5.365554,"is_reserved":false,"is_disabled":false,"rental_uris":{"android":"levelo://app?vid=a4f136dc-8b5f-419a-aadc-e44a26999d65","ios":"levelo://app?vid=a4f136dc-8b5f-419a-aadc-e44a26999d65"},"vehicle_type_id":"4","last_reported":1709190508,"current_range_meters":20400,"station_id":"ce4bgm92rcd13ifvqbr0","pricing_plan_id":"cebpf4jnsgd1na2vs0mg"},{"bike_id":"5be7eea1-9fd4-416e-ac69-b5937d2df33f","system_id":"levelo_inurba_marseille","lat":43.299222,"lon":5.365554,"is_reserved":false,"is_disabled":false,"rental_uris":{"android":"levelo://app?vid=5be7eea1-9fd4-416e-ac69-b5937d2df33f","ios":"levelo://app?vid=5be7eea1-9fd4-416e-ac69-b5937d2df33f"},"vehicle_type_id":"4","last_reported":1709190508,"current_range_meters":12800,"station_id":"ce4bgm92rcd13ifvqbr0","pricing_plan_id":"cebpf4jnsgd1na2vs0mg"},{"bike_id":"a658b9fc-3e98-44b3-bc3a-68a1395a01c6","system_id":"levelo_inurba_marseille","lat":43.299724,"lon":5.371829,"is_reserved":false,"is_disabled":false,"rental_uris":{"android":"levelo://app?vid=a658b9fc-3e98-44b3-bc3a-68a1395a01c6","ios":"levelo://app?vid=a658b9fc-3e98-44b3-bc3a-68a1395a01c6"},"vehicle_type_id":"4","last_reported":1709190508,"current_range_meters":26400,"station_id":"ce4bgr92rcd13ifvqc7g","pricing_plan_id":"cebpf4jnsgd1na2vs0mg"},{"bike_id":"57e24fad-79fa-43e4-8eb0-06b638cb72f6","system_id":"levelo_inurba_marseille","lat":43.298433,"lon":5.362774,"is_reserved":false,"is_disabled":false,"rental_uris":{"android":"levelo://app?vid=57e24fad-79fa-43e4-8eb0-06b638cb72f6","ios":"levelo://app?vid=57e24fad-79fa-43e4-8eb0-06b638cb72f6"},"vehicle_type_id":"4","last_reported":1709190508,"current_range_meters":20000,"station_id":"ce4bgpp2rcd13ifvqc3g","pricing_plan_id":"cebpf4jnsgd1na2vs0mg"},{"bike_id":"38294897-cb6b-4492-9416-c78a6a006f3c","system_id":"levelo_inurba_marseille","lat":43.305364,"lon":5.384119,"is_reserved":false,"is_disabled":false,"rental_uris":{"android":"levelo://app?vid=38294897-cb6b-4492-9416-c78a6a006f3c","ios":"levelo://app?vid=38294897-cb6b-4492-9416-c78a6a006f3c"},"vehicle_type_id":"4","last_reported":1709190508,"current_range_meters":31200,"station_id":"ce4bgg92rcd13ifvqb30","pricing_plan_id":"cebpf4jnsgd1na2vs0mg"},{"bike_id":"0373d3df-af69-48fd-aa65-7d0292cc9876","system_id":"levelo_inurba_marseille","lat":43.299243,"lon":5.374807,"is_reserved":false,"is_disabled":false,"rental_uris":{"android":"levelo://app?vid=0373d3df-af69-48fd-aa65-7d0292cc9876","ios":"levelo://app?vid=0373d3df-af69-48fd-aa65-7d0292cc9876"},"vehicle_type_id":"4","last_reported":1709190508,"current_range_meters":9600,"station_id":"ce4bgjh2rcd13ifvqbg0","pricing_plan_id":"cebpf4jnsgd1na2vs0mg"},{"bike_id":"23c18163-5e15-470a-afb4-2f2723a5d21b","system_id":"levelo_inurba_marseille","lat":43.30539,"lon":5.3842,"is_reserved":false,"is_disabled":false,"rental_uris":{"android":"levelo://app?vid=23c18163-5e15-470a-afb4-2f2723a5d21b","ios":"levelo://app?vid=23c18163-5e15-470a-afb4-2f2723a5d21b"},"vehicle_type_id":"4","last_reported":1709190508,"current_range_meters":30800,"station_id":"ce4bgg92rcd13ifvqb30","pricing_plan_id":"cebpf4jnsgd1na2vs0mg"},{"bike_id":"fdf922eb-9358-4277-9c50-83e9eb7e43a4","system_id":"levelo_inurba_marseille","lat":43.299243,"lon":5.374807,"is_reserved":false,"is_disabled":false,"rental_uris":{"android":"levelo://app?vid=fdf922eb-9358-4277-9c50-83e9eb7e43a4","ios":"levelo://app?vid=fdf922eb-9358-4277-9c50-83e9eb7e43a4"},"vehicle_type_id":"4","last_reported":1709190508,"current_range_meters":24000,"station_id":"ce4bgjh2rcd13ifvqbg0","pricing_plan_id":"cebpf4jnsgd1na2vs0mg"},{"bike_id":"f860985c-a0de-479a-bb16-effaa160f014","system_id":"levelo_inurba_marseille","lat":43.305364,"lon":5.384119,"is_reserved":false,"is_disabled":false,"rental_uris":{"android":"levelo://app?vid=f860985c-a0de-479a-bb16-effaa160f014","ios":"levelo://app?vid=f860985c-a0de-479a-bb16-effaa160f014"},"vehicle_type_id":"4","last_reported":1709190508,"current_range_meters":19200,"station_id":"ce4bgg92rcd13ifvqb30","pricing_plan_id":"cebpf4jnsgd1na2vs0mg"},{"bike_id":"970f600d-af9f-4f6c-9f0a-8e505ac1b39a","system_id":"levelo_inurba_marseille","lat":43.298433,"lon":5.362774,"is_reserved":false,"is_disabled":false,"rental_uris":{"android":"levelo://app?vid=970f600d-af9f-4f6c-9f0a-8e505ac1b39a","ios":"levelo://app?vid=970f600d-af9f-4f6c-9f0a-8e505ac1b39a"},"vehicle_type_id":"4","last_reported":1709190508,"current_range_meters":23600,"station_id":"ce4bgpp2rcd13ifvqc3g","pricing_plan_id":"cebpf4jnsgd1na2vs0mg"},{"bike_id":"62ebe0ff-ffc9-4d6c-a5a0-956283396685","system_id":"levelo_inurba_marseille","lat":43.298433,"lon":5.362774,"is_reserved":false,"is_disabled":false,"rental_uris":{"android":"levelo://app?vid=62ebe0ff-ffc9-4d6c-a5a0-956283396685","ios":"levelo://app?vid=62ebe0ff-ffc9-4d6c-a5a0-956283396685"},"vehicle_type_id":"4","last_reported":1709190508,"current_range_meters":21200,"station_id":"ce4bgpp2rcd13ifvqc3g","pricing_plan_id":"cebpf4jnsgd1na2vs0mg"},{"bike_id":"95641803-0d23-49fe-83d3-ac18b88466f1","system_id":"levelo_inurba_marseille","lat":43.299243,"lon":5.37481,"is_reserved":false,"is_disabled":false,"rental_uris":{"android":"levelo://app?vid=95641803-0d23-49fe-83d3-ac18b88466f1","ios":"levelo://app?vid=95641803-0d23-49fe-83d3-ac18b88466f1"},"vehicle_type_id":"4","last_reported":1709190508,"current_range_meters":25600,"station_id":"ce4bgjh2rcd13ifvqbg0","pricing_plan_id":"cebpf4jnsgd1na2vs0mg"},{"bike_id":"e31fea9e-11b9-4226-b4d6-7c8fdd241097","system_id":"levelo_inurba_marseille","lat":43.299243,"lon":5.374807,"is_reserved":false,"is_disabled":false,"rental_uris":{"android":"levelo://app?vid=e31fea9e-11b9-4226-b4d6-7c8fdd241097","ios":"levelo://app?vid=e31fea9e-11b9-4226-b4d6-7c8fdd241097"},"vehicle_type_id":"4","last_reported":1709190508,"current_range_meters":30400,"station_id":"ce4bgjh2rcd13ifvqbg0","pricing_plan_id":"cebpf4jnsgd1na2vs0mg"},{"bike_id":"45d9e53e-ea61-41f2-a96e-4fd2b24c8e17","system_id":"levelo_inurba_marseille","lat":43.311722,"lon":5.387247,"is_reserved":false,"is_disabled":false,"rental_uris":{"android":"levelo://app?vid=45d9e53e-ea61-41f2-a96e-4fd2b24c8e17","ios":"levelo://app?vid=45d9e53e-ea61-41f2-a96e-4fd2b24c8e17"},"vehicle_type_id":"4","last_reported":1709190508,"current_range_meters":30400,"station_id":"ce4bgv12rcd13ifvqcp0","pricing_plan_id":"cebpf4jnsgd1na2vs0mg"},{"bike_id":"9d5f0a0e-a1a8-4755-aa5d-8a2981301a1b","system_id":"levelo_inurba_marseille","lat":43.311722,"lon":5.387247,"is_reserved":false,"is_disabled":false,"rental_uris":{"android":"levelo://app?vid=9d5f0a0e-a1a8-4755-aa5d-8a2981301a1b","ios":"levelo://app?vid=9d5f0a0e-a1a8-4755-aa5d-8a2981301a1b"},"vehicle_type_id":"4","last_reported":1709190508,"current_range_meters":10800,"station_id":"ce4bgv12rcd13ifvqcp0","pricing_plan_id":"cebpf4jnsgd1na2vs0mg"},{"bike_id":"b9d4d892-1bd7-49b5-95a2-65601ba32c59","system_id":"levelo_inurba_marseille","lat":43.311722,"lon":5.387247,"is_reserved":false,"is_disabled":false,"rental_uris":{"android":"levelo://app?vid=b9d4d892-1bd7-49b5-95a2-65601ba32c59","ios":"levelo://app?vid=b9d4d892-1bd7-49b5-95a2-65601ba32c59"},"vehicle_type_id":"4","last_reported":1709190508,"current_range_meters":28800,"station_id":"ce4bgv12rcd13ifvqcp0","pricing_plan_id":"cebpf4jnsgd1na2vs0mg"},{"bike_id":"4721ff3c-7438-473e-86aa-6d0acd131a28","system_id":"levelo_inurba_marseille","lat":43.311722,"lon":5.387247,"is_reserved":false,"is_disabled":false,"rental_uris":{"android":"levelo://app?vid=4721ff3c-7438-473e-86aa-6d0acd131a28","ios":"levelo://app?vid=4721ff3c-7438-473e-86aa-6d0acd131a28"},"vehicle_type_id":"4","last_reported":1709190508,"current_range_meters":30800,"station_id":"ce4bgv12rcd13ifvqcp0","pricing_plan_id":"cebpf4jnsgd1na2vs0mg"},{"bike_id":"0d1c8d72-9ec7-4656-b69b-879e3c83ba6e","system_id":"levelo_inurba_marseille","lat":43.311722,"lon":5.387247,"is_reserved":false,"is_disabled":false,"rental_uris":{"android":"levelo://app?vid=0d1c8d72-9ec7-4656-b69b-879e3c83ba6e","ios":"levelo://app?vid=0d1c8d72-9ec7-4656-b69b-879e3c83ba6e"},"vehicle_type_id":"4","last_reported":1709190508,"current_range_meters":27600,"station_id":"ce4bgv12rcd13ifvqcp0","pricing_plan_id":"cebpf4jnsgd1na2vs0mg"},{"bike_id":"77a8bd6c-b309-413f-b14f-cbf50d2ecc7b","system_id":"levelo_inurba_marseille","lat":43.311722,"lon":5.387247,"is_reserved":false,"is_disabled":false,"rental_uris":{"android":"levelo://app?vid=77a8bd6c-b309-413f-b14f-cbf50d2ecc7b","ios":"levelo://app?vid=77a8bd6c-b309-413f-b14f-cbf50d2ecc7b"},"vehicle_type_id":"4","last_reported":1709190508,"current_range_meters":400,"station_id":"ce4bgv12rcd13ifvqcp0","pricing_plan_id":"cebpf4jnsgd1na2vs0mg"},{"bike_id":"8dedf104-1d18-40f0-bda6-f69244c5563d","system_id":"levelo_inurba_marseille","lat":43.297794,"lon":5.370888,"is_reserved":false,"is_disabled":false,"rental_uris":{"android":"levelo://app?vid=8dedf104-1d18-40f0-bda6-f69244c5563d","ios":"levelo://app?vid=8dedf104-1d18-40f0-bda6-f69244c5563d"},"vehicle_type_id":"4","last_reported":1709190508,"current_range_meters":31200,"station_id":"ce4bgop2rcd13ifvqc1g","pricing_plan_id":"cebpf4jnsgd1na2vs0mg"},{"bike_id":"73cc1f23-14d2-4b32-8957-6ad484bba024","system_id":"levelo_inurba_marseille","lat":43.297794,"lon":5.370888,"is_reserved":false,"is_disabled":false,"rental_uris":{"android":"levelo://app?vid=73cc1f23-14d2-4b32-8957-6ad484bba024","ios":"levelo://app?vid=73cc1f23-14d2-4b32-8957-6ad484bba024"},"vehicle_type_id":"4","last_reported":1709190508,"current_range_meters":23600,"station_id":"ce4bgop2rcd13ifvqc1g","pricing_plan_id":"cebpf4jnsgd1na2vs0mg"},{"bike_id":"19203cd3-d459-408b-bcca-dd37a10b2e7b","system_id":"levelo_inurba_marseille","lat":43.322872,"lon":5.382756,"is_reserved":false,"is_disabled":false,"rental_uris":{"android":"levelo://app?vid=19203cd3-d459-408b-bcca-dd37a10b2e7b","ios":"levelo://app?vid=19203cd3-d459-408b-bcca-dd37a10b2e7b"},"vehicle_type_id":"4","last_reported":1709190508,"current_range_meters":26800,"station_id":"ce4bhr12rcd13ifvqhqg","pricing_plan_id":"cebpf4jnsgd1na2vs0mg"},{"bike_id":"bde55b7c-4974-4a1e-acbc-4b5e2ed687ec","system_id":"levelo_inurba_marseille","lat":43.297163,"lon":5.365866,"is_reserved":false,"is_disabled":false,"rental_uris":{"android":"levelo://app?vid=bde55b7c-4974-4a1e-acbc-4b5e2ed687ec","ios":"levelo://app?vid=bde55b7c-4974-4a1e-acbc-4b5e2ed687ec"},"vehicle_type_id":"4","last_reported":1709190508,"current_range_meters":31200,"station_id":"ce4bgn12rcd13ifvqbt0","pricing_plan_id":"cebpf4jnsgd1na2vs0mg"},{"bike_id":"a6ef948a-8288-4a33-9a9e-90fa1a018570","system_id":"levelo_inurba_marseille","lat":43.297163,"lon":5.365866,"is_reserved":false,"is_disabled":false,"rental_uris":{"android":"levelo://app?vid=a6ef948a-8288-4a33-9a9e-90fa1a018570","ios":"levelo://app?vid=a6ef948a-8288-4a33-9a9e-90fa1a018570"},"vehicle_type_id":"4","last_reported":1709190508,"current_range_meters":29600,"station_id":"ce4bgn12rcd13ifvqbt0","pricing_plan_id":"cebpf4jnsgd1na2vs0mg"},{"bike_id":"ca62d84f-03f6-43b1-908b-7a937c56ec4f","system_id":"levelo_inurba_marseille","lat":43.297163,"lon":5.365866,"is_reserved":false,"is_disabled":false,"rental_uris":{"android":"levelo://app?vid=ca62d84f-03f6-43b1-908b-7a937c56ec4f","ios":"levelo://app?vid=ca62d84f-03f6-43b1-908b-7a937c56ec4f"},"vehicle_type_id":"4","last_reported":1709190508,"current_range_meters":24800,"station_id":"ce4bgn12rcd13ifvqbt0","pricing_plan_id":"cebpf4jnsgd1na2vs0mg"},{"bike_id":"593b6b1e-f46b-4ef0-b059-9a77a4b8462a","system_id":"levelo_inurba_marseille","lat":43.297163,"lon":5.365866,"is_reserved":false,"is_disabled":false,"rental_uris":{"android":"levelo://app?vid=593b6b1e-f46b-4ef0-b059-9a77a4b8462a","ios":"levelo://app?vid=593b6b1e-f46b-4ef0-b059-9a77a4b8462a"},"vehicle_type_id":"4","last_reported":1709190508,"current_range_meters":29600,"station_id":"ce4bgn12rcd13ifvqbt0","pricing_plan_id":"cebpf4jnsgd1na2vs0mg"},{"bike_id":"1fa8a0cc-49bf-4558-af4b-e496d211f279","system_id":"levelo_inurba_marseille","lat":43.297163,"lon":5.365866,"is_reserved":false,"is_disabled":false,"rental_uris":{"android":"levelo://app?vid=1fa8a0cc-49bf-4558-af4b-e496d211f279","ios":"levelo://app?vid=1fa8a0cc-49bf-4558-af4b-e496d211f279"},"vehicle_type_id":"4","last_reported":1709190508,"current_range_meters":30000,"station_id":"ce4bgn12rcd13ifvqbt0","pricing_plan_id":"cebpf4jnsgd1na2vs0mg"},{"bike_id":"b96480c6-2ba1-4d85-9b00-6358933b4779","system_id":"levelo_inurba_marseille","lat":43.2968,"lon":5.37291,"is_reserved":false,"is_disabled":false,"rental_uris":{"android":"levelo://app?vid=b96480c6-2ba1-4d85-9b00-6358933b4779","ios":"levelo://app?vid=b96480c6-2ba1-4d85-9b00-6358933b4779"},"vehicle_type_id":"4","last_reported":1709190508,"current_range_meters":28800,"station_id":"ce4bgk12rcd13ifvqbj0","pricing_plan_id":"cebpf4jnsgd1na2vs0mg"},{"bike_id":"b853ed67-3174-475e-9274-9bff8210c1fc","system_id":"levelo_inurba_marseille","lat":43.2968,"lon":5.37291,"is_reserved":false,"is_disabled":false,"rental_uris":{"android":"levelo://app?vid=b853ed67-3174-475e-9274-9bff8210c1fc","ios":"levelo://app?vid=b853ed67-3174-475e-9274-9bff8210c1fc"},"vehicle_type_id":"4","last_reported":1709190508,"current_range_meters":11200,"station_id":"ce4bgk12rcd13ifvqbj0","pricing_plan_id":"cebpf4jnsgd1na2vs0mg"},{"bike_id":"ff2affa1-0ff9-419a-b43f-8d916cb04d59","system_id":"levelo_inurba_marseille","lat":43.315193,"lon":5.389353,"is_reserved":false,"is_disabled":false,"rental_uris":{"android":"levelo://app?vid=ff2affa1-0ff9-419a-b43f-8d916cb04d59","ios":"levelo://app?vid=ff2affa1-0ff9-419a-b43f-8d916cb04d59"},"vehicle_type_id":"4","last_reported":1709190508,"current_range_meters":26000,"station_id":"","pricing_plan_id":"cebpf4jnsgd1na2vs0mg"},{"bike_id":"1b2b4d73-c177-4dc4-83c6-fad410154d6c","system_id":"levelo_inurba_marseille","lat":43.2968,"lon":5.37291,"is_reserved":false,"is_disabled":false,"rental_uris":{"android":"levelo://app?vid=1b2b4d73-c177-4dc4-83c6-fad410154d6c","ios":"levelo://app?vid=1b2b4d73-c177-4dc4-83c6-fad410154d6c"},"vehicle_type_id":"4","last_reported":1709190508,"current_range_meters":31200,"station_id":"ce4bgk12rcd13ifvqbj0","pricing_plan_id":"cebpf4jnsgd1na2vs0mg"},{"bike_id":"7e29d69a-7936-4d26-9ab1-5881ae0acbd7","system_id":"levelo_inurba_marseille","lat":43.296131,"lon":5.370773,"is_reserved":false,"is_disabled":false,"rental_uris":{"android":"levelo://app?vid=7e29d69a-7936-4d26-9ab1-5881ae0acbd7","ios":"levelo://app?vid=7e29d69a-7936-4d26-9ab1-5881ae0acbd7"},"vehicle_type_id":"4","last_reported":1709190508,"current_range_meters":24400,"station_id":"ce4bgnh2rcd13ifvqc0g","pricing_plan_id":"cebpf4jnsgd1na2vs0mg"},{"bike_id":"568e34ab-15d3-4a51-9f63-cdce9575a40d","system_id":"levelo_inurba_marseille","lat":43.299028,"lon":5.381509,"is_reserved":false,"is_disabled":false,"rental_uris":{"android":"levelo://app?vid=568e34ab-15d3-4a51-9f63-cdce9575a40d","ios":"levelo://app?vid=568e34ab-15d3-4a51-9f63-cdce9575a40d"},"vehicle_type_id":"4","last_reported":1709190508,"current_range_meters":31200,"station_id":"ce4bgj12rcd13ifvqbc0","pricing_plan_id":"cebpf4jnsgd1na2vs0mg"},{"bike_id":"48c1fc5c-041b-4502-938b-465efa8aeac2","system_id":"levelo_inurba_marseille","lat":43.296935,"lon":5.376544,"is_reserved":false,"is_disabled":false,"rental_uris":{"android":"levelo://app?vid=48c1fc5c-041b-4502-938b-465efa8aeac2","ios":"levelo://app?vid=48c1fc5c-041b-4502-938b-465efa8aeac2"},"vehicle_type_id":"4","last_reported":1709190508,"current_range_meters":30000,"station_id":"ce4bgkh2rcd13ifvqbl0","pricing_plan_id":"cebpf4jnsgd1na2vs0mg"},{"bike_id":"4b8a2724-9f04-41aa-8850-aad066163a11","system_id":"levelo_inurba_marseille","lat":43.299028,"lon":5.381509,"is_reserved":false,"is_disabled":false,"rental_uris":{"android":"levelo://app?vid=4b8a2724-9f04-41aa-8850-aad066163a11","ios":"levelo://app?vid=4b8a2724-9f04-41aa-8850-aad066163a11"},"vehicle_type_id":"4","last_reported":1709190508,"current_range_meters":22800,"station_id":"ce4bgj12rcd13ifvqbc0","pricing_plan_id":"cebpf4jnsgd1na2vs0mg"},{"bike_id":"dea0c678-320f-454d-a208-86c4b23917fa","system_id":"levelo_inurba_marseille","lat":43.299028,"lon":5.381509,"is_reserved":false,"is_disabled":false,"rental_uris":{"android":"levelo://app?vid=dea0c678-320f-454d-a208-86c4b23917fa","ios":"levelo://app?vid=dea0c678-320f-454d-a208-86c4b23917fa"},"vehicle_type_id":"4","last_reported":1709190508,"current_range_meters":15200,"station_id":"ce4bgj12rcd13ifvqbc0","pricing_plan_id":"cebpf4jnsgd1na2vs0mg"},{"bike_id":"0addc57e-a66e-48bd-8256-7609e4f63ca1","system_id":"levelo_inurba_marseille","lat":43.299028,"lon":5.381509,"is_reserved":false,"is_disabled":false,"rental_uris":{"android":"levelo://app?vid=0addc57e-a66e-48bd-8256-7609e4f63ca1","ios":"levelo://app?vid=0addc57e-a66e-48bd-8256-7609e4f63ca1"},"vehicle_type_id":"4","last_reported":1709190508,"current_range_meters":23600,"station_id":"ce4bgj12rcd13ifvqbc0","pricing_plan_id":"cebpf4jnsgd1na2vs0mg"},{"bike_id":"89709178-7c24-4651-8e81-c9996671eef3","system_id":"levelo_inurba_marseille","lat":43.299028,"lon":5.381509,"is_reserved":false,"is_disabled":false,"rental_uris":{"android":"levelo://app?vid=89709178-7c24-4651-8e81-c9996671eef3","ios":"levelo://app?vid=89709178-7c24-4651-8e81-c9996671eef3"},"vehicle_type_id":"4","last_reported":1709190508,"current_range_meters":18800,"station_id":"ce4bgj12rcd13ifvqbc0","pricing_plan_id":"cebpf4jnsgd1na2vs0mg"},{"bike_id":"df322cda-757a-45d1-8725-1088a0ab64e4","system_id":"levelo_inurba_marseille","lat":43.296921,"lon":5.376579,"is_reserved":false,"is_disabled":false,"rental_uris":{"android":"levelo://app?vid=df322cda-757a-45d1-8725-1088a0ab64e4","ios":"levelo://app?vid=df322cda-757a-45d1-8725-1088a0ab64e4"},"vehicle_type_id":"4","last_reported":1709190508,"current_range_meters":23200,"station_id":"ce4bgkh2rcd13ifvqbl0","pricing_plan_id":"cebpf4jnsgd1na2vs0mg"},{"bike_id":"2708220c-0076-4118-9368-a247ff4846a6","system_id":"levelo_inurba_marseille","lat":43.299028,"lon":5.381509,"is_reserved":false,"is_disabled":false,"rental_uris":{"android":"levelo://app?vid=2708220c-0076-4118-9368-a247ff4846a6","ios":"levelo://app?vid=2708220c-0076-4118-9368-a247ff4846a6"},"vehicle_type_id":"4","last_reported":1709190508,"current_range_meters":19200,"station_id":"ce4bgj12rcd13ifvqbc0","pricing_plan_id":"cebpf4jnsgd1na2vs0mg"},{"bike_id":"f69e5dee-9631-461a-938b-8437c36efb5b","system_id":"levelo_inurba_marseille","lat":43.299028,"lon":5.381509,"is_reserved":false,"is_disabled":false,"rental_uris":{"android":"levelo://app?vid=f69e5dee-9631-461a-938b-8437c36efb5b","ios":"levelo://app?vid=f69e5dee-9631-461a-938b-8437c36efb5b"},"vehicle_type_id":"4","last_reported":1709190508,"current_range_meters":25200,"station_id":"ce4bgj12rcd13ifvqbc0","pricing_plan_id":"cebpf4jnsgd1na2vs0mg"},{"bike_id":"ee8cfad3-6331-48cf-a63a-1e0c390952bc","system_id":"levelo_inurba_marseille","lat":43.296935,"lon":5.376544,"is_reserved":false,"is_disabled":false,"rental_uris":{"android":"levelo://app?vid=ee8cfad3-6331-48cf-a63a-1e0c390952bc","ios":"levelo://app?vid=ee8cfad3-6331-48cf-a63a-1e0c390952bc"},"vehicle_type_id":"4","last_reported":1709190508,"current_range_meters":18800,"station_id":"ce4bgkh2rcd13ifvqbl0","pricing_plan_id":"cebpf4jnsgd1na2vs0mg"},{"bike_id":"aff2b2f5-5592-4423-a6a4-8e63ce899e74","system_id":"levelo_inurba_marseille","lat":43.299028,"lon":5.381509,"is_reserved":false,"is_disabled":false,"rental_uris":{"android":"levelo://app?vid=aff2b2f5-5592-4423-a6a4-8e63ce899e74","ios":"levelo://app?vid=aff2b2f5-5592-4423-a6a4-8e63ce899e74"},"vehicle_type_id":"4","last_reported":1709190508,"current_range_meters":31200,"station_id":"ce4bgj12rcd13ifvqbc0","pricing_plan_id":"cebpf4jnsgd1na2vs0mg"},{"bike_id":"533a5d10-f102-4b96-94cc-14c937122206","system_id":"levelo_inurba_marseille","lat":43.296921,"lon":5.376579,"is_reserved":false,"is_disabled":false,"rental_uris":{"android":"levelo://app?vid=533a5d10-f102-4b96-94cc-14c937122206","ios":"levelo://app?vid=533a5d10-f102-4b96-94cc-14c937122206"},"vehicle_type_id":"4","last_reported":1709190508,"current_range_meters":5600,"station_id":"ce4bgkh2rcd13ifvqbl0","pricing_plan_id":"cebpf4jnsgd1na2vs0mg"},{"bike_id":"aff0345c-5010-45c7-aa56-06121a0cec5b","system_id":"levelo_inurba_marseille","lat":43.309589,"lon":5.390258,"is_reserved":false,"is_disabled":false,"rental_uris":{"android":"levelo://app?vid=aff0345c-5010-45c7-aa56-06121a0cec5b","ios":"levelo://app?vid=aff0345c-5010-45c7-aa56-06121a0cec5b"},"vehicle_type_id":"4","last_reported":1709190508,"current_range_meters":20400,"station_id":"ce4bgup2rcd13ifvqco0","pricing_plan_id":"cebpf4jnsgd1na2vs0mg"},{"bike_id":"7fbab1ca-e065-44d8-998f-cdee7abdb51e","system_id":"levelo_inurba_marseille","lat":43.309589,"lon":5.390258,"is_reserved":false,"is_disabled":false,"rental_uris":{"android":"levelo://app?vid=7fbab1ca-e065-44d8-998f-cdee7abdb51e","ios":"levelo://app?vid=7fbab1ca-e065-44d8-998f-cdee7abdb51e"},"vehicle_type_id":"4","last_reported":1709190508,"current_range_meters":31200,"station_id":"ce4bgup2rcd13ifvqco0","pricing_plan_id":"cebpf4jnsgd1na2vs0mg"},{"bike_id":"37b20d20-17bc-4607-8784-3168fa918148","system_id":"levelo_inurba_marseille","lat":43.309589,"lon":5.390258,"is_reserved":false,"is_disabled":false,"rental_uris":{"android":"levelo://app?vid=37b20d20-17bc-4607-8784-3168fa918148","ios":"levelo://app?vid=37b20d20-17bc-4607-8784-3168fa918148"},"vehicle_type_id":"4","last_reported":1709190508,"current_range_meters":31600,"station_id":"ce4bgup2rcd13ifvqco0","pricing_plan_id":"cebpf4jnsgd1na2vs0mg"},{"bike_id":"049896af-3d84-4df6-87b5-75175a0923e7","system_id":"levelo_inurba_marseille","lat":43.296935,"lon":5.376544,"is_reserved":false,"is_disabled":false,"rental_uris":{"android":"levelo://app?vid=049896af-3d84-4df6-87b5-75175a0923e7","ios":"levelo://app?vid=049896af-3d84-4df6-87b5-75175a0923e7"},"vehicle_type_id":"4","last_reported":1709190508,"current_range_meters":30000,"station_id":"ce4bgkh2rcd13ifvqbl0","pricing_plan_id":"cebpf4jnsgd1na2vs0mg"},{"bike_id":"c1965630-19b5-4498-b81c-0a3fab3f58bf","system_id":"levelo_inurba_marseille","lat":43.317557,"lon":5.390173,"is_reserved":false,"is_disabled":false,"rental_uris":{"android":"levelo://app?vid=c1965630-19b5-4498-b81c-0a3fab3f58bf","ios":"levelo://app?vid=c1965630-19b5-4498-b81c-0a3fab3f58bf"},"vehicle_type_id":"4","last_reported":1709190508,"current_range_meters":22400,"station_id":"ce4bhqp2rcd13ifvqhng","pricing_plan_id":"cebpf4jnsgd1na2vs0mg"},{"bike_id":"d5b29b07-7b24-406e-ba50-5ab614892777","system_id":"levelo_inurba_marseille","lat":43.31758,"lon":5.39016,"is_reserved":false,"is_disabled":false,"rental_uris":{"android":"levelo://app?vid=d5b29b07-7b24-406e-ba50-5ab614892777","ios":"levelo://app?vid=d5b29b07-7b24-406e-ba50-5ab614892777"},"vehicle_type_id":"4","last_reported":1709190508,"current_range_meters":27600,"station_id":"ce4bhqp2rcd13ifvqhng","pricing_plan_id":"cebpf4jnsgd1na2vs0mg"},{"bike_id":"09e6c4a9-49d9-4789-9cfc-b13992b43c9c","system_id":"levelo_inurba_marseille","lat":43.317557,"lon":5.390173,"is_reserved":false,"is_disabled":false,"rental_uris":{"android":"levelo://app?vid=09e6c4a9-49d9-4789-9cfc-b13992b43c9c","ios":"levelo://app?vid=09e6c4a9-49d9-4789-9cfc-b13992b43c9c"},"vehicle_type_id":"4","last_reported":1709190508,"current_range_meters":3200,"station_id":"ce4bhqp2rcd13ifvqhng","pricing_plan_id":"cebpf4jnsgd1na2vs0mg"},{"bike_id":"b00bbd98-d25e-461a-b33a-9144dfa8b748","system_id":"levelo_inurba_marseille","lat":43.317557,"lon":5.390173,"is_reserved":false,"is_disabled":false,"rental_uris":{"android":"levelo://app?vid=b00bbd98-d25e-461a-b33a-9144dfa8b748","ios":"levelo://app?vid=b00bbd98-d25e-461a-b33a-9144dfa8b748"},"vehicle_type_id":"4","last_reported":1709190508,"current_range_meters":31600,"station_id":"ce4bhqp2rcd13ifvqhng","pricing_plan_id":"cebpf4jnsgd1na2vs0mg"},{"bike_id":"4711bf3c-a44f-4f93-9dba-3e09c745a58e","system_id":"levelo_inurba_marseille","lat":43.298037,"lon":5.381066,"is_reserved":false,"is_disabled":false,"rental_uris":{"android":"levelo://app?vid=4711bf3c-a44f-4f93-9dba-3e09c745a58e","ios":"levelo://app?vid=4711bf3c-a44f-4f93-9dba-3e09c745a58e"},"vehicle_type_id":"4","last_reported":1709190508,"current_range_meters":25200,"station_id":"ce4bgip2rcd13ifvqbb0","pricing_plan_id":"cebpf4jnsgd1na2vs0mg"},{"bike_id":"94eebbcf-952c-44a8-9bfd-12c2bfca79d0","system_id":"levelo_inurba_marseille","lat":43.295748,"lon":5.37522,"is_reserved":false,"is_disabled":false,"rental_uris":{"android":"levelo://app?vid=94eebbcf-952c-44a8-9bfd-12c2bfca79d0","ios":"levelo://app?vid=94eebbcf-952c-44a8-9bfd-12c2bfca79d0"},"vehicle_type_id":"4","last_reported":1709190508,"current_range_meters":29200,"station_id":"ce4bgh92rcd13ifvqb50","pricing_plan_id":"cebpf4jnsgd1na2vs0mg"},{"bike_id":"49077500-a11b-48fd-854a-9a33ee7bd561","system_id":"levelo_inurba_marseille","lat":43.298037,"lon":5.381066,"is_reserved":false,"is_disabled":false,"rental_uris":{"android":"levelo://app?vid=49077500-a11b-48fd-854a-9a33ee7bd561","ios":"levelo://app?vid=49077500-a11b-48fd-854a-9a33ee7bd561"},"vehicle_type_id":"4","last_reported":1709190508,"current_range_meters":18400,"station_id":"ce4bgip2rcd13ifvqbb0","pricing_plan_id":"cebpf4jnsgd1na2vs0mg"},{"bike_id":"7db9b63f-f7cc-4245-8b0d-7255e1ef9ae7","system_id":"levelo_inurba_marseille","lat":43.304343,"lon":5.388856,"is_reserved":false,"is_disabled":false,"rental_uris":{"android":"levelo://app?vid=7db9b63f-f7cc-4245-8b0d-7255e1ef9ae7","ios":"levelo://app?vid=7db9b63f-f7cc-4245-8b0d-7255e1ef9ae7"},"vehicle_type_id":"4","last_reported":1709190508,"current_range_meters":3600,"station_id":"ce4bgk12rcd13ifvqbi0","pricing_plan_id":"cebpf4jnsgd1na2vs0mg"},{"bike_id":"af2dc84e-f0be-49f2-9307-eb4b29cce69c","system_id":"levelo_inurba_marseille","lat":43.304278,"lon":5.388868,"is_reserved":false,"is_disabled":false,"rental_uris":{"android":"levelo://app?vid=af2dc84e-f0be-49f2-9307-eb4b29cce69c","ios":"levelo://app?vid=af2dc84e-f0be-49f2-9307-eb4b29cce69c"},"vehicle_type_id":"4","last_reported":1709190508,"current_range_meters":6400,"station_id":"ce4bgk12rcd13ifvqbi0","pricing_plan_id":"cebpf4jnsgd1na2vs0mg"},{"bike_id":"f1e842b4-5ccb-4339-a39f-ce36adea0f10","system_id":"levelo_inurba_marseille","lat":43.295748,"lon":5.37522,"is_reserved":false,"is_disabled":false,"rental_uris":{"android":"levelo://app?vid=f1e842b4-5ccb-4339-a39f-ce36adea0f10","ios":"levelo://app?vid=f1e842b4-5ccb-4339-a39f-ce36adea0f10"},"vehicle_type_id":"4","last_reported":1709190508,"current_range_meters":26800,"station_id":"ce4bgh92rcd13ifvqb50","pricing_plan_id":"cebpf4jnsgd1na2vs0mg"},{"bike_id":"1ce10d66-d538-4b80-be01-d0849639ef5b","system_id":"levelo_inurba_marseille","lat":43.304274,"lon":5.388873,"is_reserved":false,"is_disabled":false,"rental_uris":{"android":"levelo://app?vid=1ce10d66-d538-4b80-be01-d0849639ef5b","ios":"levelo://app?vid=1ce10d66-d538-4b80-be01-d0849639ef5b"},"vehicle_type_id":"4","last_reported":1709190508,"current_range_meters":23200,"station_id":"ce4bgk12rcd13ifvqbi0","pricing_plan_id":"cebpf4jnsgd1na2vs0mg"},{"bike_id":"dc44bb21-8725-4927-876f-9a7c8a8fa245","system_id":"levelo_inurba_marseille","lat":43.296277,"lon":5.377108,"is_reserved":false,"is_disabled":false,"rental_uris":{"android":"levelo://app?vid=dc44bb21-8725-4927-876f-9a7c8a8fa245","ios":"levelo://app?vid=dc44bb21-8725-4927-876f-9a7c8a8fa245"},"vehicle_type_id":"4","last_reported":1709190508,"current_range_meters":26800,"station_id":"ce4bgi92rcd13ifvqb90","pricing_plan_id":"cebpf4jnsgd1na2vs0mg"},{"bike_id":"49cb6d56-453c-49fa-8498-9c557c6eb5e3","system_id":"levelo_inurba_marseille","lat":43.296184,"lon":5.377182,"is_reserved":false,"is_disabled":false,"rental_uris":{"android":"levelo://app?vid=49cb6d56-453c-49fa-8498-9c557c6eb5e3","ios":"levelo://app?vid=49cb6d56-453c-49fa-8498-9c557c6eb5e3"},"vehicle_type_id":"4","last_reported":1709190508,"current_range_meters":1600,"station_id":"ce4bgi92rcd13ifvqb90","pricing_plan_id":"cebpf4jnsgd1na2vs0mg"},{"bike_id":"8d605f4f-7563-4812-8829-ddf345fba304","system_id":"levelo_inurba_marseille","lat":43.296263,"lon":5.377094,"is_reserved":false,"is_disabled":false,"rental_uris":{"android":"levelo://app?vid=8d605f4f-7563-4812-8829-ddf345fba304","ios":"levelo://app?vid=8d605f4f-7563-4812-8829-ddf345fba304"},"vehicle_type_id":"4","last_reported":1709190508,"current_range_meters":16400,"station_id":"ce4bgi92rcd13ifvqb90","pricing_plan_id":"cebpf4jnsgd1na2vs0mg"},{"bike_id":"37dedacf-2192-40a5-935c-85b1aef4c670","system_id":"levelo_inurba_marseille","lat":43.299707,"lon":5.384859,"is_reserved":false,"is_disabled":false,"rental_uris":{"android":"levelo://app?vid=37dedacf-2192-40a5-935c-85b1aef4c670","ios":"levelo://app?vid=37dedacf-2192-40a5-935c-85b1aef4c670"},"vehicle_type_id":"4","last_reported":1709190508,"current_range_meters":31600,"station_id":"ce4bgj92rcd13ifvqbd0","pricing_plan_id":"cebpf4jnsgd1na2vs0mg"},{"bike_id":"8dd6ee80-6e7c-4a74-88af-f30a113c6e68","system_id":"levelo_inurba_marseille","lat":43.299724,"lon":5.384848,"is_reserved":false,"is_disabled":false,"rental_uris":{"android":"levelo://app?vid=8dd6ee80-6e7c-4a74-88af-f30a113c6e68","ios":"levelo://app?vid=8dd6ee80-6e7c-4a74-88af-f30a113c6e68"},"vehicle_type_id":"4","last_reported":1709190508,"current_range_meters":23200,"station_id":"ce4bgj92rcd13ifvqbd0","pricing_plan_id":"cebpf4jnsgd1na2vs0mg"},{"bike_id":"297fbcf6-e905-4942-8f4e-0d700aa5a576","system_id":"levelo_inurba_marseille","lat":43.299707,"lon":5.384859,"is_reserved":false,"is_disabled":false,"rental_uris":{"android":"levelo://app?vid=297fbcf6-e905-4942-8f4e-0d700aa5a576","ios":"levelo://app?vid=297fbcf6-e905-4942-8f4e-0d700aa5a576"},"vehicle_type_id":"4","last_reported":1709190508,"current_range_meters":16800,"station_id":"ce4bgj92rcd13ifvqbd0","pricing_plan_id":"cebpf4jnsgd1na2vs0mg"},{"bike_id":"3270c047-aeaa-40e5-ad4d-fc7ddaa44e95","system_id":"levelo_inurba_marseille","lat":43.299707,"lon":5.384859,"is_reserved":false,"is_disabled":false,"rental_uris":{"android":"levelo://app?vid=3270c047-aeaa-40e5-ad4d-fc7ddaa44e95","ios":"levelo://app?vid=3270c047-aeaa-40e5-ad4d-fc7ddaa44e95"},"vehicle_type_id":"4","last_reported":1709190508,"current_range_meters":12000,"station_id":"ce4bgj92rcd13ifvqbd0","pricing_plan_id":"cebpf4jnsgd1na2vs0mg"},{"bike_id":"e7463246-9054-4ce2-9510-715397657c21","system_id":"levelo_inurba_marseille","lat":43.299717,"lon":5.384845,"is_reserved":false,"is_disabled":false,"rental_uris":{"android":"levelo://app?vid=e7463246-9054-4ce2-9510-715397657c21","ios":"levelo://app?vid=e7463246-9054-4ce2-9510-715397657c21"},"vehicle_type_id":"4","last_reported":1709190508,"current_range_meters":1600,"station_id":"ce4bgj92rcd13ifvqbd0","pricing_plan_id":"cebpf4jnsgd1na2vs0mg"},