{"last_updated":1721153446,"ttl":30,"version":"2.2","data":{"bikes":[{"bike_id":"f8123c9d-44f4-4801-b131-cccf45e401eb","system_id":"levelo_inurba_marseille","lat":43.313391,"lon":5.36706,"is_reserved":false,"is_disabled":false,"rental_uris":{"android":"levelo://app?vid=f8123c9d-44f4-4801-b131-cccf45e401eb","ios":"levelo://app?vid=f8123c9d-44f4-4801-b131-cccf45e401eb"},"vehicle_type_id":"4","last_reported":1721153446,"current_range_meters":12800,"station_id":"ce4bgr92rcd13ifvqc6g","pricing_plan_id":"cebpf4jnsgd1na2vs0mg"},{"bike_id":"5e5c3eb7-7a63-438f-b7a9-d0ebc87779fc","system_id":"levelo_inurba_marseille","lat":43.312239,"lon":5.368562,"is_reserved":false,"is_disabled":false,"rental_uris":{"android":"levelo://app?vid=5e5c3eb7-7a63-438f-b7a9-d0ebc87779fc","ios":"levelo://app?vid=5e5c3eb7-7a63-438f-b7a9-d0ebc87779fc"},"vehicle_type_id":"4","last_reported":1721153446,"current_range_meters":1600,"station_id":"ce4bgl92rcd13ifvqbq0","pricing_plan_id":"cebpf4jnsgd1na2vs0mg"},{"bike_id":"63f4d6df-332b-49af-a95f-201123e332c1","system_id":"levelo_inurba_marseille","lat":43.3123,"lon":5.36863,"is_reserved":false,"is_disabled":false,"rental_uris":{"android":"levelo://app?vid=63f4d6df-332b-49af-a95f-201123e332c1","ios":"levelo://app?vid=63f4d6df-332b-49af-a95f-201123e332c1"},"vehicle_type_id":"4","last_reported":1721153446,"current_range_meters":31200,"station_id":"ce4bgl92rcd13ifvqbq0","pricing_plan_id":"cebpf4jnsgd1na2vs0mg"},{"bike_id":"7b2bd0e2-9a75-4f4d-9f73-c57d87275b4d","system_id":"levelo_inurba_marseille","lat":43.314811,"lon":5.373104,"is_reserved":false,"is_disabled":false,"rental_uris":{"android":"levelo://app?vid=7b2bd0e2-9a75-4f4d-9f73-c57d87275b4d","ios":"levelo://app?vid=7b2bd0e2-9a75-4f4d-9f73-c57d87275b4d"},"vehicle_type_id":"4","last_reported":1721153446,"current_range_meters":16400,"station_id":"ce4bgt12rcd13ifvqcd0","pricing_plan_id":"cebpf4jnsgd1na2vs0mg"},{"bike_id":"0c80d1aa-57fb-472f-9ae1-082229ceec8c","system_id":"levelo_inurba_marseille","lat":43.305989,"lon":5.37225,"is_reserved":false,"is_disabled":false,"rental_uris":{"android":"levelo://app?vid=0c80d1aa-57fb-472f-9ae1-082229ceec8c","ios":"levelo://app?vid=0c80d1aa-57fb-472f-9ae1-082229ceec8c"},"vehicle_type_id":"4","last_reported":1721153446,"current_range_meters":6800,"station_id":"ce4bgqh2rcd13ifvqc4g","pricing_plan_id":"cebpf4jnsgd1na2vs0mg"},{"bike_id":"32ad027f-5c31-4b39-93c3-e7be853c54d6","system_id":"levelo_inurba_marseille","lat":43.305989,"lon":5.37225,"is_reserved":false,"is_disabled":false,"rental_uris":{"android":"levelo://app?vid=32ad027f-5c31-4b39-93c3-e7be853c54d6","ios":"levelo://app?vid=32ad027f-5c31-4b39-93c3-e7be853c54d6"},"vehicle_type_id":"4","last_reported":1721153446,"current_range_meters":23600,"station_id":"ce4bgqh2rcd13ifvqc4g","pricing_plan_id":"cebpf4jnsgd1na2vs0mg"},{"bike_id":"aa9d151f-7337-4d9b-9309-e41c6f060b6a","system_id":"levelo_inurba_marseille","lat":43.31119,"lon":5.37767,"is_reserved":false,"is_disabled":false,"rental_uris":{"android":"levelo://app?vid=aa9d151f-7337-4d9b-9309-e41c6f060b6a","ios":"levelo://app?vid=aa9d151f-7337-4d9b-9309-e41c6f060b6a"},"vehicle_type_id":"4","last_reported":1721153446,"current_range_meters":31200,"station_id":"ce4bgt92rcd13ifvqcg0","pricing_plan_id":"cebpf4jnsgd1na2vs0mg"},{"bike_id":"8ed14c93-7793-4de8-aaa6-e565c4611148","system_id":"levelo_inurba_marseille","lat":43.317075,"lon":5.377367,"is_reserved":false,"is_disabled":false,"rental_uris":{"android":"levelo://app?vid=8ed14c93-7793-4de8-aaa6-e565c4611148","ios":"levelo://app?vid=8ed14c93-7793-4de8-aaa6-e565c4611148"},"vehicle_type_id":"4","last_reported":1721153446,"current_range_meters":31200,"station_id":"ce4bgth2rcd13ifvqch0","pricing_plan_id":"cebpf4jnsgd1na2vs0mg"},{"bike_id":"0393e822-2978-4df8-92fe-c41ad6a4db49","system_id":"levelo_inurba_marseille","lat":43.315289,"lon":5.380349,"is_reserved":false,"is_disabled":false,"rental_uris":{"android":"levelo://app?vid=0393e822-2978-4df8-92fe-c41ad6a4db49","ios":"levelo://app?vid=0393e822-2978-4df8-92fe-c41ad6a4db49"},"vehicle_type_id":"4","last_reported":1721153446,"current_range_meters":14800,"station_id":"ce4bhsp2rcd13ifvqi50","pricing_plan_id":"cebpf4jnsgd1na2vs0mg"},{"bike_id":"8270a248-36b9-4869-b2cf-d1399cb77a83","system_id":"levelo_inurba_marseille","lat":43.324771,"lon":5.36557,"is_reserved":false,"is_disabled":false,"rental_uris":{"android":"levelo://app?vid=8270a248-36b9-4869-b2cf-d1399cb77a83","ios":"levelo://app?vid=8270a248-36b9-4869-b2cf-d1399cb77a83"},"vehicle_type_id":"4","last_reported":1721153446,"current_range_meters":20800,"station_id":"ce4bhs12rcd13ifvqhvg","pricing_plan_id":"cebpf4jnsgd1na2vs0mg"},{"bike_id":"d89e05d4-1ec6-48f1-948b-bbca82680765","system_id":"levelo_inurba_marseille","lat":43.30911,"lon":5.38032,"is_reserved":false,"is_disabled":false,"rental_uris":{"android":"levelo://app?vid=d89e05d4-1ec6-48f1-948b-bbca82680765","ios":"levelo://app?vid=d89e05d4-1ec6-48f1-948b-bbca82680765"},"vehicle_type_id":"4","last_reported":1721153446,"current_range_meters":4400,"station_id":"","pricing_plan_id":"cebpf4jnsgd1na2vs0mg"},{"bike_id":"f4a3a7d9-1ca4-4ef2-9fe4-d81bc80f2ed5","system_id":"levelo_inurba_marseille","lat":43.308012,"lon":5.381511,"is_reserved":false,"is_disabled":false,"rental_uris":{"android":"levelo://app?vid=f4a3a7d9-1ca4-4ef2-9fe4-d81bc80f2ed5","ios":"levelo://app?vid=f4a3a7d9-1ca4-4ef2-9fe4-d81bc80f2ed5"},"vehicle_type_id":"4","last_reported":1721153446,"current_range_meters":31200,"station_id":"ce4bgt12rcd13ifvqce0","pricing_plan_id":"cebpf4jnsgd1na2vs0mg"},{"bike_id":"d4c3388d-c0fd-4e5b-9c5a-fc56160ac71b","system_id":"levelo_inurba_marseille","lat":43.308012,"lon":5.381511,"is_reserved":false,"is_disabled":false,"rental_uris":{"android":"levelo://app?vid=d4c3388d-c0fd-4e5b-9c5a-fc56160ac71b","ios":"levelo://app?vid=d4c3388d-c0fd-4e5b-9c5a-fc56160ac71b"},"vehicle_type_id":"4","last_reported":1721153446,"current_range_meters":31200,"station_id":"ce4bgt12rcd13ifvqce0","pricing_plan_id":"cebpf4jnsgd1na2vs0mg"},{"bike_id":"4a84fccc-6db7-47de-8a82-32dcb429473d","system_id":"levelo_inurba_marseille","lat":43.304606,"lon":5.379026,"is_reserved":false,"is_disabled":false,"rental_uris":{"android":"levelo://app?vid=4a84fccc-6db7-47de-8a82-32dcb429473d","ios":"levelo://app?vid=4a84fccc-6db7-47de-8a82-32dcb429473d"},"vehicle_type_id":"4","last_reported":1721153446,"current_range_meters":6000,"station_id":"ce4bgup2rcd13ifvqcn0","pricing_plan_id":"cebpf4jnsgd1na2vs0mg"},{"bike_id":"8b45c80a-442c-40cd-bd45-288397333a4a","system_id":"levelo_inurba_marseille","lat":43.304606,"lon":5.379026,"is_reserved":false,"is_disabled":false,"rental_uris":{"android":"levelo://app?vid=8b45c80a-442c-40cd-bd45-288397333a4a","ios":"levelo://app?vid=8b45c80a-442c-40cd-bd45-288397333a4a"},"vehicle_type_id":"4","last_reported":1721153446,"current_range_meters":8400,"station_id":"ce4bgup2rcd13ifvqcn0","pricing_plan_id":"cebpf4jnsgd1na2vs0mg"},{"bike_id":"57e1a5c5-167c-4b26-875c-cad5081ccb4c","system_id":"levelo_inurba_marseille","lat":43.32484,"lon":5.36564,"is_reserved":false,"is_disabled":false,"rental_uris":{"android":"levelo://app?vid=57e1a5c5-167c-4b26-875c-cad5081ccb4c","ios":"levelo://app?vid=57e1a5c5-167c-4b26-875c-cad5081ccb4c"},"vehicle_type_id":"4","last_reported":1721153446,"current_range_meters":18000,"station_id":"ce4bhs12rcd13ifvqhvg","pricing_plan_id":"cebpf4jnsgd1na2vs0mg"},{"bike_id":"a9bd770c-f7c2-4e42-b207-9afc1dc1cbbd","system_id":"levelo_inurba_marseille","lat":43.324771,"lon":5.36557,"is_reserved":false,"is_disabled":false,"rental_uris":{"android":"levelo://app?vid=a9bd770c-f7c2-4e42-b207-9afc1dc1cbbd","ios":"levelo://app?vid=a9bd770c-f7c2-4e42-b207-9afc1dc1cbbd"},"vehicle_type_id":"4","last_reported":1721153446,"current_range_meters":6400,"station_id":"ce4bhs12rcd13ifvqhvg","pricing_plan_id":"cebpf4jnsgd1na2vs0mg"},{"bike_id":"e6f01fc3-90c0-4a40-b15f-9509de2e5d81","system_id":"levelo_inurba_marseille","lat":43.324771,"lon":5.36557,"is_reserved":false,"is_disabled":false,"rental_uris":{"android":"levelo://app?vid=e6f01fc3-90c0-4a40-b15f-9509de2e5d81","ios":"levelo://app?vid=e6f01fc3-90c0-4a40-b15f-9509de2e5d81"},"vehicle_type_id":"4","last_reported":1721153446,"current_range_meters":4400,"station_id":"ce4bhs12rcd13ifvqhvg","pricing_plan_id":"cebpf4jnsgd1na2vs0mg"},{"bike_id":"73053e8e-9575-496e-9684-111cf386c8a8","system_id":"levelo_inurba_marseille","lat":43.310766,"lon":5.383481,"is_reserved":false,"is_disabled":false,"rental_uris":{"android":"levelo://app?vid=73053e8e-9575-496e-9684-111cf386c8a8","ios":"levelo://app?vid=73053e8e-9575-496e-9684-111cf386c8a8"},"vehicle_type_id":"4","last_reported":1721153446,"current_range_meters":13200,"station_id":"ce4bgv92rcd13ifvqcr0","pricing_plan_id":"cebpf4jnsgd1na2vs0mg"},{"bike_id":"10da8086-6901-47f0-91cc-328fa372c1cf","system_id":"levelo_inurba_marseille","lat":43.31074,"lon":5.38349,"is_reserved":false,"is_disabled":false,"rental_uris":{"android":"levelo://app?vid=10da8086-6901-47f0-91cc-328fa372c1cf","ios":"levelo://app?vid=10da8086-6901-47f0-91cc-328fa372c1cf"},"vehicle_type_id":"4","last_reported":1721153446,"current_range_meters":24800,"station_id":"ce4bgv92rcd13ifvqcr0","pricing_plan_id":"cebpf4jnsgd1na2vs0mg"},{"bike_id":"965f5c8a-2495-4e19-9919-9ab63bdf6593","system_id":"levelo_inurba_marseille","lat":43.310804,"lon":5.38359,"is_reserved":false,"is_disabled":false,"rental_uris":{"android":"levelo://app?vid=965f5c8a-2495-4e19-9919-9ab63bdf6593","ios":"levelo://app?vid=965f5c8a-2495-4e19-9919-9ab63bdf6593"},"vehicle_type_id":"4","last_reported":1721153446,"current_range_meters":27600,"station_id":"ce4bgv92rcd13ifvqcr0","pricing_plan_id":"cebpf4jnsgd1na2vs0mg"},{"bike_id":"68de74bb-b985-4f5b-9c0c-d701cde67560","system_id":"levelo_inurba_marseille","lat":43.302784,"lon":5.377158,"is_reserved":false,"is_disabled":false,"rental_uris":{"android":"levelo://app?vid=68de74bb-b985-4f5b-9c0c-d701cde67560","ios":"levelo://app?vid=68de74bb-b985-4f5b-9c0c-d701cde67560"},"vehicle_type_id":"4","last_reported":1721153446,"current_range_meters":26400,"station_id":"ce4bguh2rcd13ifvqcj0","pricing_plan_id":"cebpf4jnsgd1na2vs0mg"},{"bike_id":"a045dc95-8adf-48d6-aa12-50bf51869764","system_id":"levelo_inurba_marseille","lat":43.319935,"lon":5.381699,"is_reserved":false,"is_disabled":false,"rental_uris":{"android":"levelo://app?vid=a045dc95-8adf-48d6-aa12-50bf51869764","ios":"levelo://app?vid=a045dc95-8adf-48d6-aa12-50bf51869764"},"vehicle_type_id":"4","last_reported":1721153446,"current_range_meters":22400,"station_id":"ce4bhr12rcd13ifvqhpg","pricing_plan_id":"cebpf4jnsgd1na2vs0mg"},{"bike_id":"526a2a2e-6984-449c-b7cf-7d7555fc28a2","system_id":"levelo_inurba_marseille","lat":43.319935,"lon":5.381699,"is_reserved":false,"is_disabled":false,"rental_uris":{"android":"levelo://app?vid=526a2a2e-6984-449c-b7cf-7d7555fc28a2","ios":"levelo://app?vid=526a2a2e-6984-449c-b7cf-7d7555fc28a2"},"vehicle_type_id":"4","last_reported":1721153446,"current_range_meters":0,"station_id":"ce4bhr12rcd13ifvqhpg","pricing_plan_id":"cebpf4jnsgd1na2vs0mg"},{"bike_id":"62acbaf5-c320-46ce-9fb3-d16f3f1a64b4","system_id":"levelo_inurba_marseille","lat":43.319935,"lon":5.381699,"is_reserved":false,"is_disabled":false,"rental_uris":{"android":"levelo://app?vid=62acbaf5-c320-46ce-9fb3-d16f3f1a64b4","ios":"levelo://app?vid=62acbaf5-c320-46ce-9fb3-d16f3f1a64b4"},"vehicle_type_id":"4","last_reported":1721153446,"current_range_meters":6800,"station_id":"ce4bhr12rcd13ifvqhpg","pricing_plan_id":"cebpf4jnsgd1na2vs0mg"},{"bike_id":"41984021-7053-4eb8-8955-c997ccd67ec0","system_id":"levelo_inurba_marseille","lat":43.30334,"lon":5.379197,"is_reserved":false,"is_disabled":false,"rental_uris":{"android":"levelo://app?vid=41984021-7053-4eb8-8955-c997ccd67ec0","ios":"levelo://app?vid=41984021-7053-4eb8-8955-c997ccd67ec0"},"vehicle_type_id":"4","last_reported":1721153446,"current_range_meters":12400,"station_id":"ce4bhq12rcd13ifvqhig","pricing_plan_id":"cebpf4jnsgd1na2vs0mg"},{"bike_id":"a7eb54a2-29d7-4dc1-9e41-a38535bed7fa","system_id":"levelo_inurba_marseille","lat":43.29943,"lon":5.36543,"is_reserved":false,"is_disabled":false,"rental_uris":{"android":"levelo://app?vid=a7eb54a2-29d7-4dc1-9e41-a38535bed7fa","ios":"levelo://app?vid=a7eb54a2-29d7-4dc1-9e41-a38535bed7fa"},"vehicle_type_id":"4","last_reported":1721153446,"current_range_meters":26400,"station_id":"ce4bgm92rcd13ifvqbr0","pricing_plan_id":"cebpf4jnsgd1na2vs0mg"},{"bike_id":"ca73a6c2-11ad-4c39-b376-25a1a7808262","system_id":"levelo_inurba_marseille","lat":43.309535,"lon":5.386282,"is_reserved":false,"is_disabled":false,"rental_uris":{"android":"levelo://app?vid=ca73a6c2-11ad-4c39-b376-25a1a7808262","ios":"levelo://app?vid=ca73a6c2-11ad-4c39-b376-25a1a7808262"},"vehicle_type_id":"4","last_reported":1721153446,"current_range_meters":25600,"station_id":"","pricing_plan_id":"cebpf4jnsgd1na2vs0mg"},{"bike_id":"c88cd1e4-83c2-4ba9-93b6-647f18aad973","system_id":"levelo_inurba_marseille","lat":43.298433,"lon":5.362774,"is_reserved":false,"is_disabled":false,"rental_uris":{"android":"levelo://app?vid=c88cd1e4-83c2-4ba9-93b6-647f18aad973","ios":"levelo://app?vid=c88cd1e4-83c2-4ba9-93b6-647f18aad973"},"vehicle_type_id":"4","last_reported":1721153446,"current_range_meters":2400,"station_id":"ce4bgpp2rcd13ifvqc3g","pricing_plan_id":"cebpf4jnsgd1na2vs0mg"},{"bike_id":"e7b20a83-c55c-4c8f-b89b-e78df11af6a8","system_id":"levelo_inurba_marseille","lat":43.305364,"lon":5.384119,"is_reserved":false,"is_disabled":false,"rental_uris":{"android":"levelo://app?vid=e7b20a83-c55c-4c8f-b89b-e78df11af6a8","ios":"levelo://app?vid=e7b20a83-c55c-4c8f-b89b-e78df11af6a8"},"vehicle_type_id":"4","last_reported":1721153446,"current_range_meters":30800,"station_id":"ce4bgg92rcd13ifvqb30","pricing_plan_id":"cebpf4jnsgd1na2vs0mg"},{"bike_id":"54d96034-5e4e-4d9e-ba2e-f95c904392b7","system_id":"levelo_inurba_marseille","lat":43.311722,"lon":5.387247,"is_reserved":false,"is_disabled":false,"rental_uris":{"android":"levelo://app?vid=54d96034-5e4e-4d9e-ba2e-f95c904392b7","ios":"levelo://app?vid=54d96034-5e4e-4d9e-ba2e-f95c904392b7"},"vehicle_type_id":"4","last_reported":1721153446,"current_range_meters":2800,"station_id":"ce4bgv12rcd13ifvqcp0","pricing_plan_id":"cebpf4jnsgd1na2vs0mg"},{"bike_id":"2a1c2886-c8d6-4da5-a470-aeb8ccea7dfe","system_id":"levelo_inurba_marseille","lat":43.311722,"lon":5.387247,"is_reserved":false,"is_disabled":false,"rental_uris":{"android":"levelo://app?vid=2a1c2886-c8d6-4da5-a470-aeb8ccea7dfe","ios":"levelo://app?vid=2a1c2886-c8d6-4da5-a470-aeb8ccea7dfe"},"vehicle_type_id":"4","last_reported":1721153446,"current_range_meters":7200,"station_id":"ce4bgv12rcd13ifvqcp0","pricing_plan_id":"cebpf4jnsgd1na2vs0mg"},{"bike_id":"1c69c7ff-ab68-4f65-a5ee-a6f544f23dcc","system_id":"levelo_inurba_marseille","lat":43.311722,"lon":5.387247,"is_reserved":false,"is_disabled":false,"rental_uris":{"android":"levelo://app?vid=1c69c7ff-ab68-4f65-a5ee-a6f544f23dcc","ios":"levelo://app?vid=1c69c7ff-ab68-4f65-a5ee-a6f544f23dcc"},"vehicle_type_id":"4","last_reported":1721153446,"current_range_meters":9200,"station_id":"ce4bgv12rcd13ifvqcp0","pricing_plan_id":"cebpf4jnsgd1na2vs0mg"},{"bike_id":"b738ebcf-a7d9-4937-9702-ba972dae2ce3","system_id":"levelo_inurba_marseille","lat":43.311722,"lon":5.387247,"is_reserved":false,"is_disabled":false,"rental_uris":{"android":"levelo://app?vid=b738ebcf-a7d9-4937-9702-ba972dae2ce3","ios":"levelo://app?vid=b738ebcf-a7d9-4937-9702-ba972dae2ce3"},"vehicle_type_id":"4","last_reported":1721153446,"current_range_meters":16400,"station_id":"ce4bgv12rcd13ifvqcp0","pricing_plan_id":"cebpf4jnsgd1na2vs0mg"},{"bike_id":"ff96f8ec-6d3f-4e5d-b95e-036e3a91221f","system_id":"levelo_inurba_marseille","lat":43.297774,"lon":5.370875,"is_reserved":false,"is_disabled":false,"rental_uris":{"android":"levelo://app?vid=ff96f8ec-6d3f-4e5d-b95e-036e3a91221f","ios":"levelo://app?vid=ff96f8ec-6d3f-4e5d-b95e-036e3a91221f"},"vehicle_type_id":"4","last_reported":1721153446,"current_range_meters":26800,"station_id":"ce4bgop2rcd13ifvqc1g","pricing_plan_id":"cebpf4jnsgd1na2vs0mg"},{"bike_id":"bf88fd81-3fba-4217-a64f-28c728e137d7","system_id":"levelo_inurba_marseille","lat":43.322872,"lon":5.382756,"is_reserved":false,"is_disabled":false,"rental_uris":{"android":"levelo://app?vid=bf88fd81-3fba-4217-a64f-28c728e137d7","ios":"levelo://app?vid=bf88fd81-3fba-4217-a64f-28c728e137d7"},"vehicle_type_id":"4","last_reported":1721153446,"current_range_meters":26000,"station_id":"ce4bhr12rcd13ifvqhqg","pricing_plan_id":"cebpf4jnsgd1na2vs0mg"},{"bike_id":"2e192265-b022-48f5-bb88-508cd0991475","system_id":"levelo_inurba_marseille","lat":43.29573,"lon":5.367355,"is_reserved":false,"is_disabled":false,"rental_uris":{"android":"levelo://app?vid=2e192265-b022-48f5-bb88-508cd0991475","ios":"levelo://app?vid=2e192265-b022-48f5-bb88-508cd0991475"},"vehicle_type_id":"4","last_reported":1721153446,"current_range_meters":19600,"station_id":"ce4bgph2rcd13ifvqc2g","pricing_plan_id":"cebpf4jnsgd1na2vs0mg"},{"bike_id":"941fd525-681d-4844-8625-0a3504999054","system_id":"levelo_inurba_marseille","lat":43.296935,"lon":5.376544,"is_reserved":false,"is_disabled":false,"rental_uris":{"android":"levelo://app?vid=941fd525-681d-4844-8625-0a3504999054","ios":"levelo://app?vid=941fd525-681d-4844-8625-0a3504999054"},"vehicle_type_id":"4","last_reported":1721153446,"current_range_meters":6400,"station_id":"ce4bgkh2rcd13ifvqbl0","pricing_plan_id":"cebpf4jnsgd1na2vs0mg"},{"bike_id":"e48066be-6685-4769-9232-121ba3eaea9c","system_id":"levelo_inurba_marseille","lat":43.296921,"lon":5.376579,"is_reserved":false,"is_disabled":false,"rental_uris":{"android":"levelo://app?vid=e48066be-6685-4769-9232-121ba3eaea9c","ios":"levelo://app?vid=e48066be-6685-4769-9232-121ba3eaea9c"},"vehicle_type_id":"4","last_reported":1721153446,"current_range_meters":2400,"station_id":"ce4bgkh2rcd13ifvqbl0","pricing_plan_id":"cebpf4jnsgd1na2vs0mg"},{"bike_id":"c4bb5d16-bf1e-43ce-a639-f8a73156158c","system_id":"levelo_inurba_marseille","lat":43.309589,"lon":5.390258,"is_reserved":false,"is_disabled":false,"rental_uris":{"android":"levelo://app?vid=c4bb5d16-bf1e-43ce-a639-f8a73156158c","ios":"levelo://app?vid=c4bb5d16-bf1e-43ce-a639-f8a73156158c"},"vehicle_type_id":"4","last_reported":1721153446,"current_range_meters":22400,"station_id":"ce4bgup2rcd13ifvqco0","pricing_plan_id":"cebpf4jnsgd1na2vs0mg"},{"bike_id":"d7fa3cb8-4457-4a3b-8607-43d311421687","system_id":"levelo_inurba_marseille","lat":43.309589,"lon":5.390258,"is_reserved":false,"is_disabled":false,"rental_uris":{"android":"levelo://app?vid=d7fa3cb8-4457-4a3b-8607-43d311421687","ios":"levelo://app?vid=d7fa3cb8-4457-4a3b-8607-43d311421687"},"vehicle_type_id":"4","last_reported":1721153446,"current_range_meters":17600,"station_id":"ce4bgup2rcd13ifvqco0","pricing_plan_id":"cebpf4jnsgd1na2vs0mg"},{"bike_id":"b5f3d75d-1d60-4f84-9cea-1d894659b59a","system_id":"levelo_inurba_marseille","lat":43.298037,"lon":5.381066,"is_reserved":false,"is_disabled":false,"rental_uris":{"android":"levelo://app?vid=b5f3d75d-1d60-4f84-9cea-1d894659b59a","ios":"levelo://app?vid=b5f3d75d-1d60-4f84-9cea-1d894659b59a"},"vehicle_type_id":"4","last_reported":1721153446,"current_range_meters":4000,"station_id":"ce4bgip2rcd13ifvqbb0","pricing_plan_id":"cebpf4jnsgd1na2vs0mg"},{"bike_id":"733b8d3f-32b1-4970-b6ed-2cd3bba70f43","system_id":"levelo_inurba_marseille","lat":43.298037,"lon":5.381066,"is_reserved":false,"is_disabled":false,"rental_uris":{"android":"levelo://app?vid=733b8d3f-32b1-4970-b6ed-2cd3bba70f43","ios":"levelo://app?vid=733b8d3f-32b1-4970-b6ed-2cd3bba70f43"},"vehicle_type_id":"4","last_reported":1721153446,"current_range_meters":0,"station_id":"ce4bgip2rcd13ifvqbb0","pricing_plan_id":"cebpf4jnsgd1na2vs0mg"},{"bike_id":"1728b5a6-cbb6-46cc-96b4-a766e5d7058d","system_id":"levelo_inurba_marseille","lat":43.304274,"lon":5.388873,"is_reserved":false,"is_disabled":false,"rental_uris":{"android":"levelo://app?vid=1728b5a6-cbb6-46cc-96b4-a766e5d7058d","ios":"levelo://app?vid=1728b5a6-cbb6-46cc-96b4-a766e5d7058d"},"vehicle_type_id":"4","last_reported":1721153446,"current_range_meters":28400,"station_id":"ce4bgk12rcd13ifvqbi0","pricing_plan_id":"cebpf4jnsgd1na2vs0mg"},{"bike_id":"74001b96-925e-4b5f-b5c4-cdc228367628","system_id":"levelo_inurba_marseille","lat":43.298037,"lon":5.381066,"is_reserved":false,"is_disabled":false,"rental_uris":{"android":"levelo://app?vid=74001b96-925e-4b5f-b5c4-cdc228367628","ios":"levelo://app?vid=74001b96-925e-4b5f-b5c4-cdc228367628"},"vehicle_type_id":"4","last_reported":1721153446,"current_range_meters":22800,"station_id":"ce4bgip2rcd13ifvqbb0","pricing_plan_id":"cebpf4jnsgd1na2vs0mg"},{"bike_id":"d98cb0e9-7a81-4f2a-832d-3487ede15352","system_id":"levelo_inurba_marseille","lat":43.295748,"lon":5.37522,"is_reserved":false,"is_disabled":false,"rental_uris":{"android":"levelo://app?vid=d98cb0e9-7a81-4f2a-832d-3487ede15352","ios":"levelo://app?vid=d98cb0e9-7a81-4f2a-832d-3487ede15352"},"vehicle_type_id":"4","last_reported":1721153446,"current_range_meters":13600,"station_id":"ce4bgh92rcd13ifvqb50","pricing_plan_id":"cebpf4jnsgd1na2vs0mg"},{"bike_id":"f41cbf67-ac5f-41b3-9351-bbed803485e8","system_id":"levelo_inurba_marseille","lat":43.304274,"lon":5.388873,"is_reserved":false,"is_disabled":false,"rental_uris":{"android":"levelo://app?vid=f41cbf67-ac5f-41b3-9351-bbed803485e8","ios":"levelo://app?vid=f41cbf67-ac5f-41b3-9351-bbed803485e8"},"vehicle_type_id":"4","last_reported":1721153446,"current_range_meters":9600,"station_id":"ce4bgk12rcd13ifvqbi0","pricing_plan_id":"cebpf4jnsgd1na2vs0mg"},{"bike_id":"71d3dd9d-5691-4092-9235-3fc39e6c213e","system_id":"levelo_inurba_marseille","lat":43.304278,"lon":5.388868,"is_reserved":false,"is_disabled":false,"rental_uris":{"android":"levelo://app?vid=71d3dd9d-5691-4092-9235-3fc39e6c213e","ios":"levelo://app?vid=71d3dd9d-5691-4092-9235-3fc39e6c213e"},"vehicle_type_id":"4","last_reported":1721153446,"current_range_meters":12400,"station_id":"ce4bgk12rcd13ifvqbi0","pricing_plan_id":"cebpf4jnsgd1na2vs0mg"},{"bike_id":"2832253f-7066-4aa8-9ca3-ea78318807ad","system_id":"levelo_inurba_marseille","lat":43.298037,"lon":5.381066,"is_reserved":false,"is_disabled":false,"rental_uris":{"android":"levelo://app?vid=2832253f-7066-4aa8-9ca3-ea78318807ad","ios":"levelo://app?vid=2832253f-7066-4aa8-9ca3-ea78318807ad"},"vehicle_type_id":"4","last_reported":1721153446,"current_range_meters":15200,"station_id":"ce4bgip2rcd13ifvqbb0","pricing_plan_id":"cebpf4jnsgd1na2vs0mg"},{"bike_id":"6dee53e4-0d16-4ad8-ae65-03d4126af656","system_id":"levelo_inurba_marseille","lat":43.29528,"lon":5.37452,"is_reserved":false,"is_disabled":false,"rental_uris":{"android":"levelo://app?vid=6dee53e4-0d16-4ad8-ae65-03d4126af656","ios":"levelo://app?vid=6dee53e4-0d16-4ad8-ae65-03d4126af656"},"vehicle_type_id":"4","last_reported":1721153446,"current_range_meters":0,"station_id":"ce4bgkp2rcd13ifvqbmg","pricing_plan_id":"cebpf4jnsgd1na2vs0mg"},{"bike_id":"f3163975-433c-4428-879d-b756f620cfc4","system_id":"levelo_inurba_marseille","lat":43.295279,"lon":5.375048,"is_reserved":false,"is_disabled":false,"rental_uris":{"android":"levelo://app?vid=f3163975-433c-4428-879d-b756f620cfc4","ios":"levelo://app?vid=f3163975-433c-4428-879d-b756f620cfc4"},"vehicle_type_id":"4","last_reported":1721153446,"current_range_meters":26000,"station_id":"ce4bgkp2rcd13ifvqbmg","pricing_plan_id":"cebpf4jnsgd1na2vs0mg"},{"bike_id":"5201a5d0-b483-4505-8bc4-e4a582ae214a","system_id":"levelo_inurba_marseille","lat":43.299707,"lon":5.384859,"is_reserved":false,"is_disabled":false,"rental_uris":{"android":"levelo://app?vid=5201a5d0-b483-4505-8bc4-e4a582ae214a","ios":"levelo://app?vid=5201a5d0-b483-4505-8bc4-e4a582ae214a"},"vehicle_type_id":"4","last_reported":1721153446,"current_range_meters":24400,"station_id":"ce4bgj92rcd13ifvqbd0","pricing_plan_id":"cebpf4jnsgd1na2vs0mg"},{"bike_id":"ce538852-eb85-43a6-b8cc-0e567dd4019a","system_id":"levelo_inurba_marseille","lat":43.299724,"lon":5.384848,"is_reserved":false,"is_disabled":false,"rental_uris":{"android":"levelo://app?vid=ce538852-eb85-43a6-b8cc-0e567dd4019a","ios":"levelo://app?vid=ce538852-eb85-43a6-b8cc-0e567dd4019a"},"vehicle_type_id":"4","last_reported":1721153446,"current_range_meters":0,"station_id":"ce4bgj92rcd13ifvqbd0","pricing_plan_id":"cebpf4jnsgd1na2vs0mg"},{"bike_id":"b22de904-e6c7-4a3f-b89e-5336bf927004","system_id":"levelo_inurba_marseille","lat":43.299717,"lon":5.384845,"is_reserved":false,"is_disabled":false,"rental_uris":{"android":"levelo://app?vid=b22de904-e6c7-4a3f-b89e-5336bf927004","ios":"levelo://app?vid=b22de904-e6c7-4a3f-b89e-5336bf927004"},"vehicle_type_id":"4","last_reported":1721153446,"current_range_meters":400,"station_id":"ce4bgj92rcd13ifvqbd0","pricing_plan_id":"cebpf4jnsgd1na2vs0mg"},{"bike_id":"8fc7b36a-a36b-4a88-8465-462bcb126a70","system_id":"levelo_inurba_marseille","lat":43.295279,"lon":5.375048,"is_reserved":false,"is_disabled":false,"rental_uris":{"android":"levelo://app?vid=8fc7b36a-a36b-4a88-8465-462bcb126a70","ios":"levelo://app?vid=8fc7b36a-a36b-4a88-8465-462bcb126a70"},"vehicle_type_id":"4","last_reported":1721153446,"current_range_meters":21600,"station_id":"ce4bgkp2rcd13ifvqbmg","pricing_plan_id":"cebpf4jnsgd1na2vs0mg"},{"bike_id":"239e0100-b84f-4d5b-85c7-945abfb4d8fa","system_id":"levelo_inurba_marseille","lat":43.29553,"lon":5.37723,"is_reserved":false,"is_disabled":false,"rental_uris":{"android":"levelo://app?vid=239e0100-b84f-4d5b-85c7-945abfb4d8fa","ios":"levelo://app?vid=239e0100-b84f-4d5b-85c7-945abfb4d8fa"},"vehicle_type_id":"4","last_reported":1721153446,"current_range_meters":4400,"station_id":"","pricing_plan_id":"cebpf4jnsgd1na2vs0mg"},{"bike_id":"314ab464-169e-4bc9-88fe-dc4abd3d9b25","system_id":"levelo_inurba_marseille","lat":43.32365,"lon":5.38878,"is_reserved":false,"is_disabled":false,"rental_uris":{"android":"levelo://app?vid=314ab464-169e-4bc9-88fe-dc4abd3d9b25","ios":"levelo://app?vid=314ab464-169e-4bc9-88fe-dc4abd3d9b25"},"vehicle_type_id":"4","last_reported":1721153446,"current_range_meters":3600,"station_id":"ce4bhqp2rcd13ifvqhog","pricing_plan_id":"cebpf4jnsgd1na2vs0mg"},{"bike_id":"93caa171-7e15-47a3-9c37-7255178aa401","system_id":"levelo_inurba_marseille","lat":43.32371,"lon":5.38882,"is_reserved":false,"is_disabled":false,"rental_uris":{"android":"levelo://app?vid=93caa171-7e15-47a3-9c37-7255178aa401","ios":"levelo://app?vid=93caa171-7e15-47a3-9c37-7255178aa401"},"vehicle_type_id":"4","last_reported":1721153446,"current_range_meters":1600,"station_id":"ce4bhqp2rcd13ifvqhog","pricing_plan_id":"cebpf4jnsgd1na2vs0mg"},{"bike_id":"cd2ec312-9de5-488d-b816-f4f566a595c1","system_id":"levelo_inurba_marseille","lat":43.317557,"lon":5.390173,"is_reserved":false,"is_disabled":false,"rental_uris":{"android":"levelo://app?vid=cd2ec312-9de5-488d-b816-f4f566a595c1","ios":"levelo://app?vid=cd2ec312-9de5-488d-b816-f4f566a595c1"},"vehicle_type_id":"4","last_reported":1721153446,"current_range_meters":28000,"station_id":"ce4bhqp2rcd13ifvqhng","pricing_plan_id":"cebpf4jnsgd1na2vs0mg"},{"bike_id":"2e1e0602-c3a4-4ddf-8244-75a2f0e77dcd","system_id":"levelo_inurba_marseille","lat":43.29602,"lon":5.381084,"is_reserved":false,"is_disabled":false,"rental_uris":{"android":"levelo://app?vid=2e1e0602-c3a4-4ddf-8244-75a2f0e77dcd","ios":"levelo://app?vid=2e1e0602-c3a4-4ddf-8244-75a2f0e77dcd"},"vehicle_type_id":"4","last_reported":1721153446,"current_range_meters":14400,"station_id":"ce4bgl12rcd13ifvqbo0","pricing_plan_id":"cebpf4jnsgd1na2vs0mg"},{"bike_id":"a7b56d8d-e5c8-4c82-9cfc-8a036bc83770","system_id":"levelo_inurba_marseille","lat":43.29313,"lon":5.37172,"is_reserved":false,"is_disabled":false,"rental_uris":{"android":"levelo://app?vid=a7b56d8d-e5c8-4c82-9cfc-8a036bc83770","ios":"levelo://app?vid=a7b56d8d-e5c8-4c82-9cfc-8a036bc83770"},"vehicle_type_id":"4","last_reported":1721153446,"current_range_meters":10400,"station_id":"ce4bgh92rcd13ifvqb40","pricing_plan_id":"cebpf4jnsgd1na2vs0mg"},{"bike_id":"b481f5df-5062-4d08-8f9b-26ccdc5cf4d4","system_id":"levelo_inurba_marseille","lat":43.292749,"lon":5.368402,"is_reserved":false,"is_disabled":false,"rental_uris":{"android":"levelo://app?vid=b481f5df-5062-4d08-8f9b-26ccdc5cf4d4","ios":"levelo://app?vid=b481f5df-5062-4d08-8f9b-26ccdc5cf4d4"},"vehicle_type_id":"4","last_reported":1721153446,"current_range_meters":5600,"station_id":"ce4bhbp2rcd13ifvqesg","pricing_plan_id":"cebpf4jnsgd1na2vs0mg"},{"bike_id":"783236cc-33f8-4c4e-8e09-500ace29be15","system_id":"levelo_inurba_marseille","lat":43.292749,"lon":5.368402,"is_reserved":false,"is_disabled":false,"rental_uris":{"android":"levelo://app?vid=783236cc-33f8-4c4e-8e09-500ace29be15","ios":"levelo://app?vid=783236cc-33f8-4c4e-8e09-500ace29be15"},"vehicle_type_id":"4","last_reported":1721153446,"current_range_meters":26800,"station_id":"ce4bhbp2rcd13ifvqesg","pricing_plan_id":"cebpf4jnsgd1na2vs0mg"},{"bike_id":"017c6a3b-6e75-4f88-a0b1-aa4e45b11b86","system_id":"levelo_inurba_marseille","lat":43.292749,"lon":5.368402,"is_reserved":false,"is_disabled":false,"rental_uris":{"android":"levelo://app?vid=017c6a3b-6e75-4f88-a0b1-aa4e45b11b86","ios":"levelo://app?vid=017c6a3b-6e75-4f88-a0b1-aa4e45b11b86"},"vehicle_type_id":"4","last_reported":1721153446,"current_range_meters":26000,"station_id":"ce4bhbp2rcd13ifvqesg","pricing_plan_id":"cebpf4jnsgd1na2vs0mg"},{"bike_id":"09942d31-04f7-473b-9bc3-2fde39d1fd64","system_id":"levelo_inurba_marseille","lat":43.292749,"lon":5.368402,"is_reserved":false,"is_disabled":false,"rental_uris":{"android":"levelo://app?vid=09942d31-04f7-473b-9bc3-2fde39d1fd64","ios":"levelo://app?vid=09942d31-04f7-473b-9bc3-2fde39d1fd64"},"vehicle_type_id":"4","last_reported":1721153446,"current_range_meters":31200,"station_id":"ce4bhbp2rcd13ifvqesg","pricing_plan_id":"cebpf4jnsgd1na2vs0mg"},{"bike_id":"a62e8de0-e2a5-454c-a240-a39447fb2d9b","system_id":"levelo_inurba_marseille","lat":43.292749,"lon":5.368402,"is_reserved":false,"is_disabled":false,"rental_uris":{"android":"levelo://app?vid=a62e8de0-e2a5-454c-a240-a39447fb2d9b","ios":"levelo://app?vid=a62e8de0-e2a5-454c-a240-a39447fb2d9b"},"vehicle_type_id":"4","last_reported":1721153446,"current_range_meters":31200,"station_id":"ce4bhbp2rcd13ifvqesg","pricing_plan_id":"cebpf4jnsgd1na2vs0mg"},{"bike_id":"f384a59b-2a51-49a8-aadc-440e88ed0f25","system_id":"levelo_inurba_marseille","lat":43.29271,"lon":5.36843,"is_reserved":false,"is_disabled":false,"rental_uris":{"android":"levelo://app?vid=f384a59b-2a51-49a8-aadc-440e88ed0f25","ios":"levelo://app?vid=f384a59b-2a51-49a8-aadc-440e88ed0f25"},"vehicle_type_id":"4","last_reported":1721153446,"current_range_meters":24800,"station_id":"","pricing_plan_id":"cebpf4jnsgd1na2vs0mg"},{"bike_id":"5e4a06c7-935b-4d5b-8a66-0fd0312b876f","system_id":"levelo_inurba_marseille","lat":43.292749,"lon":5.368402,"is_reserved":false,"is_disabled":false,"rental_uris":{"android":"levelo://app?vid=5e4a06c7-935b-4d5b-8a66-0fd0312b876f","ios":"levelo://app?vid=5e4a06c7-935b-4d5b-8a66-0fd0312b876f"},"vehicle_type_id":"4","last_reported":1721153446,"current_range_meters":31600,"station_id":"ce4bhbp2rcd13ifvqesg","pricing_plan_id":"cebpf4jnsgd1na2vs0mg"},{"bike_id":"c2323acb-be01-4407-a93d-5175a4458133","system_id":"levelo_inurba_marseille","lat":43.292749,"lon":5.368402,"is_reserved":false,"is_disabled":false,"rental_uris":{"android":"levelo://app?vid=c2323acb-be01-4407-a93d-5175a4458133","ios":"levelo://app?vid=c2323acb-be01-4407-a93d-5175a4458133"},"vehicle_type_id":"4","last_reported":1721153446,"current_range_meters":31200,"station_id":"ce4bhbp2rcd13ifvqesg","pricing_plan_id":"cebpf4jnsgd1na2vs0mg"},{"bike_id":"928d1c4a-0efd-4508-938f-0adf7598950d","system_id":"levelo_inurba_marseille","lat":43.2927,"lon":5.36839,"is_reserved":false,"is_disabled":false,"rental_uris":{"android":"levelo://app?vid=928d1c4a-0efd-4508-938f-0adf7598950d","ios":"levelo://app?vid=928d1c4a-0efd-4508-938f-0adf7598950d"},"vehicle_type_id":"4","last_reported":1721153446,"current_range_meters":13600,"station_id":"ce4bhbp2rcd13ifvqesg","pricing_plan_id":"cebpf4jnsgd1na2vs0mg"},{"bike_id":"2c2a3471-a361-4e79-a878-b2fede33fe76","system_id":"levelo_inurba_marseille","lat":43.29266,"lon":5.3684,"is_reserved":false,"is_disabled":false,"rental_uris":{"android":"levelo://app?vid=2c2a3471-a361-4e79-a878-b2fede33fe76","ios":"levelo://app?vid=2c2a3471-a361-4e79-a878-b2fede33fe76"},"vehicle_type_id":"4","last_reported":1721153446,"current_range_meters":31200,"station_id":"","pricing_plan_id":"cebpf4jnsgd1na2vs0mg"},{"bike_id":"1eed7411-8944-4d47-b673-7ec7882fdccb","system_id":"levelo_inurba_marseille","lat":43.29307,"lon":5.37459,"is_reserved":false,"is_disabled":false,"rental_uris":{"android":"levelo://app?vid=1eed7411-8944-4d47-b673-7ec7882fdccb","ios":"levelo://app?vid=1eed7411-8944-4d47-b673-7ec7882fdccb"},"vehicle_type_id":"4","last_reported":1721153446,"current_range_meters":0,"station_id":"ce4bgi12rcd13ifvqb70","pricing_plan_id":"cebpf4jnsgd1na2vs0mg"},{"bike_id":"72c8946d-68fc-48b8-86d6-d91ec8a2e9ac","system_id":"levelo_inurba_marseille","lat":43.293009,"lon":5.374584,"is_reserved":false,"is_disabled":false,"rental_uris":{"android":"levelo://app?vid=72c8946d-68fc-48b8-86d6-d91ec8a2e9ac","ios":"levelo://app?vid=72c8946d-68fc-48b8-86d6-d91ec8a2e9ac"},"vehicle_type_id":"4","last_reported":1721153446,"current_range_meters":6800,"station_id":"ce4bgi12rcd13ifvqb70","pricing_plan_id":"cebpf4jnsgd1na2vs0mg"},{"bike_id":"124e32c4-5b68-4474-a722-89c449818f5c","system_id":"levelo_inurba_marseille","lat":43.3058,"lon":5.393557,"is_reserved":false,"is_disabled":false,"rental_uris":{"android":"levelo://app?vid=124e32c4-5b68-4474-a722-89c449818f5c","ios":"levelo://app?vid=124e32c4-5b68-4474-a722-89c449818f5c"},"vehicle_type_id":"4","last_reported":1721153446,"current_range_meters":11200,"station_id":"ce4bh0p2rcd13ifvqd80","pricing_plan_id":"cebpf4jnsgd1na2vs0mg"},{"bike_id":"66d0a300-6737-4ddb-b0af-caa305f3f313","system_id":"levelo_inurba_marseille","lat":43.30307,"lon":5.39197,"is_reserved":false,"is_disabled":false,"rental_uris":{"android":"levelo://app?vid=66d0a300-6737-4ddb-b0af-caa305f3f313","ios":"levelo://app?vid=66d0a300-6737-4ddb-b0af-caa305f3f313"},"vehicle_type_id":"4","last_reported":1721153446,"current_range_meters":31200,"station_id":"ce4bgkh2rcd13ifvqbk0","pricing_plan_id":"cebpf4jnsgd1na2vs0mg"},{"bike_id":"ad3a0b2f-dbc1-449e-81a1-bacacf056556","system_id":"levelo_inurba_marseille","lat":43.303002,"lon":5.392142,"is_reserved":false,"is_disabled":false,"rental_uris":{"android":"levelo://app?vid=ad3a0b2f-dbc1-449e-81a1-bacacf056556","ios":"levelo://app?vid=ad3a0b2f-dbc1-449e-81a1-bacacf056556"},"vehicle_type_id":"4","last_reported":1721153446,"current_range_meters":0,"station_id":"ce4bgkh2rcd13ifvqbk0","pricing_plan_id":"cebpf4jnsgd1na2vs0mg"},{"bike_id":"eda1898d-3cdd-4012-bf4f-8cc3e8a4a620","system_id":"levelo_inurba_marseille","lat":43.2936,"lon":5.37835,"is_reserved":false,"is_disabled":false,"rental_uris":{"android":"levelo://app?vid=eda1898d-3cdd-4012-bf4f-8cc3e8a4a620","ios":"levelo://app?vid=eda1898d-3cdd-4012-bf4f-8cc3e8a4a620"},"vehicle_type_id":"4","last_reported":1721153446,"current_range_meters":1200,"station_id":"ce4bgjh2rcd13ifvqbf0","pricing_plan_id":"cebpf4jnsgd1na2vs0mg"},{"bike_id":"93aa0a1f-c05b-46e2-9650-39254c8972f4","system_id":"levelo_inurba_marseille","lat":43.302992,"lon":5.392136,"is_reserved":false,"is_disabled":false,"rental_uris":{"android":"levelo://app?vid=93aa0a1f-c05b-46e2-9650-39254c8972f4","ios":"levelo://app?vid=93aa0a1f-c05b-46e2-9650-39254c8972f4"},"vehicle_type_id":"4","last_reported":1721153446,"current_range_meters":20400,"station_id":"ce4bgkh2rcd13ifvqbk0","pricing_plan_id":"cebpf4jnsgd1na2vs0mg"},{"bike_id":"76419298-3456-42ad-a3b3-6b6d54e51a37","system_id":"levelo_inurba_marseille","lat":43.29373,"lon":5.37838,"is_reserved":false,"is_disabled":false,"rental_uris":{"android":"levelo://app?vid=76419298-3456-42ad-a3b3-6b6d54e51a37","ios":"levelo://app?vid=76419298-3456-42ad-a3b3-6b6d54e51a37"},"vehicle_type_id":"4","last_reported":1721153446,"current_range_meters":31200,"station_id":"ce4bgjh2rcd13ifvqbf0","pricing_plan_id":"cebpf4jnsgd1na2vs0mg"},{"bike_id":"5a84ed5d-f1d7-44ca-b764-2ab4a7db033c","system_id":"levelo_inurba_marseille","lat":43.300973,"lon":5.391153,"is_reserved":false,"is_disabled":false,"rental_uris":{"android":"levelo://app?vid=5a84ed5d-f1d7-44ca-b764-2ab4a7db033c","ios":"levelo://app?vid=5a84ed5d-f1d7-44ca-b764-2ab4a7db033c"},"vehicle_type_id":"4","last_reported":1721153446,"current_range_meters":0,"station_id":"","pricing_plan_id":"cebpf4jnsgd1na2vs0mg"},{"bike_id":"bd85db3d-3508-4fc9-a9e0-8b1556660e80","system_id":"levelo_inurba_marseille","lat":43.298764,"lon":5.388973,"is_reserved":false,"is_disabled":false,"rental_uris":{"android":"levelo://app?vid=bd85db3d-3508-4fc9-a9e0-8b1556660e80","ios":"levelo://app?vid=bd85db3d-3508-4fc9-a9e0-8b1556660e80"},"vehicle_type_id":"4","last_reported":1721153446,"current_range_meters":10800,"station_id":"ce4bh392rcd13ifvqdl0","pricing_plan_id":"cebpf4jnsgd1na2vs0mg"},{"bike_id":"12b8459a-6a87-4648-bb13-5fdd4422523f","system_id":"levelo_inurba_marseille","lat":43.298764,"lon":5.388973,"is_reserved":false,"is_disabled":false,"rental_uris":{"android":"levelo://app?vid=12b8459a-6a87-4648-bb13-5fdd4422523f","ios":"levelo://app?vid=12b8459a-6a87-4648-bb13-5fdd4422523f"},"vehicle_type_id":"4","last_reported":1721153446,"current_range_meters":18400,"station_id":"ce4bh392rcd13ifvqdl0","pricing_plan_id":"cebpf4jnsgd1na2vs0mg"},{"bike_id":"65e8266d-a4b2-42d6-a9fa-ff4b98dd1ba9","system_id":"levelo_inurba_marseille","lat":43.29876,"lon":5.38909,"is_reserved":false,"is_disabled":false,"rental_uris":{"android":"levelo://app?vid=65e8266d-a4b2-42d6-a9fa-ff4b98dd1ba9","ios":"levelo://app?vid=65e8266d-a4b2-42d6-a9fa-ff4b98dd1ba9"},"vehicle_type_id":"4","last_reported":1721153446,"current_range_meters":0,"station_id":"ce4bh392rcd13ifvqdl0","pricing_plan_id":"cebpf4jnsgd1na2vs0mg"},{"bike_id":"b9309c7d-c212-4761-b18e-80ab161b604e","system_id":"levelo_inurba_marseille","lat":43.291675,"lon":5.371583,"is_reserved":false,"is_disabled":false,"rental_uris":{"android":"levelo://app?vid=b9309c7d-c212-4761-b18e-80ab161b604e","ios":"levelo://app?vid=b9309c7d-c212-4761-b18e-80ab161b604e"},"vehicle_type_id":"4","last_reported":1721153446,"current_range_meters":26400,"station_id":"ce4bha92rcd13ifvqeh0","pricing_plan_id":"cebpf4jnsgd1na2vs0mg"},{"bike_id":"4aa1ee8b-6d97-467f-9176-144826aafb34","system_id":"levelo_inurba_marseille","lat":43.29874,"lon":5.38911,"is_reserved":false,"is_disabled":false,"rental_uris":{"android":"levelo://app?vid=4aa1ee8b-6d97-467f-9176-144826aafb34","ios":"levelo://app?vid=4aa1ee8b-6d97-467f-9176-144826aafb34"},"vehicle_type_id":"4","last_reported":1721153446,"current_range_meters":0,"station_id":"ce4bh392rcd13ifvqdl0","pricing_plan_id":"cebpf4jnsgd1na2vs0mg"},{"bike_id":"fde945a3-45e8-41c7-be02-383509d8b584","system_id":"levelo_inurba_marseille","lat":43.291956,"lon":5.35805,"is_reserved":false,"is_disabled":false,"rental_uris":{"android":"levelo://app?vid=fde945a3-45e8-41c7-be02-383509d8b584","ios":"levelo://app?vid=fde945a3-45e8-41c7-be02-383509d8b584"},"vehicle_type_id":"4","last_reported":1721153446,"current_range_meters":800,"station_id":"","pricing_plan_id":"cebpf4jnsgd1na2vs0mg"},{"bike_id":"016e6789-d796-4a65-b93d-656bc2aff030","system_id":"levelo_inurba_marseille","lat":43.292005,"lon":5.357875,"is_reserved":false,"is_disabled":false,"rental_uris":{"android":"levelo://app?vid=016e6789-d796-4a65-b93d-656bc2aff030","ios":"levelo://app?vid=016e6789-d796-4a65-b93d-656bc2aff030"},"vehicle_type_id":"4","last_reported":1721153446,"current_range_meters":0,"station_id":"ce4bhb12rcd13ifvqel0","pricing_plan_id":"cebpf4jnsgd1na2vs0mg"},{"bike_id":"abf3ff41-aea5-4903-8510-c31653cb9552","system_id":"levelo_inurba_marseille","lat":43.313291,"lon":5.396838,"is_reserved":false,"is_disabled":false,"rental_uris":{"android":"levelo://app?vid=abf3ff41-aea5-4903-8510-c31653cb9552","ios":"levelo://app?vid=abf3ff41-aea5-4903-8510-c31653cb9552"},"vehicle_type_id":"4","last_reported":1721153446,"current_range_meters":18000,"station_id":"ce4bgvp2rcd13ifvqcu0","pricing_plan_id":"cebpf4jnsgd1na2vs0mg"},{"bike_id":"37590366-a781-4ea3-9292-8093f4c759ac","system_id":"levelo_inurba_marseille","lat":43.313291,"lon":5.396838,"is_reserved":false,"is_disabled":false,"rental_uris":{"android":"levelo://app?vid=37590366-a781-4ea3-9292-8093f4c759ac","ios":"levelo://app?vid=37590366-a781-4ea3-9292-8093f4c759ac"},"vehicle_type_id":"4","last_reported":1721153446,"current_range_meters":12800,"station_id":"ce4bgvp2rcd13ifvqcu0","pricing_plan_id":"cebpf4jnsgd1na2vs0mg"},{"bike_id":"a392c607-cd65-4624-936c-14211ade0b07","system_id":"levelo_inurba_marseille","lat":43.309038,"lon":5.396546,"is_reserved":false,"is_disabled":false,"rental_uris":{"android":"levelo://app?vid=a392c607-cd65-4624-936c-14211ade0b07","ios":"levelo://app?vid=a392c607-cd65-4624-936c-14211ade0b07"},"vehicle_type_id":"4","last_reported":1721153446,"current_range_meters":4000,"station_id":"ce4bh012rcd13ifvqcv0","pricing_plan_id":"cebpf4jnsgd1na2vs0mg"},{"bike_id":"9cbfb522-e32d-4d6f-b5ee-a87ce39cc3e7","system_id":"levelo_inurba_marseille","lat":43.30147,"lon":5.39284,"is_reserved":false,"is_disabled":false,"rental_uris":{"android":"levelo://app?vid=9cbfb522-e32d-4d6f-b5ee-a87ce39cc3e7","ios":"levelo://app?vid=9cbfb522-e32d-4d6f-b5ee-a87ce39cc3e7"},"vehicle_type_id":"4","last_reported":1721153446,"current_range_meters":14800,"station_id":"","pricing_plan_id":"cebpf4jnsgd1na2vs0mg"},{"bike_id":"7576c95b-e3aa-4ce5-982b-15d861eebeb5","system_id":"levelo_inurba_marseille","lat":43.29529,"lon":5.385581,"is_reserved":false,"is_disabled":false,"rental_uris":{"android":"levelo://app?vid=7576c95b-e3aa-4ce5-982b-15d861eebeb5","ios":"levelo://app?vid=7576c95b-e3aa-4ce5-982b-15d861eebeb5"},"vehicle_type_id":"4","last_reported":1721153446,"current_range_meters":24000,"station_id":"ce4bgih2rcd13ifvqba0","pricing_plan_id":"cebpf4jnsgd1na2vs0mg"},{"bike_id":"886bd381-62fd-4edc-8f0f-ee9cd1a857b3","system_id":"levelo_inurba_marseille","lat":43.29529,"lon":5.385581,"is_reserved":false,"is_disabled":false,"rental_uris":{"android":"levelo://app?vid=886bd381-62fd-4edc-8f0f-ee9cd1a857b3","ios":"levelo://app?vid=886bd381-62fd-4edc-8f0f-ee9cd1a857b3"},"vehicle_type_id":"4","last_reported":1721153446,"current_range_meters":6000,"station_id":"ce4bgih2rcd13ifvqba0","pricing_plan_id":"cebpf4jnsgd1na2vs0mg"},{"bike_id":"e2876e3d-8c02-4118-afed-260bfb29f43b","system_id":"levelo_inurba_marseille","lat":43.29529,"lon":5.385581,"is_reserved":false,"is_disabled":false,"rental_uris":{"android":"levelo://app?vid=e2876e3d-8c02-4118-afed-260bfb29f43b","ios":"levelo://app?vid=e2876e3d-8c02-4118-afed-260bfb29f43b"},"vehicle_type_id":"4","last_reported":1721153446,"current_range_meters":9600,"station_id":"ce4bgih2rcd13ifvqba0","pricing_plan_id":"cebpf4jnsgd1na2vs0mg"},{"bike_id":"97ed91ee-d4ce-41e4-bc35-5ad4bee8a1ce","system_id":"levelo_inurba_marseille","lat":43.29529,"lon":5.385581,"is_reserved":false,"is_disabled":false,"rental_uris":{"android":"levelo://app?vid=97ed91ee-d4ce-41e4-bc35-5ad4bee8a1ce","ios":"levelo://app?vid=97ed91ee-d4ce-41e4-bc35-5ad4bee8a1ce"},"vehicle_type_id":"4","last_reported":1721153446,"current_range_meters":31200,"station_id":"ce4bgih2rcd13ifvqba0","pricing_plan_id":"cebpf4jnsgd1na2vs0mg"},{"bike_id":"72575c8a-312f-4530-958f-072d84b24098","system_id":"levelo_inurba_marseille","lat":43.29529,"lon":5.385581,"is_reserved":false,"is_disabled":false,"rental_uris":{"android":"levelo://app?vid=72575c8a-312f-4530-958f-072d84b24098","ios":"levelo://app?vid=72575c8a-312f-4530-958f-072d84b24098"},"vehicle_type_id":"4","last_reported":1721153446,"current_range_meters":15600,"station_id":"ce4bgih2rcd13ifvqba0","pricing_plan_id":"cebpf4jnsgd1na2vs0mg"},{"bike_id":"ddb15a62-17b8-45a0-903d-edd0902b4b2b","system_id":"levelo_inurba_marseille","lat":43.29529,"lon":5.385581,"is_reserved":false,"is_disabled":false,"rental_uris":{"android":"levelo://app?vid=ddb15a62-17b8-45a0-903d-edd0902b4b2b","ios":"levelo://app?vid=ddb15a62-17b8-45a0-903d-edd0902b4b2b"},"vehicle_type_id":"4","last_reported":1721153446,"current_range_meters":19200,"station_id":"ce4bgih2rcd13ifvqba0","pricing_plan_id":"cebpf4jnsgd1na2vs0mg"},{"bike_id":"a2583f75-2fde-4f00-a1c1-0bcdc18f161a","system_id":"levelo_inurba_marseille","lat":43.29529,"lon":5.385581,"is_reserved":false,"is_disabled":false,"rental_uris":{"android":"levelo://app?vid=a2583f75-2fde-4f00-a1c1-0bcdc18f161a","ios":"levelo://app?vid=a2583f75-2fde-4f00-a1c1-0bcdc18f161a"},"vehicle_type_id":"4","last_reported":1721153446,"current_range_meters":7200,"station_id":"ce4bgih2rcd13ifvqba0","pricing_plan_id":"cebpf4jnsgd1na2vs0mg"},{"bike_id":"f93e3900-35e0-4978-9131-b6994badb1c0","system_id":"levelo_inurba_marseille","lat":43.29529,"lon":5.385581,"is_reserved":false,"is_disabled":false,"rental_uris":{"android":"levelo://app?vid=f93e3900-35e0-4978-9131-b6994badb1c0","ios":"levelo://app?vid=f93e3900-35e0-4978-9131-b6994badb1c0"},"vehicle_type_id":"4","last_reported":1721153446,"current_range_meters":8000,"station_id":"ce4bgih2rcd13ifvqba0","pricing_plan_id":"cebpf4jnsgd1na2vs0mg"},{"bike_id":"563ef292-d239-49b1-b801-50b625282e57","system_id":"levelo_inurba_marseille","lat":43.29529,"lon":5.385581,"is_reserved":false,"is_disabled":false,"rental_uris":{"android":"levelo://app?vid=563ef292-d239-49b1-b801-50b625282e57","ios":"levelo://app?vid=563ef292-d239-49b1-b801-50b625282e57"},"vehicle_type_id":"4","last_reported":1721153446,"current_range_meters":25200,"station_id":"ce4bgih2rcd13ifvqba0","pricing_plan_id":"cebpf4jnsgd1na2vs0mg"},{"bike_id":"67c907ef-0d4f-40fc-8559-dbeac165b23b","system_id":"levelo_inurba_marseille","lat":43.29529,"lon":5.385581,"is_reserved":false,"is_disabled":false,"rental_uris":{"android":"levelo://app?vid=67c907ef-0d4f-40fc-8559-dbeac165b23b","ios":"levelo://app?vid=67c907ef-0d4f-40fc-8559-dbeac165b23b"},"vehicle_type_id":"4","last_reported":1721153446,"current_range_meters":20000,"station_id":"ce4bgih2rcd13ifvqba0","pricing_plan_id":"cebpf4jnsgd1na2vs0mg"},{"bike_id":"9a15a69d-0180-4997-88d4-3e5345885999","system_id":"levelo_inurba_marseille","lat":43.302008,"lon":5.394694,"is_reserved":false,"is_disabled":false,"rental_uris":{"android":"levelo://app?vid=9a15a69d-0180-4997-88d4-3e5345885999","ios":"levelo://app?vid=9a15a69d-0180-4997-88d4-3e5345885999"},"vehicle_type_id":"4","last_reported":1721153446,"current_range_meters":28000,"station_id":"ce4bh0p2rcd13ifvqd70","pricing_plan_id":"cebpf4jnsgd1na2vs0mg"},{"bike_id":"2059cb65-9dbc-49d3-82ca-e28bf16aa930","system_id":"levelo_inurba_marseille","lat":43.30211,"lon":5.39465,"is_reserved":false,"is_disabled":false,"rental_uris":{"android":"levelo://app?vid=2059cb65-9dbc-49d3-82ca-e28bf16aa930","ios":"levelo://app?vid=2059cb65-9dbc-49d3-82ca-e28bf16aa930"},"vehicle_type_id":"4","last_reported":1721153446,"current_range_meters":6800,"station_id":"ce4bh0p2rcd13ifvqd70","pricing_plan_id":"cebpf4jnsgd1na2vs0mg"},{"bike_id":"32c5749e-de4a-4314-a56f-fc081186c343","system_id":"levelo_inurba_marseille","lat":43.290631,"lon":5.359244,"is_reserved":false,"is_disabled":false,"rental_uris":{"android":"levelo://app?vid=32c5749e-de4a-4314-a56f-fc081186c343","ios":"levelo://app?vid=32c5749e-de4a-4314-a56f-fc081186c343"},"vehicle_type_id":"4","last_reported":1721153446,"current_range_meters":0,"station_id":"ce4bha92rcd13ifvqeg0","pricing_plan_id":"cebpf4jnsgd1na2vs0mg"},{"bike_id":"6c36b4c9-01a6-4345-b28f-57e10ceaead4","system_id":"levelo_inurba_marseille","lat":43.294153,"lon":5.386305,"is_reserved":false,"is_disabled":false,"rental_uris":{"android":"levelo://app?vid=6c36b4c9-01a6-4345-b28f-57e10ceaead4","ios":"levelo://app?vid=6c36b4c9-01a6-4345-b28f-57e10ceaead4"},"vehicle_type_id":"4","last_reported":1721153446,"current_range_meters":2400,"station_id":"ce4bh2h2rcd13ifvqdh0","pricing_plan_id":"cebpf4jnsgd1na2vs0mg"},{"bike_id":"dc2e5aa2-073d-4f8e-82c4-7e56e11f43f4","system_id":"levelo_inurba_marseille","lat":43.294153,"lon":5.386305,"is_reserved":false,"is_disabled":false,"rental_uris":{"android":"levelo://app?vid=dc2e5aa2-073d-4f8e-82c4-7e56e11f43f4","ios":"levelo://app?vid=dc2e5aa2-073d-4f8e-82c4-7e56e11f43f4"},"vehicle_type_id":"4","last_reported":1721153446,"current_range_meters":10800,"station_id":"ce4bh2h2rcd13ifvqdh0","pricing_plan_id":"cebpf4jnsgd1na2vs0mg"},{"bike_id":"cfebc5a0-e706-4c76-af09-0d9ea273c5cd","system_id":"levelo_inurba_marseille","lat":43.294153,"lon":5.386305,"is_reserved":false,"is_disabled":false,"rental_uris":{"android":"levelo://app?vid=cfebc5a0-e706-4c76-af09-0d9ea273c5cd","ios":"levelo://app?vid=cfebc5a0-e706-4c76-af09-0d9ea273c5cd"},"vehicle_type_id":"4","last_reported":1721153446,"current_range_meters":0,"station_id":"ce4bh2h2rcd13ifvqdh0","pricing_plan_id":"cebpf4jnsgd1na2vs0mg"},{"bike_id":"e5686ff6-cc4c-4a96-8752-444a0eee4a7b","system_id":"levelo_inurba_marseille","lat":43.294162,"lon":5.386292,"is_reserved":false,"is_disabled":false,"rental_uris":{"android":"levelo://app?vid=e5686ff6-cc4c-4a96-8752-444a0eee4a7b","ios":"levelo://app?vid=e5686ff6-cc4c-4a96-8752-444a0eee4a7b"},"vehicle_type_id":"4","last_reported":1721153446,"current_range_meters":22800,"station_id":"ce4bh2h2rcd13ifvqdh0","pricing_plan_id":"cebpf4jnsgd1na2vs0mg"},{"bike_id":"f6a66e1b-4532-452f-a6d9-98504f47daba","system_id":"levelo_inurba_marseille","lat":43.294153,"lon":5.386305,"is_reserved":false,"is_disabled":false,"rental_uris":{"android":"levelo://app?vid=f6a66e1b-4532-452f-a6d9-98504f47daba","ios":"levelo://app?vid=f6a66e1b-4532-452f-a6d9-98504f47daba"},"vehicle_type_id":"4","last_reported":1721153446,"current_range_meters":16800,"station_id":"ce4bh2h2rcd13ifvqdh0","pricing_plan_id":"cebpf4jnsgd1na2vs0mg"},{"bike_id":"6a820c35-6f42-4f66-9539-c529b359b9ac","system_id":"levelo_inurba_marseille","lat":43.28947,"lon":5.36637,"is_reserved":false,"is_disabled":false,"rental_uris":{"android":"levelo://app?vid=6a820c35-6f42-4f66-9539-c529b359b9ac","ios":"levelo://app?vid=6a820c35-6f42-4f66-9539-c529b359b9ac"},"vehicle_type_id":"4","last_reported":1721153446,"current_range_meters":0,"station_id":"ce4bhap2rcd13ifvqek0","pricing_plan_id":"cebpf4jnsgd1na2vs0mg"},{"bike_id":"87be9758-22c5-48d0-92ff-a8f5156c3904","system_id":"levelo_inurba_marseille","lat":43.29422,"lon":5.3863,"is_reserved":false,"is_disabled":false,"rental_uris":{"android":"levelo://app?vid=87be9758-22c5-48d0-92ff-a8f5156c3904","ios":"levelo://app?vid=87be9758-22c5-48d0-92ff-a8f5156c3904"},"vehicle_type_id":"4","last_reported":1721153446,"current_range_meters":0,"station_id":"ce4bh2h2rcd13ifvqdh0","pricing_plan_id":"cebpf4jnsgd1na2vs0mg"},{"bike_id":"5060f265-dc3f-44ef-9209-4396352e8666","system_id":"levelo_inurba_marseille","lat":43.290327,"lon":5.375711,"is_reserved":false,"is_disabled":false,"rental_uris":{"android":"levelo://app?vid=5060f265-dc3f-44ef-9209-4396352e8666","ios":"levelo://app?vid=5060f265-dc3f-44ef-9209-4396352e8666"},"vehicle_type_id":"4","last_reported":1721153446,"current_range_meters":0,"station_id":"ce4bh692rcd13ifvqe90","pricing_plan_id":"cebpf4jnsgd1na2vs0mg"},{"bike_id":"c5b660c1-83d5-4443-bd2b-34c839a04563","system_id":"levelo_inurba_marseille","lat":43.294153,"lon":5.386305,"is_reserved":false,"is_disabled":false,"rental_uris":{"android":"levelo://app?vid=c5b660c1-83d5-4443-bd2b-34c839a04563","ios":"levelo://app?vid=c5b660c1-83d5-4443-bd2b-34c839a04563"},"vehicle_type_id":"4","last_reported":1721153446,"current_range_meters":0,"station_id":"ce4bh2h2rcd13ifvqdh0","pricing_plan_id":"cebpf4jnsgd1na2vs0mg"},{"bike_id":"dccee282-7629-4837-9e35-cf76f9573999","system_id":"levelo_inurba_marseille","lat":43.29418,"lon":5.3863,"is_reserved":false,"is_disabled":false,"rental_uris":{"android":"levelo://app?vid=dccee282-7629-4837-9e35-cf76f9573999","ios":"levelo://app?vid=dccee282-7629-4837-9e35-cf76f9573999"},"vehicle_type_id":"4","last_reported":1721153446,"current_range_meters":0,"station_id":"ce4bh2h2rcd13ifvqdh0","pricing_plan_id":"cebpf4jnsgd1na2vs0mg"},{"bike_id":"2d09f2dc-5f0e-43ba-9070-10676c2ccd75","system_id":"levelo_inurba_marseille","lat":43.29032,"lon":5.37571,"is_reserved":false,"is_disabled":false,"rental_uris":{"android":"levelo://app?vid=2d09f2dc-5f0e-43ba-9070-10676c2ccd75","ios":"levelo://app?vid=2d09f2dc-5f0e-43ba-9070-10676c2ccd75"},"vehicle_type_id":"4","last_reported":1721153446,"current_range_meters":0,"station_id":"ce4bh692rcd13ifvqe90","pricing_plan_id":"cebpf4jnsgd1na2vs0mg"},{"bike_id":"58672e0b-2c12-4ca4-83b6-3bfbc15f01ce","system_id":"levelo_inurba_marseille","lat":43.289425,"lon":5.366411,"is_reserved":false,"is_disabled":false,"rental_uris":{"android":"levelo://app?vid=58672e0b-2c12-4ca4-83b6-3bfbc15f01ce","ios":"levelo://app?vid=58672e0b-2c12-4ca4-83b6-3bfbc15f01ce"},"vehicle_type_id":"4","last_reported":1721153446,"current_range_meters":5600,"station_id":"ce4bhap2rcd13ifvqek0","pricing_plan_id":"cebpf4jnsgd1na2vs0mg"},{"bike_id":"dc302247-aa7c-4af1-9d57-5a7e900ef1e4","system_id":"levelo_inurba_marseille","lat":43.28941,"lon":5.36636,"is_reserved":false,"is_disabled":false,"rental_uris":{"android":"levelo://app?vid=dc302247-aa7c-4af1-9d57-5a7e900ef1e4","ios":"levelo://app?vid=dc302247-aa7c-4af1-9d57-5a7e900ef1e4"},"vehicle_type_id":"4","last_reported":1721153446,"current_range_meters":0,"station_id":"ce4bhap2rcd13ifvqek0","pricing_plan_id":"cebpf4jnsgd1na2vs0mg"},{"bike_id":"379ed499-6526-4d49-82bb-c3360f7cca4a","system_id":"levelo_inurba_marseille","lat":43.2894,"lon":5.36641,"is_reserved":false,"is_disabled":false,"rental_uris":{"android":"levelo://app?vid=379ed499-6526-4d49-82bb-c3360f7cca4a","ios":"levelo://app?vid=379ed499-6526-4d49-82bb-c3360f7cca4a"},"vehicle_type_id":"4","last_reported":1721153446,"current_range_meters":0,"station_id":"ce4bhap2rcd13ifvqek0","pricing_plan_id":"cebpf4jnsgd1na2vs0mg"},{"bike_id":"3d344d98-9d37-4790-a638-cc445e416329","system_id":"levelo_inurba_marseille","lat":43.294162,"lon":5.386292,"is_reserved":false,"is_disabled":false,"rental_uris":{"android":"levelo://app?vid=3d344d98-9d37-4790-a638-cc445e416329","ios":"levelo://app?vid=3d344d98-9d37-4790-a638-cc445e416329"},"vehicle_type_id":"4","last_reported":1721153446,"current_range_meters":1600,"station_id":"ce4bh2h2rcd13ifvqdh0","pricing_plan_id":"cebpf4jnsgd1na2vs0mg"},{"bike_id":"4b88ba89-d0e9-4ad7-b36f-5b6351a5e843","system_id":"levelo_inurba_marseille","lat":43.289184,"lon":5.366408,"is_reserved":false,"is_disabled":false,"rental_uris":{"android":"levelo://app?vid=4b88ba89-d0e9-4ad7-b36f-5b6351a5e843","ios":"levelo://app?vid=4b88ba89-d0e9-4ad7-b36f-5b6351a5e843"},"vehicle_type_id":"4","last_reported":1721153446,"current_range_meters":28800,"station_id":"ce4bhap2rcd13ifvqek0","pricing_plan_id":"cebpf4jnsgd1na2vs0mg"},{"bike_id":"672f0405-15c6-48a0-a588-65b80575bb31","system_id":"levelo_inurba_marseille","lat":43.294162,"lon":5.386292,"is_reserved":false,"is_disabled":false,"rental_uris":{"android":"levelo://app?vid=672f0405-15c6-48a0-a588-65b80575bb31","ios":"levelo://app?vid=672f0405-15c6-48a0-a588-65b80575bb31"},"vehicle_type_id":"4","last_reported":1721153446,"current_range_meters":30800,"station_id":"ce4bh2h2rcd13ifvqdh0","pricing_plan_id":"cebpf4jnsgd1na2vs0mg"},{"bike_id":"716c6d23-96cb-4f9f-87c9-2f446a0adf58","system_id":"levelo_inurba_marseille","lat":43.31566,"lon":5.39884,"is_reserved":false,"is_disabled":false,"rental_uris":{"android":"levelo://app?vid=716c6d23-96cb-4f9f-87c9-2f446a0adf58","ios":"levelo://app?vid=716c6d23-96cb-4f9f-87c9-2f446a0adf58"},"vehicle_type_id":"4","last_reported":1721153446,"current_range_meters":12800,"station_id":"","pricing_plan_id":"cebpf4jnsgd1na2vs0mg"},{"bike_id":"14a2ccd3-51a3-44d4-8a38-da66449fe25f","system_id":"levelo_inurba_marseille","lat":43.289791,"lon":5.373342,"is_reserved":false,"is_disabled":false,"rental_uris":{"android":"levelo://app?vid=14a2ccd3-51a3-44d4-8a38-da66449fe25f","ios":"levelo://app?vid=14a2ccd3-51a3-44d4-8a38-da66449fe25f"},"vehicle_type_id":"4","last_reported":1721153446,"current_range_meters":4000,"station_id":"","pricing_plan_id":"cebpf4jnsgd1na2vs0mg"},{"bike_id":"39e685ef-0a4f-4329-8334-a12f50908a30","system_id":"levelo_inurba_marseille","lat":43.289184,"lon":5.366408,"is_reserved":false,"is_disabled":false,"rental_uris":{"android":"levelo://app?vid=39e685ef-0a4f-4329-8334-a12f50908a30","ios":"levelo://app?vid=39e685ef-0a4f-4329-8334-a12f50908a30"},"vehicle_type_id":"4","last_reported":1721153446,"current_range_meters":800,"station_id":"ce4bhap2rcd13ifvqek0","pricing_plan_id":"cebpf4jnsgd1na2vs0mg"},{"bike_id":"23040d69-2f2e-4fa1-b532-8a3e46f1dc24","system_id":"levelo_inurba_marseille","lat":43.29266,"lon":5.38439,"is_reserved":false,"is_disabled":false,"rental_uris":{"android":"levelo://app?vid=23040d69-2f2e-4fa1-b532-8a3e46f1dc24","ios":"levelo://app?vid=23040d69-2f2e-4fa1-b532-8a3e46f1dc24"},"vehicle_type_id":"4","last_reported":1721153446,"current_range_meters":0,"station_id":"ce4bh692rcd13ifvqea0","pricing_plan_id":"cebpf4jnsgd1na2vs0mg"},{"bike_id":"968059ff-79fd-40b3-88d0-1ad18578acf7","system_id":"levelo_inurba_marseille","lat":43.292644,"lon":5.384257,"is_reserved":false,"is_disabled":false,"rental_uris":{"android":"levelo://app?vid=968059ff-79fd-40b3-88d0-1ad18578acf7","ios":"levelo://app?vid=968059ff-79fd-40b3-88d0-1ad18578acf7"},"vehicle_type_id":"4","last_reported":1721153446,"current_range_meters":0,"station_id":"ce4bh692rcd13ifvqea0","pricing_plan_id":"cebpf4jnsgd1na2vs0mg"},{"bike_id":"527d4e1a-18e9-4b21-85e4-f30d0cb4e0e0","system_id":"levelo_inurba_marseille","lat":43.292644,"lon":5.384257,"is_reserved":false,"is_disabled":false,"rental_uris":{"android":"levelo://app?vid=527d4e1a-18e9-4b21-85e4-f30d0cb4e0e0","ios":"levelo://app?vid=527d4e1a-18e9-4b21-85e4-f30d0cb4e0e0"},"vehicle_type_id":"4","last_reported":1721153446,"current_range_meters":11600,"station_id":"ce4bh692rcd13ifvqea0","pricing_plan_id":"cebpf4jnsgd1na2vs0mg"},{"bike_id":"ec58d759-e3bd-4ee1-a9db-b0a0c1750ce4","system_id":"levelo_inurba_marseille","lat":43.289741,"lon":5.378306,"is_reserved":false,"is_disabled":false,"rental_uris":{"android":"levelo://app?vid=ec58d759-e3bd-4ee1-a9db-b0a0c1750ce4","ios":"levelo://app?vid=ec58d759-e3bd-4ee1-a9db-b0a0c1750ce4"},"vehicle_type_id":"4","last_reported":1721153446,"current_range_meters":7200,"station_id":"ce4bh9p2rcd13ifvqed0","pricing_plan_id":"cebpf4jnsgd1na2vs0mg"},{"bike_id":"f4c0b32f-5d19-4966-a5b8-d44332b23da9","system_id":"levelo_inurba_marseille","lat":43.2926,"lon":5.3844,"is_reserved":false,"is_disabled":false,"rental_uris":{"android":"levelo://app?vid=f4c0b32f-5d19-4966-a5b8-d44332b23da9","ios":"levelo://app?vid=f4c0b32f-5d19-4966-a5b8-d44332b23da9"},"vehicle_type_id":"4","last_reported":1721153446,"current_range_meters":0,"station_id":"ce4bh692rcd13ifvqea0","pricing_plan_id":"cebpf4jnsgd1na2vs0mg"},{"bike_id":"08a028d4-b015-4493-b711-654d5cf665d9","system_id":"levelo_inurba_marseille","lat":43.29263,"lon":5.384513,"is_reserved":false,"is_disabled":false,"rental_uris":{"android":"levelo://app?vid=08a028d4-b015-4493-b711-654d5cf665d9","ios":"levelo://app?vid=08a028d4-b015-4493-b711-654d5cf665d9"},"vehicle_type_id":"4","last_reported":1721153446,"current_range_meters":0,"station_id":"ce4bh692rcd13ifvqea0","pricing_plan_id":"cebpf4jnsgd1na2vs0mg"},{"bike_id":"dd77ab58-378b-4b59-ada7-a8731bba010b","system_id":"levelo_inurba_marseille","lat":43.290104,"lon":5.356111,"is_reserved":false,"is_disabled":false,"rental_uris":{"android":"levelo://app?vid=dd77ab58-378b-4b59-ada7-a8731bba010b","ios":"levelo://app?vid=dd77ab58-378b-4b59-ada7-a8731bba010b"},"vehicle_type_id":"4","last_reported":1721153446,"current_range_meters":25200,"station_id":"ce4bhb92rcd13ifvqen0","pricing_plan_id":"cebpf4jnsgd1na2vs0mg"},{"bike_id":"b1220e43-c31a-452c-a4d0-a6b58955eb38","system_id":"levelo_inurba_marseille","lat":43.29004,"lon":5.35613,"is_reserved":false,"is_disabled":false,"rental_uris":{"android":"levelo://app?vid=b1220e43-c31a-452c-a4d0-a6b58955eb38","ios":"levelo://app?vid=b1220e43-c31a-452c-a4d0-a6b58955eb38"},"vehicle_type_id":"4","last_reported":1721153446,"current_range_meters":17600,"station_id":"ce4bhb92rcd13ifvqen0","pricing_plan_id":"cebpf4jnsgd1na2vs0mg"},{"bike_id":"e0c382f3-895a-4ff6-8db6-bef5250eb44b","system_id":"levelo_inurba_marseille","lat":43.290103,"lon":5.356114,"is_reserved":false,"is_disabled":false,"rental_uris":{"android":"levelo://app?vid=e0c382f3-895a-4ff6-8db6-bef5250eb44b","ios":"levelo://app?vid=e0c382f3-895a-4ff6-8db6-bef5250eb44b"},"vehicle_type_id":"4","last_reported":1721153446,"current_range_meters":23600,"station_id":"ce4bhb92rcd13ifvqen0","pricing_plan_id":"cebpf4jnsgd1na2vs0mg"},{"bike_id":"f6de72ee-8e44-460a-895f-ca42bcff9119","system_id":"levelo_inurba_marseille","lat":43.291,"lon":5.38128,"is_reserved":false,"is_disabled":false,"rental_uris":{"android":"levelo://app?vid=f6de72ee-8e44-460a-895f-ca42bcff9119","ios":"levelo://app?vid=f6de72ee-8e44-460a-895f-ca42bcff9119"},"vehicle_type_id":"4","last_reported":1721153446,"current_range_meters":22400,"station_id":"ce4bh512rcd13ifvqe2g","pricing_plan_id":"cebpf4jnsgd1na2vs0mg"},{"bike_id":"c52276b8-1890-46c5-9cc0-c3b258eb4f76","system_id":"levelo_inurba_marseille","lat":43.290995,"lon":5.381361,"is_reserved":false,"is_disabled":false,"rental_uris":{"android":"levelo://app?vid=c52276b8-1890-46c5-9cc0-c3b258eb4f76","ios":"levelo://app?vid=c52276b8-1890-46c5-9cc0-c3b258eb4f76"},"vehicle_type_id":"4","last_reported":1721153446,"current_range_meters":0,"station_id":"ce4bh512rcd13ifvqe2g","pricing_plan_id":"cebpf4jnsgd1na2vs0mg"},{"bike_id":"27a3e9ca-6046-42a3-8a6c-811ac61798c2","system_id":"levelo_inurba_marseille","lat":43.295169,"lon":5.390426,"is_reserved":false,"is_disabled":false,"rental_uris":{"android":"levelo://app?vid=27a3e9ca-6046-42a3-8a6c-811ac61798c2","ios":"levelo://app?vid=27a3e9ca-6046-42a3-8a6c-811ac61798c2"},"vehicle_type_id":"4","last_reported":1721153446,"current_range_meters":26400,"station_id":"ce4bh3p2rcd13ifvqdp0","pricing_plan_id":"cebpf4jnsgd1na2vs0mg"},{"bike_id":"0803c71c-bc1d-4bb1-87c4-cb24ccdcbce5","system_id":"levelo_inurba_marseille","lat":43.297815,"lon":5.393548,"is_reserved":false,"is_disabled":false,"rental_uris":{"android":"levelo://app?vid=0803c71c-bc1d-4bb1-87c4-cb24ccdcbce5","ios":"levelo://app?vid=0803c71c-bc1d-4bb1-87c4-cb24ccdcbce5"},"vehicle_type_id":"4","last_reported":1721153446,"current_range_meters":10000,"station_id":"chh1huq6cuj3fo74tm60","pricing_plan_id":"cebpf4jnsgd1na2vs0mg"},{"bike_id":"653221a7-7445-4bac-859b-5d4aebcf844b","system_id":"levelo_inurba_marseille","lat":43.289803,"lon":5.378308,"is_reserved":false,"is_disabled":false,"rental_uris":{"android":"levelo://app?vid=653221a7-7445-4bac-859b-5d4aebcf844b","ios":"levelo://app?vid=653221a7-7445-4bac-859b-5d4aebcf844b"},"vehicle_type_id":"4","last_reported":1721153446,"current_range_meters":0,"station_id":"ce4bh9p2rcd13ifvqed0","pricing_plan_id":"cebpf4jnsgd1na2vs0mg"},{"bike_id":"255395b3-8ac1-447f-a798-a7f688371603","system_id":"levelo_inurba_marseille","lat":43.289743,"lon":5.378304,"is_reserved":false,"is_disabled":false,"rental_uris":{"android":"levelo://app?vid=255395b3-8ac1-447f-a798-a7f688371603","ios":"levelo://app?vid=255395b3-8ac1-447f-a798-a7f688371603"},"vehicle_type_id":"4","last_reported":1721153446,"current_range_meters":0,"station_id":"ce4bh9p2rcd13ifvqed0","pricing_plan_id":"cebpf4jnsgd1na2vs0mg"},{"bike_id":"d38c339b-2cf6-4caf-b132-cd79c9f2f16a","system_id":"levelo_inurba_marseille","lat":43.289743,"lon":5.378304,"is_reserved":false,"is_disabled":false,"rental_uris":{"android":"levelo://app?vid=d38c339b-2cf6-4caf-b132-cd79c9f2f16a","ios":"levelo://app?vid=d38c339b-2cf6-4caf-b132-cd79c9f2f16a"},"vehicle_type_id":"4","last_reported":1721153446,"current_range_meters":0,"station_id":"ce4bh9p2rcd13ifvqed0","pricing_plan_id":"cebpf4jnsgd1na2vs0mg"},{"bike_id":"37cacb1a-1f0a-477e-9b60-6fb42a681c8f","system_id":"levelo_inurba_marseille","lat":43.33025,"lon":5.39031,"is_reserved":false,"is_disabled":false,"rental_uris":{"android":"levelo://app?vid=37cacb1a-1f0a-477e-9b60-6fb42a681c8f","ios":"levelo://app?vid=37cacb1a-1f0a-477e-9b60-6fb42a681c8f"},"vehicle_type_id":"4","last_reported":1721153446,"current_range_meters":1600,"station_id":"ce4bhr92rcd13ifvqhrg","pricing_plan_id":"cebpf4jnsgd1na2vs0mg"},{"bike_id":"c445f74a-3c76-47c9-aae0-f23b1f365c28","system_id":"levelo_inurba_marseille","lat":43.289737,"lon":5.378187,"is_reserved":false,"is_disabled":false,"rental_uris":{"android":"levelo://app?vid=c445f74a-3c76-47c9-aae0-f23b1f365c28","ios":"levelo://app?vid=c445f74a-3c76-47c9-aae0-f23b1f365c28"},"vehicle_type_id":"4","last_reported":1721153446,"current_range_meters":0,"station_id":"ce4bh9p2rcd13ifvqed0","pricing_plan_id":"cebpf4jnsgd1na2vs0mg"},{"bike_id":"6fbb33f3-f293-41d9-bcdc-96bae87e773c","system_id":"levelo_inurba_marseille","lat":43.33023,"lon":5.39041,"is_reserved":false,"is_disabled":false,"rental_uris":{"android":"levelo://app?vid=6fbb33f3-f293-41d9-bcdc-96bae87e773c","ios":"levelo://app?vid=6fbb33f3-f293-41d9-bcdc-96bae87e773c"},"vehicle_type_id":"4","last_reported":1721153446,"current_range_meters":24000,"station_id":"ce4bhr92rcd13ifvqhrg","pricing_plan_id":"cebpf4jnsgd1na2vs0mg"},{"bike_id":"8192668b-e085-42e1-a2c0-2a004eda57ff","system_id":"levelo_inurba_marseille","lat":43.330442,"lon":5.389148,"is_reserved":false,"is_disabled":false,"rental_uris":{"android":"levelo://app?vid=8192668b-e085-42e1-a2c0-2a004eda57ff","ios":"levelo://app?vid=8192668b-e085-42e1-a2c0-2a004eda57ff"},"vehicle_type_id":"4","last_reported":1721153446,"current_range_meters":12000,"station_id":"ce4bhr92rcd13ifvqhrg","pricing_plan_id":"cebpf4jnsgd1na2vs0mg"},{"bike_id":"75c28787-e1fa-4958-9598-8e51035c61ca","system_id":"levelo_inurba_marseille","lat":43.297815,"lon":5.393548,"is_reserved":false,"is_disabled":false,"rental_uris":{"android":"levelo://app?vid=75c28787-e1fa-4958-9598-8e51035c61ca","ios":"levelo://app?vid=75c28787-e1fa-4958-9598-8e51035c61ca"},"vehicle_type_id":"4","last_reported":1721153446,"current_range_meters":4400,"station_id":"chh1huq6cuj3fo74tm60","pricing_plan_id":"cebpf4jnsgd1na2vs0mg"},{"bike_id":"a40a1eb4-4932-4543-ab54-fdc38dc75d84","system_id":"levelo_inurba_marseille","lat":43.310767,"lon":5.400843,"is_reserved":false,"is_disabled":false,"rental_uris":{"android":"levelo://app?vid=a40a1eb4-4932-4543-ab54-fdc38dc75d84","ios":"levelo://app?vid=a40a1eb4-4932-4543-ab54-fdc38dc75d84"},"vehicle_type_id":"4","last_reported":1721153446,"current_range_meters":22000,"station_id":"","pricing_plan_id":"cebpf4jnsgd1na2vs0mg"},{"bike_id":"aa1db6bd-9efa-42ed-9aa3-ae1631658649","system_id":"levelo_inurba_marseille","lat":43.2901,"lon":5.381269,"is_reserved":false,"is_disabled":false,"rental_uris":{"android":"levelo://app?vid=aa1db6bd-9efa-42ed-9aa3-ae1631658649","ios":"levelo://app?vid=aa1db6bd-9efa-42ed-9aa3-ae1631658649"},"vehicle_type_id":"4","last_reported":1721153446,"current_range_meters":0,"station_id":"ce4bh4p2rcd13ifvqe1g","pricing_plan_id":"cebpf4jnsgd1na2vs0mg"},{"bike_id":"cf9fca31-7f28-41ae-a2e9-ca1d97a9428a","system_id":"levelo_inurba_marseille","lat":43.28856,"lon":5.358371,"is_reserved":false,"is_disabled":false,"rental_uris":{"android":"levelo://app?vid=cf9fca31-7f28-41ae-a2e9-ca1d97a9428a","ios":"levelo://app?vid=cf9fca31-7f28-41ae-a2e9-ca1d97a9428a"},"vehicle_type_id":"4","last_reported":1721153446,"current_range_meters":30400,"station_id":"ce4bhb12rcd13ifvqem0","pricing_plan_id":"cebpf4jnsgd1na2vs0mg"},{"bike_id":"2486469f-d264-4923-afa1-5ba7f87cf422","system_id":"levelo_inurba_marseille","lat":43.312609,"lon":5.401662,"is_reserved":false,"is_disabled":false,"rental_uris":{"android":"levelo://app?vid=2486469f-d264-4923-afa1-5ba7f87cf422","ios":"levelo://app?vid=2486469f-d264-4923-afa1-5ba7f87cf422"},"vehicle_type_id":"4","last_reported":1721153446,"current_range_meters":3200,"station_id":"ce4bh092rcd13ifvqd30","pricing_plan_id":"cebpf4jnsgd1na2vs0mg"},{"bike_id":"ffba9479-7cfc-4efd-be77-29da7a0badae","system_id":"levelo_inurba_marseille","lat":43.33743,"lon":5.37482,"is_reserved":false,"is_disabled":false,"rental_uris":{"android":"levelo://app?vid=ffba9479-7cfc-4efd-be77-29da7a0badae","ios":"levelo://app?vid=ffba9479-7cfc-4efd-be77-29da7a0badae"},"vehicle_type_id":"4","last_reported":1721153446,"current_range_meters":28000,"station_id":"","pricing_plan_id":"cebpf4jnsgd1na2vs0mg"},{"bike_id":"0091de75-016b-45ba-9fb9-87214e1f255e","system_id":"levelo_inurba_marseille","lat":43.337521,"lon":5.374506,"is_reserved":false,"is_disabled":false,"rental_uris":{"android":"levelo://app?vid=0091de75-016b-45ba-9fb9-87214e1f255e","ios":"levelo://app?vid=0091de75-016b-45ba-9fb9-87214e1f255e"},"vehicle_type_id":"4","last_reported":1721153446,"current_range_meters":20800,"station_id":"","pricing_plan_id":"cebpf4jnsgd1na2vs0mg"},{"bike_id":"1af5f287-d103-48a7-b5e1-e8059521cf33","system_id":"levelo_inurba_marseille","lat":43.337572,"lon":5.37456,"is_reserved":false,"is_disabled":false,"rental_uris":{"android":"levelo://app?vid=1af5f287-d103-48a7-b5e1-e8059521cf33","ios":"levelo://app?vid=1af5f287-d103-48a7-b5e1-e8059521cf33"},"vehicle_type_id":"4","last_reported":1721153446,"current_range_meters":29600,"station_id":"","pricing_plan_id":"cebpf4jnsgd1na2vs0mg"},{"bike_id":"6d86028a-7fba-4d34-8c2b-1bb6866deb60","system_id":"levelo_inurba_marseille","lat":43.337579,"lon":5.374557,"is_reserved":false,"is_disabled":false,"rental_uris":{"android":"levelo://app?vid=6d86028a-7fba-4d34-8c2b-1bb6866deb60","ios":"levelo://app?vid=6d86028a-7fba-4d34-8c2b-1bb6866deb60"},"vehicle_type_id":"4","last_reported":1721153446,"current_range_meters":18800,"station_id":"","pricing_plan_id":"cebpf4jnsgd1na2vs0mg"},{"bike_id":"1a964ac5-98a0-41d4-bab4-6393cacd56c4","system_id":"levelo_inurba_marseille","lat":43.33766,"lon":5.374353,"is_reserved":false,"is_disabled":false,"rental_uris":{"android":"levelo://app?vid=1a964ac5-98a0-41d4-bab4-6393cacd56c4","ios":"levelo://app?vid=1a964ac5-98a0-41d4-bab4-6393cacd56c4"},"vehicle_type_id":"4","last_reported":1721153446,"current_range_meters":28000,"station_id":"","pricing_plan_id":"cebpf4jnsgd1na2vs0mg"},{"bike_id":"efea0c1a-9233-4ab8-a745-eca80a25a57b","system_id":"levelo_inurba_marseille","lat":43.33758,"lon":5.37486,"is_reserved":false,"is_disabled":false,"rental_uris":{"android":"levelo://app?vid=efea0c1a-9233-4ab8-a745-eca80a25a57b","ios":"levelo://app?vid=efea0c1a-9233-4ab8-a745-eca80a25a57b"},"vehicle_type_id":"4","last_reported":1721153446,"current_range_meters":5600,"station_id":"","pricing_plan_id":"cebpf4jnsgd1na2vs0mg"},{"bike_id":"59d3ee0a-15e6-4bb5-88d9-262f805555c4","system_id":"levelo_inurba_marseille","lat":43.337661,"lon":5.374567,"is_reserved":false,"is_disabled":false,"rental_uris":{"android":"levelo://app?vid=59d3ee0a-15e6-4bb5-88d9-262f805555c4","ios":"levelo://app?vid=59d3ee0a-15e6-4bb5-88d9-262f805555c4"},"vehicle_type_id":"4","last_reported":1721153446,"current_range_meters":26800,"station_id":"","pricing_plan_id":"cebpf4jnsgd1na2vs0mg"},{"bike_id":"7084d9f0-e423-4e4a-b248-7c0acc689dc5","system_id":"levelo_inurba_marseille","lat":43.3377,"lon":5.37476,"is_reserved":false,"is_disabled":false,"rental_uris":{"android":"levelo://app?vid=7084d9f0-e423-4e4a-b248-7c0acc689dc5","ios":"levelo://app?vid=7084d9f0-e423-4e4a-b248-7c0acc689dc5"},"vehicle_type_id":"4","last_reported":1721153446,"current_range_meters":28000,"station_id":"","pricing_plan_id":"cebpf4jnsgd1na2vs0mg"},{"bike_id":"615362c3-adf7-479f-ad13-f59812cb2fcf","system_id":"levelo_inurba_marseille","lat":43.337762,"lon":5.374392,"is_reserved":false,"is_disabled":false,"rental_uris":{"android":"levelo://app?vid=615362c3-adf7-479f-ad13-f59812cb2fcf","ios":"levelo://app?vid=615362c3-adf7-479f-ad13-f59812cb2fcf"},"vehicle_type_id":"4","last_reported":1721153446,"current_range_meters":27200,"station_id":"","pricing_plan_id":"cebpf4jnsgd1na2vs0mg"},{"bike_id":"990ee1e7-e6ae-42e8-8293-200d27c7c78d","system_id":"levelo_inurba_marseille","lat":43.30136,"lon":5.39866,"is_reserved":false,"is_disabled":false,"rental_uris":{"android":"levelo://app?vid=990ee1e7-e6ae-42e8-8293-200d27c7c78d","ios":"levelo://app?vid=990ee1e7-e6ae-42e8-8293-200d27c7c78d"},"vehicle_type_id":"4","last_reported":1721153446,"current_range_meters":27600,"station_id":"ce4bh0h2rcd13ifvqd40","pricing_plan_id":"cebpf4jnsgd1na2vs0mg"},{"bike_id":"5930e3f9-d5d5-4f8d-8b8a-872f35617e43","system_id":"levelo_inurba_marseille","lat":43.28736,"lon":5.36082,"is_reserved":false,"is_disabled":false,"rental_uris":{"android":"levelo://app?vid=5930e3f9-d5d5-4f8d-8b8a-872f35617e43","ios":"levelo://app?vid=5930e3f9-d5d5-4f8d-8b8a-872f35617e43"},"vehicle_type_id":"4","last_reported":1721153446,"current_range_meters":0,"station_id":"cki0cbj6b192h4jlfktg","pricing_plan_id":"cebpf4jnsgd1na2vs0mg"},{"bike_id":"7a720174-ac1d-44f9-bbd8-5147c7e6d1fa","system_id":"levelo_inurba_marseille","lat":43.298681,"lon":5.397225,"is_reserved":false,"is_disabled":false,"rental_uris":{"android":"levelo://app?vid=7a720174-ac1d-44f9-bbd8-5147c7e6d1fa","ios":"levelo://app?vid=7a720174-ac1d-44f9-bbd8-5147c7e6d1fa"},"vehicle_type_id":"4","last_reported":1721153446,"current_range_meters":31600,"station_id":"ce4bh0h2rcd13ifvqd50","pricing_plan_id":"cebpf4jnsgd1na2vs0mg"},{"bike_id":"6137fdc6-c2a1-42cb-a4a3-e9f01fd04c75","system_id":"levelo_inurba_marseille","lat":43.28704,"lon":5.37382,"is_reserved":false,"is_disabled":false,"rental_uris":{"android":"levelo://app?vid=6137fdc6-c2a1-42cb-a4a3-e9f01fd04c75","ios":"levelo://app?vid=6137fdc6-c2a1-42cb-a4a3-e9f01fd04c75"},"vehicle_type_id":"4","last_reported":1721153446,"current_range_meters":2400,"station_id":"ce4bh3p2rcd13ifvqdq0","pricing_plan_id":"cebpf4jnsgd1na2vs0mg"},{"bike_id":"a3fdc63b-93d4-4936-a80e-6d6024b7c162","system_id":"levelo_inurba_marseille","lat":43.286593,"lon":5.363346,"is_reserved":false,"is_disabled":false,"rental_uris":{"android":"levelo://app?vid=a3fdc63b-93d4-4936-a80e-6d6024b7c162","ios":"levelo://app?vid=a3fdc63b-93d4-4936-a80e-6d6024b7c162"},"vehicle_type_id":"4","last_reported":1721153446,"current_range_meters":10800,"station_id":"ce4bhah2rcd13ifvqej0","pricing_plan_id":"cebpf4jnsgd1na2vs0mg"},{"bike_id":"42f1004b-f845-4f79-bc9b-092d12c3cf14","system_id":"levelo_inurba_marseille","lat":43.298681,"lon":5.397225,"is_reserved":false,"is_disabled":false,"rental_uris":{"android":"levelo://app?vid=42f1004b-f845-4f79-bc9b-092d12c3cf14","ios":"levelo://app?vid=42f1004b-f845-4f79-bc9b-092d12c3cf14"},"vehicle_type_id":"4","last_reported":1721153446,"current_range_meters":800,"station_id":"ce4bh0h2rcd13ifvqd50","pricing_plan_id":"cebpf4jnsgd1na2vs0mg"},{"bike_id":"53394d66-662e-4a7d-a259-5e1e9f8173c9","system_id":"levelo_inurba_marseille","lat":43.2866,"lon":5.36349,"is_reserved":false,"is_disabled":false,"rental_uris":{"android":"levelo://app?vid=53394d66-662e-4a7d-a259-5e1e9f8173c9","ios":"levelo://app?vid=53394d66-662e-4a7d-a259-5e1e9f8173c9"},"vehicle_type_id":"4","last_reported":1721153446,"current_range_meters":0,"station_id":"ce4bhah2rcd13ifvqej0","pricing_plan_id":"cebpf4jnsgd1na2vs0mg"},{"bike_id":"a8f3f5db-363d-4438-8a6a-5b038fffe75b","system_id":"levelo_inurba_marseille","lat":43.286961,"lon":5.373785,"is_reserved":false,"is_disabled":false,"rental_uris":{"android":"levelo://app?vid=a8f3f5db-363d-4438-8a6a-5b038fffe75b","ios":"levelo://app?vid=a8f3f5db-363d-4438-8a6a-5b038fffe75b"},"vehicle_type_id":"4","last_reported":1721153446,"current_range_meters":3600,"station_id":"ce4bh3p2rcd13ifvqdq0","pricing_plan_id":"cebpf4jnsgd1na2vs0mg"},{"bike_id":"ed2aaf82-37fe-4a0d-96c2-5d206fbefc10","system_id":"levelo_inurba_marseille","lat":43.30242,"lon":5.40046,"is_reserved":false,"is_disabled":false,"rental_uris":{"android":"levelo://app?vid=ed2aaf82-37fe-4a0d-96c2-5d206fbefc10","ios":"levelo://app?vid=ed2aaf82-37fe-4a0d-96c2-5d206fbefc10"},"vehicle_type_id":"4","last_reported":1721153446,"current_range_meters":24000,"station_id":"","pricing_plan_id":"cebpf4jnsgd1na2vs0mg"},{"bike_id":"0eb675ae-7c24-4d7d-819b-20d4152d71eb","system_id":"levelo_inurba_marseille","lat":43.28933,"lon":5.384,"is_reserved":false,"is_disabled":false,"rental_uris":{"android":"levelo://app?vid=0eb675ae-7c24-4d7d-819b-20d4152d71eb","ios":"levelo://app?vid=0eb675ae-7c24-4d7d-819b-20d4152d71eb"},"vehicle_type_id":"4","last_reported":1721153446,"current_range_meters":0,"station_id":"ce4bh612rcd13ifvqe6g","pricing_plan_id":"cebpf4jnsgd1na2vs0mg"},{"bike_id":"5c8e6e79-473a-4031-8831-2948bd11c499","system_id":"levelo_inurba_marseille","lat":43.2903,"lon":5.38647,"is_reserved":false,"is_disabled":false,"rental_uris":{"android":"levelo://app?vid=5c8e6e79-473a-4031-8831-2948bd11c499","ios":"levelo://app?vid=5c8e6e79-473a-4031-8831-2948bd11c499"},"vehicle_type_id":"4","last_reported":1721153446,"current_range_meters":0,"station_id":"ce4bh4p2rcd13ifvqe0g","pricing_plan_id":"cebpf4jnsgd1na2vs0mg"},{"bike_id":"972776f7-1e17-4ea5-b5ee-fd122fa8ddd1","system_id":"levelo_inurba_marseille","lat":43.290252,"lon":5.386461,"is_reserved":false,"is_disabled":false,"rental_uris":{"android":"levelo://app?vid=972776f7-1e17-4ea5-b5ee-fd122fa8ddd1","ios":"levelo://app?vid=972776f7-1e17-4ea5-b5ee-fd122fa8ddd1"},"vehicle_type_id":"4","last_reported":1721153446,"current_range_meters":20000,"station_id":"","pricing_plan_id":"cebpf4jnsgd1na2vs0mg"},{"bike_id":"15350122-ecd4-48ac-81fb-20297f296e47","system_id":"levelo_inurba_marseille","lat":43.28824,"lon":5.35263,"is_reserved":false,"is_disabled":false,"rental_uris":{"android":"levelo://app?vid=15350122-ecd4-48ac-81fb-20297f296e47","ios":"levelo://app?vid=15350122-ecd4-48ac-81fb-20297f296e47"},"vehicle_type_id":"4","last_reported":1721153446,"current_range_meters":11600,"station_id":"","pricing_plan_id":"cebpf4jnsgd1na2vs0mg"},{"bike_id":"52f81af5-d648-4bf8-9ccb-82786b7cda84","system_id":"levelo_inurba_marseille","lat":43.286039,"lon":5.370681,"is_reserved":false,"is_disabled":false,"rental_uris":{"android":"levelo://app?vid=52f81af5-d648-4bf8-9ccb-82786b7cda84","ios":"levelo://app?vid=52f81af5-d648-4bf8-9ccb-82786b7cda84"},"vehicle_type_id":"4","last_reported":1721153446,"current_range_meters":10800,"station_id":"ce4bht12rcd13ifvqi60","pricing_plan_id":"cebpf4jnsgd1na2vs0mg"},{"bike_id":"2e20b8ac-0a4e-4ab8-9c28-a3740faa9d17","system_id":"levelo_inurba_marseille","lat":43.287184,"lon":5.37937,"is_reserved":false,"is_disabled":false,"rental_uris":{"android":"levelo://app?vid=2e20b8ac-0a4e-4ab8-9c28-a3740faa9d17","ios":"levelo://app?vid=2e20b8ac-0a4e-4ab8-9c28-a3740faa9d17"},"vehicle_type_id":"4","last_reported":1721153446,"current_range_meters":0,"station_id":"ce4bh9p2rcd13ifvqec0","pricing_plan_id":"cebpf4jnsgd1na2vs0mg"},{"bike_id":"c10a35e9-8f8c-41db-b5e9-6372ff492500","system_id":"levelo_inurba_marseille","lat":43.287185,"lon":5.379373,"is_reserved":false,"is_disabled":false,"rental_uris":{"android":"levelo://app?vid=c10a35e9-8f8c-41db-b5e9-6372ff492500","ios":"levelo://app?vid=c10a35e9-8f8c-41db-b5e9-6372ff492500"},"vehicle_type_id":"4","last_reported":1721153446,"current_range_meters":8400,"station_id":"ce4bh9p2rcd13ifvqec0","pricing_plan_id":"cebpf4jnsgd1na2vs0mg"},{"bike_id":"1021a010-190b-4044-99f3-b7495008edce","system_id":"levelo_inurba_marseille","lat":43.287184,"lon":5.37937,"is_reserved":false,"is_disabled":false,"rental_uris":{"android":"levelo://app?vid=1021a010-190b-4044-99f3-b7495008edce","ios":"levelo://app?vid=1021a010-190b-4044-99f3-b7495008edce"},"vehicle_type_id":"4","last_reported":1721153446,"current_range_meters":400,"station_id":"ce4bh9p2rcd13ifvqec0","pricing_plan_id":"cebpf4jnsgd1na2vs0mg"},{"bike_id":"6769f4c6-723a-4e33-86d4-c3c632c347ad","system_id":"levelo_inurba_marseille","lat":43.287184,"lon":5.37937,"is_reserved":false,"is_disabled":false,"rental_uris":{"android":"levelo://app?vid=6769f4c6-723a-4e33-86d4-c3c632c347ad","ios":"levelo://app?vid=6769f4c6-723a-4e33-86d4-c3c632c347ad"},"vehicle_type_id":"4","last_reported":1721153446,"current_range_meters":6000,"station_id":"ce4bh9p2rcd13ifvqec0","pricing_plan_id":"cebpf4jnsgd1na2vs0mg"},{"bike_id":"54d832e6-9316-498b-b9d3-cfda035a1c3f","system_id":"levelo_inurba_marseille","lat":43.287184,"lon":5.37937,"is_reserved":false,"is_disabled":false,"rental_uris":{"android":"levelo://app?vid=54d832e6-9316-498b-b9d3-cfda035a1c3f","ios":"levelo://app?vid=54d832e6-9316-498b-b9d3-cfda035a1c3f"},"vehicle_type_id":"4","last_reported":1721153446,"current_range_meters":0,"station_id":"ce4bh9p2rcd13ifvqec0","pricing_plan_id":"cebpf4jnsgd1na2vs0mg"},{"bike_id":"32f1046e-8d35-49cc-9c34-cde6812f788a","system_id":"levelo_inurba_marseille","lat":43.287184,"lon":5.37937,"is_reserved":false,"is_disabled":false,"rental_uris":{"android":"levelo://app?vid=32f1046e-8d35-49cc-9c34-cde6812f788a","ios":"levelo://app?vid=32f1046e-8d35-49cc-9c34-cde6812f788a"},"vehicle_type_id":"4","last_reported":1721153446,"current_range_meters":0,"station_id":"ce4bh9p2rcd13ifvqec0","pricing_plan_id":"cebpf4jnsgd1na2vs0mg"},{"bike_id":"942ab965-c07d-4218-9605-ff80659806f1","system_id":"levelo_inurba_marseille","lat":43.287184,"lon":5.37937,"is_reserved":false,"is_disabled":false,"rental_uris":{"android":"levelo://app?vid=942ab965-c07d-4218-9605-ff80659806f1","ios":"levelo://app?vid=942ab965-c07d-4218-9605-ff80659806f1"},"vehicle_type_id":"4","last_reported":1721153446,"current_range_meters":0,"station_id":"ce4bh9p2rcd13ifvqec0","pricing_plan_id":"cebpf4jnsgd1na2vs0mg"},{"bike_id":"36890ea7-698e-4d36-9181-c0c09e80f526","system_id":"levelo_inurba_marseille","lat":43.316828,"lon":5.404723,"is_reserved":false,"is_disabled":false,"rental_uris":{"android":"levelo://app?vid=36890ea7-698e-4d36-9181-c0c09e80f526","ios":"levelo://app?vid=36890ea7-698e-4d36-9181-c0c09e80f526"},"vehicle_type_id":"4","last_reported":1721153446,"current_range_meters":18800,"station_id":"ce4bh012rcd13ifvqd00","pricing_plan_id":"cebpf4jnsgd1na2vs0mg"},{"bike_id":"8db3cf21-8b8f-4354-8be7-b6e19d5383d0","system_id":"levelo_inurba_marseille","lat":43.291994,"lon":5.392907,"is_reserved":false,"is_disabled":false,"rental_uris":{"android":"levelo://app?vid=8db3cf21-8b8f-4354-8be7-b6e19d5383d0","ios":"levelo://app?vid=8db3cf21-8b8f-4354-8be7-b6e19d5383d0"},"vehicle_type_id":"4","last_reported":1721153446,"current_range_meters":24000,"station_id":"ce4bh192rcd13ifvqdd0","pricing_plan_id":"cebpf4jnsgd1na2vs0mg"},{"bike_id":"c35caaf3-c48a-45b7-8b94-368e33389446","system_id":"levelo_inurba_marseille","lat":43.316828,"lon":5.404723,"is_reserved":false,"is_disabled":false,"rental_uris":{"android":"levelo://app?vid=c35caaf3-c48a-45b7-8b94-368e33389446","ios":"levelo://app?vid=c35caaf3-c48a-45b7-8b94-368e33389446"},"vehicle_type_id":"4","last_reported":1721153446,"current_range_meters":0,"station_id":"ce4bh012rcd13ifvqd00","pricing_plan_id":"cebpf4jnsgd1na2vs0mg"},{"bike_id":"5bbbdc26-4dbc-41c6-963c-562d0ec99293","system_id":"levelo_inurba_marseille","lat":43.284534,"lon":5.358662,"is_reserved":false,"is_disabled":false,"rental_uris":{"android":"levelo://app?vid=5bbbdc26-4dbc-41c6-963c-562d0ec99293","ios":"levelo://app?vid=5bbbdc26-4dbc-41c6-963c-562d0ec99293"},"vehicle_type_id":"4","last_reported":1721153446,"current_range_meters":6400,"station_id":"ce4bhah2rcd13ifvqei0","pricing_plan_id":"cebpf4jnsgd1na2vs0mg"},{"bike_id":"c820c1c0-88e0-4e45-93e0-6d7ca6671de0","system_id":"levelo_inurba_marseille","lat":43.316821,"lon":5.404737,"is_reserved":false,"is_disabled":false,"rental_uris":{"android":"levelo://app?vid=c820c1c0-88e0-4e45-93e0-6d7ca6671de0","ios":"levelo://app?vid=c820c1c0-88e0-4e45-93e0-6d7ca6671de0"},"vehicle_type_id":"4","last_reported":1721153446,"current_range_meters":24000,"station_id":"ce4bh012rcd13ifvqd00","pricing_plan_id":"cebpf4jnsgd1na2vs0mg"},{"bike_id":"440a9d07-0aef-4779-86e3-43a1bf52f4d0","system_id":"levelo_inurba_marseille","lat":43.291994,"lon":5.392907,"is_reserved":false,"is_disabled":false,"rental_uris":{"android":"levelo://app?vid=440a9d07-0aef-4779-86e3-43a1bf52f4d0","ios":"levelo://app?vid=440a9d07-0aef-4779-86e3-43a1bf52f4d0"},"vehicle_type_id":"4","last_reported":1721153446,"current_range_meters":7200,"station_id":"ce4bh192rcd13ifvqdd0","pricing_plan_id":"cebpf4jnsgd1na2vs0mg"},{"bike_id":"92e3dc2d-6f52-416e-b789-39238b6f9095","system_id":"levelo_inurba_marseille","lat":43.291994,"lon":5.392907,"is_reserved":false,"is_disabled":false,"rental_uris":{"android":"levelo://app?vid=92e3dc2d-6f52-416e-b789-39238b6f9095","ios":"levelo://app?vid=92e3dc2d-6f52-416e-b789-39238b6f9095"},"vehicle_type_id":"4","last_reported":1721153446,"current_range_meters":0,"station_id":"ce4bh192rcd13ifvqdd0","pricing_plan_id":"cebpf4jnsgd1na2vs0mg"},{"bike_id":"7e53a1e9-d389-4433-9650-021b6494a3ca","system_id":"levelo_inurba_marseille","lat":43.284538,"lon":5.358657,"is_reserved":false,"is_disabled":false,"rental_uris":{"android":"levelo://app?vid=7e53a1e9-d389-4433-9650-021b6494a3ca","ios":"levelo://app?vid=7e53a1e9-d389-4433-9650-021b6494a3ca"},"vehicle_type_id":"4","last_reported":1721153446,"current_range_meters":6400,"station_id":"ce4bhah2rcd13ifvqei0","pricing_plan_id":"cebpf4jnsgd1na2vs0mg"},{"bike_id":"fcc03adc-b77d-4079-905b-4ecf109dc2a4","system_id":"levelo_inurba_marseille","lat":43.284538,"lon":5.358657,"is_reserved":false,"is_disabled":false,"rental_uris":{"android":"levelo://app?vid=fcc03adc-b77d-4079-905b-4ecf109dc2a4","ios":"levelo://app?vid=fcc03adc-b77d-4079-905b-4ecf109dc2a4"},"vehicle_type_id":"4","last_reported":1721153446,"current_range_meters":0,"station_id":"ce4bhah2rcd13ifvqei0","pricing_plan_id":"cebpf4jnsgd1na2vs0mg"},{"bike_id":"3fe0794b-4bc5-40de-bd84-3d56beb371ff","system_id":"levelo_inurba_marseille","lat":43.28617,"lon":5.35114,"is_reserved":false,"is_disabled":false,"rental_uris":{"android":"levelo://app?vid=3fe0794b-4bc5-40de-bd84-3d56beb371ff","ios":"levelo://app?vid=3fe0794b-4bc5-40de-bd84-3d56beb371ff"},"vehicle_type_id":"4","last_reported":1721153446,"current_range_meters":24000,"station_id":"","pricing_plan_id":"cebpf4jnsgd1na2vs0mg"},{"bike_id":"be7dfeeb-67e7-40ec-9e21-d8f7bf472d42","system_id":"levelo_inurba_marseille","lat":43.2862,"lon":5.351,"is_reserved":false,"is_disabled":false,"rental_uris":{"android":"levelo://app?vid=be7dfeeb-67e7-40ec-9e21-d8f7bf472d42","ios":"levelo://app?vid=be7dfeeb-67e7-40ec-9e21-d8f7bf472d42"},"vehicle_type_id":"4","last_reported":1721153446,"current_range_meters":11200,"station_id":"ce4bhch2rcd13ifvqeug","pricing_plan_id":"cebpf4jnsgd1na2vs0mg"},{"bike_id":"10916c92-65b7-49d5-b90b-e6b7017e01f7","system_id":"levelo_inurba_marseille","lat":43.28615,"lon":5.35101,"is_reserved":false,"is_disabled":false,"rental_uris":{"android":"levelo://app?vid=10916c92-65b7-49d5-b90b-e6b7017e01f7","ios":"levelo://app?vid=10916c92-65b7-49d5-b90b-e6b7017e01f7"},"vehicle_type_id":"4","last_reported":1721153446,"current_range_meters":22400,"station_id":"ce4bhch2rcd13ifvqeug","pricing_plan_id":"cebpf4jnsgd1na2vs0mg"},{"bike_id":"6b5ce458-54c3-4381-b3c4-a9e7684e20c8","system_id":"levelo_inurba_marseille","lat":43.285848,"lon":5.350787,"is_reserved":false,"is_disabled":false,"rental_uris":{"android":"levelo://app?vid=6b5ce458-54c3-4381-b3c4-a9e7684e20c8","ios":"levelo://app?vid=6b5ce458-54c3-4381-b3c4-a9e7684e20c8"},"vehicle_type_id":"4","last_reported":1721153446,"current_range_meters":22000,"station_id":"ce4bhch2rcd13ifvqeug","pricing_plan_id":"cebpf4jnsgd1na2vs0mg"},{"bike_id":"67ad3a8f-f031-4778-9bb1-a1a276a2e715","system_id":"levelo_inurba_marseille","lat":43.28614,"lon":5.35098,"is_reserved":false,"is_disabled":false,"rental_uris":{"android":"levelo://app?vid=67ad3a8f-f031-4778-9bb1-a1a276a2e715","ios":"levelo://app?vid=67ad3a8f-f031-4778-9bb1-a1a276a2e715"},"vehicle_type_id":"4","last_reported":1721153446,"current_range_meters":0,"station_id":"ce4bhch2rcd13ifvqeug","pricing_plan_id":"cebpf4jnsgd1na2vs0mg"},{"bike_id":"5eecd9cc-1e71-4a6a-8a4e-ca957456f86c","system_id":"levelo_inurba_marseille","lat":43.283998,"lon":5.375062,"is_reserved":false,"is_disabled":false,"rental_uris":{"android":"levelo://app?vid=5eecd9cc-1e71-4a6a-8a4e-ca957456f86c","ios":"levelo://app?vid=5eecd9cc-1e71-4a6a-8a4e-ca957456f86c"},"vehicle_type_id":"4","last_reported":1721153446,"current_range_meters":24800,"station_id":"ce4bh412rcd13ifvqds0","pricing_plan_id":"cebpf4jnsgd1na2vs0mg"},{"bike_id":"4634a896-0280-4ae4-a2ad-18dd89f50c6c","system_id":"levelo_inurba_marseille","lat":43.284538,"lon":5.358657,"is_reserved":false,"is_disabled":false,"rental_uris":{"android":"levelo://app?vid=4634a896-0280-4ae4-a2ad-18dd89f50c6c","ios":"levelo://app?vid=4634a896-0280-4ae4-a2ad-18dd89f50c6c"},"vehicle_type_id":"4","last_reported":1721153446,"current_range_meters":8000,"station_id":"ce4bhah2rcd13ifvqei0","pricing_plan_id":"cebpf4jnsgd1na2vs0mg"},{"bike_id":"23ac74ee-2ead-44a8-bb14-988772af6e98","system_id":"levelo_inurba_marseille","lat":43.28421,"lon":5.37516,"is_reserved":false,"is_disabled":false,"rental_uris":{"android":"levelo://app?vid=23ac74ee-2ead-44a8-bb14-988772af6e98","ios":"levelo://app?vid=23ac74ee-2ead-44a8-bb14-988772af6e98"},"vehicle_type_id":"4","last_reported":1721153446,"current_range_meters":5200,"station_id":"ce4bh412rcd13ifvqds0","pricing_plan_id":"cebpf4jnsgd1na2vs0mg"},{"bike_id":"52f21700-cafa-4e0d-9560-142a39db83fc","system_id":"levelo_inurba_marseille","lat":43.28414,"lon":5.37507,"is_reserved":false,"is_disabled":false,"rental_uris":{"android":"levelo://app?vid=52f21700-cafa-4e0d-9560-142a39db83fc","ios":"levelo://app?vid=52f21700-cafa-4e0d-9560-142a39db83fc"},"vehicle_type_id":"4","last_reported":1721153446,"current_range_meters":0,"station_id":"ce4bh412rcd13ifvqds0","pricing_plan_id":"cebpf4jnsgd1na2vs0mg"},{"bike_id":"35ab868b-3bc3-4d00-b7df-dff0fce36a25","system_id":"levelo_inurba_marseille","lat":43.28409,"lon":5.37504,"is_reserved":false,"is_disabled":false,"rental_uris":{"android":"levelo://app?vid=35ab868b-3bc3-4d00-b7df-dff0fce36a25","ios":"levelo://app?vid=35ab868b-3bc3-4d00-b7df-dff0fce36a25"},"vehicle_type_id":"4","last_reported":1721153446,"current_range_meters":400,"station_id":"ce4bh412rcd13ifvqds0","pricing_plan_id":"cebpf4jnsgd1na2vs0mg"},{"bike_id":"6d16ecba-b214-49f9-8454-d0fcf9f195d1","system_id":"levelo_inurba_marseille","lat":43.29576,"lon":5.39989,"is_reserved":false,"is_disabled":false,"rental_uris":{"android":"levelo://app?vid=6d16ecba-b214-49f9-8454-d0fcf9f195d1","ios":"levelo://app?vid=6d16ecba-b214-49f9-8454-d0fcf9f195d1"},"vehicle_type_id":"4","last_reported":1721153446,"current_range_meters":0,"station_id":"ce4bh312rcd13ifvqdj0","pricing_plan_id":"cebpf4jnsgd1na2vs0mg"},{"bike_id":"866c71d8-9b4c-42bc-9932-0dbaeec3d5e5","system_id":"levelo_inurba_marseille","lat":43.286595,"lon":5.386795,"is_reserved":false,"is_disabled":false,"rental_uris":{"android":"levelo://app?vid=866c71d8-9b4c-42bc-9932-0dbaeec3d5e5","ios":"levelo://app?vid=866c71d8-9b4c-42bc-9932-0dbaeec3d5e5"},"vehicle_type_id":"4","last_reported":1721153446,"current_range_meters":3200,"station_id":"ce4bh492rcd13ifvqdug","pricing_plan_id":"cebpf4jnsgd1na2vs0mg"},{"bike_id":"bf2896eb-aa36-4837-ba7e-1eb786b03e00","system_id":"levelo_inurba_marseille","lat":43.298037,"lon":5.381066,"is_reserved":false,"is_disabled":false,"rental_uris":{"android":"levelo://app?vid=bf2896eb-aa36-4837-ba7e-1eb786b03e00","ios":"levelo://app?vid=bf2896eb-aa36-4837-ba7e-1eb786b03e00"},"vehicle_type_id":"4","last_reported":1721153446,"current_range_meters":18400,"station_id":"ce4bgip2rcd13ifvqbb0","pricing_plan_id":"cebpf4jnsgd1na2vs0mg"},{"bike_id":"88a79bc8-1241-4a71-b58b-d75b2cff9f6e","system_id":"levelo_inurba_marseille","lat":43.31892,"lon":5.40742,"is_reserved":false,"is_disabled":false,"rental_uris":{"android":"levelo://app?vid=88a79bc8-1241-4a71-b58b-d75b2cff9f6e","ios":"levelo://app?vid=88a79bc8-1241-4a71-b58b-d75b2cff9f6e"},"vehicle_type_id":"4","last_reported":1721153446,"current_range_meters":29200,"station_id":"ce4bhq12rcd13ifvqhig","pricing_plan_id":"cebpf4jnsgd1na2vs0mg"},{"bike_id":"9f9268ae-6dba-42e5-bc73-58c630256f26","system_id":"levelo_inurba_marseille","lat":43.28822,"lon":5.39137,"is_reserved":false,"is_disabled":false,"rental_uris":{"android":"levelo://app?vid=9f9268ae-6dba-42e5-bc73-58c630256f26","ios":"levelo://app?vid=9f9268ae-6dba-42e5-bc73-58c630256f26"},"vehicle_type_id":"4","last_reported":1721153446,"current_range_meters":2800,"station_id":"","pricing_plan_id":"cebpf4jnsgd1na2vs0mg"},{"bike_id":"3639068f-2f5e-4c3b-8fa9-aa7fbdbd23e7","system_id":"levelo_inurba_marseille","lat":43.33717,"lon":5.391857,"is_reserved":false,"is_disabled":false,"rental_uris":{"android":"levelo://app?vid=3639068f-2f5e-4c3b-8fa9-aa7fbdbd23e7","ios":"levelo://app?vid=3639068f-2f5e-4c3b-8fa9-aa7fbdbd23e7"},"vehicle_type_id":"4","last_reported":1721153446,"current_range_meters":12800,"station_id":"ce4bhr92rcd13ifvqhsg","pricing_plan_id":"cebpf4jnsgd1na2vs0mg"},{"bike_id":"3de61194-0994-4458-b407-1eb511001da1","system_id":"levelo_inurba_marseille","lat":43.288497,"lon":5.393089,"is_reserved":false,"is_disabled":false,"rental_uris":{"android":"levelo://app?vid=3de61194-0994-4458-b407-1eb511001da1","ios":"levelo://app?vid=3de61194-0994-4458-b407-1eb511001da1"},"vehicle_type_id":"4","last_reported":1721153446,"current_range_meters":0,"station_id":"ce4bh2p2rcd13ifvqdi0","pricing_plan_id":"cebpf4jnsgd1na2vs0mg"},{"bike_id":"74f34fdf-a3ef-44ab-873f-4e0bc41100a0","system_id":"levelo_inurba_marseille","lat":43.28427,"lon":5.34984,"is_reserved":false,"is_disabled":false,"rental_uris":{"android":"levelo://app?vid=74f34fdf-a3ef-44ab-873f-4e0bc41100a0","ios":"levelo://app?vid=74f34fdf-a3ef-44ab-873f-4e0bc41100a0"},"vehicle_type_id":"4","last_reported":1721153446,"current_range_meters":0,"station_id":"ce4bhbh2rcd13ifvqepg","pricing_plan_id":"cebpf4jnsgd1na2vs0mg"},{"bike_id":"076a5343-b095-4546-ae8f-d15eec047247","system_id":"levelo_inurba_marseille","lat":43.2842,"lon":5.3499,"is_reserved":false,"is_disabled":false,"rental_uris":{"android":"levelo://app?vid=076a5343-b095-4546-ae8f-d15eec047247","ios":"levelo://app?vid=076a5343-b095-4546-ae8f-d15eec047247"},"vehicle_type_id":"4","last_reported":1721153446,"current_range_meters":0,"station_id":"ce4bhbh2rcd13ifvqepg","pricing_plan_id":"cebpf4jnsgd1na2vs0mg"},{"bike_id":"ffc6d164-3524-4017-a3dc-9dead387906a","system_id":"levelo_inurba_marseille","lat":43.284217,"lon":5.349697,"is_reserved":false,"is_disabled":false,"rental_uris":{"android":"levelo://app?vid=ffc6d164-3524-4017-a3dc-9dead387906a","ios":"levelo://app?vid=ffc6d164-3524-4017-a3dc-9dead387906a"},"vehicle_type_id":"4","last_reported":1721153446,"current_range_meters":1200,"station_id":"ce4bhbh2rcd13ifvqepg","pricing_plan_id":"cebpf4jnsgd1na2vs0mg"},{"bike_id":"5866faa6-7b97-4a98-8d58-0a30af6c08e2","system_id":"levelo_inurba_marseille","lat":43.28418,"lon":5.34991,"is_reserved":false,"is_disabled":false,"rental_uris":{"android":"levelo://app?vid=5866faa6-7b97-4a98-8d58-0a30af6c08e2","ios":"levelo://app?vid=5866faa6-7b97-4a98-8d58-0a30af6c08e2"},"vehicle_type_id":"4","last_reported":1721153446,"current_range_meters":0,"station_id":"ce4bhbh2rcd13ifvqepg","pricing_plan_id":"cebpf4jnsgd1na2vs0mg"},{"bike_id":"061fb7fe-369a-4a14-9755-16e00440af2b","system_id":"levelo_inurba_marseille","lat":43.284217,"lon":5.349697,"is_reserved":false,"is_disabled":false,"rental_uris":{"android":"levelo://app?vid=061fb7fe-369a-4a14-9755-16e00440af2b","ios":"levelo://app?vid=061fb7fe-369a-4a14-9755-16e00440af2b"},"vehicle_type_id":"4","last_reported":1721153446,"current_range_meters":400,"station_id":"ce4bhbh2rcd13ifvqepg","pricing_plan_id":"cebpf4jnsgd1na2vs0mg"},{"bike_id":"61992a17-c448-4d90-8b5c-0f706b671a5c","system_id":"levelo_inurba_marseille","lat":43.28415,"lon":5.3498,"is_reserved":false,"is_disabled":false,"rental_uris":{"android":"levelo://app?vid=61992a17-c448-4d90-8b5c-0f706b671a5c","ios":"levelo://app?vid=61992a17-c448-4d90-8b5c-0f706b671a5c"},"vehicle_type_id":"4","last_reported":1721153446,"current_range_meters":0,"station_id":"ce4bhbh2rcd13ifvqepg","pricing_plan_id":"cebpf4jnsgd1na2vs0mg"},{"bike_id":"4b24e7fa-e193-4a97-88b7-96e14d3bb3a2","system_id":"levelo_inurba_marseille","lat":43.292724,"lon":5.401131,"is_reserved":false,"is_disabled":false,"rental_uris":{"android":"levelo://app?vid=4b24e7fa-e193-4a97-88b7-96e14d3bb3a2","ios":"levelo://app?vid=4b24e7fa-e193-4a97-88b7-96e14d3bb3a2"},"vehicle_type_id":"4","last_reported":1721153446,"current_range_meters":2800,"station_id":"ce4bh312rcd13ifvqdk0","pricing_plan_id":"cebpf4jnsgd1na2vs0mg"},{"bike_id":"4b76ef1f-7962-475d-9300-1886cab368bc","system_id":"levelo_inurba_marseille","lat":43.292724,"lon":5.401131,"is_reserved":false,"is_disabled":false,"rental_uris":{"android":"levelo://app?vid=4b76ef1f-7962-475d-9300-1886cab368bc","ios":"levelo://app?vid=4b76ef1f-7962-475d-9300-1886cab368bc"},"vehicle_type_id":"4","last_reported":1721153446,"current_range_meters":22000,"station_id":"ce4bh312rcd13ifvqdk0","pricing_plan_id":"cebpf4jnsgd1na2vs0mg"},{"bike_id":"02c86cad-282d-45e4-93c8-c59c1f88882c","system_id":"levelo_inurba_marseille","lat":43.282628,"lon":5.351268,"is_reserved":false,"is_disabled":false,"rental_uris":{"android":"levelo://app?vid=02c86cad-282d-45e4-93c8-c59c1f88882c","ios":"levelo://app?vid=02c86cad-282d-45e4-93c8-c59c1f88882c"},"vehicle_type_id":"4","last_reported":1721153446,"current_range_meters":0,"station_id":"","pricing_plan_id":"cebpf4jnsgd1na2vs0mg"},{"bike_id":"8759fe7e-3a34-4491-ab58-0caea6ff7fca","system_id":"levelo_inurba_marseille","lat":43.28281,"lon":5.35054,"is_reserved":false,"is_disabled":false,"rental_uris":{"android":"levelo://app?vid=8759fe7e-3a34-4491-ab58-0caea6ff7fca","ios":"levelo://app?vid=8759fe7e-3a34-4491-ab58-0caea6ff7fca"},"vehicle_type_id":"4","last_reported":1721153446,"current_range_meters":30000,"station_id":"","pricing_plan_id":"cebpf4jnsgd1na2vs0mg"},{"bike_id":"bde76663-83e6-465f-a302-608fc2bed63b","system_id":"levelo_inurba_marseille","lat":43.28269,"lon":5.35054,"is_reserved":false,"is_disabled":false,"rental_uris":{"android":"levelo://app?vid=bde76663-83e6-465f-a302-608fc2bed63b","ios":"levelo://app?vid=bde76663-83e6-465f-a302-608fc2bed63b"},"vehicle_type_id":"4","last_reported":1721153446,"current_range_meters":30800,"station_id":"ce4bhbp2rcd13ifvqerg","pricing_plan_id":"cebpf4jnsgd1na2vs0mg"},{"bike_id":"1d0a7fde-4c9b-4aca-b4ea-4273fb043f3c","system_id":"levelo_inurba_marseille","lat":43.283665,"lon":5.386358,"is_reserved":false,"is_disabled":false,"rental_uris":{"android":"levelo://app?vid=1d0a7fde-4c9b-4aca-b4ea-4273fb043f3c","ios":"levelo://app?vid=1d0a7fde-4c9b-4aca-b4ea-4273fb043f3c"},"vehicle_type_id":"4","last_reported":1721153446,"current_range_meters":0,"station_id":"ce4bh492rcd13ifvqdvg","pricing_plan_id":"cebpf4jnsgd1na2vs0mg"},{"bike_id":"b84f4fc6-1676-4052-901f-071a138fbf75","system_id":"levelo_inurba_marseille","lat":43.28268,"lon":5.35054,"is_reserved":false,"is_disabled":false,"rental_uris":{"android":"levelo://app?vid=b84f4fc6-1676-4052-901f-071a138fbf75","ios":"levelo://app?vid=b84f4fc6-1676-4052-901f-071a138fbf75"},"vehicle_type_id":"4","last_reported":1721153446,"current_range_meters":2000,"station_id":"ce4bhbp2rcd13ifvqerg","pricing_plan_id":"cebpf4jnsgd1na2vs0mg"},{"bike_id":"6384a7ae-701d-400f-8913-cbe2b9d68afa","system_id":"levelo_inurba_marseille","lat":43.283502,"lon":5.386471,"is_reserved":false,"is_disabled":false,"rental_uris":{"android":"levelo://app?vid=6384a7ae-701d-400f-8913-cbe2b9d68afa","ios":"levelo://app?vid=6384a7ae-701d-400f-8913-cbe2b9d68afa"},"vehicle_type_id":"4","last_reported":1721153446,"current_range_meters":0,"station_id":"ce4bh492rcd13ifvqdvg","pricing_plan_id":"cebpf4jnsgd1na2vs0mg"},{"bike_id":"1a6e0da4-00f8-46aa-89da-ea0596fefda9","system_id":"levelo_inurba_marseille","lat":43.282754,"lon":5.350519,"is_reserved":false,"is_disabled":false,"rental_uris":{"android":"levelo://app?vid=1a6e0da4-00f8-46aa-89da-ea0596fefda9","ios":"levelo://app?vid=1a6e0da4-00f8-46aa-89da-ea0596fefda9"},