{"last_updated":1749564699,"ttl":60,"version":"2.2","data":{"bikes":[{"bike_id":"1c83d4a3-1705-4c82-9ebf-a2da6c26ad09","system_id":"levelo_inurba_marseille","lat":43.25147,"lon":5.40362,"is_reserved":false,"is_disabled":true,"rental_uris":{"android":"levelo://app?vid=1c83d4a3-1705-4c82-9ebf-a2da6c26ad09","ios":"levelo://app?vid=1c83d4a3-1705-4c82-9ebf-a2da6c26ad09"},"vehicle_type_id":"4","last_reported":1749564699,"current_range_meters":2800,"station_id":"","pricing_plan_id":"cebpf4jnsgd1na2vs0mg"},{"bike_id":"45d44e9e-c75b-4ba4-9ae2-994d261f05ab","system_id":"levelo_inurba_marseille","lat":43.25741,"lon":5.41198,"is_reserved":false,"is_disabled":false,"rental_uris":{"android":"levelo://app?vid=45d44e9e-c75b-4ba4-9ae2-994d261f05ab","ios":"levelo://app?vid=45d44e9e-c75b-4ba4-9ae2-994d261f05ab"},"vehicle_type_id":"4","last_reported":1749564699,"current_range_meters":2800,"station_id":"","pricing_plan_id":"cebpf4jnsgd1na2vs0mg"},{"bike_id":"b4d1eacb-0913-48c1-af13-8d5f00126e10","system_id":"levelo_inurba_marseille","lat":43.27812,"lon":5.40714,"is_reserved":false,"is_disabled":false,"rental_uris":{"android":"levelo://app?vid=b4d1eacb-0913-48c1-af13-8d5f00126e10","ios":"levelo://app?vid=b4d1eacb-0913-48c1-af13-8d5f00126e10"},"vehicle_type_id":"4","last_reported":1749564699,"current_range_meters":3200,"station_id":"ce4bhnh2rcd13ifvqgtg","pricing_plan_id":"cebpf4jnsgd1na2vs0mg"},{"bike_id":"01354226-4882-4b0f-9676-279812fd0968","system_id":"levelo_inurba_marseille","lat":43.31148,"lon":5.37793,"is_reserved":false,"is_disabled":true,"rental_uris":{"android":"levelo://app?vid=01354226-4882-4b0f-9676-279812fd0968","ios":"levelo://app?vid=01354226-4882-4b0f-9676-279812fd0968"},"vehicle_type_id":"4","last_reported":1749564699,"current_range_meters":3600,"station_id":"ce4bgt92rcd13ifvqcg0","pricing_plan_id":"cebpf4jnsgd1na2vs0mg"},{"bike_id":"7fd53d63-126d-4861-83d0-4e84d6398564","system_id":"levelo_inurba_marseille","lat":43.28616,"lon":5.35102,"is_reserved":false,"is_disabled":false,"rental_uris":{"android":"levelo://app?vid=7fd53d63-126d-4861-83d0-4e84d6398564","ios":"levelo://app?vid=7fd53d63-126d-4861-83d0-4e84d6398564"},"vehicle_type_id":"4","last_reported":1749564699,"current_range_meters":3600,"station_id":"ce4bhch2rcd13ifvqeug","pricing_plan_id":"cebpf4jnsgd1na2vs0mg"},{"bike_id":"0d95672c-21aa-40bf-a7b9-1c8edde17449","system_id":"levelo_inurba_marseille","lat":43.28271,"lon":5.35077,"is_reserved":false,"is_disabled":false,"rental_uris":{"android":"levelo://app?vid=0d95672c-21aa-40bf-a7b9-1c8edde17449","ios":"levelo://app?vid=0d95672c-21aa-40bf-a7b9-1c8edde17449"},"vehicle_type_id":"4","last_reported":1749564699,"current_range_meters":3600,"station_id":"ce4bhbp2rcd13ifvqerg","pricing_plan_id":"cebpf4jnsgd1na2vs0mg"},{"bike_id":"a07b6821-9270-487a-b315-9955c9db942b","system_id":"levelo_inurba_marseille","lat":43.30887,"lon":5.39658,"is_reserved":false,"is_disabled":false,"rental_uris":{"android":"levelo://app?vid=a07b6821-9270-487a-b315-9955c9db942b","ios":"levelo://app?vid=a07b6821-9270-487a-b315-9955c9db942b"},"vehicle_type_id":"4","last_reported":1749564699,"current_range_meters":3200,"station_id":"ce4bh012rcd13ifvqcv0","pricing_plan_id":"cebpf4jnsgd1na2vs0mg"},{"bike_id":"f8892a4c-ca95-48c4-8578-59fbeee09f15","system_id":"levelo_inurba_marseille","lat":43.30332,"lon":5.404373,"is_reserved":false,"is_disabled":false,"rental_uris":{"android":"levelo://app?vid=f8892a4c-ca95-48c4-8578-59fbeee09f15","ios":"levelo://app?vid=f8892a4c-ca95-48c4-8578-59fbeee09f15"},"vehicle_type_id":"4","last_reported":1749564699,"current_range_meters":4000,"station_id":"ce4bh012rcd13ifvqd10","pricing_plan_id":"cebpf4jnsgd1na2vs0mg"},{"bike_id":"4fa399ea-7f64-470e-83a7-d29d4aba9c8d","system_id":"levelo_inurba_marseille","lat":43.29534,"lon":5.38547,"is_reserved":false,"is_disabled":false,"rental_uris":{"android":"levelo://app?vid=4fa399ea-7f64-470e-83a7-d29d4aba9c8d","ios":"levelo://app?vid=4fa399ea-7f64-470e-83a7-d29d4aba9c8d"},"vehicle_type_id":"4","last_reported":1749564699,"current_range_meters":4000,"station_id":"ce4bgih2rcd13ifvqba0","pricing_plan_id":"cebpf4jnsgd1na2vs0mg"},{"bike_id":"56404d95-3897-4d10-83e1-8abde312194f","system_id":"levelo_inurba_marseille","lat":43.23069,"lon":5.35489,"is_reserved":false,"is_disabled":false,"rental_uris":{"android":"levelo://app?vid=56404d95-3897-4d10-83e1-8abde312194f","ios":"levelo://app?vid=56404d95-3897-4d10-83e1-8abde312194f"},"vehicle_type_id":"4","last_reported":1749564699,"current_range_meters":4000,"station_id":"cpo3342slgdg3j2ifvpg","pricing_plan_id":"cebpf4jnsgd1na2vs0mg"},{"bike_id":"e0fdfc80-da35-46a1-98f2-3c2c6e800df2","system_id":"levelo_inurba_marseille","lat":43.24176,"lon":5.397355,"is_reserved":false,"is_disabled":false,"rental_uris":{"android":"levelo://app?vid=e0fdfc80-da35-46a1-98f2-3c2c6e800df2","ios":"levelo://app?vid=e0fdfc80-da35-46a1-98f2-3c2c6e800df2"},"vehicle_type_id":"4","last_reported":1749564699,"current_range_meters":4000,"station_id":"","pricing_plan_id":"cebpf4jnsgd1na2vs0mg"},{"bike_id":"11d99533-1239-4522-b0b5-f8a3bff696e7","system_id":"levelo_inurba_marseille","lat":43.30113,"lon":5.42463,"is_reserved":false,"is_disabled":false,"rental_uris":{"android":"levelo://app?vid=11d99533-1239-4522-b0b5-f8a3bff696e7","ios":"levelo://app?vid=11d99533-1239-4522-b0b5-f8a3bff696e7"},"vehicle_type_id":"4","last_reported":1749564699,"current_range_meters":4400,"station_id":"","pricing_plan_id":"cebpf4jnsgd1na2vs0mg"},{"bike_id":"6f221138-15bf-4fa8-af8a-7971c805ac51","system_id":"levelo_inurba_marseille","lat":43.255005,"lon":5.376495,"is_reserved":false,"is_disabled":false,"rental_uris":{"android":"levelo://app?vid=6f221138-15bf-4fa8-af8a-7971c805ac51","ios":"levelo://app?vid=6f221138-15bf-4fa8-af8a-7971c805ac51"},"vehicle_type_id":"4","last_reported":1749564699,"current_range_meters":4400,"station_id":"ce4bhh12rcd13ifvqff0","pricing_plan_id":"cebpf4jnsgd1na2vs0mg"},{"bike_id":"9ab5dcb2-22af-49e2-b2c1-32117ad578dc","system_id":"levelo_inurba_marseille","lat":43.295133,"lon":5.425664,"is_reserved":false,"is_disabled":false,"rental_uris":{"android":"levelo://app?vid=9ab5dcb2-22af-49e2-b2c1-32117ad578dc","ios":"levelo://app?vid=9ab5dcb2-22af-49e2-b2c1-32117ad578dc"},"vehicle_type_id":"4","last_reported":1749564699,"current_range_meters":4400,"station_id":"","pricing_plan_id":"cebpf4jnsgd1na2vs0mg"},{"bike_id":"8b4caff4-6ee7-47a5-a64f-5ccaa83c132f","system_id":"levelo_inurba_marseille","lat":43.29522,"lon":5.42519,"is_reserved":false,"is_disabled":false,"rental_uris":{"android":"levelo://app?vid=8b4caff4-6ee7-47a5-a64f-5ccaa83c132f","ios":"levelo://app?vid=8b4caff4-6ee7-47a5-a64f-5ccaa83c132f"},"vehicle_type_id":"4","last_reported":1749564699,"current_range_meters":4400,"station_id":"","pricing_plan_id":"cebpf4jnsgd1na2vs0mg"},{"bike_id":"42d125bf-d8dc-41b7-8e38-6f12a97342e8","system_id":"levelo_inurba_marseille","lat":43.302084,"lon":5.394703,"is_reserved":false,"is_disabled":false,"rental_uris":{"android":"levelo://app?vid=42d125bf-d8dc-41b7-8e38-6f12a97342e8","ios":"levelo://app?vid=42d125bf-d8dc-41b7-8e38-6f12a97342e8"},"vehicle_type_id":"4","last_reported":1749564699,"current_range_meters":4800,"station_id":"ce4bh0p2rcd13ifvqd70","pricing_plan_id":"cebpf4jnsgd1na2vs0mg"},{"bike_id":"dd67f108-95bf-4a1e-b619-4bb77e009c5b","system_id":"levelo_inurba_marseille","lat":43.290591,"lon":5.427681,"is_reserved":false,"is_disabled":false,"rental_uris":{"android":"levelo://app?vid=dd67f108-95bf-4a1e-b619-4bb77e009c5b","ios":"levelo://app?vid=dd67f108-95bf-4a1e-b619-4bb77e009c5b"},"vehicle_type_id":"4","last_reported":1749564699,"current_range_meters":5600,"station_id":"","pricing_plan_id":"cebpf4jnsgd1na2vs0mg"},{"bike_id":"15b696c1-54fb-44cc-9684-32e53b1bbfcb","system_id":"levelo_inurba_marseille","lat":43.31264,"lon":5.36859,"is_reserved":false,"is_disabled":false,"rental_uris":{"android":"levelo://app?vid=15b696c1-54fb-44cc-9684-32e53b1bbfcb","ios":"levelo://app?vid=15b696c1-54fb-44cc-9684-32e53b1bbfcb"},"vehicle_type_id":"4","last_reported":1749564699,"current_range_meters":5600,"station_id":"ce4bgl92rcd13ifvqbq0","pricing_plan_id":"cebpf4jnsgd1na2vs0mg"},{"bike_id":"4f9e744a-ff1c-420c-98ba-3b374c82143d","system_id":"levelo_inurba_marseille","lat":43.2843,"lon":5.34993,"is_reserved":false,"is_disabled":false,"rental_uris":{"android":"levelo://app?vid=4f9e744a-ff1c-420c-98ba-3b374c82143d","ios":"levelo://app?vid=4f9e744a-ff1c-420c-98ba-3b374c82143d"},"vehicle_type_id":"4","last_reported":1749564699,"current_range_meters":5600,"station_id":"ce4bhbh2rcd13ifvqepg","pricing_plan_id":"cebpf4jnsgd1na2vs0mg"},{"bike_id":"30e5f4bb-a69a-4650-8e08-bc1310455a0c","system_id":"levelo_inurba_marseille","lat":43.29586,"lon":5.367517,"is_reserved":false,"is_disabled":false,"rental_uris":{"android":"levelo://app?vid=30e5f4bb-a69a-4650-8e08-bc1310455a0c","ios":"levelo://app?vid=30e5f4bb-a69a-4650-8e08-bc1310455a0c"},"vehicle_type_id":"4","last_reported":1749564699,"current_range_meters":6000,"station_id":"ce4bgph2rcd13ifvqc2g","pricing_plan_id":"cebpf4jnsgd1na2vs0mg"},{"bike_id":"1840ebbc-791e-4491-b7e0-b13f0c2ec0f2","system_id":"levelo_inurba_marseille","lat":43.30434,"lon":5.39749,"is_reserved":false,"is_disabled":false,"rental_uris":{"android":"levelo://app?vid=1840ebbc-791e-4491-b7e0-b13f0c2ec0f2","ios":"levelo://app?vid=1840ebbc-791e-4491-b7e0-b13f0c2ec0f2"},"vehicle_type_id":"4","last_reported":1749564699,"current_range_meters":6000,"station_id":"ce4bh092rcd13ifvqd20","pricing_plan_id":"cebpf4jnsgd1na2vs0mg"},{"bike_id":"aa56606a-02fb-45b5-9b4e-7529346b4cef","system_id":"levelo_inurba_marseille","lat":43.29871,"lon":5.39735,"is_reserved":false,"is_disabled":false,"rental_uris":{"android":"levelo://app?vid=aa56606a-02fb-45b5-9b4e-7529346b4cef","ios":"levelo://app?vid=aa56606a-02fb-45b5-9b4e-7529346b4cef"},"vehicle_type_id":"4","last_reported":1749564699,"current_range_meters":5600,"station_id":"ce4bh0h2rcd13ifvqd50","pricing_plan_id":"cebpf4jnsgd1na2vs0mg"},{"bike_id":"7a286b17-17df-491a-a381-1330c2f7a715","system_id":"levelo_inurba_marseille","lat":43.29939,"lon":5.43672,"is_reserved":false,"is_disabled":false,"rental_uris":{"android":"levelo://app?vid=7a286b17-17df-491a-a381-1330c2f7a715","ios":"levelo://app?vid=7a286b17-17df-491a-a381-1330c2f7a715"},"vehicle_type_id":"4","last_reported":1749564699,"current_range_meters":6400,"station_id":"ce4bhpp2rcd13ifvqhfg","pricing_plan_id":"cebpf4jnsgd1na2vs0mg"},{"bike_id":"a8dd7a7b-8e10-426e-b28b-370a596968e8","system_id":"levelo_inurba_marseille","lat":43.31211,"lon":5.36846,"is_reserved":false,"is_disabled":false,"rental_uris":{"android":"levelo://app?vid=a8dd7a7b-8e10-426e-b28b-370a596968e8","ios":"levelo://app?vid=a8dd7a7b-8e10-426e-b28b-370a596968e8"},"vehicle_type_id":"4","last_reported":1749564699,"current_range_meters":6400,"station_id":"ce4bgl92rcd13ifvqbq0","pricing_plan_id":"cebpf4jnsgd1na2vs0mg"},{"bike_id":"1d557f9c-6a24-40b1-a693-cfa8bd5c4e8e","system_id":"levelo_inurba_marseille","lat":43.31076,"lon":5.383586,"is_reserved":false,"is_disabled":false,"rental_uris":{"android":"levelo://app?vid=1d557f9c-6a24-40b1-a693-cfa8bd5c4e8e","ios":"levelo://app?vid=1d557f9c-6a24-40b1-a693-cfa8bd5c4e8e"},"vehicle_type_id":"4","last_reported":1749564699,"current_range_meters":6400,"station_id":"ce4bgv92rcd13ifvqcr0","pricing_plan_id":"cebpf4jnsgd1na2vs0mg"},{"bike_id":"f511734b-78f6-466c-a632-23e9869ef2bc","system_id":"levelo_inurba_marseille","lat":43.31245,"lon":5.36858,"is_reserved":false,"is_disabled":false,"rental_uris":{"android":"levelo://app?vid=f511734b-78f6-466c-a632-23e9869ef2bc","ios":"levelo://app?vid=f511734b-78f6-466c-a632-23e9869ef2bc"},"vehicle_type_id":"4","last_reported":1749564699,"current_range_meters":6400,"station_id":"ce4bgl92rcd13ifvqbq0","pricing_plan_id":"cebpf4jnsgd1na2vs0mg"},{"bike_id":"51adc039-d635-4d5b-8175-d5a65daaab68","system_id":"levelo_inurba_marseille","lat":43.33779,"lon":5.39234,"is_reserved":false,"is_disabled":false,"rental_uris":{"android":"levelo://app?vid=51adc039-d635-4d5b-8175-d5a65daaab68","ios":"levelo://app?vid=51adc039-d635-4d5b-8175-d5a65daaab68"},"vehicle_type_id":"4","last_reported":1749564699,"current_range_meters":6400,"station_id":"ce4bhr92rcd13ifvqhsg","pricing_plan_id":"cebpf4jnsgd1na2vs0mg"},{"bike_id":"e139ca23-e0ec-46e2-8d81-4dfa8bd7d732","system_id":"levelo_inurba_marseille","lat":43.282647,"lon":5.350587,"is_reserved":false,"is_disabled":false,"rental_uris":{"android":"levelo://app?vid=e139ca23-e0ec-46e2-8d81-4dfa8bd7d732","ios":"levelo://app?vid=e139ca23-e0ec-46e2-8d81-4dfa8bd7d732"},"vehicle_type_id":"4","last_reported":1749564699,"current_range_meters":6800,"station_id":"ce4bhbh2rcd13ifvqepg","pricing_plan_id":"cebpf4jnsgd1na2vs0mg"},{"bike_id":"4c3391f0-bd45-4488-aed9-faee78505aa1","system_id":"levelo_inurba_marseille","lat":43.29009,"lon":5.3562,"is_reserved":false,"is_disabled":false,"rental_uris":{"android":"levelo://app?vid=4c3391f0-bd45-4488-aed9-faee78505aa1","ios":"levelo://app?vid=4c3391f0-bd45-4488-aed9-faee78505aa1"},"vehicle_type_id":"4","last_reported":1749564699,"current_range_meters":7200,"station_id":"ce4bhb92rcd13ifvqen0","pricing_plan_id":"cebpf4jnsgd1na2vs0mg"},{"bike_id":"c2ac64c6-bc04-4dbf-88b6-a0f6294749cd","system_id":"levelo_inurba_marseille","lat":43.30544,"lon":5.3668,"is_reserved":false,"is_disabled":false,"rental_uris":{"android":"levelo://app?vid=c2ac64c6-bc04-4dbf-88b6-a0f6294749cd","ios":"levelo://app?vid=c2ac64c6-bc04-4dbf-88b6-a0f6294749cd"},"vehicle_type_id":"4","last_reported":1749564699,"current_range_meters":7200,"station_id":"ce4bgrp2rcd13ifvqc9g","pricing_plan_id":"cebpf4jnsgd1na2vs0mg"},{"bike_id":"291ab0bc-bb52-4ad0-a840-58f1558e3677","system_id":"levelo_inurba_marseille","lat":43.217487,"lon":5.346067,"is_reserved":false,"is_disabled":false,"rental_uris":{"android":"levelo://app?vid=291ab0bc-bb52-4ad0-a840-58f1558e3677","ios":"levelo://app?vid=291ab0bc-bb52-4ad0-a840-58f1558e3677"},"vehicle_type_id":"4","last_reported":1749564699,"current_range_meters":7200,"station_id":"st_cvj6r9ubvosntc0bgbag","pricing_plan_id":"cebpf4jnsgd1na2vs0mg"},{"bike_id":"fe52c15f-5aec-4b7e-998e-284a85843b2f","system_id":"levelo_inurba_marseille","lat":43.32121,"lon":5.36774,"is_reserved":false,"is_disabled":false,"rental_uris":{"android":"levelo://app?vid=fe52c15f-5aec-4b7e-998e-284a85843b2f","ios":"levelo://app?vid=fe52c15f-5aec-4b7e-998e-284a85843b2f"},"vehicle_type_id":"4","last_reported":1749564699,"current_range_meters":7200,"station_id":"ce4bhrh2rcd13ifvqhug","pricing_plan_id":"cebpf4jnsgd1na2vs0mg"},{"bike_id":"f0782932-4f65-40fc-9cee-a635f880f137","system_id":"levelo_inurba_marseille","lat":43.3235,"lon":5.36724,"is_reserved":false,"is_disabled":false,"rental_uris":{"android":"levelo://app?vid=f0782932-4f65-40fc-9cee-a635f880f137","ios":"levelo://app?vid=f0782932-4f65-40fc-9cee-a635f880f137"},"vehicle_type_id":"4","last_reported":1749564699,"current_range_meters":8000,"station_id":"ce4bhsh2rcd13ifvqi2g","pricing_plan_id":"cebpf4jnsgd1na2vs0mg"},{"bike_id":"0a34d9bd-d41c-4fbc-a0ae-0ade09105b0f","system_id":"levelo_inurba_marseille","lat":43.28615,"lon":5.351,"is_reserved":false,"is_disabled":false,"rental_uris":{"android":"levelo://app?vid=0a34d9bd-d41c-4fbc-a0ae-0ade09105b0f","ios":"levelo://app?vid=0a34d9bd-d41c-4fbc-a0ae-0ade09105b0f"},"vehicle_type_id":"4","last_reported":1749564699,"current_range_meters":8000,"station_id":"ce4bhch2rcd13ifvqeug","pricing_plan_id":"cebpf4jnsgd1na2vs0mg"},{"bike_id":"c51c752a-2d09-45c8-b6b1-69d5eb0b677c","system_id":"levelo_inurba_marseille","lat":43.28463,"lon":5.3504,"is_reserved":false,"is_disabled":false,"rental_uris":{"android":"levelo://app?vid=c51c752a-2d09-45c8-b6b1-69d5eb0b677c","ios":"levelo://app?vid=c51c752a-2d09-45c8-b6b1-69d5eb0b677c"},"vehicle_type_id":"4","last_reported":1749564699,"current_range_meters":8000,"station_id":"","pricing_plan_id":"cebpf4jnsgd1na2vs0mg"},{"bike_id":"da14da1f-7442-42b5-98f6-365f4fbd4c56","system_id":"levelo_inurba_marseille","lat":43.32632,"lon":5.41033,"is_reserved":false,"is_disabled":false,"rental_uris":{"android":"levelo://app?vid=da14da1f-7442-42b5-98f6-365f4fbd4c56","ios":"levelo://app?vid=da14da1f-7442-42b5-98f6-365f4fbd4c56"},"vehicle_type_id":"4","last_reported":1749564699,"current_range_meters":8000,"station_id":"ce4bhpp2rcd13ifvqhgg","pricing_plan_id":"cebpf4jnsgd1na2vs0mg"},{"bike_id":"8f60791f-bc6f-440f-81c4-f33d0c175209","system_id":"levelo_inurba_marseille","lat":43.3237,"lon":5.38885,"is_reserved":false,"is_disabled":false,"rental_uris":{"android":"levelo://app?vid=8f60791f-bc6f-440f-81c4-f33d0c175209","ios":"levelo://app?vid=8f60791f-bc6f-440f-81c4-f33d0c175209"},"vehicle_type_id":"4","last_reported":1749564699,"current_range_meters":8000,"station_id":"ce4bhqp2rcd13ifvqhog","pricing_plan_id":"cebpf4jnsgd1na2vs0mg"},{"bike_id":"99cbce5f-cbd7-447c-a26a-a497efd720a1","system_id":"levelo_inurba_marseille","lat":43.28619,"lon":5.35107,"is_reserved":false,"is_disabled":false,"rental_uris":{"android":"levelo://app?vid=99cbce5f-cbd7-447c-a26a-a497efd720a1","ios":"levelo://app?vid=99cbce5f-cbd7-447c-a26a-a497efd720a1"},"vehicle_type_id":"4","last_reported":1749564699,"current_range_meters":8000,"station_id":"ce4bhch2rcd13ifvqeug","pricing_plan_id":"cebpf4jnsgd1na2vs0mg"},{"bike_id":"db951ccb-7be8-418d-818a-4e1820e5862e","system_id":"levelo_inurba_marseille","lat":43.23179,"lon":5.39994,"is_reserved":false,"is_disabled":false,"rental_uris":{"android":"levelo://app?vid=db951ccb-7be8-418d-818a-4e1820e5862e","ios":"levelo://app?vid=db951ccb-7be8-418d-818a-4e1820e5862e"},"vehicle_type_id":"4","last_reported":1749564699,"current_range_meters":8000,"station_id":"ce4bhn12rcd13ifvqgqg","pricing_plan_id":"cebpf4jnsgd1na2vs0mg"},{"bike_id":"968a0124-0b32-418b-85f0-edf9fce04197","system_id":"levelo_inurba_marseille","lat":43.27842,"lon":5.39199,"is_reserved":false,"is_disabled":true,"rental_uris":{"android":"levelo://app?vid=968a0124-0b32-418b-85f0-edf9fce04197","ios":"levelo://app?vid=968a0124-0b32-418b-85f0-edf9fce04197"},"vehicle_type_id":"4","last_reported":1749564699,"current_range_meters":8000,"station_id":"ce4bhjp2rcd13ifvqga0","pricing_plan_id":"cebpf4jnsgd1na2vs0mg"},{"bike_id":"8de9b87a-1959-402d-9ab3-a0879b21aed5","system_id":"levelo_inurba_marseille","lat":43.29009,"lon":5.3561,"is_reserved":false,"is_disabled":false,"rental_uris":{"android":"levelo://app?vid=8de9b87a-1959-402d-9ab3-a0879b21aed5","ios":"levelo://app?vid=8de9b87a-1959-402d-9ab3-a0879b21aed5"},"vehicle_type_id":"4","last_reported":1749564699,"current_range_meters":8400,"station_id":"ce4bhb92rcd13ifvqen0","pricing_plan_id":"cebpf4jnsgd1na2vs0mg"},{"bike_id":"2f32b755-3ca4-4102-8e33-37fff5e1ff8d","system_id":"levelo_inurba_marseille","lat":43.27186,"lon":5.40208,"is_reserved":false,"is_disabled":false,"rental_uris":{"android":"levelo://app?vid=2f32b755-3ca4-4102-8e33-37fff5e1ff8d","ios":"levelo://app?vid=2f32b755-3ca4-4102-8e33-37fff5e1ff8d"},"vehicle_type_id":"4","last_reported":1749564699,"current_range_meters":8400,"station_id":"","pricing_plan_id":"cebpf4jnsgd1na2vs0mg"},{"bike_id":"7fa8fe03-e761-44b8-8ced-e506fdbc1a3a","system_id":"levelo_inurba_marseille","lat":43.32021,"lon":5.36777,"is_reserved":false,"is_disabled":false,"rental_uris":{"android":"levelo://app?vid=7fa8fe03-e761-44b8-8ced-e506fdbc1a3a","ios":"levelo://app?vid=7fa8fe03-e761-44b8-8ced-e506fdbc1a3a"},"vehicle_type_id":"4","last_reported":1749564699,"current_range_meters":8400,"station_id":"ce4bhrh2rcd13ifvqhug","pricing_plan_id":"cebpf4jnsgd1na2vs0mg"},{"bike_id":"7e8868f8-db5d-45f1-8621-52a9857d92ec","system_id":"levelo_inurba_marseille","lat":43.26797,"lon":5.39414,"is_reserved":false,"is_disabled":false,"rental_uris":{"android":"levelo://app?vid=7e8868f8-db5d-45f1-8621-52a9857d92ec","ios":"levelo://app?vid=7e8868f8-db5d-45f1-8621-52a9857d92ec"},"vehicle_type_id":"4","last_reported":1749564699,"current_range_meters":8400,"station_id":"ce4bhh12rcd13ifvqfg0","pricing_plan_id":"cebpf4jnsgd1na2vs0mg"},{"bike_id":"0106dd49-7e8f-47e3-b8f7-3ba6b953465e","system_id":"levelo_inurba_marseille","lat":43.26795,"lon":5.39438,"is_reserved":false,"is_disabled":false,"rental_uris":{"android":"levelo://app?vid=0106dd49-7e8f-47e3-b8f7-3ba6b953465e","ios":"levelo://app?vid=0106dd49-7e8f-47e3-b8f7-3ba6b953465e"},"vehicle_type_id":"4","last_reported":1749564699,"current_range_meters":8400,"station_id":"ce4bhh12rcd13ifvqfg0","pricing_plan_id":"cebpf4jnsgd1na2vs0mg"},{"bike_id":"0c50f20c-d7f2-43ac-9446-315d1b41525a","system_id":"levelo_inurba_marseille","lat":43.2917,"lon":5.37163,"is_reserved":false,"is_disabled":false,"rental_uris":{"android":"levelo://app?vid=0c50f20c-d7f2-43ac-9446-315d1b41525a","ios":"levelo://app?vid=0c50f20c-d7f2-43ac-9446-315d1b41525a"},"vehicle_type_id":"4","last_reported":1749564699,"current_range_meters":8400,"station_id":"ce4bha92rcd13ifvqeh0","pricing_plan_id":"cebpf4jnsgd1na2vs0mg"},{"bike_id":"88113087-f0bb-4133-ab2a-bbfce1f3d99a","system_id":"levelo_inurba_marseille","lat":43.31688,"lon":5.40482,"is_reserved":false,"is_disabled":true,"rental_uris":{"android":"levelo://app?vid=88113087-f0bb-4133-ab2a-bbfce1f3d99a","ios":"levelo://app?vid=88113087-f0bb-4133-ab2a-bbfce1f3d99a"},"vehicle_type_id":"4","last_reported":1749564699,"current_range_meters":8800,"station_id":"ce4bh012rcd13ifvqd00","pricing_plan_id":"cebpf4jnsgd1na2vs0mg"},{"bike_id":"0511cb9f-7dd3-4672-945b-236e9f0238ac","system_id":"levelo_inurba_marseille","lat":43.29817,"lon":5.37698,"is_reserved":false,"is_disabled":false,"rental_uris":{"android":"levelo://app?vid=0511cb9f-7dd3-4672-945b-236e9f0238ac","ios":"levelo://app?vid=0511cb9f-7dd3-4672-945b-236e9f0238ac"},"vehicle_type_id":"4","last_reported":1749564699,"current_range_meters":8800,"station_id":"","pricing_plan_id":"cebpf4jnsgd1na2vs0mg"},{"bike_id":"39251524-38db-430a-8bf1-4c42d4d1b828","system_id":"levelo_inurba_marseille","lat":43.29543,"lon":5.4227,"is_reserved":false,"is_disabled":false,"rental_uris":{"android":"levelo://app?vid=39251524-38db-430a-8bf1-4c42d4d1b828","ios":"levelo://app?vid=39251524-38db-430a-8bf1-4c42d4d1b828"},"vehicle_type_id":"4","last_reported":1749564699,"current_range_meters":8800,"station_id":"ce4bhph2rcd13ifvqhdg","pricing_plan_id":"cebpf4jnsgd1na2vs0mg"},{"bike_id":"02e4eb35-97b5-4e63-b65c-bde35a9f6d9a","system_id":"levelo_inurba_marseille","lat":43.29032,"lon":5.38651,"is_reserved":false,"is_disabled":false,"rental_uris":{"android":"levelo://app?vid=02e4eb35-97b5-4e63-b65c-bde35a9f6d9a","ios":"levelo://app?vid=02e4eb35-97b5-4e63-b65c-bde35a9f6d9a"},"vehicle_type_id":"4","last_reported":1749564699,"current_range_meters":8400,"station_id":"ce4bh4p2rcd13ifvqe0g","pricing_plan_id":"cebpf4jnsgd1na2vs0mg"},{"bike_id":"4e643616-64a8-4cb4-a699-5c99f31870eb","system_id":"levelo_inurba_marseille","lat":43.217487,"lon":5.346009,"is_reserved":false,"is_disabled":false,"rental_uris":{"android":"levelo://app?vid=4e643616-64a8-4cb4-a699-5c99f31870eb","ios":"levelo://app?vid=4e643616-64a8-4cb4-a699-5c99f31870eb"},"vehicle_type_id":"4","last_reported":1749564699,"current_range_meters":8800,"station_id":"st_cvj6r9ubvosntc0bgbag","pricing_plan_id":"cebpf4jnsgd1na2vs0mg"},{"bike_id":"9364ea33-40bd-4a6a-888a-f0bc24b0338b","system_id":"levelo_inurba_marseille","lat":43.321,"lon":5.36773,"is_reserved":false,"is_disabled":false,"rental_uris":{"android":"levelo://app?vid=9364ea33-40bd-4a6a-888a-f0bc24b0338b","ios":"levelo://app?vid=9364ea33-40bd-4a6a-888a-f0bc24b0338b"},"vehicle_type_id":"4","last_reported":1749564699,"current_range_meters":9200,"station_id":"ce4bhrh2rcd13ifvqhug","pricing_plan_id":"cebpf4jnsgd1na2vs0mg"},{"bike_id":"39267307-bd6e-491c-a2c8-911e68539aaf","system_id":"levelo_inurba_marseille","lat":43.26216,"lon":5.40454,"is_reserved":false,"is_disabled":false,"rental_uris":{"android":"levelo://app?vid=39267307-bd6e-491c-a2c8-911e68539aaf","ios":"levelo://app?vid=39267307-bd6e-491c-a2c8-911e68539aaf"},"vehicle_type_id":"4","last_reported":1749564699,"current_range_meters":9200,"station_id":"ce4bhmh2rcd13ifvqgmg","pricing_plan_id":"cebpf4jnsgd1na2vs0mg"},{"bike_id":"24e9e948-3262-4072-8dd0-7e254b70aef4","system_id":"levelo_inurba_marseille","lat":43.3094,"lon":5.39036,"is_reserved":false,"is_disabled":false,"rental_uris":{"android":"levelo://app?vid=24e9e948-3262-4072-8dd0-7e254b70aef4","ios":"levelo://app?vid=24e9e948-3262-4072-8dd0-7e254b70aef4"},"vehicle_type_id":"4","last_reported":1749564699,"current_range_meters":9200,"station_id":"ce4bgup2rcd13ifvqco0","pricing_plan_id":"cebpf4jnsgd1na2vs0mg"},{"bike_id":"ba509714-11ea-4d63-9ff5-405d995db14c","system_id":"levelo_inurba_marseille","lat":43.21747,"lon":5.34608,"is_reserved":false,"is_disabled":false,"rental_uris":{"android":"levelo://app?vid=ba509714-11ea-4d63-9ff5-405d995db14c","ios":"levelo://app?vid=ba509714-11ea-4d63-9ff5-405d995db14c"},"vehicle_type_id":"4","last_reported":1749564699,"current_range_meters":9200,"station_id":"st_cvj6r9ubvosntc0bgbag","pricing_plan_id":"cebpf4jnsgd1na2vs0mg"},{"bike_id":"df1761c6-2f8c-4fac-a2a5-d63a32af35b7","system_id":"levelo_inurba_marseille","lat":43.28029,"lon":5.394076,"is_reserved":false,"is_disabled":false,"rental_uris":{"android":"levelo://app?vid=df1761c6-2f8c-4fac-a2a5-d63a32af35b7","ios":"levelo://app?vid=df1761c6-2f8c-4fac-a2a5-d63a32af35b7"},"vehicle_type_id":"4","last_reported":1749564699,"current_range_meters":9600,"station_id":"ce4bhnh2rcd13ifvqgtg","pricing_plan_id":"cebpf4jnsgd1na2vs0mg"},{"bike_id":"bb6010de-0615-40a0-97bf-0d8cd3fe0ae1","system_id":"levelo_inurba_marseille","lat":43.312375,"lon":5.368535,"is_reserved":false,"is_disabled":false,"rental_uris":{"android":"levelo://app?vid=bb6010de-0615-40a0-97bf-0d8cd3fe0ae1","ios":"levelo://app?vid=bb6010de-0615-40a0-97bf-0d8cd3fe0ae1"},"vehicle_type_id":"4","last_reported":1749564699,"current_range_meters":9600,"station_id":"ce4bgl92rcd13ifvqbq0","pricing_plan_id":"cebpf4jnsgd1na2vs0mg"},{"bike_id":"00ca30c3-b636-4824-8f37-e641de8b6bdb","system_id":"levelo_inurba_marseille","lat":43.30565,"lon":5.36701,"is_reserved":false,"is_disabled":false,"rental_uris":{"android":"levelo://app?vid=00ca30c3-b636-4824-8f37-e641de8b6bdb","ios":"levelo://app?vid=00ca30c3-b636-4824-8f37-e641de8b6bdb"},"vehicle_type_id":"4","last_reported":1749564699,"current_range_meters":10000,"station_id":"ce4bgrp2rcd13ifvqc9g","pricing_plan_id":"cebpf4jnsgd1na2vs0mg"},{"bike_id":"b6285f6b-e9e7-470d-9b6d-1afe99ab71bf","system_id":"levelo_inurba_marseille","lat":43.26195,"lon":5.42066,"is_reserved":false,"is_disabled":false,"rental_uris":{"android":"levelo://app?vid=b6285f6b-e9e7-470d-9b6d-1afe99ab71bf","ios":"levelo://app?vid=b6285f6b-e9e7-470d-9b6d-1afe99ab71bf"},"vehicle_type_id":"4","last_reported":1749564699,"current_range_meters":10000,"station_id":"","pricing_plan_id":"cebpf4jnsgd1na2vs0mg"},{"bike_id":"a27b4c00-a36b-4f6a-a259-9d79f5bfe330","system_id":"levelo_inurba_marseille","lat":43.29309,"lon":5.37184,"is_reserved":false,"is_disabled":false,"rental_uris":{"android":"levelo://app?vid=a27b4c00-a36b-4f6a-a259-9d79f5bfe330","ios":"levelo://app?vid=a27b4c00-a36b-4f6a-a259-9d79f5bfe330"},"vehicle_type_id":"4","last_reported":1749564699,"current_range_meters":9600,"station_id":"ce4bgh92rcd13ifvqb40","pricing_plan_id":"cebpf4jnsgd1na2vs0mg"},{"bike_id":"4423f778-a93e-4043-86ac-a67e8a8ca826","system_id":"levelo_inurba_marseille","lat":43.26064,"lon":5.394,"is_reserved":false,"is_disabled":false,"rental_uris":{"android":"levelo://app?vid=4423f778-a93e-4043-86ac-a67e8a8ca826","ios":"levelo://app?vid=4423f778-a93e-4043-86ac-a67e8a8ca826"},"vehicle_type_id":"4","last_reported":1749564699,"current_range_meters":9600,"station_id":"ce4bhh92rcd13ifvqfj0","pricing_plan_id":"cebpf4jnsgd1na2vs0mg"},{"bike_id":"04454412-5695-4368-af93-7f2f0bb8ec7e","system_id":"levelo_inurba_marseille","lat":43.23195,"lon":5.35551,"is_reserved":false,"is_disabled":false,"rental_uris":{"android":"levelo://app?vid=04454412-5695-4368-af93-7f2f0bb8ec7e","ios":"levelo://app?vid=04454412-5695-4368-af93-7f2f0bb8ec7e"},"vehicle_type_id":"4","last_reported":1749564699,"current_range_meters":10800,"station_id":"ce4bhu92rcd13ifvqi70","pricing_plan_id":"cebpf4jnsgd1na2vs0mg"},{"bike_id":"32ec1162-655f-42f8-86b4-297bd9442945","system_id":"levelo_inurba_marseille","lat":43.283,"lon":5.35121,"is_reserved":false,"is_disabled":false,"rental_uris":{"android":"levelo://app?vid=32ec1162-655f-42f8-86b4-297bd9442945","ios":"levelo://app?vid=32ec1162-655f-42f8-86b4-297bd9442945"},"vehicle_type_id":"4","last_reported":1749564699,"current_range_meters":10800,"station_id":"","pricing_plan_id":"cebpf4jnsgd1na2vs0mg"},{"bike_id":"7d13ee95-06ee-4443-9abd-7593dd82dc18","system_id":"levelo_inurba_marseille","lat":43.28425,"lon":5.37511,"is_reserved":false,"is_disabled":false,"rental_uris":{"android":"levelo://app?vid=7d13ee95-06ee-4443-9abd-7593dd82dc18","ios":"levelo://app?vid=7d13ee95-06ee-4443-9abd-7593dd82dc18"},"vehicle_type_id":"4","last_reported":1749564699,"current_range_meters":10800,"station_id":"ce4bh412rcd13ifvqds0","pricing_plan_id":"cebpf4jnsgd1na2vs0mg"},{"bike_id":"9e70fb7b-e755-41b8-b358-73c5ea8136a3","system_id":"levelo_inurba_marseille","lat":43.2828,"lon":5.35086,"is_reserved":false,"is_disabled":false,"rental_uris":{"android":"levelo://app?vid=9e70fb7b-e755-41b8-b358-73c5ea8136a3","ios":"levelo://app?vid=9e70fb7b-e755-41b8-b358-73c5ea8136a3"},"vehicle_type_id":"4","last_reported":1749564699,"current_range_meters":10800,"station_id":"ce4bhbp2rcd13ifvqerg","pricing_plan_id":"cebpf4jnsgd1na2vs0mg"},{"bike_id":"39d32260-51d5-455a-ba53-6471389bd255","system_id":"levelo_inurba_marseille","lat":43.31986,"lon":5.37613,"is_reserved":false,"is_disabled":false,"rental_uris":{"android":"levelo://app?vid=39d32260-51d5-455a-ba53-6471389bd255","ios":"levelo://app?vid=39d32260-51d5-455a-ba53-6471389bd255"},"vehicle_type_id":"4","last_reported":1749564699,"current_range_meters":10800,"station_id":"","pricing_plan_id":"cebpf4jnsgd1na2vs0mg"},{"bike_id":"d5d53215-598f-4abf-adf8-8d40717218f7","system_id":"levelo_inurba_marseille","lat":43.2894,"lon":5.36636,"is_reserved":false,"is_disabled":false,"rental_uris":{"android":"levelo://app?vid=d5d53215-598f-4abf-adf8-8d40717218f7","ios":"levelo://app?vid=d5d53215-598f-4abf-adf8-8d40717218f7"},"vehicle_type_id":"4","last_reported":1749564699,"current_range_meters":10800,"station_id":"ce4bhap2rcd13ifvqek0","pricing_plan_id":"cebpf4jnsgd1na2vs0mg"},{"bike_id":"f674397b-b6b4-424e-a877-b49e78b2472b","system_id":"levelo_inurba_marseille","lat":43.28285,"lon":5.35099,"is_reserved":false,"is_disabled":false,"rental_uris":{"android":"levelo://app?vid=f674397b-b6b4-424e-a877-b49e78b2472b","ios":"levelo://app?vid=f674397b-b6b4-424e-a877-b49e78b2472b"},"vehicle_type_id":"4","last_reported":1749564699,"current_range_meters":10800,"station_id":"ce4bhbp2rcd13ifvqerg","pricing_plan_id":"cebpf4jnsgd1na2vs0mg"},{"bike_id":"4853db11-d7a8-4ab8-8542-0240029e9977","system_id":"levelo_inurba_marseille","lat":43.24129,"lon":5.39731,"is_reserved":false,"is_disabled":false,"rental_uris":{"android":"levelo://app?vid=4853db11-d7a8-4ab8-8542-0240029e9977","ios":"levelo://app?vid=4853db11-d7a8-4ab8-8542-0240029e9977"},"vehicle_type_id":"4","last_reported":1749564699,"current_range_meters":11200,"station_id":"","pricing_plan_id":"cebpf4jnsgd1na2vs0mg"},{"bike_id":"42e2b3b7-f3bb-42eb-bf5c-12d67e0dc7f5","system_id":"levelo_inurba_marseille","lat":43.29619,"lon":5.371599,"is_reserved":false,"is_disabled":false,"rental_uris":{"android":"levelo://app?vid=42e2b3b7-f3bb-42eb-bf5c-12d67e0dc7f5","ios":"levelo://app?vid=42e2b3b7-f3bb-42eb-bf5c-12d67e0dc7f5"},"vehicle_type_id":"4","last_reported":1749564699,"current_range_meters":11200,"station_id":"","pricing_plan_id":"cebpf4jnsgd1na2vs0mg"},{"bike_id":"9708d7fe-647f-4d3c-b91f-f1a22a50f8aa","system_id":"levelo_inurba_marseille","lat":43.306082,"lon":5.39367,"is_reserved":false,"is_disabled":false,"rental_uris":{"android":"levelo://app?vid=9708d7fe-647f-4d3c-b91f-f1a22a50f8aa","ios":"levelo://app?vid=9708d7fe-647f-4d3c-b91f-f1a22a50f8aa"},"vehicle_type_id":"4","last_reported":1749564699,"current_range_meters":11200,"station_id":"ce4bh0p2rcd13ifvqd80","pricing_plan_id":"cebpf4jnsgd1na2vs0mg"},{"bike_id":"6ade5ee6-b8ac-4a91-bf27-bc43b5b39ffd","system_id":"levelo_inurba_marseille","lat":43.24078,"lon":5.37761,"is_reserved":false,"is_disabled":false,"rental_uris":{"android":"levelo://app?vid=6ade5ee6-b8ac-4a91-bf27-bc43b5b39ffd","ios":"levelo://app?vid=6ade5ee6-b8ac-4a91-bf27-bc43b5b39ffd"},"vehicle_type_id":"4","last_reported":1749564699,"current_range_meters":11200,"station_id":"ce4bhnp2rcd13ifvqgvg","pricing_plan_id":"cebpf4jnsgd1na2vs0mg"},{"bike_id":"6890b9e2-87e1-40b6-9e0f-8af99f456400","system_id":"levelo_inurba_marseille","lat":43.29579,"lon":5.38081,"is_reserved":false,"is_disabled":true,"rental_uris":{"android":"levelo://app?vid=6890b9e2-87e1-40b6-9e0f-8af99f456400","ios":"levelo://app?vid=6890b9e2-87e1-40b6-9e0f-8af99f456400"},"vehicle_type_id":"4","last_reported":1749564699,"current_range_meters":11200,"station_id":"ce4bgl12rcd13ifvqbo0","pricing_plan_id":"cebpf4jnsgd1na2vs0mg"},{"bike_id":"a0657772-6005-47ef-9d62-6427266d3099","system_id":"levelo_inurba_marseille","lat":43.24543,"lon":5.39541,"is_reserved":false,"is_disabled":false,"rental_uris":{"android":"levelo://app?vid=a0657772-6005-47ef-9d62-6427266d3099","ios":"levelo://app?vid=a0657772-6005-47ef-9d62-6427266d3099"},"vehicle_type_id":"4","last_reported":1749564699,"current_range_meters":10800,"station_id":"ce4bhlp2rcd13ifvqgjg","pricing_plan_id":"cebpf4jnsgd1na2vs0mg"},{"bike_id":"11797471-07f9-4007-8666-0cd952ac00ed","system_id":"levelo_inurba_marseille","lat":43.2927,"lon":5.38444,"is_reserved":false,"is_disabled":false,"rental_uris":{"android":"levelo://app?vid=11797471-07f9-4007-8666-0cd952ac00ed","ios":"levelo://app?vid=11797471-07f9-4007-8666-0cd952ac00ed"},"vehicle_type_id":"4","last_reported":1749564699,"current_range_meters":11200,"station_id":"ce4bh692rcd13ifvqea0","pricing_plan_id":"cebpf4jnsgd1na2vs0mg"},{"bike_id":"49156a28-8a0f-4380-9d2f-b5f779fc134f","system_id":"levelo_inurba_marseille","lat":43.24087,"lon":5.37758,"is_reserved":false,"is_disabled":false,"rental_uris":{"android":"levelo://app?vid=49156a28-8a0f-4380-9d2f-b5f779fc134f","ios":"levelo://app?vid=49156a28-8a0f-4380-9d2f-b5f779fc134f"},"vehicle_type_id":"4","last_reported":1749564699,"current_range_meters":11200,"station_id":"ce4bhnp2rcd13ifvqgvg","pricing_plan_id":"cebpf4jnsgd1na2vs0mg"},{"bike_id":"367c746c-7ebc-4104-9684-13f13c133f5b","system_id":"levelo_inurba_marseille","lat":43.27566,"lon":5.38428,"is_reserved":false,"is_disabled":false,"rental_uris":{"android":"levelo://app?vid=367c746c-7ebc-4104-9684-13f13c133f5b","ios":"levelo://app?vid=367c746c-7ebc-4104-9684-13f13c133f5b"},"vehicle_type_id":"4","last_reported":1749564699,"current_range_meters":11600,"station_id":"ce4bhh92rcd13ifvqfi0","pricing_plan_id":"cebpf4jnsgd1na2vs0mg"},{"bike_id":"9bc004f4-715a-42f6-b10a-4f60d0102d95","system_id":"levelo_inurba_marseille","lat":43.27994,"lon":5.41662,"is_reserved":false,"is_disabled":false,"rental_uris":{"android":"levelo://app?vid=9bc004f4-715a-42f6-b10a-4f60d0102d95","ios":"levelo://app?vid=9bc004f4-715a-42f6-b10a-4f60d0102d95"},"vehicle_type_id":"4","last_reported":1749564699,"current_range_meters":11600,"station_id":"ce4bho12rcd13ifvqh1g","pricing_plan_id":"cebpf4jnsgd1na2vs0mg"},{"bike_id":"5077581b-cebb-46fc-ba69-4fa8272d4810","system_id":"levelo_inurba_marseille","lat":43.21359,"lon":5.35538,"is_reserved":false,"is_disabled":false,"rental_uris":{"android":"levelo://app?vid=5077581b-cebb-46fc-ba69-4fa8272d4810","ios":"levelo://app?vid=5077581b-cebb-46fc-ba69-4fa8272d4810"},"vehicle_type_id":"4","last_reported":1749564699,"current_range_meters":11600,"station_id":"","pricing_plan_id":"cebpf4jnsgd1na2vs0mg"},{"bike_id":"ef555bdb-3115-4b1f-9398-9c76776e1204","system_id":"levelo_inurba_marseille","lat":43.26029,"lon":5.37393,"is_reserved":false,"is_disabled":false,"rental_uris":{"android":"levelo://app?vid=ef555bdb-3115-4b1f-9398-9c76776e1204","ios":"levelo://app?vid=ef555bdb-3115-4b1f-9398-9c76776e1204"},"vehicle_type_id":"4","last_reported":1749564699,"current_range_meters":11600,"station_id":"","pricing_plan_id":"cebpf4jnsgd1na2vs0mg"},{"bike_id":"127ca1f2-18fe-448d-b0c7-e1bb015b3c93","system_id":"levelo_inurba_marseille","lat":43.29203,"lon":5.39333,"is_reserved":false,"is_disabled":false,"rental_uris":{"android":"levelo://app?vid=127ca1f2-18fe-448d-b0c7-e1bb015b3c93","ios":"levelo://app?vid=127ca1f2-18fe-448d-b0c7-e1bb015b3c93"},"vehicle_type_id":"4","last_reported":1749564699,"current_range_meters":11200,"station_id":"ce4bh192rcd13ifvqdd0","pricing_plan_id":"cebpf4jnsgd1na2vs0mg"},{"bike_id":"3d59d2ec-b59a-43e8-abae-40ac02fdcdb8","system_id":"levelo_inurba_marseille","lat":43.29553,"lon":5.42285,"is_reserved":false,"is_disabled":false,"rental_uris":{"android":"levelo://app?vid=3d59d2ec-b59a-43e8-abae-40ac02fdcdb8","ios":"levelo://app?vid=3d59d2ec-b59a-43e8-abae-40ac02fdcdb8"},"vehicle_type_id":"4","last_reported":1749564699,"current_range_meters":11600,"station_id":"ce4bhph2rcd13ifvqhdg","pricing_plan_id":"cebpf4jnsgd1na2vs0mg"},{"bike_id":"402b268f-51d8-4319-85da-3f411d4d5d91","system_id":"levelo_inurba_marseille","lat":43.21196,"lon":5.35077,"is_reserved":false,"is_disabled":false,"rental_uris":{"android":"levelo://app?vid=402b268f-51d8-4319-85da-3f411d4d5d91","ios":"levelo://app?vid=402b268f-51d8-4319-85da-3f411d4d5d91"},"vehicle_type_id":"4","last_reported":1749564699,"current_range_meters":11600,"station_id":"st_cvj6sg6p6f1abm77japg","pricing_plan_id":"cebpf4jnsgd1na2vs0mg"},{"bike_id":"05e98eeb-02e5-4cbe-912c-bbc973c62ee3","system_id":"levelo_inurba_marseille","lat":43.2407,"lon":5.3776,"is_reserved":false,"is_disabled":false,"rental_uris":{"android":"levelo://app?vid=05e98eeb-02e5-4cbe-912c-bbc973c62ee3","ios":"levelo://app?vid=05e98eeb-02e5-4cbe-912c-bbc973c62ee3"},"vehicle_type_id":"4","last_reported":1749564699,"current_range_meters":11600,"station_id":"ce4bhnp2rcd13ifvqgvg","pricing_plan_id":"cebpf4jnsgd1na2vs0mg"},{"bike_id":"75d5aaa7-d932-4da7-9e2e-20b15e0eaeee","system_id":"levelo_inurba_marseille","lat":43.2843,"lon":5.35004,"is_reserved":false,"is_disabled":false,"rental_uris":{"android":"levelo://app?vid=75d5aaa7-d932-4da7-9e2e-20b15e0eaeee","ios":"levelo://app?vid=75d5aaa7-d932-4da7-9e2e-20b15e0eaeee"},"vehicle_type_id":"4","last_reported":1749564699,"current_range_meters":12000,"station_id":"ce4bhbh2rcd13ifvqepg","pricing_plan_id":"cebpf4jnsgd1na2vs0mg"},{"bike_id":"01b92f52-b586-4f02-9e33-ecdd33cb62c9","system_id":"levelo_inurba_marseille","lat":43.298548,"lon":5.362885,"is_reserved":false,"is_disabled":true,"rental_uris":{"android":"levelo://app?vid=01b92f52-b586-4f02-9e33-ecdd33cb62c9","ios":"levelo://app?vid=01b92f52-b586-4f02-9e33-ecdd33cb62c9"},"vehicle_type_id":"4","last_reported":1749564699,"current_range_meters":12000,"station_id":"ce4bgpp2rcd13ifvqc3g","pricing_plan_id":"cebpf4jnsgd1na2vs0mg"},{"bike_id":"c6639a7f-d557-4df5-b118-3e3fe9ed0a11","system_id":"levelo_inurba_marseille","lat":43.23195,"lon":5.35547,"is_reserved":false,"is_disabled":false,"rental_uris":{"android":"levelo://app?vid=c6639a7f-d557-4df5-b118-3e3fe9ed0a11","ios":"levelo://app?vid=c6639a7f-d557-4df5-b118-3e3fe9ed0a11"},"vehicle_type_id":"4","last_reported":1749564699,"current_range_meters":12000,"station_id":"ce4bhu92rcd13ifvqi70","pricing_plan_id":"cebpf4jnsgd1na2vs0mg"},{"bike_id":"0762674f-1e89-4d4c-aa36-9ccaf8f24fa7","system_id":"levelo_inurba_marseille","lat":43.28428,"lon":5.34997,"is_reserved":false,"is_disabled":false,"rental_uris":{"android":"levelo://app?vid=0762674f-1e89-4d4c-aa36-9ccaf8f24fa7","ios":"levelo://app?vid=0762674f-1e89-4d4c-aa36-9ccaf8f24fa7"},"vehicle_type_id":"4","last_reported":1749564699,"current_range_meters":12000,"station_id":"ce4bhbh2rcd13ifvqepg","pricing_plan_id":"cebpf4jnsgd1na2vs0mg"},{"bike_id":"38ffe1f7-137b-4201-9829-10ae667b63fd","system_id":"levelo_inurba_marseille","lat":43.24803,"lon":5.37458,"is_reserved":false,"is_disabled":false,"rental_uris":{"android":"levelo://app?vid=38ffe1f7-137b-4201-9829-10ae667b63fd","ios":"levelo://app?vid=38ffe1f7-137b-4201-9829-10ae667b63fd"},"vehicle_type_id":"4","last_reported":1749564699,"current_range_meters":12000,"station_id":"ce4bhgh2rcd13ifvqfb0","pricing_plan_id":"cebpf4jnsgd1na2vs0mg"},{"bike_id":"1158c21f-7861-46f7-9b56-70e7f7008f2f","system_id":"levelo_inurba_marseille","lat":43.30268,"lon":5.37674,"is_reserved":false,"is_disabled":false,"rental_uris":{"android":"levelo://app?vid=1158c21f-7861-46f7-9b56-70e7f7008f2f","ios":"levelo://app?vid=1158c21f-7861-46f7-9b56-70e7f7008f2f"},"vehicle_type_id":"4","last_reported":1749564699,"current_range_meters":12000,"station_id":"ce4bguh2rcd13ifvqcj0","pricing_plan_id":"cebpf4jnsgd1na2vs0mg"},{"bike_id":"2fb82a4e-0ee1-4839-87e1-0819fb18ed3d","system_id":"levelo_inurba_marseille","lat":43.27069,"lon":5.4228,"is_reserved":false,"is_disabled":true,"rental_uris":{"android":"levelo://app?vid=2fb82a4e-0ee1-4839-87e1-0819fb18ed3d","ios":"levelo://app?vid=2fb82a4e-0ee1-4839-87e1-0819fb18ed3d"},"vehicle_type_id":"4","last_reported":1749564699,"current_range_meters":12000,"station_id":"ce4bhk92rcd13ifvqgb0","pricing_plan_id":"cebpf4jnsgd1na2vs0mg"},{"bike_id":"6928e466-519a-43b8-8ee0-554ccb89f881","system_id":"levelo_inurba_marseille","lat":43.284383,"lon":5.34987,"is_reserved":false,"is_disabled":false,"rental_uris":{"android":"levelo://app?vid=6928e466-519a-43b8-8ee0-554ccb89f881","ios":"levelo://app?vid=6928e466-519a-43b8-8ee0-554ccb89f881"},"vehicle_type_id":"4","last_reported":1749564699,"current_range_meters":12400,"station_id":"ce4bhbh2rcd13ifvqepg","pricing_plan_id":"cebpf4jnsgd1na2vs0mg"},{"bike_id":"b7651752-8eb3-4b67-91fc-0a6e006c8d1f","system_id":"levelo_inurba_marseille","lat":43.21198,"lon":5.35081,"is_reserved":false,"is_disabled":false,"rental_uris":{"android":"levelo://app?vid=b7651752-8eb3-4b67-91fc-0a6e006c8d1f","ios":"levelo://app?vid=b7651752-8eb3-4b67-91fc-0a6e006c8d1f"},"vehicle_type_id":"4","last_reported":1749564699,"current_range_meters":12400,"station_id":"st_cvj6sg6p6f1abm77japg","pricing_plan_id":"cebpf4jnsgd1na2vs0mg"},{"bike_id":"eda1030c-0d36-4514-ae8b-a6130495d3ca","system_id":"levelo_inurba_marseille","lat":43.28621,"lon":5.35109,"is_reserved":false,"is_disabled":false,"rental_uris":{"android":"levelo://app?vid=eda1030c-0d36-4514-ae8b-a6130495d3ca","ios":"levelo://app?vid=eda1030c-0d36-4514-ae8b-a6130495d3ca"},"vehicle_type_id":"4","last_reported":1749564699,"current_range_meters":12400,"station_id":"ce4bhch2rcd13ifvqeug","pricing_plan_id":"cebpf4jnsgd1na2vs0mg"},{"bike_id":"de315b31-2c29-4955-b712-f7420d09e561","system_id":"levelo_inurba_marseille","lat":43.30649,"lon":5.40091,"is_reserved":false,"is_disabled":false,"rental_uris":{"android":"levelo://app?vid=de315b31-2c29-4955-b712-f7420d09e561","ios":"levelo://app?vid=de315b31-2c29-4955-b712-f7420d09e561"},"vehicle_type_id":"4","last_reported":1749564699,"current_range_meters":12400,"station_id":"ce4bh112rcd13ifvqda0","pricing_plan_id":"cebpf4jnsgd1na2vs0mg"},{"bike_id":"c31dcfd9-6048-45b7-8b1d-fae158fe1439","system_id":"levelo_inurba_marseille","lat":43.28269,"lon":5.35065,"is_reserved":false,"is_disabled":false,"rental_uris":{"android":"levelo://app?vid=c31dcfd9-6048-45b7-8b1d-fae158fe1439","ios":"levelo://app?vid=c31dcfd9-6048-45b7-8b1d-fae158fe1439"},"vehicle_type_id":"4","last_reported":1749564699,"current_range_meters":12800,"station_id":"ce4bhbp2rcd13ifvqerg","pricing_plan_id":"cebpf4jnsgd1na2vs0mg"},{"bike_id":"1b760162-f793-424a-a929-ef3cd8eff0f8","system_id":"levelo_inurba_marseille","lat":43.286163,"lon":5.370829,"is_reserved":false,"is_disabled":false,"rental_uris":{"android":"levelo://app?vid=1b760162-f793-424a-a929-ef3cd8eff0f8","ios":"levelo://app?vid=1b760162-f793-424a-a929-ef3cd8eff0f8"},"vehicle_type_id":"4","last_reported":1749564699,"current_range_meters":12800,"station_id":"","pricing_plan_id":"cebpf4jnsgd1na2vs0mg"},{"bike_id":"b7cfc3d2-8992-4ae5-bc0e-f8e3ccd246e3","system_id":"levelo_inurba_marseille","lat":43.29935,"lon":5.3654,"is_reserved":false,"is_disabled":false,"rental_uris":{"android":"levelo://app?vid=b7cfc3d2-8992-4ae5-bc0e-f8e3ccd246e3","ios":"levelo://app?vid=b7cfc3d2-8992-4ae5-bc0e-f8e3ccd246e3"},"vehicle_type_id":"4","last_reported":1749564699,"current_range_meters":12800,"station_id":"ce4bgm92rcd13ifvqbr0","pricing_plan_id":"cebpf4jnsgd1na2vs0mg"},{"bike_id":"ca27e12a-1f2d-4cf2-be29-12a2b9ff1547","system_id":"levelo_inurba_marseille","lat":43.31717,"lon":5.42409,"is_reserved":false,"is_disabled":false,"rental_uris":{"android":"levelo://app?vid=ca27e12a-1f2d-4cf2-be29-12a2b9ff1547","ios":"levelo://app?vid=ca27e12a-1f2d-4cf2-be29-12a2b9ff1547"},"vehicle_type_id":"4","last_reported":1749564699,"current_range_meters":12800,"station_id":"ce4bhp92rcd13ifvqhbg","pricing_plan_id":"cebpf4jnsgd1na2vs0mg"},{"bike_id":"1502ceb1-491a-4700-ac47-61a541830cd3","system_id":"levelo_inurba_marseille","lat":43.28279,"lon":5.35072,"is_reserved":false,"is_disabled":false,"rental_uris":{"android":"levelo://app?vid=1502ceb1-491a-4700-ac47-61a541830cd3","ios":"levelo://app?vid=1502ceb1-491a-4700-ac47-61a541830cd3"},"vehicle_type_id":"4","last_reported":1749564699,"current_range_meters":12800,"station_id":"ce4bhbp2rcd13ifvqerg","pricing_plan_id":"cebpf4jnsgd1na2vs0mg"},{"bike_id":"d2d173f7-dcbf-4f4a-94a8-d373193469f0","system_id":"levelo_inurba_marseille","lat":43.30461,"lon":5.37903,"is_reserved":false,"is_disabled":false,"rental_uris":{"android":"levelo://app?vid=d2d173f7-dcbf-4f4a-94a8-d373193469f0","ios":"levelo://app?vid=d2d173f7-dcbf-4f4a-94a8-d373193469f0"},"vehicle_type_id":"4","last_reported":1749564699,"current_range_meters":13600,"station_id":"ce4bgup2rcd13ifvqcn0","pricing_plan_id":"cebpf4jnsgd1na2vs0mg"},{"bike_id":"6fe96216-7cf9-40ce-a273-bfe0929c74e9","system_id":"levelo_inurba_marseille","lat":43.29556,"lon":5.42269,"is_reserved":false,"is_disabled":false,"rental_uris":{"android":"levelo://app?vid=6fe96216-7cf9-40ce-a273-bfe0929c74e9","ios":"levelo://app?vid=6fe96216-7cf9-40ce-a273-bfe0929c74e9"},"vehicle_type_id":"4","last_reported":1749564699,"current_range_meters":13600,"station_id":"ce4bhph2rcd13ifvqhdg","pricing_plan_id":"cebpf4jnsgd1na2vs0mg"},{"bike_id":"94412bad-4301-48d6-b548-6b7fb7b66f22","system_id":"levelo_inurba_marseille","lat":43.31377,"lon":5.3669,"is_reserved":false,"is_disabled":false,"rental_uris":{"android":"levelo://app?vid=94412bad-4301-48d6-b548-6b7fb7b66f22","ios":"levelo://app?vid=94412bad-4301-48d6-b548-6b7fb7b66f22"},"vehicle_type_id":"4","last_reported":1749564699,"current_range_meters":13600,"station_id":"ce4bgr92rcd13ifvqc6g","pricing_plan_id":"cebpf4jnsgd1na2vs0mg"},{"bike_id":"1e11feb0-0a6e-4b0e-aa98-d035d3992658","system_id":"levelo_inurba_marseille","lat":43.3243,"lon":5.42395,"is_reserved":false,"is_disabled":false,"rental_uris":{"android":"levelo://app?vid=1e11feb0-0a6e-4b0e-aa98-d035d3992658","ios":"levelo://app?vid=1e11feb0-0a6e-4b0e-aa98-d035d3992658"},"vehicle_type_id":"4","last_reported":1749564699,"current_range_meters":13600,"station_id":"","pricing_plan_id":"cebpf4jnsgd1na2vs0mg"},{"bike_id":"55ded51e-53d2-446b-ac1b-2bcb1ad54a4f","system_id":"levelo_inurba_marseille","lat":43.32047,"lon":5.41549,"is_reserved":false,"is_disabled":false,"rental_uris":{"android":"levelo://app?vid=55ded51e-53d2-446b-ac1b-2bcb1ad54a4f","ios":"levelo://app?vid=55ded51e-53d2-446b-ac1b-2bcb1ad54a4f"},"vehicle_type_id":"4","last_reported":1749564699,"current_range_meters":13600,"station_id":"ce4bhq92rcd13ifvqhkg","pricing_plan_id":"cebpf4jnsgd1na2vs0mg"},{"bike_id":"e731bcd8-8502-4702-8819-ceb520200a7e","system_id":"levelo_inurba_marseille","lat":43.31725,"lon":5.43713,"is_reserved":false,"is_disabled":false,"rental_uris":{"android":"levelo://app?vid=e731bcd8-8502-4702-8819-ceb520200a7e","ios":"levelo://app?vid=e731bcd8-8502-4702-8819-ceb520200a7e"},"vehicle_type_id":"4","last_reported":1749564699,"current_range_meters":14000,"station_id":"ce4bhp92rcd13ifvqhcg","pricing_plan_id":"cebpf4jnsgd1na2vs0mg"},{"bike_id":"57968a3a-164b-48a3-afb8-471ac1e74b7b","system_id":"levelo_inurba_marseille","lat":43.24659,"lon":5.38173,"is_reserved":false,"is_disabled":false,"rental_uris":{"android":"levelo://app?vid=57968a3a-164b-48a3-afb8-471ac1e74b7b","ios":"levelo://app?vid=57968a3a-164b-48a3-afb8-471ac1e74b7b"},"vehicle_type_id":"4","last_reported":1749564699,"current_range_meters":14000,"station_id":"ce4bhih2rcd13ifvqfr0","pricing_plan_id":"cebpf4jnsgd1na2vs0mg"},{"bike_id":"abcd2dc9-4396-440f-85b3-9d9064401860","system_id":"levelo_inurba_marseille","lat":43.31381,"lon":5.36758,"is_reserved":false,"is_disabled":false,"rental_uris":{"android":"levelo://app?vid=abcd2dc9-4396-440f-85b3-9d9064401860","ios":"levelo://app?vid=abcd2dc9-4396-440f-85b3-9d9064401860"},"vehicle_type_id":"4","last_reported":1749564699,"current_range_meters":14000,"station_id":"","pricing_plan_id":"cebpf4jnsgd1na2vs0mg"},{"bike_id":"187b0a7b-e256-4c19-9794-bb250a6c5653","system_id":"levelo_inurba_marseille","lat":43.31855,"lon":5.37961,"is_reserved":false,"is_disabled":false,"rental_uris":{"android":"levelo://app?vid=187b0a7b-e256-4c19-9794-bb250a6c5653","ios":"levelo://app?vid=187b0a7b-e256-4c19-9794-bb250a6c5653"},"vehicle_type_id":"4","last_reported":1749564699,"current_range_meters":14000,"station_id":"","pricing_plan_id":"cebpf4jnsgd1na2vs0mg"},{"bike_id":"a14e9478-6310-4acc-9993-7ec66681110d","system_id":"levelo_inurba_marseille","lat":43.28422,"lon":5.34985,"is_reserved":false,"is_disabled":false,"rental_uris":{"android":"levelo://app?vid=a14e9478-6310-4acc-9993-7ec66681110d","ios":"levelo://app?vid=a14e9478-6310-4acc-9993-7ec66681110d"},"vehicle_type_id":"4","last_reported":1749564699,"current_range_meters":14400,"station_id":"ce4bhbh2rcd13ifvqepg","pricing_plan_id":"cebpf4jnsgd1na2vs0mg"},{"bike_id":"c9375876-5227-4f49-a416-c76eb38d7bf4","system_id":"levelo_inurba_marseille","lat":43.31327,"lon":5.39749,"is_reserved":false,"is_disabled":false,"rental_uris":{"android":"levelo://app?vid=c9375876-5227-4f49-a416-c76eb38d7bf4","ios":"levelo://app?vid=c9375876-5227-4f49-a416-c76eb38d7bf4"},"vehicle_type_id":"4","last_reported":1749564699,"current_range_meters":14400,"station_id":"","pricing_plan_id":"cebpf4jnsgd1na2vs0mg"},{"bike_id":"dfee5729-07ff-4667-93d7-3aab4b6c3dcf","system_id":"levelo_inurba_marseille","lat":43.27909,"lon":5.38015,"is_reserved":false,"is_disabled":false,"rental_uris":{"android":"levelo://app?vid=dfee5729-07ff-4667-93d7-3aab4b6c3dcf","ios":"levelo://app?vid=dfee5729-07ff-4667-93d7-3aab4b6c3dcf"},"vehicle_type_id":"4","last_reported":1749564699,"current_range_meters":14400,"station_id":"ce4bhf92rcd13ifvqf50","pricing_plan_id":"cebpf4jnsgd1na2vs0mg"},{"bike_id":"200f656f-a191-4eeb-9b52-ecd0e6465f47","system_id":"levelo_inurba_marseille","lat":43.24655,"lon":5.38896,"is_reserved":false,"is_disabled":false,"rental_uris":{"android":"levelo://app?vid=200f656f-a191-4eeb-9b52-ecd0e6465f47","ios":"levelo://app?vid=200f656f-a191-4eeb-9b52-ecd0e6465f47"},"vehicle_type_id":"4","last_reported":1749564699,"current_range_meters":14400,"station_id":"ce4bhg12rcd13ifvqf60","pricing_plan_id":"cebpf4jnsgd1na2vs0mg"},{"bike_id":"15138ce4-9850-4a09-9eb2-0da12393d0d8","system_id":"levelo_inurba_marseille","lat":43.31713,"lon":5.43704,"is_reserved":false,"is_disabled":false,"rental_uris":{"android":"levelo://app?vid=15138ce4-9850-4a09-9eb2-0da12393d0d8","ios":"levelo://app?vid=15138ce4-9850-4a09-9eb2-0da12393d0d8"},"vehicle_type_id":"4","last_reported":1749564699,"current_range_meters":14400,"station_id":"ce4bhp92rcd13ifvqhcg","pricing_plan_id":"cebpf4jnsgd1na2vs0mg"},{"bike_id":"32cfb1b8-0de6-47ac-8ba4-e47f2210c5bc","system_id":"levelo_inurba_marseille","lat":43.29936,"lon":5.36551,"is_reserved":false,"is_disabled":false,"rental_uris":{"android":"levelo://app?vid=32cfb1b8-0de6-47ac-8ba4-e47f2210c5bc","ios":"levelo://app?vid=32cfb1b8-0de6-47ac-8ba4-e47f2210c5bc"},"vehicle_type_id":"4","last_reported":1749564699,"current_range_meters":14400,"station_id":"ce4bgm92rcd13ifvqbr0","pricing_plan_id":"cebpf4jnsgd1na2vs0mg"},{"bike_id":"c30dbedc-c866-492b-a092-32c1ee0c1f22","system_id":"levelo_inurba_marseille","lat":43.29557,"lon":5.3856,"is_reserved":false,"is_disabled":true,"rental_uris":{"android":"levelo://app?vid=c30dbedc-c866-492b-a092-32c1ee0c1f22","ios":"levelo://app?vid=c30dbedc-c866-492b-a092-32c1ee0c1f22"},"vehicle_type_id":"4","last_reported":1749564699,"current_range_meters":14800,"station_id":"ce4bgih2rcd13ifvqba0","pricing_plan_id":"cebpf4jnsgd1na2vs0mg"},{"bike_id":"0a454070-7316-4942-b540-020a9e8c1452","system_id":"levelo_inurba_marseille","lat":43.31705,"lon":5.43719,"is_reserved":false,"is_disabled":false,"rental_uris":{"android":"levelo://app?vid=0a454070-7316-4942-b540-020a9e8c1452","ios":"levelo://app?vid=0a454070-7316-4942-b540-020a9e8c1452"},"vehicle_type_id":"4","last_reported":1749564699,"current_range_meters":14800,"station_id":"ce4bhp92rcd13ifvqhcg","pricing_plan_id":"cebpf4jnsgd1na2vs0mg"},{"bike_id":"a7e979e5-7afa-4658-b3e7-2502946031d3","system_id":"levelo_inurba_marseille","lat":43.25514,"lon":5.42052,"is_reserved":false,"is_disabled":false,"rental_uris":{"android":"levelo://app?vid=a7e979e5-7afa-4658-b3e7-2502946031d3","ios":"levelo://app?vid=a7e979e5-7afa-4658-b3e7-2502946031d3"},"vehicle_type_id":"4","last_reported":1749564699,"current_range_meters":14800,"station_id":"","pricing_plan_id":"cebpf4jnsgd1na2vs0mg"},{"bike_id":"1e20f032-0f6a-40b2-ad29-e4d2225496fa","system_id":"levelo_inurba_marseille","lat":43.30282,"lon":5.37066,"is_reserved":false,"is_disabled":false,"rental_uris":{"android":"levelo://app?vid=1e20f032-0f6a-40b2-ad29-e4d2225496fa","ios":"levelo://app?vid=1e20f032-0f6a-40b2-ad29-e4d2225496fa"},"vehicle_type_id":"4","last_reported":1749564699,"current_range_meters":14800,"station_id":"","pricing_plan_id":"cebpf4jnsgd1na2vs0mg"},{"bike_id":"04fd5128-6c6e-484d-a7a4-c88b38dd70d3","system_id":"levelo_inurba_marseille","lat":43.28268,"lon":5.35077,"is_reserved":false,"is_disabled":false,"rental_uris":{"android":"levelo://app?vid=04fd5128-6c6e-484d-a7a4-c88b38dd70d3","ios":"levelo://app?vid=04fd5128-6c6e-484d-a7a4-c88b38dd70d3"},"vehicle_type_id":"4","last_reported":1749564699,"current_range_meters":15200,"station_id":"ce4bhbp2rcd13ifvqerg","pricing_plan_id":"cebpf4jnsgd1na2vs0mg"},{"bike_id":"6be5e3f9-ba3b-4473-8ed8-4b8cd4758284","system_id":"levelo_inurba_marseille","lat":43.254852,"lon":5.409361,"is_reserved":false,"is_disabled":false,"rental_uris":{"android":"levelo://app?vid=6be5e3f9-ba3b-4473-8ed8-4b8cd4758284","ios":"levelo://app?vid=6be5e3f9-ba3b-4473-8ed8-4b8cd4758284"},"vehicle_type_id":"4","last_reported":1749564699,"current_range_meters":15200,"station_id":"ce4bhbh2rcd13ifvqepg","pricing_plan_id":"cebpf4jnsgd1na2vs0mg"},{"bike_id":"8e1895e8-f102-4cf2-b40e-b15e855d0379","system_id":"levelo_inurba_marseille","lat":43.27944,"lon":5.41046,"is_reserved":false,"is_disabled":false,"rental_uris":{"android":"levelo://app?vid=8e1895e8-f102-4cf2-b40e-b15e855d0379","ios":"levelo://app?vid=8e1895e8-f102-4cf2-b40e-b15e855d0379"},"vehicle_type_id":"4","last_reported":1749564699,"current_range_meters":15200,"station_id":"ce4bhnp2rcd13ifvqh0g","pricing_plan_id":"cebpf4jnsgd1na2vs0mg"},{"bike_id":"1cb49127-83c2-42e5-a0c1-a209212b201e","system_id":"levelo_inurba_marseille","lat":43.28425,"lon":5.34991,"is_reserved":false,"is_disabled":false,"rental_uris":{"android":"levelo://app?vid=1cb49127-83c2-42e5-a0c1-a209212b201e","ios":"levelo://app?vid=1cb49127-83c2-42e5-a0c1-a209212b201e"},"vehicle_type_id":"4","last_reported":1749564699,"current_range_meters":16000,"station_id":"ce4bhbh2rcd13ifvqepg","pricing_plan_id":"cebpf4jnsgd1na2vs0mg"},{"bike_id":"557104e5-12ad-4811-8d87-d8392375329d","system_id":"levelo_inurba_marseille","lat":43.28309,"lon":5.35106,"is_reserved":false,"is_disabled":false,"rental_uris":{"android":"levelo://app?vid=557104e5-12ad-4811-8d87-d8392375329d","ios":"levelo://app?vid=557104e5-12ad-4811-8d87-d8392375329d"},"vehicle_type_id":"4","last_reported":1749564699,"current_range_meters":16000,"station_id":"","pricing_plan_id":"cebpf4jnsgd1na2vs0mg"},{"bike_id":"dbc59a63-553e-4a56-9edf-63244243f263","system_id":"levelo_inurba_marseille","lat":43.2843,"lon":5.34999,"is_reserved":false,"is_disabled":false,"rental_uris":{"android":"levelo://app?vid=dbc59a63-553e-4a56-9edf-63244243f263","ios":"levelo://app?vid=dbc59a63-553e-4a56-9edf-63244243f263"},"vehicle_type_id":"4","last_reported":1749564699,"current_range_meters":16000,"station_id":"ce4bhbh2rcd13ifvqepg","pricing_plan_id":"cebpf4jnsgd1na2vs0mg"},{"bike_id":"62c72035-cd26-43e1-a90b-bfb4b07f9d56","system_id":"levelo_inurba_marseille","lat":43.22934,"lon":5.35382,"is_reserved":false,"is_disabled":false,"rental_uris":{"android":"levelo://app?vid=62c72035-cd26-43e1-a90b-bfb4b07f9d56","ios":"levelo://app?vid=62c72035-cd26-43e1-a90b-bfb4b07f9d56"},"vehicle_type_id":"4","last_reported":1749564699,"current_range_meters":16000,"station_id":"cpo3532slgdg3j2ikp40","pricing_plan_id":"cebpf4jnsgd1na2vs0mg"},{"bike_id":"1112870b-7d61-4c5e-867e-015df8afa9c0","system_id":"levelo_inurba_marseille","lat":43.28409,"lon":5.35,"is_reserved":false,"is_disabled":false,"rental_uris":{"android":"levelo://app?vid=1112870b-7d61-4c5e-867e-015df8afa9c0","ios":"levelo://app?vid=1112870b-7d61-4c5e-867e-015df8afa9c0"},"vehicle_type_id":"4","last_reported":1749564699,"current_range_meters":16000,"station_id":"ce4bhbh2rcd13ifvqepg","pricing_plan_id":"cebpf4jnsgd1na2vs0mg"},{"bike_id":"84f5a926-1dd6-4535-b647-2764ce0ca103","system_id":"levelo_inurba_marseille","lat":43.321146,"lon":5.367748,"is_reserved":false,"is_disabled":false,"rental_uris":{"android":"levelo://app?vid=84f5a926-1dd6-4535-b647-2764ce0ca103","ios":"levelo://app?vid=84f5a926-1dd6-4535-b647-2764ce0ca103"},"vehicle_type_id":"4","last_reported":1749564699,"current_range_meters":16000,"station_id":"ce4bhrh2rcd13ifvqhug","pricing_plan_id":"cebpf4jnsgd1na2vs0mg"},{"bike_id":"a46e8da4-80d3-4f0d-bbcb-8e01773f7633","system_id":"levelo_inurba_marseille","lat":43.27376,"lon":5.36246,"is_reserved":false,"is_disabled":false,"rental_uris":{"android":"levelo://app?vid=a46e8da4-80d3-4f0d-bbcb-8e01773f7633","ios":"levelo://app?vid=a46e8da4-80d3-4f0d-bbcb-8e01773f7633"},"vehicle_type_id":"4","last_reported":1749564699,"current_range_meters":16000,"station_id":"ce4bhbh2rcd13ifvqeo0","pricing_plan_id":"cebpf4jnsgd1na2vs0mg"},{"bike_id":"d2dca66d-cae4-45dc-947b-a974d900490d","system_id":"levelo_inurba_marseille","lat":43.26505,"lon":5.39537,"is_reserved":false,"is_disabled":false,"rental_uris":{"android":"levelo://app?vid=d2dca66d-cae4-45dc-947b-a974d900490d","ios":"levelo://app?vid=d2dca66d-cae4-45dc-947b-a974d900490d"},"vehicle_type_id":"4","last_reported":1749564699,"current_range_meters":15200,"station_id":"ce4bhi12rcd13ifvqfq0","pricing_plan_id":"cebpf4jnsgd1na2vs0mg"},{"bike_id":"66a554b0-1440-4449-9b9a-dcf9e0415ba6","system_id":"levelo_inurba_marseille","lat":43.29969,"lon":5.384732,"is_reserved":false,"is_disabled":true,"rental_uris":{"android":"levelo://app?vid=66a554b0-1440-4449-9b9a-dcf9e0415ba6","ios":"levelo://app?vid=66a554b0-1440-4449-9b9a-dcf9e0415ba6"},"vehicle_type_id":"4","last_reported":1749564699,"current_range_meters":16000,"station_id":"ce4bgj92rcd13ifvqbd0","pricing_plan_id":"cebpf4jnsgd1na2vs0mg"},{"bike_id":"262903a9-22b9-4b2d-96c2-2e5dbd155090","system_id":"levelo_inurba_marseille","lat":43.32481,"lon":5.36573,"is_reserved":false,"is_disabled":false,"rental_uris":{"android":"levelo://app?vid=262903a9-22b9-4b2d-96c2-2e5dbd155090","ios":"levelo://app?vid=262903a9-22b9-4b2d-96c2-2e5dbd155090"},"vehicle_type_id":"4","last_reported":1749564699,"current_range_meters":16400,"station_id":"ce4bhs12rcd13ifvqhvg","pricing_plan_id":"cebpf4jnsgd1na2vs0mg"},{"bike_id":"d2dcd010-b909-4ab9-b870-59dc088855f9","system_id":"levelo_inurba_marseille","lat":43.28421,"lon":5.35001,"is_reserved":false,"is_disabled":false,"rental_uris":{"android":"levelo://app?vid=d2dcd010-b909-4ab9-b870-59dc088855f9","ios":"levelo://app?vid=d2dcd010-b909-4ab9-b870-59dc088855f9"},"vehicle_type_id":"4","last_reported":1749564699,"current_range_meters":16400,"station_id":"ce4bhbh2rcd13ifvqepg","pricing_plan_id":"cebpf4jnsgd1na2vs0mg"},{"bike_id":"627765ea-434d-4eb2-b82a-007de621bcc0","system_id":"levelo_inurba_marseille","lat":43.295734,"lon":5.399634,"is_reserved":false,"is_disabled":false,"rental_uris":{"android":"levelo://app?vid=627765ea-434d-4eb2-b82a-007de621bcc0","ios":"levelo://app?vid=627765ea-434d-4eb2-b82a-007de621bcc0"},"vehicle_type_id":"4","last_reported":1749564699,"current_range_meters":16000,"station_id":"ce4bh312rcd13ifvqdj0","pricing_plan_id":"cebpf4jnsgd1na2vs0mg"},{"bike_id":"a984632f-b31d-4061-b7e9-60898a82f4a1","system_id":"levelo_inurba_marseille","lat":43.33059,"lon":5.35784,"is_reserved":false,"is_disabled":false,"rental_uris":{"android":"levelo://app?vid=a984632f-b31d-4061-b7e9-60898a82f4a1","ios":"levelo://app?vid=a984632f-b31d-4061-b7e9-60898a82f4a1"},"vehicle_type_id":"4","last_reported":1749564699,"current_range_meters":16400,"station_id":"","pricing_plan_id":"cebpf4jnsgd1na2vs0mg"},{"bike_id":"e61a5abb-c900-4d6e-8217-a46fab06e9f4","system_id":"levelo_inurba_marseille","lat":43.33014,"lon":5.39261,"is_reserved":false,"is_disabled":false,"rental_uris":{"android":"levelo://app?vid=e61a5abb-c900-4d6e-8217-a46fab06e9f4","ios":"levelo://app?vid=e61a5abb-c900-4d6e-8217-a46fab06e9f4"},"vehicle_type_id":"4","last_reported":1749564699,"current_range_meters":16400,"station_id":"","pricing_plan_id":"cebpf4jnsgd1na2vs0mg"},{"bike_id":"3d5a5857-4f49-48ea-a587-aa5b87e9656f","system_id":"levelo_inurba_marseille","lat":43.23976,"lon":5.36674,"is_reserved":false,"is_disabled":false,"rental_uris":{"android":"levelo://app?vid=3d5a5857-4f49-48ea-a587-aa5b87e9656f","ios":"levelo://app?vid=3d5a5857-4f49-48ea-a587-aa5b87e9656f"},"vehicle_type_id":"4","last_reported":1749564699,"current_range_meters":16400,"station_id":"ce4bhi12rcd13ifvqfp0","pricing_plan_id":"cebpf4jnsgd1na2vs0mg"},{"bike_id":"72befdc9-9f00-42fe-9fa3-196160650a86","system_id":"levelo_inurba_marseille","lat":43.28631,"lon":5.35115,"is_reserved":false,"is_disabled":false,"rental_uris":{"android":"levelo://app?vid=72befdc9-9f00-42fe-9fa3-196160650a86","ios":"levelo://app?vid=72befdc9-9f00-42fe-9fa3-196160650a86"},"vehicle_type_id":"4","last_reported":1749564699,"current_range_meters":16400,"station_id":"ce4bhch2rcd13ifvqeug","pricing_plan_id":"cebpf4jnsgd1na2vs0mg"},{"bike_id":"c16332b1-6ea1-47aa-b4eb-1eb02d86a0e7","system_id":"levelo_inurba_marseille","lat":43.284161,"lon":5.349908,"is_reserved":false,"is_disabled":false,"rental_uris":{"android":"levelo://app?vid=c16332b1-6ea1-47aa-b4eb-1eb02d86a0e7","ios":"levelo://app?vid=c16332b1-6ea1-47aa-b4eb-1eb02d86a0e7"},"vehicle_type_id":"4","last_reported":1749564699,"current_range_meters":16400,"station_id":"ce4bhbh2rcd13ifvqepg","pricing_plan_id":"cebpf4jnsgd1na2vs0mg"},{"bike_id":"002ad4e8-6140-4bdd-b14b-f38ee707447e","system_id":"levelo_inurba_marseille","lat":43.30987,"lon":5.38578,"is_reserved":false,"is_disabled":false,"rental_uris":{"android":"levelo://app?vid=002ad4e8-6140-4bdd-b14b-f38ee707447e","ios":"levelo://app?vid=002ad4e8-6140-4bdd-b14b-f38ee707447e"},"vehicle_type_id":"4","last_reported":1749564699,"current_range_meters":16400,"station_id":"","pricing_plan_id":"cebpf4jnsgd1na2vs0mg"},{"bike_id":"f8acd800-e6b4-4533-b01c-589ab2c6bd01","system_id":"levelo_inurba_marseille","lat":43.28272,"lon":5.35068,"is_reserved":false,"is_disabled":false,"rental_uris":{"android":"levelo://app?vid=f8acd800-e6b4-4533-b01c-589ab2c6bd01","ios":"levelo://app?vid=f8acd800-e6b4-4533-b01c-589ab2c6bd01"},"vehicle_type_id":"4","last_reported":1749564699,"current_range_meters":16400,"station_id":"ce4bhbp2rcd13ifvqerg","pricing_plan_id":"cebpf4jnsgd1na2vs0mg"},{"bike_id":"ccbdae74-efb7-4067-8d5c-dd2f8a3f8b66","system_id":"levelo_inurba_marseille","lat":43.29006,"lon":5.35608,"is_reserved":false,"is_disabled":false,"rental_uris":{"android":"levelo://app?vid=ccbdae74-efb7-4067-8d5c-dd2f8a3f8b66","ios":"levelo://app?vid=ccbdae74-efb7-4067-8d5c-dd2f8a3f8b66"},"vehicle_type_id":"4","last_reported":1749564699,"current_range_meters":16400,"station_id":"ce4bhb92rcd13ifvqen0","pricing_plan_id":"cebpf4jnsgd1na2vs0mg"},{"bike_id":"e2f918fd-dde6-4604-9cea-f11a55936a73","system_id":"levelo_inurba_marseille","lat":43.30548,"lon":5.36544,"is_reserved":false,"is_disabled":false,"rental_uris":{"android":"levelo://app?vid=e2f918fd-dde6-4604-9cea-f11a55936a73","ios":"levelo://app?vid=e2f918fd-dde6-4604-9cea-f11a55936a73"},"vehicle_type_id":"4","last_reported":1749564699,"current_range_meters":16400,"station_id":"ce4bgs12rcd13ifvqcag","pricing_plan_id":"cebpf4jnsgd1na2vs0mg"},{"bike_id":"d3f6f7b3-3ac2-436c-a6c9-d601f6d1bae6","system_id":"levelo_inurba_marseille","lat":43.30931,"lon":5.401378,"is_reserved":false,"is_disabled":false,"rental_uris":{"android":"levelo://app?vid=d3f6f7b3-3ac2-436c-a6c9-d601f6d1bae6","ios":"levelo://app?vid=d3f6f7b3-3ac2-436c-a6c9-d601f6d1bae6"},"vehicle_type_id":"4","last_reported":1749564699,"current_range_meters":16400,"station_id":"ce4bgvp2rcd13ifvqct0","pricing_plan_id":"cebpf4jnsgd1na2vs0mg"},{"bike_id":"9985aa65-5971-4997-bda5-3527fedc3d34","system_id":"levelo_inurba_marseille","lat":43.30284,"lon":5.37709,"is_reserved":false,"is_disabled":false,"rental_uris":{"android":"levelo://app?vid=9985aa65-5971-4997-bda5-3527fedc3d34","ios":"levelo://app?vid=9985aa65-5971-4997-bda5-3527fedc3d34"},"vehicle_type_id":"4","last_reported":1749564699,"current_range_meters":16400,"station_id":"ce4bguh2rcd13ifvqcj0","pricing_plan_id":"cebpf4jnsgd1na2vs0mg"},{"bike_id":"4b780e47-5600-4181-984d-00a4c434b562","system_id":"levelo_inurba_marseille","lat":43.28266,"lon":5.35087,"is_reserved":false,"is_disabled":false,"rental_uris":{"android":"levelo://app?vid=4b780e47-5600-4181-984d-00a4c434b562","ios":"levelo://app?vid=4b780e47-5600-4181-984d-00a4c434b562"},"vehicle_type_id":"4","last_reported":1749564699,"current_range_meters":16400,"station_id":"ce4bhbp2rcd13ifvqerg","pricing_plan_id":"cebpf4jnsgd1na2vs0mg"},{"bike_id":"f9b391cf-6792-4710-8eba-9a1812245b6b","system_id":"levelo_inurba_marseille","lat":43.273753,"lon":5.362515,"is_reserved":false,"is_disabled":false,"rental_uris":{"android":"levelo://app?vid=f9b391cf-6792-4710-8eba-9a1812245b6b","ios":"levelo://app?vid=f9b391cf-6792-4710-8eba-9a1812245b6b"},"vehicle_type_id":"4","last_reported":1749564699,"current_range_meters":16800,"station_id":"ce4bhbh2rcd13ifvqeo0","pricing_plan_id":"cebpf4jnsgd1na2vs0mg"},{"bike_id":"a5666009-a641-4d20-b0e2-3945ce6adff7","system_id":"levelo_inurba_marseille","lat":43.295351,"lon":5.374977,"is_reserved":false,"is_disabled":false,"rental_uris":{"android":"levelo://app?vid=a5666009-a641-4d20-b0e2-3945ce6adff7","ios":"levelo://app?vid=a5666009-a641-4d20-b0e2-3945ce6adff7"},"vehicle_type_id":"4","last_reported":1749564699,"current_range_meters":16800,"station_id":"ce4bgkp2rcd13ifvqbmg","pricing_plan_id":"cebpf4jnsgd1na2vs0mg"},{"bike_id":"2570b8d2-8993-4a8a-bd9c-bb6b693b3851","system_id":"levelo_inurba_marseille","lat":43.28278,"lon":5.35066,"is_reserved":false,"is_disabled":false,"rental_uris":{"android":"levelo://app?vid=2570b8d2-8993-4a8a-bd9c-bb6b693b3851","ios":"levelo://app?vid=2570b8d2-8993-4a8a-bd9c-bb6b693b3851"},"vehicle_type_id":"4","last_reported":1749564699,"current_range_meters":16800,"station_id":"ce4bhbp2rcd13ifvqerg","pricing_plan_id":"cebpf4jnsgd1na2vs0mg"},{"bike_id":"594e838f-8e55-4b81-b2b1-3200308e0a12","system_id":"levelo_inurba_marseille","lat":43.23968,"lon":5.36633,"is_reserved":false,"is_disabled":false,"rental_uris":{"android":"levelo://app?vid=594e838f-8e55-4b81-b2b1-3200308e0a12","ios":"levelo://app?vid=594e838f-8e55-4b81-b2b1-3200308e0a12"},"vehicle_type_id":"4","last_reported":1749564699,"current_range_meters":16800,"station_id":"ce4bhi12rcd13ifvqfp0","pricing_plan_id":"cebpf4jnsgd1na2vs0mg"},{"bike_id":"f86c871e-5691-4061-a487-aa146b09dc41","system_id":"levelo_inurba_marseille","lat":43.28427,"lon":5.35003,"is_reserved":false,"is_disabled":false,"rental_uris":{"android":"levelo://app?vid=f86c871e-5691-4061-a487-aa146b09dc41","ios":"levelo://app?vid=f86c871e-5691-4061-a487-aa146b09dc41"},"vehicle_type_id":"4","last_reported":1749564699,"current_range_meters":16800,"station_id":"ce4bhbh2rcd13ifvqepg","pricing_plan_id":"cebpf4jnsgd1na2vs0mg"},{"bike_id":"f6c2b664-d919-4f64-8418-1a0716286061","system_id":"levelo_inurba_marseille","lat":43.28738,"lon":5.36088,"is_reserved":false,"is_disabled":false,"rental_uris":{"android":"levelo://app?vid=f6c2b664-d919-4f64-8418-1a0716286061","ios":"levelo://app?vid=f6c2b664-d919-4f64-8418-1a0716286061"},"vehicle_type_id":"4","last_reported":1749564699,"current_range_meters":16800,"station_id":"cki0cbj6b192h4jlfktg","pricing_plan_id":"cebpf4jnsgd1na2vs0mg"},{"bike_id":"03b5290d-c596-4067-adda-74fb07463890","system_id":"levelo_inurba_marseille","lat":43.28625,"lon":5.35083,"is_reserved":false,"is_disabled":false,"rental_uris":{"android":"levelo://app?vid=03b5290d-c596-4067-adda-74fb07463890","ios":"levelo://app?vid=03b5290d-c596-4067-adda-74fb07463890"},"vehicle_type_id":"4","last_reported":1749564699,"current_range_meters":16800,"station_id":"ce4bhch2rcd13ifvqeug","pricing_plan_id":"cebpf4jnsgd1na2vs0mg"},{"bike_id":"e857b26f-e98d-4e5b-a472-9489934cc3bc","system_id":"levelo_inurba_marseille","lat":43.30919,"lon":5.40151,"is_reserved":false,"is_disabled":true,"rental_uris":{"android":"levelo://app?vid=e857b26f-e98d-4e5b-a472-9489934cc3bc","ios":"levelo://app?vid=e857b26f-e98d-4e5b-a472-9489934cc3bc"},"vehicle_type_id":"4","last_reported":1749564699,"current_range_meters":16800,"station_id":"ce4bgvp2rcd13ifvqct0","pricing_plan_id":"cebpf4jnsgd1na2vs0mg"},{"bike_id":"77b8df20-7284-4fad-8c91-73d01a338043","system_id":"levelo_inurba_marseille","lat":43.26055,"lon":5.3756,"is_reserved":false,"is_disabled":false,"rental_uris":{"android":"levelo://app?vid=77b8df20-7284-4fad-8c91-73d01a338043","ios":"levelo://app?vid=77b8df20-7284-4fad-8c91-73d01a338043"},"vehicle_type_id":"4","last_reported":1749564699,"current_range_meters":16400,"station_id":"ce4bhgh2rcd13ifvqfa0","pricing_plan_id":"cebpf4jnsgd1na2vs0mg"},{"bike_id":"62da34c6-5063-4c51-a094-ade7e99669e1","system_id":"levelo_inurba_marseille","lat":43.21773,"lon":5.34595,"is_reserved":false,"is_disabled":false,"rental_uris":{"android":"levelo://app?vid=62da34c6-5063-4c51-a094-ade7e99669e1","ios":"levelo://app?vid=62da34c6-5063-4c51-a094-ade7e99669e1"},"vehicle_type_id":"4","last_reported":1749564699,"current_range_meters":16800,"station_id":"st_cvj6r9ubvosntc0bgbag","pricing_plan_id":"cebpf4jnsgd1na2vs0mg"},{"bike_id":"360698b9-753d-4929-b083-8e827c7f2f61","system_id":"levelo_inurba_marseille","lat":43.31327,"lon":5.39711,"is_reserved":false,"is_disabled":false,"rental_uris":{"android":"levelo://app?vid=360698b9-753d-4929-b083-8e827c7f2f61","ios":"levelo://app?vid=360698b9-753d-4929-b083-8e827c7f2f61"},"vehicle_type_id":"4","last_reported":1749564699,"current_range_meters":16800,"station_id":"ce4bgvp2rcd13ifvqcu0","pricing_plan_id":"cebpf4jnsgd1na2vs0mg"},{"bike_id":"cbd186cb-0b3f-464d-9a24-585e05e9f532","system_id":"levelo_inurba_marseille","lat":43.30535,"lon":5.36724,"is_reserved":false,"is_disabled":false,"rental_uris":{"android":"levelo://app?vid=cbd186cb-0b3f-464d-9a24-585e05e9f532","ios":"levelo://app?vid=cbd186cb-0b3f-464d-9a24-585e05e9f532"},"vehicle_type_id":"4","last_reported":1749564699,"current_range_meters":16400,"station_id":"ce4bgrp2rcd13ifvqc9g","pricing_plan_id":"cebpf4jnsgd1na2vs0mg"},{"bike_id":"c890f78c-d2f9-4382-870a-c745004f6c09","system_id":"levelo_inurba_marseille","lat":43.28271,"lon":5.35067,"is_reserved":false,"is_disabled":false,"rental_uris":{"android":"levelo://app?vid=c890f78c-d2f9-4382-870a-c745004f6c09","ios":"levelo://app?vid=c890f78c-d2f9-4382-870a-c745004f6c09"},"vehicle_type_id":"4","last_reported":1749564699,"current_range_meters":16800,"station_id":"ce4bhbp2rcd13ifvqerg","pricing_plan_id":"cebpf4jnsgd1na2vs0mg"},{"bike_id":"98178e55-41de-4e82-a5ef-89328e1396f0","system_id":"levelo_inurba_marseille","lat":43.28271,"lon":5.35066,"is_reserved":false,"is_disabled":false,"rental_uris":{"android":"levelo://app?vid=98178e55-41de-4e82-a5ef-89328e1396f0","ios":"levelo://app?vid=98178e55-41de-4e82-a5ef-89328e1396f0"},"vehicle_type_id":"4","last_reported":1749564699,"current_range_meters":17200,"station_id":"ce4bhbp2rcd13ifvqerg","pricing_plan_id":"cebpf4jnsgd1na2vs0mg"},{"bike_id":"bb650a3b-2f57-4e8f-b129-2ae9eea74448","system_id":"levelo_inurba_marseille","lat":43.3112,"lon":5.37775,"is_reserved":false,"is_disabled":false,"rental_uris":{"android":"levelo://app?vid=bb650a3b-2f57-4e8f-b129-2ae9eea74448","ios":"levelo://app?vid=bb650a3b-2f57-4e8f-b129-2ae9eea74448"},"vehicle_type_id":"4","last_reported":1749564699,"current_range_meters":17200,"station_id":"ce4bgt92rcd13ifvqcg0","pricing_plan_id":"cebpf4jnsgd1na2vs0mg"},{"bike_id":"387eab84-bea0-4bae-b80e-a4b82f8999cd","system_id":"levelo_inurba_marseille","lat":43.26212,"lon":5.37443,"is_reserved":false,"is_disabled":false,"rental_uris":{"android":"levelo://app?vid=387eab84-bea0-4bae-b80e-a4b82f8999cd","ios":"levelo://app?vid=387eab84-bea0-4bae-b80e-a4b82f8999cd"},"vehicle_type_id":"4","last_reported":1749564699,"current_range_meters":17200,"station_id":"ce4bhgp2rcd13ifvqfc0","pricing_plan_id":"cebpf4jnsgd1na2vs0mg"},{"bike_id":"46af8803-4a7d-4ecd-9660-5255f853f9fa","system_id":"levelo_inurba_marseille","lat":43.27948,"lon":5.41053,"is_reserved":false,"is_disabled":false,"rental_uris":{"android":"levelo://app?vid=46af8803-4a7d-4ecd-9660-5255f853f9fa","ios":"levelo://app?vid=46af8803-4a7d-4ecd-9660-5255f853f9fa"},"vehicle_type_id":"4","last_reported":1749564699,"current_range_meters":17200,"station_id":"ce4bhnp2rcd13ifvqh0g","pricing_plan_id":"cebpf4jnsgd1na2vs0mg"},{"bike_id":"09d9fc69-1955-49ad-9079-7391dea662bb","system_id":"levelo_inurba_marseille","lat":43.29213,"lon":5.39344,"is_reserved":false,"is_disabled":false,"rental_uris":{"android":"levelo://app?vid=09d9fc69-1955-49ad-9079-7391dea662bb","ios":"levelo://app?vid=09d9fc69-1955-49ad-9079-7391dea662bb"},"vehicle_type_id":"4","last_reported":1749564699,"current_range_meters":17200,"station_id":"ce4bh192rcd13ifvqdd0","pricing_plan_id":"cebpf4jnsgd1na2vs0mg"},{"bike_id":"fc689340-e596-4c27-adac-e9ec602db558","system_id":"levelo_inurba_marseille","lat":43.22928,"lon":5.35375,"is_reserved":false,"is_disabled":false,"rental_uris":{"android":"levelo://app?vid=fc689340-e596-4c27-adac-e9ec602db558","ios":"levelo://app?vid=fc689340-e596-4c27-adac-e9ec602db558"},"vehicle_type_id":"4","last_reported":1749564699,"current_range_meters":17200,"station_id":"cpo3532slgdg3j2ikp40","pricing_plan_id":"cebpf4jnsgd1na2vs0mg"},{"bike_id":"4497bc7b-bd64-47d5-92de-a3021c6fff2f","system_id":"levelo_inurba_marseille","lat":43.32508,"lon":5.36571,"is_reserved":false,"is_disabled":false,"rental_uris":{"android":"levelo://app?vid=4497bc7b-bd64-47d5-92de-a3021c6fff2f","ios":"levelo://app?vid=4497bc7b-bd64-47d5-92de-a3021c6fff2f"},"vehicle_type_id":"4","last_reported":1749564699,"current_range_meters":17200,"station_id":"ce4bhs12rcd13ifvqhvg","pricing_plan_id":"cebpf4jnsgd1na2vs0mg"},{"bike_id":"1acfb620-cad7-48c0-8901-d7a5b74a5b65","system_id":"levelo_inurba_marseille","lat":43.33751,"lon":5.37456,"is_reserved":false,"is_disabled":false,"rental_uris":{"android":"levelo://app?vid=1acfb620-cad7-48c0-8901-d7a5b74a5b65","ios":"levelo://app?vid=1acfb620-cad7-48c0-8901-d7a5b74a5b65"},"vehicle_type_id":"4","last_reported":1749564699,"current_range_meters":17200,"station_id":"","pricing_plan_id":"cebpf4jnsgd1na2vs0mg"},{"bike_id":"f53bc08c-3129-4fc3-9174-862ec7b43c8b","system_id":"levelo_inurba_marseille","lat":43.28316,"lon":5.35095,"is_reserved":false,"is_disabled":false,"rental_uris":{"android":"levelo://app?vid=f53bc08c-3129-4fc3-9174-862ec7b43c8b","ios":"levelo://app?vid=f53bc08c-3129-4fc3-9174-862ec7b43c8b"},"vehicle_type_id":"4","last_reported":1749564699,"current_range_meters":17600,"station_id":"","pricing_plan_id":"cebpf4jnsgd1na2vs0mg"},{"bike_id":"d49963c9-4a74-4b7c-ae71-2e7f71f19deb","system_id":"levelo_inurba_marseille","lat":43.29594,"lon":5.36756,"is_reserved":false,"is_disabled":true,"rental_uris":{"android":"levelo://app?vid=d49963c9-4a74-4b7c-ae71-2e7f71f19deb","ios":"levelo://app?vid=d49963c9-4a74-4b7c-ae71-2e7f71f19deb"},"vehicle_type_id":"4","last_reported":1749564699,"current_range_meters":17600,"station_id":"ce4bgph2rcd13ifvqc2g","pricing_plan_id":"cebpf4jnsgd1na2vs0mg"},{"bike_id":"0d4cea50-5c7c-4e23-84fe-a2da6015eaa2","system_id":"levelo_inurba_marseille","lat":43.27382,"lon":5.36262,"is_reserved":false,"is_disabled":false,"rental_uris":{"android":"levelo://app?vid=0d4cea50-5c7c-4e23-84fe-a2da6015eaa2","ios":"levelo://app?vid=0d4cea50-5c7c-4e23-84fe-a2da6015eaa2"},"vehicle_type_id":"4","last_reported":1749564699,"current_range_meters":17600,"station_id":"ce4bhbh2rcd13ifvqeo0","pricing_plan_id":"cebpf4jnsgd1na2vs0mg"},{"bike_id":"7af90494-5de0-4daf-b164-814a8665524a","system_id":"levelo_inurba_marseille","lat":43.24189,"lon":5.3973,"is_reserved":false,"is_disabled":false,"rental_uris":{"android":"levelo://app?vid=7af90494-5de0-4daf-b164-814a8665524a","ios":"levelo://app?vid=7af90494-5de0-4daf-b164-814a8665524a"},"vehicle_type_id":"4","last_reported":1749564699,"current_range_meters":17600,"station_id":"ce4bhn12rcd13ifvqgpg","pricing_plan_id":"cebpf4jnsgd1na2vs0mg"},{"bike_id":"ab1e7b19-c0e8-4479-bd16-6640ca0c2054","system_id":"levelo_inurba_marseille","lat":43.25825,"lon":5.3944,"is_reserved":false,"is_disabled":false,"rental_uris":{"android":"levelo://app?vid=ab1e7b19-c0e8-4479-bd16-6640ca0c2054","ios":"levelo://app?vid=ab1e7b19-c0e8-4479-bd16-6640ca0c2054"},"vehicle_type_id":"4","last_reported":1749564699,"current_range_meters":17600,"station_id":"ce4bhip2rcd13ifvqft0","pricing_plan_id":"cebpf4jnsgd1na2vs0mg"},{"bike_id":"70ad019b-bef1-44ea-955c-db8632c6c16d","system_id":"levelo_inurba_marseille","lat":43.24197,"lon":5.36413,"is_reserved":false,"is_disabled":false,"rental_uris":{"android":"levelo://app?vid=70ad019b-bef1-44ea-955c-db8632c6c16d","ios":"levelo://app?vid=70ad019b-bef1-44ea-955c-db8632c6c16d"},"vehicle_type_id":"4","last_reported":1749564699,"current_range_meters":17600,"station_id":"cpo36qri1sfpv3e86is0","pricing_plan_id":"cebpf4jnsgd1na2vs0mg"},{"bike_id":"40e1b2d5-490a-4f2d-a061-082daea0b87c","system_id":"levelo_inurba_marseille","lat":43.29008,"lon":5.35609,"is_reserved":false,"is_disabled":false,"rental_uris":{"android":"levelo://app?vid=40e1b2d5-490a-4f2d-a061-082daea0b87c","ios":"levelo://app?vid=40e1b2d5-490a-4f2d-a061-082daea0b87c"},"vehicle_type_id":"4","last_reported":1749564699,"current_range_meters":17600,"station_id":"ce4bhb92rcd13ifvqen0","pricing_plan_id":"cebpf4jnsgd1na2vs0mg"},{"bike_id":"4f277a40-c562-419c-82d0-1686b6d2030f","system_id":"levelo_inurba_marseille","lat":43.28447,"lon":5.35018,"is_reserved":false,"is_disabled":false,"rental_uris":{"android":"levelo://app?vid=4f277a40-c562-419c-82d0-1686b6d2030f","ios":"levelo://app?vid=4f277a40-c562-419c-82d0-1686b6d2030f"},"vehicle_type_id":"4","last_reported":1749564699,"current_range_meters":17600,"station_id":"ce4bhbh2rcd13ifvqepg","pricing_plan_id":"cebpf4jnsgd1na2vs0mg"},{"bike_id":"0d12547c-03da-42f4-b762-ca2cc3499fe0","system_id":"levelo_inurba_marseille","lat":43.28435,"lon":5.35009,"is_reserved":false,"is_disabled":false,"rental_uris":{"android":"levelo://app?vid=0d12547c-03da-42f4-b762-ca2cc3499fe0","ios":"levelo://app?vid=0d12547c-03da-42f4-b762-ca2cc3499fe0"},"vehicle_type_id":"4","last_reported":1749564699,"current_range_meters":17600,"station_id":"ce4bhbh2rcd13ifvqepg","pricing_plan_id":"cebpf4jnsgd1na2vs0mg"},{"bike_id":"6b38077c-4ca3-4670-b9da-f123cf2f1b09","system_id":"levelo_inurba_marseille","lat":43.29004,"lon":5.35609,"is_reserved":false,"is_disabled":false,"rental_uris":{"android":"levelo://app?vid=6b38077c-4ca3-4670-b9da-f123cf2f1b09","ios":"levelo://app?vid=6b38077c-4ca3-4670-b9da-f123cf2f1b09"},"vehicle_type_id":"4","last_reported":1749564699,"current_range_meters":18000,"station_id":"ce4bhb92rcd13ifvqen0","pricing_plan_id":"cebpf4jnsgd1na2vs0mg"},{"bike_id":"a87c896b-4cf8-4f3b-a442-6944c4f6861e","system_id":"levelo_inurba_marseille","lat":43.27054,"lon":5.40265,"is_reserved":false,"is_disabled":false,"rental_uris":{"android":"levelo://app?vid=a87c896b-4cf8-4f3b-a442-6944c4f6861e","ios":"levelo://app?vid=a87c896b-4cf8-4f3b-a442-6944c4f6861e"},"vehicle_type_id":"4","last_reported":1749564699,"current_range_meters":18000,"station_id":"ce4bhk92rcd13ifvqgc0","pricing_plan_id":"cebpf4jnsgd1na2vs0mg"},{"bike_id":"29e2b634-3f4e-43f4-b1ec-4910daf2fc2f","system_id":"levelo_inurba_marseille","lat":43.27379,"lon":5.36251,"is_reserved":false,"is_disabled":false,"rental_uris":{"android":"levelo://app?vid=29e2b634-3f4e-43f4-b1ec-4910daf2fc2f","ios":"levelo://app?vid=29e2b634-3f4e-43f4-b1ec-4910daf2fc2f"},"vehicle_type_id":"4","last_reported":1749564699,"current_range_meters":18000,"station_id":"ce4bhbh2rcd13ifvqeo0","pricing_plan_id":"cebpf4jnsgd1na2vs0mg"},{"bike_id":"45fd86e1-eb86-413c-84c0-0e1110237ffb","system_id":"levelo_inurba_marseille","lat":43.30953,"lon":5.39046,"is_reserved":false,"is_disabled":false,"rental_uris":{"android":"levelo://app?vid=45fd86e1-eb86-413c-84c0-0e1110237ffb","ios":"levelo://app?vid=45fd86e1-eb86-413c-84c0-0e1110237ffb"},"vehicle_type_id":"4","last_reported":1749564699,"current_range_meters":18000,"station_id":"ce4bgup2rcd13ifvqco0","pricing_plan_id":"cebpf4jnsgd1na2vs0mg"},{"bike_id":"87482a76-4b31-421e-ad48-ed975817f9e4","system_id":"levelo_inurba_marseille","lat":43.21751,"lon":5.34609,"is_reserved":false,"is_disabled":false,"rental_uris":{"android":"levelo://app?vid=87482a76-4b31-421e-ad48-ed975817f9e4","ios":"levelo://app?vid=87482a76-4b31-421e-ad48-ed975817f9e4"},"vehicle_type_id":"4","last_reported":1749564699,"current_range_meters":18000,"station_id":"st_cvj6r9ubvosntc0bgbag","pricing_plan_id":"cebpf4jnsgd1na2vs0mg"},{"bike_id":"ef82d3bb-77d5-4e5f-a672-159dfe609ed3","system_id":"levelo_inurba_marseille","lat":43.282761,"lon":5.35075,"is_reserved":false,"is_disabled":false,"rental_uris":{"android":"levelo://app?vid=ef82d3bb-77d5-4e5f-a672-159dfe609ed3","ios":"levelo://app?vid=ef82d3bb-77d5-4e5f-a672-159dfe609ed3"},"vehicle_type_id":"4","last_reported":1749564699,"current_range_meters":18000,"station_id":"ce4bhbp2rcd13ifvqerg","pricing_plan_id":"cebpf4jnsgd1na2vs0mg"},{"bike_id":"ae3e9c95-7f59-42e6-9a65-48e898fbadd4","system_id":"levelo_inurba_marseille","lat":43.31081,"lon":5.38362,"is_reserved":false,"is_disabled":false,"rental_uris":{"android":"levelo://app?vid=ae3e9c95-7f59-42e6-9a65-48e898fbadd4","ios":"levelo://app?vid=ae3e9c95-7f59-42e6-9a65-48e898fbadd4"},"vehicle_type_id":"4","last_reported":1749564699,"current_range_meters":18000,"station_id":"ce4bgv92rcd13ifvqcr0","pricing_plan_id":"cebpf4jnsgd1na2vs0mg"},{"bike_id":"d551d13a-ed55-4bb5-91ba-8997be56be39","system_id":"levelo_inurba_marseille","lat":43.23195,"lon":5.35554,"is_reserved":false,"is_disabled":false,"rental_uris":{"android":"levelo://app?vid=d551d13a-ed55-4bb5-91ba-8997be56be39","ios":"levelo://app?vid=d551d13a-ed55-4bb5-91ba-8997be56be39"},"vehicle_type_id":"4","last_reported":1749564699,"current_range_meters":18000,"station_id":"ce4bhu92rcd13ifvqi70","pricing_plan_id":"cebpf4jnsgd1na2vs0mg"},{"bike_id":"9fd2cdd2-bbc7-41f5-9c37-82d9c68f1dc9","system_id":"levelo_inurba_marseille","lat":43.28432,"lon":5.3499,"is_reserved":false,"is_disabled":false,"rental_uris":{"android":"levelo://app?vid=9fd2cdd2-bbc7-41f5-9c37-82d9c68f1dc9","ios":"levelo://app?vid=9fd2cdd2-bbc7-41f5-9c37-82d9c68f1dc9"},"vehicle_type_id":"4","last_reported":1749564699,"current_range_meters":18000,"station_id":"ce4bhbh2rcd13ifvqepg","pricing_plan_id":"cebpf4jnsgd1na2vs0mg"},{"bike_id":"e93073ab-c17c-467a-b540-f93334fc1a8a","system_id":"levelo_inurba_marseille","lat":43.21196,"lon":5.35075,"is_reserved":false,"is_disabled":false,"rental_uris":{"android":"levelo://app?vid=e93073ab-c17c-467a-b540-f93334fc1a8a","ios":"levelo://app?vid=e93073ab-c17c-467a-b540-f93334fc1a8a"},"vehicle_type_id":"4","last_reported":1749564699,"current_range_meters":18000,"station_id":"st_cvj6sg6p6f1abm77japg","pricing_plan_id":"cebpf4jnsgd1na2vs0mg"},{"bike_id":"8c51fcb8-1000-450b-8f34-5201983c67d2","system_id":"levelo_inurba_marseille","lat":43.30938,"lon":5.40205,"is_reserved":false,"is_disabled":false,"rental_uris":{"android":"levelo://app?vid=8c51fcb8-1000-450b-8f34-5201983c67d2","ios":"levelo://app?vid=8c51fcb8-1000-450b-8f34-5201983c67d2"},"vehicle_type_id":"4","last_reported":1749564699,"current_range_meters":18800,"station_id":"ce4bgvp2rcd13ifvqct0","pricing_plan_id":"cebpf4jnsgd1na2vs0mg"},{"bike_id":"bb47faf3-8b6a-44b2-bd51-d1e44d0c97ef","system_id":"levelo_inurba_marseille","lat":43.28272,"lon":5.3508,"is_reserved":false,"is_disabled":false,"rental_uris":{"android":"levelo://app?vid=bb47faf3-8b6a-44b2-bd51-d1e44d0c97ef","ios":"levelo://app?vid=bb47faf3-8b6a-44b2-bd51-d1e44d0c97ef"},"vehicle_type_id":"4","last_reported":1749564699,"current_range_meters":18800,"station_id":"ce4bhbp2rcd13ifvqerg","pricing_plan_id":"cebpf4jnsgd1na2vs0mg"},{"bike_id":"63e40138-141f-4768-876a-d09ed0ddb6e8","system_id":"levelo_inurba_marseille","lat":43.28651,"lon":5.35109,"is_reserved":false,"is_disabled":false,"rental_uris":{"android":"levelo://app?vid=63e40138-141f-4768-876a-d09ed0ddb6e8","ios":"levelo://app?vid=63e40138-141f-4768-876a-d09ed0ddb6e8"},"vehicle_type_id":"4","last_reported":1749564699,"current_range_meters":18800,"station_id":"ce4bhch2rcd13ifvqeug","pricing_plan_id":"cebpf4jnsgd1na2vs0mg"},{"bike_id":"86bc70ad-1b1a-4c26-94f3-447d2e2108c8","system_id":"levelo_inurba_marseille","lat":43.32471,"lon":5.36577,"is_reserved":false,"is_disabled":false,"rental_uris":{"android":"levelo://app?vid=86bc70ad-1b1a-4c26-94f3-447d2e2108c8","ios":"levelo://app?vid=86bc70ad-1b1a-4c26-94f3-447d2e2108c8"},"vehicle_type_id":"4","last_reported":1749564699,"current_range_meters":18800,"station_id":"ce4bhs12rcd13ifvqhvg","pricing_plan_id":"cebpf4jnsgd1na2vs0mg"},{"bike_id":"0a61a83d-30f6-461d-afb3-c145799620b8","system_id":"levelo_inurba_marseille","lat":43.3248,"lon":5.36587,"is_reserved":false,"is_disabled":false,"rental_uris":{"android":"levelo://app?vid=0a61a83d-30f6-461d-afb3-c145799620b8","ios":"levelo://app?vid=0a61a83d-30f6-461d-afb3-c145799620b8"},"vehicle_type_id":"4","last_reported":1749564699,"current_range_meters":18800,"station_id":"ce4bhs12rcd13ifvqhvg","pricing_plan_id":"cebpf4jnsgd1na2vs0mg"},{"bike_id":"20d8396e-862c-4016-9726-40fd611424f2","system_id":"levelo_inurba_marseille","lat":43.30153,"lon":5.37401,"is_reserved":false,"is_disabled":false,"rental_uris":{"android":"levelo://app?vid=20d8396e-862c-4016-9726-40fd611424f2","ios":"levelo://app?vid=20d8396e-862c-4016-9726-40fd611424f2"},"vehicle_type_id":"4","last_reported":1749564699,"current_range_meters":18000,"station_id":"ce4bgs92rcd13ifvqcc0","pricing_plan_id":"cebpf4jnsgd1na2vs0mg"},{"bike_id":"550a1098-7acf-4b38-b1ab-5a38033e2f9a","system_id":"levelo_inurba_marseille","lat":43.30328,"lon":5.36916,"is_reserved":false,"is_disabled":false,"rental_uris":{"android":"levelo://app?vid=550a1098-7acf-4b38-b1ab-5a38033e2f9a","ios":"levelo://app?vid=550a1098-7acf-4b38-b1ab-5a38033e2f9a"},"vehicle_type_id":"4","last_reported":1749564699,"current_range_meters":18800,"station_id":"ce4bgqh2rcd13ifvqc5g","pricing_plan_id":"cebpf4jnsgd1na2vs0mg"},{"bike_id":"c967a05b-91b4-483c-8cfb-c91308b2e9d7","system_id":"levelo_inurba_marseille","lat":43.29562,"lon":5.42302,"is_reserved":false,"is_disabled":false,"rental_uris":{"android":"levelo://app?vid=c967a05b-91b4-483c-8cfb-c91308b2e9d7","ios":"levelo://app?vid=c967a05b-91b4-483c-8cfb-c91308b2e9d7"},"vehicle_type_id":"4","last_reported":1749564699,"current_range_meters":18800,"station_id":"ce4bhph2rcd13ifvqhdg","pricing_plan_id":"cebpf4jnsgd1na2vs0mg"},{"bike_id":"9231f021-d06e-4dc9-b555-e59bf1d45ecd","system_id":"levelo_inurba_marseille","lat":43.321142,"lon":5.367728,"is_reserved":false,"is_disabled":false,"rental_uris":{"android":"levelo://app?vid=9231f021-d06e-4dc9-b555-e59bf1d45ecd","ios":"levelo://app?vid=9231f021-d06e-4dc9-b555-e59bf1d45ecd"},"vehicle_type_id":"4","last_reported":1749564699,"current_range_meters":18800,"station_id":"ce4bhrh2rcd13ifvqhug","pricing_plan_id":"cebpf4jnsgd1na2vs0mg"},{"bike_id":"b918f339-a33d-489c-826a-8fffafca2d2e","system_id":"levelo_inurba_marseille","lat":43.32373,"lon":5.38938,"is_reserved":false,"is_disabled":false,"rental_uris":{"android":"levelo://app?vid=b918f339-a33d-489c-826a-8fffafca2d2e","ios":"levelo://app?vid=b918f339-a33d-489c-826a-8fffafca2d2e"},"vehicle_type_id":"4","last_reported":1749564699,"current_range_meters":18800,"station_id":"ce4bhqp2rcd13ifvqhog","pricing_plan_id":"cebpf4jnsgd1na2vs0mg"},{"bike_id":"314bac2c-e47f-46cd-afcd-53cd84a7d142","system_id":"levelo_inurba_marseille","lat":43.2761,"lon":5.36128,"is_reserved":false,"is_disabled":true,"rental_uris":{"android":"levelo://app?vid=314bac2c-e47f-46cd-afcd-53cd84a7d142","ios":"levelo://app?vid=314bac2c-e47f-46cd-afcd-53cd84a7d142"},"vehicle_type_id":"4","last_reported":1749564699,"current_range_meters":18800,"station_id":"ce4bgj92rcd13ifvqbe0","pricing_plan_id":"cebpf4jnsgd1na2vs0mg"},{"bike_id":"9caab4f7-8e70-451b-94ce-2f3a3e04dff8","system_id":"levelo_inurba_marseille","lat":43.31066,"lon":5.38353,"is_reserved":false,"is_disabled":false,"rental_uris":{"android":"levelo://app?vid=9caab4f7-8e70-451b-94ce-2f3a3e04dff8","ios":"levelo://app?vid=9caab4f7-8e70-451b-94ce-2f3a3e04dff8"},"vehicle_type_id":"4","last_reported":1749564699,"current_range_meters":19200,"station_id":"ce4bgv92rcd13ifvqcr0","pricing_plan_id":"cebpf4jnsgd1na2vs0mg"},{"bike_id":"4f4e0a1c-979e-4d49-ae63-4241598b0a04","system_id":"levelo_inurba_marseille","lat":43.21768,"lon":5.34597,"is_reserved":false,"is_disabled":false,"rental_uris":{"android":"levelo://app?vid=4f4e0a1c-979e-4d49-ae63-4241598b0a04","ios":"levelo://app?vid=4f4e0a1c-979e-4d49-ae63-4241598b0a04"},"vehicle_type_id":"4","last_reported":1749564699,"current_range_meters":19200,"station_id":"st_cvj6r9ubvosntc0bgbag","pricing_plan_id":"cebpf4jnsgd1na2vs0mg"},{"bike_id":"a2421370-e442-436f-a98a-844d44299694","system_id":"levelo_inurba_marseille","lat":43.323593,"lon":5.367485,"is_reserved":false,"is_disabled":false,"rental_uris":{"android":"levelo://app?vid=a2421370-e442-436f-a98a-844d44299694","ios":"levelo://app?vid=a2421370-e442-436f-a98a-844d44299694"},"vehicle_type_id":"4","last_reported":1749564699,"current_range_meters":19200,"station_id":"ce4bhsh2rcd13ifvqi2g","pricing_plan_id":"cebpf4jnsgd1na2vs0mg"},{"bike_id":"8d0efb05-cff8-4f27-bc07-26a34ecc0de0","system_id":"levelo_inurba_marseille","lat":43.31344,"lon":5.3672,"is_reserved":false,"is_disabled":false,"rental_uris":{"android":"levelo://app?vid=8d0efb05-cff8-4f27-bc07-26a34ecc0de0","ios":"levelo://app?vid=8d0efb05-cff8-4f27-bc07-26a34ecc0de0"},"vehicle_type_id":"4","last_reported":1749564699,"current_range_meters":19200,"station_id":"ce4bgr92rcd13ifvqc6g","pricing_plan_id":"cebpf4jnsgd1na2vs0mg"},{"bike_id":"432df323-d5cf-4918-8827-2010b588baf6","system_id":"levelo_inurba_marseille","lat":43.29774,"lon":5.37108,"is_reserved":false,"is_disabled":false,"rental_uris":{"android":"levelo://app?vid=432df323-d5cf-4918-8827-2010b588baf6","ios":"levelo://app?vid=432df323-d5cf-4918-8827-2010b588baf6"},"vehicle_type_id":"4","last_reported":1749564699,"current_range_meters":19200,"station_id":"ce4bgop2rcd13ifvqc1g","pricing_plan_id":"cebpf4jnsgd1na2vs0mg"},{"bike_id":"25a4c875-602e-485b-a883-bfff2f4afc41","system_id":"levelo_inurba_marseille","lat":43.28443,"lon":5.35025,"is_reserved":false,"is_disabled":false,"rental_uris":{"android":"levelo://app?vid=25a4c875-602e-485b-a883-bfff2f4afc41","ios":"levelo://app?vid=25a4c875-602e-485b-a883-bfff2f4afc41"},"vehicle_type_id":"4","last_reported":1749564699,"current_range_meters":19200,"station_id":"ce4bhbh2rcd13ifvqepg","pricing_plan_id":"cebpf4jnsgd1na2vs0mg"},{"bike_id":"de7b1ebb-f406-444c-a6d4-62243773bc8b","system_id":"levelo_inurba_marseille","lat":43.28404,"lon":5.3499,"is_reserved":false,"is_disabled":false,"rental_uris":{"android":"levelo://app?vid=de7b1ebb-f406-444c-a6d4-62243773bc8b","ios":"levelo://app?vid=de7b1ebb-f406-444c-a6d4-62243773bc8b"},"vehicle_type_id":"4","last_reported":1749564699,"current_range_meters":19200,"station_id":"ce4bhbh2rcd13ifvqepg","pricing_plan_id":"cebpf4jnsgd1na2vs0mg"},{"bike_id":"0509747e-8e83-44e0-a642-c1bc88d90254","system_id":"levelo_inurba_marseille","lat":43.21233,"lon":5.35071,"is_reserved":false,"is_disabled":false,"rental_uris":{"android":"levelo://app?vid=0509747e-8e83-44e0-a642-c1bc88d90254","ios":"levelo://app?vid=0509747e-8e83-44e0-a642-c1bc88d90254"},"vehicle_type_id":"4","last_reported":1749564699,"current_range_meters":19200,"station_id":"","pricing_plan_id":"cebpf4jnsgd1na2vs0mg"},{"bike_id":"af497a01-47b4-4d2c-bbc7-a3ba436dc150","system_id":"levelo_inurba_marseille","lat":43.28425,"lon":5.34993,"is_reserved":false,"is_disabled":false,"rental_uris":{"android":"levelo://app?vid=af497a01-47b4-4d2c-bbc7-a3ba436dc150","ios":"levelo://app?vid=af497a01-47b4-4d2c-bbc7-a3ba436dc150"},"vehicle_type_id":"4","last_reported":1749564699,"current_range_meters":19600,"station_id":"ce4bhbh2rcd13ifvqepg","pricing_plan_id":"cebpf4jnsgd1na2vs0mg"},{"bike_id":"c6d21e26-26b7-4a15-9f95-3af0bce0ea14","system_id":"levelo_inurba_marseille","lat":43.24175,"lon":5.36403,"is_reserved":false,"is_disabled":false,"rental_uris":{"android":"levelo://app?vid=c6d21e26-26b7-4a15-9f95-3af0bce0ea14","ios":"levelo://app?vid=c6d21e26-26b7-4a15-9f95-3af0bce0ea14"},"vehicle_type_id":"4","last_reported":1749564699,"current_range_meters":19600,"station_id":"cpo36qri1sfpv3e86is0","pricing_plan_id":"cebpf4jnsgd1na2vs0mg"},{"bike_id":"f10adc7e-6a3a-4a5d-9515-dc52fefe2058","system_id":"levelo_inurba_marseille","lat":43.32398,"lon":5.36763,"is_reserved":false,"is_disabled":false,"rental_uris":{"android":"levelo://app?vid=f10adc7e-6a3a-4a5d-9515-dc52fefe2058","ios":"levelo://app?vid=f10adc7e-6a3a-4a5d-9515-dc52fefe2058"},"vehicle_type_id":"4","last_reported":1749564699,"current_range_meters":19600,"station_id":"ce4bhsh2rcd13ifvqi2g","pricing_plan_id":"cebpf4jnsgd1na2vs0mg"},{"bike_id":"ce544ec1-b535-4dce-9cad-627ab2d8733d","system_id":"levelo_inurba_marseille","lat":43.30955,"lon":5.39035,"is_reserved":false,"is_disabled":false,"rental_uris":{"android":"levelo://app?vid=ce544ec1-b535-4dce-9cad-627ab2d8733d","ios":"levelo://app?vid=ce544ec1-b535-4dce-9cad-627ab2d8733d"},"vehicle_type_id":"4","last_reported":1749564699,"current_range_meters":20000,"station_id":"ce4bgup2rcd13ifvqco0","pricing_plan_id":"cebpf4jnsgd1na2vs0mg"},{"bike_id":"1b9ccbdc-39c7-40c1-b0dd-6a58a11eafd3","system_id":"levelo_inurba_marseille","lat":43.26224,"lon":5.37933,"is_reserved":false,"is_disabled":false,"rental_uris":{"android":"levelo://app?vid=1b9ccbdc-39c7-40c1-b0dd-6a58a11eafd3","ios":"levelo://app?vid=1b9ccbdc-39c7-40c1-b0dd-6a58a11eafd3"},"vehicle_type_id":"4","last_reported":1749564699,"current_range_meters":20000,"station_id":"ce4bhjp2rcd13ifvqg90","pricing_plan_id":"cebpf4jnsgd1na2vs0mg"},{"bike_id":"a81467fa-0ea4-4deb-9fc5-bfdfd303215c","system_id":"levelo_inurba_marseille","lat":43.30301,"lon":5.39207,"is_reserved":false,"is_disabled":false,"rental_uris":{"android":"levelo://app?vid=a81467fa-0ea4-4deb-9fc5-bfdfd303215c","ios":"levelo://app?vid=a81467fa-0ea4-4deb-9fc5-bfdfd303215c"},"vehicle_type_id":"4","last_reported":1749564699,"current_range_meters":20000,"station_id":"ce4bgkh2rcd13ifvqbk0","pricing_plan_id":"cebpf4jnsgd1na2vs0mg"},{"bike_id":"ffbbd781-bf55-4f3a-8dc9-9638045af1b8","system_id":"levelo_inurba_marseille","lat":43.2847,"lon":5.35897,"is_reserved":false,"is_disabled":false,"rental_uris":{"android":"levelo://app?vid=ffbbd781-bf55-4f3a-8dc9-9638045af1b8","ios":"levelo://app?vid=ffbbd781-bf55-4f3a-8dc9-9638045af1b8"},"vehicle_type_id":"4","last_reported":1749564699,"current_range_meters":20000,"station_id":"ce4bhah2rcd13ifvqei0","pricing_plan_id":"cebpf4jnsgd1na2vs0mg"},{"bike_id":"5ff03ea9-db72-4cdc-8c7a-e2586b2e656a","system_id":"levelo_inurba_marseille","lat":43.24654,"lon":5.38897,"is_reserved":false,"is_disabled":false,"rental_uris":{"android":"levelo://app?vid=5ff03ea9-db72-4cdc-8c7a-e2586b2e656a","ios":"levelo://app?vid=5ff03ea9-db72-4cdc-8c7a-e2586b2e656a"},"vehicle_type_id":"4","last_reported":1749564699,"current_range_meters":20000,"station_id":"ce4bhg12rcd13ifvqf60","pricing_plan_id":"cebpf4jnsgd1na2vs0mg"},{"bike_id":"c784a8bb-cad9-4cb7-a4db-38a41b2642db","system_id":"levelo_inurba_marseille","lat":43.23194,"lon":5.35555,"is_reserved":false,"is_disabled":false,"rental_uris":{"android":"levelo://app?vid=c784a8bb-cad9-4cb7-a4db-38a41b2642db","ios":"levelo://app?vid=c784a8bb-cad9-4cb7-a4db-38a41b2642db"},"vehicle_type_id":"4","last_reported":1749564699,"current_range_meters":20000,"station_id":"ce4bhu92rcd13ifvqi70","pricing_plan_id":"cebpf4jnsgd1na2vs0mg"},{"bike_id":"d2905275-8ae7-43af-8970-fdc78fd51175","system_id":"levelo_inurba_marseille","lat":43.290042,"lon":5.356012,"is_reserved":false,"is_disabled":false,"rental_uris":{"android":"levelo://app?vid=d2905275-8ae7-43af-8970-fdc78fd51175","ios":"levelo://app?vid=d2905275-8ae7-43af-8970-fdc78fd51175"},"vehicle_type_id":"4","last_reported":1749564699,"current_range_meters":20000,"station_id":"ce4bhb92rcd13ifvqen0","pricing_plan_id":"cebpf4jnsgd1na2vs0mg"},{"bike_id":"e5f72e0b-a874-49c2-9099-8c92831223d6","system_id":"levelo_inurba_marseille","lat":43.2621,"lon":5.37931,"is_reserved":false,"is_disabled":false,"rental_uris":{"android":"levelo://app?vid=e5f72e0b-a874-49c2-9099-8c92831223d6","ios":"levelo://app?vid=e5f72e0b-a874-49c2-9099-8c92831223d6"},"vehicle_type_id":"4","last_reported":1749564699,"current_range_meters":20000,"station_id":"","pricing_plan_id":"cebpf4jnsgd1na2vs0mg"},{"bike_id":"59414846-5f1c-4bc8-84fe-7b55bad2dffe","system_id":"levelo_inurba_marseille","lat":43.26241,"lon":5.37952,"is_reserved":false,"is_disabled":false,"rental_uris":{"android":"levelo://app?vid=59414846-5f1c-4bc8-84fe-7b55bad2dffe","ios":"levelo://app?vid=59414846-5f1c-4bc8-84fe-7b55bad2dffe"},"vehicle_type_id":"4","last_reported":1749564699,"current_range_meters":20400,"station_id":"ce4bhjp2rcd13ifvqg90","pricing_plan_id":"cebpf4jnsgd1na2vs0mg"},{"bike_id":"12e38d0d-05c0-4b32-beec-0c64fb48a134","system_id":"levelo_inurba_marseille","lat":43.30911,"lon":5.36841,"is_reserved":false,"is_disabled":false,"rental_uris":{"android":"levelo://app?vid=12e38d0d-05c0-4b32-beec-0c64fb48a134","ios":"levelo://app?vid=12e38d0d-05c0-4b32-beec-0c64fb48a134"},"vehicle_type_id":"4","last_reported":1749564699,"current_range_meters":20400,"station_id":"ce4bgn92rcd13ifvqbvg","pricing_plan_id":"cebpf4jnsgd1na2vs0mg"},{"bike_id":"a81b7f12-9f5d-4775-aeaf-81483c500521","system_id":"levelo_inurba_marseille","lat":43.24173,"lon":5.36435,"is_reserved":false,"is_disabled":false,"rental_uris":{"android":"levelo://app?vid=a81b7f12-9f5d-4775-aeaf-81483c500521","ios":"levelo://app?vid=a81b7f12-9f5d-4775-aeaf-81483c500521"},"vehicle_type_id":"4","last_reported":1749564699,"current_range_meters":20400,"station_id":"cpo36qri1sfpv3e86is0","pricing_plan_id":"cebpf4jnsgd1na2vs0mg"},{"bike_id":"01d11e08-e4af-480c-adb2-aa5c171819c3","system_id":"levelo_inurba_marseille","lat":43.28422,"lon":5.3751,"is_reserved":false,"is_disabled":false,"rental_uris":{"android":"levelo://app?vid=01d11e08-e4af-480c-adb2-aa5c171819c3","ios":"levelo://app?vid=01d11e08-e4af-480c-adb2-aa5c171819c3"},"vehicle_type_id":"4","last_reported":1749564699,"current_range_meters":20400,"station_id":"ce4bh412rcd13ifvqds0","pricing_plan_id":"cebpf4jnsgd1na2vs0mg"},