{"last_updated":1752394404,"ttl":60,"version":"2.2","data":{"bikes":[{"bike_id":"8822b429-f8c6-418b-9a42-03cdd9537272","system_id":"levelo_inurba_marseille","lat":43.30531,"lon":5.38427,"is_reserved":false,"is_disabled":false,"rental_uris":{"android":"levelo://app?vid=8822b429-f8c6-418b-9a42-03cdd9537272","ios":"levelo://app?vid=8822b429-f8c6-418b-9a42-03cdd9537272"},"vehicle_type_id":"4","last_reported":1752394404,"current_range_meters":3600,"station_id":"ce4bgg92rcd13ifvqb30","pricing_plan_id":"cebpf4jnsgd1na2vs0mg"},{"bike_id":"534ed68d-5ceb-43a8-968b-be30f01dfa74","system_id":"levelo_inurba_marseille","lat":43.282289,"lon":5.390752,"is_reserved":false,"is_disabled":false,"rental_uris":{"android":"levelo://app?vid=534ed68d-5ceb-43a8-968b-be30f01dfa74","ios":"levelo://app?vid=534ed68d-5ceb-43a8-968b-be30f01dfa74"},"vehicle_type_id":"4","last_reported":1752394404,"current_range_meters":4000,"station_id":"","pricing_plan_id":"cebpf4jnsgd1na2vs0mg"},{"bike_id":"cb9282c9-0a04-426f-af4a-9dc494a82650","system_id":"levelo_inurba_marseille","lat":43.225034,"lon":5.347868,"is_reserved":false,"is_disabled":false,"rental_uris":{"android":"levelo://app?vid=cb9282c9-0a04-426f-af4a-9dc494a82650","ios":"levelo://app?vid=cb9282c9-0a04-426f-af4a-9dc494a82650"},"vehicle_type_id":"4","last_reported":1752394404,"current_range_meters":4400,"station_id":"","pricing_plan_id":"cebpf4jnsgd1na2vs0mg"},{"bike_id":"d542fe20-7ed8-4ce8-b27e-4b452b476c01","system_id":"levelo_inurba_marseille","lat":43.30282,"lon":5.37704,"is_reserved":false,"is_disabled":false,"rental_uris":{"android":"levelo://app?vid=d542fe20-7ed8-4ce8-b27e-4b452b476c01","ios":"levelo://app?vid=d542fe20-7ed8-4ce8-b27e-4b452b476c01"},"vehicle_type_id":"4","last_reported":1752394404,"current_range_meters":4800,"station_id":"ce4bguh2rcd13ifvqcj0","pricing_plan_id":"cebpf4jnsgd1na2vs0mg"},{"bike_id":"6f5e9084-558f-4d95-b458-678ee4399b06","system_id":"levelo_inurba_marseille","lat":43.25484,"lon":5.37664,"is_reserved":false,"is_disabled":true,"rental_uris":{"android":"levelo://app?vid=6f5e9084-558f-4d95-b458-678ee4399b06","ios":"levelo://app?vid=6f5e9084-558f-4d95-b458-678ee4399b06"},"vehicle_type_id":"4","last_reported":1752394404,"current_range_meters":5600,"station_id":"ce4bhh12rcd13ifvqff0","pricing_plan_id":"cebpf4jnsgd1na2vs0mg"},{"bike_id":"5654ce66-84f3-43dc-b965-d97ac9c76508","system_id":"levelo_inurba_marseille","lat":43.28612,"lon":5.351089,"is_reserved":false,"is_disabled":false,"rental_uris":{"android":"levelo://app?vid=5654ce66-84f3-43dc-b965-d97ac9c76508","ios":"levelo://app?vid=5654ce66-84f3-43dc-b965-d97ac9c76508"},"vehicle_type_id":"4","last_reported":1752394404,"current_range_meters":6000,"station_id":"ce4bhch2rcd13ifvqeug","pricing_plan_id":"cebpf4jnsgd1na2vs0mg"},{"bike_id":"15612679-0569-40ab-8690-20491cd95dc9","system_id":"levelo_inurba_marseille","lat":43.29844,"lon":5.36275,"is_reserved":false,"is_disabled":false,"rental_uris":{"android":"levelo://app?vid=15612679-0569-40ab-8690-20491cd95dc9","ios":"levelo://app?vid=15612679-0569-40ab-8690-20491cd95dc9"},"vehicle_type_id":"4","last_reported":1752394404,"current_range_meters":6000,"station_id":"ce4bgpp2rcd13ifvqc3g","pricing_plan_id":"cebpf4jnsgd1na2vs0mg"},{"bike_id":"44f0f9aa-b98e-4e25-8993-00ca18285603","system_id":"levelo_inurba_marseille","lat":43.29042,"lon":5.39955,"is_reserved":false,"is_disabled":false,"rental_uris":{"android":"levelo://app?vid=44f0f9aa-b98e-4e25-8993-00ca18285603","ios":"levelo://app?vid=44f0f9aa-b98e-4e25-8993-00ca18285603"},"vehicle_type_id":"4","last_reported":1752394404,"current_range_meters":6400,"station_id":"ce4bh392rcd13ifvqdm0","pricing_plan_id":"cebpf4jnsgd1na2vs0mg"},{"bike_id":"0f1287f9-390e-4629-ab8e-ad2d35ff61ae","system_id":"levelo_inurba_marseille","lat":43.25591,"lon":5.38237,"is_reserved":false,"is_disabled":true,"rental_uris":{"android":"levelo://app?vid=0f1287f9-390e-4629-ab8e-ad2d35ff61ae","ios":"levelo://app?vid=0f1287f9-390e-4629-ab8e-ad2d35ff61ae"},"vehicle_type_id":"4","last_reported":1752394404,"current_range_meters":6400,"station_id":"ce4bhih2rcd13ifvqfs0","pricing_plan_id":"cebpf4jnsgd1na2vs0mg"},{"bike_id":"2f0ba75c-aff3-43f4-857b-fc7c66f4e426","system_id":"levelo_inurba_marseille","lat":43.30978,"lon":5.39023,"is_reserved":false,"is_disabled":true,"rental_uris":{"android":"levelo://app?vid=2f0ba75c-aff3-43f4-857b-fc7c66f4e426","ios":"levelo://app?vid=2f0ba75c-aff3-43f4-857b-fc7c66f4e426"},"vehicle_type_id":"4","last_reported":1752394404,"current_range_meters":6400,"station_id":"ce4bgup2rcd13ifvqco0","pricing_plan_id":"cebpf4jnsgd1na2vs0mg"},{"bike_id":"94940c9a-30d4-4e43-bec0-fc556b4da3ae","system_id":"levelo_inurba_marseille","lat":43.33577,"lon":5.41,"is_reserved":false,"is_disabled":false,"rental_uris":{"android":"levelo://app?vid=94940c9a-30d4-4e43-bec0-fc556b4da3ae","ios":"levelo://app?vid=94940c9a-30d4-4e43-bec0-fc556b4da3ae"},"vehicle_type_id":"4","last_reported":1752394404,"current_range_meters":6400,"station_id":"ce4bhqh2rcd13ifvqhmg","pricing_plan_id":"cebpf4jnsgd1na2vs0mg"},{"bike_id":"e3a75ee9-c614-467b-8cc2-f813bcef2ab1","system_id":"levelo_inurba_marseille","lat":43.33743,"lon":5.3919,"is_reserved":false,"is_disabled":true,"rental_uris":{"android":"levelo://app?vid=e3a75ee9-c614-467b-8cc2-f813bcef2ab1","ios":"levelo://app?vid=e3a75ee9-c614-467b-8cc2-f813bcef2ab1"},"vehicle_type_id":"4","last_reported":1752394404,"current_range_meters":6400,"station_id":"ce4bhr92rcd13ifvqhsg","pricing_plan_id":"cebpf4jnsgd1na2vs0mg"},{"bike_id":"05f24eb2-daa3-4f0e-944e-3b9343d3d36a","system_id":"levelo_inurba_marseille","lat":43.29566,"lon":5.42269,"is_reserved":false,"is_disabled":false,"rental_uris":{"android":"levelo://app?vid=05f24eb2-daa3-4f0e-944e-3b9343d3d36a","ios":"levelo://app?vid=05f24eb2-daa3-4f0e-944e-3b9343d3d36a"},"vehicle_type_id":"4","last_reported":1752394404,"current_range_meters":7200,"station_id":"ce4bhph2rcd13ifvqhdg","pricing_plan_id":"cebpf4jnsgd1na2vs0mg"},{"bike_id":"1ad0ec37-bc97-4796-be7a-8d866e6e8462","system_id":"levelo_inurba_marseille","lat":43.31093,"lon":5.37782,"is_reserved":false,"is_disabled":false,"rental_uris":{"android":"levelo://app?vid=1ad0ec37-bc97-4796-be7a-8d866e6e8462","ios":"levelo://app?vid=1ad0ec37-bc97-4796-be7a-8d866e6e8462"},"vehicle_type_id":"4","last_reported":1752394404,"current_range_meters":7200,"station_id":"ce4bgt92rcd13ifvqcg0","pricing_plan_id":"cebpf4jnsgd1na2vs0mg"},{"bike_id":"5b147f49-2e39-4ac2-b9dd-9e0a27e583f7","system_id":"levelo_inurba_marseille","lat":43.28936,"lon":5.36748,"is_reserved":false,"is_disabled":false,"rental_uris":{"android":"levelo://app?vid=5b147f49-2e39-4ac2-b9dd-9e0a27e583f7","ios":"levelo://app?vid=5b147f49-2e39-4ac2-b9dd-9e0a27e583f7"},"vehicle_type_id":"4","last_reported":1752394404,"current_range_meters":7200,"station_id":"","pricing_plan_id":"cebpf4jnsgd1na2vs0mg"},{"bike_id":"df61839a-7a72-4634-9960-e8ea0d9a8d35","system_id":"levelo_inurba_marseille","lat":43.239474,"lon":5.366089,"is_reserved":false,"is_disabled":true,"rental_uris":{"android":"levelo://app?vid=df61839a-7a72-4634-9960-e8ea0d9a8d35","ios":"levelo://app?vid=df61839a-7a72-4634-9960-e8ea0d9a8d35"},"vehicle_type_id":"4","last_reported":1752394404,"current_range_meters":7200,"station_id":"","pricing_plan_id":"cebpf4jnsgd1na2vs0mg"},{"bike_id":"03251f63-26eb-493f-9d65-8e11851ca687","system_id":"levelo_inurba_marseille","lat":43.28881,"lon":5.39291,"is_reserved":false,"is_disabled":true,"rental_uris":{"android":"levelo://app?vid=03251f63-26eb-493f-9d65-8e11851ca687","ios":"levelo://app?vid=03251f63-26eb-493f-9d65-8e11851ca687"},"vehicle_type_id":"4","last_reported":1752394404,"current_range_meters":8000,"station_id":"ce4bh2p2rcd13ifvqdi0","pricing_plan_id":"cebpf4jnsgd1na2vs0mg"},{"bike_id":"f96e3fd0-01e2-4e2d-a007-e4dec5523249","system_id":"levelo_inurba_marseille","lat":43.29574,"lon":5.36728,"is_reserved":false,"is_disabled":false,"rental_uris":{"android":"levelo://app?vid=f96e3fd0-01e2-4e2d-a007-e4dec5523249","ios":"levelo://app?vid=f96e3fd0-01e2-4e2d-a007-e4dec5523249"},"vehicle_type_id":"4","last_reported":1752394404,"current_range_meters":7200,"station_id":"ce4bgph2rcd13ifvqc2g","pricing_plan_id":"cebpf4jnsgd1na2vs0mg"},{"bike_id":"2d525522-e6dc-4040-9c4c-8e2e7a587583","system_id":"levelo_inurba_marseille","lat":43.29198,"lon":5.37485,"is_reserved":false,"is_disabled":false,"rental_uris":{"android":"levelo://app?vid=2d525522-e6dc-4040-9c4c-8e2e7a587583","ios":"levelo://app?vid=2d525522-e6dc-4040-9c4c-8e2e7a587583"},"vehicle_type_id":"4","last_reported":1752394404,"current_range_meters":8400,"station_id":"","pricing_plan_id":"cebpf4jnsgd1na2vs0mg"},{"bike_id":"3064d7db-7a51-4e85-bef4-6def601894cd","system_id":"levelo_inurba_marseille","lat":43.30966,"lon":5.39045,"is_reserved":false,"is_disabled":true,"rental_uris":{"android":"levelo://app?vid=3064d7db-7a51-4e85-bef4-6def601894cd","ios":"levelo://app?vid=3064d7db-7a51-4e85-bef4-6def601894cd"},"vehicle_type_id":"4","last_reported":1752394404,"current_range_meters":8400,"station_id":"ce4bgup2rcd13ifvqco0","pricing_plan_id":"cebpf4jnsgd1na2vs0mg"},{"bike_id":"8929c1bf-fd4d-44e4-aa66-b3eb6538c998","system_id":"levelo_inurba_marseille","lat":43.2857,"lon":5.42966,"is_reserved":false,"is_disabled":false,"rental_uris":{"android":"levelo://app?vid=8929c1bf-fd4d-44e4-aa66-b3eb6538c998","ios":"levelo://app?vid=8929c1bf-fd4d-44e4-aa66-b3eb6538c998"},"vehicle_type_id":"4","last_reported":1752394404,"current_range_meters":8400,"station_id":"","pricing_plan_id":"cebpf4jnsgd1na2vs0mg"},{"bike_id":"989cadc1-b8d5-43b8-aca5-55b69edc9395","system_id":"levelo_inurba_marseille","lat":43.30726,"lon":5.42428,"is_reserved":false,"is_disabled":false,"rental_uris":{"android":"levelo://app?vid=989cadc1-b8d5-43b8-aca5-55b69edc9395","ios":"levelo://app?vid=989cadc1-b8d5-43b8-aca5-55b69edc9395"},"vehicle_type_id":"4","last_reported":1752394404,"current_range_meters":8400,"station_id":"st_cvj6ca6bvosntc0bfgr0","pricing_plan_id":"cebpf4jnsgd1na2vs0mg"},{"bike_id":"5a71ab42-51f6-4d74-8942-e5c8339f2255","system_id":"levelo_inurba_marseille","lat":43.317572,"lon":5.390189,"is_reserved":false,"is_disabled":true,"rental_uris":{"android":"levelo://app?vid=5a71ab42-51f6-4d74-8942-e5c8339f2255","ios":"levelo://app?vid=5a71ab42-51f6-4d74-8942-e5c8339f2255"},"vehicle_type_id":"4","last_reported":1752394404,"current_range_meters":8400,"station_id":"ce4bhqp2rcd13ifvqhng","pricing_plan_id":"cebpf4jnsgd1na2vs0mg"},{"bike_id":"36bd02ab-1424-4e56-87ec-3526990559c1","system_id":"levelo_inurba_marseille","lat":43.293029,"lon":5.371692,"is_reserved":false,"is_disabled":false,"rental_uris":{"android":"levelo://app?vid=36bd02ab-1424-4e56-87ec-3526990559c1","ios":"levelo://app?vid=36bd02ab-1424-4e56-87ec-3526990559c1"},"vehicle_type_id":"4","last_reported":1752394404,"current_range_meters":8400,"station_id":"ce4bgh92rcd13ifvqb40","pricing_plan_id":"cebpf4jnsgd1na2vs0mg"},{"bike_id":"61198919-e72c-4fce-bc96-126627987dc0","system_id":"levelo_inurba_marseille","lat":43.29593,"lon":5.37859,"is_reserved":false,"is_disabled":false,"rental_uris":{"android":"levelo://app?vid=61198919-e72c-4fce-bc96-126627987dc0","ios":"levelo://app?vid=61198919-e72c-4fce-bc96-126627987dc0"},"vehicle_type_id":"4","last_reported":1752394404,"current_range_meters":8800,"station_id":"","pricing_plan_id":"cebpf4jnsgd1na2vs0mg"},{"bike_id":"dbba3321-20c7-4989-a7b5-ea9ab2c4b3e8","system_id":"levelo_inurba_marseille","lat":43.261935,"lon":5.374477,"is_reserved":false,"is_disabled":true,"rental_uris":{"android":"levelo://app?vid=dbba3321-20c7-4989-a7b5-ea9ab2c4b3e8","ios":"levelo://app?vid=dbba3321-20c7-4989-a7b5-ea9ab2c4b3e8"},"vehicle_type_id":"4","last_reported":1752394404,"current_range_meters":8800,"station_id":"ce4bhgp2rcd13ifvqfc0","pricing_plan_id":"cebpf4jnsgd1na2vs0mg"},{"bike_id":"c453155a-5220-48fc-922b-600ca54f8ab5","system_id":"levelo_inurba_marseille","lat":43.28654,"lon":5.36344,"is_reserved":false,"is_disabled":true,"rental_uris":{"android":"levelo://app?vid=c453155a-5220-48fc-922b-600ca54f8ab5","ios":"levelo://app?vid=c453155a-5220-48fc-922b-600ca54f8ab5"},"vehicle_type_id":"4","last_reported":1752394404,"current_range_meters":8800,"station_id":"ce4bhah2rcd13ifvqej0","pricing_plan_id":"cebpf4jnsgd1na2vs0mg"},{"bike_id":"46cacac0-84b7-4c70-a453-a1cb8250fb4d","system_id":"levelo_inurba_marseille","lat":43.33761,"lon":5.37436,"is_reserved":false,"is_disabled":false,"rental_uris":{"android":"levelo://app?vid=46cacac0-84b7-4c70-a453-a1cb8250fb4d","ios":"levelo://app?vid=46cacac0-84b7-4c70-a453-a1cb8250fb4d"},"vehicle_type_id":"4","last_reported":1752394404,"current_range_meters":9200,"station_id":"","pricing_plan_id":"cebpf4jnsgd1na2vs0mg"},{"bike_id":"f18db782-201e-4e02-9468-2a81d86bd33d","system_id":"levelo_inurba_marseille","lat":43.28413,"lon":5.37515,"is_reserved":false,"is_disabled":false,"rental_uris":{"android":"levelo://app?vid=f18db782-201e-4e02-9468-2a81d86bd33d","ios":"levelo://app?vid=f18db782-201e-4e02-9468-2a81d86bd33d"},"vehicle_type_id":"4","last_reported":1752394404,"current_range_meters":9200,"station_id":"ce4bh412rcd13ifvqds0","pricing_plan_id":"cebpf4jnsgd1na2vs0mg"},{"bike_id":"864d1381-1e4e-40e0-8778-4669071a0310","system_id":"levelo_inurba_marseille","lat":43.30331,"lon":5.40449,"is_reserved":false,"is_disabled":false,"rental_uris":{"android":"levelo://app?vid=864d1381-1e4e-40e0-8778-4669071a0310","ios":"levelo://app?vid=864d1381-1e4e-40e0-8778-4669071a0310"},"vehicle_type_id":"4","last_reported":1752394404,"current_range_meters":9200,"station_id":"ce4bh012rcd13ifvqd10","pricing_plan_id":"cebpf4jnsgd1na2vs0mg"},{"bike_id":"735f6f6f-54eb-495c-ac82-2f4586d2e696","system_id":"levelo_inurba_marseille","lat":43.29605,"lon":5.38106,"is_reserved":false,"is_disabled":false,"rental_uris":{"android":"levelo://app?vid=735f6f6f-54eb-495c-ac82-2f4586d2e696","ios":"levelo://app?vid=735f6f6f-54eb-495c-ac82-2f4586d2e696"},"vehicle_type_id":"4","last_reported":1752394404,"current_range_meters":9200,"station_id":"ce4bgl12rcd13ifvqbo0","pricing_plan_id":"cebpf4jnsgd1na2vs0mg"},{"bike_id":"6b0c0999-3e36-4535-b6b8-97c0d45b9d3f","system_id":"levelo_inurba_marseille","lat":43.311203,"lon":5.377699,"is_reserved":false,"is_disabled":false,"rental_uris":{"android":"levelo://app?vid=6b0c0999-3e36-4535-b6b8-97c0d45b9d3f","ios":"levelo://app?vid=6b0c0999-3e36-4535-b6b8-97c0d45b9d3f"},"vehicle_type_id":"4","last_reported":1752394404,"current_range_meters":9200,"station_id":"ce4bgt92rcd13ifvqcg0","pricing_plan_id":"cebpf4jnsgd1na2vs0mg"},{"bike_id":"2854adae-f0fd-4a42-8177-b7559cca565e","system_id":"levelo_inurba_marseille","lat":43.308855,"lon":5.371944,"is_reserved":false,"is_disabled":false,"rental_uris":{"android":"levelo://app?vid=2854adae-f0fd-4a42-8177-b7559cca565e","ios":"levelo://app?vid=2854adae-f0fd-4a42-8177-b7559cca565e"},"vehicle_type_id":"4","last_reported":1752394404,"current_range_meters":9600,"station_id":"ce4bguh2rcd13ifvqckg","pricing_plan_id":"cebpf4jnsgd1na2vs0mg"},{"bike_id":"d17410a9-9fad-4786-90da-b6ffe751ba28","system_id":"levelo_inurba_marseille","lat":43.28716,"lon":5.39959,"is_reserved":false,"is_disabled":false,"rental_uris":{"android":"levelo://app?vid=d17410a9-9fad-4786-90da-b6ffe751ba28","ios":"levelo://app?vid=d17410a9-9fad-4786-90da-b6ffe751ba28"},"vehicle_type_id":"4","last_reported":1752394404,"current_range_meters":9600,"station_id":"ce4bho92rcd13ifvqh3g","pricing_plan_id":"cebpf4jnsgd1na2vs0mg"},{"bike_id":"696aca5a-f985-42f2-b5f7-74ca3a442dcb","system_id":"levelo_inurba_marseille","lat":43.309084,"lon":5.37152,"is_reserved":false,"is_disabled":false,"rental_uris":{"android":"levelo://app?vid=696aca5a-f985-42f2-b5f7-74ca3a442dcb","ios":"levelo://app?vid=696aca5a-f985-42f2-b5f7-74ca3a442dcb"},"vehicle_type_id":"4","last_reported":1752394404,"current_range_meters":9600,"station_id":"ce4bguh2rcd13ifvqckg","pricing_plan_id":"cebpf4jnsgd1na2vs0mg"},{"bike_id":"cf7ef57a-5217-4557-99d5-746cda46e1d2","system_id":"levelo_inurba_marseille","lat":43.29704,"lon":5.36603,"is_reserved":false,"is_disabled":false,"rental_uris":{"android":"levelo://app?vid=cf7ef57a-5217-4557-99d5-746cda46e1d2","ios":"levelo://app?vid=cf7ef57a-5217-4557-99d5-746cda46e1d2"},"vehicle_type_id":"4","last_reported":1752394404,"current_range_meters":9600,"station_id":"ce4bgn12rcd13ifvqbt0","pricing_plan_id":"cebpf4jnsgd1na2vs0mg"},{"bike_id":"4e18f6a0-cf0a-4e54-823e-14d073e25d70","system_id":"levelo_inurba_marseille","lat":43.28035,"lon":5.36932,"is_reserved":false,"is_disabled":true,"rental_uris":{"android":"levelo://app?vid=4e18f6a0-cf0a-4e54-823e-14d073e25d70","ios":"levelo://app?vid=4e18f6a0-cf0a-4e54-823e-14d073e25d70"},"vehicle_type_id":"4","last_reported":1752394404,"current_range_meters":9600,"station_id":"ce4bha12rcd13ifvqef0","pricing_plan_id":"cebpf4jnsgd1na2vs0mg"},{"bike_id":"733ab126-5929-4dc3-b27c-d62e8112c232","system_id":"levelo_inurba_marseille","lat":43.292769,"lon":5.401521,"is_reserved":false,"is_disabled":false,"rental_uris":{"android":"levelo://app?vid=733ab126-5929-4dc3-b27c-d62e8112c232","ios":"levelo://app?vid=733ab126-5929-4dc3-b27c-d62e8112c232"},"vehicle_type_id":"4","last_reported":1752394404,"current_range_meters":10000,"station_id":"ce4bh312rcd13ifvqdk0","pricing_plan_id":"cebpf4jnsgd1na2vs0mg"},{"bike_id":"ee5338dd-18a1-4b48-a5b0-f8c72f7b1319","system_id":"levelo_inurba_marseille","lat":43.31891,"lon":5.36771,"is_reserved":false,"is_disabled":false,"rental_uris":{"android":"levelo://app?vid=ee5338dd-18a1-4b48-a5b0-f8c72f7b1319","ios":"levelo://app?vid=ee5338dd-18a1-4b48-a5b0-f8c72f7b1319"},"vehicle_type_id":"4","last_reported":1752394404,"current_range_meters":10000,"station_id":"","pricing_plan_id":"cebpf4jnsgd1na2vs0mg"},{"bike_id":"9e6bd8ad-80bc-4db1-993a-8182e1f2a386","system_id":"levelo_inurba_marseille","lat":43.32012,"lon":5.41576,"is_reserved":false,"is_disabled":false,"rental_uris":{"android":"levelo://app?vid=9e6bd8ad-80bc-4db1-993a-8182e1f2a386","ios":"levelo://app?vid=9e6bd8ad-80bc-4db1-993a-8182e1f2a386"},"vehicle_type_id":"4","last_reported":1752394404,"current_range_meters":10000,"station_id":"ce4bhq92rcd13ifvqhkg","pricing_plan_id":"cebpf4jnsgd1na2vs0mg"},{"bike_id":"9989fdb0-6ab4-49e3-88e5-2779355d0b5b","system_id":"levelo_inurba_marseille","lat":43.29931,"lon":5.36524,"is_reserved":false,"is_disabled":false,"rental_uris":{"android":"levelo://app?vid=9989fdb0-6ab4-49e3-88e5-2779355d0b5b","ios":"levelo://app?vid=9989fdb0-6ab4-49e3-88e5-2779355d0b5b"},"vehicle_type_id":"4","last_reported":1752394404,"current_range_meters":10000,"station_id":"ce4bgm92rcd13ifvqbr0","pricing_plan_id":"cebpf4jnsgd1na2vs0mg"},{"bike_id":"f14b2ae5-65a4-4780-b5ae-6026c1b8a7fc","system_id":"levelo_inurba_marseille","lat":43.32355,"lon":5.36741,"is_reserved":false,"is_disabled":false,"rental_uris":{"android":"levelo://app?vid=f14b2ae5-65a4-4780-b5ae-6026c1b8a7fc","ios":"levelo://app?vid=f14b2ae5-65a4-4780-b5ae-6026c1b8a7fc"},"vehicle_type_id":"4","last_reported":1752394404,"current_range_meters":10800,"station_id":"ce4bhsh2rcd13ifvqi2g","pricing_plan_id":"cebpf4jnsgd1na2vs0mg"},{"bike_id":"7f02047d-a6cd-43f4-a617-996f2b9a8bc8","system_id":"levelo_inurba_marseille","lat":43.323504,"lon":5.367355,"is_reserved":false,"is_disabled":false,"rental_uris":{"android":"levelo://app?vid=7f02047d-a6cd-43f4-a617-996f2b9a8bc8","ios":"levelo://app?vid=7f02047d-a6cd-43f4-a617-996f2b9a8bc8"},"vehicle_type_id":"4","last_reported":1752394404,"current_range_meters":10800,"station_id":"ce4bhsh2rcd13ifvqi2g","pricing_plan_id":"cebpf4jnsgd1na2vs0mg"},{"bike_id":"a2d82a2f-d37e-468c-bc43-b3bcf1bfcc9f","system_id":"levelo_inurba_marseille","lat":43.303213,"lon":5.404339,"is_reserved":false,"is_disabled":false,"rental_uris":{"android":"levelo://app?vid=a2d82a2f-d37e-468c-bc43-b3bcf1bfcc9f","ios":"levelo://app?vid=a2d82a2f-d37e-468c-bc43-b3bcf1bfcc9f"},"vehicle_type_id":"4","last_reported":1752394404,"current_range_meters":10800,"station_id":"ce4bh012rcd13ifvqd10","pricing_plan_id":"cebpf4jnsgd1na2vs0mg"},{"bike_id":"2c01c085-a118-4b6b-9ba6-2000ce1f20ec","system_id":"levelo_inurba_marseille","lat":43.28723,"lon":5.37886,"is_reserved":false,"is_disabled":false,"rental_uris":{"android":"levelo://app?vid=2c01c085-a118-4b6b-9ba6-2000ce1f20ec","ios":"levelo://app?vid=2c01c085-a118-4b6b-9ba6-2000ce1f20ec"},"vehicle_type_id":"4","last_reported":1752394404,"current_range_meters":10800,"station_id":"ce4bh9p2rcd13ifvqec0","pricing_plan_id":"cebpf4jnsgd1na2vs0mg"},{"bike_id":"470d1e9d-8c05-40b8-a6b2-039f183b9f6a","system_id":"levelo_inurba_marseille","lat":43.23189,"lon":5.35551,"is_reserved":false,"is_disabled":true,"rental_uris":{"android":"levelo://app?vid=470d1e9d-8c05-40b8-a6b2-039f183b9f6a","ios":"levelo://app?vid=470d1e9d-8c05-40b8-a6b2-039f183b9f6a"},"vehicle_type_id":"4","last_reported":1752394404,"current_range_meters":10800,"station_id":"ce4bhu92rcd13ifvqi70","pricing_plan_id":"cebpf4jnsgd1na2vs0mg"},{"bike_id":"7bb2812a-b96e-400f-831c-7b8a97727eef","system_id":"levelo_inurba_marseille","lat":43.317085,"lon":5.377563,"is_reserved":false,"is_disabled":false,"rental_uris":{"android":"levelo://app?vid=7bb2812a-b96e-400f-831c-7b8a97727eef","ios":"levelo://app?vid=7bb2812a-b96e-400f-831c-7b8a97727eef"},"vehicle_type_id":"4","last_reported":1752394404,"current_range_meters":11200,"station_id":"ce4bgth2rcd13ifvqch0","pricing_plan_id":"cebpf4jnsgd1na2vs0mg"},{"bike_id":"d8b7af91-d035-47ef-81a8-b871b77bd9d4","system_id":"levelo_inurba_marseille","lat":43.29897,"lon":5.43669,"is_reserved":false,"is_disabled":false,"rental_uris":{"android":"levelo://app?vid=d8b7af91-d035-47ef-81a8-b871b77bd9d4","ios":"levelo://app?vid=d8b7af91-d035-47ef-81a8-b871b77bd9d4"},"vehicle_type_id":"4","last_reported":1752394404,"current_range_meters":11200,"station_id":"ce4bhpp2rcd13ifvqhfg","pricing_plan_id":"cebpf4jnsgd1na2vs0mg"},{"bike_id":"383a2485-518e-4235-b1cd-0ebf65ba74a5","system_id":"levelo_inurba_marseille","lat":43.295246,"lon":5.385399,"is_reserved":false,"is_disabled":true,"rental_uris":{"android":"levelo://app?vid=383a2485-518e-4235-b1cd-0ebf65ba74a5","ios":"levelo://app?vid=383a2485-518e-4235-b1cd-0ebf65ba74a5"},"vehicle_type_id":"4","last_reported":1752394404,"current_range_meters":11200,"station_id":"ce4bgih2rcd13ifvqba0","pricing_plan_id":"cebpf4jnsgd1na2vs0mg"},{"bike_id":"737ead6f-e608-42f1-8a55-8949c954e8e3","system_id":"levelo_inurba_marseille","lat":43.21192,"lon":5.35073,"is_reserved":false,"is_disabled":false,"rental_uris":{"android":"levelo://app?vid=737ead6f-e608-42f1-8a55-8949c954e8e3","ios":"levelo://app?vid=737ead6f-e608-42f1-8a55-8949c954e8e3"},"vehicle_type_id":"4","last_reported":1752394404,"current_range_meters":11200,"station_id":"st_cvj6sg6p6f1abm77japg","pricing_plan_id":"cebpf4jnsgd1na2vs0mg"},{"bike_id":"9d002852-5dba-4c52-ad2f-fe3a84cbdcfc","system_id":"levelo_inurba_marseille","lat":43.27982,"lon":5.41648,"is_reserved":false,"is_disabled":false,"rental_uris":{"android":"levelo://app?vid=9d002852-5dba-4c52-ad2f-fe3a84cbdcfc","ios":"levelo://app?vid=9d002852-5dba-4c52-ad2f-fe3a84cbdcfc"},"vehicle_type_id":"4","last_reported":1752394404,"current_range_meters":11600,"station_id":"ce4bho12rcd13ifvqh1g","pricing_plan_id":"cebpf4jnsgd1na2vs0mg"},{"bike_id":"3d606fdc-f6da-4bfc-a559-196d7d7a114e","system_id":"levelo_inurba_marseille","lat":43.250071,"lon":5.38933,"is_reserved":false,"is_disabled":true,"rental_uris":{"android":"levelo://app?vid=3d606fdc-f6da-4bfc-a559-196d7d7a114e","ios":"levelo://app?vid=3d606fdc-f6da-4bfc-a559-196d7d7a114e"},"vehicle_type_id":"4","last_reported":1752394404,"current_range_meters":11600,"station_id":"ce4bhgp2rcd13ifvqfd0","pricing_plan_id":"cebpf4jnsgd1na2vs0mg"},{"bike_id":"51890362-46b0-4ee7-9f02-afbf036d064e","system_id":"levelo_inurba_marseille","lat":43.21194,"lon":5.35072,"is_reserved":false,"is_disabled":false,"rental_uris":{"android":"levelo://app?vid=51890362-46b0-4ee7-9f02-afbf036d064e","ios":"levelo://app?vid=51890362-46b0-4ee7-9f02-afbf036d064e"},"vehicle_type_id":"4","last_reported":1752394404,"current_range_meters":11600,"station_id":"st_cvj6sg6p6f1abm77japg","pricing_plan_id":"cebpf4jnsgd1na2vs0mg"},{"bike_id":"8f27528a-10a4-4f68-9e38-3dc17f27b3f6","system_id":"levelo_inurba_marseille","lat":43.30369,"lon":5.42524,"is_reserved":false,"is_disabled":false,"rental_uris":{"android":"levelo://app?vid=8f27528a-10a4-4f68-9e38-3dc17f27b3f6","ios":"levelo://app?vid=8f27528a-10a4-4f68-9e38-3dc17f27b3f6"},"vehicle_type_id":"4","last_reported":1752394404,"current_range_meters":11600,"station_id":"ce4bhoh2rcd13ifvqh6g","pricing_plan_id":"cebpf4jnsgd1na2vs0mg"},{"bike_id":"a0137104-c9f4-434a-a5e3-80725cd5a2b4","system_id":"levelo_inurba_marseille","lat":43.212144,"lon":5.350627,"is_reserved":false,"is_disabled":false,"rental_uris":{"android":"levelo://app?vid=a0137104-c9f4-434a-a5e3-80725cd5a2b4","ios":"levelo://app?vid=a0137104-c9f4-434a-a5e3-80725cd5a2b4"},"vehicle_type_id":"4","last_reported":1752394404,"current_range_meters":11600,"station_id":"st_cvj6sg6p6f1abm77japg","pricing_plan_id":"cebpf4jnsgd1na2vs0mg"},{"bike_id":"3f299f71-1b74-4f7f-af2f-363764be4c81","system_id":"levelo_inurba_marseille","lat":43.241774,"lon":5.397365,"is_reserved":false,"is_disabled":false,"rental_uris":{"android":"levelo://app?vid=3f299f71-1b74-4f7f-af2f-363764be4c81","ios":"levelo://app?vid=3f299f71-1b74-4f7f-af2f-363764be4c81"},"vehicle_type_id":"4","last_reported":1752394404,"current_range_meters":6800,"station_id":"ce4bhn12rcd13ifvqgpg","pricing_plan_id":"cebpf4jnsgd1na2vs0mg"},{"bike_id":"262c7e76-2e28-4d55-b6be-af79e74bb9c9","system_id":"levelo_inurba_marseille","lat":43.32268,"lon":5.36931,"is_reserved":false,"is_disabled":false,"rental_uris":{"android":"levelo://app?vid=262c7e76-2e28-4d55-b6be-af79e74bb9c9","ios":"levelo://app?vid=262c7e76-2e28-4d55-b6be-af79e74bb9c9"},"vehicle_type_id":"4","last_reported":1752394404,"current_range_meters":12000,"station_id":"","pricing_plan_id":"cebpf4jnsgd1na2vs0mg"},{"bike_id":"b8cd8c38-4d88-48b2-abb3-ece961dbda2a","system_id":"levelo_inurba_marseille","lat":43.30662,"lon":5.40072,"is_reserved":false,"is_disabled":false,"rental_uris":{"android":"levelo://app?vid=b8cd8c38-4d88-48b2-abb3-ece961dbda2a","ios":"levelo://app?vid=b8cd8c38-4d88-48b2-abb3-ece961dbda2a"},"vehicle_type_id":"4","last_reported":1752394404,"current_range_meters":12000,"station_id":"ce4bh112rcd13ifvqda0","pricing_plan_id":"cebpf4jnsgd1na2vs0mg"},{"bike_id":"49801dc2-618a-44b8-84ae-416cd87fdbe9","system_id":"levelo_inurba_marseille","lat":43.33785,"lon":5.37456,"is_reserved":false,"is_disabled":false,"rental_uris":{"android":"levelo://app?vid=49801dc2-618a-44b8-84ae-416cd87fdbe9","ios":"levelo://app?vid=49801dc2-618a-44b8-84ae-416cd87fdbe9"},"vehicle_type_id":"4","last_reported":1752394404,"current_range_meters":12000,"station_id":"","pricing_plan_id":"cebpf4jnsgd1na2vs0mg"},{"bike_id":"46ce7424-8151-41ba-a046-0c68273c2c8e","system_id":"levelo_inurba_marseille","lat":43.292311,"lon":5.365789,"is_reserved":false,"is_disabled":false,"rental_uris":{"android":"levelo://app?vid=46ce7424-8151-41ba-a046-0c68273c2c8e","ios":"levelo://app?vid=46ce7424-8151-41ba-a046-0c68273c2c8e"},"vehicle_type_id":"4","last_reported":1752394404,"current_range_meters":12400,"station_id":"","pricing_plan_id":"cebpf4jnsgd1na2vs0mg"},{"bike_id":"84761d97-9b88-4141-8a33-ed6b0e0263fe","system_id":"levelo_inurba_marseille","lat":43.2644,"lon":5.40129,"is_reserved":false,"is_disabled":false,"rental_uris":{"android":"levelo://app?vid=84761d97-9b88-4141-8a33-ed6b0e0263fe","ios":"levelo://app?vid=84761d97-9b88-4141-8a33-ed6b0e0263fe"},"vehicle_type_id":"4","last_reported":1752394404,"current_range_meters":12400,"station_id":"","pricing_plan_id":"cebpf4jnsgd1na2vs0mg"},{"bike_id":"00bc0b3b-e317-4a17-a011-a3a9a29d816a","system_id":"levelo_inurba_marseille","lat":43.211928,"lon":5.350685,"is_reserved":false,"is_disabled":false,"rental_uris":{"android":"levelo://app?vid=00bc0b3b-e317-4a17-a011-a3a9a29d816a","ios":"levelo://app?vid=00bc0b3b-e317-4a17-a011-a3a9a29d816a"},"vehicle_type_id":"4","last_reported":1752394404,"current_range_meters":12400,"station_id":"st_cvj6sg6p6f1abm77japg","pricing_plan_id":"cebpf4jnsgd1na2vs0mg"},{"bike_id":"11f46ca2-23ee-4f2a-83a5-008959742fbd","system_id":"levelo_inurba_marseille","lat":43.24681,"lon":5.38142,"is_reserved":false,"is_disabled":false,"rental_uris":{"android":"levelo://app?vid=11f46ca2-23ee-4f2a-83a5-008959742fbd","ios":"levelo://app?vid=11f46ca2-23ee-4f2a-83a5-008959742fbd"},"vehicle_type_id":"4","last_reported":1752394404,"current_range_meters":12400,"station_id":"ce4bhih2rcd13ifvqfr0","pricing_plan_id":"cebpf4jnsgd1na2vs0mg"},{"bike_id":"016a0553-daa1-434d-8dba-ff1fbded5db8","system_id":"levelo_inurba_marseille","lat":43.22501,"lon":5.34717,"is_reserved":false,"is_disabled":false,"rental_uris":{"android":"levelo://app?vid=016a0553-daa1-434d-8dba-ff1fbded5db8","ios":"levelo://app?vid=016a0553-daa1-434d-8dba-ff1fbded5db8"},"vehicle_type_id":"4","last_reported":1752394404,"current_range_meters":12400,"station_id":"","pricing_plan_id":"cebpf4jnsgd1na2vs0mg"},{"bike_id":"4ab460f6-2b13-462f-a8b8-8ee3ec6489ea","system_id":"levelo_inurba_marseille","lat":43.26222,"lon":5.40438,"is_reserved":false,"is_disabled":false,"rental_uris":{"android":"levelo://app?vid=4ab460f6-2b13-462f-a8b8-8ee3ec6489ea","ios":"levelo://app?vid=4ab460f6-2b13-462f-a8b8-8ee3ec6489ea"},"vehicle_type_id":"4","last_reported":1752394404,"current_range_meters":12400,"station_id":"ce4bhmh2rcd13ifvqgmg","pricing_plan_id":"cebpf4jnsgd1na2vs0mg"},{"bike_id":"31f76825-7b9f-439a-a66c-521eb63e58c1","system_id":"levelo_inurba_marseille","lat":43.294615,"lon":5.438521,"is_reserved":false,"is_disabled":false,"rental_uris":{"android":"levelo://app?vid=31f76825-7b9f-439a-a66c-521eb63e58c1","ios":"levelo://app?vid=31f76825-7b9f-439a-a66c-521eb63e58c1"},"vehicle_type_id":"4","last_reported":1752394404,"current_range_meters":12400,"station_id":"","pricing_plan_id":"cebpf4jnsgd1na2vs0mg"},{"bike_id":"c99d2c69-5da6-4cb8-84aa-4fb1d2aeb96d","system_id":"levelo_inurba_marseille","lat":43.2964,"lon":5.40591,"is_reserved":false,"is_disabled":false,"rental_uris":{"android":"levelo://app?vid=c99d2c69-5da6-4cb8-84aa-4fb1d2aeb96d","ios":"levelo://app?vid=c99d2c69-5da6-4cb8-84aa-4fb1d2aeb96d"},"vehicle_type_id":"4","last_reported":1752394404,"current_range_meters":12800,"station_id":"ce4bh0h2rcd13ifvqd60","pricing_plan_id":"cebpf4jnsgd1na2vs0mg"},{"bike_id":"f17c947a-8a1b-42b0-a3d6-60286dc16ad2","system_id":"levelo_inurba_marseille","lat":43.24163,"lon":5.36414,"is_reserved":false,"is_disabled":false,"rental_uris":{"android":"levelo://app?vid=f17c947a-8a1b-42b0-a3d6-60286dc16ad2","ios":"levelo://app?vid=f17c947a-8a1b-42b0-a3d6-60286dc16ad2"},"vehicle_type_id":"4","last_reported":1752394404,"current_range_meters":13600,"station_id":"cpo36qri1sfpv3e86is0","pricing_plan_id":"cebpf4jnsgd1na2vs0mg"},{"bike_id":"2e607b20-b181-446a-a3da-052301eb08cb","system_id":"levelo_inurba_marseille","lat":43.292725,"lon":5.368383,"is_reserved":false,"is_disabled":false,"rental_uris":{"android":"levelo://app?vid=2e607b20-b181-446a-a3da-052301eb08cb","ios":"levelo://app?vid=2e607b20-b181-446a-a3da-052301eb08cb"},"vehicle_type_id":"4","last_reported":1752394404,"current_range_meters":13600,"station_id":"","pricing_plan_id":"cebpf4jnsgd1na2vs0mg"},{"bike_id":"4b8da722-ee9e-48a4-a5e5-3a8a10364708","system_id":"levelo_inurba_marseille","lat":43.312464,"lon":5.378172,"is_reserved":false,"is_disabled":false,"rental_uris":{"android":"levelo://app?vid=4b8da722-ee9e-48a4-a5e5-3a8a10364708","ios":"levelo://app?vid=4b8da722-ee9e-48a4-a5e5-3a8a10364708"},"vehicle_type_id":"4","last_reported":1752394404,"current_range_meters":13600,"station_id":"","pricing_plan_id":"cebpf4jnsgd1na2vs0mg"},{"bike_id":"8b37f03f-f226-4bbc-8648-b109da7ba145","system_id":"levelo_inurba_marseille","lat":43.30536,"lon":5.366999,"is_reserved":false,"is_disabled":false,"rental_uris":{"android":"levelo://app?vid=8b37f03f-f226-4bbc-8648-b109da7ba145","ios":"levelo://app?vid=8b37f03f-f226-4bbc-8648-b109da7ba145"},"vehicle_type_id":"4","last_reported":1752394404,"current_range_meters":13600,"station_id":"","pricing_plan_id":"cebpf4jnsgd1na2vs0mg"},{"bike_id":"f23760ff-ab61-4853-aa67-28aac93822c1","system_id":"levelo_inurba_marseille","lat":43.337444,"lon":5.374475,"is_reserved":false,"is_disabled":false,"rental_uris":{"android":"levelo://app?vid=f23760ff-ab61-4853-aa67-28aac93822c1","ios":"levelo://app?vid=f23760ff-ab61-4853-aa67-28aac93822c1"},"vehicle_type_id":"4","last_reported":1752394404,"current_range_meters":13600,"station_id":"","pricing_plan_id":"cebpf4jnsgd1na2vs0mg"},{"bike_id":"8f910bb0-4d17-4114-bb90-0265a46eb675","system_id":"levelo_inurba_marseille","lat":43.31718,"lon":5.37745,"is_reserved":false,"is_disabled":false,"rental_uris":{"android":"levelo://app?vid=8f910bb0-4d17-4114-bb90-0265a46eb675","ios":"levelo://app?vid=8f910bb0-4d17-4114-bb90-0265a46eb675"},"vehicle_type_id":"4","last_reported":1752394404,"current_range_meters":13600,"station_id":"ce4bgth2rcd13ifvqch0","pricing_plan_id":"cebpf4jnsgd1na2vs0mg"},{"bike_id":"ca52a39d-38bb-4e30-baa8-19f0da3a8f7e","system_id":"levelo_inurba_marseille","lat":43.25125,"lon":5.40329,"is_reserved":false,"is_disabled":false,"rental_uris":{"android":"levelo://app?vid=ca52a39d-38bb-4e30-baa8-19f0da3a8f7e","ios":"levelo://app?vid=ca52a39d-38bb-4e30-baa8-19f0da3a8f7e"},"vehicle_type_id":"4","last_reported":1752394404,"current_range_meters":13600,"station_id":"ce4bhlh2rcd13ifvqgig","pricing_plan_id":"cebpf4jnsgd1na2vs0mg"},{"bike_id":"b105f991-1563-4fc4-9371-7364ce9b8c80","system_id":"levelo_inurba_marseille","lat":43.287285,"lon":5.395579,"is_reserved":false,"is_disabled":false,"rental_uris":{"android":"levelo://app?vid=b105f991-1563-4fc4-9371-7364ce9b8c80","ios":"levelo://app?vid=b105f991-1563-4fc4-9371-7364ce9b8c80"},"vehicle_type_id":"4","last_reported":1752394404,"current_range_meters":13600,"station_id":"","pricing_plan_id":"cebpf4jnsgd1na2vs0mg"},{"bike_id":"9a72d1fd-ba0d-40b8-85c2-0a32bee82c5a","system_id":"levelo_inurba_marseille","lat":43.285698,"lon":5.402348,"is_reserved":false,"is_disabled":false,"rental_uris":{"android":"levelo://app?vid=9a72d1fd-ba0d-40b8-85c2-0a32bee82c5a","ios":"levelo://app?vid=9a72d1fd-ba0d-40b8-85c2-0a32bee82c5a"},"vehicle_type_id":"4","last_reported":1752394404,"current_range_meters":13600,"station_id":"","pricing_plan_id":"cebpf4jnsgd1na2vs0mg"},{"bike_id":"f5d1b187-3db5-4ecd-8854-16d6d1c60bf8","system_id":"levelo_inurba_marseille","lat":43.29049,"lon":5.37564,"is_reserved":false,"is_disabled":false,"rental_uris":{"android":"levelo://app?vid=f5d1b187-3db5-4ecd-8854-16d6d1c60bf8","ios":"levelo://app?vid=f5d1b187-3db5-4ecd-8854-16d6d1c60bf8"},"vehicle_type_id":"4","last_reported":1752394404,"current_range_meters":12800,"station_id":"ce4bh692rcd13ifvqe90","pricing_plan_id":"cebpf4jnsgd1na2vs0mg"},{"bike_id":"4a3536be-a18a-4869-86dc-4ecb5cf6722c","system_id":"levelo_inurba_marseille","lat":43.28155,"lon":5.42641,"is_reserved":false,"is_disabled":false,"rental_uris":{"android":"levelo://app?vid=4a3536be-a18a-4869-86dc-4ecb5cf6722c","ios":"levelo://app?vid=4a3536be-a18a-4869-86dc-4ecb5cf6722c"},"vehicle_type_id":"4","last_reported":1752394404,"current_range_meters":14000,"station_id":"ce4bhnh2rcd13ifvqgug","pricing_plan_id":"cebpf4jnsgd1na2vs0mg"},{"bike_id":"b8c31bb8-e8f4-4036-8fa5-5b3756ba71ba","system_id":"levelo_inurba_marseille","lat":43.29577,"lon":5.3749,"is_reserved":false,"is_disabled":false,"rental_uris":{"android":"levelo://app?vid=b8c31bb8-e8f4-4036-8fa5-5b3756ba71ba","ios":"levelo://app?vid=b8c31bb8-e8f4-4036-8fa5-5b3756ba71ba"},"vehicle_type_id":"4","last_reported":1752394404,"current_range_meters":14400,"station_id":"ce4bgh92rcd13ifvqb50","pricing_plan_id":"cebpf4jnsgd1na2vs0mg"},{"bike_id":"6d3f299a-d341-49bc-a1f9-7534528d9b67","system_id":"levelo_inurba_marseille","lat":43.23203,"lon":5.35548,"is_reserved":false,"is_disabled":false,"rental_uris":{"android":"levelo://app?vid=6d3f299a-d341-49bc-a1f9-7534528d9b67","ios":"levelo://app?vid=6d3f299a-d341-49bc-a1f9-7534528d9b67"},"vehicle_type_id":"4","last_reported":1752394404,"current_range_meters":14400,"station_id":"ce4bhu92rcd13ifvqi70","pricing_plan_id":"cebpf4jnsgd1na2vs0mg"},{"bike_id":"1246340e-7ba7-4d4f-989b-650db36f2055","system_id":"levelo_inurba_marseille","lat":43.29553,"lon":5.42293,"is_reserved":false,"is_disabled":false,"rental_uris":{"android":"levelo://app?vid=1246340e-7ba7-4d4f-989b-650db36f2055","ios":"levelo://app?vid=1246340e-7ba7-4d4f-989b-650db36f2055"},"vehicle_type_id":"4","last_reported":1752394404,"current_range_meters":14400,"station_id":"ce4bhph2rcd13ifvqhdg","pricing_plan_id":"cebpf4jnsgd1na2vs0mg"},{"bike_id":"4524064e-8011-4409-9de4-95ebe8d8ef9f","system_id":"levelo_inurba_marseille","lat":43.27758,"lon":5.38856,"is_reserved":false,"is_disabled":false,"rental_uris":{"android":"levelo://app?vid=4524064e-8011-4409-9de4-95ebe8d8ef9f","ios":"levelo://app?vid=4524064e-8011-4409-9de4-95ebe8d8ef9f"},"vehicle_type_id":"4","last_reported":1752394404,"current_range_meters":14400,"station_id":"ce4bhjp2rcd13ifvqga0","pricing_plan_id":"cebpf4jnsgd1na2vs0mg"},{"bike_id":"64e0382f-4f5c-404c-ad2d-9b448c9834f1","system_id":"levelo_inurba_marseille","lat":43.31166,"lon":5.37755,"is_reserved":false,"is_disabled":false,"rental_uris":{"android":"levelo://app?vid=64e0382f-4f5c-404c-ad2d-9b448c9834f1","ios":"levelo://app?vid=64e0382f-4f5c-404c-ad2d-9b448c9834f1"},"vehicle_type_id":"4","last_reported":1752394404,"current_range_meters":14400,"station_id":"","pricing_plan_id":"cebpf4jnsgd1na2vs0mg"},{"bike_id":"c1d0629c-eaee-41e7-8c10-68b0ec1b077d","system_id":"levelo_inurba_marseille","lat":43.32764,"lon":5.39105,"is_reserved":false,"is_disabled":false,"rental_uris":{"android":"levelo://app?vid=c1d0629c-eaee-41e7-8c10-68b0ec1b077d","ios":"levelo://app?vid=c1d0629c-eaee-41e7-8c10-68b0ec1b077d"},"vehicle_type_id":"4","last_reported":1752394404,"current_range_meters":14400,"station_id":"","pricing_plan_id":"cebpf4jnsgd1na2vs0mg"},{"bike_id":"c4090517-2067-41cd-bcb5-cb8334b77383","system_id":"levelo_inurba_marseille","lat":43.2438,"lon":5.37061,"is_reserved":false,"is_disabled":false,"rental_uris":{"android":"levelo://app?vid=c4090517-2067-41cd-bcb5-cb8334b77383","ios":"levelo://app?vid=c4090517-2067-41cd-bcb5-cb8334b77383"},"vehicle_type_id":"4","last_reported":1752394404,"current_range_meters":14800,"station_id":"ce4bhhh2rcd13ifvqfk0","pricing_plan_id":"cebpf4jnsgd1na2vs0mg"},{"bike_id":"f70d4eb7-0483-4b22-b4af-6857c0805839","system_id":"levelo_inurba_marseille","lat":43.29873,"lon":5.38139,"is_reserved":false,"is_disabled":true,"rental_uris":{"android":"levelo://app?vid=f70d4eb7-0483-4b22-b4af-6857c0805839","ios":"levelo://app?vid=f70d4eb7-0483-4b22-b4af-6857c0805839"},"vehicle_type_id":"4","last_reported":1752394404,"current_range_meters":14800,"station_id":"ce4bgj12rcd13ifvqbc0","pricing_plan_id":"cebpf4jnsgd1na2vs0mg"},{"bike_id":"e2ce6e8a-ef9f-4211-8776-042780e4931d","system_id":"levelo_inurba_marseille","lat":43.2843,"lon":5.34983,"is_reserved":false,"is_disabled":true,"rental_uris":{"android":"levelo://app?vid=e2ce6e8a-ef9f-4211-8776-042780e4931d","ios":"levelo://app?vid=e2ce6e8a-ef9f-4211-8776-042780e4931d"},"vehicle_type_id":"4","last_reported":1752394404,"current_range_meters":14800,"station_id":"ce4bhbh2rcd13ifvqepg","pricing_plan_id":"cebpf4jnsgd1na2vs0mg"},{"bike_id":"7f9cdf24-06d5-4966-a653-209a5c486322","system_id":"levelo_inurba_marseille","lat":43.302494,"lon":5.400812,"is_reserved":false,"is_disabled":false,"rental_uris":{"android":"levelo://app?vid=7f9cdf24-06d5-4966-a653-209a5c486322","ios":"levelo://app?vid=7f9cdf24-06d5-4966-a653-209a5c486322"},"vehicle_type_id":"4","last_reported":1752394404,"current_range_meters":14800,"station_id":"ce4bgvh2rcd13ifvqcs0","pricing_plan_id":"cebpf4jnsgd1na2vs0mg"},{"bike_id":"77bfc87a-7d40-4a12-a98a-a968fc6e780e","system_id":"levelo_inurba_marseille","lat":43.30224,"lon":5.39476,"is_reserved":false,"is_disabled":false,"rental_uris":{"android":"levelo://app?vid=77bfc87a-7d40-4a12-a98a-a968fc6e780e","ios":"levelo://app?vid=77bfc87a-7d40-4a12-a98a-a968fc6e780e"},"vehicle_type_id":"4","last_reported":1752394404,"current_range_meters":15200,"station_id":"ce4bh0p2rcd13ifvqd70","pricing_plan_id":"cebpf4jnsgd1na2vs0mg"},{"bike_id":"0c1249a9-581f-45d5-a449-324c436c6465","system_id":"levelo_inurba_marseille","lat":43.24679,"lon":5.38139,"is_reserved":false,"is_disabled":false,"rental_uris":{"android":"levelo://app?vid=0c1249a9-581f-45d5-a449-324c436c6465","ios":"levelo://app?vid=0c1249a9-581f-45d5-a449-324c436c6465"},"vehicle_type_id":"4","last_reported":1752394404,"current_range_meters":15200,"station_id":"ce4bhih2rcd13ifvqfr0","pricing_plan_id":"cebpf4jnsgd1na2vs0mg"},{"bike_id":"4122ea5f-aef0-4353-9766-742f9b1488df","system_id":"levelo_inurba_marseille","lat":43.31121,"lon":5.37757,"is_reserved":false,"is_disabled":false,"rental_uris":{"android":"levelo://app?vid=4122ea5f-aef0-4353-9766-742f9b1488df","ios":"levelo://app?vid=4122ea5f-aef0-4353-9766-742f9b1488df"},"vehicle_type_id":"4","last_reported":1752394404,"current_range_meters":15200,"station_id":"ce4bgt92rcd13ifvqcg0","pricing_plan_id":"cebpf4jnsgd1na2vs0mg"},{"bike_id":"f83a1ac2-2158-4a8d-a3a6-5f71226f0918","system_id":"levelo_inurba_marseille","lat":43.310001,"lon":5.3701,"is_reserved":false,"is_disabled":false,"rental_uris":{"android":"levelo://app?vid=f83a1ac2-2158-4a8d-a3a6-5f71226f0918","ios":"levelo://app?vid=f83a1ac2-2158-4a8d-a3a6-5f71226f0918"},"vehicle_type_id":"4","last_reported":1752394404,"current_range_meters":15200,"station_id":"","pricing_plan_id":"cebpf4jnsgd1na2vs0mg"},{"bike_id":"a44f68aa-b920-4eb6-845e-df1183944a6b","system_id":"levelo_inurba_marseille","lat":43.285666,"lon":5.350599,"is_reserved":false,"is_disabled":true,"rental_uris":{"android":"levelo://app?vid=a44f68aa-b920-4eb6-845e-df1183944a6b","ios":"levelo://app?vid=a44f68aa-b920-4eb6-845e-df1183944a6b"},"vehicle_type_id":"4","last_reported":1752394404,"current_range_meters":15200,"station_id":"","pricing_plan_id":"cebpf4jnsgd1na2vs0mg"},{"bike_id":"8bcb3360-dbaa-4a6a-ae34-1ee8e5254ec4","system_id":"levelo_inurba_marseille","lat":43.241844,"lon":5.397122,"is_reserved":false,"is_disabled":false,"rental_uris":{"android":"levelo://app?vid=8bcb3360-dbaa-4a6a-ae34-1ee8e5254ec4","ios":"levelo://app?vid=8bcb3360-dbaa-4a6a-ae34-1ee8e5254ec4"},"vehicle_type_id":"4","last_reported":1752394404,"current_range_meters":15200,"station_id":"ce4bhn12rcd13ifvqgpg","pricing_plan_id":"cebpf4jnsgd1na2vs0mg"},{"bike_id":"7a888645-4b0c-4379-98d8-380a5347b74c","system_id":"levelo_inurba_marseille","lat":43.2738,"lon":5.36247,"is_reserved":false,"is_disabled":true,"rental_uris":{"android":"levelo://app?vid=7a888645-4b0c-4379-98d8-380a5347b74c","ios":"levelo://app?vid=7a888645-4b0c-4379-98d8-380a5347b74c"},"vehicle_type_id":"4","last_reported":1752394404,"current_range_meters":16000,"station_id":"ce4bhbh2rcd13ifvqeo0","pricing_plan_id":"cebpf4jnsgd1na2vs0mg"},{"bike_id":"63310cfb-531f-4741-8727-73a65cfd38d3","system_id":"levelo_inurba_marseille","lat":43.25592,"lon":5.3823,"is_reserved":false,"is_disabled":false,"rental_uris":{"android":"levelo://app?vid=63310cfb-531f-4741-8727-73a65cfd38d3","ios":"levelo://app?vid=63310cfb-531f-4741-8727-73a65cfd38d3"},"vehicle_type_id":"4","last_reported":1752394404,"current_range_meters":16000,"station_id":"ce4bhih2rcd13ifvqfs0","pricing_plan_id":"cebpf4jnsgd1na2vs0mg"},{"bike_id":"5d2e7aad-0a21-4598-93c2-a1d014fc322f","system_id":"levelo_inurba_marseille","lat":43.24172,"lon":5.39725,"is_reserved":false,"is_disabled":false,"rental_uris":{"android":"levelo://app?vid=5d2e7aad-0a21-4598-93c2-a1d014fc322f","ios":"levelo://app?vid=5d2e7aad-0a21-4598-93c2-a1d014fc322f"},"vehicle_type_id":"4","last_reported":1752394404,"current_range_meters":16000,"station_id":"ce4bhn12rcd13ifvqgpg","pricing_plan_id":"cebpf4jnsgd1na2vs0mg"},{"bike_id":"82064778-37b9-438b-b376-909fd880c387","system_id":"levelo_inurba_marseille","lat":43.299679,"lon":5.413282,"is_reserved":false,"is_disabled":false,"rental_uris":{"android":"levelo://app?vid=82064778-37b9-438b-b376-909fd880c387","ios":"levelo://app?vid=82064778-37b9-438b-b376-909fd880c387"},"vehicle_type_id":"4","last_reported":1752394404,"current_range_meters":16000,"station_id":"ce4bhp12rcd13ifvqh9g","pricing_plan_id":"cebpf4jnsgd1na2vs0mg"},{"bike_id":"f9924005-c8ac-4086-8e25-9a21391f65ea","system_id":"levelo_inurba_marseille","lat":43.211898,"lon":5.350719,"is_reserved":false,"is_disabled":false,"rental_uris":{"android":"levelo://app?vid=f9924005-c8ac-4086-8e25-9a21391f65ea","ios":"levelo://app?vid=f9924005-c8ac-4086-8e25-9a21391f65ea"},"vehicle_type_id":"4","last_reported":1752394404,"current_range_meters":16000,"station_id":"st_cvj6sg6p6f1abm77japg","pricing_plan_id":"cebpf4jnsgd1na2vs0mg"},{"bike_id":"77da523b-ace4-4d05-9e20-7148788972a6","system_id":"levelo_inurba_marseille","lat":43.317115,"lon":5.377757,"is_reserved":false,"is_disabled":false,"rental_uris":{"android":"levelo://app?vid=77da523b-ace4-4d05-9e20-7148788972a6","ios":"levelo://app?vid=77da523b-ace4-4d05-9e20-7148788972a6"},"vehicle_type_id":"4","last_reported":1752394404,"current_range_meters":16000,"station_id":"ce4bgth2rcd13ifvqch0","pricing_plan_id":"cebpf4jnsgd1na2vs0mg"},{"bike_id":"c2d04c62-dad5-4981-8561-9ac2acf87548","system_id":"levelo_inurba_marseille","lat":43.30019,"lon":5.37167,"is_reserved":false,"is_disabled":false,"rental_uris":{"android":"levelo://app?vid=c2d04c62-dad5-4981-8561-9ac2acf87548","ios":"levelo://app?vid=c2d04c62-dad5-4981-8561-9ac2acf87548"},"vehicle_type_id":"4","last_reported":1752394404,"current_range_meters":16000,"station_id":"","pricing_plan_id":"cebpf4jnsgd1na2vs0mg"},{"bike_id":"2afd10ce-5f23-4122-9c7a-a3416be941b2","system_id":"levelo_inurba_marseille","lat":43.260216,"lon":5.375479,"is_reserved":false,"is_disabled":true,"rental_uris":{"android":"levelo://app?vid=2afd10ce-5f23-4122-9c7a-a3416be941b2","ios":"levelo://app?vid=2afd10ce-5f23-4122-9c7a-a3416be941b2"},"vehicle_type_id":"4","last_reported":1752394404,"current_range_meters":16000,"station_id":"ce4bhgh2rcd13ifvqfa0","pricing_plan_id":"cebpf4jnsgd1na2vs0mg"},{"bike_id":"7048b274-bb73-4f78-bd84-2dffe4927289","system_id":"levelo_inurba_marseille","lat":43.29785,"lon":5.39348,"is_reserved":false,"is_disabled":true,"rental_uris":{"android":"levelo://app?vid=7048b274-bb73-4f78-bd84-2dffe4927289","ios":"levelo://app?vid=7048b274-bb73-4f78-bd84-2dffe4927289"},"vehicle_type_id":"4","last_reported":1752394404,"current_range_meters":16000,"station_id":"chh1huq6cuj3fo74tm60","pricing_plan_id":"cebpf4jnsgd1na2vs0mg"},{"bike_id":"84e0b044-5cbf-4d7f-9a9b-73b338352c1b","system_id":"levelo_inurba_marseille","lat":43.241815,"lon":5.397198,"is_reserved":false,"is_disabled":false,"rental_uris":{"android":"levelo://app?vid=84e0b044-5cbf-4d7f-9a9b-73b338352c1b","ios":"levelo://app?vid=84e0b044-5cbf-4d7f-9a9b-73b338352c1b"},"vehicle_type_id":"4","last_reported":1752394404,"current_range_meters":16000,"station_id":"ce4bhn12rcd13ifvqgpg","pricing_plan_id":"cebpf4jnsgd1na2vs0mg"},{"bike_id":"0cfe2a5a-3c82-491a-b988-70a0642db701","system_id":"levelo_inurba_marseille","lat":43.30891,"lon":5.37208,"is_reserved":false,"is_disabled":false,"rental_uris":{"android":"levelo://app?vid=0cfe2a5a-3c82-491a-b988-70a0642db701","ios":"levelo://app?vid=0cfe2a5a-3c82-491a-b988-70a0642db701"},"vehicle_type_id":"4","last_reported":1752394404,"current_range_meters":16000,"station_id":"ce4bguh2rcd13ifvqckg","pricing_plan_id":"cebpf4jnsgd1na2vs0mg"},{"bike_id":"86680933-d1e1-4a18-98f9-59fb73370b08","system_id":"levelo_inurba_marseille","lat":43.269776,"lon":5.398908,"is_reserved":false,"is_disabled":false,"rental_uris":{"android":"levelo://app?vid=86680933-d1e1-4a18-98f9-59fb73370b08","ios":"levelo://app?vid=86680933-d1e1-4a18-98f9-59fb73370b08"},"vehicle_type_id":"4","last_reported":1752394404,"current_range_meters":16000,"station_id":"","pricing_plan_id":"cebpf4jnsgd1na2vs0mg"},{"bike_id":"10ae3082-1643-4af7-9ad2-1a046f05c80c","system_id":"levelo_inurba_marseille","lat":43.2176,"lon":5.346,"is_reserved":false,"is_disabled":false,"rental_uris":{"android":"levelo://app?vid=10ae3082-1643-4af7-9ad2-1a046f05c80c","ios":"levelo://app?vid=10ae3082-1643-4af7-9ad2-1a046f05c80c"},"vehicle_type_id":"4","last_reported":1752394404,"current_range_meters":16400,"station_id":"st_cvj6r9ubvosntc0bgbag","pricing_plan_id":"cebpf4jnsgd1na2vs0mg"},{"bike_id":"9b40dc73-509b-4d2f-8a27-44696719b175","system_id":"levelo_inurba_marseille","lat":43.2707,"lon":5.42272,"is_reserved":false,"is_disabled":false,"rental_uris":{"android":"levelo://app?vid=9b40dc73-509b-4d2f-8a27-44696719b175","ios":"levelo://app?vid=9b40dc73-509b-4d2f-8a27-44696719b175"},"vehicle_type_id":"4","last_reported":1752394404,"current_range_meters":16400,"station_id":"ce4bhk92rcd13ifvqgb0","pricing_plan_id":"cebpf4jnsgd1na2vs0mg"},{"bike_id":"68c1f4f9-3dcb-4b8c-ad5e-327e4ca87863","system_id":"levelo_inurba_marseille","lat":43.259245,"lon":5.408919,"is_reserved":false,"is_disabled":false,"rental_uris":{"android":"levelo://app?vid=68c1f4f9-3dcb-4b8c-ad5e-327e4ca87863","ios":"levelo://app?vid=68c1f4f9-3dcb-4b8c-ad5e-327e4ca87863"},"vehicle_type_id":"4","last_reported":1752394404,"current_range_meters":16400,"station_id":"ce4bhm92rcd13ifvqglg","pricing_plan_id":"cebpf4jnsgd1na2vs0mg"},{"bike_id":"718eafe4-1059-4d0b-9935-83404501b5b5","system_id":"levelo_inurba_marseille","lat":43.31722,"lon":5.37758,"is_reserved":false,"is_disabled":false,"rental_uris":{"android":"levelo://app?vid=718eafe4-1059-4d0b-9935-83404501b5b5","ios":"levelo://app?vid=718eafe4-1059-4d0b-9935-83404501b5b5"},"vehicle_type_id":"4","last_reported":1752394404,"current_range_meters":16400,"station_id":"ce4bgth2rcd13ifvqch0","pricing_plan_id":"cebpf4jnsgd1na2vs0mg"},{"bike_id":"c3e3ac6f-9bdf-42be-94b7-108dfa8bf9d9","system_id":"levelo_inurba_marseille","lat":43.324841,"lon":5.365749,"is_reserved":false,"is_disabled":true,"rental_uris":{"android":"levelo://app?vid=c3e3ac6f-9bdf-42be-94b7-108dfa8bf9d9","ios":"levelo://app?vid=c3e3ac6f-9bdf-42be-94b7-108dfa8bf9d9"},"vehicle_type_id":"4","last_reported":1752394404,"current_range_meters":16400,"station_id":"ce4bhs12rcd13ifvqhvg","pricing_plan_id":"cebpf4jnsgd1na2vs0mg"},{"bike_id":"03427d6a-f6f0-47f5-afa0-d8cdcd2d5db5","system_id":"levelo_inurba_marseille","lat":43.29565,"lon":5.37517,"is_reserved":false,"is_disabled":false,"rental_uris":{"android":"levelo://app?vid=03427d6a-f6f0-47f5-afa0-d8cdcd2d5db5","ios":"levelo://app?vid=03427d6a-f6f0-47f5-afa0-d8cdcd2d5db5"},"vehicle_type_id":"4","last_reported":1752394404,"current_range_meters":16400,"station_id":"ce4bgh92rcd13ifvqb50","pricing_plan_id":"cebpf4jnsgd1na2vs0mg"},{"bike_id":"658da48e-808c-42cf-8658-300de37ba77a","system_id":"levelo_inurba_marseille","lat":43.267892,"lon":5.39426,"is_reserved":false,"is_disabled":false,"rental_uris":{"android":"levelo://app?vid=658da48e-808c-42cf-8658-300de37ba77a","ios":"levelo://app?vid=658da48e-808c-42cf-8658-300de37ba77a"},"vehicle_type_id":"4","last_reported":1752394404,"current_range_meters":16800,"station_id":"ce4bhh12rcd13ifvqfg0","pricing_plan_id":"cebpf4jnsgd1na2vs0mg"},{"bike_id":"adfe8be3-1e95-4a39-ba2c-619c92879657","system_id":"levelo_inurba_marseille","lat":43.23181,"lon":5.39981,"is_reserved":false,"is_disabled":false,"rental_uris":{"android":"levelo://app?vid=adfe8be3-1e95-4a39-ba2c-619c92879657","ios":"levelo://app?vid=adfe8be3-1e95-4a39-ba2c-619c92879657"},"vehicle_type_id":"4","last_reported":1752394404,"current_range_meters":16800,"station_id":"ce4bhn12rcd13ifvqgqg","pricing_plan_id":"cebpf4jnsgd1na2vs0mg"},{"bike_id":"d9d63d91-160d-42d0-b9c6-42c216f308c7","system_id":"levelo_inurba_marseille","lat":43.30369,"lon":5.42478,"is_reserved":false,"is_disabled":false,"rental_uris":{"android":"levelo://app?vid=d9d63d91-160d-42d0-b9c6-42c216f308c7","ios":"levelo://app?vid=d9d63d91-160d-42d0-b9c6-42c216f308c7"},"vehicle_type_id":"4","last_reported":1752394404,"current_range_meters":16800,"station_id":"ce4bhoh2rcd13ifvqh6g","pricing_plan_id":"cebpf4jnsgd1na2vs0mg"},{"bike_id":"d9f5802f-b85b-44ac-bb5d-e411c0bdfd0f","system_id":"levelo_inurba_marseille","lat":43.241677,"lon":5.363919,"is_reserved":false,"is_disabled":false,"rental_uris":{"android":"levelo://app?vid=d9f5802f-b85b-44ac-bb5d-e411c0bdfd0f","ios":"levelo://app?vid=d9f5802f-b85b-44ac-bb5d-e411c0bdfd0f"},"vehicle_type_id":"4","last_reported":1752394404,"current_range_meters":16800,"station_id":"cpo36qri1sfpv3e86is0","pricing_plan_id":"cebpf4jnsgd1na2vs0mg"},{"bike_id":"8f06a490-2171-40a2-adcb-3cd303151855","system_id":"levelo_inurba_marseille","lat":43.28681,"lon":5.3995,"is_reserved":false,"is_disabled":false,"rental_uris":{"android":"levelo://app?vid=8f06a490-2171-40a2-adcb-3cd303151855","ios":"levelo://app?vid=8f06a490-2171-40a2-adcb-3cd303151855"},"vehicle_type_id":"4","last_reported":1752394404,"current_range_meters":16800,"station_id":"","pricing_plan_id":"cebpf4jnsgd1na2vs0mg"},{"bike_id":"d5f9c5bb-1fa2-40ba-9e66-96086af89407","system_id":"levelo_inurba_marseille","lat":43.24151,"lon":5.36379,"is_reserved":false,"is_disabled":false,"rental_uris":{"android":"levelo://app?vid=d5f9c5bb-1fa2-40ba-9e66-96086af89407","ios":"levelo://app?vid=d5f9c5bb-1fa2-40ba-9e66-96086af89407"},"vehicle_type_id":"4","last_reported":1752394404,"current_range_meters":16800,"station_id":"cpo36qri1sfpv3e86is0","pricing_plan_id":"cebpf4jnsgd1na2vs0mg"},{"bike_id":"9bfc7d3d-4e60-4f8a-9c32-ef3d0e77ec5b","system_id":"levelo_inurba_marseille","lat":43.21199,"lon":5.35056,"is_reserved":false,"is_disabled":false,"rental_uris":{"android":"levelo://app?vid=9bfc7d3d-4e60-4f8a-9c32-ef3d0e77ec5b","ios":"levelo://app?vid=9bfc7d3d-4e60-4f8a-9c32-ef3d0e77ec5b"},"vehicle_type_id":"4","last_reported":1752394404,"current_range_meters":16800,"station_id":"st_cvj6sg6p6f1abm77japg","pricing_plan_id":"cebpf4jnsgd1na2vs0mg"},{"bike_id":"10142f81-c153-43cc-9bd7-98555a604914","system_id":"levelo_inurba_marseille","lat":43.29005,"lon":5.3561,"is_reserved":false,"is_disabled":false,"rental_uris":{"android":"levelo://app?vid=10142f81-c153-43cc-9bd7-98555a604914","ios":"levelo://app?vid=10142f81-c153-43cc-9bd7-98555a604914"},"vehicle_type_id":"4","last_reported":1752394404,"current_range_meters":17200,"station_id":"ce4bhb92rcd13ifvqen0","pricing_plan_id":"cebpf4jnsgd1na2vs0mg"},{"bike_id":"2a70798a-94ea-48f1-80b7-5109f0e067eb","system_id":"levelo_inurba_marseille","lat":43.295577,"lon":5.422893,"is_reserved":false,"is_disabled":false,"rental_uris":{"android":"levelo://app?vid=2a70798a-94ea-48f1-80b7-5109f0e067eb","ios":"levelo://app?vid=2a70798a-94ea-48f1-80b7-5109f0e067eb"},"vehicle_type_id":"4","last_reported":1752394404,"current_range_meters":17200,"station_id":"ce4bhph2rcd13ifvqhdg","pricing_plan_id":"cebpf4jnsgd1na2vs0mg"},{"bike_id":"436e917a-7f3e-467e-946b-136c32e6f617","system_id":"levelo_inurba_marseille","lat":43.26228,"lon":5.404405,"is_reserved":false,"is_disabled":false,"rental_uris":{"android":"levelo://app?vid=436e917a-7f3e-467e-946b-136c32e6f617","ios":"levelo://app?vid=436e917a-7f3e-467e-946b-136c32e6f617"},"vehicle_type_id":"4","last_reported":1752394404,"current_range_meters":17200,"station_id":"ce4bhmh2rcd13ifvqgmg","pricing_plan_id":"cebpf4jnsgd1na2vs0mg"},{"bike_id":"58375fde-ca97-4dab-be52-59caf98323d3","system_id":"levelo_inurba_marseille","lat":43.26555,"lon":5.3728,"is_reserved":false,"is_disabled":true,"rental_uris":{"android":"levelo://app?vid=58375fde-ca97-4dab-be52-59caf98323d3","ios":"levelo://app?vid=58375fde-ca97-4dab-be52-59caf98323d3"},"vehicle_type_id":"4","last_reported":1752394404,"current_range_meters":17600,"station_id":"ce4bhg12rcd13ifvqf70","pricing_plan_id":"cebpf4jnsgd1na2vs0mg"},{"bike_id":"8c5fc7db-1424-45f1-8769-ea2ea607346a","system_id":"levelo_inurba_marseille","lat":43.30267,"lon":5.3767,"is_reserved":false,"is_disabled":false,"rental_uris":{"android":"levelo://app?vid=8c5fc7db-1424-45f1-8769-ea2ea607346a","ios":"levelo://app?vid=8c5fc7db-1424-45f1-8769-ea2ea607346a"},"vehicle_type_id":"4","last_reported":1752394404,"current_range_meters":17600,"station_id":"ce4bguh2rcd13ifvqcj0","pricing_plan_id":"cebpf4jnsgd1na2vs0mg"},{"bike_id":"539b0bc2-18a7-4c61-851d-ce98315165df","system_id":"levelo_inurba_marseille","lat":43.3017,"lon":5.38072,"is_reserved":false,"is_disabled":false,"rental_uris":{"android":"levelo://app?vid=539b0bc2-18a7-4c61-851d-ce98315165df","ios":"levelo://app?vid=539b0bc2-18a7-4c61-851d-ce98315165df"},"vehicle_type_id":"4","last_reported":1752394404,"current_range_meters":17600,"station_id":"ce4bgjp2rcd13ifvqbh0","pricing_plan_id":"cebpf4jnsgd1na2vs0mg"},{"bike_id":"cc6260c7-e588-42d7-afef-96c409802ccc","system_id":"levelo_inurba_marseille","lat":43.211971,"lon":5.350671,"is_reserved":false,"is_disabled":false,"rental_uris":{"android":"levelo://app?vid=cc6260c7-e588-42d7-afef-96c409802ccc","ios":"levelo://app?vid=cc6260c7-e588-42d7-afef-96c409802ccc"},"vehicle_type_id":"4","last_reported":1752394404,"current_range_meters":17600,"station_id":"st_cvj6sg6p6f1abm77japg","pricing_plan_id":"cebpf4jnsgd1na2vs0mg"},{"bike_id":"d438c437-0c60-41e5-a3d6-d73226271506","system_id":"levelo_inurba_marseille","lat":43.295675,"lon":5.42274,"is_reserved":false,"is_disabled":false,"rental_uris":{"android":"levelo://app?vid=d438c437-0c60-41e5-a3d6-d73226271506","ios":"levelo://app?vid=d438c437-0c60-41e5-a3d6-d73226271506"},"vehicle_type_id":"4","last_reported":1752394404,"current_range_meters":17600,"station_id":"ce4bhph2rcd13ifvqhdg","pricing_plan_id":"cebpf4jnsgd1na2vs0mg"},{"bike_id":"5c0448b2-8814-4934-b665-27ab2eac725a","system_id":"levelo_inurba_marseille","lat":43.264983,"lon":5.395374,"is_reserved":false,"is_disabled":false,"rental_uris":{"android":"levelo://app?vid=5c0448b2-8814-4934-b665-27ab2eac725a","ios":"levelo://app?vid=5c0448b2-8814-4934-b665-27ab2eac725a"},"vehicle_type_id":"4","last_reported":1752394404,"current_range_meters":18000,"station_id":"ce4bhi12rcd13ifvqfq0","pricing_plan_id":"cebpf4jnsgd1na2vs0mg"},{"bike_id":"7b60e2b3-fe60-4caf-8d3e-4c917054d448","system_id":"levelo_inurba_marseille","lat":43.284195,"lon":5.349855,"is_reserved":false,"is_disabled":true,"rental_uris":{"android":"levelo://app?vid=7b60e2b3-fe60-4caf-8d3e-4c917054d448","ios":"levelo://app?vid=7b60e2b3-fe60-4caf-8d3e-4c917054d448"},"vehicle_type_id":"4","last_reported":1752394404,"current_range_meters":18000,"station_id":"ce4bhbh2rcd13ifvqepg","pricing_plan_id":"cebpf4jnsgd1na2vs0mg"},{"bike_id":"711ac624-d408-4d62-a6b0-a60e4e9b3156","system_id":"levelo_inurba_marseille","lat":43.301343,"lon":5.374203,"is_reserved":false,"is_disabled":false,"rental_uris":{"android":"levelo://app?vid=711ac624-d408-4d62-a6b0-a60e4e9b3156","ios":"levelo://app?vid=711ac624-d408-4d62-a6b0-a60e4e9b3156"},"vehicle_type_id":"4","last_reported":1752394404,"current_range_meters":18000,"station_id":"ce4bgs92rcd13ifvqcc0","pricing_plan_id":"cebpf4jnsgd1na2vs0mg"},{"bike_id":"f5a47db5-6fb2-46bd-a2de-efa4ad13bf60","system_id":"levelo_inurba_marseille","lat":43.21193,"lon":5.35063,"is_reserved":false,"is_disabled":false,"rental_uris":{"android":"levelo://app?vid=f5a47db5-6fb2-46bd-a2de-efa4ad13bf60","ios":"levelo://app?vid=f5a47db5-6fb2-46bd-a2de-efa4ad13bf60"},"vehicle_type_id":"4","last_reported":1752394404,"current_range_meters":18000,"station_id":"st_cvj6sg6p6f1abm77japg","pricing_plan_id":"cebpf4jnsgd1na2vs0mg"},{"bike_id":"059a4775-c8b3-4965-854c-46db5bc514d2","system_id":"levelo_inurba_marseille","lat":43.284,"lon":5.37503,"is_reserved":false,"is_disabled":false,"rental_uris":{"android":"levelo://app?vid=059a4775-c8b3-4965-854c-46db5bc514d2","ios":"levelo://app?vid=059a4775-c8b3-4965-854c-46db5bc514d2"},"vehicle_type_id":"4","last_reported":1752394404,"current_range_meters":18000,"station_id":"ce4bh412rcd13ifvqds0","pricing_plan_id":"cebpf4jnsgd1na2vs0mg"},{"bike_id":"1aedaa42-1f03-48cc-8e38-d983e72f730b","system_id":"levelo_inurba_marseille","lat":43.270759,"lon":5.422683,"is_reserved":false,"is_disabled":false,"rental_uris":{"android":"levelo://app?vid=1aedaa42-1f03-48cc-8e38-d983e72f730b","ios":"levelo://app?vid=1aedaa42-1f03-48cc-8e38-d983e72f730b"},"vehicle_type_id":"4","last_reported":1752394404,"current_range_meters":18000,"station_id":"ce4bhk92rcd13ifvqgb0","pricing_plan_id":"cebpf4jnsgd1na2vs0mg"},{"bike_id":"e37d8eb0-d581-401b-aee8-91d7dbcf27ad","system_id":"levelo_inurba_marseille","lat":43.29561,"lon":5.42285,"is_reserved":false,"is_disabled":false,"rental_uris":{"android":"levelo://app?vid=e37d8eb0-d581-401b-aee8-91d7dbcf27ad","ios":"levelo://app?vid=e37d8eb0-d581-401b-aee8-91d7dbcf27ad"},"vehicle_type_id":"4","last_reported":1752394404,"current_range_meters":18000,"station_id":"ce4bhph2rcd13ifvqhdg","pricing_plan_id":"cebpf4jnsgd1na2vs0mg"},{"bike_id":"f0f4823e-e110-4f8d-8bbb-8033154eef6c","system_id":"levelo_inurba_marseille","lat":43.29278,"lon":5.36844,"is_reserved":false,"is_disabled":false,"rental_uris":{"android":"levelo://app?vid=f0f4823e-e110-4f8d-8bbb-8033154eef6c","ios":"levelo://app?vid=f0f4823e-e110-4f8d-8bbb-8033154eef6c"},"vehicle_type_id":"4","last_reported":1752394404,"current_range_meters":18000,"station_id":"ce4bhbp2rcd13ifvqesg","pricing_plan_id":"cebpf4jnsgd1na2vs0mg"},{"bike_id":"ece9d047-dc12-4ce6-82bf-fc7ad56a230c","system_id":"levelo_inurba_marseille","lat":43.286153,"lon":5.351118,"is_reserved":false,"is_disabled":true,"rental_uris":{"android":"levelo://app?vid=ece9d047-dc12-4ce6-82bf-fc7ad56a230c","ios":"levelo://app?vid=ece9d047-dc12-4ce6-82bf-fc7ad56a230c"},"vehicle_type_id":"4","last_reported":1752394404,"current_range_meters":18000,"station_id":"ce4bhch2rcd13ifvqeug","pricing_plan_id":"cebpf4jnsgd1na2vs0mg"},{"bike_id":"7d80377e-8c8b-466d-b275-5356b99e3e43","system_id":"levelo_inurba_marseille","lat":43.246553,"lon":5.388895,"is_reserved":false,"is_disabled":false,"rental_uris":{"android":"levelo://app?vid=7d80377e-8c8b-466d-b275-5356b99e3e43","ios":"levelo://app?vid=7d80377e-8c8b-466d-b275-5356b99e3e43"},"vehicle_type_id":"4","last_reported":1752394404,"current_range_meters":18000,"station_id":"ce4bhg12rcd13ifvqf60","pricing_plan_id":"cebpf4jnsgd1na2vs0mg"},{"bike_id":"167d1527-2ad2-4064-bc00-8058a2aad6c0","system_id":"levelo_inurba_marseille","lat":43.29044,"lon":5.39962,"is_reserved":false,"is_disabled":false,"rental_uris":{"android":"levelo://app?vid=167d1527-2ad2-4064-bc00-8058a2aad6c0","ios":"levelo://app?vid=167d1527-2ad2-4064-bc00-8058a2aad6c0"},"vehicle_type_id":"4","last_reported":1752394404,"current_range_meters":18000,"station_id":"ce4bh392rcd13ifvqdm0","pricing_plan_id":"cebpf4jnsgd1na2vs0mg"},{"bike_id":"2ec427da-b403-4a7e-86be-3f48ba535d18","system_id":"levelo_inurba_marseille","lat":43.211928,"lon":5.350759,"is_reserved":false,"is_disabled":false,"rental_uris":{"android":"levelo://app?vid=2ec427da-b403-4a7e-86be-3f48ba535d18","ios":"levelo://app?vid=2ec427da-b403-4a7e-86be-3f48ba535d18"},"vehicle_type_id":"4","last_reported":1752394404,"current_range_meters":18800,"station_id":"st_cvj6sg6p6f1abm77japg","pricing_plan_id":"cebpf4jnsgd1na2vs0mg"},{"bike_id":"1432643b-da75-43c0-9c7e-6ace76e9c02c","system_id":"levelo_inurba_marseille","lat":43.2439,"lon":5.37051,"is_reserved":false,"is_disabled":false,"rental_uris":{"android":"levelo://app?vid=1432643b-da75-43c0-9c7e-6ace76e9c02c","ios":"levelo://app?vid=1432643b-da75-43c0-9c7e-6ace76e9c02c"},"vehicle_type_id":"4","last_reported":1752394404,"current_range_meters":18800,"station_id":"ce4bhhh2rcd13ifvqfk0","pricing_plan_id":"cebpf4jnsgd1na2vs0mg"},{"bike_id":"85d66f82-8967-49c9-b9e9-830c25cdbed3","system_id":"levelo_inurba_marseille","lat":43.26208,"lon":5.37449,"is_reserved":false,"is_disabled":false,"rental_uris":{"android":"levelo://app?vid=85d66f82-8967-49c9-b9e9-830c25cdbed3","ios":"levelo://app?vid=85d66f82-8967-49c9-b9e9-830c25cdbed3"},"vehicle_type_id":"4","last_reported":1752394404,"current_range_meters":18800,"station_id":"ce4bhgp2rcd13ifvqfc0","pricing_plan_id":"cebpf4jnsgd1na2vs0mg"},{"bike_id":"72afe63b-6210-4a4f-84d8-f623c45e8e34","system_id":"levelo_inurba_marseille","lat":43.303236,"lon":5.404411,"is_reserved":false,"is_disabled":false,"rental_uris":{"android":"levelo://app?vid=72afe63b-6210-4a4f-84d8-f623c45e8e34","ios":"levelo://app?vid=72afe63b-6210-4a4f-84d8-f623c45e8e34"},"vehicle_type_id":"4","last_reported":1752394404,"current_range_meters":18800,"station_id":"ce4bh012rcd13ifvqd10","pricing_plan_id":"cebpf4jnsgd1na2vs0mg"},{"bike_id":"91e36618-f857-45af-ac89-91d909da2db3","system_id":"levelo_inurba_marseille","lat":43.29411,"lon":5.38593,"is_reserved":false,"is_disabled":true,"rental_uris":{"android":"levelo://app?vid=91e36618-f857-45af-ac89-91d909da2db3","ios":"levelo://app?vid=91e36618-f857-45af-ac89-91d909da2db3"},"vehicle_type_id":"4","last_reported":1752394404,"current_range_meters":18800,"station_id":"ce4bh2h2rcd13ifvqdh0","pricing_plan_id":"cebpf4jnsgd1na2vs0mg"},{"bike_id":"5de45a62-fae8-48a7-8c13-edb5daf812e3","system_id":"levelo_inurba_marseille","lat":43.2847,"lon":5.384165,"is_reserved":false,"is_disabled":false,"rental_uris":{"android":"levelo://app?vid=5de45a62-fae8-48a7-8c13-edb5daf812e3","ios":"levelo://app?vid=5de45a62-fae8-48a7-8c13-edb5daf812e3"},"vehicle_type_id":"4","last_reported":1752394404,"current_range_meters":18800,"station_id":"ce4bh512rcd13ifvqe3g","pricing_plan_id":"cebpf4jnsgd1na2vs0mg"},{"bike_id":"b053f929-7efb-49cd-9959-74ef096980bb","system_id":"levelo_inurba_marseille","lat":43.292689,"lon":5.368439,"is_reserved":false,"is_disabled":true,"rental_uris":{"android":"levelo://app?vid=b053f929-7efb-49cd-9959-74ef096980bb","ios":"levelo://app?vid=b053f929-7efb-49cd-9959-74ef096980bb"},"vehicle_type_id":"4","last_reported":1752394404,"current_range_meters":18800,"station_id":"ce4bhbp2rcd13ifvqesg","pricing_plan_id":"cebpf4jnsgd1na2vs0mg"},{"bike_id":"65e074d9-7127-4e46-91d5-363b4db5691c","system_id":"levelo_inurba_marseille","lat":43.3089,"lon":5.37172,"is_reserved":false,"is_disabled":false,"rental_uris":{"android":"levelo://app?vid=65e074d9-7127-4e46-91d5-363b4db5691c","ios":"levelo://app?vid=65e074d9-7127-4e46-91d5-363b4db5691c"},"vehicle_type_id":"4","last_reported":1752394404,"current_range_meters":18800,"station_id":"ce4bguh2rcd13ifvqckg","pricing_plan_id":"cebpf4jnsgd1na2vs0mg"},{"bike_id":"fe318ad3-5569-488a-a55f-800be9072933","system_id":"levelo_inurba_marseille","lat":43.2694,"lon":5.40278,"is_reserved":false,"is_disabled":false,"rental_uris":{"android":"levelo://app?vid=fe318ad3-5569-488a-a55f-800be9072933","ios":"levelo://app?vid=fe318ad3-5569-488a-a55f-800be9072933"},"vehicle_type_id":"4","last_reported":1752394404,"current_range_meters":18800,"station_id":"cjm6bp8fraef2m0cb0m0","pricing_plan_id":"cebpf4jnsgd1na2vs0mg"},{"bike_id":"eab9f2a0-ee49-4110-a9bf-1b4a45ecb8f7","system_id":"levelo_inurba_marseille","lat":43.301477,"lon":5.381046,"is_reserved":false,"is_disabled":false,"rental_uris":{"android":"levelo://app?vid=eab9f2a0-ee49-4110-a9bf-1b4a45ecb8f7","ios":"levelo://app?vid=eab9f2a0-ee49-4110-a9bf-1b4a45ecb8f7"},"vehicle_type_id":"4","last_reported":1752394404,"current_range_meters":18800,"station_id":"ce4bgjp2rcd13ifvqbh0","pricing_plan_id":"cebpf4jnsgd1na2vs0mg"},{"bike_id":"530df890-2447-4898-8ed5-0529ed2390ee","system_id":"levelo_inurba_marseille","lat":43.297329,"lon":5.383086,"is_reserved":false,"is_disabled":false,"rental_uris":{"android":"levelo://app?vid=530df890-2447-4898-8ed5-0529ed2390ee","ios":"levelo://app?vid=530df890-2447-4898-8ed5-0529ed2390ee"},"vehicle_type_id":"4","last_reported":1752394404,"current_range_meters":18800,"station_id":"","pricing_plan_id":"cebpf4jnsgd1na2vs0mg"},{"bike_id":"5c0fc7d8-43fe-4ade-9435-39a657901032","system_id":"levelo_inurba_marseille","lat":43.29279,"lon":5.40166,"is_reserved":false,"is_disabled":false,"rental_uris":{"android":"levelo://app?vid=5c0fc7d8-43fe-4ade-9435-39a657901032","ios":"levelo://app?vid=5c0fc7d8-43fe-4ade-9435-39a657901032"},"vehicle_type_id":"4","last_reported":1752394404,"current_range_meters":18800,"station_id":"ce4bh312rcd13ifvqdk0","pricing_plan_id":"cebpf4jnsgd1na2vs0mg"},{"bike_id":"c8c4de1a-846f-4f5b-aace-9fb14bf7ad52","system_id":"levelo_inurba_marseille","lat":43.211924,"lon":5.350731,"is_reserved":false,"is_disabled":false,"rental_uris":{"android":"levelo://app?vid=c8c4de1a-846f-4f5b-aace-9fb14bf7ad52","ios":"levelo://app?vid=c8c4de1a-846f-4f5b-aace-9fb14bf7ad52"},"vehicle_type_id":"4","last_reported":1752394404,"current_range_meters":18800,"station_id":"st_cvj6sg6p6f1abm77japg","pricing_plan_id":"cebpf4jnsgd1na2vs0mg"},{"bike_id":"570cb15a-a61f-47fb-aaf3-b63fd97dbb24","system_id":"levelo_inurba_marseille","lat":43.296441,"lon":5.360016,"is_reserved":false,"is_disabled":false,"rental_uris":{"android":"levelo://app?vid=570cb15a-a61f-47fb-aaf3-b63fd97dbb24","ios":"levelo://app?vid=570cb15a-a61f-47fb-aaf3-b63fd97dbb24"},"vehicle_type_id":"4","last_reported":1752394404,"current_range_meters":19200,"station_id":"","pricing_plan_id":"cebpf4jnsgd1na2vs0mg"},{"bike_id":"1e941a3f-1323-41d5-ab29-2aa1fdfc9eb6","system_id":"levelo_inurba_marseille","lat":43.29056,"lon":5.39992,"is_reserved":false,"is_disabled":false,"rental_uris":{"android":"levelo://app?vid=1e941a3f-1323-41d5-ab29-2aa1fdfc9eb6","ios":"levelo://app?vid=1e941a3f-1323-41d5-ab29-2aa1fdfc9eb6"},"vehicle_type_id":"4","last_reported":1752394404,"current_range_meters":19200,"station_id":"ce4bh392rcd13ifvqdm0","pricing_plan_id":"cebpf4jnsgd1na2vs0mg"},{"bike_id":"857f6de9-a79f-412b-aa41-c99eb4725cbb","system_id":"levelo_inurba_marseille","lat":43.29994,"lon":5.3718,"is_reserved":false,"is_disabled":false,"rental_uris":{"android":"levelo://app?vid=857f6de9-a79f-412b-aa41-c99eb4725cbb","ios":"levelo://app?vid=857f6de9-a79f-412b-aa41-c99eb4725cbb"},"vehicle_type_id":"4","last_reported":1752394404,"current_range_meters":19200,"station_id":"ce4bgr92rcd13ifvqc7g","pricing_plan_id":"cebpf4jnsgd1na2vs0mg"},{"bike_id":"10388035-8e57-4e34-8ec1-559555823a7c","system_id":"levelo_inurba_marseille","lat":43.31328,"lon":5.39699,"is_reserved":false,"is_disabled":false,"rental_uris":{"android":"levelo://app?vid=10388035-8e57-4e34-8ec1-559555823a7c","ios":"levelo://app?vid=10388035-8e57-4e34-8ec1-559555823a7c"},"vehicle_type_id":"4","last_reported":1752394404,"current_range_meters":19200,"station_id":"ce4bgvp2rcd13ifvqcu0","pricing_plan_id":"cebpf4jnsgd1na2vs0mg"},{"bike_id":"e91ced2f-2041-4b38-8446-0d5d97adec95","system_id":"levelo_inurba_marseille","lat":43.255786,"lon":5.382342,"is_reserved":false,"is_disabled":true,"rental_uris":{"android":"levelo://app?vid=e91ced2f-2041-4b38-8446-0d5d97adec95","ios":"levelo://app?vid=e91ced2f-2041-4b38-8446-0d5d97adec95"},"vehicle_type_id":"4","last_reported":1752394404,"current_range_meters":19200,"station_id":"ce4bhih2rcd13ifvqfs0","pricing_plan_id":"cebpf4jnsgd1na2vs0mg"},{"bike_id":"2c8b55a0-7cee-45a1-85ed-4624a2d1076e","system_id":"levelo_inurba_marseille","lat":43.31413,"lon":5.394143,"is_reserved":false,"is_disabled":false,"rental_uris":{"android":"levelo://app?vid=2c8b55a0-7cee-45a1-85ed-4624a2d1076e","ios":"levelo://app?vid=2c8b55a0-7cee-45a1-85ed-4624a2d1076e"},"vehicle_type_id":"4","last_reported":1752394404,"current_range_meters":19200,"station_id":"","pricing_plan_id":"cebpf4jnsgd1na2vs0mg"},{"bike_id":"648ff98c-ac31-4536-b256-2c7a56fb486a","system_id":"levelo_inurba_marseille","lat":43.29282,"lon":5.40109,"is_reserved":false,"is_disabled":false,"rental_uris":{"android":"levelo://app?vid=648ff98c-ac31-4536-b256-2c7a56fb486a","ios":"levelo://app?vid=648ff98c-ac31-4536-b256-2c7a56fb486a"},"vehicle_type_id":"4","last_reported":1752394404,"current_range_meters":19200,"station_id":"ce4bh312rcd13ifvqdk0","pricing_plan_id":"cebpf4jnsgd1na2vs0mg"},{"bike_id":"99ae43ef-9981-41ec-907c-f94f73cc9ad2","system_id":"levelo_inurba_marseille","lat":43.29985,"lon":5.38484,"is_reserved":false,"is_disabled":false,"rental_uris":{"android":"levelo://app?vid=99ae43ef-9981-41ec-907c-f94f73cc9ad2","ios":"levelo://app?vid=99ae43ef-9981-41ec-907c-f94f73cc9ad2"},"vehicle_type_id":"4","last_reported":1752394404,"current_range_meters":19200,"station_id":"ce4bgj92rcd13ifvqbd0","pricing_plan_id":"cebpf4jnsgd1na2vs0mg"},{"bike_id":"b3b271c8-a1a6-454d-b1a0-bb13645aeb85","system_id":"levelo_inurba_marseille","lat":43.30893,"lon":5.371892,"is_reserved":false,"is_disabled":false,"rental_uris":{"android":"levelo://app?vid=b3b271c8-a1a6-454d-b1a0-bb13645aeb85","ios":"levelo://app?vid=b3b271c8-a1a6-454d-b1a0-bb13645aeb85"},"vehicle_type_id":"4","last_reported":1752394404,"current_range_meters":19600,"station_id":"ce4bguh2rcd13ifvqckg","pricing_plan_id":"cebpf4jnsgd1na2vs0mg"},{"bike_id":"1cd657f6-f50d-4724-8a22-13111356d607","system_id":"levelo_inurba_marseille","lat":43.27071,"lon":5.42255,"is_reserved":false,"is_disabled":false,"rental_uris":{"android":"levelo://app?vid=1cd657f6-f50d-4724-8a22-13111356d607","ios":"levelo://app?vid=1cd657f6-f50d-4724-8a22-13111356d607"},"vehicle_type_id":"4","last_reported":1752394404,"current_range_meters":19600,"station_id":"ce4bhk92rcd13ifvqgb0","pricing_plan_id":"cebpf4jnsgd1na2vs0mg"},{"bike_id":"80955d0f-8669-4c02-b90f-c6fe20790c37","system_id":"levelo_inurba_marseille","lat":43.232,"lon":5.35055,"is_reserved":false,"is_disabled":false,"rental_uris":{"android":"levelo://app?vid=80955d0f-8669-4c02-b90f-c6fe20790c37","ios":"levelo://app?vid=80955d0f-8669-4c02-b90f-c6fe20790c37"},"vehicle_type_id":"4","last_reported":1752394404,"current_range_meters":19600,"station_id":"","pricing_plan_id":"cebpf4jnsgd1na2vs0mg"},{"bike_id":"f59f6657-f62a-42fc-a273-bf50a25645d6","system_id":"levelo_inurba_marseille","lat":43.273641,"lon":5.362671,"is_reserved":false,"is_disabled":false,"rental_uris":{"android":"levelo://app?vid=f59f6657-f62a-42fc-a273-bf50a25645d6","ios":"levelo://app?vid=f59f6657-f62a-42fc-a273-bf50a25645d6"},"vehicle_type_id":"4","last_reported":1752394404,"current_range_meters":19600,"station_id":"ce4bhbh2rcd13ifvqeo0","pricing_plan_id":"cebpf4jnsgd1na2vs0mg"},{"bike_id":"23a0fc67-4c39-4b74-8a86-2903d79b1606","system_id":"levelo_inurba_marseille","lat":43.231915,"lon":5.355501,"is_reserved":false,"is_disabled":true,"rental_uris":{"android":"levelo://app?vid=23a0fc67-4c39-4b74-8a86-2903d79b1606","ios":"levelo://app?vid=23a0fc67-4c39-4b74-8a86-2903d79b1606"},"vehicle_type_id":"4","last_reported":1752394404,"current_range_meters":19600,"station_id":"ce4bhu92rcd13ifvqi70","pricing_plan_id":"cebpf4jnsgd1na2vs0mg"},{"bike_id":"f7cf9aab-0ed3-4931-a48c-8d0743d0c0b9","system_id":"levelo_inurba_marseille","lat":43.22927,"lon":5.35365,"is_reserved":false,"is_disabled":true,"rental_uris":{"android":"levelo://app?vid=f7cf9aab-0ed3-4931-a48c-8d0743d0c0b9","ios":"levelo://app?vid=f7cf9aab-0ed3-4931-a48c-8d0743d0c0b9"},"vehicle_type_id":"4","last_reported":1752394404,"current_range_meters":19600,"station_id":"cpo3532slgdg3j2ikp40","pricing_plan_id":"cebpf4jnsgd1na2vs0mg"},{"bike_id":"11c1737e-f69c-4541-96a5-394601308243","system_id":"levelo_inurba_marseille","lat":43.298048,"lon":5.380964,"is_reserved":false,"is_disabled":false,"rental_uris":{"android":"levelo://app?vid=11c1737e-f69c-4541-96a5-394601308243","ios":"levelo://app?vid=11c1737e-f69c-4541-96a5-394601308243"},"vehicle_type_id":"4","last_reported":1752394404,"current_range_meters":19600,"station_id":"","pricing_plan_id":"cebpf4jnsgd1na2vs0mg"},{"bike_id":"bf67854a-fc75-4bbe-84b3-70a770694533","system_id":"levelo_inurba_marseille","lat":43.28948,"lon":5.39644,"is_reserved":false,"is_disabled":true,"rental_uris":{"android":"levelo://app?vid=bf67854a-fc75-4bbe-84b3-70a770694533","ios":"levelo://app?vid=bf67854a-fc75-4bbe-84b3-70a770694533"},"vehicle_type_id":"4","last_reported":1752394404,"current_range_meters":19600,"station_id":"ce4bh3h2rcd13ifvqdn0","pricing_plan_id":"cebpf4jnsgd1na2vs0mg"},{"bike_id":"d8d4cd6b-d88f-4cc5-971c-93348e88d768","system_id":"levelo_inurba_marseille","lat":43.321112,"lon":5.367748,"is_reserved":false,"is_disabled":false,"rental_uris":{"android":"levelo://app?vid=d8d4cd6b-d88f-4cc5-971c-93348e88d768","ios":"levelo://app?vid=d8d4cd6b-d88f-4cc5-971c-93348e88d768"},"vehicle_type_id":"4","last_reported":1752394404,"current_range_meters":19600,"station_id":"ce4bhrh2rcd13ifvqhug","pricing_plan_id":"cebpf4jnsgd1na2vs0mg"},{"bike_id":"2c3c99bf-cf32-4091-9c7c-1387631e831f","system_id":"levelo_inurba_marseille","lat":43.2794,"lon":5.39596,"is_reserved":false,"is_disabled":false,"rental_uris":{"android":"levelo://app?vid=2c3c99bf-cf32-4091-9c7c-1387631e831f","ios":"levelo://app?vid=2c3c99bf-cf32-4091-9c7c-1387631e831f"},"vehicle_type_id":"4","last_reported":1752394404,"current_range_meters":19600,"station_id":"ce4bhf92rcd13ifvqf40","pricing_plan_id":"cebpf4jnsgd1na2vs0mg"},{"bike_id":"697d5fc4-b988-4a4e-8323-c1ce5ed61a61","system_id":"levelo_inurba_marseille","lat":43.21189,"lon":5.35088,"is_reserved":false,"is_disabled":false,"rental_uris":{"android":"levelo://app?vid=697d5fc4-b988-4a4e-8323-c1ce5ed61a61","ios":"levelo://app?vid=697d5fc4-b988-4a4e-8323-c1ce5ed61a61"},"vehicle_type_id":"4","last_reported":1752394404,"current_range_meters":20000,"station_id":"st_cvj6sg6p6f1abm77japg","pricing_plan_id":"cebpf4jnsgd1na2vs0mg"},{"bike_id":"c44e5c2a-1aae-434b-adef-c83ca3b68a1d","system_id":"levelo_inurba_marseille","lat":43.30238,"lon":5.40049,"is_reserved":false,"is_disabled":false,"rental_uris":{"android":"levelo://app?vid=c44e5c2a-1aae-434b-adef-c83ca3b68a1d","ios":"levelo://app?vid=c44e5c2a-1aae-434b-adef-c83ca3b68a1d"},"vehicle_type_id":"4","last_reported":1752394404,"current_range_meters":20000,"station_id":"ce4bgvh2rcd13ifvqcs0","pricing_plan_id":"cebpf4jnsgd1na2vs0mg"},{"bike_id":"6ac174d4-75c5-4a9c-9699-97cd631c6e65","system_id":"levelo_inurba_marseille","lat":43.25459,"lon":5.39935,"is_reserved":false,"is_disabled":false,"rental_uris":{"android":"levelo://app?vid=6ac174d4-75c5-4a9c-9699-97cd631c6e65","ios":"levelo://app?vid=6ac174d4-75c5-4a9c-9699-97cd631c6e65"},"vehicle_type_id":"4","last_reported":1752394404,"current_range_meters":20000,"station_id":"","pricing_plan_id":"cebpf4jnsgd1na2vs0mg"},{"bike_id":"c078f680-b722-4076-a9f9-b720acc6323c","system_id":"levelo_inurba_marseille","lat":43.286144,"lon":5.351064,"is_reserved":false,"is_disabled":false,"rental_uris":{"android":"levelo://app?vid=c078f680-b722-4076-a9f9-b720acc6323c","ios":"levelo://app?vid=c078f680-b722-4076-a9f9-b720acc6323c"},"vehicle_type_id":"4","last_reported":1752394404,"current_range_meters":20000,"station_id":"ce4bhbh2rcd13ifvqeqg","pricing_plan_id":"cebpf4jnsgd1na2vs0mg"},{"bike_id":"a4d07f45-19f9-4df9-9728-be6623530a64","system_id":"levelo_inurba_marseille","lat":43.23699,"lon":5.38862,"is_reserved":false,"is_disabled":false,"rental_uris":{"android":"levelo://app?vid=a4d07f45-19f9-4df9-9728-be6623530a64","ios":"levelo://app?vid=a4d07f45-19f9-4df9-9728-be6623530a64"},"vehicle_type_id":"4","last_reported":1752394404,"current_range_meters":20000,"station_id":"","pricing_plan_id":"cebpf4jnsgd1na2vs0mg"},{"bike_id":"e66ce31b-5bb2-4056-9cd1-34ed82c3f4d4","system_id":"levelo_inurba_marseille","lat":43.313287,"lon":5.396897,"is_reserved":false,"is_disabled":false,"rental_uris":{"android":"levelo://app?vid=e66ce31b-5bb2-4056-9cd1-34ed82c3f4d4","ios":"levelo://app?vid=e66ce31b-5bb2-4056-9cd1-34ed82c3f4d4"},"vehicle_type_id":"4","last_reported":1752394404,"current_range_meters":20000,"station_id":"ce4bgvp2rcd13ifvqcu0","pricing_plan_id":"cebpf4jnsgd1na2vs0mg"},{"bike_id":"736c8338-3beb-4dc1-9360-8b8dcf6c7e4c","system_id":"levelo_inurba_marseille","lat":43.29268,"lon":5.36842,"is_reserved":false,"is_disabled":false,"rental_uris":{"android":"levelo://app?vid=736c8338-3beb-4dc1-9360-8b8dcf6c7e4c","ios":"levelo://app?vid=736c8338-3beb-4dc1-9360-8b8dcf6c7e4c"},"vehicle_type_id":"4","last_reported":1752394404,"current_range_meters":20000,"station_id":"ce4bhbp2rcd13ifvqesg","pricing_plan_id":"cebpf4jnsgd1na2vs0mg"},{"bike_id":"8a01e88a-8371-4085-9838-47ae11897cd3","system_id":"levelo_inurba_marseille","lat":43.28151,"lon":5.4263,"is_reserved":false,"is_disabled":true,"rental_uris":{"android":"levelo://app?vid=8a01e88a-8371-4085-9838-47ae11897cd3","ios":"levelo://app?vid=8a01e88a-8371-4085-9838-47ae11897cd3"},"vehicle_type_id":"4","last_reported":1752394404,"current_range_meters":20000,"station_id":"ce4bhnh2rcd13ifvqgug","pricing_plan_id":"cebpf4jnsgd1na2vs0mg"},{"bike_id":"2d19d972-b2f8-4b7d-83b2-562b024f0784","system_id":"levelo_inurba_marseille","lat":43.2993,"lon":5.36519,"is_reserved":false,"is_disabled":false,"rental_uris":{"android":"levelo://app?vid=2d19d972-b2f8-4b7d-83b2-562b024f0784","ios":"levelo://app?vid=2d19d972-b2f8-4b7d-83b2-562b024f0784"},"vehicle_type_id":"4","last_reported":1752394404,"current_range_meters":20400,"station_id":"ce4bgm92rcd13ifvqbr0","pricing_plan_id":"cebpf4jnsgd1na2vs0mg"},{"bike_id":"ce827b5a-7227-4215-ad07-d6a934e96507","system_id":"levelo_inurba_marseille","lat":43.29576,"lon":5.37524,"is_reserved":false,"is_disabled":false,"rental_uris":{"android":"levelo://app?vid=ce827b5a-7227-4215-ad07-d6a934e96507","ios":"levelo://app?vid=ce827b5a-7227-4215-ad07-d6a934e96507"},"vehicle_type_id":"4","last_reported":1752394404,"current_range_meters":20400,"station_id":"ce4bgh92rcd13ifvqb50","pricing_plan_id":"cebpf4jnsgd1na2vs0mg"},{"bike_id":"e4f60a7e-d35f-404e-924f-8496bc4bb84b","system_id":"levelo_inurba_marseille","lat":43.23189,"lon":5.3998,"is_reserved":false,"is_disabled":false,"rental_uris":{"android":"levelo://app?vid=e4f60a7e-d35f-404e-924f-8496bc4bb84b","ios":"levelo://app?vid=e4f60a7e-d35f-404e-924f-8496bc4bb84b"},"vehicle_type_id":"4","last_reported":1752394404,"current_range_meters":20400,"station_id":"ce4bhn12rcd13ifvqgqg","pricing_plan_id":"cebpf4jnsgd1na2vs0mg"},{"bike_id":"c56d404f-5949-4d6f-8fa1-6fcfbcb5fdfb","system_id":"levelo_inurba_marseille","lat":43.29562,"lon":5.42284,"is_reserved":false,"is_disabled":false,"rental_uris":{"android":"levelo://app?vid=c56d404f-5949-4d6f-8fa1-6fcfbcb5fdfb","ios":"levelo://app?vid=c56d404f-5949-4d6f-8fa1-6fcfbcb5fdfb"},"vehicle_type_id":"4","last_reported":1752394404,"current_range_meters":20400,"station_id":"ce4bhph2rcd13ifvqhdg","pricing_plan_id":"cebpf4jnsgd1na2vs0mg"},{"bike_id":"1afc84cc-faf6-4775-8fde-a11422459898","system_id":"levelo_inurba_marseille","lat":43.28164,"lon":5.42834,"is_reserved":false,"is_disabled":false,"rental_uris":{"android":"levelo://app?vid=1afc84cc-faf6-4775-8fde-a11422459898","ios":"levelo://app?vid=1afc84cc-faf6-4775-8fde-a11422459898"},"vehicle_type_id":"4","last_reported":1752394404,"current_range_meters":20400,"station_id":"","pricing_plan_id":"cebpf4jnsgd1na2vs0mg"},{"bike_id":"76032669-5a05-41a5-8433-ae140af20ad5","system_id":"levelo_inurba_marseille","lat":43.2619,"lon":5.37459,"is_reserved":false,"is_disabled":false,"rental_uris":{"android":"levelo://app?vid=76032669-5a05-41a5-8433-ae140af20ad5","ios":"levelo://app?vid=76032669-5a05-41a5-8433-ae140af20ad5"},"vehicle_type_id":"4","last_reported":1752394404,"current_range_meters":20400,"station_id":"ce4bhgp2rcd13ifvqfc0","pricing_plan_id":"cebpf4jnsgd1na2vs0mg"},{"bike_id":"6807a824-61af-4807-98df-48b92b56d257","system_id":"levelo_inurba_marseille","lat":43.29892,"lon":5.43656,"is_reserved":false,"is_disabled":false,"rental_uris":{"android":"levelo://app?vid=6807a824-61af-4807-98df-48b92b56d257","ios":"levelo://app?vid=6807a824-61af-4807-98df-48b92b56d257"},"vehicle_type_id":"4","last_reported":1752394404,"current_range_meters":20800,"station_id":"ce4bhpp2rcd13ifvqhfg","pricing_plan_id":"cebpf4jnsgd1na2vs0mg"},{"bike_id":"3281c9cc-e9f1-420d-869f-f2cbe28fe420","system_id":"levelo_inurba_marseille","lat":43.28616,"lon":5.35091,"is_reserved":false,"is_disabled":false,"rental_uris":{"android":"levelo://app?vid=3281c9cc-e9f1-420d-869f-f2cbe28fe420","ios":"levelo://app?vid=3281c9cc-e9f1-420d-869f-f2cbe28fe420"},"vehicle_type_id":"4","last_reported":1752394404,"current_range_meters":20800,"station_id":"ce4bhch2rcd13ifvqeug","pricing_plan_id":"cebpf4jnsgd1na2vs0mg"},{"bike_id":"e7c00bf9-d04d-4d1c-88f6-34ff9a3a674b","system_id":"levelo_inurba_marseille","lat":43.28398,"lon":5.37528,"is_reserved":false,"is_disabled":false,"rental_uris":{"android":"levelo://app?vid=e7c00bf9-d04d-4d1c-88f6-34ff9a3a674b","ios":"levelo://app?vid=e7c00bf9-d04d-4d1c-88f6-34ff9a3a674b"},"vehicle_type_id":"4","last_reported":1752394404,"current_range_meters":20800,"station_id":"ce4bh412rcd13ifvqds0","pricing_plan_id":"cebpf4jnsgd1na2vs0mg"},{"bike_id":"7499fc54-ffcd-4522-985f-53ce4e035344","system_id":"levelo_inurba_marseille","lat":43.29559,"lon":5.37504,"is_reserved":false,"is_disabled":false,"rental_uris":{"android":"levelo://app?vid=7499fc54-ffcd-4522-985f-53ce4e035344","ios":"levelo://app?vid=7499fc54-ffcd-4522-985f-53ce4e035344"},"vehicle_type_id":"4","last_reported":1752394404,"current_range_meters":20800,"station_id":"ce4bgh92rcd13ifvqb50","pricing_plan_id":"cebpf4jnsgd1na2vs0mg"},{"bike_id":"41265135-d0cd-42b7-b3c3-d1f31608cf65","system_id":"levelo_inurba_marseille","lat":43.318881,"lon":5.407415,"is_reserved":false,"is_disabled":false,"rental_uris":{"android":"levelo://app?vid=41265135-d0cd-42b7-b3c3-d1f31608cf65","ios":"levelo://app?vid=41265135-d0cd-42b7-b3c3-d1f31608cf65"},"vehicle_type_id":"4","last_reported":1752394404,"current_range_meters":20800,"station_id":"ce4bhq12rcd13ifvqhig","pricing_plan_id":"cebpf4jnsgd1na2vs0mg"},{"bike_id":"7e14717a-e019-4eeb-b54a-ff707e32e902","system_id":"levelo_inurba_marseille","lat":43.31359,"lon":5.38484,"is_reserved":false,"is_disabled":false,"rental_uris":{"android":"levelo://app?vid=7e14717a-e019-4eeb-b54a-ff707e32e902","ios":"levelo://app?vid=7e14717a-e019-4eeb-b54a-ff707e32e902"},"vehicle_type_id":"4","last_reported":1752394404,"current_range_meters":20800,"station_id":"ce4bgt92rcd13ifvqcf0","pricing_plan_id":"cebpf4jnsgd1na2vs0mg"},{"bike_id":"be7496bc-b5b0-468e-8253-c37860a5a769","system_id":"levelo_inurba_marseille","lat":43.298971,"lon":5.436665,"is_reserved":false,"is_disabled":false,"rental_uris":{"android":"levelo://app?vid=be7496bc-b5b0-468e-8253-c37860a5a769","ios":"levelo://app?vid=be7496bc-b5b0-468e-8253-c37860a5a769"},"vehicle_type_id":"4","last_reported":1752394404,"current_range_meters":20800,"station_id":"ce4bhpp2rcd13ifvqhfg","pricing_plan_id":"cebpf4jnsgd1na2vs0mg"},{"bike_id":"1f349fbf-3304-4549-b013-a7f8d2f36115","system_id":"levelo_inurba_marseille","lat":43.29897,"lon":5.43672,"is_reserved":false,"is_disabled":false,"rental_uris":{"android":"levelo://app?vid=1f349fbf-3304-4549-b013-a7f8d2f36115","ios":"levelo://app?vid=1f349fbf-3304-4549-b013-a7f8d2f36115"},"vehicle_type_id":"4","last_reported":1752394404,"current_range_meters":21600,"station_id":"ce4bhpp2rcd13ifvqhfg","pricing_plan_id":"cebpf4jnsgd1na2vs0mg"},{"bike_id":"77d0cf77-ca46-4c39-a650-145dcf7176b2","system_id":"levelo_inurba_marseille","lat":43.31174,"lon":5.3774,"is_reserved":false,"is_disabled":false,"rental_uris":{"android":"levelo://app?vid=77d0cf77-ca46-4c39-a650-145dcf7176b2","ios":"levelo://app?vid=77d0cf77-ca46-4c39-a650-145dcf7176b2"},"vehicle_type_id":"4","last_reported":1752394404,"current_range_meters":21600,"station_id":"ce4bgt92rcd13ifvqcg0","pricing_plan_id":"cebpf4jnsgd1na2vs0mg"},{"bike_id":"4f8f0a62-471b-4c91-9530-f90fa005a134","system_id":"levelo_inurba_marseille","lat":43.286817,"lon":5.386573,"is_reserved":false,"is_disabled":false,"rental_uris":{"android":"levelo://app?vid=4f8f0a62-471b-4c91-9530-f90fa005a134","ios":"levelo://app?vid=4f8f0a62-471b-4c91-9530-f90fa005a134"},"vehicle_type_id":"4","last_reported":1752394404,"current_range_meters":21600,"station_id":"","pricing_plan_id":"cebpf4jnsgd1na2vs0mg"},{"bike_id":"8ef7a6ce-be1b-4bc7-b58f-0ca8300dace4","system_id":"levelo_inurba_marseille","lat":43.313283,"lon":5.396995,"is_reserved":false,"is_disabled":false,"rental_uris":{"android":"levelo://app?vid=8ef7a6ce-be1b-4bc7-b58f-0ca8300dace4","ios":"levelo://app?vid=8ef7a6ce-be1b-4bc7-b58f-0ca8300dace4"},"vehicle_type_id":"4","last_reported":1752394404,"current_range_meters":21600,"station_id":"ce4bgvp2rcd13ifvqcu0","pricing_plan_id":"cebpf4jnsgd1na2vs0mg"},{"bike_id":"71e479f4-838c-44c9-a19e-d1950cd099a6","system_id":"levelo_inurba_marseille","lat":43.27645,"lon":5.42363,"is_reserved":false,"is_disabled":false,"rental_uris":{"android":"levelo://app?vid=71e479f4-838c-44c9-a19e-d1950cd099a6","ios":"levelo://app?vid=71e479f4-838c-44c9-a19e-d1950cd099a6"},"vehicle_type_id":"4","last_reported":1752394404,"current_range_meters":22000,"station_id":"","pricing_plan_id":"cebpf4jnsgd1na2vs0mg"},{"bike_id":"4957df7f-62a8-4d75-9603-37aff8e46626","system_id":"levelo_inurba_marseille","lat":43.30461,"lon":5.37905,"is_reserved":false,"is_disabled":false,"rental_uris":{"android":"levelo://app?vid=4957df7f-62a8-4d75-9603-37aff8e46626","ios":"levelo://app?vid=4957df7f-62a8-4d75-9603-37aff8e46626"},"vehicle_type_id":"4","last_reported":1752394404,"current_range_meters":22000,"station_id":"ce4bgup2rcd13ifvqcn0","pricing_plan_id":"cebpf4jnsgd1na2vs0mg"},{"bike_id":"3666bb63-93a5-4192-8ec1-493cd1fae7a8","system_id":"levelo_inurba_marseille","lat":43.26587,"lon":5.39483,"is_reserved":false,"is_disabled":false,"rental_uris":{"android":"levelo://app?vid=3666bb63-93a5-4192-8ec1-493cd1fae7a8","ios":"levelo://app?vid=3666bb63-93a5-4192-8ec1-493cd1fae7a8"},"vehicle_type_id":"4","last_reported":1752394404,"current_range_meters":22000,"station_id":"","pricing_plan_id":"cebpf4jnsgd1na2vs0mg"},{"bike_id":"84faf2d0-3ca3-4bb3-b811-f87016788d36","system_id":"levelo_inurba_marseille","lat":43.2927,"lon":5.36841,"is_reserved":false,"is_disabled":false,"rental_uris":{"android":"levelo://app?vid=84faf2d0-3ca3-4bb3-b811-f87016788d36","ios":"levelo://app?vid=84faf2d0-3ca3-4bb3-b811-f87016788d36"},"vehicle_type_id":"4","last_reported":1752394404,"current_range_meters":22000,"station_id":"ce4bhbp2rcd13ifvqesg","pricing_plan_id":"cebpf4jnsgd1na2vs0mg"},{"bike_id":"04b9bbde-a145-41e7-a7b0-cd8d25714b9e","system_id":"levelo_inurba_marseille","lat":43.29221,"lon":5.35801,"is_reserved":false,"is_disabled":false,"rental_uris":{"android":"levelo://app?vid=04b9bbde-a145-41e7-a7b0-cd8d25714b9e","ios":"levelo://app?vid=04b9bbde-a145-41e7-a7b0-cd8d25714b9e"},"vehicle_type_id":"4","last_reported":1752394404,"current_range_meters":22000,"station_id":"ce4bhb12rcd13ifvqel0","pricing_plan_id":"cebpf4jnsgd1na2vs0mg"},{"bike_id":"cf070045-79b9-4bb5-83ea-ade964db42fa","system_id":"levelo_inurba_marseille","lat":43.29893,"lon":5.43656,"is_reserved":false,"is_disabled":false,"rental_uris":{"android":"levelo://app?vid=cf070045-79b9-4bb5-83ea-ade964db42fa","ios":"levelo://app?vid=cf070045-79b9-4bb5-83ea-ade964db42fa"},"vehicle_type_id":"4","last_reported":1752394404,"current_range_meters":22000,"station_id":"ce4bhpp2rcd13ifvqhfg","pricing_plan_id":"cebpf4jnsgd1na2vs0mg"},{"bike_id":"98e07cfe-2243-492e-bc6d-b36ca8e1a10e","system_id":"levelo_inurba_marseille","lat":43.24996,"lon":5.38928,"is_reserved":false,"is_disabled":false,"rental_uris":{"android":"levelo://app?vid=98e07cfe-2243-492e-bc6d-b36ca8e1a10e","ios":"levelo://app?vid=98e07cfe-2243-492e-bc6d-b36ca8e1a10e"},"vehicle_type_id":"4","last_reported":1752394404,"current_range_meters":22000,"station_id":"ce4bhgp2rcd13ifvqfd0","pricing_plan_id":"cebpf4jnsgd1na2vs0mg"},{"bike_id":"a6eb6ac9-6fda-469c-a14b-36c911db2fc3","system_id":"levelo_inurba_marseille","lat":43.30532,"lon":5.36698,"is_reserved":false,"is_disabled":false,"rental_uris":{"android":"levelo://app?vid=a6eb6ac9-6fda-469c-a14b-36c911db2fc3","ios":"levelo://app?vid=a6eb6ac9-6fda-469c-a14b-36c911db2fc3"},"vehicle_type_id":"4","last_reported":1752394404,"current_range_meters":22400,"station_id":"ce4bgrp2rcd13ifvqc9g","pricing_plan_id":"cebpf4jnsgd1na2vs0mg"},{"bike_id":"d6662887-40a4-452f-be86-9898680c3f9c","system_id":"levelo_inurba_marseille","lat":43.262322,"lon":5.404503,"is_reserved":false,"is_disabled":false,"rental_uris":{"android":"levelo://app?vid=d6662887-40a4-452f-be86-9898680c3f9c","ios":"levelo://app?vid=d6662887-40a4-452f-be86-9898680c3f9c"},"vehicle_type_id":"4","last_reported":1752394404,"current_range_meters":22400,"station_id":"ce4bhmh2rcd13ifvqgmg","pricing_plan_id":"cebpf4jnsgd1na2vs0mg"},{"bike_id":"ce2033e2-2ddf-471d-a227-e43fb890eb2b","system_id":"levelo_inurba_marseille","lat":43.2955,"lon":5.42271,"is_reserved":false,"is_disabled":false,"rental_uris":{"android":"levelo://app?vid=ce2033e2-2ddf-471d-a227-e43fb890eb2b","ios":"levelo://app?vid=ce2033e2-2ddf-471d-a227-e43fb890eb2b"},"vehicle_type_id":"4","last_reported":1752394404,"current_range_meters":22400,"station_id":"ce4bhph2rcd13ifvqhdg","pricing_plan_id":"cebpf4jnsgd1na2vs0mg"},{"bike_id":"e5d4e254-e6eb-429d-97e2-30f25bfbf429","system_id":"levelo_inurba_marseille","lat":43.3072,"lon":5.42437,"is_reserved":false,"is_disabled":false,"rental_uris":{"android":"levelo://app?vid=e5d4e254-e6eb-429d-97e2-30f25bfbf429","ios":"levelo://app?vid=e5d4e254-e6eb-429d-97e2-30f25bfbf429"},"vehicle_type_id":"4","last_reported":1752394404,"current_range_meters":22400,"station_id":"st_cvj6ca6bvosntc0bfgr0","pricing_plan_id":"cebpf4jnsgd1na2vs0mg"},{"bike_id":"e92055f7-5ccb-4f17-9c8c-7e4a8d9c4cdd","system_id":"levelo_inurba_marseille","lat":43.30134,"lon":5.38091,"is_reserved":false,"is_disabled":false,"rental_uris":{"android":"levelo://app?vid=e92055f7-5ccb-4f17-9c8c-7e4a8d9c4cdd","ios":"levelo://app?vid=e92055f7-5ccb-4f17-9c8c-7e4a8d9c4cdd"},"vehicle_type_id":"4","last_reported":1752394404,"current_range_meters":22400,"station_id":"ce4bgjp2rcd13ifvqbh0","pricing_plan_id":"cebpf4jnsgd1na2vs0mg"},{"bike_id":"9d3163f4-d6e6-4e22-9bea-29e6adad8c8c","system_id":"levelo_inurba_marseille","lat":43.27207,"lon":5.39182,"is_reserved":false,"is_disabled":false,"rental_uris":{"android":"levelo://app?vid=9d3163f4-d6e6-4e22-9bea-29e6adad8c8c","ios":"levelo://app?vid=9d3163f4-d6e6-4e22-9bea-29e6adad8c8c"},"vehicle_type_id":"4","last_reported":1752394404,"current_range_meters":22000,"station_id":"ce4bhhp2rcd13ifvqfm0","pricing_plan_id":"cebpf4jnsgd1na2vs0mg"},{"bike_id":"302c6760-4b26-41d8-991b-909900c10aeb","system_id":"levelo_inurba_marseille","lat":43.246616,"lon":5.381534,"is_reserved":false,"is_disabled":false,"rental_uris":{"android":"levelo://app?vid=302c6760-4b26-41d8-991b-909900c10aeb","ios":"levelo://app?vid=302c6760-4b26-41d8-991b-909900c10aeb"},"vehicle_type_id":"4","last_reported":1752394404,"current_range_meters":22400,"station_id":"ce4bhih2rcd13ifvqfr0","pricing_plan_id":"cebpf4jnsgd1na2vs0mg"},{"bike_id":"b641e4e0-38e8-4900-a70e-ec5d30a79e7d","system_id":"levelo_inurba_marseille","lat":43.299687,"lon":5.385019,"is_reserved":false,"is_disabled":true,"rental_uris":{"android":"levelo://app?vid=b641e4e0-38e8-4900-a70e-ec5d30a79e7d","ios":"levelo://app?vid=b641e4e0-38e8-4900-a70e-ec5d30a79e7d"},"vehicle_type_id":"4","last_reported":1752394404,"current_range_meters":22400,"station_id":"ce4bgj92rcd13ifvqbd0","pricing_plan_id":"cebpf4jnsgd1na2vs0mg"},{"bike_id":"80f5a009-10c9-4601-9d57-401c329290ba","system_id":"levelo_inurba_marseille","lat":43.259397,"lon":5.408966,"is_reserved":false,"is_disabled":false,"rental_uris":{"android":"levelo://app?vid=80f5a009-10c9-4601-9d57-401c329290ba","ios":"levelo://app?vid=80f5a009-10c9-4601-9d57-401c329290ba"},"vehicle_type_id":"4","last_reported":1752394404,"current_range_meters":22800,"station_id":"ce4bhm92rcd13ifvqglg","pricing_plan_id":"cebpf4jnsgd1na2vs0mg"},{"bike_id":"652191f7-f35e-4f46-a45a-6c972b663934","system_id":"levelo_inurba_marseille","lat":43.29035,"lon":5.35604,"is_reserved":false,"is_disabled":false,"rental_uris":{"android":"levelo://app?vid=652191f7-f35e-4f46-a45a-6c972b663934","ios":"levelo://app?vid=652191f7-f35e-4f46-a45a-6c972b663934"},"vehicle_type_id":"4","last_reported":1752394404,"current_range_meters":22800,"station_id":"ce4bhb92rcd13ifvqen0","pricing_plan_id":"cebpf4jnsgd1na2vs0mg"},{"bike_id":"521961d3-d69f-4aac-a0f6-56d4bfc9fc06","system_id":"levelo_inurba_marseille","lat":43.2934,"lon":5.3709,"is_reserved":false,"is_disabled":true,"rental_uris":{"android":"levelo://app?vid=521961d3-d69f-4aac-a0f6-56d4bfc9fc06","ios":"levelo://app?vid=521961d3-d69f-4aac-a0f6-56d4bfc9fc06"},"vehicle_type_id":"4","last_reported":1752394404,"current_range_meters":22800,"station_id":"ce4bgh92rcd13ifvqb40","pricing_plan_id":"cebpf4jnsgd1na2vs0mg"},{"bike_id":"b557b223-dad6-4fea-8f09-4a3a9f8b1c3a","system_id":"levelo_inurba_marseille","lat":43.303078,"lon":5.392024,"is_reserved":false,"is_disabled":true,"rental_uris":{"android":"levelo://app?vid=b557b223-dad6-4fea-8f09-4a3a9f8b1c3a","ios":"levelo://app?vid=b557b223-dad6-4fea-8f09-4a3a9f8b1c3a"},"vehicle_type_id":"4","last_reported":1752394404,"current_range_meters":22800,"station_id":"ce4bgkh2rcd13ifvqbk0","pricing_plan_id":"cebpf4jnsgd1na2vs0mg"},{"bike_id":"8ecdca53-eee9-4c2f-8f7c-3be4a151d0da","system_id":"levelo_inurba_marseille","lat":43.24684,"lon":5.38156,"is_reserved":false,"is_disabled":false,"rental_uris":{"android":"levelo://app?vid=8ecdca53-eee9-4c2f-8f7c-3be4a151d0da","ios":"levelo://app?vid=8ecdca53-eee9-4c2f-8f7c-3be4a151d0da"},"vehicle_type_id":"4","last_reported":1752394404,"current_range_meters":22800,"station_id":"ce4bhih2rcd13ifvqfr0","pricing_plan_id":"cebpf4jnsgd1na2vs0mg"},{"bike_id":"b1bd5733-1234-415f-92fb-862361aea67b","system_id":"levelo_inurba_marseille","lat":43.30309,"lon":5.36899,"is_reserved":false,"is_disabled":false,"rental_uris":{"android":"levelo://app?vid=b1bd5733-1234-415f-92fb-862361aea67b","ios":"levelo://app?vid=b1bd5733-1234-415f-92fb-862361aea67b"},"vehicle_type_id":"4","last_reported":1752394404,"current_range_meters":22800,"station_id":"ce4bgqh2rcd13ifvqc5g","pricing_plan_id":"cebpf4jnsgd1na2vs0mg"},{"bike_id":"526e9160-8278-47b6-b7b7-6f7251933600","system_id":"levelo_inurba_marseille","lat":43.24387,"lon":5.3706,"is_reserved":false,"is_disabled":false,"rental_uris":{"android":"levelo://app?vid=526e9160-8278-47b6-b7b7-6f7251933600","ios":"levelo://app?vid=526e9160-8278-47b6-b7b7-6f7251933600"},"vehicle_type_id":"4","last_reported":1752394404,"current_range_meters":22400,"station_id":"ce4bhhh2rcd13ifvqfk0","pricing_plan_id":"cebpf4jnsgd1na2vs0mg"},{"bike_id":"8e959f96-8fbf-4567-8a05-c91bf03061d0","system_id":"levelo_inurba_marseille","lat":43.30527,"lon":5.38445,"is_reserved":false,"is_disabled":false,"rental_uris":{"android":"levelo://app?vid=8e959f96-8fbf-4567-8a05-c91bf03061d0","ios":"levelo://app?vid=8e959f96-8fbf-4567-8a05-c91bf03061d0"},"vehicle_type_id":"4","last_reported":1752394404,"current_range_meters":22800,"station_id":"ce4bgg92rcd13ifvqb30","pricing_plan_id":"cebpf4jnsgd1na2vs0mg"},{"bike_id":"6c631b38-a881-4cb7-990b-44f74d9f88c9","system_id":"levelo_inurba_marseille","lat":43.25123,"lon":5.40314,"is_reserved":false,"is_disabled":false,"rental_uris":{"android":"levelo://app?vid=6c631b38-a881-4cb7-990b-44f74d9f88c9","ios":"levelo://app?vid=6c631b38-a881-4cb7-990b-44f74d9f88c9"},"vehicle_type_id":"4","last_reported":1752394404,"current_range_meters":22800,"station_id":"ce4bhlh2rcd13ifvqgig","pricing_plan_id":"cebpf4jnsgd1na2vs0mg"},{"bike_id":"a450a0bb-773a-4f4f-879f-bf0318f40533","system_id":"levelo_inurba_marseille","lat":43.30145,"lon":5.38084,"is_reserved":false,"is_disabled":false,"rental_uris":{"android":"levelo://app?vid=a450a0bb-773a-4f4f-879f-bf0318f40533","ios":"levelo://app?vid=a450a0bb-773a-4f4f-879f-bf0318f40533"},"vehicle_type_id":"4","last_reported":1752394404,"current_range_meters":22800,"station_id":"ce4bgjp2rcd13ifvqbh0","pricing_plan_id":"cebpf4jnsgd1na2vs0mg"},{"bike_id":"9c8c07d4-0d6d-43f9-a1ba-443b7600deac","system_id":"levelo_inurba_marseille","lat":43.31486,"lon":5.373,"is_reserved":false,"is_disabled":false,"rental_uris":{"android":"levelo://app?vid=9c8c07d4-0d6d-43f9-a1ba-443b7600deac","ios":"levelo://app?vid=9c8c07d4-0d6d-43f9-a1ba-443b7600deac"},"vehicle_type_id":"4","last_reported":1752394404,"current_range_meters":23200,"station_id":"ce4bgt12rcd13ifvqcd0","pricing_plan_id":"cebpf4jnsgd1na2vs0mg"},