{"last_updated":1706828816,"ttl":30,"version":"2.2","data":{"bikes":[{"bike_id":"27fc1a4d-df73-4c6c-9b89-b086ed941f5e","system_id":"levelo_inurba_marseille","lat":43.312239,"lon":5.368562,"is_reserved":false,"is_disabled":false,"rental_uris":{"android":"levelo://app?vid=27fc1a4d-df73-4c6c-9b89-b086ed941f5e","ios":"levelo://app?vid=27fc1a4d-df73-4c6c-9b89-b086ed941f5e"},"vehicle_type_id":"4","last_reported":1706828816,"current_range_meters":24000,"station_id":"ce4bgl92rcd13ifvqbq0","pricing_plan_id":"free"},{"bike_id":"076f9636-7eba-48df-8456-0c077cc7f174","system_id":"levelo_inurba_marseille","lat":43.312239,"lon":5.368562,"is_reserved":false,"is_disabled":false,"rental_uris":{"android":"levelo://app?vid=076f9636-7eba-48df-8456-0c077cc7f174","ios":"levelo://app?vid=076f9636-7eba-48df-8456-0c077cc7f174"},"vehicle_type_id":"4","last_reported":1706828816,"current_range_meters":27200,"station_id":"ce4bgl92rcd13ifvqbq0","pricing_plan_id":"free"},{"bike_id":"d0480a8f-80c7-4528-952c-57aa86b18d9f","system_id":"levelo_inurba_marseille","lat":43.312338,"lon":5.36863,"is_reserved":false,"is_disabled":false,"rental_uris":{"android":"levelo://app?vid=d0480a8f-80c7-4528-952c-57aa86b18d9f","ios":"levelo://app?vid=d0480a8f-80c7-4528-952c-57aa86b18d9f"},"vehicle_type_id":"4","last_reported":1706828816,"current_range_meters":0,"station_id":"ce4bgl92rcd13ifvqbq0","pricing_plan_id":"free"},{"bike_id":"3a7f311c-a7ef-4019-b708-5ba935abfbfc","system_id":"levelo_inurba_marseille","lat":43.31306,"lon":5.37258,"is_reserved":false,"is_disabled":false,"rental_uris":{"android":"levelo://app?vid=3a7f311c-a7ef-4019-b708-5ba935abfbfc","ios":"levelo://app?vid=3a7f311c-a7ef-4019-b708-5ba935abfbfc"},"vehicle_type_id":"4","last_reported":1706828816,"current_range_meters":17200,"station_id":"","pricing_plan_id":"free"},{"bike_id":"5604a61e-0f8b-48f5-8fab-ecf6010591da","system_id":"levelo_inurba_marseille","lat":43.314811,"lon":5.373103,"is_reserved":false,"is_disabled":false,"rental_uris":{"android":"levelo://app?vid=5604a61e-0f8b-48f5-8fab-ecf6010591da","ios":"levelo://app?vid=5604a61e-0f8b-48f5-8fab-ecf6010591da"},"vehicle_type_id":"4","last_reported":1706828816,"current_range_meters":13200,"station_id":"ce4bgt12rcd13ifvqcd0","pricing_plan_id":"free"},{"bike_id":"b2773d31-104d-433b-83bd-027bfb1a0996","system_id":"levelo_inurba_marseille","lat":43.314811,"lon":5.373103,"is_reserved":false,"is_disabled":false,"rental_uris":{"android":"levelo://app?vid=b2773d31-104d-433b-83bd-027bfb1a0996","ios":"levelo://app?vid=b2773d31-104d-433b-83bd-027bfb1a0996"},"vehicle_type_id":"4","last_reported":1706828816,"current_range_meters":9600,"station_id":"ce4bgt12rcd13ifvqcd0","pricing_plan_id":"free"},{"bike_id":"415525b4-76fe-4f47-a34d-731d474f8ff0","system_id":"levelo_inurba_marseille","lat":43.308884,"lon":5.372029,"is_reserved":false,"is_disabled":false,"rental_uris":{"android":"levelo://app?vid=415525b4-76fe-4f47-a34d-731d474f8ff0","ios":"levelo://app?vid=415525b4-76fe-4f47-a34d-731d474f8ff0"},"vehicle_type_id":"4","last_reported":1706828816,"current_range_meters":19200,"station_id":"","pricing_plan_id":"free"},{"bike_id":"b2b070dd-a99a-4eed-9c11-4cfd26d96364","system_id":"levelo_inurba_marseille","lat":43.309039,"lon":5.371797,"is_reserved":false,"is_disabled":false,"rental_uris":{"android":"levelo://app?vid=b2b070dd-a99a-4eed-9c11-4cfd26d96364","ios":"levelo://app?vid=b2b070dd-a99a-4eed-9c11-4cfd26d96364"},"vehicle_type_id":"4","last_reported":1706828816,"current_range_meters":9600,"station_id":"ce4bguh2rcd13ifvqckg","pricing_plan_id":"free"},{"bike_id":"b265a34e-8222-4686-a170-ce0328dfa344","system_id":"levelo_inurba_marseille","lat":43.305567,"lon":5.366969,"is_reserved":false,"is_disabled":false,"rental_uris":{"android":"levelo://app?vid=b265a34e-8222-4686-a170-ce0328dfa344","ios":"levelo://app?vid=b265a34e-8222-4686-a170-ce0328dfa344"},"vehicle_type_id":"4","last_reported":1706828816,"current_range_meters":20000,"station_id":"ce4bgrp2rcd13ifvqc9g","pricing_plan_id":"free"},{"bike_id":"142e367f-b864-41c3-8721-059900607636","system_id":"levelo_inurba_marseille","lat":43.31116,"lon":5.37762,"is_reserved":false,"is_disabled":false,"rental_uris":{"android":"levelo://app?vid=142e367f-b864-41c3-8721-059900607636","ios":"levelo://app?vid=142e367f-b864-41c3-8721-059900607636"},"vehicle_type_id":"4","last_reported":1706828816,"current_range_meters":4800,"station_id":"ce4bgt92rcd13ifvqcg0","pricing_plan_id":"free"},{"bike_id":"2ce244fc-f499-4936-b1bd-c81241e2145f","system_id":"levelo_inurba_marseille","lat":43.311093,"lon":5.377627,"is_reserved":false,"is_disabled":false,"rental_uris":{"android":"levelo://app?vid=2ce244fc-f499-4936-b1bd-c81241e2145f","ios":"levelo://app?vid=2ce244fc-f499-4936-b1bd-c81241e2145f"},"vehicle_type_id":"4","last_reported":1706828816,"current_range_meters":5600,"station_id":"ce4bgt92rcd13ifvqcg0","pricing_plan_id":"free"},{"bike_id":"b986920d-e544-4b06-89e0-ac4475f6081d","system_id":"levelo_inurba_marseille","lat":43.311125,"lon":5.377624,"is_reserved":false,"is_disabled":false,"rental_uris":{"android":"levelo://app?vid=b986920d-e544-4b06-89e0-ac4475f6081d","ios":"levelo://app?vid=b986920d-e544-4b06-89e0-ac4475f6081d"},"vehicle_type_id":"4","last_reported":1706828816,"current_range_meters":23200,"station_id":"ce4bgt92rcd13ifvqcg0","pricing_plan_id":"free"},{"bike_id":"ef871d11-49c1-4b2f-b217-6f98230d178d","system_id":"levelo_inurba_marseille","lat":43.3111,"lon":5.37769,"is_reserved":false,"is_disabled":false,"rental_uris":{"android":"levelo://app?vid=ef871d11-49c1-4b2f-b217-6f98230d178d","ios":"levelo://app?vid=ef871d11-49c1-4b2f-b217-6f98230d178d"},"vehicle_type_id":"4","last_reported":1706828816,"current_range_meters":1200,"station_id":"ce4bgt92rcd13ifvqcg0","pricing_plan_id":"free"},{"bike_id":"039ee699-e381-472b-be11-6d0529e72a3b","system_id":"levelo_inurba_marseille","lat":43.307945,"lon":5.376487,"is_reserved":false,"is_disabled":false,"rental_uris":{"android":"levelo://app?vid=039ee699-e381-472b-be11-6d0529e72a3b","ios":"levelo://app?vid=039ee699-e381-472b-be11-6d0529e72a3b"},"vehicle_type_id":"4","last_reported":1706828816,"current_range_meters":26400,"station_id":"ce4bgv92rcd13ifvqcq0","pricing_plan_id":"free"},{"bike_id":"ac182a0b-07b5-49c6-a8d3-51d81d6b7592","system_id":"levelo_inurba_marseille","lat":43.31703,"lon":5.37758,"is_reserved":false,"is_disabled":false,"rental_uris":{"android":"levelo://app?vid=ac182a0b-07b5-49c6-a8d3-51d81d6b7592","ios":"levelo://app?vid=ac182a0b-07b5-49c6-a8d3-51d81d6b7592"},"vehicle_type_id":"4","last_reported":1706828816,"current_range_meters":24400,"station_id":"ce4bgth2rcd13ifvqch0","pricing_plan_id":"free"},{"bike_id":"81664e18-79cf-4657-a829-0fa5d7b1ceae","system_id":"levelo_inurba_marseille","lat":43.315293,"lon":5.380349,"is_reserved":false,"is_disabled":false,"rental_uris":{"android":"levelo://app?vid=81664e18-79cf-4657-a829-0fa5d7b1ceae","ios":"levelo://app?vid=81664e18-79cf-4657-a829-0fa5d7b1ceae"},"vehicle_type_id":"4","last_reported":1706828816,"current_range_meters":6800,"station_id":"ce4bhsp2rcd13ifvqi50","pricing_plan_id":"free"},{"bike_id":"36cafc18-9312-47f8-8743-fadef2794582","system_id":"levelo_inurba_marseille","lat":43.301939,"lon":5.366286,"is_reserved":false,"is_disabled":false,"rental_uris":{"android":"levelo://app?vid=36cafc18-9312-47f8-8743-fadef2794582","ios":"levelo://app?vid=36cafc18-9312-47f8-8743-fadef2794582"},"vehicle_type_id":"4","last_reported":1706828816,"current_range_meters":0,"station_id":"ce4bgrh2rcd13ifvqc8g","pricing_plan_id":"free"},{"bike_id":"0d137b08-5f1e-48fc-8eea-d3e89e8bd80a","system_id":"levelo_inurba_marseille","lat":43.301939,"lon":5.366286,"is_reserved":false,"is_disabled":false,"rental_uris":{"android":"levelo://app?vid=0d137b08-5f1e-48fc-8eea-d3e89e8bd80a","ios":"levelo://app?vid=0d137b08-5f1e-48fc-8eea-d3e89e8bd80a"},"vehicle_type_id":"4","last_reported":1706828816,"current_range_meters":13600,"station_id":"ce4bgrh2rcd13ifvqc8g","pricing_plan_id":"free"},{"bike_id":"f4d6f210-7e7b-44ce-93d3-e53a77d84fc5","system_id":"levelo_inurba_marseille","lat":43.301939,"lon":5.366286,"is_reserved":false,"is_disabled":false,"rental_uris":{"android":"levelo://app?vid=f4d6f210-7e7b-44ce-93d3-e53a77d84fc5","ios":"levelo://app?vid=f4d6f210-7e7b-44ce-93d3-e53a77d84fc5"},"vehicle_type_id":"4","last_reported":1706828816,"current_range_meters":0,"station_id":"ce4bgrh2rcd13ifvqc8g","pricing_plan_id":"free"},{"bike_id":"f048518d-d5dc-42d7-8b50-ae9703d40395","system_id":"levelo_inurba_marseille","lat":43.301939,"lon":5.366286,"is_reserved":false,"is_disabled":false,"rental_uris":{"android":"levelo://app?vid=f048518d-d5dc-42d7-8b50-ae9703d40395","ios":"levelo://app?vid=f048518d-d5dc-42d7-8b50-ae9703d40395"},"vehicle_type_id":"4","last_reported":1706828816,"current_range_meters":11200,"station_id":"ce4bgrh2rcd13ifvqc8g","pricing_plan_id":"free"},{"bike_id":"05bcc970-bb00-4c74-82ba-56d2be385f1f","system_id":"levelo_inurba_marseille","lat":43.308012,"lon":5.381511,"is_reserved":false,"is_disabled":false,"rental_uris":{"android":"levelo://app?vid=05bcc970-bb00-4c74-82ba-56d2be385f1f","ios":"levelo://app?vid=05bcc970-bb00-4c74-82ba-56d2be385f1f"},"vehicle_type_id":"4","last_reported":1706828816,"current_range_meters":19600,"station_id":"ce4bgt12rcd13ifvqce0","pricing_plan_id":"free"},{"bike_id":"913b59fd-c2f1-4722-8693-c3993314d595","system_id":"levelo_inurba_marseille","lat":43.31341,"lon":5.367098,"is_reserved":false,"is_disabled":false,"rental_uris":{"android":"levelo://app?vid=913b59fd-c2f1-4722-8693-c3993314d595","ios":"levelo://app?vid=913b59fd-c2f1-4722-8693-c3993314d595"},"vehicle_type_id":"4","last_reported":1706828816,"current_range_meters":24000,"station_id":"ce4bgr92rcd13ifvqc6g","pricing_plan_id":"free"},{"bike_id":"b29aff8a-d845-486d-9610-4eb264c2c178","system_id":"levelo_inurba_marseille","lat":43.30139,"lon":5.37408,"is_reserved":false,"is_disabled":false,"rental_uris":{"android":"levelo://app?vid=b29aff8a-d845-486d-9610-4eb264c2c178","ios":"levelo://app?vid=b29aff8a-d845-486d-9610-4eb264c2c178"},"vehicle_type_id":"4","last_reported":1706828816,"current_range_meters":0,"station_id":"ce4bgs92rcd13ifvqcc0","pricing_plan_id":"free"},{"bike_id":"33aa6591-fee3-4190-8337-a93734a2451e","system_id":"levelo_inurba_marseille","lat":43.319935,"lon":5.381699,"is_reserved":false,"is_disabled":false,"rental_uris":{"android":"levelo://app?vid=33aa6591-fee3-4190-8337-a93734a2451e","ios":"levelo://app?vid=33aa6591-fee3-4190-8337-a93734a2451e"},"vehicle_type_id":"4","last_reported":1706828816,"current_range_meters":25600,"station_id":"ce4bhr12rcd13ifvqhpg","pricing_plan_id":"free"},{"bike_id":"750ede20-1a92-4656-b5f3-684b58e12ed0","system_id":"levelo_inurba_marseille","lat":43.319935,"lon":5.381699,"is_reserved":false,"is_disabled":false,"rental_uris":{"android":"levelo://app?vid=750ede20-1a92-4656-b5f3-684b58e12ed0","ios":"levelo://app?vid=750ede20-1a92-4656-b5f3-684b58e12ed0"},"vehicle_type_id":"4","last_reported":1706828816,"current_range_meters":1200,"station_id":"ce4bhr12rcd13ifvqhpg","pricing_plan_id":"free"},{"bike_id":"d44ce61f-67ef-4d51-b216-d9251b48baa0","system_id":"levelo_inurba_marseille","lat":43.319935,"lon":5.381699,"is_reserved":false,"is_disabled":false,"rental_uris":{"android":"levelo://app?vid=d44ce61f-67ef-4d51-b216-d9251b48baa0","ios":"levelo://app?vid=d44ce61f-67ef-4d51-b216-d9251b48baa0"},"vehicle_type_id":"4","last_reported":1706828816,"current_range_meters":14000,"station_id":"ce4bhr12rcd13ifvqhpg","pricing_plan_id":"free"},{"bike_id":"5d1f62cd-175b-4219-aa13-aee81343a1e5","system_id":"levelo_inurba_marseille","lat":43.319935,"lon":5.381699,"is_reserved":false,"is_disabled":false,"rental_uris":{"android":"levelo://app?vid=5d1f62cd-175b-4219-aa13-aee81343a1e5","ios":"levelo://app?vid=5d1f62cd-175b-4219-aa13-aee81343a1e5"},"vehicle_type_id":"4","last_reported":1706828816,"current_range_meters":17200,"station_id":"ce4bhr12rcd13ifvqhpg","pricing_plan_id":"free"},{"bike_id":"64d78273-fffd-4887-a48e-68932349843e","system_id":"levelo_inurba_marseille","lat":43.319931,"lon":5.381547,"is_reserved":false,"is_disabled":false,"rental_uris":{"android":"levelo://app?vid=64d78273-fffd-4887-a48e-68932349843e","ios":"levelo://app?vid=64d78273-fffd-4887-a48e-68932349843e"},"vehicle_type_id":"4","last_reported":1706828816,"current_range_meters":25200,"station_id":"","pricing_plan_id":"free"},{"bike_id":"0a431524-38b9-4c1b-956e-85b95de4b027","system_id":"levelo_inurba_marseille","lat":43.319935,"lon":5.381699,"is_reserved":false,"is_disabled":false,"rental_uris":{"android":"levelo://app?vid=0a431524-38b9-4c1b-956e-85b95de4b027","ios":"levelo://app?vid=0a431524-38b9-4c1b-956e-85b95de4b027"},"vehicle_type_id":"4","last_reported":1706828816,"current_range_meters":0,"station_id":"ce4bhr12rcd13ifvqhpg","pricing_plan_id":"free"},{"bike_id":"894b44a7-54f7-41b4-bb98-30de2e4f98db","system_id":"levelo_inurba_marseille","lat":43.31373,"lon":5.38477,"is_reserved":false,"is_disabled":false,"rental_uris":{"android":"levelo://app?vid=894b44a7-54f7-41b4-bb98-30de2e4f98db","ios":"levelo://app?vid=894b44a7-54f7-41b4-bb98-30de2e4f98db"},"vehicle_type_id":"4","last_reported":1706828816,"current_range_meters":17600,"station_id":"ce4bgt92rcd13ifvqcf0","pricing_plan_id":"free"},{"bike_id":"1fcae4da-8cd7-4e10-9ac4-ff5117fdf1ae","system_id":"levelo_inurba_marseille","lat":43.313571,"lon":5.384829,"is_reserved":false,"is_disabled":false,"rental_uris":{"android":"levelo://app?vid=1fcae4da-8cd7-4e10-9ac4-ff5117fdf1ae","ios":"levelo://app?vid=1fcae4da-8cd7-4e10-9ac4-ff5117fdf1ae"},"vehicle_type_id":"4","last_reported":1706828816,"current_range_meters":15600,"station_id":"ce4bgt92rcd13ifvqcf0","pricing_plan_id":"free"},{"bike_id":"546cda9e-9885-4871-9a22-8619609ba6f4","system_id":"levelo_inurba_marseille","lat":43.313571,"lon":5.384829,"is_reserved":false,"is_disabled":false,"rental_uris":{"android":"levelo://app?vid=546cda9e-9885-4871-9a22-8619609ba6f4","ios":"levelo://app?vid=546cda9e-9885-4871-9a22-8619609ba6f4"},"vehicle_type_id":"4","last_reported":1706828816,"current_range_meters":18400,"station_id":"ce4bgt92rcd13ifvqcf0","pricing_plan_id":"free"},{"bike_id":"716bdb36-5a6f-4869-81d3-1c0c889a6ebb","system_id":"levelo_inurba_marseille","lat":43.313571,"lon":5.384829,"is_reserved":false,"is_disabled":false,"rental_uris":{"android":"levelo://app?vid=716bdb36-5a6f-4869-81d3-1c0c889a6ebb","ios":"levelo://app?vid=716bdb36-5a6f-4869-81d3-1c0c889a6ebb"},"vehicle_type_id":"4","last_reported":1706828816,"current_range_meters":23200,"station_id":"ce4bgt92rcd13ifvqcf0","pricing_plan_id":"free"},{"bike_id":"181068c1-9b5c-4bda-9a74-8a981c5f5238","system_id":"levelo_inurba_marseille","lat":43.313571,"lon":5.384829,"is_reserved":false,"is_disabled":false,"rental_uris":{"android":"levelo://app?vid=181068c1-9b5c-4bda-9a74-8a981c5f5238","ios":"levelo://app?vid=181068c1-9b5c-4bda-9a74-8a981c5f5238"},"vehicle_type_id":"4","last_reported":1706828816,"current_range_meters":22000,"station_id":"ce4bgt92rcd13ifvqcf0","pricing_plan_id":"free"},{"bike_id":"46c5fcf0-2722-4bbe-a99d-0958e8038721","system_id":"levelo_inurba_marseille","lat":43.313571,"lon":5.384829,"is_reserved":false,"is_disabled":false,"rental_uris":{"android":"levelo://app?vid=46c5fcf0-2722-4bbe-a99d-0958e8038721","ios":"levelo://app?vid=46c5fcf0-2722-4bbe-a99d-0958e8038721"},"vehicle_type_id":"4","last_reported":1706828816,"current_range_meters":3200,"station_id":"ce4bgt92rcd13ifvqcf0","pricing_plan_id":"free"},{"bike_id":"771ce5f7-0d2f-4cba-9bb3-ed0cb9dd8265","system_id":"levelo_inurba_marseille","lat":43.299222,"lon":5.365554,"is_reserved":false,"is_disabled":false,"rental_uris":{"android":"levelo://app?vid=771ce5f7-0d2f-4cba-9bb3-ed0cb9dd8265","ios":"levelo://app?vid=771ce5f7-0d2f-4cba-9bb3-ed0cb9dd8265"},"vehicle_type_id":"4","last_reported":1706828816,"current_range_meters":4400,"station_id":"ce4bgm92rcd13ifvqbr0","pricing_plan_id":"free"},{"bike_id":"a91fb37f-56bf-4c02-a962-dcd811da7a4b","system_id":"levelo_inurba_marseille","lat":43.299222,"lon":5.365554,"is_reserved":false,"is_disabled":false,"rental_uris":{"android":"levelo://app?vid=a91fb37f-56bf-4c02-a962-dcd811da7a4b","ios":"levelo://app?vid=a91fb37f-56bf-4c02-a962-dcd811da7a4b"},"vehicle_type_id":"4","last_reported":1706828816,"current_range_meters":4800,"station_id":"ce4bgm92rcd13ifvqbr0","pricing_plan_id":"free"},{"bike_id":"b318cdb8-9d55-4f3f-8718-1b911a0de292","system_id":"levelo_inurba_marseille","lat":43.299724,"lon":5.371829,"is_reserved":false,"is_disabled":false,"rental_uris":{"android":"levelo://app?vid=b318cdb8-9d55-4f3f-8718-1b911a0de292","ios":"levelo://app?vid=b318cdb8-9d55-4f3f-8718-1b911a0de292"},"vehicle_type_id":"4","last_reported":1706828816,"current_range_meters":2800,"station_id":"ce4bgr92rcd13ifvqc7g","pricing_plan_id":"free"},{"bike_id":"7776c353-0937-4536-a722-a1e55e1de5a0","system_id":"levelo_inurba_marseille","lat":43.299724,"lon":5.371829,"is_reserved":false,"is_disabled":false,"rental_uris":{"android":"levelo://app?vid=7776c353-0937-4536-a722-a1e55e1de5a0","ios":"levelo://app?vid=7776c353-0937-4536-a722-a1e55e1de5a0"},"vehicle_type_id":"4","last_reported":1706828816,"current_range_meters":12000,"station_id":"ce4bgr92rcd13ifvqc7g","pricing_plan_id":"free"},{"bike_id":"6545a79c-4643-45a4-a64d-1aae6c49e1e0","system_id":"levelo_inurba_marseille","lat":43.298433,"lon":5.362774,"is_reserved":false,"is_disabled":false,"rental_uris":{"android":"levelo://app?vid=6545a79c-4643-45a4-a64d-1aae6c49e1e0","ios":"levelo://app?vid=6545a79c-4643-45a4-a64d-1aae6c49e1e0"},"vehicle_type_id":"4","last_reported":1706828816,"current_range_meters":12400,"station_id":"ce4bgpp2rcd13ifvqc3g","pricing_plan_id":"free"},{"bike_id":"4ebcb99c-5a57-4879-8e16-8899834b87cf","system_id":"levelo_inurba_marseille","lat":43.311722,"lon":5.387247,"is_reserved":false,"is_disabled":false,"rental_uris":{"android":"levelo://app?vid=4ebcb99c-5a57-4879-8e16-8899834b87cf","ios":"levelo://app?vid=4ebcb99c-5a57-4879-8e16-8899834b87cf"},"vehicle_type_id":"4","last_reported":1706828816,"current_range_meters":12000,"station_id":"ce4bgv12rcd13ifvqcp0","pricing_plan_id":"free"},{"bike_id":"c28b7c8c-b66b-4d56-90e4-eb4b9db2697c","system_id":"levelo_inurba_marseille","lat":43.311722,"lon":5.387247,"is_reserved":false,"is_disabled":false,"rental_uris":{"android":"levelo://app?vid=c28b7c8c-b66b-4d56-90e4-eb4b9db2697c","ios":"levelo://app?vid=c28b7c8c-b66b-4d56-90e4-eb4b9db2697c"},"vehicle_type_id":"4","last_reported":1706828816,"current_range_meters":12000,"station_id":"ce4bgv12rcd13ifvqcp0","pricing_plan_id":"free"},{"bike_id":"a916cbfb-9a35-49f2-a04c-e25ea80805cf","system_id":"levelo_inurba_marseille","lat":43.311722,"lon":5.387247,"is_reserved":false,"is_disabled":false,"rental_uris":{"android":"levelo://app?vid=a916cbfb-9a35-49f2-a04c-e25ea80805cf","ios":"levelo://app?vid=a916cbfb-9a35-49f2-a04c-e25ea80805cf"},"vehicle_type_id":"4","last_reported":1706828816,"current_range_meters":9600,"station_id":"ce4bgv12rcd13ifvqcp0","pricing_plan_id":"free"},{"bike_id":"ef52ae47-c31c-40ff-91aa-28863c796ca1","system_id":"levelo_inurba_marseille","lat":43.311722,"lon":5.387247,"is_reserved":false,"is_disabled":false,"rental_uris":{"android":"levelo://app?vid=ef52ae47-c31c-40ff-91aa-28863c796ca1","ios":"levelo://app?vid=ef52ae47-c31c-40ff-91aa-28863c796ca1"},"vehicle_type_id":"4","last_reported":1706828816,"current_range_meters":18800,"station_id":"ce4bgv12rcd13ifvqcp0","pricing_plan_id":"free"},{"bike_id":"1ee319aa-4037-484f-a455-a561c1c9a4f6","system_id":"levelo_inurba_marseille","lat":43.311722,"lon":5.387247,"is_reserved":false,"is_disabled":false,"rental_uris":{"android":"levelo://app?vid=1ee319aa-4037-484f-a455-a561c1c9a4f6","ios":"levelo://app?vid=1ee319aa-4037-484f-a455-a561c1c9a4f6"},"vehicle_type_id":"4","last_reported":1706828816,"current_range_meters":18400,"station_id":"ce4bgv12rcd13ifvqcp0","pricing_plan_id":"free"},{"bike_id":"940d5c25-c278-4d1e-927b-fe7584a80c69","system_id":"levelo_inurba_marseille","lat":43.311722,"lon":5.387247,"is_reserved":false,"is_disabled":false,"rental_uris":{"android":"levelo://app?vid=940d5c25-c278-4d1e-927b-fe7584a80c69","ios":"levelo://app?vid=940d5c25-c278-4d1e-927b-fe7584a80c69"},"vehicle_type_id":"4","last_reported":1706828816,"current_range_meters":22400,"station_id":"ce4bgv12rcd13ifvqcp0","pricing_plan_id":"free"},{"bike_id":"ef757f39-e2a9-410f-85f4-cc4eb4b4442c","system_id":"levelo_inurba_marseille","lat":43.311722,"lon":5.387247,"is_reserved":false,"is_disabled":false,"rental_uris":{"android":"levelo://app?vid=ef757f39-e2a9-410f-85f4-cc4eb4b4442c","ios":"levelo://app?vid=ef757f39-e2a9-410f-85f4-cc4eb4b4442c"},"vehicle_type_id":"4","last_reported":1706828816,"current_range_meters":20400,"station_id":"ce4bgv12rcd13ifvqcp0","pricing_plan_id":"free"},{"bike_id":"5432b4d5-6f3f-4046-a600-0c38ec8ae75f","system_id":"levelo_inurba_marseille","lat":43.311722,"lon":5.387247,"is_reserved":false,"is_disabled":false,"rental_uris":{"android":"levelo://app?vid=5432b4d5-6f3f-4046-a600-0c38ec8ae75f","ios":"levelo://app?vid=5432b4d5-6f3f-4046-a600-0c38ec8ae75f"},"vehicle_type_id":"4","last_reported":1706828816,"current_range_meters":22800,"station_id":"ce4bgv12rcd13ifvqcp0","pricing_plan_id":"free"},{"bike_id":"a2b8a8fa-c75d-4bb8-b5fd-4d9ba488990e","system_id":"levelo_inurba_marseille","lat":43.311722,"lon":5.387247,"is_reserved":false,"is_disabled":false,"rental_uris":{"android":"levelo://app?vid=a2b8a8fa-c75d-4bb8-b5fd-4d9ba488990e","ios":"levelo://app?vid=a2b8a8fa-c75d-4bb8-b5fd-4d9ba488990e"},"vehicle_type_id":"4","last_reported":1706828816,"current_range_meters":11600,"station_id":"ce4bgv12rcd13ifvqcp0","pricing_plan_id":"free"},{"bike_id":"f95541eb-976b-4f38-ad83-d526dec7c030","system_id":"levelo_inurba_marseille","lat":43.311722,"lon":5.387247,"is_reserved":false,"is_disabled":false,"rental_uris":{"android":"levelo://app?vid=f95541eb-976b-4f38-ad83-d526dec7c030","ios":"levelo://app?vid=f95541eb-976b-4f38-ad83-d526dec7c030"},"vehicle_type_id":"4","last_reported":1706828816,"current_range_meters":1200,"station_id":"ce4bgv12rcd13ifvqcp0","pricing_plan_id":"free"},{"bike_id":"af72b75a-b540-4f03-b9b8-4248b952a7f0","system_id":"levelo_inurba_marseille","lat":43.297794,"lon":5.370888,"is_reserved":false,"is_disabled":false,"rental_uris":{"android":"levelo://app?vid=af72b75a-b540-4f03-b9b8-4248b952a7f0","ios":"levelo://app?vid=af72b75a-b540-4f03-b9b8-4248b952a7f0"},"vehicle_type_id":"4","last_reported":1706828816,"current_range_meters":4800,"station_id":"ce4bgop2rcd13ifvqc1g","pricing_plan_id":"free"},{"bike_id":"ababc665-0323-4196-966a-430eb84efd6d","system_id":"levelo_inurba_marseille","lat":43.322872,"lon":5.382756,"is_reserved":false,"is_disabled":false,"rental_uris":{"android":"levelo://app?vid=ababc665-0323-4196-966a-430eb84efd6d","ios":"levelo://app?vid=ababc665-0323-4196-966a-430eb84efd6d"},"vehicle_type_id":"4","last_reported":1706828816,"current_range_meters":2800,"station_id":"ce4bhr12rcd13ifvqhqg","pricing_plan_id":"free"},{"bike_id":"04133053-7e22-49fe-9a8e-cfae27a54d05","system_id":"levelo_inurba_marseille","lat":43.322872,"lon":5.382756,"is_reserved":false,"is_disabled":false,"rental_uris":{"android":"levelo://app?vid=04133053-7e22-49fe-9a8e-cfae27a54d05","ios":"levelo://app?vid=04133053-7e22-49fe-9a8e-cfae27a54d05"},"vehicle_type_id":"4","last_reported":1706828816,"current_range_meters":10400,"station_id":"ce4bhr12rcd13ifvqhqg","pricing_plan_id":"free"},{"bike_id":"b43645aa-f2e5-486d-a2fa-bf46e0a03dc2","system_id":"levelo_inurba_marseille","lat":43.322872,"lon":5.382756,"is_reserved":false,"is_disabled":false,"rental_uris":{"android":"levelo://app?vid=b43645aa-f2e5-486d-a2fa-bf46e0a03dc2","ios":"levelo://app?vid=b43645aa-f2e5-486d-a2fa-bf46e0a03dc2"},"vehicle_type_id":"4","last_reported":1706828816,"current_range_meters":13600,"station_id":"ce4bhr12rcd13ifvqhqg","pricing_plan_id":"free"},{"bike_id":"9781ebb3-155f-4467-bcb9-a79d2aadab6e","system_id":"levelo_inurba_marseille","lat":43.322872,"lon":5.382756,"is_reserved":false,"is_disabled":false,"rental_uris":{"android":"levelo://app?vid=9781ebb3-155f-4467-bcb9-a79d2aadab6e","ios":"levelo://app?vid=9781ebb3-155f-4467-bcb9-a79d2aadab6e"},"vehicle_type_id":"4","last_reported":1706828816,"current_range_meters":3600,"station_id":"ce4bhr12rcd13ifvqhqg","pricing_plan_id":"free"},{"bike_id":"b069e964-d710-4a2f-993a-1ab0b01ca06a","system_id":"levelo_inurba_marseille","lat":43.322872,"lon":5.382756,"is_reserved":false,"is_disabled":false,"rental_uris":{"android":"levelo://app?vid=b069e964-d710-4a2f-993a-1ab0b01ca06a","ios":"levelo://app?vid=b069e964-d710-4a2f-993a-1ab0b01ca06a"},"vehicle_type_id":"4","last_reported":1706828816,"current_range_meters":7600,"station_id":"ce4bhr12rcd13ifvqhqg","pricing_plan_id":"free"},{"bike_id":"c5d0d7d5-9b16-4eb0-a7f6-5fa1faf28471","system_id":"levelo_inurba_marseille","lat":43.322872,"lon":5.382756,"is_reserved":false,"is_disabled":false,"rental_uris":{"android":"levelo://app?vid=c5d0d7d5-9b16-4eb0-a7f6-5fa1faf28471","ios":"levelo://app?vid=c5d0d7d5-9b16-4eb0-a7f6-5fa1faf28471"},"vehicle_type_id":"4","last_reported":1706828816,"current_range_meters":5600,"station_id":"ce4bhr12rcd13ifvqhqg","pricing_plan_id":"free"},{"bike_id":"2f814de7-ab89-4e81-bd56-ab00af80498f","system_id":"levelo_inurba_marseille","lat":43.322872,"lon":5.382756,"is_reserved":false,"is_disabled":false,"rental_uris":{"android":"levelo://app?vid=2f814de7-ab89-4e81-bd56-ab00af80498f","ios":"levelo://app?vid=2f814de7-ab89-4e81-bd56-ab00af80498f"},"vehicle_type_id":"4","last_reported":1706828816,"current_range_meters":18400,"station_id":"ce4bhr12rcd13ifvqhqg","pricing_plan_id":"free"},{"bike_id":"b667764d-fe48-4325-becc-a4e6eea43d1a","system_id":"levelo_inurba_marseille","lat":43.322872,"lon":5.382756,"is_reserved":false,"is_disabled":false,"rental_uris":{"android":"levelo://app?vid=b667764d-fe48-4325-becc-a4e6eea43d1a","ios":"levelo://app?vid=b667764d-fe48-4325-becc-a4e6eea43d1a"},"vehicle_type_id":"4","last_reported":1706828816,"current_range_meters":0,"station_id":"ce4bhr12rcd13ifvqhqg","pricing_plan_id":"free"},{"bike_id":"6268e9ea-d457-41cb-b090-f7f91ef35cfb","system_id":"levelo_inurba_marseille","lat":43.322872,"lon":5.382756,"is_reserved":false,"is_disabled":false,"rental_uris":{"android":"levelo://app?vid=6268e9ea-d457-41cb-b090-f7f91ef35cfb","ios":"levelo://app?vid=6268e9ea-d457-41cb-b090-f7f91ef35cfb"},"vehicle_type_id":"4","last_reported":1706828816,"current_range_meters":31200,"station_id":"ce4bhr12rcd13ifvqhqg","pricing_plan_id":"free"},{"bike_id":"498b96a0-ebb3-404c-abdb-d15f53b4ecdb","system_id":"levelo_inurba_marseille","lat":43.297794,"lon":5.370888,"is_reserved":false,"is_disabled":false,"rental_uris":{"android":"levelo://app?vid=498b96a0-ebb3-404c-abdb-d15f53b4ecdb","ios":"levelo://app?vid=498b96a0-ebb3-404c-abdb-d15f53b4ecdb"},"vehicle_type_id":"4","last_reported":1706828816,"current_range_meters":18800,"station_id":"ce4bgop2rcd13ifvqc1g","pricing_plan_id":"free"},{"bike_id":"9efb79d0-e2ba-456d-ba9a-99a10d4c7b7e","system_id":"levelo_inurba_marseille","lat":43.328371,"lon":5.366909,"is_reserved":false,"is_disabled":false,"rental_uris":{"android":"levelo://app?vid=9efb79d0-e2ba-456d-ba9a-99a10d4c7b7e","ios":"levelo://app?vid=9efb79d0-e2ba-456d-ba9a-99a10d4c7b7e"},"vehicle_type_id":"4","last_reported":1706828816,"current_range_meters":18400,"station_id":"ce4bhs92rcd13ifvqi0g","pricing_plan_id":"free"},{"bike_id":"54d2e451-9cd4-400a-bfa8-eb46cefbc970","system_id":"levelo_inurba_marseille","lat":43.328371,"lon":5.366909,"is_reserved":false,"is_disabled":false,"rental_uris":{"android":"levelo://app?vid=54d2e451-9cd4-400a-bfa8-eb46cefbc970","ios":"levelo://app?vid=54d2e451-9cd4-400a-bfa8-eb46cefbc970"},"vehicle_type_id":"4","last_reported":1706828816,"current_range_meters":30000,"station_id":"ce4bhs92rcd13ifvqi0g","pricing_plan_id":"free"},{"bike_id":"70c5a26b-13a3-45d7-9c1e-ce7ba2616316","system_id":"levelo_inurba_marseille","lat":43.297163,"lon":5.365866,"is_reserved":false,"is_disabled":false,"rental_uris":{"android":"levelo://app?vid=70c5a26b-13a3-45d7-9c1e-ce7ba2616316","ios":"levelo://app?vid=70c5a26b-13a3-45d7-9c1e-ce7ba2616316"},"vehicle_type_id":"4","last_reported":1706828816,"current_range_meters":23600,"station_id":"ce4bgn12rcd13ifvqbt0","pricing_plan_id":"free"},{"bike_id":"91e4a9b0-eeb2-4ca0-8344-b7bea19909cb","system_id":"levelo_inurba_marseille","lat":43.297163,"lon":5.365866,"is_reserved":false,"is_disabled":false,"rental_uris":{"android":"levelo://app?vid=91e4a9b0-eeb2-4ca0-8344-b7bea19909cb","ios":"levelo://app?vid=91e4a9b0-eeb2-4ca0-8344-b7bea19909cb"},"vehicle_type_id":"4","last_reported":1706828816,"current_range_meters":4000,"station_id":"ce4bgn12rcd13ifvqbt0","pricing_plan_id":"free"},{"bike_id":"1f5afd81-b7b9-4ca7-8ac1-5be0ae939e34","system_id":"levelo_inurba_marseille","lat":43.2968,"lon":5.37291,"is_reserved":false,"is_disabled":false,"rental_uris":{"android":"levelo://app?vid=1f5afd81-b7b9-4ca7-8ac1-5be0ae939e34","ios":"levelo://app?vid=1f5afd81-b7b9-4ca7-8ac1-5be0ae939e34"},"vehicle_type_id":"4","last_reported":1706828816,"current_range_meters":31200,"station_id":"ce4bgk12rcd13ifvqbj0","pricing_plan_id":"free"},{"bike_id":"9f123490-797c-48bf-b0fe-6381975956a5","system_id":"levelo_inurba_marseille","lat":43.31751,"lon":5.38907,"is_reserved":false,"is_disabled":false,"rental_uris":{"android":"levelo://app?vid=9f123490-797c-48bf-b0fe-6381975956a5","ios":"levelo://app?vid=9f123490-797c-48bf-b0fe-6381975956a5"},"vehicle_type_id":"4","last_reported":1706828816,"current_range_meters":22400,"station_id":"","pricing_plan_id":"free"},{"bike_id":"a4054f50-0cf9-41d3-a2d3-07486e41b127","system_id":"levelo_inurba_marseille","lat":43.296193,"lon":5.37204,"is_reserved":false,"is_disabled":false,"rental_uris":{"android":"levelo://app?vid=a4054f50-0cf9-41d3-a2d3-07486e41b127","ios":"levelo://app?vid=a4054f50-0cf9-41d3-a2d3-07486e41b127"},"vehicle_type_id":"4","last_reported":1706828816,"current_range_meters":2800,"station_id":"ce4bgnh2rcd13ifvqc0g","pricing_plan_id":"free"},{"bike_id":"fba8f1ce-1af3-4c2e-b41f-531c50a370ee","system_id":"levelo_inurba_marseille","lat":43.3176,"lon":5.39013,"is_reserved":false,"is_disabled":false,"rental_uris":{"android":"levelo://app?vid=fba8f1ce-1af3-4c2e-b41f-531c50a370ee","ios":"levelo://app?vid=fba8f1ce-1af3-4c2e-b41f-531c50a370ee"},"vehicle_type_id":"4","last_reported":1706828816,"current_range_meters":3200,"station_id":"ce4bhqp2rcd13ifvqhng","pricing_plan_id":"free"},{"bike_id":"646447d3-b90a-4c79-80bc-61cfee8e1fb0","system_id":"levelo_inurba_marseille","lat":43.31761,"lon":5.39013,"is_reserved":false,"is_disabled":false,"rental_uris":{"android":"levelo://app?vid=646447d3-b90a-4c79-80bc-61cfee8e1fb0","ios":"levelo://app?vid=646447d3-b90a-4c79-80bc-61cfee8e1fb0"},"vehicle_type_id":"4","last_reported":1706828816,"current_range_meters":0,"station_id":"ce4bhqp2rcd13ifvqhng","pricing_plan_id":"free"},{"bike_id":"e4c2a1d8-9cdf-46e8-8829-03ab00272a79","system_id":"levelo_inurba_marseille","lat":43.31749,"lon":5.3902,"is_reserved":false,"is_disabled":false,"rental_uris":{"android":"levelo://app?vid=e4c2a1d8-9cdf-46e8-8829-03ab00272a79","ios":"levelo://app?vid=e4c2a1d8-9cdf-46e8-8829-03ab00272a79"},"vehicle_type_id":"4","last_reported":1706828816,"current_range_meters":6800,"station_id":"ce4bhqp2rcd13ifvqhng","pricing_plan_id":"free"},{"bike_id":"ae8f0e56-9237-4255-b933-26929014c570","system_id":"levelo_inurba_marseille","lat":43.317546,"lon":5.390184,"is_reserved":false,"is_disabled":false,"rental_uris":{"android":"levelo://app?vid=ae8f0e56-9237-4255-b933-26929014c570","ios":"levelo://app?vid=ae8f0e56-9237-4255-b933-26929014c570"},"vehicle_type_id":"4","last_reported":1706828816,"current_range_meters":16800,"station_id":"ce4bhqp2rcd13ifvqhng","pricing_plan_id":"free"},{"bike_id":"aa663c48-37b4-4ba5-b319-6ef7e3057f9d","system_id":"levelo_inurba_marseille","lat":43.304278,"lon":5.388868,"is_reserved":false,"is_disabled":false,"rental_uris":{"android":"levelo://app?vid=aa663c48-37b4-4ba5-b319-6ef7e3057f9d","ios":"levelo://app?vid=aa663c48-37b4-4ba5-b319-6ef7e3057f9d"},"vehicle_type_id":"4","last_reported":1706828816,"current_range_meters":0,"station_id":"ce4bgk12rcd13ifvqbi0","pricing_plan_id":"free"},{"bike_id":"5a4b3500-7f0d-4d6e-b814-f73948313311","system_id":"levelo_inurba_marseille","lat":43.304274,"lon":5.388873,"is_reserved":false,"is_disabled":false,"rental_uris":{"android":"levelo://app?vid=5a4b3500-7f0d-4d6e-b814-f73948313311","ios":"levelo://app?vid=5a4b3500-7f0d-4d6e-b814-f73948313311"},"vehicle_type_id":"4","last_reported":1706828816,"current_range_meters":5200,"station_id":"ce4bgk12rcd13ifvqbi0","pricing_plan_id":"free"},{"bike_id":"67272d4c-5d0c-4edf-a12e-1790b8a03d98","system_id":"levelo_inurba_marseille","lat":43.314585,"lon":5.392097,"is_reserved":false,"is_disabled":false,"rental_uris":{"android":"levelo://app?vid=67272d4c-5d0c-4edf-a12e-1790b8a03d98","ios":"levelo://app?vid=67272d4c-5d0c-4edf-a12e-1790b8a03d98"},"vehicle_type_id":"4","last_reported":1706828816,"current_range_meters":15200,"station_id":"","pricing_plan_id":"free"},{"bike_id":"64d73643-9416-4dbd-9eeb-d923837f9503","system_id":"levelo_inurba_marseille","lat":43.29521,"lon":5.375,"is_reserved":false,"is_disabled":false,"rental_uris":{"android":"levelo://app?vid=64d73643-9416-4dbd-9eeb-d923837f9503","ios":"levelo://app?vid=64d73643-9416-4dbd-9eeb-d923837f9503"},"vehicle_type_id":"4","last_reported":1706828816,"current_range_meters":0,"station_id":"ce4bgkp2rcd13ifvqbmg","pricing_plan_id":"free"},{"bike_id":"6e55640f-07de-4793-b182-64148c454651","system_id":"levelo_inurba_marseille","lat":43.309589,"lon":5.390258,"is_reserved":false,"is_disabled":false,"rental_uris":{"android":"levelo://app?vid=6e55640f-07de-4793-b182-64148c454651","ios":"levelo://app?vid=6e55640f-07de-4793-b182-64148c454651"},"vehicle_type_id":"4","last_reported":1706828816,"current_range_meters":20000,"station_id":"ce4bgup2rcd13ifvqco0","pricing_plan_id":"free"},{"bike_id":"91bf415b-9a86-4d0e-9b08-c5ab512cce5a","system_id":"levelo_inurba_marseille","lat":43.29939,"lon":5.38523,"is_reserved":false,"is_disabled":false,"rental_uris":{"android":"levelo://app?vid=91bf415b-9a86-4d0e-9b08-c5ab512cce5a","ios":"levelo://app?vid=91bf415b-9a86-4d0e-9b08-c5ab512cce5a"},"vehicle_type_id":"4","last_reported":1706828816,"current_range_meters":0,"station_id":"ce4bgj92rcd13ifvqbd0","pricing_plan_id":"free"},{"bike_id":"ba6df169-e42e-41e1-9099-8133b958ca2c","system_id":"levelo_inurba_marseille","lat":43.32367,"lon":5.388836,"is_reserved":false,"is_disabled":false,"rental_uris":{"android":"levelo://app?vid=ba6df169-e42e-41e1-9099-8133b958ca2c","ios":"levelo://app?vid=ba6df169-e42e-41e1-9099-8133b958ca2c"},"vehicle_type_id":"4","last_reported":1706828816,"current_range_meters":4400,"station_id":"ce4bhqp2rcd13ifvqhog","pricing_plan_id":"free"},{"bike_id":"2a37d63c-d71d-4e9b-a9b7-8c3c2525a16f","system_id":"levelo_inurba_marseille","lat":43.32367,"lon":5.388836,"is_reserved":false,"is_disabled":false,"rental_uris":{"android":"levelo://app?vid=2a37d63c-d71d-4e9b-a9b7-8c3c2525a16f","ios":"levelo://app?vid=2a37d63c-d71d-4e9b-a9b7-8c3c2525a16f"},"vehicle_type_id":"4","last_reported":1706828816,"current_range_meters":4800,"station_id":"ce4bhqp2rcd13ifvqhog","pricing_plan_id":"free"},{"bike_id":"7ab581a0-3933-4376-b965-8072a9b2dd64","system_id":"levelo_inurba_marseille","lat":43.32367,"lon":5.388836,"is_reserved":false,"is_disabled":false,"rental_uris":{"android":"levelo://app?vid=7ab581a0-3933-4376-b965-8072a9b2dd64","ios":"levelo://app?vid=7ab581a0-3933-4376-b965-8072a9b2dd64"},"vehicle_type_id":"4","last_reported":1706828816,"current_range_meters":3200,"station_id":"ce4bhqp2rcd13ifvqhog","pricing_plan_id":"free"},{"bike_id":"df49dca8-eff4-4fb6-b5ec-7abf9e25044f","system_id":"levelo_inurba_marseille","lat":43.32367,"lon":5.388836,"is_reserved":false,"is_disabled":false,"rental_uris":{"android":"levelo://app?vid=df49dca8-eff4-4fb6-b5ec-7abf9e25044f","ios":"levelo://app?vid=df49dca8-eff4-4fb6-b5ec-7abf9e25044f"},"vehicle_type_id":"4","last_reported":1706828816,"current_range_meters":13200,"station_id":"ce4bhqp2rcd13ifvqhog","pricing_plan_id":"free"},{"bike_id":"50e7ecc8-37e3-4fdf-8029-d6592c9bdba6","system_id":"levelo_inurba_marseille","lat":43.32367,"lon":5.388836,"is_reserved":false,"is_disabled":false,"rental_uris":{"android":"levelo://app?vid=50e7ecc8-37e3-4fdf-8029-d6592c9bdba6","ios":"levelo://app?vid=50e7ecc8-37e3-4fdf-8029-d6592c9bdba6"},"vehicle_type_id":"4","last_reported":1706828816,"current_range_meters":9200,"station_id":"ce4bhqp2rcd13ifvqhog","pricing_plan_id":"free"},{"bike_id":"d245749e-1cc3-4f73-8b63-addd261ec499","system_id":"levelo_inurba_marseille","lat":43.32367,"lon":5.388836,"is_reserved":false,"is_disabled":false,"rental_uris":{"android":"levelo://app?vid=d245749e-1cc3-4f73-8b63-addd261ec499","ios":"levelo://app?vid=d245749e-1cc3-4f73-8b63-addd261ec499"},"vehicle_type_id":"4","last_reported":1706828816,"current_range_meters":4800,"station_id":"ce4bhqp2rcd13ifvqhog","pricing_plan_id":"free"},{"bike_id":"5118de90-c727-4c12-bf98-99f5b63d7830","system_id":"levelo_inurba_marseille","lat":43.32367,"lon":5.388836,"is_reserved":false,"is_disabled":false,"rental_uris":{"android":"levelo://app?vid=5118de90-c727-4c12-bf98-99f5b63d7830","ios":"levelo://app?vid=5118de90-c727-4c12-bf98-99f5b63d7830"},"vehicle_type_id":"4","last_reported":1706828816,"current_range_meters":4400,"station_id":"ce4bhqp2rcd13ifvqhog","pricing_plan_id":"free"},{"bike_id":"7ec023d8-344e-4098-b35f-d434cfb9c3fa","system_id":"levelo_inurba_marseille","lat":43.32367,"lon":5.388836,"is_reserved":false,"is_disabled":false,"rental_uris":{"android":"levelo://app?vid=7ec023d8-344e-4098-b35f-d434cfb9c3fa","ios":"levelo://app?vid=7ec023d8-344e-4098-b35f-d434cfb9c3fa"},"vehicle_type_id":"4","last_reported":1706828816,"current_range_meters":15200,"station_id":"ce4bhqp2rcd13ifvqhog","pricing_plan_id":"free"},{"bike_id":"efa6bd51-c94f-4107-9e97-437d3697b8cb","system_id":"levelo_inurba_marseille","lat":43.32367,"lon":5.388836,"is_reserved":false,"is_disabled":false,"rental_uris":{"android":"levelo://app?vid=efa6bd51-c94f-4107-9e97-437d3697b8cb","ios":"levelo://app?vid=efa6bd51-c94f-4107-9e97-437d3697b8cb"},"vehicle_type_id":"4","last_reported":1706828816,"current_range_meters":5200,"station_id":"ce4bhqp2rcd13ifvqhog","pricing_plan_id":"free"},{"bike_id":"8a95fa2d-22e9-49e9-b83e-c425ecfb1916","system_id":"levelo_inurba_marseille","lat":43.32371,"lon":5.388821,"is_reserved":false,"is_disabled":false,"rental_uris":{"android":"levelo://app?vid=8a95fa2d-22e9-49e9-b83e-c425ecfb1916","ios":"levelo://app?vid=8a95fa2d-22e9-49e9-b83e-c425ecfb1916"},"vehicle_type_id":"4","last_reported":1706828816,"current_range_meters":25600,"station_id":"ce4bhqp2rcd13ifvqhog","pricing_plan_id":"free"},{"bike_id":"a92fecb2-cce1-45fa-a6c6-174b16ca62fa","system_id":"levelo_inurba_marseille","lat":43.32367,"lon":5.388836,"is_reserved":false,"is_disabled":false,"rental_uris":{"android":"levelo://app?vid=a92fecb2-cce1-45fa-a6c6-174b16ca62fa","ios":"levelo://app?vid=a92fecb2-cce1-45fa-a6c6-174b16ca62fa"},"vehicle_type_id":"4","last_reported":1706828816,"current_range_meters":20000,"station_id":"ce4bhqp2rcd13ifvqhog","pricing_plan_id":"free"},{"bike_id":"78e54708-26d6-4641-ba3a-56fab91b7e0e","system_id":"levelo_inurba_marseille","lat":43.29601,"lon":5.381084,"is_reserved":false,"is_disabled":false,"rental_uris":{"android":"levelo://app?vid=78e54708-26d6-4641-ba3a-56fab91b7e0e","ios":"levelo://app?vid=78e54708-26d6-4641-ba3a-56fab91b7e0e"},"vehicle_type_id":"4","last_reported":1706828816,"current_range_meters":0,"station_id":"ce4bgl12rcd13ifvqbo0","pricing_plan_id":"free"},{"bike_id":"b4b16144-62c4-466d-a1bc-60ceadfcc9a6","system_id":"levelo_inurba_marseille","lat":43.323517,"lon":5.389698,"is_reserved":false,"is_disabled":false,"rental_uris":{"android":"levelo://app?vid=b4b16144-62c4-466d-a1bc-60ceadfcc9a6","ios":"levelo://app?vid=b4b16144-62c4-466d-a1bc-60ceadfcc9a6"},"vehicle_type_id":"4","last_reported":1706828816,"current_range_meters":18800,"station_id":"","pricing_plan_id":"free"},{"bike_id":"237b1e42-478c-4370-b1ca-0dcb89e5b62b","system_id":"levelo_inurba_marseille","lat":43.292749,"lon":5.368402,"is_reserved":false,"is_disabled":false,"rental_uris":{"android":"levelo://app?vid=237b1e42-478c-4370-b1ca-0dcb89e5b62b","ios":"levelo://app?vid=237b1e42-478c-4370-b1ca-0dcb89e5b62b"},"vehicle_type_id":"4","last_reported":1706828816,"current_range_meters":0,"station_id":"ce4bhbp2rcd13ifvqesg","pricing_plan_id":"free"},{"bike_id":"e24f47ef-b561-4690-a248-f1c286430a3d","system_id":"levelo_inurba_marseille","lat":43.305994,"lon":5.393687,"is_reserved":false,"is_disabled":false,"rental_uris":{"android":"levelo://app?vid=e24f47ef-b561-4690-a248-f1c286430a3d","ios":"levelo://app?vid=e24f47ef-b561-4690-a248-f1c286430a3d"},"vehicle_type_id":"4","last_reported":1706828816,"current_range_meters":10800,"station_id":"ce4bh0p2rcd13ifvqd80","pricing_plan_id":"free"},{"bike_id":"5b91db53-0950-4ef3-9888-f3eaad765f45","system_id":"levelo_inurba_marseille","lat":43.2936,"lon":5.37835,"is_reserved":false,"is_disabled":false,"rental_uris":{"android":"levelo://app?vid=5b91db53-0950-4ef3-9888-f3eaad765f45","ios":"levelo://app?vid=5b91db53-0950-4ef3-9888-f3eaad765f45"},"vehicle_type_id":"4","last_reported":1706828816,"current_range_meters":5200,"station_id":"ce4bgjh2rcd13ifvqbf0","pricing_plan_id":"free"},{"bike_id":"7cfc304f-5209-483e-a4d0-488e06f5bb18","system_id":"levelo_inurba_marseille","lat":43.291675,"lon":5.371583,"is_reserved":false,"is_disabled":false,"rental_uris":{"android":"levelo://app?vid=7cfc304f-5209-483e-a4d0-488e06f5bb18","ios":"levelo://app?vid=7cfc304f-5209-483e-a4d0-488e06f5bb18"},"vehicle_type_id":"4","last_reported":1706828816,"current_range_meters":0,"station_id":"ce4bha92rcd13ifvqeh0","pricing_plan_id":"free"},{"bike_id":"3cb84d99-a630-4d0d-b151-4386949045dd","system_id":"levelo_inurba_marseille","lat":43.298764,"lon":5.388973,"is_reserved":false,"is_disabled":false,"rental_uris":{"android":"levelo://app?vid=3cb84d99-a630-4d0d-b151-4386949045dd","ios":"levelo://app?vid=3cb84d99-a630-4d0d-b151-4386949045dd"},"vehicle_type_id":"4","last_reported":1706828816,"current_range_meters":3200,"station_id":"ce4bh392rcd13ifvqdl0","pricing_plan_id":"free"},{"bike_id":"8bbf5a05-d181-4735-a693-3f896fa63df7","system_id":"levelo_inurba_marseille","lat":43.291994,"lon":5.357886,"is_reserved":false,"is_disabled":false,"rental_uris":{"android":"levelo://app?vid=8bbf5a05-d181-4735-a693-3f896fa63df7","ios":"levelo://app?vid=8bbf5a05-d181-4735-a693-3f896fa63df7"},"vehicle_type_id":"4","last_reported":1706828816,"current_range_meters":11200,"station_id":"ce4bhb12rcd13ifvqel0","pricing_plan_id":"free"},{"bike_id":"6c89bae1-942b-48ad-b5ba-aace7c5ee035","system_id":"levelo_inurba_marseille","lat":43.309047,"lon":5.396551,"is_reserved":false,"is_disabled":false,"rental_uris":{"android":"levelo://app?vid=6c89bae1-942b-48ad-b5ba-aace7c5ee035","ios":"levelo://app?vid=6c89bae1-942b-48ad-b5ba-aace7c5ee035"},"vehicle_type_id":"4","last_reported":1706828816,"current_range_meters":21600,"station_id":"ce4bh012rcd13ifvqcv0","pricing_plan_id":"free"},{"bike_id":"7890cfde-8d4e-449d-ba19-8d40b6428c90","system_id":"levelo_inurba_marseille","lat":43.31327,"lon":5.39688,"is_reserved":false,"is_disabled":false,"rental_uris":{"android":"levelo://app?vid=7890cfde-8d4e-449d-ba19-8d40b6428c90","ios":"levelo://app?vid=7890cfde-8d4e-449d-ba19-8d40b6428c90"},"vehicle_type_id":"4","last_reported":1706828816,"current_range_meters":6400,"station_id":"ce4bgvp2rcd13ifvqcu0","pricing_plan_id":"free"},{"bike_id":"87727315-b2e8-4741-8513-c6fa9f41bf10","system_id":"levelo_inurba_marseille","lat":43.31328,"lon":5.39688,"is_reserved":false,"is_disabled":false,"rental_uris":{"android":"levelo://app?vid=87727315-b2e8-4741-8513-c6fa9f41bf10","ios":"levelo://app?vid=87727315-b2e8-4741-8513-c6fa9f41bf10"},"vehicle_type_id":"4","last_reported":1706828816,"current_range_meters":6400,"station_id":"ce4bgvp2rcd13ifvqcu0","pricing_plan_id":"free"},{"bike_id":"da7ac8f2-882f-498e-82b3-621fabfbfcc3","system_id":"levelo_inurba_marseille","lat":43.309038,"lon":5.396546,"is_reserved":false,"is_disabled":false,"rental_uris":{"android":"levelo://app?vid=da7ac8f2-882f-498e-82b3-621fabfbfcc3","ios":"levelo://app?vid=da7ac8f2-882f-498e-82b3-621fabfbfcc3"},"vehicle_type_id":"4","last_reported":1706828816,"current_range_meters":16400,"station_id":"ce4bh012rcd13ifvqcv0","pricing_plan_id":"free"},{"bike_id":"fd1ccdb4-b72e-4037-9e33-7d5f31ad140c","system_id":"levelo_inurba_marseille","lat":43.313241,"lon":5.396884,"is_reserved":false,"is_disabled":false,"rental_uris":{"android":"levelo://app?vid=fd1ccdb4-b72e-4037-9e33-7d5f31ad140c","ios":"levelo://app?vid=fd1ccdb4-b72e-4037-9e33-7d5f31ad140c"},"vehicle_type_id":"4","last_reported":1706828816,"current_range_meters":14400,"station_id":"ce4bgvp2rcd13ifvqcu0","pricing_plan_id":"free"},{"bike_id":"f448e916-3647-423b-a728-5f525867e401","system_id":"levelo_inurba_marseille","lat":43.313345,"lon":5.396886,"is_reserved":false,"is_disabled":false,"rental_uris":{"android":"levelo://app?vid=f448e916-3647-423b-a728-5f525867e401","ios":"levelo://app?vid=f448e916-3647-423b-a728-5f525867e401"},"vehicle_type_id":"4","last_reported":1706828816,"current_range_meters":5200,"station_id":"ce4bgvp2rcd13ifvqcu0","pricing_plan_id":"free"},{"bike_id":"3b9dd3a2-44b0-42b0-bc41-7c67164478b9","system_id":"levelo_inurba_marseille","lat":43.31328,"lon":5.39689,"is_reserved":false,"is_disabled":false,"rental_uris":{"android":"levelo://app?vid=3b9dd3a2-44b0-42b0-bc41-7c67164478b9","ios":"levelo://app?vid=3b9dd3a2-44b0-42b0-bc41-7c67164478b9"},"vehicle_type_id":"4","last_reported":1706828816,"current_range_meters":0,"station_id":"ce4bgvp2rcd13ifvqcu0","pricing_plan_id":"free"},{"bike_id":"7f911037-81fc-42db-a46e-20ae80ece393","system_id":"levelo_inurba_marseille","lat":43.3133,"lon":5.39689,"is_reserved":false,"is_disabled":false,"rental_uris":{"android":"levelo://app?vid=7f911037-81fc-42db-a46e-20ae80ece393","ios":"levelo://app?vid=7f911037-81fc-42db-a46e-20ae80ece393"},"vehicle_type_id":"4","last_reported":1706828816,"current_range_meters":4800,"station_id":"ce4bgvp2rcd13ifvqcu0","pricing_plan_id":"free"},{"bike_id":"aafdb0b4-4077-4c4c-aec9-9ec5ca1fc30b","system_id":"levelo_inurba_marseille","lat":43.31322,"lon":5.3969,"is_reserved":false,"is_disabled":false,"rental_uris":{"android":"levelo://app?vid=aafdb0b4-4077-4c4c-aec9-9ec5ca1fc30b","ios":"levelo://app?vid=aafdb0b4-4077-4c4c-aec9-9ec5ca1fc30b"},"vehicle_type_id":"4","last_reported":1706828816,"current_range_meters":0,"station_id":"ce4bgvp2rcd13ifvqcu0","pricing_plan_id":"free"},{"bike_id":"9bca7773-0269-4da2-84e2-2245ac834de6","system_id":"levelo_inurba_marseille","lat":43.31325,"lon":5.39691,"is_reserved":false,"is_disabled":false,"rental_uris":{"android":"levelo://app?vid=9bca7773-0269-4da2-84e2-2245ac834de6","ios":"levelo://app?vid=9bca7773-0269-4da2-84e2-2245ac834de6"},"vehicle_type_id":"4","last_reported":1706828816,"current_range_meters":2800,"station_id":"ce4bgvp2rcd13ifvqcu0","pricing_plan_id":"free"},{"bike_id":"eb402e66-ea55-41c3-88f1-8afbe8afb56e","system_id":"levelo_inurba_marseille","lat":43.31325,"lon":5.39692,"is_reserved":false,"is_disabled":false,"rental_uris":{"android":"levelo://app?vid=eb402e66-ea55-41c3-88f1-8afbe8afb56e","ios":"levelo://app?vid=eb402e66-ea55-41c3-88f1-8afbe8afb56e"},"vehicle_type_id":"4","last_reported":1706828816,"current_range_meters":2000,"station_id":"ce4bgvp2rcd13ifvqcu0","pricing_plan_id":"free"},{"bike_id":"a78cc2da-28af-4a67-adfa-a375f706f786","system_id":"levelo_inurba_marseille","lat":43.291994,"lon":5.357886,"is_reserved":false,"is_disabled":false,"rental_uris":{"android":"levelo://app?vid=a78cc2da-28af-4a67-adfa-a375f706f786","ios":"levelo://app?vid=a78cc2da-28af-4a67-adfa-a375f706f786"},"vehicle_type_id":"4","last_reported":1706828816,"current_range_meters":0,"station_id":"ce4bhb12rcd13ifvqel0","pricing_plan_id":"free"},{"bike_id":"47c8a294-ecbc-42d4-968a-2cb02760f62d","system_id":"levelo_inurba_marseille","lat":43.309047,"lon":5.396551,"is_reserved":false,"is_disabled":false,"rental_uris":{"android":"levelo://app?vid=47c8a294-ecbc-42d4-968a-2cb02760f62d","ios":"levelo://app?vid=47c8a294-ecbc-42d4-968a-2cb02760f62d"},"vehicle_type_id":"4","last_reported":1706828816,"current_range_meters":0,"station_id":"ce4bh012rcd13ifvqcv0","pricing_plan_id":"free"},{"bike_id":"b64ad6af-0121-4082-bd0f-850233b40b7e","system_id":"levelo_inurba_marseille","lat":43.309038,"lon":5.396546,"is_reserved":false,"is_disabled":false,"rental_uris":{"android":"levelo://app?vid=b64ad6af-0121-4082-bd0f-850233b40b7e","ios":"levelo://app?vid=b64ad6af-0121-4082-bd0f-850233b40b7e"},"vehicle_type_id":"4","last_reported":1706828816,"current_range_meters":20000,"station_id":"ce4bh012rcd13ifvqcv0","pricing_plan_id":"free"},{"bike_id":"4e4365e4-a262-4917-9c3a-1ce9d4fd8b13","system_id":"levelo_inurba_marseille","lat":43.313598,"lon":5.396952,"is_reserved":false,"is_disabled":false,"rental_uris":{"android":"levelo://app?vid=4e4365e4-a262-4917-9c3a-1ce9d4fd8b13","ios":"levelo://app?vid=4e4365e4-a262-4917-9c3a-1ce9d4fd8b13"},"vehicle_type_id":"4","last_reported":1706828816,"current_range_meters":4400,"station_id":"ce4bgvp2rcd13ifvqcu0","pricing_plan_id":"free"},{"bike_id":"b67d32b6-d53a-4bc3-ac8e-4086407151f4","system_id":"levelo_inurba_marseille","lat":43.313275,"lon":5.39697,"is_reserved":false,"is_disabled":false,"rental_uris":{"android":"levelo://app?vid=b67d32b6-d53a-4bc3-ac8e-4086407151f4","ios":"levelo://app?vid=b67d32b6-d53a-4bc3-ac8e-4086407151f4"},"vehicle_type_id":"4","last_reported":1706828816,"current_range_meters":2800,"station_id":"ce4bgvp2rcd13ifvqcu0","pricing_plan_id":"free"},{"bike_id":"87989443-7fa3-4b52-a83a-15f62c484860","system_id":"levelo_inurba_marseille","lat":43.31326,"lon":5.397,"is_reserved":false,"is_disabled":false,"rental_uris":{"android":"levelo://app?vid=87989443-7fa3-4b52-a83a-15f62c484860","ios":"levelo://app?vid=87989443-7fa3-4b52-a83a-15f62c484860"},"vehicle_type_id":"4","last_reported":1706828816,"current_range_meters":29200,"station_id":"ce4bgvp2rcd13ifvqcu0","pricing_plan_id":"free"},{"bike_id":"d1e7c951-0167-4573-8549-04712c158928","system_id":"levelo_inurba_marseille","lat":43.309038,"lon":5.396546,"is_reserved":false,"is_disabled":false,"rental_uris":{"android":"levelo://app?vid=d1e7c951-0167-4573-8549-04712c158928","ios":"levelo://app?vid=d1e7c951-0167-4573-8549-04712c158928"},"vehicle_type_id":"4","last_reported":1706828816,"current_range_meters":18400,"station_id":"ce4bh012rcd13ifvqcv0","pricing_plan_id":"free"},{"bike_id":"7ef4f39b-f01e-4e5a-ad48-2d3c0afda74b","system_id":"levelo_inurba_marseille","lat":43.30884,"lon":5.39656,"is_reserved":false,"is_disabled":false,"rental_uris":{"android":"levelo://app?vid=7ef4f39b-f01e-4e5a-ad48-2d3c0afda74b","ios":"levelo://app?vid=7ef4f39b-f01e-4e5a-ad48-2d3c0afda74b"},"vehicle_type_id":"4","last_reported":1706828816,"current_range_meters":1600,"station_id":"ce4bh012rcd13ifvqcv0","pricing_plan_id":"free"},{"bike_id":"dbfd0b7a-e3c7-4123-9e1c-14f29e62a319","system_id":"levelo_inurba_marseille","lat":43.29529,"lon":5.385581,"is_reserved":false,"is_disabled":false,"rental_uris":{"android":"levelo://app?vid=dbfd0b7a-e3c7-4123-9e1c-14f29e62a319","ios":"levelo://app?vid=dbfd0b7a-e3c7-4123-9e1c-14f29e62a319"},"vehicle_type_id":"4","last_reported":1706828816,"current_range_meters":2400,"station_id":"ce4bgih2rcd13ifvqba0","pricing_plan_id":"free"},{"bike_id":"cbd4b627-f6e9-467f-a762-6ac7ef472770","system_id":"levelo_inurba_marseille","lat":43.29529,"lon":5.385581,"is_reserved":false,"is_disabled":false,"rental_uris":{"android":"levelo://app?vid=cbd4b627-f6e9-467f-a762-6ac7ef472770","ios":"levelo://app?vid=cbd4b627-f6e9-467f-a762-6ac7ef472770"},"vehicle_type_id":"4","last_reported":1706828816,"current_range_meters":11200,"station_id":"ce4bgih2rcd13ifvqba0","pricing_plan_id":"free"},{"bike_id":"87f346ed-bfc3-40a8-995b-0c1363fb1aaa","system_id":"levelo_inurba_marseille","lat":43.29529,"lon":5.38545,"is_reserved":false,"is_disabled":false,"rental_uris":{"android":"levelo://app?vid=87f346ed-bfc3-40a8-995b-0c1363fb1aaa","ios":"levelo://app?vid=87f346ed-bfc3-40a8-995b-0c1363fb1aaa"},"vehicle_type_id":"4","last_reported":1706828816,"current_range_meters":0,"station_id":"ce4bgih2rcd13ifvqba0","pricing_plan_id":"free"},{"bike_id":"74b381b2-4847-47b5-a503-bf2ec563a87d","system_id":"levelo_inurba_marseille","lat":43.290624,"lon":5.359245,"is_reserved":false,"is_disabled":false,"rental_uris":{"android":"levelo://app?vid=74b381b2-4847-47b5-a503-bf2ec563a87d","ios":"levelo://app?vid=74b381b2-4847-47b5-a503-bf2ec563a87d"},"vehicle_type_id":"4","last_reported":1706828816,"current_range_meters":15200,"station_id":"ce4bha92rcd13ifvqeg0","pricing_plan_id":"free"},{"bike_id":"0d0aa71d-13e3-4847-b4f1-03b40cdcccfe","system_id":"levelo_inurba_marseille","lat":43.290624,"lon":5.359245,"is_reserved":false,"is_disabled":false,"rental_uris":{"android":"levelo://app?vid=0d0aa71d-13e3-4847-b4f1-03b40cdcccfe","ios":"levelo://app?vid=0d0aa71d-13e3-4847-b4f1-03b40cdcccfe"},"vehicle_type_id":"4","last_reported":1706828816,"current_range_meters":0,"station_id":"ce4bha92rcd13ifvqeg0","pricing_plan_id":"free"},{"bike_id":"7276a488-8476-4b04-8177-8e6ec1880bf8","system_id":"levelo_inurba_marseille","lat":43.302008,"lon":5.394694,"is_reserved":false,"is_disabled":false,"rental_uris":{"android":"levelo://app?vid=7276a488-8476-4b04-8177-8e6ec1880bf8","ios":"levelo://app?vid=7276a488-8476-4b04-8177-8e6ec1880bf8"},"vehicle_type_id":"4","last_reported":1706828816,"current_range_meters":24400,"station_id":"ce4bh0p2rcd13ifvqd70","pricing_plan_id":"free"},{"bike_id":"de08b6e8-b8e9-4cf2-abee-074ad04dbc96","system_id":"levelo_inurba_marseille","lat":43.290624,"lon":5.359245,"is_reserved":false,"is_disabled":false,"rental_uris":{"android":"levelo://app?vid=de08b6e8-b8e9-4cf2-abee-074ad04dbc96","ios":"levelo://app?vid=de08b6e8-b8e9-4cf2-abee-074ad04dbc96"},"vehicle_type_id":"4","last_reported":1706828816,"current_range_meters":15600,"station_id":"ce4bha92rcd13ifvqeg0","pricing_plan_id":"free"},{"bike_id":"5cccaa3a-8b18-4508-a20f-13b822480392","system_id":"levelo_inurba_marseille","lat":43.290624,"lon":5.359245,"is_reserved":false,"is_disabled":false,"rental_uris":{"android":"levelo://app?vid=5cccaa3a-8b18-4508-a20f-13b822480392","ios":"levelo://app?vid=5cccaa3a-8b18-4508-a20f-13b822480392"},"vehicle_type_id":"4","last_reported":1706828816,"current_range_meters":31200,"station_id":"ce4bha92rcd13ifvqeg0","pricing_plan_id":"free"},{"bike_id":"c21eef3d-38f9-42e7-a6dd-8568eaa9f349","system_id":"levelo_inurba_marseille","lat":43.290631,"lon":5.359244,"is_reserved":false,"is_disabled":false,"rental_uris":{"android":"levelo://app?vid=c21eef3d-38f9-42e7-a6dd-8568eaa9f349","ios":"levelo://app?vid=c21eef3d-38f9-42e7-a6dd-8568eaa9f349"},"vehicle_type_id":"4","last_reported":1706828816,"current_range_meters":14000,"station_id":"ce4bha92rcd13ifvqeg0","pricing_plan_id":"free"},{"bike_id":"2c1e47ad-3478-424c-8c66-23a600b1f0dc","system_id":"levelo_inurba_marseille","lat":43.290441,"lon":5.359123,"is_reserved":false,"is_disabled":false,"rental_uris":{"android":"levelo://app?vid=2c1e47ad-3478-424c-8c66-23a600b1f0dc","ios":"levelo://app?vid=2c1e47ad-3478-424c-8c66-23a600b1f0dc"},"vehicle_type_id":"4","last_reported":1706828816,"current_range_meters":8800,"station_id":"","pricing_plan_id":"free"},{"bike_id":"7ad32f80-a9ed-420a-8c5b-f4ff02737342","system_id":"levelo_inurba_marseille","lat":43.290631,"lon":5.359244,"is_reserved":false,"is_disabled":false,"rental_uris":{"android":"levelo://app?vid=7ad32f80-a9ed-420a-8c5b-f4ff02737342","ios":"levelo://app?vid=7ad32f80-a9ed-420a-8c5b-f4ff02737342"},"vehicle_type_id":"4","last_reported":1706828816,"current_range_meters":24000,"station_id":"ce4bha92rcd13ifvqeg0","pricing_plan_id":"free"},{"bike_id":"7bc323cf-eb8b-4576-90d1-45ca85e3b58c","system_id":"levelo_inurba_marseille","lat":43.290624,"lon":5.359245,"is_reserved":false,"is_disabled":false,"rental_uris":{"android":"levelo://app?vid=7bc323cf-eb8b-4576-90d1-45ca85e3b58c","ios":"levelo://app?vid=7bc323cf-eb8b-4576-90d1-45ca85e3b58c"},"vehicle_type_id":"4","last_reported":1706828816,"current_range_meters":24000,"station_id":"ce4bha92rcd13ifvqeg0","pricing_plan_id":"free"},{"bike_id":"6c7be141-7772-461f-b145-baabdf0c1f24","system_id":"levelo_inurba_marseille","lat":43.290631,"lon":5.359244,"is_reserved":false,"is_disabled":false,"rental_uris":{"android":"levelo://app?vid=6c7be141-7772-461f-b145-baabdf0c1f24","ios":"levelo://app?vid=6c7be141-7772-461f-b145-baabdf0c1f24"},"vehicle_type_id":"4","last_reported":1706828816,"current_range_meters":23200,"station_id":"ce4bha92rcd13ifvqeg0","pricing_plan_id":"free"},{"bike_id":"93552d75-c273-4764-a055-d32d1e1042ec","system_id":"levelo_inurba_marseille","lat":43.290319,"lon":5.375732,"is_reserved":false,"is_disabled":false,"rental_uris":{"android":"levelo://app?vid=93552d75-c273-4764-a055-d32d1e1042ec","ios":"levelo://app?vid=93552d75-c273-4764-a055-d32d1e1042ec"},"vehicle_type_id":"4","last_reported":1706828816,"current_range_meters":0,"station_id":"ce4bh692rcd13ifvqe90","pricing_plan_id":"free"},{"bike_id":"1d1712de-9f2d-4bc2-a55d-95c40b67ef78","system_id":"levelo_inurba_marseille","lat":43.294162,"lon":5.386292,"is_reserved":false,"is_disabled":false,"rental_uris":{"android":"levelo://app?vid=1d1712de-9f2d-4bc2-a55d-95c40b67ef78","ios":"levelo://app?vid=1d1712de-9f2d-4bc2-a55d-95c40b67ef78"},"vehicle_type_id":"4","last_reported":1706828816,"current_range_meters":8400,"station_id":"ce4bh2h2rcd13ifvqdh0","pricing_plan_id":"free"},{"bike_id":"aa0e1393-0984-410a-9404-e334d86c20cc","system_id":"levelo_inurba_marseille","lat":43.29416,"lon":5.38625,"is_reserved":false,"is_disabled":false,"rental_uris":{"android":"levelo://app?vid=aa0e1393-0984-410a-9404-e334d86c20cc","ios":"levelo://app?vid=aa0e1393-0984-410a-9404-e334d86c20cc"},"vehicle_type_id":"4","last_reported":1706828816,"current_range_meters":0,"station_id":"ce4bh2h2rcd13ifvqdh0","pricing_plan_id":"free"},{"bike_id":"67fe4afa-5a13-478d-9ca2-c203ca2214b0","system_id":"levelo_inurba_marseille","lat":43.289184,"lon":5.366408,"is_reserved":false,"is_disabled":false,"rental_uris":{"android":"levelo://app?vid=67fe4afa-5a13-478d-9ca2-c203ca2214b0","ios":"levelo://app?vid=67fe4afa-5a13-478d-9ca2-c203ca2214b0"},"vehicle_type_id":"4","last_reported":1706828816,"current_range_meters":0,"station_id":"ce4bhap2rcd13ifvqek0","pricing_plan_id":"free"},{"bike_id":"2cb05ded-ceb3-4814-bd99-7ffd8b252461","system_id":"levelo_inurba_marseille","lat":43.289184,"lon":5.366408,"is_reserved":false,"is_disabled":false,"rental_uris":{"android":"levelo://app?vid=2cb05ded-ceb3-4814-bd99-7ffd8b252461","ios":"levelo://app?vid=2cb05ded-ceb3-4814-bd99-7ffd8b252461"},"vehicle_type_id":"4","last_reported":1706828816,"current_range_meters":0,"station_id":"ce4bhap2rcd13ifvqek0","pricing_plan_id":"free"},{"bike_id":"116fa44b-79be-436d-bd67-87f350dfdee0","system_id":"levelo_inurba_marseille","lat":43.289468,"lon":5.363719,"is_reserved":false,"is_disabled":false,"rental_uris":{"android":"levelo://app?vid=116fa44b-79be-436d-bd67-87f350dfdee0","ios":"levelo://app?vid=116fa44b-79be-436d-bd67-87f350dfdee0"},"vehicle_type_id":"4","last_reported":1706828816,"current_range_meters":28000,"station_id":"ce4bhc92rcd13ifvqetg","pricing_plan_id":"free"},{"bike_id":"dbc72d67-f1e4-4c4b-8338-ca3ec3b8085d","system_id":"levelo_inurba_marseille","lat":43.289468,"lon":5.363719,"is_reserved":false,"is_disabled":false,"rental_uris":{"android":"levelo://app?vid=dbc72d67-f1e4-4c4b-8338-ca3ec3b8085d","ios":"levelo://app?vid=dbc72d67-f1e4-4c4b-8338-ca3ec3b8085d"},"vehicle_type_id":"4","last_reported":1706828816,"current_range_meters":9200,"station_id":"ce4bhc92rcd13ifvqetg","pricing_plan_id":"free"},{"bike_id":"b0c58f94-81dd-4919-aef7-11df3eedefa1","system_id":"levelo_inurba_marseille","lat":43.289468,"lon":5.363719,"is_reserved":false,"is_disabled":false,"rental_uris":{"android":"levelo://app?vid=b0c58f94-81dd-4919-aef7-11df3eedefa1","ios":"levelo://app?vid=b0c58f94-81dd-4919-aef7-11df3eedefa1"},"vehicle_type_id":"4","last_reported":1706828816,"current_range_meters":4800,"station_id":"ce4bhc92rcd13ifvqetg","pricing_plan_id":"free"},{"bike_id":"4296de31-39b4-442b-bc3c-4fd545dd3ed9","system_id":"levelo_inurba_marseille","lat":43.304274,"lon":5.397513,"is_reserved":false,"is_disabled":false,"rental_uris":{"android":"levelo://app?vid=4296de31-39b4-442b-bc3c-4fd545dd3ed9","ios":"levelo://app?vid=4296de31-39b4-442b-bc3c-4fd545dd3ed9"},"vehicle_type_id":"4","last_reported":1706828816,"current_range_meters":26800,"station_id":"ce4bh092rcd13ifvqd20","pricing_plan_id":"free"},{"bike_id":"54a19e4a-0765-4285-b600-0077533ca5b9","system_id":"levelo_inurba_marseille","lat":43.304274,"lon":5.397513,"is_reserved":false,"is_disabled":false,"rental_uris":{"android":"levelo://app?vid=54a19e4a-0765-4285-b600-0077533ca5b9","ios":"levelo://app?vid=54a19e4a-0765-4285-b600-0077533ca5b9"},"vehicle_type_id":"4","last_reported":1706828816,"current_range_meters":4800,"station_id":"ce4bh092rcd13ifvqd20","pricing_plan_id":"free"},{"bike_id":"75b6e8e6-efda-4bc9-95f5-ee09429214f5","system_id":"levelo_inurba_marseille","lat":43.304296,"lon":5.397513,"is_reserved":false,"is_disabled":false,"rental_uris":{"android":"levelo://app?vid=75b6e8e6-efda-4bc9-95f5-ee09429214f5","ios":"levelo://app?vid=75b6e8e6-efda-4bc9-95f5-ee09429214f5"},"vehicle_type_id":"4","last_reported":1706828816,"current_range_meters":30800,"station_id":"ce4bh092rcd13ifvqd20","pricing_plan_id":"free"},{"bike_id":"53494036-26a1-474d-a7c9-6ea425d3786b","system_id":"levelo_inurba_marseille","lat":43.29261,"lon":5.3845,"is_reserved":false,"is_disabled":false,"rental_uris":{"android":"levelo://app?vid=53494036-26a1-474d-a7c9-6ea425d3786b","ios":"levelo://app?vid=53494036-26a1-474d-a7c9-6ea425d3786b"},"vehicle_type_id":"4","last_reported":1706828816,"current_range_meters":0,"station_id":"ce4bh692rcd13ifvqea0","pricing_plan_id":"free"},{"bike_id":"fccdb17e-f1b6-444b-8c2b-fea4de984e85","system_id":"levelo_inurba_marseille","lat":43.29008,"lon":5.356175,"is_reserved":false,"is_disabled":false,"rental_uris":{"android":"levelo://app?vid=fccdb17e-f1b6-444b-8c2b-fea4de984e85","ios":"levelo://app?vid=fccdb17e-f1b6-444b-8c2b-fea4de984e85"},"vehicle_type_id":"4","last_reported":1706828816,"current_range_meters":22000,"station_id":"ce4bhb92rcd13ifvqen0","pricing_plan_id":"free"},{"bike_id":"93ade44b-2a51-4c8a-b182-b427ac53a566","system_id":"levelo_inurba_marseille","lat":43.29247,"lon":5.384537,"is_reserved":false,"is_disabled":false,"rental_uris":{"android":"levelo://app?vid=93ade44b-2a51-4c8a-b182-b427ac53a566","ios":"levelo://app?vid=93ade44b-2a51-4c8a-b182-b427ac53a566"},"vehicle_type_id":"4","last_reported":1706828816,"current_range_meters":0,"station_id":"ce4bh692rcd13ifvqea0","pricing_plan_id":"free"},{"bike_id":"340e413c-433b-4b84-9618-83595c94d952","system_id":"levelo_inurba_marseille","lat":43.297853,"lon":5.393395,"is_reserved":false,"is_disabled":false,"rental_uris":{"android":"levelo://app?vid=340e413c-433b-4b84-9618-83595c94d952","ios":"levelo://app?vid=340e413c-433b-4b84-9618-83595c94d952"},"vehicle_type_id":"4","last_reported":1706828816,"current_range_meters":0,"station_id":"chh1huq6cuj3fo74tm60","pricing_plan_id":"free"},{"bike_id":"23f6a94a-d21d-4102-bf4f-330f762b5382","system_id":"levelo_inurba_marseille","lat":43.297815,"lon":5.393548,"is_reserved":false,"is_disabled":false,"rental_uris":{"android":"levelo://app?vid=23f6a94a-d21d-4102-bf4f-330f762b5382","ios":"levelo://app?vid=23f6a94a-d21d-4102-bf4f-330f762b5382"},"vehicle_type_id":"4","last_reported":1706828816,"current_range_meters":23200,"station_id":"chh1huq6cuj3fo74tm60","pricing_plan_id":"free"},{"bike_id":"6a61a2af-e42f-4299-a061-1e3cae085d98","system_id":"levelo_inurba_marseille","lat":43.2978,"lon":5.39337,"is_reserved":false,"is_disabled":false,"rental_uris":{"android":"levelo://app?vid=6a61a2af-e42f-4299-a061-1e3cae085d98","ios":"levelo://app?vid=6a61a2af-e42f-4299-a061-1e3cae085d98"},"vehicle_type_id":"4","last_reported":1706828816,"current_range_meters":8800,"station_id":"chh1huq6cuj3fo74tm60","pricing_plan_id":"free"},{"bike_id":"f1d0ac2c-2174-4a65-a5de-f91a202fde2e","system_id":"levelo_inurba_marseille","lat":43.29786,"lon":5.39345,"is_reserved":false,"is_disabled":false,"rental_uris":{"android":"levelo://app?vid=f1d0ac2c-2174-4a65-a5de-f91a202fde2e","ios":"levelo://app?vid=f1d0ac2c-2174-4a65-a5de-f91a202fde2e"},"vehicle_type_id":"4","last_reported":1706828816,"current_range_meters":18400,"station_id":"chh1huq6cuj3fo74tm60","pricing_plan_id":"free"},{"bike_id":"de0b2a19-a75b-4f1a-a843-bb85cf004731","system_id":"levelo_inurba_marseille","lat":43.29782,"lon":5.39341,"is_reserved":false,"is_disabled":false,"rental_uris":{"android":"levelo://app?vid=de0b2a19-a75b-4f1a-a843-bb85cf004731","ios":"levelo://app?vid=de0b2a19-a75b-4f1a-a843-bb85cf004731"},"vehicle_type_id":"4","last_reported":1706828816,"current_range_meters":21200,"station_id":"chh1huq6cuj3fo74tm60","pricing_plan_id":"free"},{"bike_id":"57a103bf-f98b-423d-b066-19f40126d3f6","system_id":"levelo_inurba_marseille","lat":43.297815,"lon":5.393548,"is_reserved":false,"is_disabled":false,"rental_uris":{"android":"levelo://app?vid=57a103bf-f98b-423d-b066-19f40126d3f6","ios":"levelo://app?vid=57a103bf-f98b-423d-b066-19f40126d3f6"},"vehicle_type_id":"4","last_reported":1706828816,"current_range_meters":10800,"station_id":"chh1huq6cuj3fo74tm60","pricing_plan_id":"free"},{"bike_id":"129114f2-a34b-4a60-a3a4-89d0867f63f9","system_id":"levelo_inurba_marseille","lat":43.330442,"lon":5.389148,"is_reserved":false,"is_disabled":false,"rental_uris":{"android":"levelo://app?vid=129114f2-a34b-4a60-a3a4-89d0867f63f9","ios":"levelo://app?vid=129114f2-a34b-4a60-a3a4-89d0867f63f9"},"vehicle_type_id":"4","last_reported":1706828816,"current_range_meters":14000,"station_id":"ce4bhr92rcd13ifvqhrg","pricing_plan_id":"free"},{"bike_id":"5ef6c031-a2da-411e-ac46-bc5c9a72bb40","system_id":"levelo_inurba_marseille","lat":43.295239,"lon":5.390307,"is_reserved":false,"is_disabled":false,"rental_uris":{"android":"levelo://app?vid=5ef6c031-a2da-411e-ac46-bc5c9a72bb40","ios":"levelo://app?vid=5ef6c031-a2da-411e-ac46-bc5c9a72bb40"},"vehicle_type_id":"4","last_reported":1706828816,"current_range_meters":0,"station_id":"ce4bh3p2rcd13ifvqdp0","pricing_plan_id":"free"},{"bike_id":"0b23c1b9-f257-4b45-86c0-cdfbd0a6267f","system_id":"levelo_inurba_marseille","lat":43.289741,"lon":5.378306,"is_reserved":false,"is_disabled":false,"rental_uris":{"android":"levelo://app?vid=0b23c1b9-f257-4b45-86c0-cdfbd0a6267f","ios":"levelo://app?vid=0b23c1b9-f257-4b45-86c0-cdfbd0a6267f"},"vehicle_type_id":"4","last_reported":1706828816,"current_range_meters":23200,"station_id":"ce4bh9p2rcd13ifvqed0","pricing_plan_id":"free"},{"bike_id":"1b26e9c4-7fc6-49aa-9499-cf686af3f3aa","system_id":"levelo_inurba_marseille","lat":43.330442,"lon":5.389148,"is_reserved":false,"is_disabled":false,"rental_uris":{"android":"levelo://app?vid=1b26e9c4-7fc6-49aa-9499-cf686af3f3aa","ios":"levelo://app?vid=1b26e9c4-7fc6-49aa-9499-cf686af3f3aa"},"vehicle_type_id":"4","last_reported":1706828816,"current_range_meters":12800,"station_id":"ce4bhr92rcd13ifvqhrg","pricing_plan_id":"free"},{"bike_id":"fc5e1abd-c6a8-49fe-a177-bd96f74a41e2","system_id":"levelo_inurba_marseille","lat":43.28856,"lon":5.358371,"is_reserved":false,"is_disabled":false,"rental_uris":{"android":"levelo://app?vid=fc5e1abd-c6a8-49fe-a177-bd96f74a41e2","ios":"levelo://app?vid=fc5e1abd-c6a8-49fe-a177-bd96f74a41e2"},"vehicle_type_id":"4","last_reported":1706828816,"current_range_meters":28000,"station_id":"ce4bhb12rcd13ifvqem0","pricing_plan_id":"free"},{"bike_id":"02bbcf94-f878-4daa-83e1-66167daadfe4","system_id":"levelo_inurba_marseille","lat":43.28856,"lon":5.358371,"is_reserved":false,"is_disabled":false,"rental_uris":{"android":"levelo://app?vid=02bbcf94-f878-4daa-83e1-66167daadfe4","ios":"levelo://app?vid=02bbcf94-f878-4daa-83e1-66167daadfe4"},"vehicle_type_id":"4","last_reported":1706828816,"current_range_meters":24800,"station_id":"ce4bhb12rcd13ifvqem0","pricing_plan_id":"free"},{"bike_id":"5dada021-b9f3-4336-89b4-8d68d070ec9d","system_id":"levelo_inurba_marseille","lat":43.28856,"lon":5.358371,"is_reserved":false,"is_disabled":false,"rental_uris":{"android":"levelo://app?vid=5dada021-b9f3-4336-89b4-8d68d070ec9d","ios":"levelo://app?vid=5dada021-b9f3-4336-89b4-8d68d070ec9d"},"vehicle_type_id":"4","last_reported":1706828816,"current_range_meters":12800,"station_id":"ce4bhb12rcd13ifvqem0","pricing_plan_id":"free"},{"bike_id":"722fda1d-1e67-4f7a-9f23-691f54699f10","system_id":"levelo_inurba_marseille","lat":43.28856,"lon":5.358371,"is_reserved":false,"is_disabled":false,"rental_uris":{"android":"levelo://app?vid=722fda1d-1e67-4f7a-9f23-691f54699f10","ios":"levelo://app?vid=722fda1d-1e67-4f7a-9f23-691f54699f10"},"vehicle_type_id":"4","last_reported":1706828816,"current_range_meters":18800,"station_id":"ce4bhb12rcd13ifvqem0","pricing_plan_id":"free"},{"bike_id":"194f3d44-3a29-4b94-9383-edd971dcf2ec","system_id":"levelo_inurba_marseille","lat":43.28846,"lon":5.3585,"is_reserved":false,"is_disabled":false,"rental_uris":{"android":"levelo://app?vid=194f3d44-3a29-4b94-9383-edd971dcf2ec","ios":"levelo://app?vid=194f3d44-3a29-4b94-9383-edd971dcf2ec"},"vehicle_type_id":"4","last_reported":1706828816,"current_range_meters":8800,"station_id":"ce4bhb12rcd13ifvqem0","pricing_plan_id":"free"},{"bike_id":"89571c9c-c5dc-4aed-aa0d-aa8852f5df4c","system_id":"levelo_inurba_marseille","lat":43.28846,"lon":5.35845,"is_reserved":false,"is_disabled":false,"rental_uris":{"android":"levelo://app?vid=89571c9c-c5dc-4aed-aa0d-aa8852f5df4c","ios":"levelo://app?vid=89571c9c-c5dc-4aed-aa0d-aa8852f5df4c"},"vehicle_type_id":"4","last_reported":1706828816,"current_range_meters":0,"station_id":"ce4bhb12rcd13ifvqem0","pricing_plan_id":"free"},{"bike_id":"9a163306-55f4-452b-abb8-1fc8b6192e5f","system_id":"levelo_inurba_marseille","lat":43.28838,"lon":5.35844,"is_reserved":false,"is_disabled":false,"rental_uris":{"android":"levelo://app?vid=9a163306-55f4-452b-abb8-1fc8b6192e5f","ios":"levelo://app?vid=9a163306-55f4-452b-abb8-1fc8b6192e5f"},"vehicle_type_id":"4","last_reported":1706828816,"current_range_meters":1600,"station_id":"ce4bhb12rcd13ifvqem0","pricing_plan_id":"free"},{"bike_id":"7a1b413f-69ad-42d8-b859-a87b3362e77e","system_id":"levelo_inurba_marseille","lat":43.288398,"lon":5.358338,"is_reserved":false,"is_disabled":false,"rental_uris":{"android":"levelo://app?vid=7a1b413f-69ad-42d8-b859-a87b3362e77e","ios":"levelo://app?vid=7a1b413f-69ad-42d8-b859-a87b3362e77e"},"vehicle_type_id":"4","last_reported":1706828816,"current_range_meters":22800,"station_id":"ce4bhb12rcd13ifvqem0","pricing_plan_id":"free"},{"bike_id":"d25567c5-ef1d-47c2-b416-8280a92e12c9","system_id":"levelo_inurba_marseille","lat":43.309371,"lon":5.401449,"is_reserved":false,"is_disabled":false,"rental_uris":{"android":"levelo://app?vid=d25567c5-ef1d-47c2-b416-8280a92e12c9","ios":"levelo://app?vid=d25567c5-ef1d-47c2-b416-8280a92e12c9"},"vehicle_type_id":"4","last_reported":1706828816,"current_range_meters":21200,"station_id":"ce4bgvp2rcd13ifvqct0","pricing_plan_id":"free"},{"bike_id":"7d8d1491-6e9a-4ad6-9a04-e543ec0a6c16","system_id":"levelo_inurba_marseille","lat":43.312609,"lon":5.401662,"is_reserved":false,"is_disabled":false,"rental_uris":{"android":"levelo://app?vid=7d8d1491-6e9a-4ad6-9a04-e543ec0a6c16","ios":"levelo://app?vid=7d8d1491-6e9a-4ad6-9a04-e543ec0a6c16"},"vehicle_type_id":"4","last_reported":1706828816,"current_range_meters":23200,"station_id":"ce4bh092rcd13ifvqd30","pricing_plan_id":"free"},{"bike_id":"cfe68aef-9e8a-4093-bde9-feb1bf368a18","system_id":"levelo_inurba_marseille","lat":43.312609,"lon":5.401662,"is_reserved":false,"is_disabled":false,"rental_uris":{"android":"levelo://app?vid=cfe68aef-9e8a-4093-bde9-feb1bf368a18","ios":"levelo://app?vid=cfe68aef-9e8a-4093-bde9-feb1bf368a18"},"vehicle_type_id":"4","last_reported":1706828816,"current_range_meters":8800,"station_id":"ce4bh092rcd13ifvqd30","pricing_plan_id":"free"},{"bike_id":"e5416671-1353-495b-9ab0-87d96f08344d","system_id":"levelo_inurba_marseille","lat":43.309371,"lon":5.401449,"is_reserved":false,"is_disabled":false,"rental_uris":{"android":"levelo://app?vid=e5416671-1353-495b-9ab0-87d96f08344d","ios":"levelo://app?vid=e5416671-1353-495b-9ab0-87d96f08344d"},"vehicle_type_id":"4","last_reported":1706828816,"current_range_meters":12000,"station_id":"ce4bgvp2rcd13ifvqct0","pricing_plan_id":"free"},{"bike_id":"0806c7ab-e343-4f0d-bf12-8a7646a48ddb","system_id":"levelo_inurba_marseille","lat":43.312609,"lon":5.401662,"is_reserved":false,"is_disabled":false,"rental_uris":{"android":"levelo://app?vid=0806c7ab-e343-4f0d-bf12-8a7646a48ddb","ios":"levelo://app?vid=0806c7ab-e343-4f0d-bf12-8a7646a48ddb"},"vehicle_type_id":"4","last_reported":1706828816,"current_range_meters":4800,"station_id":"ce4bh092rcd13ifvqd30","pricing_plan_id":"free"},{"bike_id":"c7720c7e-0225-4c8f-be49-99a373c49946","system_id":"levelo_inurba_marseille","lat":43.30644,"lon":5.40072,"is_reserved":false,"is_disabled":false,"rental_uris":{"android":"levelo://app?vid=c7720c7e-0225-4c8f-be49-99a373c49946","ios":"levelo://app?vid=c7720c7e-0225-4c8f-be49-99a373c49946"},"vehicle_type_id":"4","last_reported":1706828816,"current_range_meters":11600,"station_id":"ce4bh112rcd13ifvqda0","pricing_plan_id":"free"},{"bike_id":"5940b910-f299-4b9d-a844-4f9fcfd5e40f","system_id":"levelo_inurba_marseille","lat":43.30651,"lon":5.40077,"is_reserved":false,"is_disabled":false,"rental_uris":{"android":"levelo://app?vid=5940b910-f299-4b9d-a844-4f9fcfd5e40f","ios":"levelo://app?vid=5940b910-f299-4b9d-a844-4f9fcfd5e40f"},"vehicle_type_id":"4","last_reported":1706828816,"current_range_meters":800,"station_id":"ce4bh112rcd13ifvqda0","pricing_plan_id":"free"},{"bike_id":"73f479a7-67d4-428c-815f-fa6bd899bfd0","system_id":"levelo_inurba_marseille","lat":43.30636,"lon":5.40072,"is_reserved":false,"is_disabled":false,"rental_uris":{"android":"levelo://app?vid=73f479a7-67d4-428c-815f-fa6bd899bfd0","ios":"levelo://app?vid=73f479a7-67d4-428c-815f-fa6bd899bfd0"},"vehicle_type_id":"4","last_reported":1706828816,"current_range_meters":400,"station_id":"ce4bh112rcd13ifvqda0","pricing_plan_id":"free"},{"bike_id":"71b62b89-037a-49ca-a61f-e8c951910ca0","system_id":"levelo_inurba_marseille","lat":43.309371,"lon":5.401449,"is_reserved":false,"is_disabled":false,"rental_uris":{"android":"levelo://app?vid=71b62b89-037a-49ca-a61f-e8c951910ca0","ios":"levelo://app?vid=71b62b89-037a-49ca-a61f-e8c951910ca0"},"vehicle_type_id":"4","last_reported":1706828816,"current_range_meters":12800,"station_id":"ce4bgvp2rcd13ifvqct0","pricing_plan_id":"free"},{"bike_id":"9ec79026-71bb-4e84-a7d8-8fa7f30794b2","system_id":"levelo_inurba_marseille","lat":43.30642,"lon":5.40077,"is_reserved":false,"is_disabled":false,"rental_uris":{"android":"levelo://app?vid=9ec79026-71bb-4e84-a7d8-8fa7f30794b2","ios":"levelo://app?vid=9ec79026-71bb-4e84-a7d8-8fa7f30794b2"},"vehicle_type_id":"4","last_reported":1706828816,"current_range_meters":6800,"station_id":"ce4bh112rcd13ifvqda0","pricing_plan_id":"free"},{"bike_id":"de84a527-5310-4b43-bea5-8cc73f2f9355","system_id":"levelo_inurba_marseille","lat":43.309371,"lon":5.401449,"is_reserved":false,"is_disabled":false,"rental_uris":{"android":"levelo://app?vid=de84a527-5310-4b43-bea5-8cc73f2f9355","ios":"levelo://app?vid=de84a527-5310-4b43-bea5-8cc73f2f9355"},"vehicle_type_id":"4","last_reported":1706828816,"current_range_meters":1200,"station_id":"ce4bgvp2rcd13ifvqct0","pricing_plan_id":"free"},{"bike_id":"7a930378-2683-418e-a48a-7ed23e46582a","system_id":"levelo_inurba_marseille","lat":43.30642,"lon":5.401031,"is_reserved":false,"is_disabled":false,"rental_uris":{"android":"levelo://app?vid=7a930378-2683-418e-a48a-7ed23e46582a","ios":"levelo://app?vid=7a930378-2683-418e-a48a-7ed23e46582a"},"vehicle_type_id":"4","last_reported":1706828816,"current_range_meters":20000,"station_id":"ce4bh112rcd13ifvqda0","pricing_plan_id":"free"},{"bike_id":"7a2020fc-789d-468d-8d7d-53d37fdad10b","system_id":"levelo_inurba_marseille","lat":43.306428,"lon":5.400803,"is_reserved":false,"is_disabled":false,"rental_uris":{"android":"levelo://app?vid=7a2020fc-789d-468d-8d7d-53d37fdad10b","ios":"levelo://app?vid=7a2020fc-789d-468d-8d7d-53d37fdad10b"},"vehicle_type_id":"4","last_reported":1706828816,"current_range_meters":11600,"station_id":"","pricing_plan_id":"free"},{"bike_id":"40d1ca95-1e4a-48b9-9e54-0b2ec248c00d","system_id":"levelo_inurba_marseille","lat":43.30641,"lon":5.40082,"is_reserved":false,"is_disabled":false,"rental_uris":{"android":"levelo://app?vid=40d1ca95-1e4a-48b9-9e54-0b2ec248c00d","ios":"levelo://app?vid=40d1ca95-1e4a-48b9-9e54-0b2ec248c00d"},"vehicle_type_id":"4","last_reported":1706828816,"current_range_meters":15200,"station_id":"ce4bh112rcd13ifvqda0","pricing_plan_id":"free"},{"bike_id":"586a8922-9820-4a1a-bf18-de29420a31de","system_id":"levelo_inurba_marseille","lat":43.30649,"lon":5.40101,"is_reserved":false,"is_disabled":false,"rental_uris":{"android":"levelo://app?vid=586a8922-9820-4a1a-bf18-de29420a31de","ios":"levelo://app?vid=586a8922-9820-4a1a-bf18-de29420a31de"},"vehicle_type_id":"4","last_reported":1706828816,"current_range_meters":17600,"station_id":"ce4bh112rcd13ifvqda0","pricing_plan_id":"free"},{"bike_id":"409e8dec-461d-440e-a69a-0e34bac77ff6","system_id":"levelo_inurba_marseille","lat":43.3063,"lon":5.40097,"is_reserved":false,"is_disabled":false,"rental_uris":{"android":"levelo://app?vid=409e8dec-461d-440e-a69a-0e34bac77ff6","ios":"levelo://app?vid=409e8dec-461d-440e-a69a-0e34bac77ff6"},"vehicle_type_id":"4","last_reported":1706828816,"current_range_meters":10800,"station_id":"ce4bh112rcd13ifvqda0","pricing_plan_id":"free"},{"bike_id":"59eeee2f-1750-4c3e-ab06-5237ceb666d6","system_id":"levelo_inurba_marseille","lat":43.309371,"lon":5.401449,"is_reserved":false,"is_disabled":false,"rental_uris":{"android":"levelo://app?vid=59eeee2f-1750-4c3e-ab06-5237ceb666d6","ios":"levelo://app?vid=59eeee2f-1750-4c3e-ab06-5237ceb666d6"},"vehicle_type_id":"4","last_reported":1706828816,"current_range_meters":2800,"station_id":"ce4bgvp2rcd13ifvqct0","pricing_plan_id":"free"},{"bike_id":"8e01ce0f-96e2-4704-87fb-2035dd478f82","system_id":"levelo_inurba_marseille","lat":43.301117,"lon":5.398795,"is_reserved":false,"is_disabled":false,"rental_uris":{"android":"levelo://app?vid=8e01ce0f-96e2-4704-87fb-2035dd478f82","ios":"levelo://app?vid=8e01ce0f-96e2-4704-87fb-2035dd478f82"},"vehicle_type_id":"4","last_reported":1706828816,"current_range_meters":0,"station_id":"ce4bh0h2rcd13ifvqd40","pricing_plan_id":"free"},{"bike_id":"b664ef4d-4d0e-40d0-92a0-ecf760b3dc95","system_id":"levelo_inurba_marseille","lat":43.30456,"lon":5.40059,"is_reserved":false,"is_disabled":false,"rental_uris":{"android":"levelo://app?vid=b664ef4d-4d0e-40d0-92a0-ecf760b3dc95","ios":"levelo://app?vid=b664ef4d-4d0e-40d0-92a0-ecf760b3dc95"},"vehicle_type_id":"4","last_reported":1706828816,"current_range_meters":21600,"station_id":"","pricing_plan_id":"free"},{"bike_id":"951e8b96-1ca4-46c8-a504-0f47907d59d0","system_id":"levelo_inurba_marseille","lat":43.28727,"lon":5.36078,"is_reserved":false,"is_disabled":false,"rental_uris":{"android":"levelo://app?vid=951e8b96-1ca4-46c8-a504-0f47907d59d0","ios":"levelo://app?vid=951e8b96-1ca4-46c8-a504-0f47907d59d0"},"vehicle_type_id":"4","last_reported":1706828816,"current_range_meters":0,"station_id":"cki0cbj6b192h4jlfktg","pricing_plan_id":"free"},{"bike_id":"11292ed4-7f89-4a31-80de-9eac6b278d46","system_id":"levelo_inurba_marseille","lat":43.28727,"lon":5.36078,"is_reserved":false,"is_disabled":false,"rental_uris":{"android":"levelo://app?vid=11292ed4-7f89-4a31-80de-9eac6b278d46","ios":"levelo://app?vid=11292ed4-7f89-4a31-80de-9eac6b278d46"},"vehicle_type_id":"4","last_reported":1706828816,"current_range_meters":14400,"station_id":"cki0cbj6b192h4jlfktg","pricing_plan_id":"free"},{"bike_id":"933cb5fc-c3ed-4083-8134-4784226a658d","system_id":"levelo_inurba_marseille","lat":43.286961,"lon":5.373785,"is_reserved":false,"is_disabled":false,"rental_uris":{"android":"levelo://app?vid=933cb5fc-c3ed-4083-8134-4784226a658d","ios":"levelo://app?vid=933cb5fc-c3ed-4083-8134-4784226a658d"},"vehicle_type_id":"4","last_reported":1706828816,"current_range_meters":15600,"station_id":"ce4bh3p2rcd13ifvqdq0","pricing_plan_id":"free"},{"bike_id":"d5848666-ce70-49ba-98f2-2c71c9090c5c","system_id":"levelo_inurba_marseille","lat":43.286961,"lon":5.373785,"is_reserved":false,"is_disabled":false,"rental_uris":{"android":"levelo://app?vid=d5848666-ce70-49ba-98f2-2c71c9090c5c","ios":"levelo://app?vid=d5848666-ce70-49ba-98f2-2c71c9090c5c"},"vehicle_type_id":"4","last_reported":1706828816,"current_range_meters":2800,"station_id":"ce4bh3p2rcd13ifvqdq0","pricing_plan_id":"free"},{"bike_id":"d454e7e4-9c15-4926-b778-b0bdc6275a1d","system_id":"levelo_inurba_marseille","lat":43.286961,"lon":5.373785,"is_reserved":false,"is_disabled":false,"rental_uris":{"android":"levelo://app?vid=d454e7e4-9c15-4926-b778-b0bdc6275a1d","ios":"levelo://app?vid=d454e7e4-9c15-4926-b778-b0bdc6275a1d"},"vehicle_type_id":"4","last_reported":1706828816,"current_range_meters":23200,"station_id":"ce4bh3p2rcd13ifvqdq0","pricing_plan_id":"free"},{"bike_id":"c89dfdb3-aad4-4086-9438-ed982e83ef35","system_id":"levelo_inurba_marseille","lat":43.286591,"lon":5.363346,"is_reserved":false,"is_disabled":false,"rental_uris":{"android":"levelo://app?vid=c89dfdb3-aad4-4086-9438-ed982e83ef35","ios":"levelo://app?vid=c89dfdb3-aad4-4086-9438-ed982e83ef35"},"vehicle_type_id":"4","last_reported":1706828816,"current_range_meters":19200,"station_id":"ce4bhah2rcd13ifvqej0","pricing_plan_id":"free"},{"bike_id":"6aa1c462-6224-4954-ad0f-0cb5af058707","system_id":"levelo_inurba_marseille","lat":43.286591,"lon":5.363346,"is_reserved":false,"is_disabled":false,"rental_uris":{"android":"levelo://app?vid=6aa1c462-6224-4954-ad0f-0cb5af058707","ios":"levelo://app?vid=6aa1c462-6224-4954-ad0f-0cb5af058707"},"vehicle_type_id":"4","last_reported":1706828816,"current_range_meters":26000,"station_id":"ce4bhah2rcd13ifvqej0","pricing_plan_id":"free"},{"bike_id":"f09aede6-3e51-49c9-9f76-15994d27bc28","system_id":"levelo_inurba_marseille","lat":43.286591,"lon":5.363346,"is_reserved":false,"is_disabled":false,"rental_uris":{"android":"levelo://app?vid=f09aede6-3e51-49c9-9f76-15994d27bc28","ios":"levelo://app?vid=f09aede6-3e51-49c9-9f76-15994d27bc28"},"vehicle_type_id":"4","last_reported":1706828816,"current_range_meters":1200,"station_id":"ce4bhah2rcd13ifvqej0","pricing_plan_id":"free"},{"bike_id":"c80c5067-6603-4a43-90a7-122b74ffe261","system_id":"levelo_inurba_marseille","lat":43.286961,"lon":5.373785,"is_reserved":false,"is_disabled":false,"rental_uris":{"android":"levelo://app?vid=c80c5067-6603-4a43-90a7-122b74ffe261","ios":"levelo://app?vid=c80c5067-6603-4a43-90a7-122b74ffe261"},"vehicle_type_id":"4","last_reported":1706828816,"current_range_meters":11600,"station_id":"ce4bh3p2rcd13ifvqdq0","pricing_plan_id":"free"},{"bike_id":"876eb806-352c-451d-8f54-6f07e569a97a","system_id":"levelo_inurba_marseille","lat":43.298681,"lon":5.397225,"is_reserved":false,"is_disabled":false,"rental_uris":{"android":"levelo://app?vid=876eb806-352c-451d-8f54-6f07e569a97a","ios":"levelo://app?vid=876eb806-352c-451d-8f54-6f07e569a97a"},"vehicle_type_id":"4","last_reported":1706828816,"current_range_meters":16800,"station_id":"ce4bh0h2rcd13ifvqd50","pricing_plan_id":"free"},{"bike_id":"2af9e0e0-b75e-4a97-ae15-c46d5d1b3b76","system_id":"levelo_inurba_marseille","lat":43.286961,"lon":5.373785,"is_reserved":false,"is_disabled":false,"rental_uris":{"android":"levelo://app?vid=2af9e0e0-b75e-4a97-ae15-c46d5d1b3b76","ios":"levelo://app?vid=2af9e0e0-b75e-4a97-ae15-c46d5d1b3b76"},"vehicle_type_id":"4","last_reported":1706828816,"current_range_meters":0,"station_id":"ce4bh3p2rcd13ifvqdq0","pricing_plan_id":"free"},{"bike_id":"c1840086-dddf-4009-8bbc-1978f3a63e63","system_id":"levelo_inurba_marseille","lat":43.286591,"lon":5.363346,"is_reserved":false,"is_disabled":false,"rental_uris":{"android":"levelo://app?vid=c1840086-dddf-4009-8bbc-1978f3a63e63","ios":"levelo://app?vid=c1840086-dddf-4009-8bbc-1978f3a63e63"},"vehicle_type_id":"4","last_reported":1706828816,"current_range_meters":14800,"station_id":"ce4bhah2rcd13ifvqej0","pricing_plan_id":"free"},{"bike_id":"7f03f483-bf2d-4abf-8fe4-70fb921ac507","system_id":"levelo_inurba_marseille","lat":43.286593,"lon":5.363346,"is_reserved":false,"is_disabled":false,"rental_uris":{"android":"levelo://app?vid=7f03f483-bf2d-4abf-8fe4-70fb921ac507","ios":"levelo://app?vid=7f03f483-bf2d-4abf-8fe4-70fb921ac507"},"vehicle_type_id":"4","last_reported":1706828816,"current_range_meters":20800,"station_id":"ce4bhah2rcd13ifvqej0","pricing_plan_id":"free"},{"bike_id":"7b117be2-bb1d-44a7-8f5f-49b02c23723a","system_id":"levelo_inurba_marseille","lat":43.298681,"lon":5.397225,"is_reserved":false,"is_disabled":false,"rental_uris":{"android":"levelo://app?vid=7b117be2-bb1d-44a7-8f5f-49b02c23723a","ios":"levelo://app?vid=7b117be2-bb1d-44a7-8f5f-49b02c23723a"},"vehicle_type_id":"4","last_reported":1706828816,"current_range_meters":14400,"station_id":"ce4bh0h2rcd13ifvqd50","pricing_plan_id":"free"},{"bike_id":"b374120e-cd8c-4837-b67e-34fcca50032e","system_id":"levelo_inurba_marseille","lat":43.286961,"lon":5.373785,"is_reserved":false,"is_disabled":false,"rental_uris":{"android":"levelo://app?vid=b374120e-cd8c-4837-b67e-34fcca50032e","ios":"levelo://app?vid=b374120e-cd8c-4837-b67e-34fcca50032e"},"vehicle_type_id":"4","last_reported":1706828816,"current_range_meters":3200,"station_id":"ce4bh3p2rcd13ifvqdq0","pricing_plan_id":"free"},{"bike_id":"56874da9-430d-4b85-8b37-c54cadb7615b","system_id":"levelo_inurba_marseille","lat":43.286593,"lon":5.363346,"is_reserved":false,"is_disabled":false,"rental_uris":{"android":"levelo://app?vid=56874da9-430d-4b85-8b37-c54cadb7615b","ios":"levelo://app?vid=56874da9-430d-4b85-8b37-c54cadb7615b"},"vehicle_type_id":"4","last_reported":1706828816,"current_range_meters":6000,"station_id":"ce4bhah2rcd13ifvqej0","pricing_plan_id":"free"},{"bike_id":"63f80ce5-99c8-4806-b400-bfb2a956cd13","system_id":"levelo_inurba_marseille","lat":43.298681,"lon":5.397225,"is_reserved":false,"is_disabled":false,"rental_uris":{"android":"levelo://app?vid=63f80ce5-99c8-4806-b400-bfb2a956cd13","ios":"levelo://app?vid=63f80ce5-99c8-4806-b400-bfb2a956cd13"},"vehicle_type_id":"4","last_reported":1706828816,"current_range_meters":30800,"station_id":"ce4bh0h2rcd13ifvqd50","pricing_plan_id":"free"},{"bike_id":"d3b0ed5a-298c-40f2-8089-d8c72a92f4a4","system_id":"levelo_inurba_marseille","lat":43.286961,"lon":5.373785,"is_reserved":false,"is_disabled":false,"rental_uris":{"android":"levelo://app?vid=d3b0ed5a-298c-40f2-8089-d8c72a92f4a4","ios":"levelo://app?vid=d3b0ed5a-298c-40f2-8089-d8c72a92f4a4"},"vehicle_type_id":"4","last_reported":1706828816,"current_range_meters":28400,"station_id":"ce4bh3p2rcd13ifvqdq0","pricing_plan_id":"free"},{"bike_id":"01e6a1ff-b2d3-439d-93cf-08491fa79c69","system_id":"levelo_inurba_marseille","lat":43.29868,"lon":5.39745,"is_reserved":false,"is_disabled":false,"rental_uris":{"android":"levelo://app?vid=01e6a1ff-b2d3-439d-93cf-08491fa79c69","ios":"levelo://app?vid=01e6a1ff-b2d3-439d-93cf-08491fa79c69"},"vehicle_type_id":"4","last_reported":1706828816,"current_range_meters":0,"station_id":"ce4bh0h2rcd13ifvqd50","pricing_plan_id":"free"},{"bike_id":"3bdfb648-d51c-4211-bb47-d93f0ab1066e","system_id":"levelo_inurba_marseille","lat":43.29864,"lon":5.39752,"is_reserved":false,"is_disabled":false,"rental_uris":{"android":"levelo://app?vid=3bdfb648-d51c-4211-bb47-d93f0ab1066e","ios":"levelo://app?vid=3bdfb648-d51c-4211-bb47-d93f0ab1066e"},"vehicle_type_id":"4","last_reported":1706828816,"current_range_meters":2000,"station_id":"ce4bh0h2rcd13ifvqd50","pricing_plan_id":"free"},{"bike_id":"69500cee-3fe8-4fe4-b3e5-3d2a63f9ccc4","system_id":"levelo_inurba_marseille","lat":43.289307,"lon":5.38406,"is_reserved":false,"is_disabled":false,"rental_uris":{"android":"levelo://app?vid=69500cee-3fe8-4fe4-b3e5-3d2a63f9ccc4","ios":"levelo://app?vid=69500cee-3fe8-4fe4-b3e5-3d2a63f9ccc4"},"vehicle_type_id":"4","last_reported":1706828816,"current_range_meters":3600,"station_id":"ce4bh612rcd13ifvqe6g","pricing_plan_id":"free"},{"bike_id":"494b69e4-cf3f-4681-b0ad-3b17356ca5b5","system_id":"levelo_inurba_marseille","lat":43.302759,"lon":5.400793,"is_reserved":false,"is_disabled":false,"rental_uris":{"android":"levelo://app?vid=494b69e4-cf3f-4681-b0ad-3b17356ca5b5","ios":"levelo://app?vid=494b69e4-cf3f-4681-b0ad-3b17356ca5b5"},"vehicle_type_id":"4","last_reported":1706828816,"current_range_meters":6000,"station_id":"ce4bgvh2rcd13ifvqcs0","pricing_plan_id":"free"},{"bike_id":"7aca912d-1267-43c7-b278-e25f3e404434","system_id":"levelo_inurba_marseille","lat":43.28611,"lon":5.37067,"is_reserved":false,"is_disabled":false,"rental_uris":{"android":"levelo://app?vid=7aca912d-1267-43c7-b278-e25f3e404434","ios":"levelo://app?vid=7aca912d-1267-43c7-b278-e25f3e404434"},"vehicle_type_id":"4","last_reported":1706828816,"current_range_meters":21600,"station_id":"ce4bht12rcd13ifvqi60","pricing_plan_id":"free"},{"bike_id":"f0350bb6-383c-4f22-958e-ff413896c382","system_id":"levelo_inurba_marseille","lat":43.286039,"lon":5.370679,"is_reserved":false,"is_disabled":false,"rental_uris":{"android":"levelo://app?vid=f0350bb6-383c-4f22-958e-ff413896c382","ios":"levelo://app?vid=f0350bb6-383c-4f22-958e-ff413896c382"},"vehicle_type_id":"4","last_reported":1706828816,"current_range_meters":30400,"station_id":"ce4bht12rcd13ifvqi60","pricing_plan_id":"free"},{"bike_id":"54d34a8a-4286-4222-8fd6-05098b07e7d1","system_id":"levelo_inurba_marseille","lat":43.286039,"lon":5.370679,"is_reserved":false,"is_disabled":false,"rental_uris":{"android":"levelo://app?vid=54d34a8a-4286-4222-8fd6-05098b07e7d1","ios":"levelo://app?vid=54d34a8a-4286-4222-8fd6-05098b07e7d1"},"vehicle_type_id":"4","last_reported":1706828816,"current_range_meters":14400,"station_id":"ce4bht12rcd13ifvqi60","pricing_plan_id":"free"},{"bike_id":"77eac42e-b721-403a-a785-f227557d9460","system_id":"levelo_inurba_marseille","lat":43.287184,"lon":5.37937,"is_reserved":false,"is_disabled":false,"rental_uris":{"android":"levelo://app?vid=77eac42e-b721-403a-a785-f227557d9460","ios":"levelo://app?vid=77eac42e-b721-403a-a785-f227557d9460"},"vehicle_type_id":"4","last_reported":1706828816,"current_range_meters":30000,"station_id":"ce4bh9p2rcd13ifvqec0","pricing_plan_id":"free"},{"bike_id":"69da0570-b0bb-4f28-9eaf-fd0d04136201","system_id":"levelo_inurba_marseille","lat":43.287185,"lon":5.379373,"is_reserved":false,"is_disabled":false,"rental_uris":{"android":"levelo://app?vid=69da0570-b0bb-4f28-9eaf-fd0d04136201","ios":"levelo://app?vid=69da0570-b0bb-4f28-9eaf-fd0d04136201"},"vehicle_type_id":"4","last_reported":1706828816,"current_range_meters":23200,"station_id":"ce4bh9p2rcd13ifvqec0","pricing_plan_id":"free"},{"bike_id":"a4b5805c-fd42-43ad-801d-b0fd0c5ce23a","system_id":"levelo_inurba_marseille","lat":43.287184,"lon":5.37937,"is_reserved":false,"is_disabled":false,"rental_uris":{"android":"levelo://app?vid=a4b5805c-fd42-43ad-801d-b0fd0c5ce23a","ios":"levelo://app?vid=a4b5805c-fd42-43ad-801d-b0fd0c5ce23a"},"vehicle_type_id":"4","last_reported":1706828816,"current_range_meters":11600,"station_id":"ce4bh9p2rcd13ifvqec0","pricing_plan_id":"free"},{"bike_id":"765d5ae4-dbef-4592-820b-c800cad8ad45","system_id":"levelo_inurba_marseille","lat":43.287184,"lon":5.37937,"is_reserved":false,"is_disabled":false,"rental_uris":{"android":"levelo://app?vid=765d5ae4-dbef-4592-820b-c800cad8ad45","ios":"levelo://app?vid=765d5ae4-dbef-4592-820b-c800cad8ad45"},"vehicle_type_id":"4","last_reported":1706828816,"current_range_meters":20400,"station_id":"ce4bh9p2rcd13ifvqec0","pricing_plan_id":"free"},{"bike_id":"4d409fc0-e687-429a-a491-734f39aca188","system_id":"levelo_inurba_marseille","lat":43.287128,"lon":5.379503,"is_reserved":false,"is_disabled":false,"rental_uris":{"android":"levelo://app?vid=4d409fc0-e687-429a-a491-734f39aca188","ios":"levelo://app?vid=4d409fc0-e687-429a-a491-734f39aca188"},"vehicle_type_id":"4","last_reported":1706828816,"current_range_meters":0,"station_id":"ce4bh9p2rcd13ifvqec0","pricing_plan_id":"free"},{"bike_id":"7fae2fe1-fff3-402f-bd5c-aaeaa7431a01","system_id":"levelo_inurba_marseille","lat":43.291994,"lon":5.392907,"is_reserved":false,"is_disabled":false,"rental_uris":{"android":"levelo://app?vid=7fae2fe1-fff3-402f-bd5c-aaeaa7431a01","ios":"levelo://app?vid=7fae2fe1-fff3-402f-bd5c-aaeaa7431a01"},"vehicle_type_id":"4","last_reported":1706828816,"current_range_meters":27600,"station_id":"ce4bh192rcd13ifvqdd0","pricing_plan_id":"free"},{"bike_id":"a38a0690-9443-45f0-94e7-37b20e062170","system_id":"levelo_inurba_marseille","lat":43.29206,"lon":5.39329,"is_reserved":false,"is_disabled":false,"rental_uris":{"android":"levelo://app?vid=a38a0690-9443-45f0-94e7-37b20e062170","ios":"levelo://app?vid=a38a0690-9443-45f0-94e7-37b20e062170"},"vehicle_type_id":"4","last_reported":1706828816,"current_range_meters":12000,"station_id":"ce4bh192rcd13ifvqdd0","pricing_plan_id":"free"},{"bike_id":"22179987-eaef-43bb-bde7-caec100299a1","system_id":"levelo_inurba_marseille","lat":43.291994,"lon":5.392907,"is_reserved":false,"is_disabled":false,"rental_uris":{"android":"levelo://app?vid=22179987-eaef-43bb-bde7-caec100299a1","ios":"levelo://app?vid=22179987-eaef-43bb-bde7-caec100299a1"},"vehicle_type_id":"4","last_reported":1706828816,"current_range_meters":27200,"station_id":"ce4bh192rcd13ifvqdd0","pricing_plan_id":"free"},{"bike_id":"ccd37c63-9aa6-438e-b7d9-95a0948a5bb0","system_id":"levelo_inurba_marseille","lat":43.291983,"lon":5.393217,"is_reserved":false,"is_disabled":false,"rental_uris":{"android":"levelo://app?vid=ccd37c63-9aa6-438e-b7d9-95a0948a5bb0","ios":"levelo://app?vid=ccd37c63-9aa6-438e-b7d9-95a0948a5bb0"},"vehicle_type_id":"4","last_reported":1706828816,"current_range_meters":28800,"station_id":"ce4bh192rcd13ifvqdd0","pricing_plan_id":"free"},{"bike_id":"ab4776df-ff59-425b-84bb-ad156b973aa2","system_id":"levelo_inurba_marseille","lat":43.291994,"lon":5.392907,"is_reserved":false,"is_disabled":false,"rental_uris":{"android":"levelo://app?vid=ab4776df-ff59-425b-84bb-ad156b973aa2","ios":"levelo://app?vid=ab4776df-ff59-425b-84bb-ad156b973aa2"},"vehicle_type_id":"4","last_reported":1706828816,"current_range_meters":14400,"station_id":"ce4bh192rcd13ifvqdd0","pricing_plan_id":"free"},{"bike_id":"9cec2677-ca5e-489b-ae5f-9e13a7f3fe8b","system_id":"levelo_inurba_marseille","lat":43.291994,"lon":5.392907,"is_reserved":false,"is_disabled":false,"rental_uris":{"android":"levelo://app?vid=9cec2677-ca5e-489b-ae5f-9e13a7f3fe8b","ios":"levelo://app?vid=9cec2677-ca5e-489b-ae5f-9e13a7f3fe8b"},"vehicle_type_id":"4","last_reported":1706828816,"current_range_meters":24400,"station_id":"ce4bh192rcd13ifvqdd0","pricing_plan_id":"free"},{"bike_id":"45e5d7bb-72f3-4f43-8fbe-27c6569f8c95","system_id":"levelo_inurba_marseille","lat":43.291912,"lon":5.39325,"is_reserved":false,"is_disabled":false,"rental_uris":{"android":"levelo://app?vid=45e5d7bb-72f3-4f43-8fbe-27c6569f8c95","ios":"levelo://app?vid=45e5d7bb-72f3-4f43-8fbe-27c6569f8c95"},"vehicle_type_id":"4","last_reported":1706828816,"current_range_meters":18800,"station_id":"ce4bh192rcd13ifvqdd0","pricing_plan_id":"free"},{"bike_id":"60ff316e-d9ec-4128-b242-cb1dcd0eb64d","system_id":"levelo_inurba_marseille","lat":43.284534,"lon":5.358662,"is_reserved":false,"is_disabled":false,"rental_uris":{"android":"levelo://app?vid=60ff316e-d9ec-4128-b242-cb1dcd0eb64d","ios":"levelo://app?vid=60ff316e-d9ec-4128-b242-cb1dcd0eb64d"},"vehicle_type_id":"4","last_reported":1706828816,"current_range_meters":0,"station_id":"ce4bhah2rcd13ifvqei0","pricing_plan_id":"free"},{"bike_id":"0818eca2-b6d0-443e-bcca-0744275bb03f","system_id":"levelo_inurba_marseille","lat":43.284534,"lon":5.358662,"is_reserved":false,"is_disabled":false,"rental_uris":{"android":"levelo://app?vid=0818eca2-b6d0-443e-bcca-0744275bb03f","ios":"levelo://app?vid=0818eca2-b6d0-443e-bcca-0744275bb03f"},"vehicle_type_id":"4","last_reported":1706828816,"current_range_meters":5600,"station_id":"ce4bhah2rcd13ifvqei0","pricing_plan_id":"free"},{"bike_id":"1e070542-8d6d-4f5b-879f-f66e4f2b0a1b","system_id":"levelo_inurba_marseille","lat":43.284584,"lon":5.35895,"is_reserved":false,"is_disabled":false,"rental_uris":{"android":"levelo://app?vid=1e070542-8d6d-4f5b-879f-f66e4f2b0a1b","ios":"levelo://app?vid=1e070542-8d6d-4f5b-879f-f66e4f2b0a1b"},"vehicle_type_id":"4","last_reported":1706828816,"current_range_meters":5200,"station_id":"ce4bhah2rcd13ifvqei0","pricing_plan_id":"free"},{"bike_id":"d4854cbb-3247-4abf-b96e-9ab73d79f5a6","system_id":"levelo_inurba_marseille","lat":43.284593,"lon":5.35888,"is_reserved":false,"is_disabled":false,"rental_uris":{"android":"levelo://app?vid=d4854cbb-3247-4abf-b96e-9ab73d79f5a6","ios":"levelo://app?vid=d4854cbb-3247-4abf-b96e-9ab73d79f5a6"},"vehicle_type_id":"4","last_reported":1706828816,"current_range_meters":20400,"station_id":"ce4bhah2rcd13ifvqei0","pricing_plan_id":"free"},{"bike_id":"2d918ed9-7290-4042-a7c3-dbd2d714ea38","system_id":"levelo_inurba_marseille","lat":43.28459,"lon":5.35887,"is_reserved":false,"is_disabled":false,"rental_uris":{"android":"levelo://app?vid=2d918ed9-7290-4042-a7c3-dbd2d714ea38","ios":"levelo://app?vid=2d918ed9-7290-4042-a7c3-dbd2d714ea38"},"vehicle_type_id":"4","last_reported":1706828816,"current_range_meters":28400,"station_id":"ce4bhah2rcd13ifvqei0","pricing_plan_id":"free"},{"bike_id":"e2c5cc56-b23f-4bd3-a053-aa44f8938707","system_id":"levelo_inurba_marseille","lat":43.28456,"lon":5.35903,"is_reserved":false,"is_disabled":false,"rental_uris":{"android":"levelo://app?vid=e2c5cc56-b23f-4bd3-a053-aa44f8938707","ios":"levelo://app?vid=e2c5cc56-b23f-4bd3-a053-aa44f8938707"},"vehicle_type_id":"4","last_reported":1706828816,"current_range_meters":26000,"station_id":"ce4bhah2rcd13ifvqei0","pricing_plan_id":"free"},{"bike_id":"12f67fcd-fd3c-4bac-a097-620885ccd6f3","system_id":"levelo_inurba_marseille","lat":43.294314,"lon":5.397498,"is_reserved":false,"is_disabled":false,"rental_uris":{"android":"levelo://app?vid=12f67fcd-fd3c-4bac-a097-620885ccd6f3","ios":"levelo://app?vid=12f67fcd-fd3c-4bac-a097-620885ccd6f3"},"vehicle_type_id":"4","last_reported":1706828816,"current_range_meters":5200,"station_id":"ce4bh3h2rcd13ifvqdo0","pricing_plan_id":"free"},{"bike_id":"abe7a986-3946-414f-a69f-13743c5f6f20","system_id":"levelo_inurba_marseille","lat":43.284534,"lon":5.358662,"is_reserved":false,"is_disabled":false,"rental_uris":{"android":"levelo://app?vid=abe7a986-3946-414f-a69f-13743c5f6f20","ios":"levelo://app?vid=abe7a986-3946-414f-a69f-13743c5f6f20"},"vehicle_type_id":"4","last_reported":1706828816,"current_range_meters":24000,"station_id":"ce4bhah2rcd13ifvqei0","pricing_plan_id":"free"},{"bike_id":"a62c8899-aefa-46e1-8ac4-b237c473af0d","system_id":"levelo_inurba_marseille","lat":43.28454,"lon":5.35889,"is_reserved":false,"is_disabled":false,"rental_uris":{"android":"levelo://app?vid=a62c8899-aefa-46e1-8ac4-b237c473af0d","ios":"levelo://app?vid=a62c8899-aefa-46e1-8ac4-b237c473af0d"},"vehicle_type_id":"4","last_reported":1706828816,"current_range_meters":9600,"station_id":"ce4bhah2rcd13ifvqei0","pricing_plan_id":"free"},{"bike_id":"078d3b1b-2b88-4535-81e5-4255bee39517","system_id":"levelo_inurba_marseille","lat":43.294314,"lon":5.397498,"is_reserved":false,"is_disabled":false,"rental_uris":{"android":"levelo://app?vid=078d3b1b-2b88-4535-81e5-4255bee39517","ios":"levelo://app?vid=078d3b1b-2b88-4535-81e5-4255bee39517"},