{"last_updated":1721401754,"ttl":30,"version":"2.2","data":{"bikes":[{"bike_id":"d1d81e54-fed9-443c-944a-6820c8a62e66","system_id":"levelo_inurba_marseille","lat":43.31251,"lon":5.36793,"is_reserved":false,"is_disabled":false,"rental_uris":{"android":"levelo://app?vid=d1d81e54-fed9-443c-944a-6820c8a62e66","ios":"levelo://app?vid=d1d81e54-fed9-443c-944a-6820c8a62e66"},"vehicle_type_id":"4","last_reported":1721401754,"current_range_meters":4400,"station_id":"","pricing_plan_id":"cebpf4jnsgd1na2vs0mg"},{"bike_id":"d044e233-e0cc-4a76-b3c1-92d52bfd326c","system_id":"levelo_inurba_marseille","lat":43.312239,"lon":5.368562,"is_reserved":false,"is_disabled":false,"rental_uris":{"android":"levelo://app?vid=d044e233-e0cc-4a76-b3c1-92d52bfd326c","ios":"levelo://app?vid=d044e233-e0cc-4a76-b3c1-92d52bfd326c"},"vehicle_type_id":"4","last_reported":1721401754,"current_range_meters":17200,"station_id":"ce4bgl92rcd13ifvqbq0","pricing_plan_id":"cebpf4jnsgd1na2vs0mg"},{"bike_id":"72e850bb-de72-41bb-94f3-8c8b9cbcbeb2","system_id":"levelo_inurba_marseille","lat":43.31493,"lon":5.37308,"is_reserved":false,"is_disabled":false,"rental_uris":{"android":"levelo://app?vid=72e850bb-de72-41bb-94f3-8c8b9cbcbeb2","ios":"levelo://app?vid=72e850bb-de72-41bb-94f3-8c8b9cbcbeb2"},"vehicle_type_id":"4","last_reported":1721401754,"current_range_meters":0,"station_id":"ce4bgt12rcd13ifvqcd0","pricing_plan_id":"cebpf4jnsgd1na2vs0mg"},{"bike_id":"23ab63c2-25ee-49f2-85dd-2e9a6333fc75","system_id":"levelo_inurba_marseille","lat":43.309039,"lon":5.371797,"is_reserved":false,"is_disabled":false,"rental_uris":{"android":"levelo://app?vid=23ab63c2-25ee-49f2-85dd-2e9a6333fc75","ios":"levelo://app?vid=23ab63c2-25ee-49f2-85dd-2e9a6333fc75"},"vehicle_type_id":"4","last_reported":1721401754,"current_range_meters":27600,"station_id":"ce4bguh2rcd13ifvqckg","pricing_plan_id":"cebpf4jnsgd1na2vs0mg"},{"bike_id":"a3c13980-79b2-4ec0-abbf-84483ede267d","system_id":"levelo_inurba_marseille","lat":43.31499,"lon":5.37309,"is_reserved":false,"is_disabled":false,"rental_uris":{"android":"levelo://app?vid=a3c13980-79b2-4ec0-abbf-84483ede267d","ios":"levelo://app?vid=a3c13980-79b2-4ec0-abbf-84483ede267d"},"vehicle_type_id":"4","last_reported":1721401754,"current_range_meters":23200,"station_id":"ce4bgt12rcd13ifvqcd0","pricing_plan_id":"cebpf4jnsgd1na2vs0mg"},{"bike_id":"7df8dd4a-c865-4f29-b768-21740d0daaaa","system_id":"levelo_inurba_marseille","lat":43.314495,"lon":5.373782,"is_reserved":false,"is_disabled":false,"rental_uris":{"android":"levelo://app?vid=7df8dd4a-c865-4f29-b768-21740d0daaaa","ios":"levelo://app?vid=7df8dd4a-c865-4f29-b768-21740d0daaaa"},"vehicle_type_id":"4","last_reported":1721401754,"current_range_meters":27200,"station_id":"","pricing_plan_id":"cebpf4jnsgd1na2vs0mg"},{"bike_id":"4f843a89-c095-43ad-810f-70f65d0849d5","system_id":"levelo_inurba_marseille","lat":43.31851,"lon":5.36259,"is_reserved":false,"is_disabled":false,"rental_uris":{"android":"levelo://app?vid=4f843a89-c095-43ad-810f-70f65d0849d5","ios":"levelo://app?vid=4f843a89-c095-43ad-810f-70f65d0849d5"},"vehicle_type_id":"4","last_reported":1721401754,"current_range_meters":7600,"station_id":"","pricing_plan_id":"cebpf4jnsgd1na2vs0mg"},{"bike_id":"ff1b65ef-4983-430a-830f-2a7fc1340f28","system_id":"levelo_inurba_marseille","lat":43.30545,"lon":5.36541,"is_reserved":false,"is_disabled":false,"rental_uris":{"android":"levelo://app?vid=ff1b65ef-4983-430a-830f-2a7fc1340f28","ios":"levelo://app?vid=ff1b65ef-4983-430a-830f-2a7fc1340f28"},"vehicle_type_id":"4","last_reported":1721401754,"current_range_meters":30000,"station_id":"ce4bgs12rcd13ifvqcag","pricing_plan_id":"cebpf4jnsgd1na2vs0mg"},{"bike_id":"7ba57042-2c89-49f9-89e6-d99c36275d9d","system_id":"levelo_inurba_marseille","lat":43.305714,"lon":5.365633,"is_reserved":false,"is_disabled":false,"rental_uris":{"android":"levelo://app?vid=7ba57042-2c89-49f9-89e6-d99c36275d9d","ios":"levelo://app?vid=7ba57042-2c89-49f9-89e6-d99c36275d9d"},"vehicle_type_id":"4","last_reported":1721401754,"current_range_meters":27200,"station_id":"ce4bgs12rcd13ifvqcag","pricing_plan_id":"cebpf4jnsgd1na2vs0mg"},{"bike_id":"f0733569-4643-4b67-8869-e25ff652e36d","system_id":"levelo_inurba_marseille","lat":43.305706,"lon":5.365654,"is_reserved":false,"is_disabled":false,"rental_uris":{"android":"levelo://app?vid=f0733569-4643-4b67-8869-e25ff652e36d","ios":"levelo://app?vid=f0733569-4643-4b67-8869-e25ff652e36d"},"vehicle_type_id":"4","last_reported":1721401754,"current_range_meters":14800,"station_id":"ce4bgs12rcd13ifvqcag","pricing_plan_id":"cebpf4jnsgd1na2vs0mg"},{"bike_id":"601cd9f6-3299-4ea1-bf6d-7d3fd5093ad3","system_id":"levelo_inurba_marseille","lat":43.305714,"lon":5.365633,"is_reserved":false,"is_disabled":false,"rental_uris":{"android":"levelo://app?vid=601cd9f6-3299-4ea1-bf6d-7d3fd5093ad3","ios":"levelo://app?vid=601cd9f6-3299-4ea1-bf6d-7d3fd5093ad3"},"vehicle_type_id":"4","last_reported":1721401754,"current_range_meters":22800,"station_id":"ce4bgs12rcd13ifvqcag","pricing_plan_id":"cebpf4jnsgd1na2vs0mg"},{"bike_id":"70465c97-b6ce-4cce-97b8-8a7b5d6bd44e","system_id":"levelo_inurba_marseille","lat":43.3053,"lon":5.36652,"is_reserved":false,"is_disabled":false,"rental_uris":{"android":"levelo://app?vid=70465c97-b6ce-4cce-97b8-8a7b5d6bd44e","ios":"levelo://app?vid=70465c97-b6ce-4cce-97b8-8a7b5d6bd44e"},"vehicle_type_id":"4","last_reported":1721401754,"current_range_meters":1600,"station_id":"","pricing_plan_id":"cebpf4jnsgd1na2vs0mg"},{"bike_id":"0c5b95db-1d62-445f-b1b0-d5d10d8e2e72","system_id":"levelo_inurba_marseille","lat":43.305706,"lon":5.365654,"is_reserved":false,"is_disabled":false,"rental_uris":{"android":"levelo://app?vid=0c5b95db-1d62-445f-b1b0-d5d10d8e2e72","ios":"levelo://app?vid=0c5b95db-1d62-445f-b1b0-d5d10d8e2e72"},"vehicle_type_id":"4","last_reported":1721401754,"current_range_meters":26000,"station_id":"ce4bgs12rcd13ifvqcag","pricing_plan_id":"cebpf4jnsgd1na2vs0mg"},{"bike_id":"5117d3bb-d2d9-4dd7-8c09-707cb1239afe","system_id":"levelo_inurba_marseille","lat":43.30602,"lon":5.37232,"is_reserved":false,"is_disabled":false,"rental_uris":{"android":"levelo://app?vid=5117d3bb-d2d9-4dd7-8c09-707cb1239afe","ios":"levelo://app?vid=5117d3bb-d2d9-4dd7-8c09-707cb1239afe"},"vehicle_type_id":"4","last_reported":1721401754,"current_range_meters":19600,"station_id":"ce4bgqh2rcd13ifvqc4g","pricing_plan_id":"cebpf4jnsgd1na2vs0mg"},{"bike_id":"389287d2-3b52-4fbd-9c6d-2d9e4b8a5acf","system_id":"levelo_inurba_marseille","lat":43.311125,"lon":5.377624,"is_reserved":false,"is_disabled":false,"rental_uris":{"android":"levelo://app?vid=389287d2-3b52-4fbd-9c6d-2d9e4b8a5acf","ios":"levelo://app?vid=389287d2-3b52-4fbd-9c6d-2d9e4b8a5acf"},"vehicle_type_id":"4","last_reported":1721401754,"current_range_meters":11600,"station_id":"ce4bgt92rcd13ifvqcg0","pricing_plan_id":"cebpf4jnsgd1na2vs0mg"},{"bike_id":"c3cdefc8-0e44-4d03-a5c8-fa0a6d21bb4d","system_id":"levelo_inurba_marseille","lat":43.32023,"lon":5.37124,"is_reserved":false,"is_disabled":false,"rental_uris":{"android":"levelo://app?vid=c3cdefc8-0e44-4d03-a5c8-fa0a6d21bb4d","ios":"levelo://app?vid=c3cdefc8-0e44-4d03-a5c8-fa0a6d21bb4d"},"vehicle_type_id":"4","last_reported":1721401754,"current_range_meters":16800,"station_id":"","pricing_plan_id":"cebpf4jnsgd1na2vs0mg"},{"bike_id":"a6c82c92-342b-4c09-9bf7-0edc67148537","system_id":"levelo_inurba_marseille","lat":43.30304,"lon":5.368987,"is_reserved":false,"is_disabled":false,"rental_uris":{"android":"levelo://app?vid=a6c82c92-342b-4c09-9bf7-0edc67148537","ios":"levelo://app?vid=a6c82c92-342b-4c09-9bf7-0edc67148537"},"vehicle_type_id":"4","last_reported":1721401754,"current_range_meters":14400,"station_id":"ce4bgqh2rcd13ifvqc5g","pricing_plan_id":"cebpf4jnsgd1na2vs0mg"},{"bike_id":"402fd5aa-049e-4c15-ba51-8a598c85fd37","system_id":"levelo_inurba_marseille","lat":43.315289,"lon":5.380349,"is_reserved":false,"is_disabled":false,"rental_uris":{"android":"levelo://app?vid=402fd5aa-049e-4c15-ba51-8a598c85fd37","ios":"levelo://app?vid=402fd5aa-049e-4c15-ba51-8a598c85fd37"},"vehicle_type_id":"4","last_reported":1721401754,"current_range_meters":14000,"station_id":"ce4bhsp2rcd13ifvqi50","pricing_plan_id":"cebpf4jnsgd1na2vs0mg"},{"bike_id":"03aef83e-7409-46e9-bdc0-9563759bfde2","system_id":"levelo_inurba_marseille","lat":43.315289,"lon":5.380349,"is_reserved":false,"is_disabled":false,"rental_uris":{"android":"levelo://app?vid=03aef83e-7409-46e9-bdc0-9563759bfde2","ios":"levelo://app?vid=03aef83e-7409-46e9-bdc0-9563759bfde2"},"vehicle_type_id":"4","last_reported":1721401754,"current_range_meters":27200,"station_id":"ce4bhsp2rcd13ifvqi50","pricing_plan_id":"cebpf4jnsgd1na2vs0mg"},{"bike_id":"5cccd7cd-795a-474b-a281-5814a414d72f","system_id":"levelo_inurba_marseille","lat":43.30187,"lon":5.36627,"is_reserved":false,"is_disabled":false,"rental_uris":{"android":"levelo://app?vid=5cccd7cd-795a-474b-a281-5814a414d72f","ios":"levelo://app?vid=5cccd7cd-795a-474b-a281-5814a414d72f"},"vehicle_type_id":"4","last_reported":1721401754,"current_range_meters":0,"station_id":"ce4bgrh2rcd13ifvqc8g","pricing_plan_id":"cebpf4jnsgd1na2vs0mg"},{"bike_id":"8a4e2dab-2a01-4057-8fe6-1487a6d30ffc","system_id":"levelo_inurba_marseille","lat":43.308012,"lon":5.381511,"is_reserved":false,"is_disabled":false,"rental_uris":{"android":"levelo://app?vid=8a4e2dab-2a01-4057-8fe6-1487a6d30ffc","ios":"levelo://app?vid=8a4e2dab-2a01-4057-8fe6-1487a6d30ffc"},"vehicle_type_id":"4","last_reported":1721401754,"current_range_meters":0,"station_id":"ce4bgt12rcd13ifvqce0","pricing_plan_id":"cebpf4jnsgd1na2vs0mg"},{"bike_id":"c58d955b-6437-48c3-a2e3-9259b441ef3f","system_id":"levelo_inurba_marseille","lat":43.301939,"lon":5.366286,"is_reserved":false,"is_disabled":false,"rental_uris":{"android":"levelo://app?vid=c58d955b-6437-48c3-a2e3-9259b441ef3f","ios":"levelo://app?vid=c58d955b-6437-48c3-a2e3-9259b441ef3f"},"vehicle_type_id":"4","last_reported":1721401754,"current_range_meters":0,"station_id":"ce4bgrh2rcd13ifvqc8g","pricing_plan_id":"cebpf4jnsgd1na2vs0mg"},{"bike_id":"a66c89a1-5649-4c8f-b4bf-347a48a8c246","system_id":"levelo_inurba_marseille","lat":43.304606,"lon":5.379026,"is_reserved":false,"is_disabled":false,"rental_uris":{"android":"levelo://app?vid=a66c89a1-5649-4c8f-b4bf-347a48a8c246","ios":"levelo://app?vid=a66c89a1-5649-4c8f-b4bf-347a48a8c246"},"vehicle_type_id":"4","last_reported":1721401754,"current_range_meters":800,"station_id":"ce4bgup2rcd13ifvqcn0","pricing_plan_id":"cebpf4jnsgd1na2vs0mg"},{"bike_id":"37644a97-9879-4b71-b22d-ca6c368599c2","system_id":"levelo_inurba_marseille","lat":43.304606,"lon":5.379026,"is_reserved":false,"is_disabled":false,"rental_uris":{"android":"levelo://app?vid=37644a97-9879-4b71-b22d-ca6c368599c2","ios":"levelo://app?vid=37644a97-9879-4b71-b22d-ca6c368599c2"},"vehicle_type_id":"4","last_reported":1721401754,"current_range_meters":11200,"station_id":"ce4bgup2rcd13ifvqcn0","pricing_plan_id":"cebpf4jnsgd1na2vs0mg"},{"bike_id":"3c2f4447-787c-43a4-a1f8-d8adb9645dc9","system_id":"levelo_inurba_marseille","lat":43.304606,"lon":5.379026,"is_reserved":false,"is_disabled":false,"rental_uris":{"android":"levelo://app?vid=3c2f4447-787c-43a4-a1f8-d8adb9645dc9","ios":"levelo://app?vid=3c2f4447-787c-43a4-a1f8-d8adb9645dc9"},"vehicle_type_id":"4","last_reported":1721401754,"current_range_meters":7200,"station_id":"ce4bgup2rcd13ifvqcn0","pricing_plan_id":"cebpf4jnsgd1na2vs0mg"},{"bike_id":"8b0cbb8a-b0ae-4a06-a759-9efe38546447","system_id":"levelo_inurba_marseille","lat":43.304606,"lon":5.379026,"is_reserved":false,"is_disabled":false,"rental_uris":{"android":"levelo://app?vid=8b0cbb8a-b0ae-4a06-a759-9efe38546447","ios":"levelo://app?vid=8b0cbb8a-b0ae-4a06-a759-9efe38546447"},"vehicle_type_id":"4","last_reported":1721401754,"current_range_meters":10400,"station_id":"ce4bgup2rcd13ifvqcn0","pricing_plan_id":"cebpf4jnsgd1na2vs0mg"},{"bike_id":"cd21dcb6-accf-4b1c-ae6d-73de1ad5ff4a","system_id":"levelo_inurba_marseille","lat":43.324771,"lon":5.36557,"is_reserved":false,"is_disabled":false,"rental_uris":{"android":"levelo://app?vid=cd21dcb6-accf-4b1c-ae6d-73de1ad5ff4a","ios":"levelo://app?vid=cd21dcb6-accf-4b1c-ae6d-73de1ad5ff4a"},"vehicle_type_id":"4","last_reported":1721401754,"current_range_meters":0,"station_id":"ce4bhs12rcd13ifvqhvg","pricing_plan_id":"cebpf4jnsgd1na2vs0mg"},{"bike_id":"49c9174c-e04b-4e00-9848-b6d035396dd2","system_id":"levelo_inurba_marseille","lat":43.324771,"lon":5.36557,"is_reserved":false,"is_disabled":false,"rental_uris":{"android":"levelo://app?vid=49c9174c-e04b-4e00-9848-b6d035396dd2","ios":"levelo://app?vid=49c9174c-e04b-4e00-9848-b6d035396dd2"},"vehicle_type_id":"4","last_reported":1721401754,"current_range_meters":22000,"station_id":"ce4bhs12rcd13ifvqhvg","pricing_plan_id":"cebpf4jnsgd1na2vs0mg"},{"bike_id":"7be3282a-b6f6-4e7b-a1b0-43769aad1701","system_id":"levelo_inurba_marseille","lat":43.324771,"lon":5.36557,"is_reserved":false,"is_disabled":false,"rental_uris":{"android":"levelo://app?vid=7be3282a-b6f6-4e7b-a1b0-43769aad1701","ios":"levelo://app?vid=7be3282a-b6f6-4e7b-a1b0-43769aad1701"},"vehicle_type_id":"4","last_reported":1721401754,"current_range_meters":9600,"station_id":"ce4bhs12rcd13ifvqhvg","pricing_plan_id":"cebpf4jnsgd1na2vs0mg"},{"bike_id":"f1fe3f3f-2143-44a1-86fd-cffcf96be0e6","system_id":"levelo_inurba_marseille","lat":43.324771,"lon":5.36557,"is_reserved":false,"is_disabled":false,"rental_uris":{"android":"levelo://app?vid=f1fe3f3f-2143-44a1-86fd-cffcf96be0e6","ios":"levelo://app?vid=f1fe3f3f-2143-44a1-86fd-cffcf96be0e6"},"vehicle_type_id":"4","last_reported":1721401754,"current_range_meters":19600,"station_id":"ce4bhs12rcd13ifvqhvg","pricing_plan_id":"cebpf4jnsgd1na2vs0mg"},{"bike_id":"0d7a37ce-b0f3-4121-b10b-b171f38a5a1a","system_id":"levelo_inurba_marseille","lat":43.324771,"lon":5.36557,"is_reserved":false,"is_disabled":false,"rental_uris":{"android":"levelo://app?vid=0d7a37ce-b0f3-4121-b10b-b171f38a5a1a","ios":"levelo://app?vid=0d7a37ce-b0f3-4121-b10b-b171f38a5a1a"},"vehicle_type_id":"4","last_reported":1721401754,"current_range_meters":31200,"station_id":"ce4bhs12rcd13ifvqhvg","pricing_plan_id":"cebpf4jnsgd1na2vs0mg"},{"bike_id":"462ae052-5478-4656-9e0b-f1608965bae8","system_id":"levelo_inurba_marseille","lat":43.324771,"lon":5.36557,"is_reserved":false,"is_disabled":false,"rental_uris":{"android":"levelo://app?vid=462ae052-5478-4656-9e0b-f1608965bae8","ios":"levelo://app?vid=462ae052-5478-4656-9e0b-f1608965bae8"},"vehicle_type_id":"4","last_reported":1721401754,"current_range_meters":30800,"station_id":"ce4bhs12rcd13ifvqhvg","pricing_plan_id":"cebpf4jnsgd1na2vs0mg"},{"bike_id":"b264075c-aa4c-43c8-beff-c6ca08094da2","system_id":"levelo_inurba_marseille","lat":43.324771,"lon":5.36557,"is_reserved":false,"is_disabled":false,"rental_uris":{"android":"levelo://app?vid=b264075c-aa4c-43c8-beff-c6ca08094da2","ios":"levelo://app?vid=b264075c-aa4c-43c8-beff-c6ca08094da2"},"vehicle_type_id":"4","last_reported":1721401754,"current_range_meters":31200,"station_id":"ce4bhs12rcd13ifvqhvg","pricing_plan_id":"cebpf4jnsgd1na2vs0mg"},{"bike_id":"8f962ede-c569-4563-8b57-1cf223c13657","system_id":"levelo_inurba_marseille","lat":43.324771,"lon":5.36557,"is_reserved":false,"is_disabled":false,"rental_uris":{"android":"levelo://app?vid=8f962ede-c569-4563-8b57-1cf223c13657","ios":"levelo://app?vid=8f962ede-c569-4563-8b57-1cf223c13657"},"vehicle_type_id":"4","last_reported":1721401754,"current_range_meters":15200,"station_id":"ce4bhs12rcd13ifvqhvg","pricing_plan_id":"cebpf4jnsgd1na2vs0mg"},{"bike_id":"843acb09-ec00-42a4-8f8a-3a11a4562824","system_id":"levelo_inurba_marseille","lat":43.324771,"lon":5.36557,"is_reserved":false,"is_disabled":false,"rental_uris":{"android":"levelo://app?vid=843acb09-ec00-42a4-8f8a-3a11a4562824","ios":"levelo://app?vid=843acb09-ec00-42a4-8f8a-3a11a4562824"},"vehicle_type_id":"4","last_reported":1721401754,"current_range_meters":31600,"station_id":"ce4bhs12rcd13ifvqhvg","pricing_plan_id":"cebpf4jnsgd1na2vs0mg"},{"bike_id":"2cc0e66a-a2fa-466f-8a05-5990f0e1d535","system_id":"levelo_inurba_marseille","lat":43.324771,"lon":5.36557,"is_reserved":false,"is_disabled":false,"rental_uris":{"android":"levelo://app?vid=2cc0e66a-a2fa-466f-8a05-5990f0e1d535","ios":"levelo://app?vid=2cc0e66a-a2fa-466f-8a05-5990f0e1d535"},"vehicle_type_id":"4","last_reported":1721401754,"current_range_meters":6400,"station_id":"ce4bhs12rcd13ifvqhvg","pricing_plan_id":"cebpf4jnsgd1na2vs0mg"},{"bike_id":"2baca4ef-0d69-4564-91f0-6aa88a9ace5b","system_id":"levelo_inurba_marseille","lat":43.324771,"lon":5.36557,"is_reserved":false,"is_disabled":false,"rental_uris":{"android":"levelo://app?vid=2baca4ef-0d69-4564-91f0-6aa88a9ace5b","ios":"levelo://app?vid=2baca4ef-0d69-4564-91f0-6aa88a9ace5b"},"vehicle_type_id":"4","last_reported":1721401754,"current_range_meters":15600,"station_id":"ce4bhs12rcd13ifvqhvg","pricing_plan_id":"cebpf4jnsgd1na2vs0mg"},{"bike_id":"6630928a-2e29-4114-b0d8-d679fdad34a9","system_id":"levelo_inurba_marseille","lat":43.32493,"lon":5.36561,"is_reserved":false,"is_disabled":false,"rental_uris":{"android":"levelo://app?vid=6630928a-2e29-4114-b0d8-d679fdad34a9","ios":"levelo://app?vid=6630928a-2e29-4114-b0d8-d679fdad34a9"},"vehicle_type_id":"4","last_reported":1721401754,"current_range_meters":16400,"station_id":"ce4bhs12rcd13ifvqhvg","pricing_plan_id":"cebpf4jnsgd1na2vs0mg"},{"bike_id":"e03c57f8-34aa-4fb3-8a59-c3881dc8e906","system_id":"levelo_inurba_marseille","lat":43.301429,"lon":5.37413,"is_reserved":false,"is_disabled":false,"rental_uris":{"android":"levelo://app?vid=e03c57f8-34aa-4fb3-8a59-c3881dc8e906","ios":"levelo://app?vid=e03c57f8-34aa-4fb3-8a59-c3881dc8e906"},"vehicle_type_id":"4","last_reported":1721401754,"current_range_meters":29200,"station_id":"ce4bgs92rcd13ifvqcc0","pricing_plan_id":"cebpf4jnsgd1na2vs0mg"},{"bike_id":"4c68084d-69f0-481c-9317-08103c92e8e4","system_id":"levelo_inurba_marseille","lat":43.301429,"lon":5.37413,"is_reserved":false,"is_disabled":false,"rental_uris":{"android":"levelo://app?vid=4c68084d-69f0-481c-9317-08103c92e8e4","ios":"levelo://app?vid=4c68084d-69f0-481c-9317-08103c92e8e4"},"vehicle_type_id":"4","last_reported":1721401754,"current_range_meters":23200,"station_id":"ce4bgs92rcd13ifvqcc0","pricing_plan_id":"cebpf4jnsgd1na2vs0mg"},{"bike_id":"b9b1bcdc-6ab5-497a-8ec7-b3378bb91823","system_id":"levelo_inurba_marseille","lat":43.301429,"lon":5.37413,"is_reserved":false,"is_disabled":false,"rental_uris":{"android":"levelo://app?vid=b9b1bcdc-6ab5-497a-8ec7-b3378bb91823","ios":"levelo://app?vid=b9b1bcdc-6ab5-497a-8ec7-b3378bb91823"},"vehicle_type_id":"4","last_reported":1721401754,"current_range_meters":20800,"station_id":"ce4bgs92rcd13ifvqcc0","pricing_plan_id":"cebpf4jnsgd1na2vs0mg"},{"bike_id":"5d64fb06-1fdb-41e2-8729-e1f747dc1dd8","system_id":"levelo_inurba_marseille","lat":43.302784,"lon":5.377158,"is_reserved":false,"is_disabled":false,"rental_uris":{"android":"levelo://app?vid=5d64fb06-1fdb-41e2-8729-e1f747dc1dd8","ios":"levelo://app?vid=5d64fb06-1fdb-41e2-8729-e1f747dc1dd8"},"vehicle_type_id":"4","last_reported":1721401754,"current_range_meters":10000,"station_id":"ce4bguh2rcd13ifvqcj0","pricing_plan_id":"cebpf4jnsgd1na2vs0mg"},{"bike_id":"3ce919f2-2df5-4f56-83b9-a2c0725df5a1","system_id":"levelo_inurba_marseille","lat":43.3057,"lon":5.38142,"is_reserved":false,"is_disabled":false,"rental_uris":{"android":"levelo://app?vid=3ce919f2-2df5-4f56-83b9-a2c0725df5a1","ios":"levelo://app?vid=3ce919f2-2df5-4f56-83b9-a2c0725df5a1"},"vehicle_type_id":"4","last_reported":1721401754,"current_range_meters":19600,"station_id":"","pricing_plan_id":"cebpf4jnsgd1na2vs0mg"},{"bike_id":"0c542167-59a1-4de5-9e79-54119b9f5a77","system_id":"levelo_inurba_marseille","lat":43.319935,"lon":5.381699,"is_reserved":false,"is_disabled":false,"rental_uris":{"android":"levelo://app?vid=0c542167-59a1-4de5-9e79-54119b9f5a77","ios":"levelo://app?vid=0c542167-59a1-4de5-9e79-54119b9f5a77"},"vehicle_type_id":"4","last_reported":1721401754,"current_range_meters":3600,"station_id":"ce4bhr12rcd13ifvqhpg","pricing_plan_id":"cebpf4jnsgd1na2vs0mg"},{"bike_id":"7d5bff4b-529f-4a9a-bcf9-02b9b93ef0f6","system_id":"levelo_inurba_marseille","lat":43.313571,"lon":5.384829,"is_reserved":false,"is_disabled":false,"rental_uris":{"android":"levelo://app?vid=7d5bff4b-529f-4a9a-bcf9-02b9b93ef0f6","ios":"levelo://app?vid=7d5bff4b-529f-4a9a-bcf9-02b9b93ef0f6"},"vehicle_type_id":"4","last_reported":1721401754,"current_range_meters":3600,"station_id":"ce4bgt92rcd13ifvqcf0","pricing_plan_id":"cebpf4jnsgd1na2vs0mg"},{"bike_id":"f5814707-f204-45f0-8957-cac973891bad","system_id":"levelo_inurba_marseille","lat":43.313571,"lon":5.384829,"is_reserved":false,"is_disabled":false,"rental_uris":{"android":"levelo://app?vid=f5814707-f204-45f0-8957-cac973891bad","ios":"levelo://app?vid=f5814707-f204-45f0-8957-cac973891bad"},"vehicle_type_id":"4","last_reported":1721401754,"current_range_meters":16800,"station_id":"ce4bgt92rcd13ifvqcf0","pricing_plan_id":"cebpf4jnsgd1na2vs0mg"},{"bike_id":"a3b35e24-834d-4705-9c3e-f27a1e156cf3","system_id":"levelo_inurba_marseille","lat":43.299222,"lon":5.365554,"is_reserved":false,"is_disabled":false,"rental_uris":{"android":"levelo://app?vid=a3b35e24-834d-4705-9c3e-f27a1e156cf3","ios":"levelo://app?vid=a3b35e24-834d-4705-9c3e-f27a1e156cf3"},"vehicle_type_id":"4","last_reported":1721401754,"current_range_meters":0,"station_id":"ce4bgm92rcd13ifvqbr0","pricing_plan_id":"cebpf4jnsgd1na2vs0mg"},{"bike_id":"0901aaad-a4dd-47c8-a498-027d3520e7d8","system_id":"levelo_inurba_marseille","lat":43.299724,"lon":5.371829,"is_reserved":false,"is_disabled":false,"rental_uris":{"android":"levelo://app?vid=0901aaad-a4dd-47c8-a498-027d3520e7d8","ios":"levelo://app?vid=0901aaad-a4dd-47c8-a498-027d3520e7d8"},"vehicle_type_id":"4","last_reported":1721401754,"current_range_meters":3200,"station_id":"ce4bgr92rcd13ifvqc7g","pricing_plan_id":"cebpf4jnsgd1na2vs0mg"},{"bike_id":"68a97a36-763d-4af5-a1d2-d4e17af1f51a","system_id":"levelo_inurba_marseille","lat":43.299209,"lon":5.365547,"is_reserved":false,"is_disabled":false,"rental_uris":{"android":"levelo://app?vid=68a97a36-763d-4af5-a1d2-d4e17af1f51a","ios":"levelo://app?vid=68a97a36-763d-4af5-a1d2-d4e17af1f51a"},"vehicle_type_id":"4","last_reported":1721401754,"current_range_meters":11200,"station_id":"ce4bgm92rcd13ifvqbr0","pricing_plan_id":"cebpf4jnsgd1na2vs0mg"},{"bike_id":"359c6841-2f9d-4b44-8678-410eb68f3f21","system_id":"levelo_inurba_marseille","lat":43.29853,"lon":5.36284,"is_reserved":false,"is_disabled":false,"rental_uris":{"android":"levelo://app?vid=359c6841-2f9d-4b44-8678-410eb68f3f21","ios":"levelo://app?vid=359c6841-2f9d-4b44-8678-410eb68f3f21"},"vehicle_type_id":"4","last_reported":1721401754,"current_range_meters":25600,"station_id":"ce4bgpp2rcd13ifvqc3g","pricing_plan_id":"cebpf4jnsgd1na2vs0mg"},{"bike_id":"1e8f4d38-9ed5-47ca-91b1-5077ac6133d5","system_id":"levelo_inurba_marseille","lat":43.29851,"lon":5.3628,"is_reserved":false,"is_disabled":false,"rental_uris":{"android":"levelo://app?vid=1e8f4d38-9ed5-47ca-91b1-5077ac6133d5","ios":"levelo://app?vid=1e8f4d38-9ed5-47ca-91b1-5077ac6133d5"},"vehicle_type_id":"4","last_reported":1721401754,"current_range_meters":21600,"station_id":"ce4bgpp2rcd13ifvqc3g","pricing_plan_id":"cebpf4jnsgd1na2vs0mg"},{"bike_id":"32a61995-0274-4e7c-bce2-6199ed81c9de","system_id":"levelo_inurba_marseille","lat":43.29849,"lon":5.36288,"is_reserved":false,"is_disabled":false,"rental_uris":{"android":"levelo://app?vid=32a61995-0274-4e7c-bce2-6199ed81c9de","ios":"levelo://app?vid=32a61995-0274-4e7c-bce2-6199ed81c9de"},"vehicle_type_id":"4","last_reported":1721401754,"current_range_meters":13600,"station_id":"ce4bgpp2rcd13ifvqc3g","pricing_plan_id":"cebpf4jnsgd1na2vs0mg"},{"bike_id":"bb148a20-32b4-49cd-85ba-481b6679e3c3","system_id":"levelo_inurba_marseille","lat":43.298433,"lon":5.362774,"is_reserved":false,"is_disabled":false,"rental_uris":{"android":"levelo://app?vid=bb148a20-32b4-49cd-85ba-481b6679e3c3","ios":"levelo://app?vid=bb148a20-32b4-49cd-85ba-481b6679e3c3"},"vehicle_type_id":"4","last_reported":1721401754,"current_range_meters":23600,"station_id":"ce4bgpp2rcd13ifvqc3g","pricing_plan_id":"cebpf4jnsgd1na2vs0mg"},{"bike_id":"389b405c-f361-4ee4-ba60-f5c9dc7e734f","system_id":"levelo_inurba_marseille","lat":43.298433,"lon":5.362774,"is_reserved":false,"is_disabled":false,"rental_uris":{"android":"levelo://app?vid=389b405c-f361-4ee4-ba60-f5c9dc7e734f","ios":"levelo://app?vid=389b405c-f361-4ee4-ba60-f5c9dc7e734f"},"vehicle_type_id":"4","last_reported":1721401754,"current_range_meters":8800,"station_id":"ce4bgpp2rcd13ifvqc3g","pricing_plan_id":"cebpf4jnsgd1na2vs0mg"},{"bike_id":"72a489d2-b9ad-4ad8-8aff-927290ef8a10","system_id":"levelo_inurba_marseille","lat":43.29847,"lon":5.36284,"is_reserved":false,"is_disabled":false,"rental_uris":{"android":"levelo://app?vid=72a489d2-b9ad-4ad8-8aff-927290ef8a10","ios":"levelo://app?vid=72a489d2-b9ad-4ad8-8aff-927290ef8a10"},"vehicle_type_id":"4","last_reported":1721401754,"current_range_meters":20000,"station_id":"ce4bgpp2rcd13ifvqc3g","pricing_plan_id":"cebpf4jnsgd1na2vs0mg"},{"bike_id":"a8d98173-b447-45ed-9e95-17f0456b98af","system_id":"levelo_inurba_marseille","lat":43.29847,"lon":5.36279,"is_reserved":false,"is_disabled":false,"rental_uris":{"android":"levelo://app?vid=a8d98173-b447-45ed-9e95-17f0456b98af","ios":"levelo://app?vid=a8d98173-b447-45ed-9e95-17f0456b98af"},"vehicle_type_id":"4","last_reported":1721401754,"current_range_meters":23600,"station_id":"ce4bgpp2rcd13ifvqc3g","pricing_plan_id":"cebpf4jnsgd1na2vs0mg"},{"bike_id":"4a6c82ed-b993-43bb-a602-ec6b40ab5fcf","system_id":"levelo_inurba_marseille","lat":43.298433,"lon":5.362774,"is_reserved":false,"is_disabled":false,"rental_uris":{"android":"levelo://app?vid=4a6c82ed-b993-43bb-a602-ec6b40ab5fcf","ios":"levelo://app?vid=4a6c82ed-b993-43bb-a602-ec6b40ab5fcf"},"vehicle_type_id":"4","last_reported":1721401754,"current_range_meters":17200,"station_id":"ce4bgpp2rcd13ifvqc3g","pricing_plan_id":"cebpf4jnsgd1na2vs0mg"},{"bike_id":"e520b79c-98f7-4081-893b-719a95e47f44","system_id":"levelo_inurba_marseille","lat":43.29845,"lon":5.36285,"is_reserved":false,"is_disabled":false,"rental_uris":{"android":"levelo://app?vid=e520b79c-98f7-4081-893b-719a95e47f44","ios":"levelo://app?vid=e520b79c-98f7-4081-893b-719a95e47f44"},"vehicle_type_id":"4","last_reported":1721401754,"current_range_meters":28000,"station_id":"ce4bgpp2rcd13ifvqc3g","pricing_plan_id":"cebpf4jnsgd1na2vs0mg"},{"bike_id":"8f0a51ec-75ce-40f1-b356-cea85de1eab5","system_id":"levelo_inurba_marseille","lat":43.298433,"lon":5.362774,"is_reserved":false,"is_disabled":false,"rental_uris":{"android":"levelo://app?vid=8f0a51ec-75ce-40f1-b356-cea85de1eab5","ios":"levelo://app?vid=8f0a51ec-75ce-40f1-b356-cea85de1eab5"},"vehicle_type_id":"4","last_reported":1721401754,"current_range_meters":31200,"station_id":"ce4bgpp2rcd13ifvqc3g","pricing_plan_id":"cebpf4jnsgd1na2vs0mg"},{"bike_id":"631460d4-5861-4521-b712-5cdda59368d0","system_id":"levelo_inurba_marseille","lat":43.298433,"lon":5.362774,"is_reserved":false,"is_disabled":false,"rental_uris":{"android":"levelo://app?vid=631460d4-5861-4521-b712-5cdda59368d0","ios":"levelo://app?vid=631460d4-5861-4521-b712-5cdda59368d0"},"vehicle_type_id":"4","last_reported":1721401754,"current_range_meters":26000,"station_id":"ce4bgpp2rcd13ifvqc3g","pricing_plan_id":"cebpf4jnsgd1na2vs0mg"},{"bike_id":"259b586c-81df-4885-8eb3-844756ac73f9","system_id":"levelo_inurba_marseille","lat":43.298433,"lon":5.362774,"is_reserved":false,"is_disabled":false,"rental_uris":{"android":"levelo://app?vid=259b586c-81df-4885-8eb3-844756ac73f9","ios":"levelo://app?vid=259b586c-81df-4885-8eb3-844756ac73f9"},"vehicle_type_id":"4","last_reported":1721401754,"current_range_meters":31200,"station_id":"ce4bgpp2rcd13ifvqc3g","pricing_plan_id":"cebpf4jnsgd1na2vs0mg"},{"bike_id":"ab1c1935-c42f-4624-8115-e6c77cc06632","system_id":"levelo_inurba_marseille","lat":43.298433,"lon":5.362774,"is_reserved":false,"is_disabled":false,"rental_uris":{"android":"levelo://app?vid=ab1c1935-c42f-4624-8115-e6c77cc06632","ios":"levelo://app?vid=ab1c1935-c42f-4624-8115-e6c77cc06632"},"vehicle_type_id":"4","last_reported":1721401754,"current_range_meters":31200,"station_id":"ce4bgpp2rcd13ifvqc3g","pricing_plan_id":"cebpf4jnsgd1na2vs0mg"},{"bike_id":"212ea3af-6aa5-408e-97c1-fe228c31c87a","system_id":"levelo_inurba_marseille","lat":43.299243,"lon":5.37481,"is_reserved":false,"is_disabled":false,"rental_uris":{"android":"levelo://app?vid=212ea3af-6aa5-408e-97c1-fe228c31c87a","ios":"levelo://app?vid=212ea3af-6aa5-408e-97c1-fe228c31c87a"},"vehicle_type_id":"4","last_reported":1721401754,"current_range_meters":32000,"station_id":"ce4bgjh2rcd13ifvqbg0","pricing_plan_id":"cebpf4jnsgd1na2vs0mg"},{"bike_id":"9af014a2-0fc3-4b63-881c-91119a429d97","system_id":"levelo_inurba_marseille","lat":43.298433,"lon":5.362774,"is_reserved":false,"is_disabled":false,"rental_uris":{"android":"levelo://app?vid=9af014a2-0fc3-4b63-881c-91119a429d97","ios":"levelo://app?vid=9af014a2-0fc3-4b63-881c-91119a429d97"},"vehicle_type_id":"4","last_reported":1721401754,"current_range_meters":31200,"station_id":"ce4bgpp2rcd13ifvqc3g","pricing_plan_id":"cebpf4jnsgd1na2vs0mg"},{"bike_id":"f129632c-ad9c-4647-85a3-7cc62f47636f","system_id":"levelo_inurba_marseille","lat":43.298433,"lon":5.362774,"is_reserved":false,"is_disabled":false,"rental_uris":{"android":"levelo://app?vid=f129632c-ad9c-4647-85a3-7cc62f47636f","ios":"levelo://app?vid=f129632c-ad9c-4647-85a3-7cc62f47636f"},"vehicle_type_id":"4","last_reported":1721401754,"current_range_meters":31200,"station_id":"ce4bgpp2rcd13ifvqc3g","pricing_plan_id":"cebpf4jnsgd1na2vs0mg"},{"bike_id":"cd0d3617-41e0-4c32-8889-274eb55c4baa","system_id":"levelo_inurba_marseille","lat":43.298433,"lon":5.362774,"is_reserved":false,"is_disabled":false,"rental_uris":{"android":"levelo://app?vid=cd0d3617-41e0-4c32-8889-274eb55c4baa","ios":"levelo://app?vid=cd0d3617-41e0-4c32-8889-274eb55c4baa"},"vehicle_type_id":"4","last_reported":1721401754,"current_range_meters":31200,"station_id":"ce4bgpp2rcd13ifvqc3g","pricing_plan_id":"cebpf4jnsgd1na2vs0mg"},{"bike_id":"63606225-c20c-4066-8087-8490f34b0b3c","system_id":"levelo_inurba_marseille","lat":43.298433,"lon":5.362774,"is_reserved":false,"is_disabled":false,"rental_uris":{"android":"levelo://app?vid=63606225-c20c-4066-8087-8490f34b0b3c","ios":"levelo://app?vid=63606225-c20c-4066-8087-8490f34b0b3c"},"vehicle_type_id":"4","last_reported":1721401754,"current_range_meters":28400,"station_id":"ce4bgpp2rcd13ifvqc3g","pricing_plan_id":"cebpf4jnsgd1na2vs0mg"},{"bike_id":"f45e669a-cc19-4a31-9a6f-90bcda7468bc","system_id":"levelo_inurba_marseille","lat":43.31173,"lon":5.38723,"is_reserved":false,"is_disabled":false,"rental_uris":{"android":"levelo://app?vid=f45e669a-cc19-4a31-9a6f-90bcda7468bc","ios":"levelo://app?vid=f45e669a-cc19-4a31-9a6f-90bcda7468bc"},"vehicle_type_id":"4","last_reported":1721401754,"current_range_meters":0,"station_id":"ce4bgv12rcd13ifvqcp0","pricing_plan_id":"cebpf4jnsgd1na2vs0mg"},{"bike_id":"2cc20890-c080-4b3e-b085-f76c6005fe7b","system_id":"levelo_inurba_marseille","lat":43.299243,"lon":5.37481,"is_reserved":false,"is_disabled":false,"rental_uris":{"android":"levelo://app?vid=2cc20890-c080-4b3e-b085-f76c6005fe7b","ios":"levelo://app?vid=2cc20890-c080-4b3e-b085-f76c6005fe7b"},"vehicle_type_id":"4","last_reported":1721401754,"current_range_meters":22000,"station_id":"ce4bgjh2rcd13ifvqbg0","pricing_plan_id":"cebpf4jnsgd1na2vs0mg"},{"bike_id":"f2a37dcd-9e62-4042-9942-4335be4a077a","system_id":"levelo_inurba_marseille","lat":43.311819,"lon":5.387349,"is_reserved":false,"is_disabled":false,"rental_uris":{"android":"levelo://app?vid=f2a37dcd-9e62-4042-9942-4335be4a077a","ios":"levelo://app?vid=f2a37dcd-9e62-4042-9942-4335be4a077a"},"vehicle_type_id":"4","last_reported":1721401754,"current_range_meters":19600,"station_id":"ce4bh0p2rcd13ifvqd80","pricing_plan_id":"cebpf4jnsgd1na2vs0mg"},{"bike_id":"2c84fbad-2736-4002-a3a0-db945b3b0e10","system_id":"levelo_inurba_marseille","lat":43.28573,"lon":5.394992,"is_reserved":false,"is_disabled":false,"rental_uris":{"android":"levelo://app?vid=2c84fbad-2736-4002-a3a0-db945b3b0e10","ios":"levelo://app?vid=2c84fbad-2736-4002-a3a0-db945b3b0e10"},"vehicle_type_id":"4","last_reported":1721401754,"current_range_meters":21200,"station_id":"ce4bh292rcd13ifvqdg0","pricing_plan_id":"cebpf4jnsgd1na2vs0mg"},{"bike_id":"a9629d6f-3f90-430d-9f88-78342679067b","system_id":"levelo_inurba_marseille","lat":43.322872,"lon":5.382756,"is_reserved":false,"is_disabled":false,"rental_uris":{"android":"levelo://app?vid=a9629d6f-3f90-430d-9f88-78342679067b","ios":"levelo://app?vid=a9629d6f-3f90-430d-9f88-78342679067b"},"vehicle_type_id":"4","last_reported":1721401754,"current_range_meters":22800,"station_id":"ce4bhr12rcd13ifvqhqg","pricing_plan_id":"cebpf4jnsgd1na2vs0mg"},{"bike_id":"adaeb449-c2f7-4542-aaa0-2bc83171b11f","system_id":"levelo_inurba_marseille","lat":43.322872,"lon":5.382756,"is_reserved":false,"is_disabled":false,"rental_uris":{"android":"levelo://app?vid=adaeb449-c2f7-4542-aaa0-2bc83171b11f","ios":"levelo://app?vid=adaeb449-c2f7-4542-aaa0-2bc83171b11f"},"vehicle_type_id":"4","last_reported":1721401754,"current_range_meters":30800,"station_id":"ce4bhr12rcd13ifvqhqg","pricing_plan_id":"cebpf4jnsgd1na2vs0mg"},{"bike_id":"a38d914f-c3d1-45c3-ab98-941c4505844f","system_id":"levelo_inurba_marseille","lat":43.322872,"lon":5.382756,"is_reserved":false,"is_disabled":false,"rental_uris":{"android":"levelo://app?vid=a38d914f-c3d1-45c3-ab98-941c4505844f","ios":"levelo://app?vid=a38d914f-c3d1-45c3-ab98-941c4505844f"},"vehicle_type_id":"4","last_reported":1721401754,"current_range_meters":27600,"station_id":"ce4bhr12rcd13ifvqhqg","pricing_plan_id":"cebpf4jnsgd1na2vs0mg"},{"bike_id":"cdaa74ca-adf2-477b-9c3e-88c22a62a7b6","system_id":"levelo_inurba_marseille","lat":43.297217,"lon":5.365768,"is_reserved":false,"is_disabled":false,"rental_uris":{"android":"levelo://app?vid=cdaa74ca-adf2-477b-9c3e-88c22a62a7b6","ios":"levelo://app?vid=cdaa74ca-adf2-477b-9c3e-88c22a62a7b6"},"vehicle_type_id":"4","last_reported":1721401754,"current_range_meters":11200,"station_id":"ce4bgn12rcd13ifvqbt0","pricing_plan_id":"cebpf4jnsgd1na2vs0mg"},{"bike_id":"b599cfff-6636-4c64-a1a6-019e1dd34030","system_id":"levelo_inurba_marseille","lat":43.29712,"lon":5.36614,"is_reserved":false,"is_disabled":false,"rental_uris":{"android":"levelo://app?vid=b599cfff-6636-4c64-a1a6-019e1dd34030","ios":"levelo://app?vid=b599cfff-6636-4c64-a1a6-019e1dd34030"},"vehicle_type_id":"4","last_reported":1721401754,"current_range_meters":26400,"station_id":"ce4bgn12rcd13ifvqbt0","pricing_plan_id":"cebpf4jnsgd1na2vs0mg"},{"bike_id":"48758b18-aee4-4511-ae1d-a6d612673a89","system_id":"levelo_inurba_marseille","lat":43.29707,"lon":5.36583,"is_reserved":false,"is_disabled":false,"rental_uris":{"android":"levelo://app?vid=48758b18-aee4-4511-ae1d-a6d612673a89","ios":"levelo://app?vid=48758b18-aee4-4511-ae1d-a6d612673a89"},"vehicle_type_id":"4","last_reported":1721401754,"current_range_meters":25200,"station_id":"ce4bgn12rcd13ifvqbt0","pricing_plan_id":"cebpf4jnsgd1na2vs0mg"},{"bike_id":"5d78128c-4cb4-4a06-8b1f-53fa1b5ebf05","system_id":"levelo_inurba_marseille","lat":43.29703,"lon":5.36613,"is_reserved":false,"is_disabled":false,"rental_uris":{"android":"levelo://app?vid=5d78128c-4cb4-4a06-8b1f-53fa1b5ebf05","ios":"levelo://app?vid=5d78128c-4cb4-4a06-8b1f-53fa1b5ebf05"},"vehicle_type_id":"4","last_reported":1721401754,"current_range_meters":12400,"station_id":"ce4bgn12rcd13ifvqbt0","pricing_plan_id":"cebpf4jnsgd1na2vs0mg"},{"bike_id":"a24f24fd-ee19-4ac7-b2b8-bd47cdd9d8f4","system_id":"levelo_inurba_marseille","lat":43.2968,"lon":5.37291,"is_reserved":false,"is_disabled":false,"rental_uris":{"android":"levelo://app?vid=a24f24fd-ee19-4ac7-b2b8-bd47cdd9d8f4","ios":"levelo://app?vid=a24f24fd-ee19-4ac7-b2b8-bd47cdd9d8f4"},"vehicle_type_id":"4","last_reported":1721401754,"current_range_meters":12000,"station_id":"ce4bgk12rcd13ifvqbj0","pricing_plan_id":"cebpf4jnsgd1na2vs0mg"},{"bike_id":"91426cec-fecb-4004-88f1-f456d4eee535","system_id":"levelo_inurba_marseille","lat":43.29573,"lon":5.367355,"is_reserved":false,"is_disabled":false,"rental_uris":{"android":"levelo://app?vid=91426cec-fecb-4004-88f1-f456d4eee535","ios":"levelo://app?vid=91426cec-fecb-4004-88f1-f456d4eee535"},"vehicle_type_id":"4","last_reported":1721401754,"current_range_meters":21200,"station_id":"ce4bgph2rcd13ifvqc2g","pricing_plan_id":"cebpf4jnsgd1na2vs0mg"},{"bike_id":"2dcc4718-4c90-4197-b7ac-56fc5b594514","system_id":"levelo_inurba_marseille","lat":43.29573,"lon":5.367355,"is_reserved":false,"is_disabled":false,"rental_uris":{"android":"levelo://app?vid=2dcc4718-4c90-4197-b7ac-56fc5b594514","ios":"levelo://app?vid=2dcc4718-4c90-4197-b7ac-56fc5b594514"},"vehicle_type_id":"4","last_reported":1721401754,"current_range_meters":20800,"station_id":"ce4bgph2rcd13ifvqc2g","pricing_plan_id":"cebpf4jnsgd1na2vs0mg"},{"bike_id":"dfebb57e-126c-43ad-b3e0-2b061afc1d5e","system_id":"levelo_inurba_marseille","lat":43.299028,"lon":5.381509,"is_reserved":false,"is_disabled":false,"rental_uris":{"android":"levelo://app?vid=dfebb57e-126c-43ad-b3e0-2b061afc1d5e","ios":"levelo://app?vid=dfebb57e-126c-43ad-b3e0-2b061afc1d5e"},"vehicle_type_id":"4","last_reported":1721401754,"current_range_meters":18000,"station_id":"ce4bgj12rcd13ifvqbc0","pricing_plan_id":"cebpf4jnsgd1na2vs0mg"},{"bike_id":"773fc09f-0c07-447b-a3e0-a34148135085","system_id":"levelo_inurba_marseille","lat":43.296921,"lon":5.376579,"is_reserved":false,"is_disabled":false,"rental_uris":{"android":"levelo://app?vid=773fc09f-0c07-447b-a3e0-a34148135085","ios":"levelo://app?vid=773fc09f-0c07-447b-a3e0-a34148135085"},"vehicle_type_id":"4","last_reported":1721401754,"current_range_meters":9600,"station_id":"ce4bgkh2rcd13ifvqbl0","pricing_plan_id":"cebpf4jnsgd1na2vs0mg"},{"bike_id":"dc85ec52-4129-4f0a-bd15-4fccc416a014","system_id":"levelo_inurba_marseille","lat":43.29577,"lon":5.37518,"is_reserved":false,"is_disabled":false,"rental_uris":{"android":"levelo://app?vid=dc85ec52-4129-4f0a-bd15-4fccc416a014","ios":"levelo://app?vid=dc85ec52-4129-4f0a-bd15-4fccc416a014"},"vehicle_type_id":"4","last_reported":1721401754,"current_range_meters":1600,"station_id":"ce4bgh92rcd13ifvqb50","pricing_plan_id":"cebpf4jnsgd1na2vs0mg"},{"bike_id":"61736ed0-dc99-46c0-b769-63836de0bbfa","system_id":"levelo_inurba_marseille","lat":43.304274,"lon":5.388873,"is_reserved":false,"is_disabled":false,"rental_uris":{"android":"levelo://app?vid=61736ed0-dc99-46c0-b769-63836de0bbfa","ios":"levelo://app?vid=61736ed0-dc99-46c0-b769-63836de0bbfa"},"vehicle_type_id":"4","last_reported":1721401754,"current_range_meters":18800,"station_id":"ce4bgk12rcd13ifvqbi0","pricing_plan_id":"cebpf4jnsgd1na2vs0mg"},{"bike_id":"59c9c691-a663-4701-8188-60166bd28640","system_id":"levelo_inurba_marseille","lat":43.296263,"lon":5.377094,"is_reserved":false,"is_disabled":false,"rental_uris":{"android":"levelo://app?vid=59c9c691-a663-4701-8188-60166bd28640","ios":"levelo://app?vid=59c9c691-a663-4701-8188-60166bd28640"},"vehicle_type_id":"4","last_reported":1721401754,"current_range_meters":8800,"station_id":"ce4bgi92rcd13ifvqb90","pricing_plan_id":"cebpf4jnsgd1na2vs0mg"},{"bike_id":"3ee0251f-dbf0-4aa4-9780-8bf97639d929","system_id":"levelo_inurba_marseille","lat":43.299707,"lon":5.384859,"is_reserved":false,"is_disabled":false,"rental_uris":{"android":"levelo://app?vid=3ee0251f-dbf0-4aa4-9780-8bf97639d929","ios":"levelo://app?vid=3ee0251f-dbf0-4aa4-9780-8bf97639d929"},"vehicle_type_id":"4","last_reported":1721401754,"current_range_meters":5200,"station_id":"ce4bgj92rcd13ifvqbd0","pricing_plan_id":"cebpf4jnsgd1na2vs0mg"},{"bike_id":"53ef84ad-895d-452c-b5db-b21ad90842aa","system_id":"levelo_inurba_marseille","lat":43.299724,"lon":5.384848,"is_reserved":false,"is_disabled":false,"rental_uris":{"android":"levelo://app?vid=53ef84ad-895d-452c-b5db-b21ad90842aa","ios":"levelo://app?vid=53ef84ad-895d-452c-b5db-b21ad90842aa"},"vehicle_type_id":"4","last_reported":1721401754,"current_range_meters":5600,"station_id":"ce4bgj92rcd13ifvqbd0","pricing_plan_id":"cebpf4jnsgd1na2vs0mg"},{"bike_id":"36e53f0a-06b7-4d57-bcec-2c8d8fb99c04","system_id":"levelo_inurba_marseille","lat":43.299707,"lon":5.384859,"is_reserved":false,"is_disabled":false,"rental_uris":{"android":"levelo://app?vid=36e53f0a-06b7-4d57-bcec-2c8d8fb99c04","ios":"levelo://app?vid=36e53f0a-06b7-4d57-bcec-2c8d8fb99c04"},"vehicle_type_id":"4","last_reported":1721401754,"current_range_meters":15200,"station_id":"ce4bgj92rcd13ifvqbd0","pricing_plan_id":"cebpf4jnsgd1na2vs0mg"},{"bike_id":"62ad0540-adb7-4ecc-a2ad-ff26a3aa58db","system_id":"levelo_inurba_marseille","lat":43.299707,"lon":5.384859,"is_reserved":false,"is_disabled":false,"rental_uris":{"android":"levelo://app?vid=62ad0540-adb7-4ecc-a2ad-ff26a3aa58db","ios":"levelo://app?vid=62ad0540-adb7-4ecc-a2ad-ff26a3aa58db"},"vehicle_type_id":"4","last_reported":1721401754,"current_range_meters":11200,"station_id":"ce4bgj92rcd13ifvqbd0","pricing_plan_id":"cebpf4jnsgd1na2vs0mg"},{"bike_id":"18491e9b-089a-423d-92a6-2224fb4ac1cb","system_id":"levelo_inurba_marseille","lat":43.30473,"lon":5.39011,"is_reserved":false,"is_disabled":false,"rental_uris":{"android":"levelo://app?vid=18491e9b-089a-423d-92a6-2224fb4ac1cb","ios":"levelo://app?vid=18491e9b-089a-423d-92a6-2224fb4ac1cb"},"vehicle_type_id":"4","last_reported":1721401754,"current_range_meters":7200,"station_id":"","pricing_plan_id":"cebpf4jnsgd1na2vs0mg"},{"bike_id":"0f375e49-57b7-4425-9f5e-547d1b54f2b7","system_id":"levelo_inurba_marseille","lat":43.301396,"lon":5.387812,"is_reserved":false,"is_disabled":false,"rental_uris":{"android":"levelo://app?vid=0f375e49-57b7-4425-9f5e-547d1b54f2b7","ios":"levelo://app?vid=0f375e49-57b7-4425-9f5e-547d1b54f2b7"},"vehicle_type_id":"4","last_reported":1721401754,"current_range_meters":31200,"station_id":"ce4bghh2rcd13ifvqb60","pricing_plan_id":"cebpf4jnsgd1na2vs0mg"},{"bike_id":"72d0a8ed-ebf4-4ade-9408-4ba94ad3248c","system_id":"levelo_inurba_marseille","lat":43.32367,"lon":5.388836,"is_reserved":false,"is_disabled":false,"rental_uris":{"android":"levelo://app?vid=72d0a8ed-ebf4-4ade-9408-4ba94ad3248c","ios":"levelo://app?vid=72d0a8ed-ebf4-4ade-9408-4ba94ad3248c"},"vehicle_type_id":"4","last_reported":1721401754,"current_range_meters":24800,"station_id":"ce4bhqp2rcd13ifvqhog","pricing_plan_id":"cebpf4jnsgd1na2vs0mg"},{"bike_id":"db0d67c7-76a3-488d-a79e-c81498f893ae","system_id":"levelo_inurba_marseille","lat":43.323669,"lon":5.388766,"is_reserved":false,"is_disabled":false,"rental_uris":{"android":"levelo://app?vid=db0d67c7-76a3-488d-a79e-c81498f893ae","ios":"levelo://app?vid=db0d67c7-76a3-488d-a79e-c81498f893ae"},"vehicle_type_id":"4","last_reported":1721401754,"current_range_meters":10800,"station_id":"","pricing_plan_id":"cebpf4jnsgd1na2vs0mg"},{"bike_id":"7f71b95f-7674-4dcc-96e5-5f6b6e6138d1","system_id":"levelo_inurba_marseille","lat":43.32367,"lon":5.388836,"is_reserved":false,"is_disabled":false,"rental_uris":{"android":"levelo://app?vid=7f71b95f-7674-4dcc-96e5-5f6b6e6138d1","ios":"levelo://app?vid=7f71b95f-7674-4dcc-96e5-5f6b6e6138d1"},"vehicle_type_id":"4","last_reported":1721401754,"current_range_meters":22400,"station_id":"ce4bhqp2rcd13ifvqhog","pricing_plan_id":"cebpf4jnsgd1na2vs0mg"},{"bike_id":"3ab61235-aa2f-4cf4-9386-696ff25d3ca0","system_id":"levelo_inurba_marseille","lat":43.32367,"lon":5.388836,"is_reserved":false,"is_disabled":false,"rental_uris":{"android":"levelo://app?vid=3ab61235-aa2f-4cf4-9386-696ff25d3ca0","ios":"levelo://app?vid=3ab61235-aa2f-4cf4-9386-696ff25d3ca0"},"vehicle_type_id":"4","last_reported":1721401754,"current_range_meters":7600,"station_id":"ce4bhqp2rcd13ifvqhog","pricing_plan_id":"cebpf4jnsgd1na2vs0mg"},{"bike_id":"2aeaaab9-ad82-417d-8e44-8375dffaf90a","system_id":"levelo_inurba_marseille","lat":43.30747,"lon":5.39261,"is_reserved":false,"is_disabled":false,"rental_uris":{"android":"levelo://app?vid=2aeaaab9-ad82-417d-8e44-8375dffaf90a","ios":"levelo://app?vid=2aeaaab9-ad82-417d-8e44-8375dffaf90a"},"vehicle_type_id":"4","last_reported":1721401754,"current_range_meters":11600,"station_id":"","pricing_plan_id":"cebpf4jnsgd1na2vs0mg"},{"bike_id":"736a8855-3fe2-436e-a204-3f0309527ad0","system_id":"levelo_inurba_marseille","lat":43.292749,"lon":5.368402,"is_reserved":false,"is_disabled":false,"rental_uris":{"android":"levelo://app?vid=736a8855-3fe2-436e-a204-3f0309527ad0","ios":"levelo://app?vid=736a8855-3fe2-436e-a204-3f0309527ad0"},"vehicle_type_id":"4","last_reported":1721401754,"current_range_meters":0,"station_id":"ce4bhbp2rcd13ifvqesg","pricing_plan_id":"cebpf4jnsgd1na2vs0mg"},{"bike_id":"36465689-eb18-4297-86d0-9e5e97139685","system_id":"levelo_inurba_marseille","lat":43.293009,"lon":5.374584,"is_reserved":false,"is_disabled":false,"rental_uris":{"android":"levelo://app?vid=36465689-eb18-4297-86d0-9e5e97139685","ios":"levelo://app?vid=36465689-eb18-4297-86d0-9e5e97139685"},"vehicle_type_id":"4","last_reported":1721401754,"current_range_meters":0,"station_id":"ce4bgi12rcd13ifvqb70","pricing_plan_id":"cebpf4jnsgd1na2vs0mg"},{"bike_id":"90a15413-7f1b-4ce5-9bd2-ff3ffb54686e","system_id":"levelo_inurba_marseille","lat":43.294153,"lon":5.386305,"is_reserved":false,"is_disabled":false,"rental_uris":{"android":"levelo://app?vid=90a15413-7f1b-4ce5-9bd2-ff3ffb54686e","ios":"levelo://app?vid=90a15413-7f1b-4ce5-9bd2-ff3ffb54686e"},"vehicle_type_id":"4","last_reported":1721401754,"current_range_meters":13200,"station_id":"ce4bh2h2rcd13ifvqdh0","pricing_plan_id":"cebpf4jnsgd1na2vs0mg"},{"bike_id":"3f19cf92-f2de-4e4b-8f2a-4024a314ecaf","system_id":"levelo_inurba_marseille","lat":43.293009,"lon":5.374584,"is_reserved":false,"is_disabled":false,"rental_uris":{"android":"levelo://app?vid=3f19cf92-f2de-4e4b-8f2a-4024a314ecaf","ios":"levelo://app?vid=3f19cf92-f2de-4e4b-8f2a-4024a314ecaf"},"vehicle_type_id":"4","last_reported":1721401754,"current_range_meters":29200,"station_id":"ce4bgi12rcd13ifvqb70","pricing_plan_id":"cebpf4jnsgd1na2vs0mg"},{"bike_id":"67111b9b-e8a6-4ded-88d3-50861d7485e5","system_id":"levelo_inurba_marseille","lat":43.298681,"lon":5.397225,"is_reserved":false,"is_disabled":false,"rental_uris":{"android":"levelo://app?vid=67111b9b-e8a6-4ded-88d3-50861d7485e5","ios":"levelo://app?vid=67111b9b-e8a6-4ded-88d3-50861d7485e5"},"vehicle_type_id":"4","last_reported":1721401754,"current_range_meters":12000,"station_id":"ce4bh0h2rcd13ifvqd50","pricing_plan_id":"cebpf4jnsgd1na2vs0mg"},{"bike_id":"2943ec09-f4d0-4f02-8ad3-5700ac8752bc","system_id":"levelo_inurba_marseille","lat":43.239588,"lon":5.366238,"is_reserved":false,"is_disabled":false,"rental_uris":{"android":"levelo://app?vid=2943ec09-f4d0-4f02-8ad3-5700ac8752bc","ios":"levelo://app?vid=2943ec09-f4d0-4f02-8ad3-5700ac8752bc"},"vehicle_type_id":"4","last_reported":1721401754,"current_range_meters":24800,"station_id":"ce4bhi12rcd13ifvqfp0","pricing_plan_id":"cebpf4jnsgd1na2vs0mg"},{"bike_id":"79148859-997d-4080-92ce-7745e193d46f","system_id":"levelo_inurba_marseille","lat":43.2936,"lon":5.37835,"is_reserved":false,"is_disabled":false,"rental_uris":{"android":"levelo://app?vid=79148859-997d-4080-92ce-7745e193d46f","ios":"levelo://app?vid=79148859-997d-4080-92ce-7745e193d46f"},"vehicle_type_id":"4","last_reported":1721401754,"current_range_meters":25600,"station_id":"ce4bgjh2rcd13ifvqbf0","pricing_plan_id":"cebpf4jnsgd1na2vs0mg"},{"bike_id":"57d4bfa0-7dfd-40aa-9d48-c54fe1862b29","system_id":"levelo_inurba_marseille","lat":43.30085,"lon":5.390856,"is_reserved":false,"is_disabled":false,"rental_uris":{"android":"levelo://app?vid=57d4bfa0-7dfd-40aa-9d48-c54fe1862b29","ios":"levelo://app?vid=57d4bfa0-7dfd-40aa-9d48-c54fe1862b29"},"vehicle_type_id":"4","last_reported":1721401754,"current_range_meters":12000,"station_id":"ce4bh192rcd13ifvqdb0","pricing_plan_id":"cebpf4jnsgd1na2vs0mg"},{"bike_id":"f2a5c0c1-40c2-4395-8584-50a2b9e47cec","system_id":"levelo_inurba_marseille","lat":43.2936,"lon":5.37835,"is_reserved":false,"is_disabled":false,"rental_uris":{"android":"levelo://app?vid=f2a5c0c1-40c2-4395-8584-50a2b9e47cec","ios":"levelo://app?vid=f2a5c0c1-40c2-4395-8584-50a2b9e47cec"},"vehicle_type_id":"4","last_reported":1721401754,"current_range_meters":0,"station_id":"ce4bgjh2rcd13ifvqbf0","pricing_plan_id":"cebpf4jnsgd1na2vs0mg"},{"bike_id":"340e7391-679c-4241-82ce-ebd3d910929c","system_id":"levelo_inurba_marseille","lat":43.30085,"lon":5.390856,"is_reserved":false,"is_disabled":false,"rental_uris":{"android":"levelo://app?vid=340e7391-679c-4241-82ce-ebd3d910929c","ios":"levelo://app?vid=340e7391-679c-4241-82ce-ebd3d910929c"},"vehicle_type_id":"4","last_reported":1721401754,"current_range_meters":31200,"station_id":"ce4bh192rcd13ifvqdb0","pricing_plan_id":"cebpf4jnsgd1na2vs0mg"},{"bike_id":"dfda1d15-58aa-41a6-8d17-2124cfcc12e4","system_id":"levelo_inurba_marseille","lat":43.308012,"lon":5.381511,"is_reserved":false,"is_disabled":false,"rental_uris":{"android":"levelo://app?vid=dfda1d15-58aa-41a6-8d17-2124cfcc12e4","ios":"levelo://app?vid=dfda1d15-58aa-41a6-8d17-2124cfcc12e4"},"vehicle_type_id":"4","last_reported":1721401754,"current_range_meters":17600,"station_id":"ce4bgt12rcd13ifvqce0","pricing_plan_id":"cebpf4jnsgd1na2vs0mg"},{"bike_id":"f2068143-6154-4a4c-9fea-0d7730ba900b","system_id":"levelo_inurba_marseille","lat":43.292005,"lon":5.357875,"is_reserved":false,"is_disabled":false,"rental_uris":{"android":"levelo://app?vid=f2068143-6154-4a4c-9fea-0d7730ba900b","ios":"levelo://app?vid=f2068143-6154-4a4c-9fea-0d7730ba900b"},"vehicle_type_id":"4","last_reported":1721401754,"current_range_meters":25200,"station_id":"ce4bhb12rcd13ifvqel0","pricing_plan_id":"cebpf4jnsgd1na2vs0mg"},{"bike_id":"87f45aa8-18d5-449b-ab38-d8e27e0fb6da","system_id":"levelo_inurba_marseille","lat":43.29537,"lon":5.38548,"is_reserved":false,"is_disabled":false,"rental_uris":{"android":"levelo://app?vid=87f45aa8-18d5-449b-ab38-d8e27e0fb6da","ios":"levelo://app?vid=87f45aa8-18d5-449b-ab38-d8e27e0fb6da"},"vehicle_type_id":"4","last_reported":1721401754,"current_range_meters":0,"station_id":"","pricing_plan_id":"cebpf4jnsgd1na2vs0mg"},{"bike_id":"84a26965-b2b9-4ac6-91b1-282791e7d479","system_id":"levelo_inurba_marseille","lat":43.29529,"lon":5.385581,"is_reserved":false,"is_disabled":false,"rental_uris":{"android":"levelo://app?vid=84a26965-b2b9-4ac6-91b1-282791e7d479","ios":"levelo://app?vid=84a26965-b2b9-4ac6-91b1-282791e7d479"},"vehicle_type_id":"4","last_reported":1721401754,"current_range_meters":16400,"station_id":"ce4bgih2rcd13ifvqba0","pricing_plan_id":"cebpf4jnsgd1na2vs0mg"},{"bike_id":"c174707f-4de5-4ee3-926b-904d81df71ed","system_id":"levelo_inurba_marseille","lat":43.29529,"lon":5.385581,"is_reserved":false,"is_disabled":false,"rental_uris":{"android":"levelo://app?vid=c174707f-4de5-4ee3-926b-904d81df71ed","ios":"levelo://app?vid=c174707f-4de5-4ee3-926b-904d81df71ed"},"vehicle_type_id":"4","last_reported":1721401754,"current_range_meters":15600,"station_id":"ce4bgih2rcd13ifvqba0","pricing_plan_id":"cebpf4jnsgd1na2vs0mg"},{"bike_id":"b5e4486d-5d6c-4d99-9adf-c9a41374237e","system_id":"levelo_inurba_marseille","lat":43.29529,"lon":5.385581,"is_reserved":false,"is_disabled":false,"rental_uris":{"android":"levelo://app?vid=b5e4486d-5d6c-4d99-9adf-c9a41374237e","ios":"levelo://app?vid=b5e4486d-5d6c-4d99-9adf-c9a41374237e"},"vehicle_type_id":"4","last_reported":1721401754,"current_range_meters":0,"station_id":"ce4bgih2rcd13ifvqba0","pricing_plan_id":"cebpf4jnsgd1na2vs0mg"},{"bike_id":"c31b9c8d-5ac7-458c-9268-b7fbb0872659","system_id":"levelo_inurba_marseille","lat":43.290779,"lon":5.371482,"is_reserved":false,"is_disabled":false,"rental_uris":{"android":"levelo://app?vid=c31b9c8d-5ac7-458c-9268-b7fbb0872659","ios":"levelo://app?vid=c31b9c8d-5ac7-458c-9268-b7fbb0872659"},"vehicle_type_id":"4","last_reported":1721401754,"current_range_meters":15600,"station_id":"ce4bh5p2rcd13ifvqe4g","pricing_plan_id":"cebpf4jnsgd1na2vs0mg"},{"bike_id":"6d51b364-3387-4a6c-88d4-212aa15c3d67","system_id":"levelo_inurba_marseille","lat":43.294153,"lon":5.386305,"is_reserved":false,"is_disabled":false,"rental_uris":{"android":"levelo://app?vid=6d51b364-3387-4a6c-88d4-212aa15c3d67","ios":"levelo://app?vid=6d51b364-3387-4a6c-88d4-212aa15c3d67"},"vehicle_type_id":"4","last_reported":1721401754,"current_range_meters":24000,"station_id":"ce4bh2h2rcd13ifvqdh0","pricing_plan_id":"cebpf4jnsgd1na2vs0mg"},{"bike_id":"e5a1b61d-9b85-4cfe-929c-abb046871231","system_id":"levelo_inurba_marseille","lat":43.290327,"lon":5.375711,"is_reserved":false,"is_disabled":false,"rental_uris":{"android":"levelo://app?vid=e5a1b61d-9b85-4cfe-929c-abb046871231","ios":"levelo://app?vid=e5a1b61d-9b85-4cfe-929c-abb046871231"},"vehicle_type_id":"4","last_reported":1721401754,"current_range_meters":0,"station_id":"ce4bh692rcd13ifvqe90","pricing_plan_id":"cebpf4jnsgd1na2vs0mg"},{"bike_id":"5eef0ec7-dcd2-45ba-a9fe-ef8de35c2cdc","system_id":"levelo_inurba_marseille","lat":43.290319,"lon":5.375732,"is_reserved":false,"is_disabled":false,"rental_uris":{"android":"levelo://app?vid=5eef0ec7-dcd2-45ba-a9fe-ef8de35c2cdc","ios":"levelo://app?vid=5eef0ec7-dcd2-45ba-a9fe-ef8de35c2cdc"},"vehicle_type_id":"4","last_reported":1721401754,"current_range_meters":0,"station_id":"ce4bh692rcd13ifvqe90","pricing_plan_id":"cebpf4jnsgd1na2vs0mg"},{"bike_id":"58b65d97-0d9a-4d31-96b7-7e0a72db230b","system_id":"levelo_inurba_marseille","lat":43.290327,"lon":5.375711,"is_reserved":false,"is_disabled":false,"rental_uris":{"android":"levelo://app?vid=58b65d97-0d9a-4d31-96b7-7e0a72db230b","ios":"levelo://app?vid=58b65d97-0d9a-4d31-96b7-7e0a72db230b"},"vehicle_type_id":"4","last_reported":1721401754,"current_range_meters":28800,"station_id":"ce4bh692rcd13ifvqe90","pricing_plan_id":"cebpf4jnsgd1na2vs0mg"},{"bike_id":"5fc51eac-5a38-493c-a26b-20ab99c6b72d","system_id":"levelo_inurba_marseille","lat":43.294162,"lon":5.386292,"is_reserved":false,"is_disabled":false,"rental_uris":{"android":"levelo://app?vid=5fc51eac-5a38-493c-a26b-20ab99c6b72d","ios":"levelo://app?vid=5fc51eac-5a38-493c-a26b-20ab99c6b72d"},"vehicle_type_id":"4","last_reported":1721401754,"current_range_meters":7600,"station_id":"ce4bh2h2rcd13ifvqdh0","pricing_plan_id":"cebpf4jnsgd1na2vs0mg"},{"bike_id":"80145f3e-4b3f-4c9f-a289-ee4fccf7906f","system_id":"levelo_inurba_marseille","lat":43.289184,"lon":5.366408,"is_reserved":false,"is_disabled":false,"rental_uris":{"android":"levelo://app?vid=80145f3e-4b3f-4c9f-a289-ee4fccf7906f","ios":"levelo://app?vid=80145f3e-4b3f-4c9f-a289-ee4fccf7906f"},"vehicle_type_id":"4","last_reported":1721401754,"current_range_meters":28000,"station_id":"ce4bhap2rcd13ifvqek0","pricing_plan_id":"cebpf4jnsgd1na2vs0mg"},{"bike_id":"fa29498b-c395-4b0a-ac67-9e08e1e4527a","system_id":"levelo_inurba_marseille","lat":43.289184,"lon":5.366408,"is_reserved":false,"is_disabled":false,"rental_uris":{"android":"levelo://app?vid=fa29498b-c395-4b0a-ac67-9e08e1e4527a","ios":"levelo://app?vid=fa29498b-c395-4b0a-ac67-9e08e1e4527a"},"vehicle_type_id":"4","last_reported":1721401754,"current_range_meters":0,"station_id":"ce4bhap2rcd13ifvqek0","pricing_plan_id":"cebpf4jnsgd1na2vs0mg"},{"bike_id":"f989a0fe-1c3e-4477-90b5-5f519d6b7d30","system_id":"levelo_inurba_marseille","lat":43.289184,"lon":5.366408,"is_reserved":false,"is_disabled":false,"rental_uris":{"android":"levelo://app?vid=f989a0fe-1c3e-4477-90b5-5f519d6b7d30","ios":"levelo://app?vid=f989a0fe-1c3e-4477-90b5-5f519d6b7d30"},"vehicle_type_id":"4","last_reported":1721401754,"current_range_meters":14000,"station_id":"ce4bhap2rcd13ifvqek0","pricing_plan_id":"cebpf4jnsgd1na2vs0mg"},{"bike_id":"8ee08a32-6369-4698-a948-913c754ce466","system_id":"levelo_inurba_marseille","lat":43.289184,"lon":5.366408,"is_reserved":false,"is_disabled":false,"rental_uris":{"android":"levelo://app?vid=8ee08a32-6369-4698-a948-913c754ce466","ios":"levelo://app?vid=8ee08a32-6369-4698-a948-913c754ce466"},"vehicle_type_id":"4","last_reported":1721401754,"current_range_meters":15600,"station_id":"ce4bhap2rcd13ifvqek0","pricing_plan_id":"cebpf4jnsgd1na2vs0mg"},{"bike_id":"c86d629c-42f8-4d70-ae91-209341e04429","system_id":"levelo_inurba_marseille","lat":43.289184,"lon":5.366408,"is_reserved":false,"is_disabled":false,"rental_uris":{"android":"levelo://app?vid=c86d629c-42f8-4d70-ae91-209341e04429","ios":"levelo://app?vid=c86d629c-42f8-4d70-ae91-209341e04429"},"vehicle_type_id":"4","last_reported":1721401754,"current_range_meters":400,"station_id":"ce4bhap2rcd13ifvqek0","pricing_plan_id":"cebpf4jnsgd1na2vs0mg"},{"bike_id":"943bda02-06c9-4efb-a196-e7ed1c1c7706","system_id":"levelo_inurba_marseille","lat":43.289184,"lon":5.366408,"is_reserved":false,"is_disabled":false,"rental_uris":{"android":"levelo://app?vid=943bda02-06c9-4efb-a196-e7ed1c1c7706","ios":"levelo://app?vid=943bda02-06c9-4efb-a196-e7ed1c1c7706"},"vehicle_type_id":"4","last_reported":1721401754,"current_range_meters":1200,"station_id":"ce4bhap2rcd13ifvqek0","pricing_plan_id":"cebpf4jnsgd1na2vs0mg"},{"bike_id":"66222092-aedc-468c-875c-b6006b3d2026","system_id":"levelo_inurba_marseille","lat":43.292644,"lon":5.384257,"is_reserved":false,"is_disabled":false,"rental_uris":{"android":"levelo://app?vid=66222092-aedc-468c-875c-b6006b3d2026","ios":"levelo://app?vid=66222092-aedc-468c-875c-b6006b3d2026"},"vehicle_type_id":"4","last_reported":1721401754,"current_range_meters":24800,"station_id":"ce4bh692rcd13ifvqea0","pricing_plan_id":"cebpf4jnsgd1na2vs0mg"},{"bike_id":"ea1913f4-3071-44f4-9470-cf7834a3c988","system_id":"levelo_inurba_marseille","lat":43.292644,"lon":5.384257,"is_reserved":false,"is_disabled":false,"rental_uris":{"android":"levelo://app?vid=ea1913f4-3071-44f4-9470-cf7834a3c988","ios":"levelo://app?vid=ea1913f4-3071-44f4-9470-cf7834a3c988"},"vehicle_type_id":"4","last_reported":1721401754,"current_range_meters":1600,"station_id":"ce4bh692rcd13ifvqea0","pricing_plan_id":"cebpf4jnsgd1na2vs0mg"},{"bike_id":"9278e213-bd12-4be6-a04a-cfcc4ab9a537","system_id":"levelo_inurba_marseille","lat":43.292644,"lon":5.384257,"is_reserved":false,"is_disabled":false,"rental_uris":{"android":"levelo://app?vid=9278e213-bd12-4be6-a04a-cfcc4ab9a537","ios":"levelo://app?vid=9278e213-bd12-4be6-a04a-cfcc4ab9a537"},"vehicle_type_id":"4","last_reported":1721401754,"current_range_meters":0,"station_id":"ce4bh692rcd13ifvqea0","pricing_plan_id":"cebpf4jnsgd1na2vs0mg"},{"bike_id":"4a4b7ab8-e499-44ac-8b34-a31e00103ba1","system_id":"levelo_inurba_marseille","lat":43.29005,"lon":5.35614,"is_reserved":false,"is_disabled":false,"rental_uris":{"android":"levelo://app?vid=4a4b7ab8-e499-44ac-8b34-a31e00103ba1","ios":"levelo://app?vid=4a4b7ab8-e499-44ac-8b34-a31e00103ba1"},"vehicle_type_id":"4","last_reported":1721401754,"current_range_meters":1600,"station_id":"ce4bhb92rcd13ifvqen0","pricing_plan_id":"cebpf4jnsgd1na2vs0mg"},{"bike_id":"15bea4be-8946-49d6-a845-76f52e4db790","system_id":"levelo_inurba_marseille","lat":43.290103,"lon":5.356114,"is_reserved":false,"is_disabled":false,"rental_uris":{"android":"levelo://app?vid=15bea4be-8946-49d6-a845-76f52e4db790","ios":"levelo://app?vid=15bea4be-8946-49d6-a845-76f52e4db790"},"vehicle_type_id":"4","last_reported":1721401754,"current_range_meters":0,"station_id":"ce4bhb92rcd13ifvqen0","pricing_plan_id":"cebpf4jnsgd1na2vs0mg"},{"bike_id":"b00fe3d9-8b82-4660-9827-b0673917d956","system_id":"levelo_inurba_marseille","lat":43.290104,"lon":5.356111,"is_reserved":false,"is_disabled":false,"rental_uris":{"android":"levelo://app?vid=b00fe3d9-8b82-4660-9827-b0673917d956","ios":"levelo://app?vid=b00fe3d9-8b82-4660-9827-b0673917d956"},"vehicle_type_id":"4","last_reported":1721401754,"current_range_meters":12800,"station_id":"ce4bhb92rcd13ifvqen0","pricing_plan_id":"cebpf4jnsgd1na2vs0mg"},{"bike_id":"06316704-66a0-40cc-9db7-a9789edd92b3","system_id":"levelo_inurba_marseille","lat":43.290104,"lon":5.356111,"is_reserved":false,"is_disabled":false,"rental_uris":{"android":"levelo://app?vid=06316704-66a0-40cc-9db7-a9789edd92b3","ios":"levelo://app?vid=06316704-66a0-40cc-9db7-a9789edd92b3"},"vehicle_type_id":"4","last_reported":1721401754,"current_range_meters":0,"station_id":"ce4bhb92rcd13ifvqen0","pricing_plan_id":"cebpf4jnsgd1na2vs0mg"},{"bike_id":"c8cde4b6-b137-42a2-ac15-d85e3a0e87d3","system_id":"levelo_inurba_marseille","lat":43.28997,"lon":5.3562,"is_reserved":false,"is_disabled":false,"rental_uris":{"android":"levelo://app?vid=c8cde4b6-b137-42a2-ac15-d85e3a0e87d3","ios":"levelo://app?vid=c8cde4b6-b137-42a2-ac15-d85e3a0e87d3"},"vehicle_type_id":"4","last_reported":1721401754,"current_range_meters":400,"station_id":"ce4bhb92rcd13ifvqen0","pricing_plan_id":"cebpf4jnsgd1na2vs0mg"},{"bike_id":"a12d84a8-5da2-4d45-9d89-4ecc0d96027f","system_id":"levelo_inurba_marseille","lat":43.295169,"lon":5.390426,"is_reserved":false,"is_disabled":false,"rental_uris":{"android":"levelo://app?vid=a12d84a8-5da2-4d45-9d89-4ecc0d96027f","ios":"levelo://app?vid=a12d84a8-5da2-4d45-9d89-4ecc0d96027f"},"vehicle_type_id":"4","last_reported":1721401754,"current_range_meters":18800,"station_id":"ce4bh3p2rcd13ifvqdp0","pricing_plan_id":"cebpf4jnsgd1na2vs0mg"},{"bike_id":"62e5dd16-6a60-4306-b948-f41db0af116f","system_id":"levelo_inurba_marseille","lat":43.33022,"lon":5.39037,"is_reserved":false,"is_disabled":false,"rental_uris":{"android":"levelo://app?vid=62e5dd16-6a60-4306-b948-f41db0af116f","ios":"levelo://app?vid=62e5dd16-6a60-4306-b948-f41db0af116f"},"vehicle_type_id":"4","last_reported":1721401754,"current_range_meters":28000,"station_id":"ce4bhr92rcd13ifvqhrg","pricing_plan_id":"cebpf4jnsgd1na2vs0mg"},{"bike_id":"d3d897d2-e119-4082-b48f-a6170b8e8e73","system_id":"levelo_inurba_marseille","lat":43.33023,"lon":5.390366,"is_reserved":false,"is_disabled":false,"rental_uris":{"android":"levelo://app?vid=d3d897d2-e119-4082-b48f-a6170b8e8e73","ios":"levelo://app?vid=d3d897d2-e119-4082-b48f-a6170b8e8e73"},"vehicle_type_id":"4","last_reported":1721401754,"current_range_meters":18000,"station_id":"ce4bhr92rcd13ifvqhrg","pricing_plan_id":"cebpf4jnsgd1na2vs0mg"},{"bike_id":"9de5f53c-6fc7-4e9a-9c4f-b830640f4835","system_id":"levelo_inurba_marseille","lat":43.330239,"lon":5.390368,"is_reserved":false,"is_disabled":false,"rental_uris":{"android":"levelo://app?vid=9de5f53c-6fc7-4e9a-9c4f-b830640f4835","ios":"levelo://app?vid=9de5f53c-6fc7-4e9a-9c4f-b830640f4835"},"vehicle_type_id":"4","last_reported":1721401754,"current_range_meters":27200,"station_id":"ce4bhr92rcd13ifvqhrg","pricing_plan_id":"cebpf4jnsgd1na2vs0mg"},{"bike_id":"31c4af69-07ac-4b9b-9413-74de1647d9fe","system_id":"levelo_inurba_marseille","lat":43.330442,"lon":5.389148,"is_reserved":false,"is_disabled":false,"rental_uris":{"android":"levelo://app?vid=31c4af69-07ac-4b9b-9413-74de1647d9fe","ios":"levelo://app?vid=31c4af69-07ac-4b9b-9413-74de1647d9fe"},"vehicle_type_id":"4","last_reported":1721401754,"current_range_meters":29200,"station_id":"ce4bhr92rcd13ifvqhrg","pricing_plan_id":"cebpf4jnsgd1na2vs0mg"},{"bike_id":"72e48114-edc1-4017-81d1-9f23f5613da0","system_id":"levelo_inurba_marseille","lat":43.330442,"lon":5.389148,"is_reserved":false,"is_disabled":false,"rental_uris":{"android":"levelo://app?vid=72e48114-edc1-4017-81d1-9f23f5613da0","ios":"levelo://app?vid=72e48114-edc1-4017-81d1-9f23f5613da0"},"vehicle_type_id":"4","last_reported":1721401754,"current_range_meters":24000,"station_id":"ce4bhr92rcd13ifvqhrg","pricing_plan_id":"cebpf4jnsgd1na2vs0mg"},{"bike_id":"8d0aeca1-60bf-4514-ad24-02e94937587c","system_id":"levelo_inurba_marseille","lat":43.330442,"lon":5.389148,"is_reserved":false,"is_disabled":false,"rental_uris":{"android":"levelo://app?vid=8d0aeca1-60bf-4514-ad24-02e94937587c","ios":"levelo://app?vid=8d0aeca1-60bf-4514-ad24-02e94937587c"},"vehicle_type_id":"4","last_reported":1721401754,"current_range_meters":31600,"station_id":"ce4bhr92rcd13ifvqhrg","pricing_plan_id":"cebpf4jnsgd1na2vs0mg"},{"bike_id":"9ce3d918-c22d-4253-ad34-b8cff606fcc9","system_id":"levelo_inurba_marseille","lat":43.295169,"lon":5.390426,"is_reserved":false,"is_disabled":false,"rental_uris":{"android":"levelo://app?vid=9ce3d918-c22d-4253-ad34-b8cff606fcc9","ios":"levelo://app?vid=9ce3d918-c22d-4253-ad34-b8cff606fcc9"},"vehicle_type_id":"4","last_reported":1721401754,"current_range_meters":7200,"station_id":"ce4bh3p2rcd13ifvqdp0","pricing_plan_id":"cebpf4jnsgd1na2vs0mg"},{"bike_id":"e7096b33-0d4a-4a2c-a4a5-ab71962941f7","system_id":"levelo_inurba_marseille","lat":43.330442,"lon":5.389148,"is_reserved":false,"is_disabled":false,"rental_uris":{"android":"levelo://app?vid=e7096b33-0d4a-4a2c-a4a5-ab71962941f7","ios":"levelo://app?vid=e7096b33-0d4a-4a2c-a4a5-ab71962941f7"},"vehicle_type_id":"4","last_reported":1721401754,"current_range_meters":31600,"station_id":"ce4bhr92rcd13ifvqhrg","pricing_plan_id":"cebpf4jnsgd1na2vs0mg"},{"bike_id":"a9c973a0-3aec-46e2-8a84-bde0b096e662","system_id":"levelo_inurba_marseille","lat":43.295169,"lon":5.390426,"is_reserved":false,"is_disabled":false,"rental_uris":{"android":"levelo://app?vid=a9c973a0-3aec-46e2-8a84-bde0b096e662","ios":"levelo://app?vid=a9c973a0-3aec-46e2-8a84-bde0b096e662"},"vehicle_type_id":"4","last_reported":1721401754,"current_range_meters":12400,"station_id":"ce4bh3p2rcd13ifvqdp0","pricing_plan_id":"cebpf4jnsgd1na2vs0mg"},{"bike_id":"72634fa1-7803-4326-beb6-679f655c00b4","system_id":"levelo_inurba_marseille","lat":43.28856,"lon":5.358371,"is_reserved":false,"is_disabled":false,"rental_uris":{"android":"levelo://app?vid=72634fa1-7803-4326-beb6-679f655c00b4","ios":"levelo://app?vid=72634fa1-7803-4326-beb6-679f655c00b4"},"vehicle_type_id":"4","last_reported":1721401754,"current_range_meters":7600,"station_id":"ce4bhb12rcd13ifvqem0","pricing_plan_id":"cebpf4jnsgd1na2vs0mg"},{"bike_id":"d6f3fa9f-146a-4e10-911c-0facb49ab42d","system_id":"levelo_inurba_marseille","lat":43.28856,"lon":5.358371,"is_reserved":false,"is_disabled":false,"rental_uris":{"android":"levelo://app?vid=d6f3fa9f-146a-4e10-911c-0facb49ab42d","ios":"levelo://app?vid=d6f3fa9f-146a-4e10-911c-0facb49ab42d"},"vehicle_type_id":"4","last_reported":1721401754,"current_range_meters":24000,"station_id":"ce4bhb12rcd13ifvqem0","pricing_plan_id":"cebpf4jnsgd1na2vs0mg"},{"bike_id":"c4dbf394-e2f9-4b8a-b6a6-a017e451ec40","system_id":"levelo_inurba_marseille","lat":43.28856,"lon":5.358371,"is_reserved":false,"is_disabled":false,"rental_uris":{"android":"levelo://app?vid=c4dbf394-e2f9-4b8a-b6a6-a017e451ec40","ios":"levelo://app?vid=c4dbf394-e2f9-4b8a-b6a6-a017e451ec40"},"vehicle_type_id":"4","last_reported":1721401754,"current_range_meters":6400,"station_id":"ce4bhb12rcd13ifvqem0","pricing_plan_id":"cebpf4jnsgd1na2vs0mg"},{"bike_id":"ac80da95-805d-4b12-8b5a-4cc40fabf805","system_id":"levelo_inurba_marseille","lat":43.3064,"lon":5.400807,"is_reserved":false,"is_disabled":false,"rental_uris":{"android":"levelo://app?vid=ac80da95-805d-4b12-8b5a-4cc40fabf805","ios":"levelo://app?vid=ac80da95-805d-4b12-8b5a-4cc40fabf805"},"vehicle_type_id":"4","last_reported":1721401754,"current_range_meters":0,"station_id":"ce4bh112rcd13ifvqda0","pricing_plan_id":"cebpf4jnsgd1na2vs0mg"},{"bike_id":"aaf6c654-4076-4a95-a8dc-4b9b9afd6fcf","system_id":"levelo_inurba_marseille","lat":43.30642,"lon":5.401031,"is_reserved":false,"is_disabled":false,"rental_uris":{"android":"levelo://app?vid=aaf6c654-4076-4a95-a8dc-4b9b9afd6fcf","ios":"levelo://app?vid=aaf6c654-4076-4a95-a8dc-4b9b9afd6fcf"},"vehicle_type_id":"4","last_reported":1721401754,"current_range_meters":0,"station_id":"ce4bh112rcd13ifvqda0","pricing_plan_id":"cebpf4jnsgd1na2vs0mg"},{"bike_id":"b5f84fb0-09bb-4914-b36d-004ae4988198","system_id":"levelo_inurba_marseille","lat":43.33769,"lon":5.374615,"is_reserved":false,"is_disabled":false,"rental_uris":{"android":"levelo://app?vid=b5f84fb0-09bb-4914-b36d-004ae4988198","ios":"levelo://app?vid=b5f84fb0-09bb-4914-b36d-004ae4988198"},"vehicle_type_id":"4","last_reported":1721401754,"current_range_meters":0,"station_id":"","pricing_plan_id":"cebpf4jnsgd1na2vs0mg"},{"bike_id":"ac377a63-6a02-42fa-8a70-d5bb9b7546c9","system_id":"levelo_inurba_marseille","lat":43.337743,"lon":5.37433,"is_reserved":false,"is_disabled":false,"rental_uris":{"android":"levelo://app?vid=ac377a63-6a02-42fa-8a70-d5bb9b7546c9","ios":"levelo://app?vid=ac377a63-6a02-42fa-8a70-d5bb9b7546c9"},"vehicle_type_id":"4","last_reported":1721401754,"current_range_meters":25200,"station_id":"","pricing_plan_id":"cebpf4jnsgd1na2vs0mg"},{"bike_id":"4ca3249a-02f1-444e-b445-022a494d0e5c","system_id":"levelo_inurba_marseille","lat":43.301117,"lon":5.398795,"is_reserved":false,"is_disabled":false,"rental_uris":{"android":"levelo://app?vid=4ca3249a-02f1-444e-b445-022a494d0e5c","ios":"levelo://app?vid=4ca3249a-02f1-444e-b445-022a494d0e5c"},"vehicle_type_id":"4","last_reported":1721401754,"current_range_meters":400,"station_id":"ce4bh0h2rcd13ifvqd40","pricing_plan_id":"cebpf4jnsgd1na2vs0mg"},{"bike_id":"1c025a43-992b-4205-8242-ccfa04e9220f","system_id":"levelo_inurba_marseille","lat":43.286591,"lon":5.363346,"is_reserved":false,"is_disabled":false,"rental_uris":{"android":"levelo://app?vid=1c025a43-992b-4205-8242-ccfa04e9220f","ios":"levelo://app?vid=1c025a43-992b-4205-8242-ccfa04e9220f"},"vehicle_type_id":"4","last_reported":1721401754,"current_range_meters":30800,"station_id":"ce4bhah2rcd13ifvqej0","pricing_plan_id":"cebpf4jnsgd1na2vs0mg"},{"bike_id":"6939eb9b-f1e3-4cce-a7b4-c2eafbf06bfd","system_id":"levelo_inurba_marseille","lat":43.298681,"lon":5.397225,"is_reserved":false,"is_disabled":false,"rental_uris":{"android":"levelo://app?vid=6939eb9b-f1e3-4cce-a7b4-c2eafbf06bfd","ios":"levelo://app?vid=6939eb9b-f1e3-4cce-a7b4-c2eafbf06bfd"},"vehicle_type_id":"4","last_reported":1721401754,"current_range_meters":18400,"station_id":"ce4bh0h2rcd13ifvqd50","pricing_plan_id":"cebpf4jnsgd1na2vs0mg"},{"bike_id":"ca833fad-2341-494a-9e0a-314d4c1f10ee","system_id":"levelo_inurba_marseille","lat":43.286591,"lon":5.363346,"is_reserved":false,"is_disabled":false,"rental_uris":{"android":"levelo://app?vid=ca833fad-2341-494a-9e0a-314d4c1f10ee","ios":"levelo://app?vid=ca833fad-2341-494a-9e0a-314d4c1f10ee"},"vehicle_type_id":"4","last_reported":1721401754,"current_range_meters":23600,"station_id":"ce4bhah2rcd13ifvqej0","pricing_plan_id":"cebpf4jnsgd1na2vs0mg"},{"bike_id":"6c6b7380-344b-435a-bba5-49c939b306fb","system_id":"levelo_inurba_marseille","lat":43.289307,"lon":5.38406,"is_reserved":false,"is_disabled":false,"rental_uris":{"android":"levelo://app?vid=6c6b7380-344b-435a-bba5-49c939b306fb","ios":"levelo://app?vid=6c6b7380-344b-435a-bba5-49c939b306fb"},"vehicle_type_id":"4","last_reported":1721401754,"current_range_meters":30400,"station_id":"ce4bh612rcd13ifvqe6g","pricing_plan_id":"cebpf4jnsgd1na2vs0mg"},{"bike_id":"ed4468d3-64c4-437c-b404-cd9b8b5fd0fc","system_id":"levelo_inurba_marseille","lat":43.302759,"lon":5.400793,"is_reserved":false,"is_disabled":false,"rental_uris":{"android":"levelo://app?vid=ed4468d3-64c4-437c-b404-cd9b8b5fd0fc","ios":"levelo://app?vid=ed4468d3-64c4-437c-b404-cd9b8b5fd0fc"},"vehicle_type_id":"4","last_reported":1721401754,"current_range_meters":14400,"station_id":"ce4bgvh2rcd13ifvqcs0","pricing_plan_id":"cebpf4jnsgd1na2vs0mg"},{"bike_id":"665389bc-24f3-44c7-87b0-aac7f74ec522","system_id":"levelo_inurba_marseille","lat":43.286039,"lon":5.370679,"is_reserved":false,"is_disabled":false,"rental_uris":{"android":"levelo://app?vid=665389bc-24f3-44c7-87b0-aac7f74ec522","ios":"levelo://app?vid=665389bc-24f3-44c7-87b0-aac7f74ec522"},"vehicle_type_id":"4","last_reported":1721401754,"current_range_meters":26800,"station_id":"ce4bht12rcd13ifvqi60","pricing_plan_id":"cebpf4jnsgd1na2vs0mg"},{"bike_id":"7b5915ec-6fd2-4325-82b6-17f792660d5d","system_id":"levelo_inurba_marseille","lat":43.286039,"lon":5.370679,"is_reserved":false,"is_disabled":false,"rental_uris":{"android":"levelo://app?vid=7b5915ec-6fd2-4325-82b6-17f792660d5d","ios":"levelo://app?vid=7b5915ec-6fd2-4325-82b6-17f792660d5d"},"vehicle_type_id":"4","last_reported":1721401754,"current_range_meters":23200,"station_id":"ce4bht12rcd13ifvqi60","pricing_plan_id":"cebpf4jnsgd1na2vs0mg"},{"bike_id":"3a53b520-0b4b-484e-a863-c9e39a652779","system_id":"levelo_inurba_marseille","lat":43.286039,"lon":5.370681,"is_reserved":false,"is_disabled":false,"rental_uris":{"android":"levelo://app?vid=3a53b520-0b4b-484e-a863-c9e39a652779","ios":"levelo://app?vid=3a53b520-0b4b-484e-a863-c9e39a652779"},"vehicle_type_id":"4","last_reported":1721401754,"current_range_meters":10000,"station_id":"ce4bht12rcd13ifvqi60","pricing_plan_id":"cebpf4jnsgd1na2vs0mg"},{"bike_id":"a4099db0-6930-4950-a66f-522be7154bad","system_id":"levelo_inurba_marseille","lat":43.286039,"lon":5.370681,"is_reserved":false,"is_disabled":false,"rental_uris":{"android":"levelo://app?vid=a4099db0-6930-4950-a66f-522be7154bad","ios":"levelo://app?vid=a4099db0-6930-4950-a66f-522be7154bad"},"vehicle_type_id":"4","last_reported":1721401754,"current_range_meters":24800,"station_id":"ce4bht12rcd13ifvqi60","pricing_plan_id":"cebpf4jnsgd1na2vs0mg"},{"bike_id":"16032bf6-8b9f-41f2-a381-49e7ac3bbcdf","system_id":"levelo_inurba_marseille","lat":43.309371,"lon":5.401449,"is_reserved":false,"is_disabled":false,"rental_uris":{"android":"levelo://app?vid=16032bf6-8b9f-41f2-a381-49e7ac3bbcdf","ios":"levelo://app?vid=16032bf6-8b9f-41f2-a381-49e7ac3bbcdf"},"vehicle_type_id":"4","last_reported":1721401754,"current_range_meters":0,"station_id":"ce4bgvp2rcd13ifvqct0","pricing_plan_id":"cebpf4jnsgd1na2vs0mg"},{"bike_id":"83b947d4-1527-456f-b82c-40d498319aae","system_id":"levelo_inurba_marseille","lat":43.287184,"lon":5.37937,"is_reserved":false,"is_disabled":false,"rental_uris":{"android":"levelo://app?vid=83b947d4-1527-456f-b82c-40d498319aae","ios":"levelo://app?vid=83b947d4-1527-456f-b82c-40d498319aae"},"vehicle_type_id":"4","last_reported":1721401754,"current_range_meters":0,"station_id":"ce4bh9p2rcd13ifvqec0","pricing_plan_id":"cebpf4jnsgd1na2vs0mg"},{"bike_id":"ee440054-3265-4a30-83a0-a1558234f5d0","system_id":"levelo_inurba_marseille","lat":43.316821,"lon":5.404737,"is_reserved":false,"is_disabled":false,"rental_uris":{"android":"levelo://app?vid=ee440054-3265-4a30-83a0-a1558234f5d0","ios":"levelo://app?vid=ee440054-3265-4a30-83a0-a1558234f5d0"},"vehicle_type_id":"4","last_reported":1721401754,"current_range_meters":26000,"station_id":"ce4bh012rcd13ifvqd00","pricing_plan_id":"cebpf4jnsgd1na2vs0mg"},{"bike_id":"4ee2cbf6-73d4-473e-bfce-0207b93a3812","system_id":"levelo_inurba_marseille","lat":43.316821,"lon":5.404737,"is_reserved":false,"is_disabled":false,"rental_uris":{"android":"levelo://app?vid=4ee2cbf6-73d4-473e-bfce-0207b93a3812","ios":"levelo://app?vid=4ee2cbf6-73d4-473e-bfce-0207b93a3812"},"vehicle_type_id":"4","last_reported":1721401754,"current_range_meters":16400,"station_id":"ce4bh012rcd13ifvqd00","pricing_plan_id":"cebpf4jnsgd1na2vs0mg"},{"bike_id":"3521ee54-4417-4865-9992-92d02dbbfbc1","system_id":"levelo_inurba_marseille","lat":43.291994,"lon":5.392907,"is_reserved":false,"is_disabled":false,"rental_uris":{"android":"levelo://app?vid=3521ee54-4417-4865-9992-92d02dbbfbc1","ios":"levelo://app?vid=3521ee54-4417-4865-9992-92d02dbbfbc1"},"vehicle_type_id":"4","last_reported":1721401754,"current_range_meters":6400,"station_id":"ce4bh192rcd13ifvqdd0","pricing_plan_id":"cebpf4jnsgd1na2vs0mg"},{"bike_id":"8b0606ef-deab-451f-8b0d-43294b8c9c9e","system_id":"levelo_inurba_marseille","lat":43.284538,"lon":5.358657,"is_reserved":false,"is_disabled":false,"rental_uris":{"android":"levelo://app?vid=8b0606ef-deab-451f-8b0d-43294b8c9c9e","ios":"levelo://app?vid=8b0606ef-deab-451f-8b0d-43294b8c9c9e"},"vehicle_type_id":"4","last_reported":1721401754,"current_range_meters":400,"station_id":"ce4bhah2rcd13ifvqei0","pricing_plan_id":"cebpf4jnsgd1na2vs0mg"},{"bike_id":"1900c575-ed41-4182-8d48-57c86d05588d","system_id":"levelo_inurba_marseille","lat":43.284538,"lon":5.358657,"is_reserved":false,"is_disabled":false,"rental_uris":{"android":"levelo://app?vid=1900c575-ed41-4182-8d48-57c86d05588d","ios":"levelo://app?vid=1900c575-ed41-4182-8d48-57c86d05588d"},"vehicle_type_id":"4","last_reported":1721401754,"current_range_meters":14800,"station_id":"ce4bhah2rcd13ifvqei0","pricing_plan_id":"cebpf4jnsgd1na2vs0mg"},{"bike_id":"d4f527d7-2896-4895-a942-eefc0271e516","system_id":"levelo_inurba_marseille","lat":43.286208,"lon":5.351095,"is_reserved":false,"is_disabled":false,"rental_uris":{"android":"levelo://app?vid=d4f527d7-2896-4895-a942-eefc0271e516","ios":"levelo://app?vid=d4f527d7-2896-4895-a942-eefc0271e516"},"vehicle_type_id":"4","last_reported":1721401754,"current_range_meters":27200,"station_id":"ce4bhch2rcd13ifvqeug","pricing_plan_id":"cebpf4jnsgd1na2vs0mg"},{"bike_id":"a434d9f1-68ca-4a85-a9cf-4d404e5bb872","system_id":"levelo_inurba_marseille","lat":43.285856,"lon":5.350771,"is_reserved":false,"is_disabled":false,"rental_uris":{"android":"levelo://app?vid=a434d9f1-68ca-4a85-a9cf-4d404e5bb872","ios":"levelo://app?vid=a434d9f1-68ca-4a85-a9cf-4d404e5bb872"},"vehicle_type_id":"4","last_reported":1721401754,"current_range_meters":9600,"station_id":"ce4bhch2rcd13ifvqeug","pricing_plan_id":"cebpf4jnsgd1na2vs0mg"},{"bike_id":"fe4bf4cc-cbf6-4c1d-a146-560439751581","system_id":"levelo_inurba_marseille","lat":43.285856,"lon":5.350771,"is_reserved":false,"is_disabled":false,"rental_uris":{"android":"levelo://app?vid=fe4bf4cc-cbf6-4c1d-a146-560439751581","ios":"levelo://app?vid=fe4bf4cc-cbf6-4c1d-a146-560439751581"},"vehicle_type_id":"4","last_reported":1721401754,"current_range_meters":27200,"station_id":"ce4bhch2rcd13ifvqeug","pricing_plan_id":"cebpf4jnsgd1na2vs0mg"},{"bike_id":"321ab57b-136a-4703-8a5e-5b0af4dc1fc8","system_id":"levelo_inurba_marseille","lat":43.28618,"lon":5.35107,"is_reserved":false,"is_disabled":false,"rental_uris":{"android":"levelo://app?vid=321ab57b-136a-4703-8a5e-5b0af4dc1fc8","ios":"levelo://app?vid=321ab57b-136a-4703-8a5e-5b0af4dc1fc8"},"vehicle_type_id":"4","last_reported":1721401754,"current_range_meters":31200,"station_id":"ce4bhch2rcd13ifvqeug","pricing_plan_id":"cebpf4jnsgd1na2vs0mg"},{"bike_id":"11c16963-829c-4f0b-a9f0-5d7843bd52d4","system_id":"levelo_inurba_marseille","lat":43.28619,"lon":5.35102,"is_reserved":false,"is_disabled":false,"rental_uris":{"android":"levelo://app?vid=11c16963-829c-4f0b-a9f0-5d7843bd52d4","ios":"levelo://app?vid=11c16963-829c-4f0b-a9f0-5d7843bd52d4"},"vehicle_type_id":"4","last_reported":1721401754,"current_range_meters":11200,"station_id":"ce4bhch2rcd13ifvqeug","pricing_plan_id":"cebpf4jnsgd1na2vs0mg"},{"bike_id":"f8ea7a66-948c-48f8-a6fd-efdd55776f69","system_id":"levelo_inurba_marseille","lat":43.28617,"lon":5.35108,"is_reserved":false,"is_disabled":false,"rental_uris":{"android":"levelo://app?vid=f8ea7a66-948c-48f8-a6fd-efdd55776f69","ios":"levelo://app?vid=f8ea7a66-948c-48f8-a6fd-efdd55776f69"},"vehicle_type_id":"4","last_reported":1721401754,"current_range_meters":14800,"station_id":"ce4bhch2rcd13ifvqeug","pricing_plan_id":"cebpf4jnsgd1na2vs0mg"},{"bike_id":"a54f0e2a-1413-4b36-980f-71e8bd2a7521","system_id":"levelo_inurba_marseille","lat":43.285856,"lon":5.350771,"is_reserved":false,"is_disabled":false,"rental_uris":{"android":"levelo://app?vid=a54f0e2a-1413-4b36-980f-71e8bd2a7521","ios":"levelo://app?vid=a54f0e2a-1413-4b36-980f-71e8bd2a7521"},"vehicle_type_id":"4","last_reported":1721401754,"current_range_meters":6800,"station_id":"ce4bhch2rcd13ifvqeug","pricing_plan_id":"cebpf4jnsgd1na2vs0mg"},{"bike_id":"f3ecc44f-70e5-4789-ae79-db1723eb0c8f","system_id":"levelo_inurba_marseille","lat":43.28616,"lon":5.35107,"is_reserved":false,"is_disabled":false,"rental_uris":{"android":"levelo://app?vid=f3ecc44f-70e5-4789-ae79-db1723eb0c8f","ios":"levelo://app?vid=f3ecc44f-70e5-4789-ae79-db1723eb0c8f"},"vehicle_type_id":"4","last_reported":1721401754,"current_range_meters":1200,"station_id":"ce4bhch2rcd13ifvqeug","pricing_plan_id":"cebpf4jnsgd1na2vs0mg"},{"bike_id":"9ab2c131-758a-4b43-89dd-016b9c016f60","system_id":"levelo_inurba_marseille","lat":43.285856,"lon":5.350771,"is_reserved":false,"is_disabled":false,"rental_uris":{"android":"levelo://app?vid=9ab2c131-758a-4b43-89dd-016b9c016f60","ios":"levelo://app?vid=9ab2c131-758a-4b43-89dd-016b9c016f60"},"vehicle_type_id":"4","last_reported":1721401754,"current_range_meters":31200,"station_id":"ce4bhch2rcd13ifvqeug","pricing_plan_id":"cebpf4jnsgd1na2vs0mg"},{"bike_id":"624ac2a3-f6da-4cac-b267-a281fc53663d","system_id":"levelo_inurba_marseille","lat":43.28614,"lon":5.35108,"is_reserved":false,"is_disabled":false,"rental_uris":{"android":"levelo://app?vid=624ac2a3-f6da-4cac-b267-a281fc53663d","ios":"levelo://app?vid=624ac2a3-f6da-4cac-b267-a281fc53663d"},"vehicle_type_id":"4","last_reported":1721401754,"current_range_meters":7600,"station_id":"ce4bhch2rcd13ifvqeug","pricing_plan_id":"cebpf4jnsgd1na2vs0mg"},{"bike_id":"369e6f79-a1bb-49b7-8e5c-b6bb915f2ce7","system_id":"levelo_inurba_marseille","lat":43.28613,"lon":5.3511,"is_reserved":false,"is_disabled":false,"rental_uris":{"android":"levelo://app?vid=369e6f79-a1bb-49b7-8e5c-b6bb915f2ce7","ios":"levelo://app?vid=369e6f79-a1bb-49b7-8e5c-b6bb915f2ce7"},"vehicle_type_id":"4","last_reported":1721401754,"current_range_meters":0,"station_id":"ce4bhch2rcd13ifvqeug","pricing_plan_id":"cebpf4jnsgd1na2vs0mg"},{"bike_id":"fcd1d44a-6fee-41fa-a06e-e203771b06cb","system_id":"levelo_inurba_marseille","lat":43.28615,"lon":5.35103,"is_reserved":false,"is_disabled":false,"rental_uris":{"android":"levelo://app?vid=fcd1d44a-6fee-41fa-a06e-e203771b06cb","ios":"levelo://app?vid=fcd1d44a-6fee-41fa-a06e-e203771b06cb"},"vehicle_type_id":"4","last_reported":1721401754,"current_range_meters":16400,"station_id":"ce4bhch2rcd13ifvqeug","pricing_plan_id":"cebpf4jnsgd1na2vs0mg"},{"bike_id":"88b75c36-9df1-41c1-98d9-bc6d360078c6","system_id":"levelo_inurba_marseille","lat":43.28614,"lon":5.35106,"is_reserved":false,"is_disabled":false,"rental_uris":{"android":"levelo://app?vid=88b75c36-9df1-41c1-98d9-bc6d360078c6","ios":"levelo://app?vid=88b75c36-9df1-41c1-98d9-bc6d360078c6"},"vehicle_type_id":"4","last_reported":1721401754,"current_range_meters":22800,"station_id":"ce4bhch2rcd13ifvqeug","pricing_plan_id":"cebpf4jnsgd1na2vs0mg"},{"bike_id":"a9cac9d5-971e-4337-9c34-2508a74c87ac","system_id":"levelo_inurba_marseille","lat":43.28615,"lon":5.35101,"is_reserved":false,"is_disabled":false,"rental_uris":{"android":"levelo://app?vid=a9cac9d5-971e-4337-9c34-2508a74c87ac","ios":"levelo://app?vid=a9cac9d5-971e-4337-9c34-2508a74c87ac"},"vehicle_type_id":"4","last_reported":1721401754,"current_range_meters":19200,"station_id":"ce4bhch2rcd13ifvqeug","pricing_plan_id":"cebpf4jnsgd1na2vs0mg"},{"bike_id":"b16f3908-9dc6-45c4-b000-62dcbf46d34f","system_id":"levelo_inurba_marseille","lat":43.28614,"lon":5.35103,"is_reserved":false,"is_disabled":false,"rental_uris":{"android":"levelo://app?vid=b16f3908-9dc6-45c4-b000-62dcbf46d34f","ios":"levelo://app?vid=b16f3908-9dc6-45c4-b000-62dcbf46d34f"},"vehicle_type_id":"4","last_reported":1721401754,"current_range_meters":14800,"station_id":"ce4bhch2rcd13ifvqeug","pricing_plan_id":"cebpf4jnsgd1na2vs0mg"},{"bike_id":"32e1b000-8f36-4c29-9f9e-311808acc698","system_id":"levelo_inurba_marseille","lat":43.28614,"lon":5.35102,"is_reserved":false,"is_disabled":false,"rental_uris":{"android":"levelo://app?vid=32e1b000-8f36-4c29-9f9e-311808acc698","ios":"levelo://app?vid=32e1b000-8f36-4c29-9f9e-311808acc698"},"vehicle_type_id":"4","last_reported":1721401754,"current_range_meters":0,"station_id":"ce4bhch2rcd13ifvqeug","pricing_plan_id":"cebpf4jnsgd1na2vs0mg"},{"bike_id":"b1e82b11-1c71-4b79-86e7-e78ea197fd72","system_id":"levelo_inurba_marseille","lat":43.285856,"lon":5.350771,"is_reserved":false,"is_disabled":false,"rental_uris":{"android":"levelo://app?vid=b1e82b11-1c71-4b79-86e7-e78ea197fd72","ios":"levelo://app?vid=b1e82b11-1c71-4b79-86e7-e78ea197fd72"},"vehicle_type_id":"4","last_reported":1721401754,"current_range_meters":27200,"station_id":"ce4bhch2rcd13ifvqeug","pricing_plan_id":"cebpf4jnsgd1na2vs0mg"},{"bike_id":"74ab1e53-4590-4cd4-b8ee-1e62e3d8ac01","system_id":"levelo_inurba_marseille","lat":43.28613,"lon":5.35104,"is_reserved":false,"is_disabled":false,"rental_uris":{"android":"levelo://app?vid=74ab1e53-4590-4cd4-b8ee-1e62e3d8ac01","ios":"levelo://app?vid=74ab1e53-4590-4cd4-b8ee-1e62e3d8ac01"},"vehicle_type_id":"4","last_reported":1721401754,"current_range_meters":25200,"station_id":"ce4bhch2rcd13ifvqeug","pricing_plan_id":"cebpf4jnsgd1na2vs0mg"},{"bike_id":"5d8c4e57-036d-445b-8a6b-bd419cb1e9e0","system_id":"levelo_inurba_marseille","lat":43.28612,"lon":5.35107,"is_reserved":false,"is_disabled":false,"rental_uris":{"android":"levelo://app?vid=5d8c4e57-036d-445b-8a6b-bd419cb1e9e0","ios":"levelo://app?vid=5d8c4e57-036d-445b-8a6b-bd419cb1e9e0"},"vehicle_type_id":"4","last_reported":1721401754,"current_range_meters":14800,"station_id":"ce4bhch2rcd13ifvqeug","pricing_plan_id":"cebpf4jnsgd1na2vs0mg"},{"bike_id":"68492d5d-cc30-47b9-8229-3b8e5a1bd167","system_id":"levelo_inurba_marseille","lat":43.285856,"lon":5.350771,"is_reserved":false,"is_disabled":false,"rental_uris":{"android":"levelo://app?vid=68492d5d-cc30-47b9-8229-3b8e5a1bd167","ios":"levelo://app?vid=68492d5d-cc30-47b9-8229-3b8e5a1bd167"},"vehicle_type_id":"4","last_reported":1721401754,"current_range_meters":29200,"station_id":"ce4bhch2rcd13ifvqeug","pricing_plan_id":"cebpf4jnsgd1na2vs0mg"},{"bike_id":"e5c00243-a5ee-4eb8-abd2-d58ec960c428","system_id":"levelo_inurba_marseille","lat":43.285856,"lon":5.350771,"is_reserved":false,"is_disabled":false,"rental_uris":{"android":"levelo://app?vid=e5c00243-a5ee-4eb8-abd2-d58ec960c428","ios":"levelo://app?vid=e5c00243-a5ee-4eb8-abd2-d58ec960c428"},"vehicle_type_id":"4","last_reported":1721401754,"current_range_meters":18400,"station_id":"ce4bhch2rcd13ifvqeug","pricing_plan_id":"cebpf4jnsgd1na2vs0mg"},{"bike_id":"23685a7d-6ac0-4a6c-84d1-0c06c226ab1e","system_id":"levelo_inurba_marseille","lat":43.285856,"lon":5.350771,"is_reserved":false,"is_disabled":false,"rental_uris":{"android":"levelo://app?vid=23685a7d-6ac0-4a6c-84d1-0c06c226ab1e","ios":"levelo://app?vid=23685a7d-6ac0-4a6c-84d1-0c06c226ab1e"},"vehicle_type_id":"4","last_reported":1721401754,"current_range_meters":31200,"station_id":"ce4bhch2rcd13ifvqeug","pricing_plan_id":"cebpf4jnsgd1na2vs0mg"},{"bike_id":"b83369e0-256c-45af-861f-b698badd911c","system_id":"levelo_inurba_marseille","lat":43.285856,"lon":5.350771,"is_reserved":false,"is_disabled":false,"rental_uris":{"android":"levelo://app?vid=b83369e0-256c-45af-861f-b698badd911c","ios":"levelo://app?vid=b83369e0-256c-45af-861f-b698badd911c"},"vehicle_type_id":"4","last_reported":1721401754,"current_range_meters":19200,"station_id":"ce4bhch2rcd13ifvqeug","pricing_plan_id":"cebpf4jnsgd1na2vs0mg"},{"bike_id":"4c09a479-8fc0-4c87-a15a-c2882c31bba2","system_id":"levelo_inurba_marseille","lat":43.285856,"lon":5.350771,"is_reserved":false,"is_disabled":false,"rental_uris":{"android":"levelo://app?vid=4c09a479-8fc0-4c87-a15a-c2882c31bba2","ios":"levelo://app?vid=4c09a479-8fc0-4c87-a15a-c2882c31bba2"},"vehicle_type_id":"4","last_reported":1721401754,"current_range_meters":23200,"station_id":"ce4bhch2rcd13ifvqeug","pricing_plan_id":"cebpf4jnsgd1na2vs0mg"},{"bike_id":"8bc7f93a-717e-4f92-9253-1207c2a15251","system_id":"levelo_inurba_marseille","lat":43.285856,"lon":5.350771,"is_reserved":false,"is_disabled":false,"rental_uris":{"android":"levelo://app?vid=8bc7f93a-717e-4f92-9253-1207c2a15251","ios":"levelo://app?vid=8bc7f93a-717e-4f92-9253-1207c2a15251"},"vehicle_type_id":"4","last_reported":1721401754,"current_range_meters":24800,"station_id":"ce4bhch2rcd13ifvqeug","pricing_plan_id":"cebpf4jnsgd1na2vs0mg"},{"bike_id":"2a9adc76-1d9b-4615-bba0-343e64efc6dc","system_id":"levelo_inurba_marseille","lat":43.285856,"lon":5.350771,"is_reserved":false,"is_disabled":false,"rental_uris":{"android":"levelo://app?vid=2a9adc76-1d9b-4615-bba0-343e64efc6dc","ios":"levelo://app?vid=2a9adc76-1d9b-4615-bba0-343e64efc6dc"},"vehicle_type_id":"4","last_reported":1721401754,"current_range_meters":30800,"station_id":"ce4bhch2rcd13ifvqeug","pricing_plan_id":"cebpf4jnsgd1na2vs0mg"},{"bike_id":"ea1dd7ee-bd27-4672-8bdd-18daac8df44e","system_id":"levelo_inurba_marseille","lat":43.285856,"lon":5.350771,"is_reserved":false,"is_disabled":false,"rental_uris":{"android":"levelo://app?vid=ea1dd7ee-bd27-4672-8bdd-18daac8df44e","ios":"levelo://app?vid=ea1dd7ee-bd27-4672-8bdd-18daac8df44e"},"vehicle_type_id":"4","last_reported":1721401754,"current_range_meters":12800,"station_id":"ce4bhch2rcd13ifvqeug","pricing_plan_id":"cebpf4jnsgd1na2vs0mg"},{"bike_id":"d7eeb3df-27f4-4105-818d-83beaaa7a2be","system_id":"levelo_inurba_marseille","lat":43.285856,"lon":5.350771,"is_reserved":false,"is_disabled":false,"rental_uris":{"android":"levelo://app?vid=d7eeb3df-27f4-4105-818d-83beaaa7a2be","ios":"levelo://app?vid=d7eeb3df-27f4-4105-818d-83beaaa7a2be"},"vehicle_type_id":"4","last_reported":1721401754,"current_range_meters":14800,"station_id":"ce4bhch2rcd13ifvqeug","pricing_plan_id":"cebpf4jnsgd1na2vs0mg"},{"bike_id":"5697f5fd-e679-4087-9be8-40a027b7cde5","system_id":"levelo_inurba_marseille","lat":43.285856,"lon":5.350771,"is_reserved":false,"is_disabled":false,"rental_uris":{"android":"levelo://app?vid=5697f5fd-e679-4087-9be8-40a027b7cde5","ios":"levelo://app?vid=5697f5fd-e679-4087-9be8-40a027b7cde5"},"vehicle_type_id":"4","last_reported":1721401754,"current_range_meters":18400,"station_id":"ce4bhch2rcd13ifvqeug","pricing_plan_id":"cebpf4jnsgd1na2vs0mg"},{"bike_id":"e57df6ae-2b72-4b14-bd20-ef06fe3f8e95","system_id":"levelo_inurba_marseille","lat":43.285856,"lon":5.350771,"is_reserved":false,"is_disabled":false,"rental_uris":{"android":"levelo://app?vid=e57df6ae-2b72-4b14-bd20-ef06fe3f8e95","ios":"levelo://app?vid=e57df6ae-2b72-4b14-bd20-ef06fe3f8e95"},"vehicle_type_id":"4","last_reported":1721401754,"current_range_meters":24000,"station_id":"ce4bhch2rcd13ifvqeug","pricing_plan_id":"cebpf4jnsgd1na2vs0mg"},{"bike_id":"a6cee7a6-10cb-443b-b88c-dbef0ce4de7b","system_id":"levelo_inurba_marseille","lat":43.283998,"lon":5.375062,"is_reserved":false,"is_disabled":false,"rental_uris":{"android":"levelo://app?vid=a6cee7a6-10cb-443b-b88c-dbef0ce4de7b","ios":"levelo://app?vid=a6cee7a6-10cb-443b-b88c-dbef0ce4de7b"},"vehicle_type_id":"4","last_reported":1721401754,"current_range_meters":17600,"station_id":"ce4bh412rcd13ifvqds0","pricing_plan_id":"cebpf4jnsgd1na2vs0mg"},{"bike_id":"5ca8b89f-5c90-42e6-a9b5-fe595117294c","system_id":"levelo_inurba_marseille","lat":43.286197,"lon":5.383587,"is_reserved":false,"is_disabled":false,"rental_uris":{"android":"levelo://app?vid=5ca8b89f-5c90-42e6-a9b5-fe595117294c","ios":"levelo://app?vid=5ca8b89f-5c90-42e6-a9b5-fe595117294c"},"vehicle_type_id":"4","last_reported":1721401754,"current_range_meters":5600,"station_id":"ce4bh4p2rcd13ifvqe1g","pricing_plan_id":"cebpf4jnsgd1na2vs0mg"},{"bike_id":"565e9a8d-6267-4da4-b2dc-c5c1c0f50f00","system_id":"levelo_inurba_marseille","lat":43.283998,"lon":5.375062,"is_reserved":false,"is_disabled":false,"rental_uris":{"android":"levelo://app?vid=565e9a8d-6267-4da4-b2dc-c5c1c0f50f00","ios":"levelo://app?vid=565e9a8d-6267-4da4-b2dc-c5c1c0f50f00"},"vehicle_type_id":"4","last_reported":1721401754,"current_range_meters":30000,"station_id":"ce4bh412rcd13ifvqds0","pricing_plan_id":"cebpf4jnsgd1na2vs0mg"},{"bike_id":"f5b01895-b3c1-48d1-b65b-65eb4f531ca4","system_id":"levelo_inurba_marseille","lat":43.283998,"lon":5.375062,"is_reserved":false,"is_disabled":false,"rental_uris":{"android":"levelo://app?vid=f5b01895-b3c1-48d1-b65b-65eb4f531ca4","ios":"levelo://app?vid=f5b01895-b3c1-48d1-b65b-65eb4f531ca4"},"vehicle_type_id":"4","last_reported":1721401754,"current_range_meters":6800,"station_id":"ce4bh412rcd13ifvqds0","pricing_plan_id":"cebpf4jnsgd1na2vs0mg"},{"bike_id":"bf2896eb-aa36-4837-ba7e-1eb786b03e00","system_id":"levelo_inurba_marseille","lat":43.298037,"lon":5.381066,"is_reserved":false,"is_disabled":false,"rental_uris":{"android":"levelo://app?vid=bf2896eb-aa36-4837-ba7e-1eb786b03e00","ios":"levelo://app?vid=bf2896eb-aa36-4837-ba7e-1eb786b03e00"},"vehicle_type_id":"4","last_reported":1721401754,"current_range_meters":2400,"station_id":"ce4bgip2rcd13ifvqbb0","pricing_plan_id":"cebpf4jnsgd1na2vs0mg"},{"bike_id":"c97c4d69-9e84-42f5-b2c6-ced8bf99daef","system_id":"levelo_inurba_marseille","lat":43.285004,"lon":5.351349,"is_reserved":false,"is_disabled":false,"rental_uris":{"android":"levelo://app?vid=c97c4d69-9e84-42f5-b2c6-ced8bf99daef","ios":"levelo://app?vid=c97c4d69-9e84-42f5-b2c6-ced8bf99daef"},"vehicle_type_id":"4","last_reported":1721401754,"current_range_meters":22000,"station_id":"","pricing_plan_id":"cebpf4jnsgd1na2vs0mg"},{"bike_id":"c8b5acfb-997b-433f-9a1a-cb2e5400588b","system_id":"levelo_inurba_marseille","lat":43.319179,"lon":5.407725,"is_reserved":false,"is_disabled":false,"rental_uris":{"android":"levelo://app?vid=c8b5acfb-997b-433f-9a1a-cb2e5400588b","ios":"levelo://app?vid=c8b5acfb-997b-433f-9a1a-cb2e5400588b"},"vehicle_type_id":"4","last_reported":1721401754,"current_range_meters":19600,"station_id":"ce4bhq12rcd13ifvqhig","pricing_plan_id":"cebpf4jnsgd1na2vs0mg"},{"bike_id":"068ec661-1580-490e-acd6-8819317486df","system_id":"levelo_inurba_marseille","lat":43.323464,"lon":5.406297,"is_reserved":false,"is_disabled":false,"rental_uris":{"android":"levelo://app?vid=068ec661-1580-490e-acd6-8819317486df","ios":"levelo://app?vid=068ec661-1580-490e-acd6-8819317486df"},"vehicle_type_id":"4","last_reported":1721401754,"current_range_meters":31200,"station_id":"ce4bhq92rcd13ifvqhjg","pricing_plan_id":"cebpf4jnsgd1na2vs0mg"},{"bike_id":"8d804e70-bebd-42a6-b654-5b552b3fe1be","system_id":"levelo_inurba_marseille","lat":43.323464,"lon":5.406297,"is_reserved":false,"is_disabled":false,"rental_uris":{"android":"levelo://app?vid=8d804e70-bebd-42a6-b654-5b552b3fe1be","ios":"levelo://app?vid=8d804e70-bebd-42a6-b654-5b552b3fe1be"},"vehicle_type_id":"4","last_reported":1721401754,"current_range_meters":4000,"station_id":"ce4bhq92rcd13ifvqhjg","pricing_plan_id":"cebpf4jnsgd1na2vs0mg"},{"bike_id":"371efaaa-8354-4056-9d70-a2c2ac1cdc6a","system_id":"levelo_inurba_marseille","lat":43.32345,"lon":5.40619,"is_reserved":false,"is_disabled":false,"rental_uris":{"android":"levelo://app?vid=371efaaa-8354-4056-9d70-a2c2ac1cdc6a","ios":"levelo://app?vid=371efaaa-8354-4056-9d70-a2c2ac1cdc6a"},"vehicle_type_id":"4","last_reported":1721401754,"current_range_meters":0,"station_id":"ce4bhq92rcd13ifvqhjg","pricing_plan_id":"cebpf4jnsgd1na2vs0mg"},{"bike_id":"dcfed4d1-45ea-4b5d-9fdc-4e051e073d47","system_id":"levelo_inurba_marseille","lat":43.32342,"lon":5.40623,"is_reserved":false,"is_disabled":false,"rental_uris":{"android":"levelo://app?vid=dcfed4d1-45ea-4b5d-9fdc-4e051e073d47","ios":"levelo://app?vid=dcfed4d1-45ea-4b5d-9fdc-4e051e073d47"},"vehicle_type_id":"4","last_reported":1721401754,"current_range_meters":1200,"station_id":"ce4bhq92rcd13ifvqhjg","pricing_plan_id":"cebpf4jnsgd1na2vs0mg"},{"bike_id":"b39f5b94-b7da-40ce-b3ad-927bf6c884a6","system_id":"levelo_inurba_marseille","lat":43.288497,"lon":5.393089,"is_reserved":false,"is_disabled":false,"rental_uris":{"android":"levelo://app?vid=b39f5b94-b7da-40ce-b3ad-927bf6c884a6","ios":"levelo://app?vid=b39f5b94-b7da-40ce-b3ad-927bf6c884a6"},"vehicle_type_id":"4","last_reported":1721401754,"current_range_meters":18800,"station_id":"ce4bh2p2rcd13ifvqdi0","pricing_plan_id":"cebpf4jnsgd1na2vs0mg"},{"bike_id":"e6f542bc-8ea6-4d0c-a08d-43a6c5c6c2e4","system_id":"levelo_inurba_marseille","lat":43.323464,"lon":5.406297,"is_reserved":false,"is_disabled":false,"rental_uris":{"android":"levelo://app?vid=e6f542bc-8ea6-4d0c-a08d-43a6c5c6c2e4","ios":"levelo://app?vid=e6f542bc-8ea6-4d0c-a08d-43a6c5c6c2e4"},"vehicle_type_id":"4","last_reported":1721401754,"current_range_meters":29200,"station_id":"ce4bhq92rcd13ifvqhjg","pricing_plan_id":"cebpf4jnsgd1na2vs0mg"},{"bike_id":"3206a138-438c-4569-9709-06c0ed4a152c","system_id":"levelo_inurba_marseille","lat":43.284776,"lon":5.385603,"is_reserved":false,"is_disabled":false,"rental_uris":{"android":"levelo://app?vid=3206a138-438c-4569-9709-06c0ed4a152c","ios":"levelo://app?vid=3206a138-438c-4569-9709-06c0ed4a152c"},"vehicle_type_id":"4","last_reported":1721401754,"current_range_meters":0,"station_id":"ce4bh8p2rcd13ifvqeb0","pricing_plan_id":"cebpf4jnsgd1na2vs0mg"},{"bike_id":"c32a8442-8fd9-4066-bf4b-8b4d75250ebd","system_id":"levelo_inurba_marseille","lat":43.28425,"lon":5.34999,"is_reserved":false,"is_disabled":false,"rental_uris":{"android":"levelo://app?vid=c32a8442-8fd9-4066-bf4b-8b4d75250ebd","ios":"levelo://app?vid=c32a8442-8fd9-4066-bf4b-8b4d75250ebd"},"vehicle_type_id":"4","last_reported":1721401754,"current_range_meters":15600,"station_id":"ce4bhbh2rcd13ifvqepg","pricing_plan_id":"cebpf4jnsgd1na2vs0mg"},{"bike_id":"5aacd088-d5a6-4cd3-83a3-c11191736117","system_id":"levelo_inurba_marseille","lat":43.284268,"lon":5.34989,"is_reserved":false,"is_disabled":false,"rental_uris":{"android":"levelo://app?vid=5aacd088-d5a6-4cd3-83a3-c11191736117","ios":"levelo://app?vid=5aacd088-d5a6-4cd3-83a3-c11191736117"},"vehicle_type_id":"4","last_reported":1721401754,"current_range_meters":18800,"station_id":"ce4bhbh2rcd13ifvqepg","pricing_plan_id":"cebpf4jnsgd1na2vs0mg"},{"bike_id":"8eab00ec-f191-4002-bd43-cde297f0632c","system_id":"levelo_inurba_marseille","lat":43.284214,"lon":5.349706,"is_reserved":false,"is_disabled":false,"rental_uris":{"android":"levelo://app?vid=8eab00ec-f191-4002-bd43-cde297f0632c","ios":"levelo://app?vid=8eab00ec-f191-4002-bd43-cde297f0632c"},"vehicle_type_id":"4","last_reported":1721401754,"current_range_meters":29600,"station_id":"ce4bhbh2rcd13ifvqepg","pricing_plan_id":"cebpf4jnsgd1na2vs0mg"},{"bike_id":"17f5adde-75b6-4910-9761-d3bb0f69e7bd","system_id":"levelo_inurba_marseille","lat":43.28426,"lon":5.349885,"is_reserved":false,"is_disabled":false,"rental_uris":{"android":"levelo://app?vid=17f5adde-75b6-4910-9761-d3bb0f69e7bd","ios":"levelo://app?vid=17f5adde-75b6-4910-9761-d3bb0f69e7bd"},"vehicle_type_id":"4","last_reported":1721401754,"current_range_meters":17600,"station_id":"ce4bhbh2rcd13ifvqepg","pricing_plan_id":"cebpf4jnsgd1na2vs0mg"},{"bike_id":"bc6dcc68-40f0-4982-a18c-accb1486a91e","system_id":"levelo_inurba_marseille","lat":43.284258,"lon":5.34989,"is_reserved":false,"is_disabled":false,"rental_uris":{"android":"levelo://app?vid=bc6dcc68-40f0-4982-a18c-accb1486a91e","ios":"levelo://app?vid=bc6dcc68-40f0-4982-a18c-accb1486a91e"},"vehicle_type_id":"4","last_reported":1721401754,"current_range_meters":9600,"station_id":"ce4bhbh2rcd13ifvqepg","pricing_plan_id":"cebpf4jnsgd1na2vs0mg"},{"bike_id":"e72edf5f-de15-4665-91aa-1093aaf660c2","system_id":"levelo_inurba_marseille","lat":43.284214,"lon":5.349706,"is_reserved":false,"is_disabled":false,"rental_uris":{"android":"levelo://app?vid=e72edf5f-de15-4665-91aa-1093aaf660c2","ios":"levelo://app?vid=e72edf5f-de15-4665-91aa-1093aaf660c2"},"vehicle_type_id":"4","last_reported":1721401754,"current_range_meters":10000,"station_id":"ce4bhbh2rcd13ifvqepg","pricing_plan_id":"cebpf4jnsgd1na2vs0mg"},{"bike_id":"1d20729d-6a77-4926-879d-72de4bd48bbe","system_id":"levelo_inurba_marseille","lat":43.284214,"lon":5.349706,"is_reserved":false,"is_disabled":false,"rental_uris":{"android":"levelo://app?vid=1d20729d-6a77-4926-879d-72de4bd48bbe","ios":"levelo://app?vid=1d20729d-6a77-4926-879d-72de4bd48bbe"},"vehicle_type_id":"4","last_reported":1721401754,"current_range_meters":23600,"station_id":"ce4bhbh2rcd13ifvqepg","pricing_plan_id":"cebpf4jnsgd1na2vs0mg"},{"bike_id":"5c98fc45-4306-40c6-adb8-6129c5537a52","system_id":"levelo_inurba_marseille","lat":43.284214,"lon":5.349706,"is_reserved":false,"is_disabled":false,"rental_uris":{"android":"levelo://app?vid=5c98fc45-4306-40c6-adb8-6129c5537a52","ios":"levelo://app?vid=5c98fc45-4306-40c6-adb8-6129c5537a52"},