{"last_updated":1714158376,"ttl":30,"version":"2.2","data":{"bikes":[{"bike_id":"656b9cdd-8fbd-401d-b7ad-7453e3ae7867","system_id":"levelo_inurba_marseille","lat":43.31341,"lon":5.367098,"is_reserved":false,"is_disabled":false,"rental_uris":{"android":"levelo://app?vid=656b9cdd-8fbd-401d-b7ad-7453e3ae7867","ios":"levelo://app?vid=656b9cdd-8fbd-401d-b7ad-7453e3ae7867"},"vehicle_type_id":"4","last_reported":1714158376,"current_range_meters":22800,"station_id":"ce4bgr92rcd13ifvqc6g","pricing_plan_id":"cebpf4jnsgd1na2vs0mg"},{"bike_id":"eed3708a-1b61-4cd1-8205-892d98e6f3bb","system_id":"levelo_inurba_marseille","lat":43.31341,"lon":5.367098,"is_reserved":false,"is_disabled":false,"rental_uris":{"android":"levelo://app?vid=eed3708a-1b61-4cd1-8205-892d98e6f3bb","ios":"levelo://app?vid=eed3708a-1b61-4cd1-8205-892d98e6f3bb"},"vehicle_type_id":"4","last_reported":1714158376,"current_range_meters":12800,"station_id":"ce4bgr92rcd13ifvqc6g","pricing_plan_id":"cebpf4jnsgd1na2vs0mg"},{"bike_id":"60dc2a41-ba2b-4e5c-ae46-bf3796712918","system_id":"levelo_inurba_marseille","lat":43.31341,"lon":5.367098,"is_reserved":false,"is_disabled":false,"rental_uris":{"android":"levelo://app?vid=60dc2a41-ba2b-4e5c-ae46-bf3796712918","ios":"levelo://app?vid=60dc2a41-ba2b-4e5c-ae46-bf3796712918"},"vehicle_type_id":"4","last_reported":1714158376,"current_range_meters":9200,"station_id":"ce4bgr92rcd13ifvqc6g","pricing_plan_id":"cebpf4jnsgd1na2vs0mg"},{"bike_id":"caaa521a-8478-41e6-ac0a-efc9d1656832","system_id":"levelo_inurba_marseille","lat":43.313391,"lon":5.36706,"is_reserved":false,"is_disabled":false,"rental_uris":{"android":"levelo://app?vid=caaa521a-8478-41e6-ac0a-efc9d1656832","ios":"levelo://app?vid=caaa521a-8478-41e6-ac0a-efc9d1656832"},"vehicle_type_id":"4","last_reported":1714158376,"current_range_meters":6800,"station_id":"ce4bgr92rcd13ifvqc6g","pricing_plan_id":"cebpf4jnsgd1na2vs0mg"},{"bike_id":"6ba82f00-5575-4b9e-ac94-eae8bb55d661","system_id":"levelo_inurba_marseille","lat":43.312239,"lon":5.368562,"is_reserved":false,"is_disabled":false,"rental_uris":{"android":"levelo://app?vid=6ba82f00-5575-4b9e-ac94-eae8bb55d661","ios":"levelo://app?vid=6ba82f00-5575-4b9e-ac94-eae8bb55d661"},"vehicle_type_id":"4","last_reported":1714158376,"current_range_meters":16000,"station_id":"ce4bgl92rcd13ifvqbq0","pricing_plan_id":"cebpf4jnsgd1na2vs0mg"},{"bike_id":"d44a3ef6-9c37-4d41-8ee0-d18a339b20bd","system_id":"levelo_inurba_marseille","lat":43.305989,"lon":5.37225,"is_reserved":false,"is_disabled":false,"rental_uris":{"android":"levelo://app?vid=d44a3ef6-9c37-4d41-8ee0-d18a339b20bd","ios":"levelo://app?vid=d44a3ef6-9c37-4d41-8ee0-d18a339b20bd"},"vehicle_type_id":"4","last_reported":1714158376,"current_range_meters":9200,"station_id":"ce4bgqh2rcd13ifvqc4g","pricing_plan_id":"cebpf4jnsgd1na2vs0mg"},{"bike_id":"892679d6-8fb7-4fa1-ad04-5ae2266c6371","system_id":"levelo_inurba_marseille","lat":43.312272,"lon":5.368767,"is_reserved":false,"is_disabled":false,"rental_uris":{"android":"levelo://app?vid=892679d6-8fb7-4fa1-ad04-5ae2266c6371","ios":"levelo://app?vid=892679d6-8fb7-4fa1-ad04-5ae2266c6371"},"vehicle_type_id":"4","last_reported":1714158376,"current_range_meters":22400,"station_id":"ce4bgl92rcd13ifvqbq0","pricing_plan_id":"cebpf4jnsgd1na2vs0mg"},{"bike_id":"fae40c8d-5833-4c86-8ff3-15030f62e43b","system_id":"levelo_inurba_marseille","lat":43.312239,"lon":5.368562,"is_reserved":false,"is_disabled":false,"rental_uris":{"android":"levelo://app?vid=fae40c8d-5833-4c86-8ff3-15030f62e43b","ios":"levelo://app?vid=fae40c8d-5833-4c86-8ff3-15030f62e43b"},"vehicle_type_id":"4","last_reported":1714158376,"current_range_meters":7200,"station_id":"ce4bgl92rcd13ifvqbq0","pricing_plan_id":"cebpf4jnsgd1na2vs0mg"},{"bike_id":"6dda5ef3-1125-44af-a88f-62fa7eb9a072","system_id":"levelo_inurba_marseille","lat":43.299222,"lon":5.365554,"is_reserved":false,"is_disabled":false,"rental_uris":{"android":"levelo://app?vid=6dda5ef3-1125-44af-a88f-62fa7eb9a072","ios":"levelo://app?vid=6dda5ef3-1125-44af-a88f-62fa7eb9a072"},"vehicle_type_id":"4","last_reported":1714158376,"current_range_meters":1600,"station_id":"ce4bgm92rcd13ifvqbr0","pricing_plan_id":"cebpf4jnsgd1na2vs0mg"},{"bike_id":"512d5e25-0fc8-4f39-8515-70bfcf0af106","system_id":"levelo_inurba_marseille","lat":43.314811,"lon":5.373103,"is_reserved":false,"is_disabled":false,"rental_uris":{"android":"levelo://app?vid=512d5e25-0fc8-4f39-8515-70bfcf0af106","ios":"levelo://app?vid=512d5e25-0fc8-4f39-8515-70bfcf0af106"},"vehicle_type_id":"4","last_reported":1714158376,"current_range_meters":22000,"station_id":"ce4bgt12rcd13ifvqcd0","pricing_plan_id":"cebpf4jnsgd1na2vs0mg"},{"bike_id":"23d4b5fc-4c54-4ec9-903b-c6eca5342b48","system_id":"levelo_inurba_marseille","lat":43.314902,"lon":5.373063,"is_reserved":false,"is_disabled":false,"rental_uris":{"android":"levelo://app?vid=23d4b5fc-4c54-4ec9-903b-c6eca5342b48","ios":"levelo://app?vid=23d4b5fc-4c54-4ec9-903b-c6eca5342b48"},"vehicle_type_id":"4","last_reported":1714158376,"current_range_meters":0,"station_id":"ce4bgt12rcd13ifvqcd0","pricing_plan_id":"cebpf4jnsgd1na2vs0mg"},{"bike_id":"4a041d28-d086-4738-8f1d-52a220cd3dcf","system_id":"levelo_inurba_marseille","lat":43.279742,"lon":5.38744,"is_reserved":false,"is_disabled":false,"rental_uris":{"android":"levelo://app?vid=4a041d28-d086-4738-8f1d-52a220cd3dcf","ios":"levelo://app?vid=4a041d28-d086-4738-8f1d-52a220cd3dcf"},"vehicle_type_id":"4","last_reported":1714158376,"current_range_meters":11200,"station_id":"ce4bhg12rcd13ifvqf80","pricing_plan_id":"cebpf4jnsgd1na2vs0mg"},{"bike_id":"49ab6474-a2f5-433a-98d7-4a4ced4046b1","system_id":"levelo_inurba_marseille","lat":43.314811,"lon":5.373103,"is_reserved":false,"is_disabled":false,"rental_uris":{"android":"levelo://app?vid=49ab6474-a2f5-433a-98d7-4a4ced4046b1","ios":"levelo://app?vid=49ab6474-a2f5-433a-98d7-4a4ced4046b1"},"vehicle_type_id":"4","last_reported":1714158376,"current_range_meters":9200,"station_id":"ce4bgt12rcd13ifvqcd0","pricing_plan_id":"cebpf4jnsgd1na2vs0mg"},{"bike_id":"97db2436-d1a5-4943-b9c2-faa7058af19f","system_id":"levelo_inurba_marseille","lat":43.31498,"lon":5.37311,"is_reserved":false,"is_disabled":false,"rental_uris":{"android":"levelo://app?vid=97db2436-d1a5-4943-b9c2-faa7058af19f","ios":"levelo://app?vid=97db2436-d1a5-4943-b9c2-faa7058af19f"},"vehicle_type_id":"4","last_reported":1714158376,"current_range_meters":12400,"station_id":"ce4bgt12rcd13ifvqcd0","pricing_plan_id":"cebpf4jnsgd1na2vs0mg"},{"bike_id":"37ed2dd9-2e89-4ec2-a66b-c158af4a781b","system_id":"levelo_inurba_marseille","lat":43.314955,"lon":5.373128,"is_reserved":false,"is_disabled":false,"rental_uris":{"android":"levelo://app?vid=37ed2dd9-2e89-4ec2-a66b-c158af4a781b","ios":"levelo://app?vid=37ed2dd9-2e89-4ec2-a66b-c158af4a781b"},"vehicle_type_id":"4","last_reported":1714158376,"current_range_meters":400,"station_id":"ce4bgt12rcd13ifvqcd0","pricing_plan_id":"cebpf4jnsgd1na2vs0mg"},{"bike_id":"62ccff47-5a54-4ba4-8e93-ce840b12ac82","system_id":"levelo_inurba_marseille","lat":43.314811,"lon":5.373104,"is_reserved":false,"is_disabled":false,"rental_uris":{"android":"levelo://app?vid=62ccff47-5a54-4ba4-8e93-ce840b12ac82","ios":"levelo://app?vid=62ccff47-5a54-4ba4-8e93-ce840b12ac82"},"vehicle_type_id":"4","last_reported":1714158376,"current_range_meters":24400,"station_id":"ce4bgt12rcd13ifvqcd0","pricing_plan_id":"cebpf4jnsgd1na2vs0mg"},{"bike_id":"58417d09-452e-46a0-b91e-9c1499d78cf1","system_id":"levelo_inurba_marseille","lat":43.31502,"lon":5.3731,"is_reserved":false,"is_disabled":false,"rental_uris":{"android":"levelo://app?vid=58417d09-452e-46a0-b91e-9c1499d78cf1","ios":"levelo://app?vid=58417d09-452e-46a0-b91e-9c1499d78cf1"},"vehicle_type_id":"4","last_reported":1714158376,"current_range_meters":5600,"station_id":"ce4bgt12rcd13ifvqcd0","pricing_plan_id":"cebpf4jnsgd1na2vs0mg"},{"bike_id":"ee3a39ac-0cb6-4f6a-a124-3b59b6873be4","system_id":"levelo_inurba_marseille","lat":43.314811,"lon":5.373103,"is_reserved":false,"is_disabled":false,"rental_uris":{"android":"levelo://app?vid=ee3a39ac-0cb6-4f6a-a124-3b59b6873be4","ios":"levelo://app?vid=ee3a39ac-0cb6-4f6a-a124-3b59b6873be4"},"vehicle_type_id":"4","last_reported":1714158376,"current_range_meters":22000,"station_id":"ce4bgt12rcd13ifvqcd0","pricing_plan_id":"cebpf4jnsgd1na2vs0mg"},{"bike_id":"50506f99-67b9-4a9a-9b59-afcae251b324","system_id":"levelo_inurba_marseille","lat":43.308885,"lon":5.371948,"is_reserved":false,"is_disabled":false,"rental_uris":{"android":"levelo://app?vid=50506f99-67b9-4a9a-9b59-afcae251b324","ios":"levelo://app?vid=50506f99-67b9-4a9a-9b59-afcae251b324"},"vehicle_type_id":"4","last_reported":1714158376,"current_range_meters":0,"station_id":"ce4bguh2rcd13ifvqckg","pricing_plan_id":"cebpf4jnsgd1na2vs0mg"},{"bike_id":"ca4ca187-799d-46f4-a1d1-32619e2f58ca","system_id":"levelo_inurba_marseille","lat":43.305712,"lon":5.365641,"is_reserved":false,"is_disabled":false,"rental_uris":{"android":"levelo://app?vid=ca4ca187-799d-46f4-a1d1-32619e2f58ca","ios":"levelo://app?vid=ca4ca187-799d-46f4-a1d1-32619e2f58ca"},"vehicle_type_id":"4","last_reported":1714158376,"current_range_meters":10800,"station_id":"ce4bgs12rcd13ifvqcag","pricing_plan_id":"cebpf4jnsgd1na2vs0mg"},{"bike_id":"a47b5bb7-53c3-489e-aeee-b31598ff3f53","system_id":"levelo_inurba_marseille","lat":43.290104,"lon":5.356111,"is_reserved":false,"is_disabled":false,"rental_uris":{"android":"levelo://app?vid=a47b5bb7-53c3-489e-aeee-b31598ff3f53","ios":"levelo://app?vid=a47b5bb7-53c3-489e-aeee-b31598ff3f53"},"vehicle_type_id":"4","last_reported":1714158376,"current_range_meters":19200,"station_id":"ce4bhb92rcd13ifvqen0","pricing_plan_id":"cebpf4jnsgd1na2vs0mg"},{"bike_id":"bb6a3eb6-4445-41d3-97c6-58566b455d3e","system_id":"levelo_inurba_marseille","lat":43.305989,"lon":5.37225,"is_reserved":false,"is_disabled":false,"rental_uris":{"android":"levelo://app?vid=bb6a3eb6-4445-41d3-97c6-58566b455d3e","ios":"levelo://app?vid=bb6a3eb6-4445-41d3-97c6-58566b455d3e"},"vehicle_type_id":"4","last_reported":1714158376,"current_range_meters":16400,"station_id":"ce4bgqh2rcd13ifvqc4g","pricing_plan_id":"cebpf4jnsgd1na2vs0mg"},{"bike_id":"9e6d752d-7070-4049-b474-6de83271b6d5","system_id":"levelo_inurba_marseille","lat":43.306055,"lon":5.372269,"is_reserved":false,"is_disabled":false,"rental_uris":{"android":"levelo://app?vid=9e6d752d-7070-4049-b474-6de83271b6d5","ios":"levelo://app?vid=9e6d752d-7070-4049-b474-6de83271b6d5"},"vehicle_type_id":"4","last_reported":1714158376,"current_range_meters":20800,"station_id":"ce4bh2h2rcd13ifvqdh0","pricing_plan_id":"cebpf4jnsgd1na2vs0mg"},{"bike_id":"e6ecc623-0bc2-4961-92e2-17c1350547a7","system_id":"levelo_inurba_marseille","lat":43.305989,"lon":5.37225,"is_reserved":false,"is_disabled":false,"rental_uris":{"android":"levelo://app?vid=e6ecc623-0bc2-4961-92e2-17c1350547a7","ios":"levelo://app?vid=e6ecc623-0bc2-4961-92e2-17c1350547a7"},"vehicle_type_id":"4","last_reported":1714158376,"current_range_meters":800,"station_id":"ce4bgqh2rcd13ifvqc4g","pricing_plan_id":"cebpf4jnsgd1na2vs0mg"},{"bike_id":"b560db3e-b265-46c5-8812-32fde6e57d9d","system_id":"levelo_inurba_marseille","lat":43.305989,"lon":5.37225,"is_reserved":false,"is_disabled":false,"rental_uris":{"android":"levelo://app?vid=b560db3e-b265-46c5-8812-32fde6e57d9d","ios":"levelo://app?vid=b560db3e-b265-46c5-8812-32fde6e57d9d"},"vehicle_type_id":"4","last_reported":1714158376,"current_range_meters":1600,"station_id":"ce4bgqh2rcd13ifvqc4g","pricing_plan_id":"cebpf4jnsgd1na2vs0mg"},{"bike_id":"ab4a373e-a17a-48b3-9b7a-5f60a43a99fa","system_id":"levelo_inurba_marseille","lat":43.311131,"lon":5.377651,"is_reserved":false,"is_disabled":false,"rental_uris":{"android":"levelo://app?vid=ab4a373e-a17a-48b3-9b7a-5f60a43a99fa","ios":"levelo://app?vid=ab4a373e-a17a-48b3-9b7a-5f60a43a99fa"},"vehicle_type_id":"4","last_reported":1714158376,"current_range_meters":20400,"station_id":"ce4bgt92rcd13ifvqcg0","pricing_plan_id":"cebpf4jnsgd1na2vs0mg"},{"bike_id":"9077568a-e1a0-4f8a-b9d3-c6270bb159fc","system_id":"levelo_inurba_marseille","lat":43.311131,"lon":5.377651,"is_reserved":false,"is_disabled":false,"rental_uris":{"android":"levelo://app?vid=9077568a-e1a0-4f8a-b9d3-c6270bb159fc","ios":"levelo://app?vid=9077568a-e1a0-4f8a-b9d3-c6270bb159fc"},"vehicle_type_id":"4","last_reported":1714158376,"current_range_meters":15200,"station_id":"ce4bgt92rcd13ifvqcg0","pricing_plan_id":"cebpf4jnsgd1na2vs0mg"},{"bike_id":"9c0252fb-9596-492f-8f1b-0d6a595e9229","system_id":"levelo_inurba_marseille","lat":43.311125,"lon":5.377624,"is_reserved":false,"is_disabled":false,"rental_uris":{"android":"levelo://app?vid=9c0252fb-9596-492f-8f1b-0d6a595e9229","ios":"levelo://app?vid=9c0252fb-9596-492f-8f1b-0d6a595e9229"},"vehicle_type_id":"4","last_reported":1714158376,"current_range_meters":26400,"station_id":"ce4bgt92rcd13ifvqcg0","pricing_plan_id":"cebpf4jnsgd1na2vs0mg"},{"bike_id":"9a903441-7239-4e8e-92dd-c70c34f37135","system_id":"levelo_inurba_marseille","lat":43.311131,"lon":5.377651,"is_reserved":false,"is_disabled":false,"rental_uris":{"android":"levelo://app?vid=9a903441-7239-4e8e-92dd-c70c34f37135","ios":"levelo://app?vid=9a903441-7239-4e8e-92dd-c70c34f37135"},"vehicle_type_id":"4","last_reported":1714158376,"current_range_meters":0,"station_id":"ce4bgt92rcd13ifvqcg0","pricing_plan_id":"cebpf4jnsgd1na2vs0mg"},{"bike_id":"83cefa6f-4329-4465-93bc-d5c16459138b","system_id":"levelo_inurba_marseille","lat":43.311125,"lon":5.377624,"is_reserved":false,"is_disabled":false,"rental_uris":{"android":"levelo://app?vid=83cefa6f-4329-4465-93bc-d5c16459138b","ios":"levelo://app?vid=83cefa6f-4329-4465-93bc-d5c16459138b"},"vehicle_type_id":"4","last_reported":1714158376,"current_range_meters":8800,"station_id":"ce4bgt92rcd13ifvqcg0","pricing_plan_id":"cebpf4jnsgd1na2vs0mg"},{"bike_id":"d2da8086-cb8a-4b78-ac50-ac39b8f896cc","system_id":"levelo_inurba_marseille","lat":43.311125,"lon":5.377624,"is_reserved":false,"is_disabled":false,"rental_uris":{"android":"levelo://app?vid=d2da8086-cb8a-4b78-ac50-ac39b8f896cc","ios":"levelo://app?vid=d2da8086-cb8a-4b78-ac50-ac39b8f896cc"},"vehicle_type_id":"4","last_reported":1714158376,"current_range_meters":17200,"station_id":"ce4bgt92rcd13ifvqcg0","pricing_plan_id":"cebpf4jnsgd1na2vs0mg"},{"bike_id":"79cd9360-7acf-4b9c-aa23-250b4ddf552e","system_id":"levelo_inurba_marseille","lat":43.311125,"lon":5.377624,"is_reserved":false,"is_disabled":false,"rental_uris":{"android":"levelo://app?vid=79cd9360-7acf-4b9c-aa23-250b4ddf552e","ios":"levelo://app?vid=79cd9360-7acf-4b9c-aa23-250b4ddf552e"},"vehicle_type_id":"4","last_reported":1714158376,"current_range_meters":14400,"station_id":"ce4bgt92rcd13ifvqcg0","pricing_plan_id":"cebpf4jnsgd1na2vs0mg"},{"bike_id":"ba8f5e9f-f8c9-4d02-b2a9-d0efeedf0dc2","system_id":"levelo_inurba_marseille","lat":43.311125,"lon":5.377624,"is_reserved":false,"is_disabled":false,"rental_uris":{"android":"levelo://app?vid=ba8f5e9f-f8c9-4d02-b2a9-d0efeedf0dc2","ios":"levelo://app?vid=ba8f5e9f-f8c9-4d02-b2a9-d0efeedf0dc2"},"vehicle_type_id":"4","last_reported":1714158376,"current_range_meters":20400,"station_id":"ce4bgt92rcd13ifvqcg0","pricing_plan_id":"cebpf4jnsgd1na2vs0mg"},{"bike_id":"d9ce8edb-3058-479d-8000-ac50689a9488","system_id":"levelo_inurba_marseille","lat":43.31118,"lon":5.37779,"is_reserved":false,"is_disabled":false,"rental_uris":{"android":"levelo://app?vid=d9ce8edb-3058-479d-8000-ac50689a9488","ios":"levelo://app?vid=d9ce8edb-3058-479d-8000-ac50689a9488"},"vehicle_type_id":"4","last_reported":1714158376,"current_range_meters":0,"station_id":"ce4bgt92rcd13ifvqcg0","pricing_plan_id":"cebpf4jnsgd1na2vs0mg"},{"bike_id":"87a7307a-ff17-494b-ab8e-46463f4d5f1a","system_id":"levelo_inurba_marseille","lat":43.31702,"lon":5.37657,"is_reserved":false,"is_disabled":false,"rental_uris":{"android":"levelo://app?vid=87a7307a-ff17-494b-ab8e-46463f4d5f1a","ios":"levelo://app?vid=87a7307a-ff17-494b-ab8e-46463f4d5f1a"},"vehicle_type_id":"4","last_reported":1714158376,"current_range_meters":4800,"station_id":"","pricing_plan_id":"cebpf4jnsgd1na2vs0mg"},{"bike_id":"3fbc2773-31f7-4ea4-b55e-e995e838a45c","system_id":"levelo_inurba_marseille","lat":43.305364,"lon":5.384119,"is_reserved":false,"is_disabled":false,"rental_uris":{"android":"levelo://app?vid=3fbc2773-31f7-4ea4-b55e-e995e838a45c","ios":"levelo://app?vid=3fbc2773-31f7-4ea4-b55e-e995e838a45c"},"vehicle_type_id":"4","last_reported":1714158376,"current_range_meters":5600,"station_id":"ce4bgg92rcd13ifvqb30","pricing_plan_id":"cebpf4jnsgd1na2vs0mg"},{"bike_id":"f96e4165-ad1c-407c-bca8-646b85805e03","system_id":"levelo_inurba_marseille","lat":43.307945,"lon":5.376487,"is_reserved":false,"is_disabled":false,"rental_uris":{"android":"levelo://app?vid=f96e4165-ad1c-407c-bca8-646b85805e03","ios":"levelo://app?vid=f96e4165-ad1c-407c-bca8-646b85805e03"},"vehicle_type_id":"4","last_reported":1714158376,"current_range_meters":22400,"station_id":"ce4bgv92rcd13ifvqcq0","pricing_plan_id":"cebpf4jnsgd1na2vs0mg"},{"bike_id":"c372e7cc-3843-4441-91c0-f382cbe53456","system_id":"levelo_inurba_marseille","lat":43.3052,"lon":5.37229,"is_reserved":false,"is_disabled":false,"rental_uris":{"android":"levelo://app?vid=c372e7cc-3843-4441-91c0-f382cbe53456","ios":"levelo://app?vid=c372e7cc-3843-4441-91c0-f382cbe53456"},"vehicle_type_id":"4","last_reported":1714158376,"current_range_meters":18400,"station_id":"","pricing_plan_id":"cebpf4jnsgd1na2vs0mg"},{"bike_id":"b1a78a4a-77b3-4b14-bdbd-980e5271eb32","system_id":"levelo_inurba_marseille","lat":43.307945,"lon":5.376487,"is_reserved":false,"is_disabled":false,"rental_uris":{"android":"levelo://app?vid=b1a78a4a-77b3-4b14-bdbd-980e5271eb32","ios":"levelo://app?vid=b1a78a4a-77b3-4b14-bdbd-980e5271eb32"},"vehicle_type_id":"4","last_reported":1714158376,"current_range_meters":31200,"station_id":"ce4bgv92rcd13ifvqcq0","pricing_plan_id":"cebpf4jnsgd1na2vs0mg"},{"bike_id":"a65a41dd-e6c4-4a20-95a4-e8474c9c62e6","system_id":"levelo_inurba_marseille","lat":43.307945,"lon":5.376487,"is_reserved":false,"is_disabled":false,"rental_uris":{"android":"levelo://app?vid=a65a41dd-e6c4-4a20-95a4-e8474c9c62e6","ios":"levelo://app?vid=a65a41dd-e6c4-4a20-95a4-e8474c9c62e6"},"vehicle_type_id":"4","last_reported":1714158376,"current_range_meters":27200,"station_id":"ce4bgv92rcd13ifvqcq0","pricing_plan_id":"cebpf4jnsgd1na2vs0mg"},{"bike_id":"a1c2bdde-19d6-44d5-b2aa-ae97465e4101","system_id":"levelo_inurba_marseille","lat":43.317075,"lon":5.377367,"is_reserved":false,"is_disabled":false,"rental_uris":{"android":"levelo://app?vid=a1c2bdde-19d6-44d5-b2aa-ae97465e4101","ios":"levelo://app?vid=a1c2bdde-19d6-44d5-b2aa-ae97465e4101"},"vehicle_type_id":"4","last_reported":1714158376,"current_range_meters":12800,"station_id":"ce4bgth2rcd13ifvqch0","pricing_plan_id":"cebpf4jnsgd1na2vs0mg"},{"bike_id":"f707af59-1891-486f-9517-fd9aaf716c2f","system_id":"levelo_inurba_marseille","lat":43.317075,"lon":5.377367,"is_reserved":false,"is_disabled":false,"rental_uris":{"android":"levelo://app?vid=f707af59-1891-486f-9517-fd9aaf716c2f","ios":"levelo://app?vid=f707af59-1891-486f-9517-fd9aaf716c2f"},"vehicle_type_id":"4","last_reported":1714158376,"current_range_meters":13200,"station_id":"ce4bgth2rcd13ifvqch0","pricing_plan_id":"cebpf4jnsgd1na2vs0mg"},{"bike_id":"1de4a290-620d-4597-8bf3-bd926862f47f","system_id":"levelo_inurba_marseille","lat":43.317075,"lon":5.377367,"is_reserved":false,"is_disabled":false,"rental_uris":{"android":"levelo://app?vid=1de4a290-620d-4597-8bf3-bd926862f47f","ios":"levelo://app?vid=1de4a290-620d-4597-8bf3-bd926862f47f"},"vehicle_type_id":"4","last_reported":1714158376,"current_range_meters":29200,"station_id":"ce4bgth2rcd13ifvqch0","pricing_plan_id":"cebpf4jnsgd1na2vs0mg"},{"bike_id":"47fa3928-a251-4b1e-bead-82909a6a609e","system_id":"levelo_inurba_marseille","lat":43.317075,"lon":5.377367,"is_reserved":false,"is_disabled":false,"rental_uris":{"android":"levelo://app?vid=47fa3928-a251-4b1e-bead-82909a6a609e","ios":"levelo://app?vid=47fa3928-a251-4b1e-bead-82909a6a609e"},"vehicle_type_id":"4","last_reported":1714158376,"current_range_meters":4800,"station_id":"ce4bgth2rcd13ifvqch0","pricing_plan_id":"cebpf4jnsgd1na2vs0mg"},{"bike_id":"c6866851-f4f4-4bb8-9e49-e61762e8badf","system_id":"levelo_inurba_marseille","lat":43.301939,"lon":5.366286,"is_reserved":false,"is_disabled":false,"rental_uris":{"android":"levelo://app?vid=c6866851-f4f4-4bb8-9e49-e61762e8badf","ios":"levelo://app?vid=c6866851-f4f4-4bb8-9e49-e61762e8badf"},"vehicle_type_id":"4","last_reported":1714158376,"current_range_meters":4400,"station_id":"ce4bgrh2rcd13ifvqc8g","pricing_plan_id":"cebpf4jnsgd1na2vs0mg"},{"bike_id":"1146ffe4-489b-497e-a143-0d9a10421213","system_id":"levelo_inurba_marseille","lat":43.317075,"lon":5.377367,"is_reserved":false,"is_disabled":false,"rental_uris":{"android":"levelo://app?vid=1146ffe4-489b-497e-a143-0d9a10421213","ios":"levelo://app?vid=1146ffe4-489b-497e-a143-0d9a10421213"},"vehicle_type_id":"4","last_reported":1714158376,"current_range_meters":19200,"station_id":"ce4bgth2rcd13ifvqch0","pricing_plan_id":"cebpf4jnsgd1na2vs0mg"},{"bike_id":"2de8b090-dd6c-4202-8be4-f37ca83c5542","system_id":"levelo_inurba_marseille","lat":43.317075,"lon":5.377367,"is_reserved":false,"is_disabled":false,"rental_uris":{"android":"levelo://app?vid=2de8b090-dd6c-4202-8be4-f37ca83c5542","ios":"levelo://app?vid=2de8b090-dd6c-4202-8be4-f37ca83c5542"},"vehicle_type_id":"4","last_reported":1714158376,"current_range_meters":22000,"station_id":"ce4bgth2rcd13ifvqch0","pricing_plan_id":"cebpf4jnsgd1na2vs0mg"},{"bike_id":"3b99dbaf-add7-4205-bc67-4b771753c8b0","system_id":"levelo_inurba_marseille","lat":43.309039,"lon":5.371797,"is_reserved":false,"is_disabled":false,"rental_uris":{"android":"levelo://app?vid=3b99dbaf-add7-4205-bc67-4b771753c8b0","ios":"levelo://app?vid=3b99dbaf-add7-4205-bc67-4b771753c8b0"},"vehicle_type_id":"4","last_reported":1714158376,"current_range_meters":20400,"station_id":"ce4bguh2rcd13ifvqckg","pricing_plan_id":"cebpf4jnsgd1na2vs0mg"},{"bike_id":"ca5a686f-4791-47cb-9b40-46afb9c4885f","system_id":"levelo_inurba_marseille","lat":43.30312,"lon":5.36904,"is_reserved":false,"is_disabled":false,"rental_uris":{"android":"levelo://app?vid=ca5a686f-4791-47cb-9b40-46afb9c4885f","ios":"levelo://app?vid=ca5a686f-4791-47cb-9b40-46afb9c4885f"},"vehicle_type_id":"4","last_reported":1714158376,"current_range_meters":1200,"station_id":"ce4bgqh2rcd13ifvqc5g","pricing_plan_id":"cebpf4jnsgd1na2vs0mg"},{"bike_id":"470f2cb8-f17d-42eb-b283-6d130cdd57e8","system_id":"levelo_inurba_marseille","lat":43.30311,"lon":5.36907,"is_reserved":false,"is_disabled":false,"rental_uris":{"android":"levelo://app?vid=470f2cb8-f17d-42eb-b283-6d130cdd57e8","ios":"levelo://app?vid=470f2cb8-f17d-42eb-b283-6d130cdd57e8"},"vehicle_type_id":"4","last_reported":1714158376,"current_range_meters":800,"station_id":"ce4bgqh2rcd13ifvqc5g","pricing_plan_id":"cebpf4jnsgd1na2vs0mg"},{"bike_id":"4992b8be-dcc5-4540-b0fe-22df7205b041","system_id":"levelo_inurba_marseille","lat":43.315289,"lon":5.380349,"is_reserved":false,"is_disabled":false,"rental_uris":{"android":"levelo://app?vid=4992b8be-dcc5-4540-b0fe-22df7205b041","ios":"levelo://app?vid=4992b8be-dcc5-4540-b0fe-22df7205b041"},"vehicle_type_id":"4","last_reported":1714158376,"current_range_meters":19200,"station_id":"ce4bhsp2rcd13ifvqi50","pricing_plan_id":"cebpf4jnsgd1na2vs0mg"},{"bike_id":"e785f7ce-8d52-4abc-a303-1ad087336a1b","system_id":"levelo_inurba_marseille","lat":43.315293,"lon":5.380349,"is_reserved":false,"is_disabled":false,"rental_uris":{"android":"levelo://app?vid=e785f7ce-8d52-4abc-a303-1ad087336a1b","ios":"levelo://app?vid=e785f7ce-8d52-4abc-a303-1ad087336a1b"},"vehicle_type_id":"4","last_reported":1714158376,"current_range_meters":20000,"station_id":"ce4bhsp2rcd13ifvqi50","pricing_plan_id":"cebpf4jnsgd1na2vs0mg"},{"bike_id":"ef5bb72c-e26a-432a-b149-b639cc879182","system_id":"levelo_inurba_marseille","lat":43.301939,"lon":5.366286,"is_reserved":false,"is_disabled":false,"rental_uris":{"android":"levelo://app?vid=ef5bb72c-e26a-432a-b149-b639cc879182","ios":"levelo://app?vid=ef5bb72c-e26a-432a-b149-b639cc879182"},"vehicle_type_id":"4","last_reported":1714158376,"current_range_meters":400,"station_id":"ce4bgrh2rcd13ifvqc8g","pricing_plan_id":"cebpf4jnsgd1na2vs0mg"},{"bike_id":"ad3f7fe5-d8a1-4978-b3f3-e89a4cb34827","system_id":"levelo_inurba_marseille","lat":43.301939,"lon":5.366286,"is_reserved":false,"is_disabled":false,"rental_uris":{"android":"levelo://app?vid=ad3f7fe5-d8a1-4978-b3f3-e89a4cb34827","ios":"levelo://app?vid=ad3f7fe5-d8a1-4978-b3f3-e89a4cb34827"},"vehicle_type_id":"4","last_reported":1714158376,"current_range_meters":2400,"station_id":"ce4bgrh2rcd13ifvqc8g","pricing_plan_id":"cebpf4jnsgd1na2vs0mg"},{"bike_id":"0c14fcd7-0004-4387-89a2-fd58b7b98369","system_id":"levelo_inurba_marseille","lat":43.301939,"lon":5.366286,"is_reserved":false,"is_disabled":false,"rental_uris":{"android":"levelo://app?vid=0c14fcd7-0004-4387-89a2-fd58b7b98369","ios":"levelo://app?vid=0c14fcd7-0004-4387-89a2-fd58b7b98369"},"vehicle_type_id":"4","last_reported":1714158376,"current_range_meters":16800,"station_id":"ce4bgrh2rcd13ifvqc8g","pricing_plan_id":"cebpf4jnsgd1na2vs0mg"},{"bike_id":"07598f0a-58d4-4990-a510-099d36710c93","system_id":"levelo_inurba_marseille","lat":43.301939,"lon":5.366286,"is_reserved":false,"is_disabled":false,"rental_uris":{"android":"levelo://app?vid=07598f0a-58d4-4990-a510-099d36710c93","ios":"levelo://app?vid=07598f0a-58d4-4990-a510-099d36710c93"},"vehicle_type_id":"4","last_reported":1714158376,"current_range_meters":6400,"station_id":"ce4bgrh2rcd13ifvqc8g","pricing_plan_id":"cebpf4jnsgd1na2vs0mg"},{"bike_id":"5101ec62-40a7-4de8-9ea7-acb1a0fabf45","system_id":"levelo_inurba_marseille","lat":43.301939,"lon":5.366286,"is_reserved":false,"is_disabled":false,"rental_uris":{"android":"levelo://app?vid=5101ec62-40a7-4de8-9ea7-acb1a0fabf45","ios":"levelo://app?vid=5101ec62-40a7-4de8-9ea7-acb1a0fabf45"},"vehicle_type_id":"4","last_reported":1714158376,"current_range_meters":16400,"station_id":"ce4bgrh2rcd13ifvqc8g","pricing_plan_id":"cebpf4jnsgd1na2vs0mg"},{"bike_id":"f2138995-02a5-4413-b5ed-f3281f2799a3","system_id":"levelo_inurba_marseille","lat":43.30194,"lon":5.366201,"is_reserved":false,"is_disabled":false,"rental_uris":{"android":"levelo://app?vid=f2138995-02a5-4413-b5ed-f3281f2799a3","ios":"levelo://app?vid=f2138995-02a5-4413-b5ed-f3281f2799a3"},"vehicle_type_id":"4","last_reported":1714158376,"current_range_meters":0,"station_id":"ce4bgrh2rcd13ifvqc8g","pricing_plan_id":"cebpf4jnsgd1na2vs0mg"},{"bike_id":"f55702da-e239-4d6f-828d-e454f7a7bbc2","system_id":"levelo_inurba_marseille","lat":43.301939,"lon":5.366286,"is_reserved":false,"is_disabled":false,"rental_uris":{"android":"levelo://app?vid=f55702da-e239-4d6f-828d-e454f7a7bbc2","ios":"levelo://app?vid=f55702da-e239-4d6f-828d-e454f7a7bbc2"},"vehicle_type_id":"4","last_reported":1714158376,"current_range_meters":17600,"station_id":"ce4bgrh2rcd13ifvqc8g","pricing_plan_id":"cebpf4jnsgd1na2vs0mg"},{"bike_id":"b9b9d682-76f4-47f7-8c0a-15d0533c8192","system_id":"levelo_inurba_marseille","lat":43.299222,"lon":5.365554,"is_reserved":false,"is_disabled":false,"rental_uris":{"android":"levelo://app?vid=b9b9d682-76f4-47f7-8c0a-15d0533c8192","ios":"levelo://app?vid=b9b9d682-76f4-47f7-8c0a-15d0533c8192"},"vehicle_type_id":"4","last_reported":1714158376,"current_range_meters":5600,"station_id":"ce4bgm92rcd13ifvqbr0","pricing_plan_id":"cebpf4jnsgd1na2vs0mg"},{"bike_id":"f07b20af-37b5-4a18-9b95-619bd0e2dbc4","system_id":"levelo_inurba_marseille","lat":43.301939,"lon":5.366286,"is_reserved":false,"is_disabled":false,"rental_uris":{"android":"levelo://app?vid=f07b20af-37b5-4a18-9b95-619bd0e2dbc4","ios":"levelo://app?vid=f07b20af-37b5-4a18-9b95-619bd0e2dbc4"},"vehicle_type_id":"4","last_reported":1714158376,"current_range_meters":25600,"station_id":"ce4bgrh2rcd13ifvqc8g","pricing_plan_id":"cebpf4jnsgd1na2vs0mg"},{"bike_id":"c2b731f9-780f-4a64-a065-982262ff75ca","system_id":"levelo_inurba_marseille","lat":43.301939,"lon":5.366286,"is_reserved":false,"is_disabled":false,"rental_uris":{"android":"levelo://app?vid=c2b731f9-780f-4a64-a065-982262ff75ca","ios":"levelo://app?vid=c2b731f9-780f-4a64-a065-982262ff75ca"},"vehicle_type_id":"4","last_reported":1714158376,"current_range_meters":16400,"station_id":"ce4bgrh2rcd13ifvqc8g","pricing_plan_id":"cebpf4jnsgd1na2vs0mg"},{"bike_id":"74ad807f-9eb7-43e2-afad-785e63a0b935","system_id":"levelo_inurba_marseille","lat":43.301939,"lon":5.366286,"is_reserved":false,"is_disabled":false,"rental_uris":{"android":"levelo://app?vid=74ad807f-9eb7-43e2-afad-785e63a0b935","ios":"levelo://app?vid=74ad807f-9eb7-43e2-afad-785e63a0b935"},"vehicle_type_id":"4","last_reported":1714158376,"current_range_meters":13200,"station_id":"ce4bgrh2rcd13ifvqc8g","pricing_plan_id":"cebpf4jnsgd1na2vs0mg"},{"bike_id":"ffcd4c96-b199-462e-ac3b-c5d0cd94b80e","system_id":"levelo_inurba_marseille","lat":43.301939,"lon":5.366286,"is_reserved":false,"is_disabled":false,"rental_uris":{"android":"levelo://app?vid=ffcd4c96-b199-462e-ac3b-c5d0cd94b80e","ios":"levelo://app?vid=ffcd4c96-b199-462e-ac3b-c5d0cd94b80e"},"vehicle_type_id":"4","last_reported":1714158376,"current_range_meters":5600,"station_id":"ce4bgrh2rcd13ifvqc8g","pricing_plan_id":"cebpf4jnsgd1na2vs0mg"},{"bike_id":"bf06bd54-fb77-455a-8dd5-3dfdc022b536","system_id":"levelo_inurba_marseille","lat":43.301939,"lon":5.366286,"is_reserved":false,"is_disabled":false,"rental_uris":{"android":"levelo://app?vid=bf06bd54-fb77-455a-8dd5-3dfdc022b536","ios":"levelo://app?vid=bf06bd54-fb77-455a-8dd5-3dfdc022b536"},"vehicle_type_id":"4","last_reported":1714158376,"current_range_meters":19600,"station_id":"ce4bgrh2rcd13ifvqc8g","pricing_plan_id":"cebpf4jnsgd1na2vs0mg"},{"bike_id":"9113caeb-d66a-4245-ae39-270f2268bfb0","system_id":"levelo_inurba_marseille","lat":43.301939,"lon":5.366286,"is_reserved":false,"is_disabled":false,"rental_uris":{"android":"levelo://app?vid=9113caeb-d66a-4245-ae39-270f2268bfb0","ios":"levelo://app?vid=9113caeb-d66a-4245-ae39-270f2268bfb0"},"vehicle_type_id":"4","last_reported":1714158376,"current_range_meters":1600,"station_id":"ce4bgrh2rcd13ifvqc8g","pricing_plan_id":"cebpf4jnsgd1na2vs0mg"},{"bike_id":"2d053ebe-9518-4c54-b239-d3f84cbd0f24","system_id":"levelo_inurba_marseille","lat":43.308012,"lon":5.381511,"is_reserved":false,"is_disabled":false,"rental_uris":{"android":"levelo://app?vid=2d053ebe-9518-4c54-b239-d3f84cbd0f24","ios":"levelo://app?vid=2d053ebe-9518-4c54-b239-d3f84cbd0f24"},"vehicle_type_id":"4","last_reported":1714158376,"current_range_meters":24800,"station_id":"ce4bgt12rcd13ifvqce0","pricing_plan_id":"cebpf4jnsgd1na2vs0mg"},{"bike_id":"a5463f20-3575-4278-adc2-23df197da664","system_id":"levelo_inurba_marseille","lat":43.308012,"lon":5.381511,"is_reserved":false,"is_disabled":false,"rental_uris":{"android":"levelo://app?vid=a5463f20-3575-4278-adc2-23df197da664","ios":"levelo://app?vid=a5463f20-3575-4278-adc2-23df197da664"},"vehicle_type_id":"4","last_reported":1714158376,"current_range_meters":21600,"station_id":"ce4bgt12rcd13ifvqce0","pricing_plan_id":"cebpf4jnsgd1na2vs0mg"},{"bike_id":"24990a43-14d5-4ec2-9a07-687d7c29f2b5","system_id":"levelo_inurba_marseille","lat":43.299028,"lon":5.381509,"is_reserved":false,"is_disabled":false,"rental_uris":{"android":"levelo://app?vid=24990a43-14d5-4ec2-9a07-687d7c29f2b5","ios":"levelo://app?vid=24990a43-14d5-4ec2-9a07-687d7c29f2b5"},"vehicle_type_id":"4","last_reported":1714158376,"current_range_meters":23200,"station_id":"ce4bgj12rcd13ifvqbc0","pricing_plan_id":"cebpf4jnsgd1na2vs0mg"},{"bike_id":"353a4ff0-bb49-4d92-99f2-ca127160d862","system_id":"levelo_inurba_marseille","lat":43.308012,"lon":5.381511,"is_reserved":false,"is_disabled":false,"rental_uris":{"android":"levelo://app?vid=353a4ff0-bb49-4d92-99f2-ca127160d862","ios":"levelo://app?vid=353a4ff0-bb49-4d92-99f2-ca127160d862"},"vehicle_type_id":"4","last_reported":1714158376,"current_range_meters":10400,"station_id":"ce4bgt12rcd13ifvqce0","pricing_plan_id":"cebpf4jnsgd1na2vs0mg"},{"bike_id":"f8ae46a7-9d8e-4df6-8193-d33b84004b56","system_id":"levelo_inurba_marseille","lat":43.297163,"lon":5.365866,"is_reserved":false,"is_disabled":false,"rental_uris":{"android":"levelo://app?vid=f8ae46a7-9d8e-4df6-8193-d33b84004b56","ios":"levelo://app?vid=f8ae46a7-9d8e-4df6-8193-d33b84004b56"},"vehicle_type_id":"4","last_reported":1714158376,"current_range_meters":16800,"station_id":"ce4bgn12rcd13ifvqbt0","pricing_plan_id":"cebpf4jnsgd1na2vs0mg"},{"bike_id":"53c408b5-635f-4f6a-b5a0-d2efdd8ddba1","system_id":"levelo_inurba_marseille","lat":43.30483,"lon":5.37909,"is_reserved":false,"is_disabled":false,"rental_uris":{"android":"levelo://app?vid=53c408b5-635f-4f6a-b5a0-d2efdd8ddba1","ios":"levelo://app?vid=53c408b5-635f-4f6a-b5a0-d2efdd8ddba1"},"vehicle_type_id":"4","last_reported":1714158376,"current_range_meters":6800,"station_id":"ce4bgup2rcd13ifvqcn0","pricing_plan_id":"cebpf4jnsgd1na2vs0mg"},{"bike_id":"8f3c8e33-7fc8-4a11-9ecb-76e4f84fd042","system_id":"levelo_inurba_marseille","lat":43.304606,"lon":5.379026,"is_reserved":false,"is_disabled":false,"rental_uris":{"android":"levelo://app?vid=8f3c8e33-7fc8-4a11-9ecb-76e4f84fd042","ios":"levelo://app?vid=8f3c8e33-7fc8-4a11-9ecb-76e4f84fd042"},"vehicle_type_id":"4","last_reported":1714158376,"current_range_meters":12800,"station_id":"ce4bgup2rcd13ifvqcn0","pricing_plan_id":"cebpf4jnsgd1na2vs0mg"},{"bike_id":"828b32dc-18a8-457a-8617-5743e3ed1455","system_id":"levelo_inurba_marseille","lat":43.304606,"lon":5.379026,"is_reserved":false,"is_disabled":false,"rental_uris":{"android":"levelo://app?vid=828b32dc-18a8-457a-8617-5743e3ed1455","ios":"levelo://app?vid=828b32dc-18a8-457a-8617-5743e3ed1455"},"vehicle_type_id":"4","last_reported":1714158376,"current_range_meters":18400,"station_id":"ce4bgup2rcd13ifvqcn0","pricing_plan_id":"cebpf4jnsgd1na2vs0mg"},{"bike_id":"f178e27f-7785-4bf2-a7af-ecd57ea169c1","system_id":"levelo_inurba_marseille","lat":43.304606,"lon":5.379026,"is_reserved":false,"is_disabled":false,"rental_uris":{"android":"levelo://app?vid=f178e27f-7785-4bf2-a7af-ecd57ea169c1","ios":"levelo://app?vid=f178e27f-7785-4bf2-a7af-ecd57ea169c1"},"vehicle_type_id":"4","last_reported":1714158376,"current_range_meters":30000,"station_id":"ce4bgup2rcd13ifvqcn0","pricing_plan_id":"cebpf4jnsgd1na2vs0mg"},{"bike_id":"0bc53f06-1fac-4dea-8998-c2943d268dcf","system_id":"levelo_inurba_marseille","lat":43.304606,"lon":5.379026,"is_reserved":false,"is_disabled":false,"rental_uris":{"android":"levelo://app?vid=0bc53f06-1fac-4dea-8998-c2943d268dcf","ios":"levelo://app?vid=0bc53f06-1fac-4dea-8998-c2943d268dcf"},"vehicle_type_id":"4","last_reported":1714158376,"current_range_meters":13600,"station_id":"ce4bgup2rcd13ifvqcn0","pricing_plan_id":"cebpf4jnsgd1na2vs0mg"},{"bike_id":"6442059a-aac9-4da7-8398-edb5a80f3ccf","system_id":"levelo_inurba_marseille","lat":43.304683,"lon":5.378989,"is_reserved":false,"is_disabled":false,"rental_uris":{"android":"levelo://app?vid=6442059a-aac9-4da7-8398-edb5a80f3ccf","ios":"levelo://app?vid=6442059a-aac9-4da7-8398-edb5a80f3ccf"},"vehicle_type_id":"4","last_reported":1714158376,"current_range_meters":10000,"station_id":"ce4bgup2rcd13ifvqcn0","pricing_plan_id":"cebpf4jnsgd1na2vs0mg"},{"bike_id":"74ba43a2-5c25-49c7-803a-fd3bd5498554","system_id":"levelo_inurba_marseille","lat":43.304646,"lon":5.37895,"is_reserved":false,"is_disabled":false,"rental_uris":{"android":"levelo://app?vid=74ba43a2-5c25-49c7-803a-fd3bd5498554","ios":"levelo://app?vid=74ba43a2-5c25-49c7-803a-fd3bd5498554"},"vehicle_type_id":"4","last_reported":1714158376,"current_range_meters":30400,"station_id":"ce4bgup2rcd13ifvqcn0","pricing_plan_id":"cebpf4jnsgd1na2vs0mg"},{"bike_id":"1a2e769b-99d8-4e01-9f67-785ab93bd67f","system_id":"levelo_inurba_marseille","lat":43.304606,"lon":5.379026,"is_reserved":false,"is_disabled":false,"rental_uris":{"android":"levelo://app?vid=1a2e769b-99d8-4e01-9f67-785ab93bd67f","ios":"levelo://app?vid=1a2e769b-99d8-4e01-9f67-785ab93bd67f"},"vehicle_type_id":"4","last_reported":1714158376,"current_range_meters":31200,"station_id":"ce4bgup2rcd13ifvqcn0","pricing_plan_id":"cebpf4jnsgd1na2vs0mg"},{"bike_id":"4631360f-62ce-4950-9525-2f035ed8d647","system_id":"levelo_inurba_marseille","lat":43.304606,"lon":5.379026,"is_reserved":false,"is_disabled":false,"rental_uris":{"android":"levelo://app?vid=4631360f-62ce-4950-9525-2f035ed8d647","ios":"levelo://app?vid=4631360f-62ce-4950-9525-2f035ed8d647"},"vehicle_type_id":"4","last_reported":1714158376,"current_range_meters":16800,"station_id":"ce4bgup2rcd13ifvqcn0","pricing_plan_id":"cebpf4jnsgd1na2vs0mg"},{"bike_id":"d130d2dd-0cd2-4416-b247-e4fb71b7d73b","system_id":"levelo_inurba_marseille","lat":43.304606,"lon":5.379026,"is_reserved":false,"is_disabled":false,"rental_uris":{"android":"levelo://app?vid=d130d2dd-0cd2-4416-b247-e4fb71b7d73b","ios":"levelo://app?vid=d130d2dd-0cd2-4416-b247-e4fb71b7d73b"},"vehicle_type_id":"4","last_reported":1714158376,"current_range_meters":24000,"station_id":"ce4bgup2rcd13ifvqcn0","pricing_plan_id":"cebpf4jnsgd1na2vs0mg"},{"bike_id":"cfe9598e-7e8c-4aa6-baa4-6b554833cb3a","system_id":"levelo_inurba_marseille","lat":43.304606,"lon":5.379026,"is_reserved":false,"is_disabled":false,"rental_uris":{"android":"levelo://app?vid=cfe9598e-7e8c-4aa6-baa4-6b554833cb3a","ios":"levelo://app?vid=cfe9598e-7e8c-4aa6-baa4-6b554833cb3a"},"vehicle_type_id":"4","last_reported":1714158376,"current_range_meters":14800,"station_id":"ce4bgup2rcd13ifvqcn0","pricing_plan_id":"cebpf4jnsgd1na2vs0mg"},{"bike_id":"26116d1d-b4c8-4bb9-a8db-91f234f6e34b","system_id":"levelo_inurba_marseille","lat":43.304606,"lon":5.379026,"is_reserved":false,"is_disabled":false,"rental_uris":{"android":"levelo://app?vid=26116d1d-b4c8-4bb9-a8db-91f234f6e34b","ios":"levelo://app?vid=26116d1d-b4c8-4bb9-a8db-91f234f6e34b"},"vehicle_type_id":"4","last_reported":1714158376,"current_range_meters":31600,"station_id":"ce4bgup2rcd13ifvqcn0","pricing_plan_id":"cebpf4jnsgd1na2vs0mg"},{"bike_id":"20b15e7d-266a-465f-8cd7-6c9afae4f161","system_id":"levelo_inurba_marseille","lat":43.304606,"lon":5.379026,"is_reserved":false,"is_disabled":false,"rental_uris":{"android":"levelo://app?vid=20b15e7d-266a-465f-8cd7-6c9afae4f161","ios":"levelo://app?vid=20b15e7d-266a-465f-8cd7-6c9afae4f161"},"vehicle_type_id":"4","last_reported":1714158376,"current_range_meters":27600,"station_id":"ce4bgup2rcd13ifvqcn0","pricing_plan_id":"cebpf4jnsgd1na2vs0mg"},{"bike_id":"3c534197-e7ef-4165-b400-c3de1f5b5603","system_id":"levelo_inurba_marseille","lat":43.304631,"lon":5.379044,"is_reserved":false,"is_disabled":false,"rental_uris":{"android":"levelo://app?vid=3c534197-e7ef-4165-b400-c3de1f5b5603","ios":"levelo://app?vid=3c534197-e7ef-4165-b400-c3de1f5b5603"},"vehicle_type_id":"4","last_reported":1714158376,"current_range_meters":22000,"station_id":"ce4bgup2rcd13ifvqcn0","pricing_plan_id":"cebpf4jnsgd1na2vs0mg"},{"bike_id":"2bd54964-39ec-4baf-8d62-ee67fc4efecf","system_id":"levelo_inurba_marseille","lat":43.324771,"lon":5.36557,"is_reserved":false,"is_disabled":false,"rental_uris":{"android":"levelo://app?vid=2bd54964-39ec-4baf-8d62-ee67fc4efecf","ios":"levelo://app?vid=2bd54964-39ec-4baf-8d62-ee67fc4efecf"},"vehicle_type_id":"4","last_reported":1714158376,"current_range_meters":15200,"station_id":"ce4bhs12rcd13ifvqhvg","pricing_plan_id":"cebpf4jnsgd1na2vs0mg"},{"bike_id":"1a9552a3-b3f4-4bad-841f-e59976da677c","system_id":"levelo_inurba_marseille","lat":43.324771,"lon":5.36557,"is_reserved":false,"is_disabled":false,"rental_uris":{"android":"levelo://app?vid=1a9552a3-b3f4-4bad-841f-e59976da677c","ios":"levelo://app?vid=1a9552a3-b3f4-4bad-841f-e59976da677c"},"vehicle_type_id":"4","last_reported":1714158376,"current_range_meters":8000,"station_id":"ce4bhs12rcd13ifvqhvg","pricing_plan_id":"cebpf4jnsgd1na2vs0mg"},{"bike_id":"f81cc073-b64f-458e-b8f8-f4f4c0ea8705","system_id":"levelo_inurba_marseille","lat":43.324771,"lon":5.36557,"is_reserved":false,"is_disabled":false,"rental_uris":{"android":"levelo://app?vid=f81cc073-b64f-458e-b8f8-f4f4c0ea8705","ios":"levelo://app?vid=f81cc073-b64f-458e-b8f8-f4f4c0ea8705"},"vehicle_type_id":"4","last_reported":1714158376,"current_range_meters":9200,"station_id":"ce4bhs12rcd13ifvqhvg","pricing_plan_id":"cebpf4jnsgd1na2vs0mg"},{"bike_id":"4aff5319-d61a-431a-9f41-bfd14a7d6479","system_id":"levelo_inurba_marseille","lat":43.324771,"lon":5.36557,"is_reserved":false,"is_disabled":false,"rental_uris":{"android":"levelo://app?vid=4aff5319-d61a-431a-9f41-bfd14a7d6479","ios":"levelo://app?vid=4aff5319-d61a-431a-9f41-bfd14a7d6479"},"vehicle_type_id":"4","last_reported":1714158376,"current_range_meters":16800,"station_id":"ce4bhs12rcd13ifvqhvg","pricing_plan_id":"cebpf4jnsgd1na2vs0mg"},{"bike_id":"7b5fd1d0-9329-4a1a-8935-0d4b04189ca5","system_id":"levelo_inurba_marseille","lat":43.324771,"lon":5.36557,"is_reserved":false,"is_disabled":false,"rental_uris":{"android":"levelo://app?vid=7b5fd1d0-9329-4a1a-8935-0d4b04189ca5","ios":"levelo://app?vid=7b5fd1d0-9329-4a1a-8935-0d4b04189ca5"},"vehicle_type_id":"4","last_reported":1714158376,"current_range_meters":16000,"station_id":"ce4bhs12rcd13ifvqhvg","pricing_plan_id":"cebpf4jnsgd1na2vs0mg"},{"bike_id":"7d2182b4-dbc2-4a24-a45c-47ca0cb96df7","system_id":"levelo_inurba_marseille","lat":43.324771,"lon":5.36557,"is_reserved":false,"is_disabled":false,"rental_uris":{"android":"levelo://app?vid=7d2182b4-dbc2-4a24-a45c-47ca0cb96df7","ios":"levelo://app?vid=7d2182b4-dbc2-4a24-a45c-47ca0cb96df7"},"vehicle_type_id":"4","last_reported":1714158376,"current_range_meters":22400,"station_id":"ce4bhs12rcd13ifvqhvg","pricing_plan_id":"cebpf4jnsgd1na2vs0mg"},{"bike_id":"375b50fc-ac68-40dd-ad99-add96c82b6e9","system_id":"levelo_inurba_marseille","lat":43.32485,"lon":5.365575,"is_reserved":false,"is_disabled":false,"rental_uris":{"android":"levelo://app?vid=375b50fc-ac68-40dd-ad99-add96c82b6e9","ios":"levelo://app?vid=375b50fc-ac68-40dd-ad99-add96c82b6e9"},"vehicle_type_id":"4","last_reported":1714158376,"current_range_meters":1600,"station_id":"ce4bhs12rcd13ifvqhvg","pricing_plan_id":"cebpf4jnsgd1na2vs0mg"},{"bike_id":"f6e1cf9a-fe84-4123-83bf-2cf20e567210","system_id":"levelo_inurba_marseille","lat":43.324883,"lon":5.365687,"is_reserved":false,"is_disabled":false,"rental_uris":{"android":"levelo://app?vid=f6e1cf9a-fe84-4123-83bf-2cf20e567210","ios":"levelo://app?vid=f6e1cf9a-fe84-4123-83bf-2cf20e567210"},"vehicle_type_id":"4","last_reported":1714158376,"current_range_meters":21200,"station_id":"ce4bhs12rcd13ifvqhvg","pricing_plan_id":"cebpf4jnsgd1na2vs0mg"},{"bike_id":"9a9ded84-a7c2-42de-87ff-5efa3598b87a","system_id":"levelo_inurba_marseille","lat":43.31067,"lon":5.38348,"is_reserved":false,"is_disabled":false,"rental_uris":{"android":"levelo://app?vid=9a9ded84-a7c2-42de-87ff-5efa3598b87a","ios":"levelo://app?vid=9a9ded84-a7c2-42de-87ff-5efa3598b87a"},"vehicle_type_id":"4","last_reported":1714158376,"current_range_meters":28400,"station_id":"ce4bgv92rcd13ifvqcr0","pricing_plan_id":"cebpf4jnsgd1na2vs0mg"},{"bike_id":"ce4d155b-d270-43d9-869b-df44d7f291c1","system_id":"levelo_inurba_marseille","lat":43.302784,"lon":5.377158,"is_reserved":false,"is_disabled":false,"rental_uris":{"android":"levelo://app?vid=ce4d155b-d270-43d9-869b-df44d7f291c1","ios":"levelo://app?vid=ce4d155b-d270-43d9-869b-df44d7f291c1"},"vehicle_type_id":"4","last_reported":1714158376,"current_range_meters":17200,"station_id":"ce4bguh2rcd13ifvqcj0","pricing_plan_id":"cebpf4jnsgd1na2vs0mg"},{"bike_id":"863b824b-7e24-4f9f-9bcf-d5bd59707d68","system_id":"levelo_inurba_marseille","lat":43.31082,"lon":5.383571,"is_reserved":false,"is_disabled":false,"rental_uris":{"android":"levelo://app?vid=863b824b-7e24-4f9f-9bcf-d5bd59707d68","ios":"levelo://app?vid=863b824b-7e24-4f9f-9bcf-d5bd59707d68"},"vehicle_type_id":"4","last_reported":1714158376,"current_range_meters":23600,"station_id":"ce4bgv92rcd13ifvqcr0","pricing_plan_id":"cebpf4jnsgd1na2vs0mg"},{"bike_id":"1ff67bac-cd4e-4690-ae01-5a59d413f940","system_id":"levelo_inurba_marseille","lat":43.302784,"lon":5.377158,"is_reserved":false,"is_disabled":false,"rental_uris":{"android":"levelo://app?vid=1ff67bac-cd4e-4690-ae01-5a59d413f940","ios":"levelo://app?vid=1ff67bac-cd4e-4690-ae01-5a59d413f940"},"vehicle_type_id":"4","last_reported":1714158376,"current_range_meters":20800,"station_id":"ce4bguh2rcd13ifvqcj0","pricing_plan_id":"cebpf4jnsgd1na2vs0mg"},{"bike_id":"1bd4dc45-c337-4b95-b62b-502113973fcf","system_id":"levelo_inurba_marseille","lat":43.310804,"lon":5.38359,"is_reserved":false,"is_disabled":false,"rental_uris":{"android":"levelo://app?vid=1bd4dc45-c337-4b95-b62b-502113973fcf","ios":"levelo://app?vid=1bd4dc45-c337-4b95-b62b-502113973fcf"},"vehicle_type_id":"4","last_reported":1714158376,"current_range_meters":6800,"station_id":"ce4bgv92rcd13ifvqcr0","pricing_plan_id":"cebpf4jnsgd1na2vs0mg"},{"bike_id":"b4557c27-7c95-4ed5-a454-82de788edfa3","system_id":"levelo_inurba_marseille","lat":43.310804,"lon":5.38359,"is_reserved":false,"is_disabled":false,"rental_uris":{"android":"levelo://app?vid=b4557c27-7c95-4ed5-a454-82de788edfa3","ios":"levelo://app?vid=b4557c27-7c95-4ed5-a454-82de788edfa3"},"vehicle_type_id":"4","last_reported":1714158376,"current_range_meters":14800,"station_id":"ce4bgv92rcd13ifvqcr0","pricing_plan_id":"cebpf4jnsgd1na2vs0mg"},{"bike_id":"c526f357-25ec-4b7d-9e33-619a8a786e39","system_id":"levelo_inurba_marseille","lat":43.30153,"lon":5.37418,"is_reserved":false,"is_disabled":false,"rental_uris":{"android":"levelo://app?vid=c526f357-25ec-4b7d-9e33-619a8a786e39","ios":"levelo://app?vid=c526f357-25ec-4b7d-9e33-619a8a786e39"},"vehicle_type_id":"4","last_reported":1714158376,"current_range_meters":0,"station_id":"ce4bgs92rcd13ifvqcc0","pricing_plan_id":"cebpf4jnsgd1na2vs0mg"},{"bike_id":"f29c0812-099e-4ada-9859-278487a6d62f","system_id":"levelo_inurba_marseille","lat":43.30143,"lon":5.37413,"is_reserved":false,"is_disabled":false,"rental_uris":{"android":"levelo://app?vid=f29c0812-099e-4ada-9859-278487a6d62f","ios":"levelo://app?vid=f29c0812-099e-4ada-9859-278487a6d62f"},"vehicle_type_id":"4","last_reported":1714158376,"current_range_meters":15200,"station_id":"ce4bgs92rcd13ifvqcc0","pricing_plan_id":"cebpf4jnsgd1na2vs0mg"},{"bike_id":"b7450664-b59a-4e4e-80df-e875f37be13c","system_id":"levelo_inurba_marseille","lat":43.301429,"lon":5.37413,"is_reserved":false,"is_disabled":false,"rental_uris":{"android":"levelo://app?vid=b7450664-b59a-4e4e-80df-e875f37be13c","ios":"levelo://app?vid=b7450664-b59a-4e4e-80df-e875f37be13c"},"vehicle_type_id":"4","last_reported":1714158376,"current_range_meters":24800,"station_id":"ce4bgs92rcd13ifvqcc0","pricing_plan_id":"cebpf4jnsgd1na2vs0mg"},{"bike_id":"f052b32c-cf73-4ae8-8c5e-67c8817313ef","system_id":"levelo_inurba_marseille","lat":43.319935,"lon":5.381699,"is_reserved":false,"is_disabled":false,"rental_uris":{"android":"levelo://app?vid=f052b32c-cf73-4ae8-8c5e-67c8817313ef","ios":"levelo://app?vid=f052b32c-cf73-4ae8-8c5e-67c8817313ef"},"vehicle_type_id":"4","last_reported":1714158376,"current_range_meters":29200,"station_id":"ce4bhr12rcd13ifvqhpg","pricing_plan_id":"cebpf4jnsgd1na2vs0mg"},{"bike_id":"2f3d3a30-8570-4ba5-8a2c-3b3fc34fee88","system_id":"levelo_inurba_marseille","lat":43.319935,"lon":5.381699,"is_reserved":false,"is_disabled":false,"rental_uris":{"android":"levelo://app?vid=2f3d3a30-8570-4ba5-8a2c-3b3fc34fee88","ios":"levelo://app?vid=2f3d3a30-8570-4ba5-8a2c-3b3fc34fee88"},"vehicle_type_id":"4","last_reported":1714158376,"current_range_meters":1200,"station_id":"ce4bhr12rcd13ifvqhpg","pricing_plan_id":"cebpf4jnsgd1na2vs0mg"},{"bike_id":"8dfbf217-2ded-4cf7-8532-43c75685f62f","system_id":"levelo_inurba_marseille","lat":43.319935,"lon":5.381699,"is_reserved":false,"is_disabled":false,"rental_uris":{"android":"levelo://app?vid=8dfbf217-2ded-4cf7-8532-43c75685f62f","ios":"levelo://app?vid=8dfbf217-2ded-4cf7-8532-43c75685f62f"},"vehicle_type_id":"4","last_reported":1714158376,"current_range_meters":17200,"station_id":"ce4bhr12rcd13ifvqhpg","pricing_plan_id":"cebpf4jnsgd1na2vs0mg"},{"bike_id":"4711de5f-eb77-4dc2-9a13-c65041e80678","system_id":"levelo_inurba_marseille","lat":43.319935,"lon":5.381699,"is_reserved":false,"is_disabled":false,"rental_uris":{"android":"levelo://app?vid=4711de5f-eb77-4dc2-9a13-c65041e80678","ios":"levelo://app?vid=4711de5f-eb77-4dc2-9a13-c65041e80678"},"vehicle_type_id":"4","last_reported":1714158376,"current_range_meters":10800,"station_id":"ce4bhr12rcd13ifvqhpg","pricing_plan_id":"cebpf4jnsgd1na2vs0mg"},{"bike_id":"5c02f712-3cf0-4b4b-8d69-537eccefd8df","system_id":"levelo_inurba_marseille","lat":43.313571,"lon":5.384829,"is_reserved":false,"is_disabled":false,"rental_uris":{"android":"levelo://app?vid=5c02f712-3cf0-4b4b-8d69-537eccefd8df","ios":"levelo://app?vid=5c02f712-3cf0-4b4b-8d69-537eccefd8df"},"vehicle_type_id":"4","last_reported":1714158376,"current_range_meters":14400,"station_id":"ce4bgt92rcd13ifvqcf0","pricing_plan_id":"cebpf4jnsgd1na2vs0mg"},{"bike_id":"fb8f8569-a497-4520-b311-d87a2cf89e24","system_id":"levelo_inurba_marseille","lat":43.313571,"lon":5.384829,"is_reserved":false,"is_disabled":false,"rental_uris":{"android":"levelo://app?vid=fb8f8569-a497-4520-b311-d87a2cf89e24","ios":"levelo://app?vid=fb8f8569-a497-4520-b311-d87a2cf89e24"},"vehicle_type_id":"4","last_reported":1714158376,"current_range_meters":28400,"station_id":"ce4bgt92rcd13ifvqcf0","pricing_plan_id":"cebpf4jnsgd1na2vs0mg"},{"bike_id":"99fbf999-cac8-4db7-8f72-ecef3bef073d","system_id":"levelo_inurba_marseille","lat":43.313571,"lon":5.384829,"is_reserved":false,"is_disabled":false,"rental_uris":{"android":"levelo://app?vid=99fbf999-cac8-4db7-8f72-ecef3bef073d","ios":"levelo://app?vid=99fbf999-cac8-4db7-8f72-ecef3bef073d"},"vehicle_type_id":"4","last_reported":1714158376,"current_range_meters":12000,"station_id":"ce4bgt92rcd13ifvqcf0","pricing_plan_id":"cebpf4jnsgd1na2vs0mg"},{"bike_id":"26d61d26-e46d-4ff3-a174-a7b06fafe7b7","system_id":"levelo_inurba_marseille","lat":43.299222,"lon":5.365554,"is_reserved":false,"is_disabled":false,"rental_uris":{"android":"levelo://app?vid=26d61d26-e46d-4ff3-a174-a7b06fafe7b7","ios":"levelo://app?vid=26d61d26-e46d-4ff3-a174-a7b06fafe7b7"},"vehicle_type_id":"4","last_reported":1714158376,"current_range_meters":3200,"station_id":"ce4bgm92rcd13ifvqbr0","pricing_plan_id":"cebpf4jnsgd1na2vs0mg"},{"bike_id":"6e2b8479-794d-4020-b97c-3867d93d3d86","system_id":"levelo_inurba_marseille","lat":43.299222,"lon":5.365554,"is_reserved":false,"is_disabled":false,"rental_uris":{"android":"levelo://app?vid=6e2b8479-794d-4020-b97c-3867d93d3d86","ios":"levelo://app?vid=6e2b8479-794d-4020-b97c-3867d93d3d86"},"vehicle_type_id":"4","last_reported":1714158376,"current_range_meters":28000,"station_id":"ce4bgm92rcd13ifvqbr0","pricing_plan_id":"cebpf4jnsgd1na2vs0mg"},{"bike_id":"ea88511f-8d80-4615-8225-3db62a16aa82","system_id":"levelo_inurba_marseille","lat":43.299222,"lon":5.365554,"is_reserved":false,"is_disabled":false,"rental_uris":{"android":"levelo://app?vid=ea88511f-8d80-4615-8225-3db62a16aa82","ios":"levelo://app?vid=ea88511f-8d80-4615-8225-3db62a16aa82"},"vehicle_type_id":"4","last_reported":1714158376,"current_range_meters":27600,"station_id":"ce4bgm92rcd13ifvqbr0","pricing_plan_id":"cebpf4jnsgd1na2vs0mg"},{"bike_id":"4a293c46-57f2-4563-9a3f-e725c4f05307","system_id":"levelo_inurba_marseille","lat":43.299222,"lon":5.365554,"is_reserved":false,"is_disabled":false,"rental_uris":{"android":"levelo://app?vid=4a293c46-57f2-4563-9a3f-e725c4f05307","ios":"levelo://app?vid=4a293c46-57f2-4563-9a3f-e725c4f05307"},"vehicle_type_id":"4","last_reported":1714158376,"current_range_meters":7200,"station_id":"ce4bgm92rcd13ifvqbr0","pricing_plan_id":"cebpf4jnsgd1na2vs0mg"},{"bike_id":"efd90ba4-9ec9-4ee4-aea4-a35bb179d1df","system_id":"levelo_inurba_marseille","lat":43.299222,"lon":5.365554,"is_reserved":false,"is_disabled":false,"rental_uris":{"android":"levelo://app?vid=efd90ba4-9ec9-4ee4-aea4-a35bb179d1df","ios":"levelo://app?vid=efd90ba4-9ec9-4ee4-aea4-a35bb179d1df"},"vehicle_type_id":"4","last_reported":1714158376,"current_range_meters":0,"station_id":"ce4bgm92rcd13ifvqbr0","pricing_plan_id":"cebpf4jnsgd1na2vs0mg"},{"bike_id":"7cdf4761-6afd-4ddc-b878-2338be7ba266","system_id":"levelo_inurba_marseille","lat":43.299222,"lon":5.365554,"is_reserved":false,"is_disabled":false,"rental_uris":{"android":"levelo://app?vid=7cdf4761-6afd-4ddc-b878-2338be7ba266","ios":"levelo://app?vid=7cdf4761-6afd-4ddc-b878-2338be7ba266"},"vehicle_type_id":"4","last_reported":1714158376,"current_range_meters":17200,"station_id":"ce4bgm92rcd13ifvqbr0","pricing_plan_id":"cebpf4jnsgd1na2vs0mg"},{"bike_id":"4ca68f3e-b632-477f-a805-ac8491e55f9c","system_id":"levelo_inurba_marseille","lat":43.299222,"lon":5.365554,"is_reserved":false,"is_disabled":false,"rental_uris":{"android":"levelo://app?vid=4ca68f3e-b632-477f-a805-ac8491e55f9c","ios":"levelo://app?vid=4ca68f3e-b632-477f-a805-ac8491e55f9c"},"vehicle_type_id":"4","last_reported":1714158376,"current_range_meters":3600,"station_id":"ce4bgm92rcd13ifvqbr0","pricing_plan_id":"cebpf4jnsgd1na2vs0mg"},{"bike_id":"d2426caf-ca2b-4c33-b631-34a5d5684487","system_id":"levelo_inurba_marseille","lat":43.299222,"lon":5.365554,"is_reserved":false,"is_disabled":false,"rental_uris":{"android":"levelo://app?vid=d2426caf-ca2b-4c33-b631-34a5d5684487","ios":"levelo://app?vid=d2426caf-ca2b-4c33-b631-34a5d5684487"},"vehicle_type_id":"4","last_reported":1714158376,"current_range_meters":800,"station_id":"ce4bgm92rcd13ifvqbr0","pricing_plan_id":"cebpf4jnsgd1na2vs0mg"},{"bike_id":"21d3bfa3-e7c8-47e4-bde9-4bb33cdc9dce","system_id":"levelo_inurba_marseille","lat":43.299209,"lon":5.365547,"is_reserved":false,"is_disabled":false,"rental_uris":{"android":"levelo://app?vid=21d3bfa3-e7c8-47e4-bde9-4bb33cdc9dce","ios":"levelo://app?vid=21d3bfa3-e7c8-47e4-bde9-4bb33cdc9dce"},"vehicle_type_id":"4","last_reported":1714158376,"current_range_meters":18000,"station_id":"ce4bgm92rcd13ifvqbr0","pricing_plan_id":"cebpf4jnsgd1na2vs0mg"},{"bike_id":"f8f73105-189f-43f6-91c7-7b44029b45a6","system_id":"levelo_inurba_marseille","lat":43.299222,"lon":5.365554,"is_reserved":false,"is_disabled":false,"rental_uris":{"android":"levelo://app?vid=f8f73105-189f-43f6-91c7-7b44029b45a6","ios":"levelo://app?vid=f8f73105-189f-43f6-91c7-7b44029b45a6"},"vehicle_type_id":"4","last_reported":1714158376,"current_range_meters":9600,"station_id":"ce4bgm92rcd13ifvqbr0","pricing_plan_id":"cebpf4jnsgd1na2vs0mg"},{"bike_id":"8811e09a-f418-4ca7-97d8-f40250c6ed76","system_id":"levelo_inurba_marseille","lat":43.299222,"lon":5.365554,"is_reserved":false,"is_disabled":false,"rental_uris":{"android":"levelo://app?vid=8811e09a-f418-4ca7-97d8-f40250c6ed76","ios":"levelo://app?vid=8811e09a-f418-4ca7-97d8-f40250c6ed76"},"vehicle_type_id":"4","last_reported":1714158376,"current_range_meters":14800,"station_id":"ce4bgm92rcd13ifvqbr0","pricing_plan_id":"cebpf4jnsgd1na2vs0mg"},{"bike_id":"4ea1c24d-44ef-4439-9691-aa6e39a51f64","system_id":"levelo_inurba_marseille","lat":43.299222,"lon":5.365554,"is_reserved":false,"is_disabled":false,"rental_uris":{"android":"levelo://app?vid=4ea1c24d-44ef-4439-9691-aa6e39a51f64","ios":"levelo://app?vid=4ea1c24d-44ef-4439-9691-aa6e39a51f64"},"vehicle_type_id":"4","last_reported":1714158376,"current_range_meters":20000,"station_id":"ce4bgm92rcd13ifvqbr0","pricing_plan_id":"cebpf4jnsgd1na2vs0mg"},{"bike_id":"7cb9ed21-6af9-418e-8c8c-8f8bc836381b","system_id":"levelo_inurba_marseille","lat":43.299222,"lon":5.365554,"is_reserved":false,"is_disabled":false,"rental_uris":{"android":"levelo://app?vid=7cb9ed21-6af9-418e-8c8c-8f8bc836381b","ios":"levelo://app?vid=7cb9ed21-6af9-418e-8c8c-8f8bc836381b"},"vehicle_type_id":"4","last_reported":1714158376,"current_range_meters":8000,"station_id":"ce4bgm92rcd13ifvqbr0","pricing_plan_id":"cebpf4jnsgd1na2vs0mg"},{"bike_id":"bf3da334-adf9-4dc3-b2a8-f9fba0cc125b","system_id":"levelo_inurba_marseille","lat":43.299222,"lon":5.365554,"is_reserved":false,"is_disabled":false,"rental_uris":{"android":"levelo://app?vid=bf3da334-adf9-4dc3-b2a8-f9fba0cc125b","ios":"levelo://app?vid=bf3da334-adf9-4dc3-b2a8-f9fba0cc125b"},"vehicle_type_id":"4","last_reported":1714158376,"current_range_meters":9600,"station_id":"ce4bgm92rcd13ifvqbr0","pricing_plan_id":"cebpf4jnsgd1na2vs0mg"},{"bike_id":"bee61914-199f-4f2a-8d23-0b67ef1cfe27","system_id":"levelo_inurba_marseille","lat":43.299222,"lon":5.365554,"is_reserved":false,"is_disabled":false,"rental_uris":{"android":"levelo://app?vid=bee61914-199f-4f2a-8d23-0b67ef1cfe27","ios":"levelo://app?vid=bee61914-199f-4f2a-8d23-0b67ef1cfe27"},"vehicle_type_id":"4","last_reported":1714158376,"current_range_meters":0,"station_id":"ce4bgm92rcd13ifvqbr0","pricing_plan_id":"cebpf4jnsgd1na2vs0mg"},{"bike_id":"f378db96-07d0-4925-a7fb-fa4c215f0327","system_id":"levelo_inurba_marseille","lat":43.299222,"lon":5.365554,"is_reserved":false,"is_disabled":false,"rental_uris":{"android":"levelo://app?vid=f378db96-07d0-4925-a7fb-fa4c215f0327","ios":"levelo://app?vid=f378db96-07d0-4925-a7fb-fa4c215f0327"},"vehicle_type_id":"4","last_reported":1714158376,"current_range_meters":17200,"station_id":"ce4bgm92rcd13ifvqbr0","pricing_plan_id":"cebpf4jnsgd1na2vs0mg"},{"bike_id":"d8bed2d3-8e62-4a09-b17f-b7a3a2962b4f","system_id":"levelo_inurba_marseille","lat":43.299209,"lon":5.365547,"is_reserved":false,"is_disabled":false,"rental_uris":{"android":"levelo://app?vid=d8bed2d3-8e62-4a09-b17f-b7a3a2962b4f","ios":"levelo://app?vid=d8bed2d3-8e62-4a09-b17f-b7a3a2962b4f"},"vehicle_type_id":"4","last_reported":1714158376,"current_range_meters":18400,"station_id":"ce4bgm92rcd13ifvqbr0","pricing_plan_id":"cebpf4jnsgd1na2vs0mg"},{"bike_id":"e5390938-3e06-4199-9c67-357d42e9f879","system_id":"levelo_inurba_marseille","lat":43.299222,"lon":5.365554,"is_reserved":false,"is_disabled":false,"rental_uris":{"android":"levelo://app?vid=e5390938-3e06-4199-9c67-357d42e9f879","ios":"levelo://app?vid=e5390938-3e06-4199-9c67-357d42e9f879"},"vehicle_type_id":"4","last_reported":1714158376,"current_range_meters":14400,"station_id":"ce4bgm92rcd13ifvqbr0","pricing_plan_id":"cebpf4jnsgd1na2vs0mg"},{"bike_id":"8bf2285d-1da1-483d-b3d0-95f50d9bd7d4","system_id":"levelo_inurba_marseille","lat":43.29935,"lon":5.36563,"is_reserved":false,"is_disabled":false,"rental_uris":{"android":"levelo://app?vid=8bf2285d-1da1-483d-b3d0-95f50d9bd7d4","ios":"levelo://app?vid=8bf2285d-1da1-483d-b3d0-95f50d9bd7d4"},"vehicle_type_id":"4","last_reported":1714158376,"current_range_meters":23600,"station_id":"ce4bgm92rcd13ifvqbr0","pricing_plan_id":"cebpf4jnsgd1na2vs0mg"},{"bike_id":"4adb2390-7e82-406b-954e-c9b2ff2078c1","system_id":"levelo_inurba_marseille","lat":43.29979,"lon":5.37179,"is_reserved":false,"is_disabled":false,"rental_uris":{"android":"levelo://app?vid=4adb2390-7e82-406b-954e-c9b2ff2078c1","ios":"levelo://app?vid=4adb2390-7e82-406b-954e-c9b2ff2078c1"},"vehicle_type_id":"4","last_reported":1714158376,"current_range_meters":27200,"station_id":"ce4bgr92rcd13ifvqc7g","pricing_plan_id":"cebpf4jnsgd1na2vs0mg"},{"bike_id":"0855d3b9-aefa-49b3-b9bc-b0c730d307d0","system_id":"levelo_inurba_marseille","lat":43.299724,"lon":5.371829,"is_reserved":false,"is_disabled":false,"rental_uris":{"android":"levelo://app?vid=0855d3b9-aefa-49b3-b9bc-b0c730d307d0","ios":"levelo://app?vid=0855d3b9-aefa-49b3-b9bc-b0c730d307d0"},"vehicle_type_id":"4","last_reported":1714158376,"current_range_meters":25600,"station_id":"ce4bgr92rcd13ifvqc7g","pricing_plan_id":"cebpf4jnsgd1na2vs0mg"},{"bike_id":"23b5386b-c53b-43ab-a8aa-92181a5fcdf1","system_id":"levelo_inurba_marseille","lat":43.299222,"lon":5.365554,"is_reserved":false,"is_disabled":false,"rental_uris":{"android":"levelo://app?vid=23b5386b-c53b-43ab-a8aa-92181a5fcdf1","ios":"levelo://app?vid=23b5386b-c53b-43ab-a8aa-92181a5fcdf1"},"vehicle_type_id":"4","last_reported":1714158376,"current_range_meters":1600,"station_id":"ce4bgm92rcd13ifvqbr0","pricing_plan_id":"cebpf4jnsgd1na2vs0mg"},{"bike_id":"d71f4945-77b1-4bc4-8d7a-4d8712300562","system_id":"levelo_inurba_marseille","lat":43.29935,"lon":5.36554,"is_reserved":false,"is_disabled":false,"rental_uris":{"android":"levelo://app?vid=d71f4945-77b1-4bc4-8d7a-4d8712300562","ios":"levelo://app?vid=d71f4945-77b1-4bc4-8d7a-4d8712300562"},"vehicle_type_id":"4","last_reported":1714158376,"current_range_meters":7200,"station_id":"ce4bgm92rcd13ifvqbr0","pricing_plan_id":"cebpf4jnsgd1na2vs0mg"},{"bike_id":"7bf8b8bd-1e8e-46c8-852f-f47973e8565d","system_id":"levelo_inurba_marseille","lat":43.29935,"lon":5.36551,"is_reserved":false,"is_disabled":false,"rental_uris":{"android":"levelo://app?vid=7bf8b8bd-1e8e-46c8-852f-f47973e8565d","ios":"levelo://app?vid=7bf8b8bd-1e8e-46c8-852f-f47973e8565d"},"vehicle_type_id":"4","last_reported":1714158376,"current_range_meters":28800,"station_id":"ce4bgm92rcd13ifvqbr0","pricing_plan_id":"cebpf4jnsgd1na2vs0mg"},{"bike_id":"842a6e54-bff8-4d62-aa74-325a86b99e25","system_id":"levelo_inurba_marseille","lat":43.29934,"lon":5.36547,"is_reserved":false,"is_disabled":false,"rental_uris":{"android":"levelo://app?vid=842a6e54-bff8-4d62-aa74-325a86b99e25","ios":"levelo://app?vid=842a6e54-bff8-4d62-aa74-325a86b99e25"},"vehicle_type_id":"4","last_reported":1714158376,"current_range_meters":5600,"station_id":"ce4bgm92rcd13ifvqbr0","pricing_plan_id":"cebpf4jnsgd1na2vs0mg"},{"bike_id":"1315d955-2337-411d-8f9f-c882bc403a3b","system_id":"levelo_inurba_marseille","lat":43.299222,"lon":5.365554,"is_reserved":false,"is_disabled":false,"rental_uris":{"android":"levelo://app?vid=1315d955-2337-411d-8f9f-c882bc403a3b","ios":"levelo://app?vid=1315d955-2337-411d-8f9f-c882bc403a3b"},"vehicle_type_id":"4","last_reported":1714158376,"current_range_meters":14800,"station_id":"ce4bgm92rcd13ifvqbr0","pricing_plan_id":"cebpf4jnsgd1na2vs0mg"},{"bike_id":"d5a27f5e-0908-4e64-af2e-bcda7f4f547e","system_id":"levelo_inurba_marseille","lat":43.29931,"lon":5.36553,"is_reserved":false,"is_disabled":false,"rental_uris":{"android":"levelo://app?vid=d5a27f5e-0908-4e64-af2e-bcda7f4f547e","ios":"levelo://app?vid=d5a27f5e-0908-4e64-af2e-bcda7f4f547e"},"vehicle_type_id":"4","last_reported":1714158376,"current_range_meters":0,"station_id":"ce4bgm92rcd13ifvqbr0","pricing_plan_id":"cebpf4jnsgd1na2vs0mg"},{"bike_id":"349652e3-2095-4798-929e-09749e9ff221","system_id":"levelo_inurba_marseille","lat":43.29931,"lon":5.3655,"is_reserved":false,"is_disabled":false,"rental_uris":{"android":"levelo://app?vid=349652e3-2095-4798-929e-09749e9ff221","ios":"levelo://app?vid=349652e3-2095-4798-929e-09749e9ff221"},"vehicle_type_id":"4","last_reported":1714158376,"current_range_meters":16000,"station_id":"ce4bgm92rcd13ifvqbr0","pricing_plan_id":"cebpf4jnsgd1na2vs0mg"},{"bike_id":"b636aa06-a456-4b4e-b314-d78d2cdbe6e1","system_id":"levelo_inurba_marseille","lat":43.29975,"lon":5.37184,"is_reserved":false,"is_disabled":false,"rental_uris":{"android":"levelo://app?vid=b636aa06-a456-4b4e-b314-d78d2cdbe6e1","ios":"levelo://app?vid=b636aa06-a456-4b4e-b314-d78d2cdbe6e1"},"vehicle_type_id":"4","last_reported":1714158376,"current_range_meters":13600,"station_id":"ce4bgr92rcd13ifvqc7g","pricing_plan_id":"cebpf4jnsgd1na2vs0mg"},{"bike_id":"33d15f82-3245-465f-9285-6cce436bdfc8","system_id":"levelo_inurba_marseille","lat":43.29971,"lon":5.37168,"is_reserved":false,"is_disabled":false,"rental_uris":{"android":"levelo://app?vid=33d15f82-3245-465f-9285-6cce436bdfc8","ios":"levelo://app?vid=33d15f82-3245-465f-9285-6cce436bdfc8"},"vehicle_type_id":"4","last_reported":1714158376,"current_range_meters":6000,"station_id":"ce4bgr92rcd13ifvqc7g","pricing_plan_id":"cebpf4jnsgd1na2vs0mg"},{"bike_id":"83bd5749-6068-4d6f-95b4-98a1cba1d37b","system_id":"levelo_inurba_marseille","lat":43.29929,"lon":5.36548,"is_reserved":false,"is_disabled":false,"rental_uris":{"android":"levelo://app?vid=83bd5749-6068-4d6f-95b4-98a1cba1d37b","ios":"levelo://app?vid=83bd5749-6068-4d6f-95b4-98a1cba1d37b"},"vehicle_type_id":"4","last_reported":1714158376,"current_range_meters":2000,"station_id":"ce4bgm92rcd13ifvqbr0","pricing_plan_id":"cebpf4jnsgd1na2vs0mg"},{"bike_id":"2aaf320c-f5ee-4a0f-b846-a012c5ebb677","system_id":"levelo_inurba_marseille","lat":43.29974,"lon":5.3719,"is_reserved":false,"is_disabled":false,"rental_uris":{"android":"levelo://app?vid=2aaf320c-f5ee-4a0f-b846-a012c5ebb677","ios":"levelo://app?vid=2aaf320c-f5ee-4a0f-b846-a012c5ebb677"},"vehicle_type_id":"4","last_reported":1714158376,"current_range_meters":2000,"station_id":"ce4bgr92rcd13ifvqc7g","pricing_plan_id":"cebpf4jnsgd1na2vs0mg"},{"bike_id":"46a40fa1-36b1-42a6-a3ed-06a958099652","system_id":"levelo_inurba_marseille","lat":43.299627,"lon":5.371683,"is_reserved":false,"is_disabled":false,"rental_uris":{"android":"levelo://app?vid=46a40fa1-36b1-42a6-a3ed-06a958099652","ios":"levelo://app?vid=46a40fa1-36b1-42a6-a3ed-06a958099652"},"vehicle_type_id":"4","last_reported":1714158376,"current_range_meters":21200,"station_id":"ce4bgr92rcd13ifvqc7g","pricing_plan_id":"cebpf4jnsgd1na2vs0mg"},{"bike_id":"3faac615-54f1-40a4-ba34-047a67123c22","system_id":"levelo_inurba_marseille","lat":43.299222,"lon":5.365554,"is_reserved":false,"is_disabled":false,"rental_uris":{"android":"levelo://app?vid=3faac615-54f1-40a4-ba34-047a67123c22","ios":"levelo://app?vid=3faac615-54f1-40a4-ba34-047a67123c22"},"vehicle_type_id":"4","last_reported":1714158376,"current_range_meters":9600,"station_id":"ce4bgm92rcd13ifvqbr0","pricing_plan_id":"cebpf4jnsgd1na2vs0mg"},{"bike_id":"0c121696-0c30-4912-8a0b-d3f42463ab96","system_id":"levelo_inurba_marseille","lat":43.299139,"lon":5.365609,"is_reserved":false,"is_disabled":false,"rental_uris":{"android":"levelo://app?vid=0c121696-0c30-4912-8a0b-d3f42463ab96","ios":"levelo://app?vid=0c121696-0c30-4912-8a0b-d3f42463ab96"},"vehicle_type_id":"4","last_reported":1714158376,"current_range_meters":25200,"station_id":"ce4bgm92rcd13ifvqbr0","pricing_plan_id":"cebpf4jnsgd1na2vs0mg"},{"bike_id":"71e59115-3073-4801-9821-9f374694941b","system_id":"levelo_inurba_marseille","lat":43.298931,"lon":5.364274,"is_reserved":false,"is_disabled":false,"rental_uris":{"android":"levelo://app?vid=71e59115-3073-4801-9821-9f374694941b","ios":"levelo://app?vid=71e59115-3073-4801-9821-9f374694941b"},"vehicle_type_id":"4","last_reported":1714158376,"current_range_meters":23600,"station_id":"ce4bgpp2rcd13ifvqc3g","pricing_plan_id":"cebpf4jnsgd1na2vs0mg"},{"bike_id":"351f56f8-4401-4d31-8912-2d0781d70316","system_id":"levelo_inurba_marseille","lat":43.31097,"lon":5.38616,"is_reserved":false,"is_disabled":false,"rental_uris":{"android":"levelo://app?vid=351f56f8-4401-4d31-8912-2d0781d70316","ios":"levelo://app?vid=351f56f8-4401-4d31-8912-2d0781d70316"},"vehicle_type_id":"4","last_reported":1714158376,"current_range_meters":14400,"station_id":"","pricing_plan_id":"cebpf4jnsgd1na2vs0mg"},{"bike_id":"5ca555f5-6a30-4acd-b3e2-54bea5772793","system_id":"levelo_inurba_marseille","lat":43.298539,"lon":5.364917,"is_reserved":false,"is_disabled":false,"rental_uris":{"android":"levelo://app?vid=5ca555f5-6a30-4acd-b3e2-54bea5772793","ios":"levelo://app?vid=5ca555f5-6a30-4acd-b3e2-54bea5772793"},"vehicle_type_id":"4","last_reported":1714158376,"current_range_meters":16400,"station_id":"ce4bgm92rcd13ifvqbr0","pricing_plan_id":"cebpf4jnsgd1na2vs0mg"},{"bike_id":"c33cb29b-0370-48d8-8900-8cc33f9af7c4","system_id":"levelo_inurba_marseille","lat":43.298708,"lon":5.363013,"is_reserved":false,"is_disabled":false,"rental_uris":{"android":"levelo://app?vid=c33cb29b-0370-48d8-8900-8cc33f9af7c4","ios":"levelo://app?vid=c33cb29b-0370-48d8-8900-8cc33f9af7c4"},"vehicle_type_id":"4","last_reported":1714158376,"current_range_meters":800,"station_id":"ce4bgpp2rcd13ifvqc3g","pricing_plan_id":"cebpf4jnsgd1na2vs0mg"},{"bike_id":"005df30f-d14d-4d55-a46e-51bedf35b448","system_id":"levelo_inurba_marseille","lat":43.298433,"lon":5.362774,"is_reserved":false,"is_disabled":false,"rental_uris":{"android":"levelo://app?vid=005df30f-d14d-4d55-a46e-51bedf35b448","ios":"levelo://app?vid=005df30f-d14d-4d55-a46e-51bedf35b448"},"vehicle_type_id":"4","last_reported":1714158376,"current_range_meters":1200,"station_id":"ce4bgpp2rcd13ifvqc3g","pricing_plan_id":"cebpf4jnsgd1na2vs0mg"},{"bike_id":"8a90de71-676c-49ca-95fb-5bbec113208b","system_id":"levelo_inurba_marseille","lat":43.29858,"lon":5.36294,"is_reserved":false,"is_disabled":false,"rental_uris":{"android":"levelo://app?vid=8a90de71-676c-49ca-95fb-5bbec113208b","ios":"levelo://app?vid=8a90de71-676c-49ca-95fb-5bbec113208b"},"vehicle_type_id":"4","last_reported":1714158376,"current_range_meters":31200,"station_id":"ce4bgpp2rcd13ifvqc3g","pricing_plan_id":"cebpf4jnsgd1na2vs0mg"},{"bike_id":"4b87801c-3c0d-4075-b1f7-8cb9e6c26f78","system_id":"levelo_inurba_marseille","lat":43.298433,"lon":5.362774,"is_reserved":false,"is_disabled":false,"rental_uris":{"android":"levelo://app?vid=4b87801c-3c0d-4075-b1f7-8cb9e6c26f78","ios":"levelo://app?vid=4b87801c-3c0d-4075-b1f7-8cb9e6c26f78"},"vehicle_type_id":"4","last_reported":1714158376,"current_range_meters":11600,"station_id":"ce4bgpp2rcd13ifvqc3g","pricing_plan_id":"cebpf4jnsgd1na2vs0mg"},{"bike_id":"c0f7679b-1fbf-476b-b297-64892409cda4","system_id":"levelo_inurba_marseille","lat":43.29857,"lon":5.36281,"is_reserved":false,"is_disabled":false,"rental_uris":{"android":"levelo://app?vid=c0f7679b-1fbf-476b-b297-64892409cda4","ios":"levelo://app?vid=c0f7679b-1fbf-476b-b297-64892409cda4"},"vehicle_type_id":"4","last_reported":1714158376,"current_range_meters":8000,"station_id":"ce4bgpp2rcd13ifvqc3g","pricing_plan_id":"cebpf4jnsgd1na2vs0mg"},{"bike_id":"f4f29d6f-4b77-4c1c-91e2-ef32f8df1500","system_id":"levelo_inurba_marseille","lat":43.298433,"lon":5.362774,"is_reserved":false,"is_disabled":false,"rental_uris":{"android":"levelo://app?vid=f4f29d6f-4b77-4c1c-91e2-ef32f8df1500","ios":"levelo://app?vid=f4f29d6f-4b77-4c1c-91e2-ef32f8df1500"},"vehicle_type_id":"4","last_reported":1714158376,"current_range_meters":18000,"station_id":"ce4bgpp2rcd13ifvqc3g","pricing_plan_id":"cebpf4jnsgd1na2vs0mg"},{"bike_id":"1b4cb2ca-7597-411f-83cc-77fdf61a0722","system_id":"levelo_inurba_marseille","lat":43.298433,"lon":5.362774,"is_reserved":false,"is_disabled":false,"rental_uris":{"android":"levelo://app?vid=1b4cb2ca-7597-411f-83cc-77fdf61a0722","ios":"levelo://app?vid=1b4cb2ca-7597-411f-83cc-77fdf61a0722"},"vehicle_type_id":"4","last_reported":1714158376,"current_range_meters":0,"station_id":"ce4bgpp2rcd13ifvqc3g","pricing_plan_id":"cebpf4jnsgd1na2vs0mg"},{"bike_id":"bc34f32b-138e-4912-b193-de789cb039eb","system_id":"levelo_inurba_marseille","lat":43.29855,"lon":5.362889,"is_reserved":false,"is_disabled":false,"rental_uris":{"android":"levelo://app?vid=bc34f32b-138e-4912-b193-de789cb039eb","ios":"levelo://app?vid=bc34f32b-138e-4912-b193-de789cb039eb"},"vehicle_type_id":"4","last_reported":1714158376,"current_range_meters":20000,"station_id":"ce4bgpp2rcd13ifvqc3g","pricing_plan_id":"cebpf4jnsgd1na2vs0mg"},{"bike_id":"1e7241c7-ff12-4faf-907d-e1f748ef85fa","system_id":"levelo_inurba_marseille","lat":43.298433,"lon":5.362774,"is_reserved":false,"is_disabled":false,"rental_uris":{"android":"levelo://app?vid=1e7241c7-ff12-4faf-907d-e1f748ef85fa","ios":"levelo://app?vid=1e7241c7-ff12-4faf-907d-e1f748ef85fa"},"vehicle_type_id":"4","last_reported":1714158376,"current_range_meters":20000,"station_id":"ce4bgpp2rcd13ifvqc3g","pricing_plan_id":"cebpf4jnsgd1na2vs0mg"},{"bike_id":"3e29b80d-667f-40ff-ac5d-767c79180e1d","system_id":"levelo_inurba_marseille","lat":43.298433,"lon":5.362774,"is_reserved":false,"is_disabled":false,"rental_uris":{"android":"levelo://app?vid=3e29b80d-667f-40ff-ac5d-767c79180e1d","ios":"levelo://app?vid=3e29b80d-667f-40ff-ac5d-767c79180e1d"},"vehicle_type_id":"4","last_reported":1714158376,"current_range_meters":11600,"station_id":"ce4bgpp2rcd13ifvqc3g","pricing_plan_id":"cebpf4jnsgd1na2vs0mg"},{"bike_id":"8534dc71-1deb-4884-8518-9212096040bd","system_id":"levelo_inurba_marseille","lat":43.298433,"lon":5.362774,"is_reserved":false,"is_disabled":false,"rental_uris":{"android":"levelo://app?vid=8534dc71-1deb-4884-8518-9212096040bd","ios":"levelo://app?vid=8534dc71-1deb-4884-8518-9212096040bd"},"vehicle_type_id":"4","last_reported":1714158376,"current_range_meters":0,"station_id":"ce4bgpp2rcd13ifvqc3g","pricing_plan_id":"cebpf4jnsgd1na2vs0mg"},{"bike_id":"e87255f7-c214-4e6c-a429-c3da418af2ba","system_id":"levelo_inurba_marseille","lat":43.298433,"lon":5.362774,"is_reserved":false,"is_disabled":false,"rental_uris":{"android":"levelo://app?vid=e87255f7-c214-4e6c-a429-c3da418af2ba","ios":"levelo://app?vid=e87255f7-c214-4e6c-a429-c3da418af2ba"},"vehicle_type_id":"4","last_reported":1714158376,"current_range_meters":2800,"station_id":"ce4bgpp2rcd13ifvqc3g","pricing_plan_id":"cebpf4jnsgd1na2vs0mg"},{"bike_id":"a5ec8ad8-50f1-4c2e-b56e-730683a6aa12","system_id":"levelo_inurba_marseille","lat":43.298433,"lon":5.362774,"is_reserved":false,"is_disabled":false,"rental_uris":{"android":"levelo://app?vid=a5ec8ad8-50f1-4c2e-b56e-730683a6aa12","ios":"levelo://app?vid=a5ec8ad8-50f1-4c2e-b56e-730683a6aa12"},"vehicle_type_id":"4","last_reported":1714158376,"current_range_meters":9600,"station_id":"ce4bgpp2rcd13ifvqc3g","pricing_plan_id":"cebpf4jnsgd1na2vs0mg"},{"bike_id":"5696f259-a103-419a-83ef-88116b054dc4","system_id":"levelo_inurba_marseille","lat":43.298433,"lon":5.362774,"is_reserved":false,"is_disabled":false,"rental_uris":{"android":"levelo://app?vid=5696f259-a103-419a-83ef-88116b054dc4","ios":"levelo://app?vid=5696f259-a103-419a-83ef-88116b054dc4"},"vehicle_type_id":"4","last_reported":1714158376,"current_range_meters":7200,"station_id":"ce4bgpp2rcd13ifvqc3g","pricing_plan_id":"cebpf4jnsgd1na2vs0mg"},{"bike_id":"1be7ee13-2a2b-49d9-bf80-6fa7a0203eaf","system_id":"levelo_inurba_marseille","lat":43.298433,"lon":5.362774,"is_reserved":false,"is_disabled":false,"rental_uris":{"android":"levelo://app?vid=1be7ee13-2a2b-49d9-bf80-6fa7a0203eaf","ios":"levelo://app?vid=1be7ee13-2a2b-49d9-bf80-6fa7a0203eaf"},"vehicle_type_id":"4","last_reported":1714158376,"current_range_meters":26400,"station_id":"ce4bgpp2rcd13ifvqc3g","pricing_plan_id":"cebpf4jnsgd1na2vs0mg"},{"bike_id":"ae9a4d2d-beea-4600-942e-d2664b316a88","system_id":"levelo_inurba_marseille","lat":43.29852,"lon":5.36292,"is_reserved":false,"is_disabled":false,"rental_uris":{"android":"levelo://app?vid=ae9a4d2d-beea-4600-942e-d2664b316a88","ios":"levelo://app?vid=ae9a4d2d-beea-4600-942e-d2664b316a88"},"vehicle_type_id":"4","last_reported":1714158376,"current_range_meters":4000,"station_id":"ce4bgpp2rcd13ifvqc3g","pricing_plan_id":"cebpf4jnsgd1na2vs0mg"},{"bike_id":"b39a1342-d0c2-40d2-93d3-70f99664ecaf","system_id":"levelo_inurba_marseille","lat":43.29853,"lon":5.36285,"is_reserved":false,"is_disabled":false,"rental_uris":{"android":"levelo://app?vid=b39a1342-d0c2-40d2-93d3-70f99664ecaf","ios":"levelo://app?vid=b39a1342-d0c2-40d2-93d3-70f99664ecaf"},"vehicle_type_id":"4","last_reported":1714158376,"current_range_meters":20800,"station_id":"ce4bgpp2rcd13ifvqc3g","pricing_plan_id":"cebpf4jnsgd1na2vs0mg"},{"bike_id":"35288da9-9d5d-473f-93aa-1e44c0c326b6","system_id":"levelo_inurba_marseille","lat":43.298433,"lon":5.362774,"is_reserved":false,"is_disabled":false,"rental_uris":{"android":"levelo://app?vid=35288da9-9d5d-473f-93aa-1e44c0c326b6","ios":"levelo://app?vid=35288da9-9d5d-473f-93aa-1e44c0c326b6"},"vehicle_type_id":"4","last_reported":1714158376,"current_range_meters":0,"station_id":"ce4bgpp2rcd13ifvqc3g","pricing_plan_id":"cebpf4jnsgd1na2vs0mg"},{"bike_id":"734cc87a-0ef8-41be-b69b-510397d76641","system_id":"levelo_inurba_marseille","lat":43.298433,"lon":5.362774,"is_reserved":false,"is_disabled":false,"rental_uris":{"android":"levelo://app?vid=734cc87a-0ef8-41be-b69b-510397d76641","ios":"levelo://app?vid=734cc87a-0ef8-41be-b69b-510397d76641"},"vehicle_type_id":"4","last_reported":1714158376,"current_range_meters":8800,"station_id":"ce4bgpp2rcd13ifvqc3g","pricing_plan_id":"cebpf4jnsgd1na2vs0mg"},{"bike_id":"1d80efab-2a02-407d-8534-67052bae210e","system_id":"levelo_inurba_marseille","lat":43.298433,"lon":5.362774,"is_reserved":false,"is_disabled":false,"rental_uris":{"android":"levelo://app?vid=1d80efab-2a02-407d-8534-67052bae210e","ios":"levelo://app?vid=1d80efab-2a02-407d-8534-67052bae210e"},"vehicle_type_id":"4","last_reported":1714158376,"current_range_meters":8400,"station_id":"ce4bgpp2rcd13ifvqc3g","pricing_plan_id":"cebpf4jnsgd1na2vs0mg"},{"bike_id":"a2793836-e8a3-4cf1-954a-d54aae22a195","system_id":"levelo_inurba_marseille","lat":43.29851,"lon":5.3629,"is_reserved":false,"is_disabled":false,"rental_uris":{"android":"levelo://app?vid=a2793836-e8a3-4cf1-954a-d54aae22a195","ios":"levelo://app?vid=a2793836-e8a3-4cf1-954a-d54aae22a195"},"vehicle_type_id":"4","last_reported":1714158376,"current_range_meters":26000,"station_id":"ce4bgpp2rcd13ifvqc3g","pricing_plan_id":"cebpf4jnsgd1na2vs0mg"},{"bike_id":"69ba4524-36bb-49c3-a4a1-2744fecf9adf","system_id":"levelo_inurba_marseille","lat":43.29851,"lon":5.36289,"is_reserved":false,"is_disabled":false,"rental_uris":{"android":"levelo://app?vid=69ba4524-36bb-49c3-a4a1-2744fecf9adf","ios":"levelo://app?vid=69ba4524-36bb-49c3-a4a1-2744fecf9adf"},"vehicle_type_id":"4","last_reported":1714158376,"current_range_meters":17200,"station_id":"ce4bgpp2rcd13ifvqc3g","pricing_plan_id":"cebpf4jnsgd1na2vs0mg"},{"bike_id":"1542cead-6cdd-43bc-9ff4-88cca54dcad8","system_id":"levelo_inurba_marseille","lat":43.29851,"lon":5.36288,"is_reserved":false,"is_disabled":false,"rental_uris":{"android":"levelo://app?vid=1542cead-6cdd-43bc-9ff4-88cca54dcad8","ios":"levelo://app?vid=1542cead-6cdd-43bc-9ff4-88cca54dcad8"},"vehicle_type_id":"4","last_reported":1714158376,"current_range_meters":12400,"station_id":"ce4bgpp2rcd13ifvqc3g","pricing_plan_id":"cebpf4jnsgd1na2vs0mg"},{"bike_id":"86b4425c-84c7-4d19-8c99-4c67d70b3efd","system_id":"levelo_inurba_marseille","lat":43.298433,"lon":5.362774,"is_reserved":false,"is_disabled":false,"rental_uris":{"android":"levelo://app?vid=86b4425c-84c7-4d19-8c99-4c67d70b3efd","ios":"levelo://app?vid=86b4425c-84c7-4d19-8c99-4c67d70b3efd"},"vehicle_type_id":"4","last_reported":1714158376,"current_range_meters":8000,"station_id":"ce4bgpp2rcd13ifvqc3g","pricing_plan_id":"cebpf4jnsgd1na2vs0mg"},{"bike_id":"c1648188-f25a-4148-8b3f-08d6f8643244","system_id":"levelo_inurba_marseille","lat":43.298433,"lon":5.362774,"is_reserved":false,"is_disabled":false,"rental_uris":{"android":"levelo://app?vid=c1648188-f25a-4148-8b3f-08d6f8643244","ios":"levelo://app?vid=c1648188-f25a-4148-8b3f-08d6f8643244"},"vehicle_type_id":"4","last_reported":1714158376,"current_range_meters":14400,"station_id":"ce4bgpp2rcd13ifvqc3g","pricing_plan_id":"cebpf4jnsgd1na2vs0mg"},{"bike_id":"df23fe7c-346b-4929-a756-38e0e39d0cca","system_id":"levelo_inurba_marseille","lat":43.298433,"lon":5.362774,"is_reserved":false,"is_disabled":false,"rental_uris":{"android":"levelo://app?vid=df23fe7c-346b-4929-a756-38e0e39d0cca","ios":"levelo://app?vid=df23fe7c-346b-4929-a756-38e0e39d0cca"},"vehicle_type_id":"4","last_reported":1714158376,"current_range_meters":10000,"station_id":"ce4bgpp2rcd13ifvqc3g","pricing_plan_id":"cebpf4jnsgd1na2vs0mg"},{"bike_id":"f9ccb9fa-4b06-49a9-9c17-dee63ba25306","system_id":"levelo_inurba_marseille","lat":43.298433,"lon":5.362774,"is_reserved":false,"is_disabled":false,"rental_uris":{"android":"levelo://app?vid=f9ccb9fa-4b06-49a9-9c17-dee63ba25306","ios":"levelo://app?vid=f9ccb9fa-4b06-49a9-9c17-dee63ba25306"},"vehicle_type_id":"4","last_reported":1714158376,"current_range_meters":29200,"station_id":"ce4bgpp2rcd13ifvqc3g","pricing_plan_id":"cebpf4jnsgd1na2vs0mg"},{"bike_id":"d89c0f59-924a-4110-acef-d921f1ff0078","system_id":"levelo_inurba_marseille","lat":43.29848,"lon":5.36295,"is_reserved":false,"is_disabled":false,"rental_uris":{"android":"levelo://app?vid=d89c0f59-924a-4110-acef-d921f1ff0078","ios":"levelo://app?vid=d89c0f59-924a-4110-acef-d921f1ff0078"},"vehicle_type_id":"4","last_reported":1714158376,"current_range_meters":15200,"station_id":"ce4bgpp2rcd13ifvqc3g","pricing_plan_id":"cebpf4jnsgd1na2vs0mg"},{"bike_id":"233d6540-cec0-46b9-9d27-cea6683790aa","system_id":"levelo_inurba_marseille","lat":43.298433,"lon":5.362774,"is_reserved":false,"is_disabled":false,"rental_uris":{"android":"levelo://app?vid=233d6540-cec0-46b9-9d27-cea6683790aa","ios":"levelo://app?vid=233d6540-cec0-46b9-9d27-cea6683790aa"},"vehicle_type_id":"4","last_reported":1714158376,"current_range_meters":28000,"station_id":"ce4bgpp2rcd13ifvqc3g","pricing_plan_id":"cebpf4jnsgd1na2vs0mg"},{"bike_id":"131ecf45-0bdb-4847-aafa-973a1dca2894","system_id":"levelo_inurba_marseille","lat":43.298433,"lon":5.362774,"is_reserved":false,"is_disabled":false,"rental_uris":{"android":"levelo://app?vid=131ecf45-0bdb-4847-aafa-973a1dca2894","ios":"levelo://app?vid=131ecf45-0bdb-4847-aafa-973a1dca2894"},"vehicle_type_id":"4","last_reported":1714158376,"current_range_meters":31600,"station_id":"ce4bgpp2rcd13ifvqc3g","pricing_plan_id":"cebpf4jnsgd1na2vs0mg"},{"bike_id":"14abd9f2-d477-4c69-8348-3929989ad9f2","system_id":"levelo_inurba_marseille","lat":43.29849,"lon":5.36283,"is_reserved":false,"is_disabled":false,"rental_uris":{"android":"levelo://app?vid=14abd9f2-d477-4c69-8348-3929989ad9f2","ios":"levelo://app?vid=14abd9f2-d477-4c69-8348-3929989ad9f2"},"vehicle_type_id":"4","last_reported":1714158376,"current_range_meters":8400,"station_id":"ce4bgpp2rcd13ifvqc3g","pricing_plan_id":"cebpf4jnsgd1na2vs0mg"},{"bike_id":"b770acf6-909c-4b1e-8162-a2428c59a440","system_id":"levelo_inurba_marseille","lat":43.298433,"lon":5.362774,"is_reserved":false,"is_disabled":false,"rental_uris":{"android":"levelo://app?vid=b770acf6-909c-4b1e-8162-a2428c59a440","ios":"levelo://app?vid=b770acf6-909c-4b1e-8162-a2428c59a440"},"vehicle_type_id":"4","last_reported":1714158376,"current_range_meters":31600,"station_id":"ce4bgpp2rcd13ifvqc3g","pricing_plan_id":"cebpf4jnsgd1na2vs0mg"},{"bike_id":"12c3b815-5ab6-4562-9124-4c282cb32635","system_id":"levelo_inurba_marseille","lat":43.298481,"lon":5.362844,"is_reserved":false,"is_disabled":false,"rental_uris":{"android":"levelo://app?vid=12c3b815-5ab6-4562-9124-4c282cb32635","ios":"levelo://app?vid=12c3b815-5ab6-4562-9124-4c282cb32635"},"vehicle_type_id":"4","last_reported":1714158376,"current_range_meters":7200,"station_id":"ce4bgpp2rcd13ifvqc3g","pricing_plan_id":"cebpf4jnsgd1na2vs0mg"},{"bike_id":"9e5785da-ffb7-4bd1-9faf-eeae0e4881ff","system_id":"levelo_inurba_marseille","lat":43.305364,"lon":5.384119,"is_reserved":false,"is_disabled":false,"rental_uris":{"android":"levelo://app?vid=9e5785da-ffb7-4bd1-9faf-eeae0e4881ff","ios":"levelo://app?vid=9e5785da-ffb7-4bd1-9faf-eeae0e4881ff"},"vehicle_type_id":"4","last_reported":1714158376,"current_range_meters":24400,"station_id":"ce4bgg92rcd13ifvqb30","pricing_plan_id":"cebpf4jnsgd1na2vs0mg"},{"bike_id":"205a8ee7-4210-4020-8f81-5d2bfb4e416f","system_id":"levelo_inurba_marseille","lat":43.29848,"lon":5.36283,"is_reserved":false,"is_disabled":false,"rental_uris":{"android":"levelo://app?vid=205a8ee7-4210-4020-8f81-5d2bfb4e416f","ios":"levelo://app?vid=205a8ee7-4210-4020-8f81-5d2bfb4e416f"},"vehicle_type_id":"4","last_reported":1714158376,"current_range_meters":26800,"station_id":"ce4bgpp2rcd13ifvqc3g","pricing_plan_id":"cebpf4jnsgd1na2vs0mg"},{"bike_id":"cdfa72d5-7c6e-49a4-8552-ef66c1187fa8","system_id":"levelo_inurba_marseille","lat":43.298433,"lon":5.362774,"is_reserved":false,"is_disabled":false,"rental_uris":{"android":"levelo://app?vid=cdfa72d5-7c6e-49a4-8552-ef66c1187fa8","ios":"levelo://app?vid=cdfa72d5-7c6e-49a4-8552-ef66c1187fa8"},"vehicle_type_id":"4","last_reported":1714158376,"current_range_meters":12400,"station_id":"ce4bgpp2rcd13ifvqc3g","pricing_plan_id":"cebpf4jnsgd1na2vs0mg"},{"bike_id":"c72ae89d-4408-49a7-a33d-a866612d9984","system_id":"levelo_inurba_marseille","lat":43.29848,"lon":5.36282,"is_reserved":false,"is_disabled":false,"rental_uris":{"android":"levelo://app?vid=c72ae89d-4408-49a7-a33d-a866612d9984","ios":"levelo://app?vid=c72ae89d-4408-49a7-a33d-a866612d9984"},"vehicle_type_id":"4","last_reported":1714158376,"current_range_meters":800,"station_id":"ce4bgpp2rcd13ifvqc3g","pricing_plan_id":"cebpf4jnsgd1na2vs0mg"},{"bike_id":"a315fb69-dfc1-4814-9595-1063257c50a9","system_id":"levelo_inurba_marseille","lat":43.298433,"lon":5.362774,"is_reserved":false,"is_disabled":false,"rental_uris":{"android":"levelo://app?vid=a315fb69-dfc1-4814-9595-1063257c50a9","ios":"levelo://app?vid=a315fb69-dfc1-4814-9595-1063257c50a9"},"vehicle_type_id":"4","last_reported":1714158376,"current_range_meters":6400,"station_id":"ce4bgpp2rcd13ifvqc3g","pricing_plan_id":"cebpf4jnsgd1na2vs0mg"},{"bike_id":"14eb9390-aaf4-4b27-9607-910bc9f881fb","system_id":"levelo_inurba_marseille","lat":43.29848,"lon":5.36279,"is_reserved":false,"is_disabled":false,"rental_uris":{"android":"levelo://app?vid=14eb9390-aaf4-4b27-9607-910bc9f881fb","ios":"levelo://app?vid=14eb9390-aaf4-4b27-9607-910bc9f881fb"},"vehicle_type_id":"4","last_reported":1714158376,"current_range_meters":1200,"station_id":"ce4bgpp2rcd13ifvqc3g","pricing_plan_id":"cebpf4jnsgd1na2vs0mg"},{"bike_id":"5fdee912-46c0-43fa-8778-7ae653240961","system_id":"levelo_inurba_marseille","lat":43.298433,"lon":5.362774,"is_reserved":false,"is_disabled":false,"rental_uris":{"android":"levelo://app?vid=5fdee912-46c0-43fa-8778-7ae653240961","ios":"levelo://app?vid=5fdee912-46c0-43fa-8778-7ae653240961"},"vehicle_type_id":"4","last_reported":1714158376,"current_range_meters":12000,"station_id":"ce4bgpp2rcd13ifvqc3g","pricing_plan_id":"cebpf4jnsgd1na2vs0mg"},{"bike_id":"d4ad5b4d-9045-46c4-ac87-89e7f29a77b3","system_id":"levelo_inurba_marseille","lat":43.298473,"lon":5.362817,"is_reserved":false,"is_disabled":false,"rental_uris":{"android":"levelo://app?vid=d4ad5b4d-9045-46c4-ac87-89e7f29a77b3","ios":"levelo://app?vid=d4ad5b4d-9045-46c4-ac87-89e7f29a77b3"},"vehicle_type_id":"4","last_reported":1714158376,"current_range_meters":800,"station_id":"ce4bgpp2rcd13ifvqc3g","pricing_plan_id":"cebpf4jnsgd1na2vs0mg"},{"bike_id":"d944ad65-76e6-4b0a-879f-f76b2239ff56","system_id":"levelo_inurba_marseille","lat":43.29848,"lon":5.36277,"is_reserved":false,"is_disabled":false,"rental_uris":{"android":"levelo://app?vid=d944ad65-76e6-4b0a-879f-f76b2239ff56","ios":"levelo://app?vid=d944ad65-76e6-4b0a-879f-f76b2239ff56"},"vehicle_type_id":"4","last_reported":1714158376,"current_range_meters":22400,"station_id":"ce4bgpp2rcd13ifvqc3g","pricing_plan_id":"cebpf4jnsgd1na2vs0mg"},{"bike_id":"730d2c96-b47f-4a0d-8015-726262a916b3","system_id":"levelo_inurba_marseille","lat":43.298454,"lon":5.362942,"is_reserved":false,"is_disabled":false,"rental_uris":{"android":"levelo://app?vid=730d2c96-b47f-4a0d-8015-726262a916b3","ios":"levelo://app?vid=730d2c96-b47f-4a0d-8015-726262a916b3"},"vehicle_type_id":"4","last_reported":1714158376,"current_range_meters":12000,"station_id":"ce4bgpp2rcd13ifvqc3g","pricing_plan_id":"cebpf4jnsgd1na2vs0mg"},{"bike_id":"70a8db86-f513-441c-ad8b-6b7ff6ac26a9","system_id":"levelo_inurba_marseille","lat":43.29847,"lon":5.36283,"is_reserved":false,"is_disabled":false,"rental_uris":{"android":"levelo://app?vid=70a8db86-f513-441c-ad8b-6b7ff6ac26a9","ios":"levelo://app?vid=70a8db86-f513-441c-ad8b-6b7ff6ac26a9"},"vehicle_type_id":"4","last_reported":1714158376,"current_range_meters":20400,"station_id":"ce4bgpp2rcd13ifvqc3g","pricing_plan_id":"cebpf4jnsgd1na2vs0mg"},{"bike_id":"c7279930-dcee-4541-b179-2e967b2c6745","system_id":"levelo_inurba_marseille","lat":43.29848,"lon":5.36275,"is_reserved":false,"is_disabled":false,"rental_uris":{"android":"levelo://app?vid=c7279930-dcee-4541-b179-2e967b2c6745","ios":"levelo://app?vid=c7279930-dcee-4541-b179-2e967b2c6745"},"vehicle_type_id":"4","last_reported":1714158376,"current_range_meters":11600,"station_id":"ce4bgpp2rcd13ifvqc3g","pricing_plan_id":"cebpf4jnsgd1na2vs0mg"},{"bike_id":"f7644c8a-d373-49b6-9f92-23a76ebb2a3a","system_id":"levelo_inurba_marseille","lat":43.29848,"lon":5.362745,"is_reserved":false,"is_disabled":false,"rental_uris":{"android":"levelo://app?vid=f7644c8a-d373-49b6-9f92-23a76ebb2a3a","ios":"levelo://app?vid=f7644c8a-d373-49b6-9f92-23a76ebb2a3a"},"vehicle_type_id":"4","last_reported":1714158376,"current_range_meters":3200,"station_id":"ce4bgpp2rcd13ifvqc3g","pricing_plan_id":"cebpf4jnsgd1na2vs0mg"},{"bike_id":"d8f88171-28de-4c5a-871c-38e1b0c38efa","system_id":"levelo_inurba_marseille","lat":43.29847,"lon":5.362805,"is_reserved":false,"is_disabled":false,"rental_uris":{"android":"levelo://app?vid=d8f88171-28de-4c5a-871c-38e1b0c38efa","ios":"levelo://app?vid=d8f88171-28de-4c5a-871c-38e1b0c38efa"},"vehicle_type_id":"4","last_reported":1714158376,"current_range_meters":23200,"station_id":"ce4bgpp2rcd13ifvqc3g","pricing_plan_id":"cebpf4jnsgd1na2vs0mg"},{"bike_id":"e000c394-0407-45d4-87e9-b8c7c8a30d69","system_id":"levelo_inurba_marseille","lat":43.298482,"lon":5.362706,"is_reserved":false,"is_disabled":false,"rental_uris":{"android":"levelo://app?vid=e000c394-0407-45d4-87e9-b8c7c8a30d69","ios":"levelo://app?vid=e000c394-0407-45d4-87e9-b8c7c8a30d69"},"vehicle_type_id":"4","last_reported":1714158376,"current_range_meters":22800,"station_id":"ce4bgpp2rcd13ifvqc3g","pricing_plan_id":"cebpf4jnsgd1na2vs0mg"},{"bike_id":"c6995b01-fccf-4029-a907-9008d0af8077","system_id":"levelo_inurba_marseille","lat":43.298433,"lon":5.362774,"is_reserved":false,"is_disabled":false,"rental_uris":{"android":"levelo://app?vid=c6995b01-fccf-4029-a907-9008d0af8077","ios":"levelo://app?vid=c6995b01-fccf-4029-a907-9008d0af8077"},"vehicle_type_id":"4","last_reported":1714158376,"current_range_meters":32000,"station_id":"ce4bgpp2rcd13ifvqc3g","pricing_plan_id":"cebpf4jnsgd1na2vs0mg"},{"bike_id":"0adb4f26-3d6a-4aed-9a0c-7a88ba2b2055","system_id":"levelo_inurba_marseille","lat":43.29846,"lon":5.36276,"is_reserved":false,"is_disabled":false,"rental_uris":{"android":"levelo://app?vid=0adb4f26-3d6a-4aed-9a0c-7a88ba2b2055","ios":"levelo://app?vid=0adb4f26-3d6a-4aed-9a0c-7a88ba2b2055"},"vehicle_type_id":"4","last_reported":1714158376,"current_range_meters":9600,"station_id":"ce4bgpp2rcd13ifvqc3g","pricing_plan_id":"cebpf4jnsgd1na2vs0mg"},{"bike_id":"85690d1a-b442-49ed-9bd2-3033c102c8c1","system_id":"levelo_inurba_marseille","lat":43.29845,"lon":5.36281,"is_reserved":false,"is_disabled":false,"rental_uris":{"android":"levelo://app?vid=85690d1a-b442-49ed-9bd2-3033c102c8c1","ios":"levelo://app?vid=85690d1a-b442-49ed-9bd2-3033c102c8c1"},"vehicle_type_id":"4","last_reported":1714158376,"current_range_meters":4000,"station_id":"ce4bgpp2rcd13ifvqc3g","pricing_plan_id":"cebpf4jnsgd1na2vs0mg"},{"bike_id":"8aec3a83-87cf-4eda-8d98-3d12b697efec","system_id":"levelo_inurba_marseille","lat":43.29845,"lon":5.3628,"is_reserved":false,"is_disabled":false,"rental_uris":{"android":"levelo://app?vid=8aec3a83-87cf-4eda-8d98-3d12b697efec","ios":"levelo://app?vid=8aec3a83-87cf-4eda-8d98-3d12b697efec"},"vehicle_type_id":"4","last_reported":1714158376,"current_range_meters":13600,"station_id":"ce4bgpp2rcd13ifvqc3g","pricing_plan_id":"cebpf4jnsgd1na2vs0mg"},{"bike_id":"56881802-1b87-43df-b2b7-0e2b2e7831b4","system_id":"levelo_inurba_marseille","lat":43.29844,"lon":5.36286,"is_reserved":false,"is_disabled":false,"rental_uris":{"android":"levelo://app?vid=56881802-1b87-43df-b2b7-0e2b2e7831b4","ios":"levelo://app?vid=56881802-1b87-43df-b2b7-0e2b2e7831b4"},"vehicle_type_id":"4","last_reported":1714158376,"current_range_meters":5200,"station_id":"ce4bgpp2rcd13ifvqc3g","pricing_plan_id":"cebpf4jnsgd1na2vs0mg"},{"bike_id":"2867b570-8551-4066-886f-5158e7392d79","system_id":"levelo_inurba_marseille","lat":43.298433,"lon":5.362774,"is_reserved":false,"is_disabled":false,"rental_uris":{"android":"levelo://app?vid=2867b570-8551-4066-886f-5158e7392d79","ios":"levelo://app?vid=2867b570-8551-4066-886f-5158e7392d79"},"vehicle_type_id":"4","last_reported":1714158376,"current_range_meters":32000,"station_id":"ce4bgpp2rcd13ifvqc3g","pricing_plan_id":"cebpf4jnsgd1na2vs0mg"},{"bike_id":"b9039d54-9b05-406f-8f96-82870f870699","system_id":"levelo_inurba_marseille","lat":43.29844,"lon":5.36284,"is_reserved":false,"is_disabled":false,"rental_uris":{"android":"levelo://app?vid=b9039d54-9b05-406f-8f96-82870f870699","ios":"levelo://app?vid=b9039d54-9b05-406f-8f96-82870f870699"},"vehicle_type_id":"4","last_reported":1714158376,"current_range_meters":25600,"station_id":"ce4bgpp2rcd13ifvqc3g","pricing_plan_id":"cebpf4jnsgd1na2vs0mg"},{"bike_id":"bfa930a4-3592-4284-a539-b50d38180faf","system_id":"levelo_inurba_marseille","lat":43.298433,"lon":5.362774,"is_reserved":false,"is_disabled":false,"rental_uris":{"android":"levelo://app?vid=bfa930a4-3592-4284-a539-b50d38180faf","ios":"levelo://app?vid=bfa930a4-3592-4284-a539-b50d38180faf"},"vehicle_type_id":"4","last_reported":1714158376,"current_range_meters":20800,"station_id":"ce4bgpp2rcd13ifvqc3g","pricing_plan_id":"cebpf4jnsgd1na2vs0mg"},{"bike_id":"b868995b-985a-4a4a-a8fb-f895d360972c","system_id":"levelo_inurba_marseille","lat":43.29845,"lon":5.36274,"is_reserved":false,"is_disabled":false,"rental_uris":{"android":"levelo://app?vid=b868995b-985a-4a4a-a8fb-f895d360972c","ios":"levelo://app?vid=b868995b-985a-4a4a-a8fb-f895d360972c"},"vehicle_type_id":"4","last_reported":1714158376,"current_range_meters":13200,"station_id":"ce4bgpp2rcd13ifvqc3g","pricing_plan_id":"cebpf4jnsgd1na2vs0mg"},{"bike_id":"b635eb44-582f-4367-8404-b56df700c934","system_id":"levelo_inurba_marseille","lat":43.29845,"lon":5.36274,"is_reserved":false,"is_disabled":false,"rental_uris":{"android":"levelo://app?vid=b635eb44-582f-4367-8404-b56df700c934","ios":"levelo://app?vid=b635eb44-582f-4367-8404-b56df700c934"},"vehicle_type_id":"4","last_reported":1714158376,"current_range_meters":9200,"station_id":"ce4bgpp2rcd13ifvqc3g","pricing_plan_id":"cebpf4jnsgd1na2vs0mg"},{"bike_id":"bebd1325-4290-4a86-94d6-7b5b54d4a22e","system_id":"levelo_inurba_marseille","lat":43.298433,"lon":5.362774,"is_reserved":false,"is_disabled":false,"rental_uris":{"android":"levelo://app?vid=bebd1325-4290-4a86-94d6-7b5b54d4a22e","ios":"levelo://app?vid=bebd1325-4290-4a86-94d6-7b5b54d4a22e"},"vehicle_type_id":"4","last_reported":1714158376,"current_range_meters":3600,"station_id":"ce4bgpp2rcd13ifvqc3g","pricing_plan_id":"cebpf4jnsgd1na2vs0mg"},{"bike_id":"a3d3c9be-1a16-41f5-8059-48aff00d4bcf","system_id":"levelo_inurba_marseille","lat":43.29844,"lon":5.3628,"is_reserved":false,"is_disabled":false,"rental_uris":{"android":"levelo://app?vid=a3d3c9be-1a16-41f5-8059-48aff00d4bcf","ios":"levelo://app?vid=a3d3c9be-1a16-41f5-8059-48aff00d4bcf"},"vehicle_type_id":"4","last_reported":1714158376,"current_range_meters":18800,"station_id":"ce4bgpp2rcd13ifvqc3g","pricing_plan_id":"cebpf4jnsgd1na2vs0mg"},{"bike_id":"6b8c5f4e-afda-4312-8b0b-3a2fb8b6a0c2","system_id":"levelo_inurba_marseille","lat":43.29845,"lon":5.36273,"is_reserved":false,"is_disabled":false,"rental_uris":{"android":"levelo://app?vid=6b8c5f4e-afda-4312-8b0b-3a2fb8b6a0c2","ios":"levelo://app?vid=6b8c5f4e-afda-4312-8b0b-3a2fb8b6a0c2"},"vehicle_type_id":"4","last_reported":1714158376,"current_range_meters":0,"station_id":"ce4bgpp2rcd13ifvqc3g","pricing_plan_id":"cebpf4jnsgd1na2vs0mg"},{"bike_id":"e9e42796-db14-4cff-ac46-8bebb5d848b3","system_id":"levelo_inurba_marseille","lat":43.29845,"lon":5.36273,"is_reserved":false,"is_disabled":false,"rental_uris":{"android":"levelo://app?vid=e9e42796-db14-4cff-ac46-8bebb5d848b3","ios":"levelo://app?vid=e9e42796-db14-4cff-ac46-8bebb5d848b3"},"vehicle_type_id":"4","last_reported":1714158376,"current_range_meters":21200,"station_id":"ce4bgpp2rcd13ifvqc3g","pricing_plan_id":"cebpf4jnsgd1na2vs0mg"},{"bike_id":"febd1139-fd0b-4333-b69a-cb7310ae0e1c","system_id":"levelo_inurba_marseille","lat":43.29844,"lon":5.36276,"is_reserved":false,"is_disabled":false,"rental_uris":{"android":"levelo://app?vid=febd1139-fd0b-4333-b69a-cb7310ae0e1c","ios":"levelo://app?vid=febd1139-fd0b-4333-b69a-cb7310ae0e1c"},"vehicle_type_id":"4","last_reported":1714158376,"current_range_meters":12800,"station_id":"ce4bgpp2rcd13ifvqc3g","pricing_plan_id":"cebpf4jnsgd1na2vs0mg"},{"bike_id":"acdaf93f-bc65-454f-a38b-edf9d9ea9cea","system_id":"levelo_inurba_marseille","lat":43.29846,"lon":5.36263,"is_reserved":false,"is_disabled":false,"rental_uris":{"android":"levelo://app?vid=acdaf93f-bc65-454f-a38b-edf9d9ea9cea","ios":"levelo://app?vid=acdaf93f-bc65-454f-a38b-edf9d9ea9cea"},"vehicle_type_id":"4","last_reported":1714158376,"current_range_meters":24800,"station_id":"ce4bgpp2rcd13ifvqc3g","pricing_plan_id":"cebpf4jnsgd1na2vs0mg"},{"bike_id":"3a1e2441-f982-4580-9a6a-10741cce79ed","system_id":"levelo_inurba_marseille","lat":43.29844,"lon":5.36274,"is_reserved":false,"is_disabled":false,"rental_uris":{"android":"levelo://app?vid=3a1e2441-f982-4580-9a6a-10741cce79ed","ios":"levelo://app?vid=3a1e2441-f982-4580-9a6a-10741cce79ed"},"vehicle_type_id":"4","last_reported":1714158376,"current_range_meters":4000,"station_id":"ce4bgpp2rcd13ifvqc3g","pricing_plan_id":"cebpf4jnsgd1na2vs0mg"},{"bike_id":"371e503b-2c49-411a-bef7-908ec391de3d","system_id":"levelo_inurba_marseille","lat":43.29843,"lon":5.3628,"is_reserved":false,"is_disabled":false,"rental_uris":{"android":"levelo://app?vid=371e503b-2c49-411a-bef7-908ec391de3d","ios":"levelo://app?vid=371e503b-2c49-411a-bef7-908ec391de3d"},"vehicle_type_id":"4","last_reported":1714158376,"current_range_meters":11600,"station_id":"ce4bgpp2rcd13ifvqc3g","pricing_plan_id":"cebpf4jnsgd1na2vs0mg"},{"bike_id":"245f27d0-e359-4cad-956d-f310717aa510","system_id":"levelo_inurba_marseille","lat":43.29844,"lon":5.36273,"is_reserved":false,"is_disabled":false,"rental_uris":{"android":"levelo://app?vid=245f27d0-e359-4cad-956d-f310717aa510","ios":"levelo://app?vid=245f27d0-e359-4cad-956d-f310717aa510"},"vehicle_type_id":"4","last_reported":1714158376,"current_range_meters":800,"station_id":"ce4bgpp2rcd13ifvqc3g","pricing_plan_id":"cebpf4jnsgd1na2vs0mg"},{"bike_id":"ae5f3138-c35e-446e-a80d-60ddfa04ba2d","system_id":"levelo_inurba_marseille","lat":43.298414,"lon":5.362898,"is_reserved":false,"is_disabled":false,"rental_uris":{"android":"levelo://app?vid=ae5f3138-c35e-446e-a80d-60ddfa04ba2d","ios":"levelo://app?vid=ae5f3138-c35e-446e-a80d-60ddfa04ba2d"},"vehicle_type_id":"4","last_reported":1714158376,"current_range_meters":13200,"station_id":"ce4bgpp2rcd13ifvqc3g","pricing_plan_id":"cebpf4jnsgd1na2vs0mg"},{"bike_id":"04e0421a-643d-4c75-97bb-eaa4cf0091af","system_id":"levelo_inurba_marseille","lat":43.29843,"lon":5.36279,"is_reserved":false,"is_disabled":false,"rental_uris":{"android":"levelo://app?vid=04e0421a-643d-4c75-97bb-eaa4cf0091af","ios":"levelo://app?vid=04e0421a-643d-4c75-97bb-eaa4cf0091af"},"vehicle_type_id":"4","last_reported":1714158376,"current_range_meters":14400,"station_id":"ce4bgpp2rcd13ifvqc3g","pricing_plan_id":"cebpf4jnsgd1na2vs0mg"},{"bike_id":"e54c73f7-8447-4607-b28a-3b805a8d1386","system_id":"levelo_inurba_marseille","lat":43.29844,"lon":5.36272,"is_reserved":false,"is_disabled":false,"rental_uris":{"android":"levelo://app?vid=e54c73f7-8447-4607-b28a-3b805a8d1386","ios":"levelo://app?vid=e54c73f7-8447-4607-b28a-3b805a8d1386"},"vehicle_type_id":"4","last_reported":1714158376,"current_range_meters":13600,"station_id":"ce4bgpp2rcd13ifvqc3g","pricing_plan_id":"cebpf4jnsgd1na2vs0mg"},{"bike_id":"9111960b-87d0-4894-b69f-f65da889d5df","system_id":"levelo_inurba_marseille","lat":43.29844,"lon":5.36272,"is_reserved":false,"is_disabled":false,"rental_uris":{"android":"levelo://app?vid=9111960b-87d0-4894-b69f-f65da889d5df","ios":"levelo://app?vid=9111960b-87d0-4894-b69f-f65da889d5df"},"vehicle_type_id":"4","last_reported":1714158376,"current_range_meters":2400,"station_id":"ce4bgpp2rcd13ifvqc3g","pricing_plan_id":"cebpf4jnsgd1na2vs0mg"},