{"last_updated":1747225212,"ttl":60,"version":"2.2","data":{"bikes":[{"bike_id":"c0b9fd4f-e181-46ce-b0bf-f5119973334f","system_id":"levelo_inurba_marseille","lat":43.33771,"lon":5.37424,"is_reserved":false,"is_disabled":false,"rental_uris":{"android":"levelo://app?vid=c0b9fd4f-e181-46ce-b0bf-f5119973334f","ios":"levelo://app?vid=c0b9fd4f-e181-46ce-b0bf-f5119973334f"},"vehicle_type_id":"4","last_reported":1747225212,"current_range_meters":19200,"station_id":"","pricing_plan_id":"cebpf4jnsgd1na2vs0mg"},{"bike_id":"3fae8334-a9d0-4ed3-aa20-0276813b60f6","system_id":"levelo_inurba_marseille","lat":43.26834,"lon":5.38464,"is_reserved":false,"is_disabled":true,"rental_uris":{"android":"levelo://app?vid=3fae8334-a9d0-4ed3-aa20-0276813b60f6","ios":"levelo://app?vid=3fae8334-a9d0-4ed3-aa20-0276813b60f6"},"vehicle_type_id":"4","last_reported":1747225212,"current_range_meters":0,"station_id":"","pricing_plan_id":"cebpf4jnsgd1na2vs0mg"},{"bike_id":"fc2577e7-1497-425b-9d4f-ab8d7dc843c6","system_id":"levelo_inurba_marseille","lat":43.33771,"lon":5.37485,"is_reserved":false,"is_disabled":true,"rental_uris":{"android":"levelo://app?vid=fc2577e7-1497-425b-9d4f-ab8d7dc843c6","ios":"levelo://app?vid=fc2577e7-1497-425b-9d4f-ab8d7dc843c6"},"vehicle_type_id":"4","last_reported":1747225212,"current_range_meters":0,"station_id":"","pricing_plan_id":"cebpf4jnsgd1na2vs0mg"},{"bike_id":"bce6dd6c-5f15-4ae5-8f21-e71db397b253","system_id":"levelo_inurba_marseille","lat":43.305465,"lon":5.365433,"is_reserved":false,"is_disabled":true,"rental_uris":{"android":"levelo://app?vid=bce6dd6c-5f15-4ae5-8f21-e71db397b253","ios":"levelo://app?vid=bce6dd6c-5f15-4ae5-8f21-e71db397b253"},"vehicle_type_id":"4","last_reported":1747225212,"current_range_meters":0,"station_id":"","pricing_plan_id":"cebpf4jnsgd1na2vs0mg"},{"bike_id":"6347b4a4-5dba-428e-b8ac-9084a2f0a08b","system_id":"levelo_inurba_marseille","lat":43.30778,"lon":5.37234,"is_reserved":false,"is_disabled":true,"rental_uris":{"android":"levelo://app?vid=6347b4a4-5dba-428e-b8ac-9084a2f0a08b","ios":"levelo://app?vid=6347b4a4-5dba-428e-b8ac-9084a2f0a08b"},"vehicle_type_id":"4","last_reported":1747225212,"current_range_meters":0,"station_id":"","pricing_plan_id":"cebpf4jnsgd1na2vs0mg"},{"bike_id":"0fedde00-40eb-40d2-8fc2-e61ecce46b7b","system_id":"levelo_inurba_marseille","lat":43.283007,"lon":5.432318,"is_reserved":false,"is_disabled":true,"rental_uris":{"android":"levelo://app?vid=0fedde00-40eb-40d2-8fc2-e61ecce46b7b","ios":"levelo://app?vid=0fedde00-40eb-40d2-8fc2-e61ecce46b7b"},"vehicle_type_id":"4","last_reported":1747225212,"current_range_meters":0,"station_id":"","pricing_plan_id":"cebpf4jnsgd1na2vs0mg"},{"bike_id":"b03f4a10-1b53-43a0-9eb2-9d638cacb562","system_id":"levelo_inurba_marseille","lat":43.31814,"lon":5.38982,"is_reserved":false,"is_disabled":true,"rental_uris":{"android":"levelo://app?vid=b03f4a10-1b53-43a0-9eb2-9d638cacb562","ios":"levelo://app?vid=b03f4a10-1b53-43a0-9eb2-9d638cacb562"},"vehicle_type_id":"4","last_reported":1747225212,"current_range_meters":0,"station_id":"","pricing_plan_id":"cebpf4jnsgd1na2vs0mg"},{"bike_id":"16e98c4e-da7f-4160-a41d-37f546e0efaa","system_id":"levelo_inurba_marseille","lat":43.29662,"lon":5.36192,"is_reserved":false,"is_disabled":true,"rental_uris":{"android":"levelo://app?vid=16e98c4e-da7f-4160-a41d-37f546e0efaa","ios":"levelo://app?vid=16e98c4e-da7f-4160-a41d-37f546e0efaa"},"vehicle_type_id":"4","last_reported":1747225212,"current_range_meters":0,"station_id":"","pricing_plan_id":"cebpf4jnsgd1na2vs0mg"},{"bike_id":"792567c6-0442-4011-aff0-9c05e25deb48","system_id":"levelo_inurba_marseille","lat":43.28071,"lon":5.44168,"is_reserved":false,"is_disabled":true,"rental_uris":{"android":"levelo://app?vid=792567c6-0442-4011-aff0-9c05e25deb48","ios":"levelo://app?vid=792567c6-0442-4011-aff0-9c05e25deb48"},"vehicle_type_id":"4","last_reported":1747225212,"current_range_meters":0,"station_id":"","pricing_plan_id":"cebpf4jnsgd1na2vs0mg"},{"bike_id":"508aac16-cad6-4241-9e9f-800c1a369a9e","system_id":"levelo_inurba_marseille","lat":43.337444,"lon":5.374475,"is_reserved":false,"is_disabled":true,"rental_uris":{"android":"levelo://app?vid=508aac16-cad6-4241-9e9f-800c1a369a9e","ios":"levelo://app?vid=508aac16-cad6-4241-9e9f-800c1a369a9e"},"vehicle_type_id":"4","last_reported":1747225212,"current_range_meters":0,"station_id":"","pricing_plan_id":"cebpf4jnsgd1na2vs0mg"},{"bike_id":"5e9bdb98-e0e1-4499-a133-5c90c62939fe","system_id":"levelo_inurba_marseille","lat":43.29965,"lon":5.385,"is_reserved":false,"is_disabled":true,"rental_uris":{"android":"levelo://app?vid=5e9bdb98-e0e1-4499-a133-5c90c62939fe","ios":"levelo://app?vid=5e9bdb98-e0e1-4499-a133-5c90c62939fe"},"vehicle_type_id":"4","last_reported":1747225212,"current_range_meters":0,"station_id":"ce4bgj92rcd13ifvqbd0","pricing_plan_id":"cebpf4jnsgd1na2vs0mg"},{"bike_id":"747b9b26-81a3-4050-9e25-5d1c77a3ec45","system_id":"levelo_inurba_marseille","lat":43.29856,"lon":5.39737,"is_reserved":false,"is_disabled":true,"rental_uris":{"android":"levelo://app?vid=747b9b26-81a3-4050-9e25-5d1c77a3ec45","ios":"levelo://app?vid=747b9b26-81a3-4050-9e25-5d1c77a3ec45"},"vehicle_type_id":"4","last_reported":1747225212,"current_range_meters":0,"station_id":"ce4bh0h2rcd13ifvqd50","pricing_plan_id":"cebpf4jnsgd1na2vs0mg"},{"bike_id":"1b2fe5f5-e2e6-405d-a576-8217c89adfee","system_id":"levelo_inurba_marseille","lat":43.29041,"lon":5.39964,"is_reserved":false,"is_disabled":true,"rental_uris":{"android":"levelo://app?vid=1b2fe5f5-e2e6-405d-a576-8217c89adfee","ios":"levelo://app?vid=1b2fe5f5-e2e6-405d-a576-8217c89adfee"},"vehicle_type_id":"4","last_reported":1747225212,"current_range_meters":0,"station_id":"ce4bh392rcd13ifvqdm0","pricing_plan_id":"cebpf4jnsgd1na2vs0mg"},{"bike_id":"3b54a518-5cd4-46a3-9dbe-329121e77f60","system_id":"levelo_inurba_marseille","lat":43.29024,"lon":5.38137,"is_reserved":false,"is_disabled":true,"rental_uris":{"android":"levelo://app?vid=3b54a518-5cd4-46a3-9dbe-329121e77f60","ios":"levelo://app?vid=3b54a518-5cd4-46a3-9dbe-329121e77f60"},"vehicle_type_id":"4","last_reported":1747225212,"current_range_meters":0,"station_id":"ce4bh4p2rcd13ifvqe1g","pricing_plan_id":"cebpf4jnsgd1na2vs0mg"},{"bike_id":"f3fd69d4-efb4-47cf-98ad-2a450a9fc845","system_id":"levelo_inurba_marseille","lat":43.27958,"lon":5.38723,"is_reserved":false,"is_disabled":true,"rental_uris":{"android":"levelo://app?vid=f3fd69d4-efb4-47cf-98ad-2a450a9fc845","ios":"levelo://app?vid=f3fd69d4-efb4-47cf-98ad-2a450a9fc845"},"vehicle_type_id":"4","last_reported":1747225212,"current_range_meters":0,"station_id":"ce4bhg12rcd13ifvqf80","pricing_plan_id":"cebpf4jnsgd1na2vs0mg"},{"bike_id":"38f8894c-49bd-4722-a892-cadada920c9a","system_id":"levelo_inurba_marseille","lat":43.24673,"lon":5.38154,"is_reserved":false,"is_disabled":true,"rental_uris":{"android":"levelo://app?vid=38f8894c-49bd-4722-a892-cadada920c9a","ios":"levelo://app?vid=38f8894c-49bd-4722-a892-cadada920c9a"},"vehicle_type_id":"4","last_reported":1747225212,"current_range_meters":0,"station_id":"ce4bhih2rcd13ifvqfr0","pricing_plan_id":"cebpf4jnsgd1na2vs0mg"},{"bike_id":"7d648bb7-ab7e-409a-add7-d4a17f03de12","system_id":"levelo_inurba_marseille","lat":43.23165,"lon":5.43694,"is_reserved":false,"is_disabled":true,"rental_uris":{"android":"levelo://app?vid=7d648bb7-ab7e-409a-add7-d4a17f03de12","ios":"levelo://app?vid=7d648bb7-ab7e-409a-add7-d4a17f03de12"},"vehicle_type_id":"4","last_reported":1747225212,"current_range_meters":0,"station_id":"ce4bhmp2rcd13ifvqgog","pricing_plan_id":"cebpf4jnsgd1na2vs0mg"},{"bike_id":"06af2ae3-9c85-488d-9cf8-f0c29c4b01c7","system_id":"levelo_inurba_marseille","lat":43.24072,"lon":5.37764,"is_reserved":false,"is_disabled":true,"rental_uris":{"android":"levelo://app?vid=06af2ae3-9c85-488d-9cf8-f0c29c4b01c7","ios":"levelo://app?vid=06af2ae3-9c85-488d-9cf8-f0c29c4b01c7"},"vehicle_type_id":"4","last_reported":1747225212,"current_range_meters":0,"station_id":"ce4bhnp2rcd13ifvqgvg","pricing_plan_id":"cebpf4jnsgd1na2vs0mg"},{"bike_id":"b888f7f8-4b39-4d74-94cd-1eb33d886fec","system_id":"levelo_inurba_marseille","lat":43.24066,"lon":5.37757,"is_reserved":false,"is_disabled":true,"rental_uris":{"android":"levelo://app?vid=b888f7f8-4b39-4d74-94cd-1eb33d886fec","ios":"levelo://app?vid=b888f7f8-4b39-4d74-94cd-1eb33d886fec"},"vehicle_type_id":"4","last_reported":1747225212,"current_range_meters":0,"station_id":"ce4bhnp2rcd13ifvqgvg","pricing_plan_id":"cebpf4jnsgd1na2vs0mg"},{"bike_id":"97854dde-f062-4862-9117-fc2c99e80cfa","system_id":"levelo_inurba_marseille","lat":43.27945,"lon":5.41032,"is_reserved":false,"is_disabled":true,"rental_uris":{"android":"levelo://app?vid=97854dde-f062-4862-9117-fc2c99e80cfa","ios":"levelo://app?vid=97854dde-f062-4862-9117-fc2c99e80cfa"},"vehicle_type_id":"4","last_reported":1747225212,"current_range_meters":0,"station_id":"ce4bhnp2rcd13ifvqh0g","pricing_plan_id":"cebpf4jnsgd1na2vs0mg"},{"bike_id":"c3bd47c1-a96b-4fd7-92c8-ca87441c8d4f","system_id":"levelo_inurba_marseille","lat":43.329905,"lon":5.39062,"is_reserved":false,"is_disabled":true,"rental_uris":{"android":"levelo://app?vid=c3bd47c1-a96b-4fd7-92c8-ca87441c8d4f","ios":"levelo://app?vid=c3bd47c1-a96b-4fd7-92c8-ca87441c8d4f"},"vehicle_type_id":"4","last_reported":1747225212,"current_range_meters":0,"station_id":"ce4bhr92rcd13ifvqhrg","pricing_plan_id":"cebpf4jnsgd1na2vs0mg"},{"bike_id":"eeedddb1-f46f-4afb-ae44-7b75c31951a6","system_id":"levelo_inurba_marseille","lat":43.278637,"lon":5.362827,"is_reserved":false,"is_disabled":true,"rental_uris":{"android":"levelo://app?vid=eeedddb1-f46f-4afb-ae44-7b75c31951a6","ios":"levelo://app?vid=eeedddb1-f46f-4afb-ae44-7b75c31951a6"},"vehicle_type_id":"4","last_reported":1747225212,"current_range_meters":1200,"station_id":"","pricing_plan_id":"cebpf4jnsgd1na2vs0mg"},{"bike_id":"c77f7b1e-d8b8-404c-b850-cbfe1d22c712","system_id":"levelo_inurba_marseille","lat":43.29413,"lon":5.38626,"is_reserved":false,"is_disabled":true,"rental_uris":{"android":"levelo://app?vid=c77f7b1e-d8b8-404c-b850-cbfe1d22c712","ios":"levelo://app?vid=c77f7b1e-d8b8-404c-b850-cbfe1d22c712"},"vehicle_type_id":"4","last_reported":1747225212,"current_range_meters":1200,"station_id":"ce4bh2h2rcd13ifvqdh0","pricing_plan_id":"cebpf4jnsgd1na2vs0mg"},{"bike_id":"fb406541-9228-428a-b7ec-44d5d83cf25b","system_id":"levelo_inurba_marseille","lat":43.28273,"lon":5.35076,"is_reserved":false,"is_disabled":true,"rental_uris":{"android":"levelo://app?vid=fb406541-9228-428a-b7ec-44d5d83cf25b","ios":"levelo://app?vid=fb406541-9228-428a-b7ec-44d5d83cf25b"},"vehicle_type_id":"4","last_reported":1747225212,"current_range_meters":1200,"station_id":"ce4bhbp2rcd13ifvqerg","pricing_plan_id":"cebpf4jnsgd1na2vs0mg"},{"bike_id":"2b34012d-c6d3-4a2c-9a90-6747abedfd1d","system_id":"levelo_inurba_marseille","lat":43.26556,"lon":5.37282,"is_reserved":false,"is_disabled":true,"rental_uris":{"android":"levelo://app?vid=2b34012d-c6d3-4a2c-9a90-6747abedfd1d","ios":"levelo://app?vid=2b34012d-c6d3-4a2c-9a90-6747abedfd1d"},"vehicle_type_id":"4","last_reported":1747225212,"current_range_meters":1200,"station_id":"ce4bhg12rcd13ifvqf70","pricing_plan_id":"cebpf4jnsgd1na2vs0mg"},{"bike_id":"144aa74c-778e-4156-b755-97098ba32e55","system_id":"levelo_inurba_marseille","lat":43.30934,"lon":5.40151,"is_reserved":false,"is_disabled":true,"rental_uris":{"android":"levelo://app?vid=144aa74c-778e-4156-b755-97098ba32e55","ios":"levelo://app?vid=144aa74c-778e-4156-b755-97098ba32e55"},"vehicle_type_id":"4","last_reported":1747225212,"current_range_meters":1600,"station_id":"ce4bgvp2rcd13ifvqct0","pricing_plan_id":"cebpf4jnsgd1na2vs0mg"},{"bike_id":"02a6fa92-0233-4078-8811-e31e7b28be06","system_id":"levelo_inurba_marseille","lat":43.29077,"lon":5.37163,"is_reserved":false,"is_disabled":true,"rental_uris":{"android":"levelo://app?vid=02a6fa92-0233-4078-8811-e31e7b28be06","ios":"levelo://app?vid=02a6fa92-0233-4078-8811-e31e7b28be06"},"vehicle_type_id":"4","last_reported":1747225212,"current_range_meters":1600,"station_id":"ce4bh5p2rcd13ifvqe4g","pricing_plan_id":"cebpf4jnsgd1na2vs0mg"},{"bike_id":"d18edaf7-6be4-4d90-9ec1-326c2ce1b436","system_id":"levelo_inurba_marseille","lat":43.270648,"lon":5.42275,"is_reserved":false,"is_disabled":true,"rental_uris":{"android":"levelo://app?vid=d18edaf7-6be4-4d90-9ec1-326c2ce1b436","ios":"levelo://app?vid=d18edaf7-6be4-4d90-9ec1-326c2ce1b436"},"vehicle_type_id":"4","last_reported":1747225212,"current_range_meters":1600,"station_id":"ce4bhk92rcd13ifvqgb0","pricing_plan_id":"cebpf4jnsgd1na2vs0mg"},{"bike_id":"6efd3604-8f5a-48bf-906e-808f1a899482","system_id":"levelo_inurba_marseille","lat":43.293055,"lon":5.374597,"is_reserved":false,"is_disabled":true,"rental_uris":{"android":"levelo://app?vid=6efd3604-8f5a-48bf-906e-808f1a899482","ios":"levelo://app?vid=6efd3604-8f5a-48bf-906e-808f1a899482"},"vehicle_type_id":"4","last_reported":1747225212,"current_range_meters":2000,"station_id":"ce4bgi12rcd13ifvqb70","pricing_plan_id":"cebpf4jnsgd1na2vs0mg"},{"bike_id":"d0b6d103-572a-4a27-8fe4-1558600e9184","system_id":"levelo_inurba_marseille","lat":43.29522,"lon":5.39042,"is_reserved":false,"is_disabled":true,"rental_uris":{"android":"levelo://app?vid=d0b6d103-572a-4a27-8fe4-1558600e9184","ios":"levelo://app?vid=d0b6d103-572a-4a27-8fe4-1558600e9184"},"vehicle_type_id":"4","last_reported":1747225212,"current_range_meters":2000,"station_id":"ce4bh3p2rcd13ifvqdp0","pricing_plan_id":"cebpf4jnsgd1na2vs0mg"},{"bike_id":"c035103b-5a06-4109-ab53-d59e108e51a0","system_id":"levelo_inurba_marseille","lat":43.28434,"lon":5.37495,"is_reserved":false,"is_disabled":true,"rental_uris":{"android":"levelo://app?vid=c035103b-5a06-4109-ab53-d59e108e51a0","ios":"levelo://app?vid=c035103b-5a06-4109-ab53-d59e108e51a0"},"vehicle_type_id":"4","last_reported":1747225212,"current_range_meters":2000,"station_id":"ce4bh412rcd13ifvqds0","pricing_plan_id":"cebpf4jnsgd1na2vs0mg"},{"bike_id":"9b5f89d6-cf6d-4e7b-be31-4c40751e3109","system_id":"levelo_inurba_marseille","lat":43.2718,"lon":5.4099,"is_reserved":false,"is_disabled":true,"rental_uris":{"android":"levelo://app?vid=9b5f89d6-cf6d-4e7b-be31-4c40751e3109","ios":"levelo://app?vid=9b5f89d6-cf6d-4e7b-be31-4c40751e3109"},"vehicle_type_id":"4","last_reported":1747225212,"current_range_meters":2000,"station_id":"ce4bhl12rcd13ifvqgf0","pricing_plan_id":"cebpf4jnsgd1na2vs0mg"},{"bike_id":"8c43dcf3-ae5e-4eac-829e-1cee45ce041a","system_id":"levelo_inurba_marseille","lat":43.29224,"lon":5.36144,"is_reserved":false,"is_disabled":false,"rental_uris":{"android":"levelo://app?vid=8c43dcf3-ae5e-4eac-829e-1cee45ce041a","ios":"levelo://app?vid=8c43dcf3-ae5e-4eac-829e-1cee45ce041a"},"vehicle_type_id":"4","last_reported":1747225212,"current_range_meters":2800,"station_id":"","pricing_plan_id":"cebpf4jnsgd1na2vs0mg"},{"bike_id":"57ddeb2b-38aa-457b-9ea6-1c47cf7c50f9","system_id":"levelo_inurba_marseille","lat":43.288,"lon":5.38234,"is_reserved":false,"is_disabled":false,"rental_uris":{"android":"levelo://app?vid=57ddeb2b-38aa-457b-9ea6-1c47cf7c50f9","ios":"levelo://app?vid=57ddeb2b-38aa-457b-9ea6-1c47cf7c50f9"},"vehicle_type_id":"4","last_reported":1747225212,"current_range_meters":3200,"station_id":"","pricing_plan_id":"cebpf4jnsgd1na2vs0mg"},{"bike_id":"65a5ddd9-c808-4bc8-a853-9554a83d4f0a","system_id":"levelo_inurba_marseille","lat":43.29005,"lon":5.35611,"is_reserved":false,"is_disabled":false,"rental_uris":{"android":"levelo://app?vid=65a5ddd9-c808-4bc8-a853-9554a83d4f0a","ios":"levelo://app?vid=65a5ddd9-c808-4bc8-a853-9554a83d4f0a"},"vehicle_type_id":"4","last_reported":1747225212,"current_range_meters":3200,"station_id":"ce4bhb92rcd13ifvqen0","pricing_plan_id":"cebpf4jnsgd1na2vs0mg"},{"bike_id":"e92ff524-f5aa-4297-ac27-82b0ec7b66ef","system_id":"levelo_inurba_marseille","lat":43.30302,"lon":5.39209,"is_reserved":false,"is_disabled":false,"rental_uris":{"android":"levelo://app?vid=e92ff524-f5aa-4297-ac27-82b0ec7b66ef","ios":"levelo://app?vid=e92ff524-f5aa-4297-ac27-82b0ec7b66ef"},"vehicle_type_id":"4","last_reported":1747225212,"current_range_meters":3600,"station_id":"ce4bgkh2rcd13ifvqbk0","pricing_plan_id":"cebpf4jnsgd1na2vs0mg"},{"bike_id":"6ec4bb85-84ec-4027-b206-4e608baac030","system_id":"levelo_inurba_marseille","lat":43.28075,"lon":5.39664,"is_reserved":false,"is_disabled":false,"rental_uris":{"android":"levelo://app?vid=6ec4bb85-84ec-4027-b206-4e608baac030","ios":"levelo://app?vid=6ec4bb85-84ec-4027-b206-4e608baac030"},"vehicle_type_id":"4","last_reported":1747225212,"current_range_meters":3600,"station_id":"ce4bho12rcd13ifvqh2g","pricing_plan_id":"cebpf4jnsgd1na2vs0mg"},{"bike_id":"298e765e-fa79-4f93-b3f9-dc9e95d7cf2b","system_id":"levelo_inurba_marseille","lat":43.306,"lon":5.372368,"is_reserved":false,"is_disabled":false,"rental_uris":{"android":"levelo://app?vid=298e765e-fa79-4f93-b3f9-dc9e95d7cf2b","ios":"levelo://app?vid=298e765e-fa79-4f93-b3f9-dc9e95d7cf2b"},"vehicle_type_id":"4","last_reported":1747225212,"current_range_meters":4000,"station_id":"ce4bgqh2rcd13ifvqc4g","pricing_plan_id":"cebpf4jnsgd1na2vs0mg"},{"bike_id":"7053d5ec-e7f0-4f93-980f-b79e4fa75658","system_id":"levelo_inurba_marseille","lat":43.290268,"lon":5.386477,"is_reserved":false,"is_disabled":false,"rental_uris":{"android":"levelo://app?vid=7053d5ec-e7f0-4f93-980f-b79e4fa75658","ios":"levelo://app?vid=7053d5ec-e7f0-4f93-980f-b79e4fa75658"},"vehicle_type_id":"4","last_reported":1747225212,"current_range_meters":4000,"station_id":"ce4bh4p2rcd13ifvqe0g","pricing_plan_id":"cebpf4jnsgd1na2vs0mg"},{"bike_id":"2d8ec351-b880-4982-96a0-538de188fc5f","system_id":"levelo_inurba_marseille","lat":43.267825,"lon":5.394213,"is_reserved":false,"is_disabled":false,"rental_uris":{"android":"levelo://app?vid=2d8ec351-b880-4982-96a0-538de188fc5f","ios":"levelo://app?vid=2d8ec351-b880-4982-96a0-538de188fc5f"},"vehicle_type_id":"4","last_reported":1747225212,"current_range_meters":4000,"station_id":"ce4bhh12rcd13ifvqfg0","pricing_plan_id":"cebpf4jnsgd1na2vs0mg"},{"bike_id":"f61d6bdd-c4f1-4f6d-b581-ea58987bcae0","system_id":"levelo_inurba_marseille","lat":43.231516,"lon":5.437034,"is_reserved":false,"is_disabled":false,"rental_uris":{"android":"levelo://app?vid=f61d6bdd-c4f1-4f6d-b581-ea58987bcae0","ios":"levelo://app?vid=f61d6bdd-c4f1-4f6d-b581-ea58987bcae0"},"vehicle_type_id":"4","last_reported":1747225212,"current_range_meters":4000,"station_id":"ce4bhmp2rcd13ifvqgog","pricing_plan_id":"cebpf4jnsgd1na2vs0mg"},{"bike_id":"b9aeaaff-a310-4ad4-a060-73a3a83d5947","system_id":"levelo_inurba_marseille","lat":43.26946,"lon":5.38639,"is_reserved":false,"is_disabled":false,"rental_uris":{"android":"levelo://app?vid=b9aeaaff-a310-4ad4-a060-73a3a83d5947","ios":"levelo://app?vid=b9aeaaff-a310-4ad4-a060-73a3a83d5947"},"vehicle_type_id":"4","last_reported":1747225212,"current_range_meters":4400,"station_id":"ce4bhh92rcd13ifvqfh0","pricing_plan_id":"cebpf4jnsgd1na2vs0mg"},{"bike_id":"0aa92dea-908a-44c3-a0ec-22882c1645e3","system_id":"levelo_inurba_marseille","lat":43.29895,"lon":5.39751,"is_reserved":false,"is_disabled":false,"rental_uris":{"android":"levelo://app?vid=0aa92dea-908a-44c3-a0ec-22882c1645e3","ios":"levelo://app?vid=0aa92dea-908a-44c3-a0ec-22882c1645e3"},"vehicle_type_id":"4","last_reported":1747225212,"current_range_meters":4800,"station_id":"ce4bh0h2rcd13ifvqd50","pricing_plan_id":"cebpf4jnsgd1na2vs0mg"},{"bike_id":"ec198eda-db4f-4d05-af27-2774d4bc0fe0","system_id":"levelo_inurba_marseille","lat":43.29042,"lon":5.3996,"is_reserved":false,"is_disabled":false,"rental_uris":{"android":"levelo://app?vid=ec198eda-db4f-4d05-af27-2774d4bc0fe0","ios":"levelo://app?vid=ec198eda-db4f-4d05-af27-2774d4bc0fe0"},"vehicle_type_id":"4","last_reported":1747225212,"current_range_meters":4800,"station_id":"ce4bh392rcd13ifvqdm0","pricing_plan_id":"cebpf4jnsgd1na2vs0mg"},{"bike_id":"6bbf72f9-3fa7-47f2-89c3-ee51e3b89801","system_id":"levelo_inurba_marseille","lat":43.2867,"lon":5.38674,"is_reserved":false,"is_disabled":false,"rental_uris":{"android":"levelo://app?vid=6bbf72f9-3fa7-47f2-89c3-ee51e3b89801","ios":"levelo://app?vid=6bbf72f9-3fa7-47f2-89c3-ee51e3b89801"},"vehicle_type_id":"4","last_reported":1747225212,"current_range_meters":4800,"station_id":"ce4bh492rcd13ifvqdug","pricing_plan_id":"cebpf4jnsgd1na2vs0mg"},{"bike_id":"01027039-e5ad-4ab6-a893-1879ff8ecda6","system_id":"levelo_inurba_marseille","lat":43.25111,"lon":5.40315,"is_reserved":false,"is_disabled":false,"rental_uris":{"android":"levelo://app?vid=01027039-e5ad-4ab6-a893-1879ff8ecda6","ios":"levelo://app?vid=01027039-e5ad-4ab6-a893-1879ff8ecda6"},"vehicle_type_id":"4","last_reported":1747225212,"current_range_meters":4800,"station_id":"ce4bhlh2rcd13ifvqgig","pricing_plan_id":"cebpf4jnsgd1na2vs0mg"},{"bike_id":"55f6896d-3378-4df4-9008-c3c5d82b9659","system_id":"levelo_inurba_marseille","lat":43.23181,"lon":5.39996,"is_reserved":false,"is_disabled":false,"rental_uris":{"android":"levelo://app?vid=55f6896d-3378-4df4-9008-c3c5d82b9659","ios":"levelo://app?vid=55f6896d-3378-4df4-9008-c3c5d82b9659"},"vehicle_type_id":"4","last_reported":1747225212,"current_range_meters":4800,"station_id":"ce4bhn12rcd13ifvqgqg","pricing_plan_id":"cebpf4jnsgd1na2vs0mg"},{"bike_id":"e42e17e5-d574-40b9-811b-e914acd6632f","system_id":"levelo_inurba_marseille","lat":43.23051,"lon":5.35498,"is_reserved":false,"is_disabled":false,"rental_uris":{"android":"levelo://app?vid=e42e17e5-d574-40b9-811b-e914acd6632f","ios":"levelo://app?vid=e42e17e5-d574-40b9-811b-e914acd6632f"},"vehicle_type_id":"4","last_reported":1747225212,"current_range_meters":4800,"station_id":"cpo3342slgdg3j2ifvpg","pricing_plan_id":"cebpf4jnsgd1na2vs0mg"},{"bike_id":"349c9fa6-fa8b-48a1-967b-02fd0cdca6e4","system_id":"levelo_inurba_marseille","lat":43.30885,"lon":5.39659,"is_reserved":false,"is_disabled":false,"rental_uris":{"android":"levelo://app?vid=349c9fa6-fa8b-48a1-967b-02fd0cdca6e4","ios":"levelo://app?vid=349c9fa6-fa8b-48a1-967b-02fd0cdca6e4"},"vehicle_type_id":"4","last_reported":1747225212,"current_range_meters":6000,"station_id":"ce4bh012rcd13ifvqcv0","pricing_plan_id":"cebpf4jnsgd1na2vs0mg"},{"bike_id":"22314cb5-11f2-4604-a5a5-9d4d7504b3d9","system_id":"levelo_inurba_marseille","lat":43.23173,"lon":5.43657,"is_reserved":false,"is_disabled":false,"rental_uris":{"android":"levelo://app?vid=22314cb5-11f2-4604-a5a5-9d4d7504b3d9","ios":"levelo://app?vid=22314cb5-11f2-4604-a5a5-9d4d7504b3d9"},"vehicle_type_id":"4","last_reported":1747225212,"current_range_meters":6000,"station_id":"ce4bhmp2rcd13ifvqgog","pricing_plan_id":"cebpf4jnsgd1na2vs0mg"},{"bike_id":"ce4325af-2448-4172-bdec-81d552ee0b62","system_id":"levelo_inurba_marseille","lat":43.26178,"lon":5.42024,"is_reserved":false,"is_disabled":false,"rental_uris":{"android":"levelo://app?vid=ce4325af-2448-4172-bdec-81d552ee0b62","ios":"levelo://app?vid=ce4325af-2448-4172-bdec-81d552ee0b62"},"vehicle_type_id":"4","last_reported":1747225212,"current_range_meters":6400,"station_id":"","pricing_plan_id":"cebpf4jnsgd1na2vs0mg"},{"bike_id":"5919d4cf-ce67-4acb-8a41-626bed0926d2","system_id":"levelo_inurba_marseille","lat":43.30145,"lon":5.3988,"is_reserved":false,"is_disabled":false,"rental_uris":{"android":"levelo://app?vid=5919d4cf-ce67-4acb-8a41-626bed0926d2","ios":"levelo://app?vid=5919d4cf-ce67-4acb-8a41-626bed0926d2"},"vehicle_type_id":"4","last_reported":1747225212,"current_range_meters":6400,"station_id":"ce4bh0h2rcd13ifvqd40","pricing_plan_id":"cebpf4jnsgd1na2vs0mg"},{"bike_id":"dd1a727e-1dc2-4496-a48c-1180df9f1a61","system_id":"levelo_inurba_marseille","lat":43.29263,"lon":5.38426,"is_reserved":false,"is_disabled":false,"rental_uris":{"android":"levelo://app?vid=dd1a727e-1dc2-4496-a48c-1180df9f1a61","ios":"levelo://app?vid=dd1a727e-1dc2-4496-a48c-1180df9f1a61"},"vehicle_type_id":"4","last_reported":1747225212,"current_range_meters":6400,"station_id":"ce4bh692rcd13ifvqea0","pricing_plan_id":"cebpf4jnsgd1na2vs0mg"},{"bike_id":"56bea2d5-1851-4bc0-b9ec-2abbd891bd8c","system_id":"levelo_inurba_marseille","lat":43.24169,"lon":5.36388,"is_reserved":false,"is_disabled":false,"rental_uris":{"android":"levelo://app?vid=56bea2d5-1851-4bc0-b9ec-2abbd891bd8c","ios":"levelo://app?vid=56bea2d5-1851-4bc0-b9ec-2abbd891bd8c"},"vehicle_type_id":"4","last_reported":1747225212,"current_range_meters":6400,"station_id":"cpo36qri1sfpv3e86is0","pricing_plan_id":"cebpf4jnsgd1na2vs0mg"},{"bike_id":"fe642c39-20f6-4f93-82da-c88350a06dc4","system_id":"levelo_inurba_marseille","lat":43.296934,"lon":5.377756,"is_reserved":false,"is_disabled":false,"rental_uris":{"android":"levelo://app?vid=fe642c39-20f6-4f93-82da-c88350a06dc4","ios":"levelo://app?vid=fe642c39-20f6-4f93-82da-c88350a06dc4"},"vehicle_type_id":"4","last_reported":1747225212,"current_range_meters":6800,"station_id":"ce4bgkh2rcd13ifvqbl0","pricing_plan_id":"cebpf4jnsgd1na2vs0mg"},{"bike_id":"3b763487-9989-4bfd-963d-7d6731a25421","system_id":"levelo_inurba_marseille","lat":43.305436,"lon":5.366931,"is_reserved":false,"is_disabled":false,"rental_uris":{"android":"levelo://app?vid=3b763487-9989-4bfd-963d-7d6731a25421","ios":"levelo://app?vid=3b763487-9989-4bfd-963d-7d6731a25421"},"vehicle_type_id":"4","last_reported":1747225212,"current_range_meters":6800,"station_id":"ce4bgrp2rcd13ifvqc9g","pricing_plan_id":"cebpf4jnsgd1na2vs0mg"},{"bike_id":"91ec453e-4b86-48c2-940e-6a9d67d81d13","system_id":"levelo_inurba_marseille","lat":43.23964,"lon":5.36639,"is_reserved":false,"is_disabled":false,"rental_uris":{"android":"levelo://app?vid=91ec453e-4b86-48c2-940e-6a9d67d81d13","ios":"levelo://app?vid=91ec453e-4b86-48c2-940e-6a9d67d81d13"},"vehicle_type_id":"4","last_reported":1747225212,"current_range_meters":6800,"station_id":"ce4bhi12rcd13ifvqfp0","pricing_plan_id":"cebpf4jnsgd1na2vs0mg"},{"bike_id":"134a89ce-f753-43dc-889c-6928be5ff929","system_id":"levelo_inurba_marseille","lat":43.25863,"lon":5.39894,"is_reserved":false,"is_disabled":false,"rental_uris":{"android":"levelo://app?vid=134a89ce-f753-43dc-889c-6928be5ff929","ios":"levelo://app?vid=134a89ce-f753-43dc-889c-6928be5ff929"},"vehicle_type_id":"4","last_reported":1747225212,"current_range_meters":6800,"station_id":"ce4bhl92rcd13ifvqghg","pricing_plan_id":"cebpf4jnsgd1na2vs0mg"},{"bike_id":"3f40cce7-bfb2-4d47-a25b-e48f7902c1e3","system_id":"levelo_inurba_marseille","lat":43.23151,"lon":5.43692,"is_reserved":false,"is_disabled":false,"rental_uris":{"android":"levelo://app?vid=3f40cce7-bfb2-4d47-a25b-e48f7902c1e3","ios":"levelo://app?vid=3f40cce7-bfb2-4d47-a25b-e48f7902c1e3"},"vehicle_type_id":"4","last_reported":1747225212,"current_range_meters":6800,"station_id":"ce4bhmp2rcd13ifvqgog","pricing_plan_id":"cebpf4jnsgd1na2vs0mg"},{"bike_id":"5de1e8df-cec1-47cf-b554-41f6e726d337","system_id":"levelo_inurba_marseille","lat":43.27402,"lon":5.40616,"is_reserved":false,"is_disabled":false,"rental_uris":{"android":"levelo://app?vid=5de1e8df-cec1-47cf-b554-41f6e726d337","ios":"levelo://app?vid=5de1e8df-cec1-47cf-b554-41f6e726d337"},"vehicle_type_id":"4","last_reported":1747225212,"current_range_meters":8000,"station_id":"","pricing_plan_id":"cebpf4jnsgd1na2vs0mg"},{"bike_id":"91101bf9-cb7a-4b61-be73-d6e13bcbb7e3","system_id":"levelo_inurba_marseille","lat":43.29973,"lon":5.385,"is_reserved":false,"is_disabled":false,"rental_uris":{"android":"levelo://app?vid=91101bf9-cb7a-4b61-be73-d6e13bcbb7e3","ios":"levelo://app?vid=91101bf9-cb7a-4b61-be73-d6e13bcbb7e3"},"vehicle_type_id":"4","last_reported":1747225212,"current_range_meters":8000,"station_id":"ce4bgj92rcd13ifvqbd0","pricing_plan_id":"cebpf4jnsgd1na2vs0mg"},{"bike_id":"05bc5ce2-beeb-49de-a8c2-97643c97d2cf","system_id":"levelo_inurba_marseille","lat":43.30295,"lon":5.39219,"is_reserved":false,"is_disabled":false,"rental_uris":{"android":"levelo://app?vid=05bc5ce2-beeb-49de-a8c2-97643c97d2cf","ios":"levelo://app?vid=05bc5ce2-beeb-49de-a8c2-97643c97d2cf"},"vehicle_type_id":"4","last_reported":1747225212,"current_range_meters":8000,"station_id":"ce4bgkh2rcd13ifvqbk0","pricing_plan_id":"cebpf4jnsgd1na2vs0mg"},{"bike_id":"f37b7848-b34f-4203-8cd6-ee4ac88ff930","system_id":"levelo_inurba_marseille","lat":43.23952,"lon":5.36626,"is_reserved":false,"is_disabled":false,"rental_uris":{"android":"levelo://app?vid=f37b7848-b34f-4203-8cd6-ee4ac88ff930","ios":"levelo://app?vid=f37b7848-b34f-4203-8cd6-ee4ac88ff930"},"vehicle_type_id":"4","last_reported":1747225212,"current_range_meters":8000,"station_id":"ce4bhi12rcd13ifvqfp0","pricing_plan_id":"cebpf4jnsgd1na2vs0mg"},{"bike_id":"bf9a4507-0806-4935-903f-73e55376c212","system_id":"levelo_inurba_marseille","lat":43.30903,"lon":5.37272,"is_reserved":false,"is_disabled":false,"rental_uris":{"android":"levelo://app?vid=bf9a4507-0806-4935-903f-73e55376c212","ios":"levelo://app?vid=bf9a4507-0806-4935-903f-73e55376c212"},"vehicle_type_id":"4","last_reported":1747225212,"current_range_meters":8400,"station_id":"","pricing_plan_id":"cebpf4jnsgd1na2vs0mg"},{"bike_id":"8f9c3147-ea48-42c0-8b59-f0e5d4a42769","system_id":"levelo_inurba_marseille","lat":43.25122,"lon":5.4032,"is_reserved":false,"is_disabled":false,"rental_uris":{"android":"levelo://app?vid=8f9c3147-ea48-42c0-8b59-f0e5d4a42769","ios":"levelo://app?vid=8f9c3147-ea48-42c0-8b59-f0e5d4a42769"},"vehicle_type_id":"4","last_reported":1747225212,"current_range_meters":8400,"station_id":"ce4bhlh2rcd13ifvqgig","pricing_plan_id":"cebpf4jnsgd1na2vs0mg"},{"bike_id":"0fb80928-fa44-41ef-9567-33ac437f231b","system_id":"levelo_inurba_marseille","lat":43.24079,"lon":5.37756,"is_reserved":false,"is_disabled":false,"rental_uris":{"android":"levelo://app?vid=0fb80928-fa44-41ef-9567-33ac437f231b","ios":"levelo://app?vid=0fb80928-fa44-41ef-9567-33ac437f231b"},"vehicle_type_id":"4","last_reported":1747225212,"current_range_meters":8400,"station_id":"ce4bhnp2rcd13ifvqgvg","pricing_plan_id":"cebpf4jnsgd1na2vs0mg"},{"bike_id":"9e70a992-4894-464d-9d6b-ec6e6d009d56","system_id":"levelo_inurba_marseille","lat":43.2794,"lon":5.4105,"is_reserved":false,"is_disabled":false,"rental_uris":{"android":"levelo://app?vid=9e70a992-4894-464d-9d6b-ec6e6d009d56","ios":"levelo://app?vid=9e70a992-4894-464d-9d6b-ec6e6d009d56"},"vehicle_type_id":"4","last_reported":1747225212,"current_range_meters":8400,"station_id":"ce4bhnp2rcd13ifvqh0g","pricing_plan_id":"cebpf4jnsgd1na2vs0mg"},{"bike_id":"50ed959c-0f11-4615-92ad-8bae5d12375f","system_id":"levelo_inurba_marseille","lat":43.23059,"lon":5.3549,"is_reserved":false,"is_disabled":false,"rental_uris":{"android":"levelo://app?vid=50ed959c-0f11-4615-92ad-8bae5d12375f","ios":"levelo://app?vid=50ed959c-0f11-4615-92ad-8bae5d12375f"},"vehicle_type_id":"4","last_reported":1747225212,"current_range_meters":8400,"station_id":"cpo3342slgdg3j2ifvpg","pricing_plan_id":"cebpf4jnsgd1na2vs0mg"},{"bike_id":"c87c350c-2cc6-4fc6-8be3-5c1c0d9052fa","system_id":"levelo_inurba_marseille","lat":43.31163,"lon":5.3872,"is_reserved":false,"is_disabled":false,"rental_uris":{"android":"levelo://app?vid=c87c350c-2cc6-4fc6-8be3-5c1c0d9052fa","ios":"levelo://app?vid=c87c350c-2cc6-4fc6-8be3-5c1c0d9052fa"},"vehicle_type_id":"4","last_reported":1747225212,"current_range_meters":8800,"station_id":"ce4bgv12rcd13ifvqcp0","pricing_plan_id":"cebpf4jnsgd1na2vs0mg"},{"bike_id":"8c810191-1bef-4591-b679-b2f5b89539b7","system_id":"levelo_inurba_marseille","lat":43.28351,"lon":5.381,"is_reserved":false,"is_disabled":false,"rental_uris":{"android":"levelo://app?vid=8c810191-1bef-4591-b679-b2f5b89539b7","ios":"levelo://app?vid=8c810191-1bef-4591-b679-b2f5b89539b7"},"vehicle_type_id":"4","last_reported":1747225212,"current_range_meters":8800,"station_id":"ce4bh412rcd13ifvqdr0","pricing_plan_id":"cebpf4jnsgd1na2vs0mg"},{"bike_id":"42287b16-cbe7-4197-950f-69f26f74dc29","system_id":"levelo_inurba_marseille","lat":43.28938,"lon":5.38382,"is_reserved":false,"is_disabled":false,"rental_uris":{"android":"levelo://app?vid=42287b16-cbe7-4197-950f-69f26f74dc29","ios":"levelo://app?vid=42287b16-cbe7-4197-950f-69f26f74dc29"},"vehicle_type_id":"4","last_reported":1747225212,"current_range_meters":8800,"station_id":"ce4bh612rcd13ifvqe6g","pricing_plan_id":"cebpf4jnsgd1na2vs0mg"},{"bike_id":"a6a8b199-d111-42f1-ac0c-84ecc62044eb","system_id":"levelo_inurba_marseille","lat":43.26951,"lon":5.40254,"is_reserved":false,"is_disabled":false,"rental_uris":{"android":"levelo://app?vid=a6a8b199-d111-42f1-ac0c-84ecc62044eb","ios":"levelo://app?vid=a6a8b199-d111-42f1-ac0c-84ecc62044eb"},"vehicle_type_id":"4","last_reported":1747225212,"current_range_meters":8800,"station_id":"cjm6bp8fraef2m0cb0m0","pricing_plan_id":"cebpf4jnsgd1na2vs0mg"},{"bike_id":"6c5e2750-bf55-4812-bb81-a9df60873a61","system_id":"levelo_inurba_marseille","lat":43.29659,"lon":5.36194,"is_reserved":false,"is_disabled":false,"rental_uris":{"android":"levelo://app?vid=6c5e2750-bf55-4812-bb81-a9df60873a61","ios":"levelo://app?vid=6c5e2750-bf55-4812-bb81-a9df60873a61"},"vehicle_type_id":"4","last_reported":1747225212,"current_range_meters":9200,"station_id":"","pricing_plan_id":"cebpf4jnsgd1na2vs0mg"},{"bike_id":"457b3357-3602-4d0c-b5a8-f5980ae4013e","system_id":"levelo_inurba_marseille","lat":43.28932,"lon":5.39614,"is_reserved":false,"is_disabled":false,"rental_uris":{"android":"levelo://app?vid=457b3357-3602-4d0c-b5a8-f5980ae4013e","ios":"levelo://app?vid=457b3357-3602-4d0c-b5a8-f5980ae4013e"},"vehicle_type_id":"4","last_reported":1747225212,"current_range_meters":9200,"station_id":"ce4bh3h2rcd13ifvqdn0","pricing_plan_id":"cebpf4jnsgd1na2vs0mg"},{"bike_id":"3a0b3a18-2c0d-4f0b-948b-a75007e59db7","system_id":"levelo_inurba_marseille","lat":43.28358,"lon":5.38101,"is_reserved":false,"is_disabled":false,"rental_uris":{"android":"levelo://app?vid=3a0b3a18-2c0d-4f0b-948b-a75007e59db7","ios":"levelo://app?vid=3a0b3a18-2c0d-4f0b-948b-a75007e59db7"},"vehicle_type_id":"4","last_reported":1747225212,"current_range_meters":9200,"station_id":"ce4bh412rcd13ifvqdr0","pricing_plan_id":"cebpf4jnsgd1na2vs0mg"},{"bike_id":"df01bf56-fa20-408c-a8ef-c07192a995ae","system_id":"levelo_inurba_marseille","lat":43.23148,"lon":5.43715,"is_reserved":false,"is_disabled":false,"rental_uris":{"android":"levelo://app?vid=df01bf56-fa20-408c-a8ef-c07192a995ae","ios":"levelo://app?vid=df01bf56-fa20-408c-a8ef-c07192a995ae"},"vehicle_type_id":"4","last_reported":1747225212,"current_range_meters":9200,"station_id":"ce4bhmp2rcd13ifvqgog","pricing_plan_id":"cebpf4jnsgd1na2vs0mg"},{"bike_id":"38ba12b6-39e4-4699-9c17-d8c8f89e58a5","system_id":"levelo_inurba_marseille","lat":43.324761,"lon":5.365571,"is_reserved":false,"is_disabled":false,"rental_uris":{"android":"levelo://app?vid=38ba12b6-39e4-4699-9c17-d8c8f89e58a5","ios":"levelo://app?vid=38ba12b6-39e4-4699-9c17-d8c8f89e58a5"},"vehicle_type_id":"4","last_reported":1747225212,"current_range_meters":9200,"station_id":"ce4bhs12rcd13ifvqhvg","pricing_plan_id":"cebpf4jnsgd1na2vs0mg"},{"bike_id":"59af256a-7624-40fc-aea1-4d80b2b595fc","system_id":"levelo_inurba_marseille","lat":43.31115,"lon":5.40041,"is_reserved":false,"is_disabled":false,"rental_uris":{"android":"levelo://app?vid=59af256a-7624-40fc-aea1-4d80b2b595fc","ios":"levelo://app?vid=59af256a-7624-40fc-aea1-4d80b2b595fc"},"vehicle_type_id":"4","last_reported":1747225212,"current_range_meters":9600,"station_id":"","pricing_plan_id":"cebpf4jnsgd1na2vs0mg"},{"bike_id":"44c41caa-4dd8-4f97-9308-0ff354652beb","system_id":"levelo_inurba_marseille","lat":43.29202,"lon":5.39323,"is_reserved":false,"is_disabled":false,"rental_uris":{"android":"levelo://app?vid=44c41caa-4dd8-4f97-9308-0ff354652beb","ios":"levelo://app?vid=44c41caa-4dd8-4f97-9308-0ff354652beb"},"vehicle_type_id":"4","last_reported":1747225212,"current_range_meters":9600,"station_id":"ce4bh192rcd13ifvqdd0","pricing_plan_id":"cebpf4jnsgd1na2vs0mg"},{"bike_id":"61c8a0cb-5cf9-412b-87c3-c9831df75fec","system_id":"levelo_inurba_marseille","lat":43.28937,"lon":5.39629,"is_reserved":false,"is_disabled":false,"rental_uris":{"android":"levelo://app?vid=61c8a0cb-5cf9-412b-87c3-c9831df75fec","ios":"levelo://app?vid=61c8a0cb-5cf9-412b-87c3-c9831df75fec"},"vehicle_type_id":"4","last_reported":1747225212,"current_range_meters":9600,"station_id":"ce4bh3h2rcd13ifvqdn0","pricing_plan_id":"cebpf4jnsgd1na2vs0mg"},{"bike_id":"1ad0190b-6ea8-4408-b21b-9f1c9328b9c1","system_id":"levelo_inurba_marseille","lat":43.29022,"lon":5.38131,"is_reserved":false,"is_disabled":false,"rental_uris":{"android":"levelo://app?vid=1ad0190b-6ea8-4408-b21b-9f1c9328b9c1","ios":"levelo://app?vid=1ad0190b-6ea8-4408-b21b-9f1c9328b9c1"},"vehicle_type_id":"4","last_reported":1747225212,"current_range_meters":9600,"station_id":"ce4bh4p2rcd13ifvqe1g","pricing_plan_id":"cebpf4jnsgd1na2vs0mg"},{"bike_id":"3d285257-0958-426b-ba82-5512fc6e8961","system_id":"levelo_inurba_marseille","lat":43.2916,"lon":5.37173,"is_reserved":false,"is_disabled":false,"rental_uris":{"android":"levelo://app?vid=3d285257-0958-426b-ba82-5512fc6e8961","ios":"levelo://app?vid=3d285257-0958-426b-ba82-5512fc6e8961"},"vehicle_type_id":"4","last_reported":1747225212,"current_range_meters":9600,"station_id":"ce4bha92rcd13ifvqeh0","pricing_plan_id":"cebpf4jnsgd1na2vs0mg"},{"bike_id":"29da195a-23e3-480c-b01e-b147eecbc0a4","system_id":"levelo_inurba_marseille","lat":43.27364,"lon":5.36248,"is_reserved":false,"is_disabled":false,"rental_uris":{"android":"levelo://app?vid=29da195a-23e3-480c-b01e-b147eecbc0a4","ios":"levelo://app?vid=29da195a-23e3-480c-b01e-b147eecbc0a4"},"vehicle_type_id":"4","last_reported":1747225212,"current_range_meters":9600,"station_id":"ce4bhbh2rcd13ifvqeo0","pricing_plan_id":"cebpf4jnsgd1na2vs0mg"},{"bike_id":"1f8dc911-40cf-4891-a3dd-b30f24c9fa87","system_id":"levelo_inurba_marseille","lat":43.23164,"lon":5.43702,"is_reserved":false,"is_disabled":false,"rental_uris":{"android":"levelo://app?vid=1f8dc911-40cf-4891-a3dd-b30f24c9fa87","ios":"levelo://app?vid=1f8dc911-40cf-4891-a3dd-b30f24c9fa87"},"vehicle_type_id":"4","last_reported":1747225212,"current_range_meters":9600,"station_id":"ce4bhmp2rcd13ifvqgog","pricing_plan_id":"cebpf4jnsgd1na2vs0mg"},{"bike_id":"e6ae43cc-bfd1-4764-9a04-fdcacfe6e804","system_id":"levelo_inurba_marseille","lat":43.32519,"lon":5.41437,"is_reserved":false,"is_disabled":false,"rental_uris":{"android":"levelo://app?vid=e6ae43cc-bfd1-4764-9a04-fdcacfe6e804","ios":"levelo://app?vid=e6ae43cc-bfd1-4764-9a04-fdcacfe6e804"},"vehicle_type_id":"4","last_reported":1747225212,"current_range_meters":9600,"station_id":"ce4bhq12rcd13ifvqhhg","pricing_plan_id":"cebpf4jnsgd1na2vs0mg"},{"bike_id":"d559a899-b1bd-4a71-a12e-4458bcd0cdbf","system_id":"levelo_inurba_marseille","lat":43.230586,"lon":5.354896,"is_reserved":false,"is_disabled":false,"rental_uris":{"android":"levelo://app?vid=d559a899-b1bd-4a71-a12e-4458bcd0cdbf","ios":"levelo://app?vid=d559a899-b1bd-4a71-a12e-4458bcd0cdbf"},"vehicle_type_id":"4","last_reported":1747225212,"current_range_meters":9600,"station_id":"cpo3342slgdg3j2ifvpg","pricing_plan_id":"cebpf4jnsgd1na2vs0mg"},{"bike_id":"bb936c22-70bc-42b6-a85c-71c55f96cbeb","system_id":"levelo_inurba_marseille","lat":43.29613,"lon":5.38091,"is_reserved":false,"is_disabled":false,"rental_uris":{"android":"levelo://app?vid=bb936c22-70bc-42b6-a85c-71c55f96cbeb","ios":"levelo://app?vid=bb936c22-70bc-42b6-a85c-71c55f96cbeb"},"vehicle_type_id":"4","last_reported":1747225212,"current_range_meters":10000,"station_id":"ce4bgl12rcd13ifvqbo0","pricing_plan_id":"cebpf4jnsgd1na2vs0mg"},{"bike_id":"d178281d-c760-4de5-b15e-ea99ec3e145c","system_id":"levelo_inurba_marseille","lat":43.28687,"lon":5.37392,"is_reserved":false,"is_disabled":false,"rental_uris":{"android":"levelo://app?vid=d178281d-c760-4de5-b15e-ea99ec3e145c","ios":"levelo://app?vid=d178281d-c760-4de5-b15e-ea99ec3e145c"},"vehicle_type_id":"4","last_reported":1747225212,"current_range_meters":10000,"station_id":"ce4bh3p2rcd13ifvqdq0","pricing_plan_id":"cebpf4jnsgd1na2vs0mg"},{"bike_id":"e75bb06d-19ec-48a6-916b-76dfcf0e9acd","system_id":"levelo_inurba_marseille","lat":43.2909,"lon":5.38156,"is_reserved":false,"is_disabled":false,"rental_uris":{"android":"levelo://app?vid=e75bb06d-19ec-48a6-916b-76dfcf0e9acd","ios":"levelo://app?vid=e75bb06d-19ec-48a6-916b-76dfcf0e9acd"},"vehicle_type_id":"4","last_reported":1747225212,"current_range_meters":10000,"station_id":"ce4bh512rcd13ifvqe2g","pricing_plan_id":"cebpf4jnsgd1na2vs0mg"},{"bike_id":"a814c983-1f89-4cf8-90eb-271d5529b556","system_id":"levelo_inurba_marseille","lat":43.27981,"lon":5.38755,"is_reserved":false,"is_disabled":false,"rental_uris":{"android":"levelo://app?vid=a814c983-1f89-4cf8-90eb-271d5529b556","ios":"levelo://app?vid=a814c983-1f89-4cf8-90eb-271d5529b556"},"vehicle_type_id":"4","last_reported":1747225212,"current_range_meters":10000,"station_id":"ce4bhg12rcd13ifvqf80","pricing_plan_id":"cebpf4jnsgd1na2vs0mg"},{"bike_id":"b620f93f-bf5c-4c12-bb04-359748e05f31","system_id":"levelo_inurba_marseille","lat":43.25088,"lon":5.39523,"is_reserved":false,"is_disabled":false,"rental_uris":{"android":"levelo://app?vid=b620f93f-bf5c-4c12-bb04-359748e05f31","ios":"levelo://app?vid=b620f93f-bf5c-4c12-bb04-359748e05f31"},"vehicle_type_id":"4","last_reported":1747225212,"current_range_meters":10000,"station_id":"ce4bhm12rcd13ifvqgkg","pricing_plan_id":"cebpf4jnsgd1na2vs0mg"},{"bike_id":"ecd26ce9-592b-4c5c-a9e0-2196cc8eccdb","system_id":"levelo_inurba_marseille","lat":43.23178,"lon":5.39987,"is_reserved":false,"is_disabled":false,"rental_uris":{"android":"levelo://app?vid=ecd26ce9-592b-4c5c-a9e0-2196cc8eccdb","ios":"levelo://app?vid=ecd26ce9-592b-4c5c-a9e0-2196cc8eccdb"},"vehicle_type_id":"4","last_reported":1747225212,"current_range_meters":10000,"station_id":"ce4bhn12rcd13ifvqgqg","pricing_plan_id":"cebpf4jnsgd1na2vs0mg"},{"bike_id":"244e834b-dc98-4a69-b68d-6e0f3edb4263","system_id":"levelo_inurba_marseille","lat":43.26951,"lon":5.40251,"is_reserved":false,"is_disabled":false,"rental_uris":{"android":"levelo://app?vid=244e834b-dc98-4a69-b68d-6e0f3edb4263","ios":"levelo://app?vid=244e834b-dc98-4a69-b68d-6e0f3edb4263"},"vehicle_type_id":"4","last_reported":1747225212,"current_range_meters":10000,"station_id":"cjm6bp8fraef2m0cb0m0","pricing_plan_id":"cebpf4jnsgd1na2vs0mg"},{"bike_id":"7c5b137a-36df-4138-8d44-c04cdab81301","system_id":"levelo_inurba_marseille","lat":43.28848,"lon":5.39315,"is_reserved":false,"is_disabled":false,"rental_uris":{"android":"levelo://app?vid=7c5b137a-36df-4138-8d44-c04cdab81301","ios":"levelo://app?vid=7c5b137a-36df-4138-8d44-c04cdab81301"},"vehicle_type_id":"4","last_reported":1747225212,"current_range_meters":10800,"station_id":"ce4bh2p2rcd13ifvqdi0","pricing_plan_id":"cebpf4jnsgd1na2vs0mg"},{"bike_id":"8bbfce79-2f35-4216-8d70-2bc24cdb132c","system_id":"levelo_inurba_marseille","lat":43.27919,"lon":5.39567,"is_reserved":false,"is_disabled":false,"rental_uris":{"android":"levelo://app?vid=8bbfce79-2f35-4216-8d70-2bc24cdb132c","ios":"levelo://app?vid=8bbfce79-2f35-4216-8d70-2bc24cdb132c"},"vehicle_type_id":"4","last_reported":1747225212,"current_range_meters":10800,"station_id":"ce4bhf92rcd13ifvqf40","pricing_plan_id":"cebpf4jnsgd1na2vs0mg"},{"bike_id":"789c8c19-5ddb-4924-9b9c-148eecf21085","system_id":"levelo_inurba_marseille","lat":43.26024,"lon":5.37549,"is_reserved":false,"is_disabled":false,"rental_uris":{"android":"levelo://app?vid=789c8c19-5ddb-4924-9b9c-148eecf21085","ios":"levelo://app?vid=789c8c19-5ddb-4924-9b9c-148eecf21085"},"vehicle_type_id":"4","last_reported":1747225212,"current_range_meters":10800,"station_id":"ce4bhgh2rcd13ifvqfa0","pricing_plan_id":"cebpf4jnsgd1na2vs0mg"},{"bike_id":"2d9c08c0-bf40-45c9-b1a8-d15c183a79bf","system_id":"levelo_inurba_marseille","lat":43.24186,"lon":5.39737,"is_reserved":false,"is_disabled":false,"rental_uris":{"android":"levelo://app?vid=2d9c08c0-bf40-45c9-b1a8-d15c183a79bf","ios":"levelo://app?vid=2d9c08c0-bf40-45c9-b1a8-d15c183a79bf"},"vehicle_type_id":"4","last_reported":1747225212,"current_range_meters":10800,"station_id":"ce4bhn12rcd13ifvqgpg","pricing_plan_id":"cebpf4jnsgd1na2vs0mg"},{"bike_id":"970b296e-c927-4bfc-89cc-9f289cee04a0","system_id":"levelo_inurba_marseille","lat":43.321096,"lon":5.3676,"is_reserved":false,"is_disabled":false,"rental_uris":{"android":"levelo://app?vid=970b296e-c927-4bfc-89cc-9f289cee04a0","ios":"levelo://app?vid=970b296e-c927-4bfc-89cc-9f289cee04a0"},"vehicle_type_id":"4","last_reported":1747225212,"current_range_meters":10800,"station_id":"ce4bhrh2rcd13ifvqhug","pricing_plan_id":"cebpf4jnsgd1na2vs0mg"},{"bike_id":"ac2d63e1-97f3-4ec1-b8b7-f1be48b399e7","system_id":"levelo_inurba_marseille","lat":43.31221,"lon":5.36857,"is_reserved":false,"is_disabled":false,"rental_uris":{"android":"levelo://app?vid=ac2d63e1-97f3-4ec1-b8b7-f1be48b399e7","ios":"levelo://app?vid=ac2d63e1-97f3-4ec1-b8b7-f1be48b399e7"},"vehicle_type_id":"4","last_reported":1747225212,"current_range_meters":11200,"station_id":"ce4bgl92rcd13ifvqbq0","pricing_plan_id":"cebpf4jnsgd1na2vs0mg"},{"bike_id":"99490028-b541-48b9-be46-992f35bf4118","system_id":"levelo_inurba_marseille","lat":43.2439,"lon":5.37055,"is_reserved":false,"is_disabled":false,"rental_uris":{"android":"levelo://app?vid=99490028-b541-48b9-be46-992f35bf4118","ios":"levelo://app?vid=99490028-b541-48b9-be46-992f35bf4118"},"vehicle_type_id":"4","last_reported":1747225212,"current_range_meters":11200,"station_id":"ce4bhhh2rcd13ifvqfk0","pricing_plan_id":"cebpf4jnsgd1na2vs0mg"},{"bike_id":"45cd3168-9d91-47df-b3a8-3a2e83ff8fd8","system_id":"levelo_inurba_marseille","lat":43.23152,"lon":5.43719,"is_reserved":false,"is_disabled":false,"rental_uris":{"android":"levelo://app?vid=45cd3168-9d91-47df-b3a8-3a2e83ff8fd8","ios":"levelo://app?vid=45cd3168-9d91-47df-b3a8-3a2e83ff8fd8"},"vehicle_type_id":"4","last_reported":1747225212,"current_range_meters":11200,"station_id":"ce4bhmp2rcd13ifvqgog","pricing_plan_id":"cebpf4jnsgd1na2vs0mg"},{"bike_id":"5474f6e1-bc67-4df6-8c23-b69caee830ba","system_id":"levelo_inurba_marseille","lat":43.29533,"lon":5.38547,"is_reserved":false,"is_disabled":false,"rental_uris":{"android":"levelo://app?vid=5474f6e1-bc67-4df6-8c23-b69caee830ba","ios":"levelo://app?vid=5474f6e1-bc67-4df6-8c23-b69caee830ba"},"vehicle_type_id":"4","last_reported":1747225212,"current_range_meters":11600,"station_id":"ce4bgih2rcd13ifvqba0","pricing_plan_id":"cebpf4jnsgd1na2vs0mg"},{"bike_id":"122a83ed-1131-40c3-a0b2-cbfeb1b6a3ee","system_id":"levelo_inurba_marseille","lat":43.29535,"lon":5.37511,"is_reserved":false,"is_disabled":false,"rental_uris":{"android":"levelo://app?vid=122a83ed-1131-40c3-a0b2-cbfeb1b6a3ee","ios":"levelo://app?vid=122a83ed-1131-40c3-a0b2-cbfeb1b6a3ee"},"vehicle_type_id":"4","last_reported":1747225212,"current_range_meters":11600,"station_id":"ce4bgkp2rcd13ifvqbmg","pricing_plan_id":"cebpf4jnsgd1na2vs0mg"},{"bike_id":"869414d8-1d19-4f79-b0d0-72a3ce600e96","system_id":"levelo_inurba_marseille","lat":43.28942,"lon":5.39626,"is_reserved":false,"is_disabled":false,"rental_uris":{"android":"levelo://app?vid=869414d8-1d19-4f79-b0d0-72a3ce600e96","ios":"levelo://app?vid=869414d8-1d19-4f79-b0d0-72a3ce600e96"},"vehicle_type_id":"4","last_reported":1747225212,"current_range_meters":11600,"station_id":"ce4bh3h2rcd13ifvqdn0","pricing_plan_id":"cebpf4jnsgd1na2vs0mg"},{"bike_id":"940b3909-b6f0-4f89-adfd-175725c0aab3","system_id":"levelo_inurba_marseille","lat":43.25924,"lon":5.40895,"is_reserved":false,"is_disabled":false,"rental_uris":{"android":"levelo://app?vid=940b3909-b6f0-4f89-adfd-175725c0aab3","ios":"levelo://app?vid=940b3909-b6f0-4f89-adfd-175725c0aab3"},"vehicle_type_id":"4","last_reported":1747225212,"current_range_meters":11600,"station_id":"ce4bhm92rcd13ifvqglg","pricing_plan_id":"cebpf4jnsgd1na2vs0mg"},{"bike_id":"39aa1628-822e-4ce2-a2a5-c0f8adefac2f","system_id":"levelo_inurba_marseille","lat":43.337205,"lon":5.391842,"is_reserved":false,"is_disabled":false,"rental_uris":{"android":"levelo://app?vid=39aa1628-822e-4ce2-a2a5-c0f8adefac2f","ios":"levelo://app?vid=39aa1628-822e-4ce2-a2a5-c0f8adefac2f"},"vehicle_type_id":"4","last_reported":1747225212,"current_range_meters":11600,"station_id":"ce4bhr92rcd13ifvqhsg","pricing_plan_id":"cebpf4jnsgd1na2vs0mg"},{"bike_id":"6d9891cf-76b2-4912-be13-e5f81e2326e5","system_id":"levelo_inurba_marseille","lat":43.32055,"lon":5.41538,"is_reserved":false,"is_disabled":false,"rental_uris":{"android":"levelo://app?vid=6d9891cf-76b2-4912-be13-e5f81e2326e5","ios":"levelo://app?vid=6d9891cf-76b2-4912-be13-e5f81e2326e5"},"vehicle_type_id":"4","last_reported":1747225212,"current_range_meters":12000,"station_id":"ce4bhq92rcd13ifvqhkg","pricing_plan_id":"cebpf4jnsgd1na2vs0mg"},{"bike_id":"40115fd5-f59f-4b0c-9552-a95b14ed5e7f","system_id":"levelo_inurba_marseille","lat":43.30854,"lon":5.36894,"is_reserved":false,"is_disabled":false,"rental_uris":{"android":"levelo://app?vid=40115fd5-f59f-4b0c-9552-a95b14ed5e7f","ios":"levelo://app?vid=40115fd5-f59f-4b0c-9552-a95b14ed5e7f"},"vehicle_type_id":"4","last_reported":1747225212,"current_range_meters":12400,"station_id":"ce4bgn92rcd13ifvqbvg","pricing_plan_id":"cebpf4jnsgd1na2vs0mg"},{"bike_id":"0eaa6dcd-f3e8-4235-9412-8ca095fc539b","system_id":"levelo_inurba_marseille","lat":43.27615,"lon":5.36106,"is_reserved":false,"is_disabled":false,"rental_uris":{"android":"levelo://app?vid=0eaa6dcd-f3e8-4235-9412-8ca095fc539b","ios":"levelo://app?vid=0eaa6dcd-f3e8-4235-9412-8ca095fc539b"},"vehicle_type_id":"4","last_reported":1747225212,"current_range_meters":12800,"station_id":"ce4bgj92rcd13ifvqbe0","pricing_plan_id":"cebpf4jnsgd1na2vs0mg"},{"bike_id":"490ec1ca-b8c7-4b17-afb6-362199928396","system_id":"levelo_inurba_marseille","lat":43.30294,"lon":5.36862,"is_reserved":false,"is_disabled":false,"rental_uris":{"android":"levelo://app?vid=490ec1ca-b8c7-4b17-afb6-362199928396","ios":"levelo://app?vid=490ec1ca-b8c7-4b17-afb6-362199928396"},"vehicle_type_id":"4","last_reported":1747225212,"current_range_meters":12800,"station_id":"ce4bgqh2rcd13ifvqc5g","pricing_plan_id":"cebpf4jnsgd1na2vs0mg"},{"bike_id":"c299cfa1-9128-4f03-8ca1-032406afd8c4","system_id":"levelo_inurba_marseille","lat":43.27073,"lon":5.42275,"is_reserved":false,"is_disabled":false,"rental_uris":{"android":"levelo://app?vid=c299cfa1-9128-4f03-8ca1-032406afd8c4","ios":"levelo://app?vid=c299cfa1-9128-4f03-8ca1-032406afd8c4"},"vehicle_type_id":"4","last_reported":1747225212,"current_range_meters":12800,"station_id":"ce4bhk92rcd13ifvqgb0","pricing_plan_id":"cebpf4jnsgd1na2vs0mg"},{"bike_id":"ef8b8435-5a14-4516-ac5d-8d497e1e85ba","system_id":"levelo_inurba_marseille","lat":43.25938,"lon":5.40905,"is_reserved":false,"is_disabled":false,"rental_uris":{"android":"levelo://app?vid=ef8b8435-5a14-4516-ac5d-8d497e1e85ba","ios":"levelo://app?vid=ef8b8435-5a14-4516-ac5d-8d497e1e85ba"},"vehicle_type_id":"4","last_reported":1747225212,"current_range_meters":12800,"station_id":"ce4bhm92rcd13ifvqglg","pricing_plan_id":"cebpf4jnsgd1na2vs0mg"},{"bike_id":"dc53ac2c-033a-4bd1-9d45-c92b72b8ce0a","system_id":"levelo_inurba_marseille","lat":43.28078,"lon":5.39658,"is_reserved":false,"is_disabled":false,"rental_uris":{"android":"levelo://app?vid=dc53ac2c-033a-4bd1-9d45-c92b72b8ce0a","ios":"levelo://app?vid=dc53ac2c-033a-4bd1-9d45-c92b72b8ce0a"},"vehicle_type_id":"4","last_reported":1747225212,"current_range_meters":12800,"station_id":"ce4bho12rcd13ifvqh2g","pricing_plan_id":"cebpf4jnsgd1na2vs0mg"},{"bike_id":"63a88154-4ed2-4342-a613-d3bc0b203d5a","system_id":"levelo_inurba_marseille","lat":43.302586,"lon":5.400831,"is_reserved":false,"is_disabled":false,"rental_uris":{"android":"levelo://app?vid=63a88154-4ed2-4342-a613-d3bc0b203d5a","ios":"levelo://app?vid=63a88154-4ed2-4342-a613-d3bc0b203d5a"},"vehicle_type_id":"4","last_reported":1747225212,"current_range_meters":12800,"station_id":"ce4bho92rcd13ifvqh4g","pricing_plan_id":"cebpf4jnsgd1na2vs0mg"},{"bike_id":"790ff7b8-740f-4af6-9f14-f0470d7f37e2","system_id":"levelo_inurba_marseille","lat":43.28611,"lon":5.37065,"is_reserved":false,"is_disabled":false,"rental_uris":{"android":"levelo://app?vid=790ff7b8-740f-4af6-9f14-f0470d7f37e2","ios":"levelo://app?vid=790ff7b8-740f-4af6-9f14-f0470d7f37e2"},"vehicle_type_id":"4","last_reported":1747225212,"current_range_meters":12800,"station_id":"ce4bht12rcd13ifvqi60","pricing_plan_id":"cebpf4jnsgd1na2vs0mg"},{"bike_id":"1e297e0e-a907-489c-9a22-1dfb89bfb64f","system_id":"levelo_inurba_marseille","lat":43.29234,"lon":5.36419,"is_reserved":false,"is_disabled":false,"rental_uris":{"android":"levelo://app?vid=1e297e0e-a907-489c-9a22-1dfb89bfb64f","ios":"levelo://app?vid=1e297e0e-a907-489c-9a22-1dfb89bfb64f"},"vehicle_type_id":"4","last_reported":1747225212,"current_range_meters":13600,"station_id":"","pricing_plan_id":"cebpf4jnsgd1na2vs0mg"},{"bike_id":"026a01d2-61bf-4219-9947-0e6416093961","system_id":"levelo_inurba_marseille","lat":43.31326,"lon":5.36725,"is_reserved":false,"is_disabled":false,"rental_uris":{"android":"levelo://app?vid=026a01d2-61bf-4219-9947-0e6416093961","ios":"levelo://app?vid=026a01d2-61bf-4219-9947-0e6416093961"},"vehicle_type_id":"4","last_reported":1747225212,"current_range_meters":13600,"station_id":"ce4bgr92rcd13ifvqc6g","pricing_plan_id":"cebpf4jnsgd1na2vs0mg"},{"bike_id":"96c06625-c86c-48d8-860b-4de0bf5b91c1","system_id":"levelo_inurba_marseille","lat":43.272549,"lon":5.411228,"is_reserved":false,"is_disabled":false,"rental_uris":{"android":"levelo://app?vid=96c06625-c86c-48d8-860b-4de0bf5b91c1","ios":"levelo://app?vid=96c06625-c86c-48d8-860b-4de0bf5b91c1"},"vehicle_type_id":"4","last_reported":1747225212,"current_range_meters":13600,"station_id":"ce4bhl12rcd13ifvqgf0","pricing_plan_id":"cebpf4jnsgd1na2vs0mg"},{"bike_id":"1dffea47-932b-472d-a926-7c8a262923fb","system_id":"levelo_inurba_marseille","lat":43.259213,"lon":5.408853,"is_reserved":false,"is_disabled":false,"rental_uris":{"android":"levelo://app?vid=1dffea47-932b-472d-a926-7c8a262923fb","ios":"levelo://app?vid=1dffea47-932b-472d-a926-7c8a262923fb"},"vehicle_type_id":"4","last_reported":1747225212,"current_range_meters":13600,"station_id":"ce4bhm92rcd13ifvqglg","pricing_plan_id":"cebpf4jnsgd1na2vs0mg"},{"bike_id":"0666b016-7a5f-4df9-a2ed-c7ac0d163d46","system_id":"levelo_inurba_marseille","lat":43.27993,"lon":5.4001,"is_reserved":false,"is_disabled":false,"rental_uris":{"android":"levelo://app?vid=0666b016-7a5f-4df9-a2ed-c7ac0d163d46","ios":"levelo://app?vid=0666b016-7a5f-4df9-a2ed-c7ac0d163d46"},"vehicle_type_id":"4","last_reported":1747225212,"current_range_meters":13600,"station_id":"ce4bho92rcd13ifvqh4g","pricing_plan_id":"cebpf4jnsgd1na2vs0mg"},{"bike_id":"d70a394b-e40a-459a-b5df-ab0f03f3fb36","system_id":"levelo_inurba_marseille","lat":43.32552,"lon":5.41427,"is_reserved":false,"is_disabled":false,"rental_uris":{"android":"levelo://app?vid=d70a394b-e40a-459a-b5df-ab0f03f3fb36","ios":"levelo://app?vid=d70a394b-e40a-459a-b5df-ab0f03f3fb36"},"vehicle_type_id":"4","last_reported":1747225212,"current_range_meters":13600,"station_id":"ce4bhq12rcd13ifvqhhg","pricing_plan_id":"cebpf4jnsgd1na2vs0mg"},{"bike_id":"bf56d623-83ce-4228-a278-99d6b705c514","system_id":"levelo_inurba_marseille","lat":43.288074,"lon":5.360753,"is_reserved":false,"is_disabled":false,"rental_uris":{"android":"levelo://app?vid=bf56d623-83ce-4228-a278-99d6b705c514","ios":"levelo://app?vid=bf56d623-83ce-4228-a278-99d6b705c514"},"vehicle_type_id":"4","last_reported":1747225212,"current_range_meters":13600,"station_id":"cki0cbj6b192h4jlfktg","pricing_plan_id":"cebpf4jnsgd1na2vs0mg"},{"bike_id":"bd982553-3a55-4be3-ab87-3dd3cf3e2a42","system_id":"levelo_inurba_marseille","lat":43.31689,"lon":5.40465,"is_reserved":false,"is_disabled":false,"rental_uris":{"android":"levelo://app?vid=bd982553-3a55-4be3-ab87-3dd3cf3e2a42","ios":"levelo://app?vid=bd982553-3a55-4be3-ab87-3dd3cf3e2a42"},"vehicle_type_id":"4","last_reported":1747225212,"current_range_meters":14000,"station_id":"ce4bh012rcd13ifvqd00","pricing_plan_id":"cebpf4jnsgd1na2vs0mg"},{"bike_id":"e61e5566-41df-46c9-9396-dae3b9b48231","system_id":"levelo_inurba_marseille","lat":43.27917,"lon":5.39592,"is_reserved":false,"is_disabled":false,"rental_uris":{"android":"levelo://app?vid=e61e5566-41df-46c9-9396-dae3b9b48231","ios":"levelo://app?vid=e61e5566-41df-46c9-9396-dae3b9b48231"},"vehicle_type_id":"4","last_reported":1747225212,"current_range_meters":14000,"station_id":"ce4bhf92rcd13ifvqf40","pricing_plan_id":"cebpf4jnsgd1na2vs0mg"},{"bike_id":"0ee57cd3-b290-46af-a35a-6f306772e452","system_id":"levelo_inurba_marseille","lat":43.30662,"lon":5.40273,"is_reserved":false,"is_disabled":false,"rental_uris":{"android":"levelo://app?vid=0ee57cd3-b290-46af-a35a-6f306772e452","ios":"levelo://app?vid=0ee57cd3-b290-46af-a35a-6f306772e452"},"vehicle_type_id":"4","last_reported":1747225212,"current_range_meters":14400,"station_id":"","pricing_plan_id":"cebpf4jnsgd1na2vs0mg"},{"bike_id":"4f2c13f0-287b-4c06-8e46-4058d756f0b4","system_id":"levelo_inurba_marseille","lat":43.29604,"lon":5.38101,"is_reserved":false,"is_disabled":false,"rental_uris":{"android":"levelo://app?vid=4f2c13f0-287b-4c06-8e46-4058d756f0b4","ios":"levelo://app?vid=4f2c13f0-287b-4c06-8e46-4058d756f0b4"},"vehicle_type_id":"4","last_reported":1747225212,"current_range_meters":14400,"station_id":"ce4bgl12rcd13ifvqbo0","pricing_plan_id":"cebpf4jnsgd1na2vs0mg"},{"bike_id":"aaa3d837-854b-4f96-8e3b-2de471973d90","system_id":"levelo_inurba_marseille","lat":43.31222,"lon":5.36856,"is_reserved":false,"is_disabled":false,"rental_uris":{"android":"levelo://app?vid=aaa3d837-854b-4f96-8e3b-2de471973d90","ios":"levelo://app?vid=aaa3d837-854b-4f96-8e3b-2de471973d90"},"vehicle_type_id":"4","last_reported":1747225212,"current_range_meters":14400,"station_id":"ce4bgl92rcd13ifvqbq0","pricing_plan_id":"cebpf4jnsgd1na2vs0mg"},{"bike_id":"ebe35b58-9762-4ac1-aea5-be04c4e823b9","system_id":"levelo_inurba_marseille","lat":43.308222,"lon":5.396481,"is_reserved":false,"is_disabled":false,"rental_uris":{"android":"levelo://app?vid=ebe35b58-9762-4ac1-aea5-be04c4e823b9","ios":"levelo://app?vid=ebe35b58-9762-4ac1-aea5-be04c4e823b9"},"vehicle_type_id":"4","last_reported":1747225212,"current_range_meters":14400,"station_id":"ce4bh012rcd13ifvqcv0","pricing_plan_id":"cebpf4jnsgd1na2vs0mg"},{"bike_id":"d91402de-e6e3-4577-89ea-24814ab57041","system_id":"levelo_inurba_marseille","lat":43.23163,"lon":5.43696,"is_reserved":false,"is_disabled":false,"rental_uris":{"android":"levelo://app?vid=d91402de-e6e3-4577-89ea-24814ab57041","ios":"levelo://app?vid=d91402de-e6e3-4577-89ea-24814ab57041"},"vehicle_type_id":"4","last_reported":1747225212,"current_range_meters":14400,"station_id":"ce4bhmp2rcd13ifvqgog","pricing_plan_id":"cebpf4jnsgd1na2vs0mg"},{"bike_id":"a458dca5-bf6e-470e-86ee-43a5683ee3ae","system_id":"levelo_inurba_marseille","lat":43.3135,"lon":5.36724,"is_reserved":false,"is_disabled":false,"rental_uris":{"android":"levelo://app?vid=a458dca5-bf6e-470e-86ee-43a5683ee3ae","ios":"levelo://app?vid=a458dca5-bf6e-470e-86ee-43a5683ee3ae"},"vehicle_type_id":"4","last_reported":1747225212,"current_range_meters":14800,"station_id":"ce4bgr92rcd13ifvqc6g","pricing_plan_id":"cebpf4jnsgd1na2vs0mg"},{"bike_id":"6443a44b-e8e2-4e4a-9dda-1d6ae94b1f4e","system_id":"levelo_inurba_marseille","lat":43.28486,"lon":5.38551,"is_reserved":false,"is_disabled":false,"rental_uris":{"android":"levelo://app?vid=6443a44b-e8e2-4e4a-9dda-1d6ae94b1f4e","ios":"levelo://app?vid=6443a44b-e8e2-4e4a-9dda-1d6ae94b1f4e"},"vehicle_type_id":"4","last_reported":1747225212,"current_range_meters":14800,"station_id":"ce4bh8p2rcd13ifvqeb0","pricing_plan_id":"cebpf4jnsgd1na2vs0mg"},{"bike_id":"1650302b-497b-4bbd-8c2a-9edef6b2a9c9","system_id":"levelo_inurba_marseille","lat":43.28426,"lon":5.34995,"is_reserved":false,"is_disabled":false,"rental_uris":{"android":"levelo://app?vid=1650302b-497b-4bbd-8c2a-9edef6b2a9c9","ios":"levelo://app?vid=1650302b-497b-4bbd-8c2a-9edef6b2a9c9"},"vehicle_type_id":"4","last_reported":1747225212,"current_range_meters":14800,"station_id":"ce4bhbh2rcd13ifvqepg","pricing_plan_id":"cebpf4jnsgd1na2vs0mg"},{"bike_id":"1feda3f1-70ba-4895-83be-f925da859e67","system_id":"levelo_inurba_marseille","lat":43.25854,"lon":5.39892,"is_reserved":false,"is_disabled":false,"rental_uris":{"android":"levelo://app?vid=1feda3f1-70ba-4895-83be-f925da859e67","ios":"levelo://app?vid=1feda3f1-70ba-4895-83be-f925da859e67"},"vehicle_type_id":"4","last_reported":1747225212,"current_range_meters":14800,"station_id":"ce4bhl92rcd13ifvqghg","pricing_plan_id":"cebpf4jnsgd1na2vs0mg"},{"bike_id":"4226b6e4-4135-42dc-93c9-31a0c59a7e9d","system_id":"levelo_inurba_marseille","lat":43.23177,"lon":5.39993,"is_reserved":false,"is_disabled":false,"rental_uris":{"android":"levelo://app?vid=4226b6e4-4135-42dc-93c9-31a0c59a7e9d","ios":"levelo://app?vid=4226b6e4-4135-42dc-93c9-31a0c59a7e9d"},"vehicle_type_id":"4","last_reported":1747225212,"current_range_meters":14800,"station_id":"ce4bhn12rcd13ifvqgqg","pricing_plan_id":"cebpf4jnsgd1na2vs0mg"},{"bike_id":"da4ec9d7-463b-47a1-8558-bad5733dc649","system_id":"levelo_inurba_marseille","lat":43.24169,"lon":5.36393,"is_reserved":false,"is_disabled":false,"rental_uris":{"android":"levelo://app?vid=da4ec9d7-463b-47a1-8558-bad5733dc649","ios":"levelo://app?vid=da4ec9d7-463b-47a1-8558-bad5733dc649"},"vehicle_type_id":"4","last_reported":1747225212,"current_range_meters":14800,"station_id":"cpo36qri1sfpv3e86is0","pricing_plan_id":"cebpf4jnsgd1na2vs0mg"},{"bike_id":"7a17c73f-3d3e-4c98-9154-078f203937ca","system_id":"levelo_inurba_marseille","lat":43.27374,"lon":5.36257,"is_reserved":false,"is_disabled":false,"rental_uris":{"android":"levelo://app?vid=7a17c73f-3d3e-4c98-9154-078f203937ca","ios":"levelo://app?vid=7a17c73f-3d3e-4c98-9154-078f203937ca"},"vehicle_type_id":"4","last_reported":1747225212,"current_range_meters":15200,"station_id":"ce4bhbh2rcd13ifvqeo0","pricing_plan_id":"cebpf4jnsgd1na2vs0mg"},{"bike_id":"ba1c1a40-e571-4e6a-85f7-3b36a1342212","system_id":"levelo_inurba_marseille","lat":43.28413,"lon":5.34979,"is_reserved":false,"is_disabled":false,"rental_uris":{"android":"levelo://app?vid=ba1c1a40-e571-4e6a-85f7-3b36a1342212","ios":"levelo://app?vid=ba1c1a40-e571-4e6a-85f7-3b36a1342212"},"vehicle_type_id":"4","last_reported":1747225212,"current_range_meters":15200,"station_id":"ce4bhbh2rcd13ifvqepg","pricing_plan_id":"cebpf4jnsgd1na2vs0mg"},{"bike_id":"4536c555-c953-45c4-9458-f5ba24a96d50","system_id":"levelo_inurba_marseille","lat":43.28077,"lon":5.39658,"is_reserved":false,"is_disabled":false,"rental_uris":{"android":"levelo://app?vid=4536c555-c953-45c4-9458-f5ba24a96d50","ios":"levelo://app?vid=4536c555-c953-45c4-9458-f5ba24a96d50"},"vehicle_type_id":"4","last_reported":1747225212,"current_range_meters":15200,"station_id":"ce4bho12rcd13ifvqh2g","pricing_plan_id":"cebpf4jnsgd1na2vs0mg"},{"bike_id":"fd135528-d73f-410e-8d51-683fe0151a22","system_id":"levelo_inurba_marseille","lat":43.2991,"lon":5.37471,"is_reserved":false,"is_disabled":false,"rental_uris":{"android":"levelo://app?vid=fd135528-d73f-410e-8d51-683fe0151a22","ios":"levelo://app?vid=fd135528-d73f-410e-8d51-683fe0151a22"},"vehicle_type_id":"4","last_reported":1747225212,"current_range_meters":16000,"station_id":"ce4bgjh2rcd13ifvqbg0","pricing_plan_id":"cebpf4jnsgd1na2vs0mg"},{"bike_id":"3723d921-e0c3-4428-9448-2493f44ddc15","system_id":"levelo_inurba_marseille","lat":43.26208,"lon":5.37446,"is_reserved":false,"is_disabled":false,"rental_uris":{"android":"levelo://app?vid=3723d921-e0c3-4428-9448-2493f44ddc15","ios":"levelo://app?vid=3723d921-e0c3-4428-9448-2493f44ddc15"},"vehicle_type_id":"4","last_reported":1747225212,"current_range_meters":16000,"station_id":"ce4bhgp2rcd13ifvqfc0","pricing_plan_id":"cebpf4jnsgd1na2vs0mg"},{"bike_id":"e7099307-f6a4-4977-9070-429e3d9e2beb","system_id":"levelo_inurba_marseille","lat":43.27303,"lon":5.39085,"is_reserved":false,"is_disabled":false,"rental_uris":{"android":"levelo://app?vid=e7099307-f6a4-4977-9070-429e3d9e2beb","ios":"levelo://app?vid=e7099307-f6a4-4977-9070-429e3d9e2beb"},"vehicle_type_id":"4","last_reported":1747225212,"current_range_meters":16000,"station_id":"ce4bhgp2rcd13ifvqfe0","pricing_plan_id":"cebpf4jnsgd1na2vs0mg"},{"bike_id":"69757105-9188-4d0d-87fa-3cb5b4a9e6c7","system_id":"levelo_inurba_marseille","lat":43.231519,"lon":5.437158,"is_reserved":false,"is_disabled":false,"rental_uris":{"android":"levelo://app?vid=69757105-9188-4d0d-87fa-3cb5b4a9e6c7","ios":"levelo://app?vid=69757105-9188-4d0d-87fa-3cb5b4a9e6c7"},"vehicle_type_id":"4","last_reported":1747225212,"current_range_meters":16000,"station_id":"ce4bhmp2rcd13ifvqgog","pricing_plan_id":"cebpf4jnsgd1na2vs0mg"},{"bike_id":"01fbd550-7525-4fd0-833e-ada1b983672f","system_id":"levelo_inurba_marseille","lat":43.28082,"lon":5.39664,"is_reserved":false,"is_disabled":false,"rental_uris":{"android":"levelo://app?vid=01fbd550-7525-4fd0-833e-ada1b983672f","ios":"levelo://app?vid=01fbd550-7525-4fd0-833e-ada1b983672f"},"vehicle_type_id":"4","last_reported":1747225212,"current_range_meters":16000,"station_id":"ce4bho12rcd13ifvqh2g","pricing_plan_id":"cebpf4jnsgd1na2vs0mg"},{"bike_id":"1c5b676c-9de4-49c9-8aa1-3578233e2190","system_id":"levelo_inurba_marseille","lat":43.33616,"lon":5.41011,"is_reserved":false,"is_disabled":false,"rental_uris":{"android":"levelo://app?vid=1c5b676c-9de4-49c9-8aa1-3578233e2190","ios":"levelo://app?vid=1c5b676c-9de4-49c9-8aa1-3578233e2190"},"vehicle_type_id":"4","last_reported":1747225212,"current_range_meters":16000,"station_id":"ce4bhqh2rcd13ifvqhmg","pricing_plan_id":"cebpf4jnsgd1na2vs0mg"},{"bike_id":"49392bf1-b663-48fd-aca1-d103380a69c3","system_id":"levelo_inurba_marseille","lat":43.285677,"lon":5.394937,"is_reserved":false,"is_disabled":false,"rental_uris":{"android":"levelo://app?vid=49392bf1-b663-48fd-aca1-d103380a69c3","ios":"levelo://app?vid=49392bf1-b663-48fd-aca1-d103380a69c3"},"vehicle_type_id":"4","last_reported":1747225212,"current_range_meters":16400,"station_id":"ce4bh292rcd13ifvqdg0","pricing_plan_id":"cebpf4jnsgd1na2vs0mg"},{"bike_id":"80f1f22f-370a-41c1-85bf-473d9554da76","system_id":"levelo_inurba_marseille","lat":43.29188,"lon":5.35788,"is_reserved":false,"is_disabled":false,"rental_uris":{"android":"levelo://app?vid=80f1f22f-370a-41c1-85bf-473d9554da76","ios":"levelo://app?vid=80f1f22f-370a-41c1-85bf-473d9554da76"},"vehicle_type_id":"4","last_reported":1747225212,"current_range_meters":16400,"station_id":"ce4bhb12rcd13ifvqel0","pricing_plan_id":"cebpf4jnsgd1na2vs0mg"},{"bike_id":"b2c53962-bdab-48ee-b796-80356825a790","system_id":"levelo_inurba_marseille","lat":43.29192,"lon":5.35794,"is_reserved":false,"is_disabled":false,"rental_uris":{"android":"levelo://app?vid=b2c53962-bdab-48ee-b796-80356825a790","ios":"levelo://app?vid=b2c53962-bdab-48ee-b796-80356825a790"},"vehicle_type_id":"4","last_reported":1747225212,"current_range_meters":16400,"station_id":"ce4bhb12rcd13ifvqel0","pricing_plan_id":"cebpf4jnsgd1na2vs0mg"},{"bike_id":"4522eef3-9bd7-44fe-b831-cc10ef68dd51","system_id":"levelo_inurba_marseille","lat":43.24657,"lon":5.38882,"is_reserved":false,"is_disabled":false,"rental_uris":{"android":"levelo://app?vid=4522eef3-9bd7-44fe-b831-cc10ef68dd51","ios":"levelo://app?vid=4522eef3-9bd7-44fe-b831-cc10ef68dd51"},"vehicle_type_id":"4","last_reported":1747225212,"current_range_meters":16400,"station_id":"ce4bhg12rcd13ifvqf60","pricing_plan_id":"cebpf4jnsgd1na2vs0mg"},{"bike_id":"f177268d-b190-4178-88bb-b545735a08ef","system_id":"levelo_inurba_marseille","lat":43.255007,"lon":5.37647,"is_reserved":false,"is_disabled":false,"rental_uris":{"android":"levelo://app?vid=f177268d-b190-4178-88bb-b545735a08ef","ios":"levelo://app?vid=f177268d-b190-4178-88bb-b545735a08ef"},"vehicle_type_id":"4","last_reported":1747225212,"current_range_meters":16400,"station_id":"ce4bhh12rcd13ifvqff0","pricing_plan_id":"cebpf4jnsgd1na2vs0mg"},{"bike_id":"bc9e681b-18d4-42f1-b79d-46f6377d00a4","system_id":"levelo_inurba_marseille","lat":43.26956,"lon":5.38638,"is_reserved":false,"is_disabled":false,"rental_uris":{"android":"levelo://app?vid=bc9e681b-18d4-42f1-b79d-46f6377d00a4","ios":"levelo://app?vid=bc9e681b-18d4-42f1-b79d-46f6377d00a4"},"vehicle_type_id":"4","last_reported":1747225212,"current_range_meters":16400,"station_id":"ce4bhh92rcd13ifvqfh0","pricing_plan_id":"cebpf4jnsgd1na2vs0mg"},{"bike_id":"071bae66-a3c2-407f-a4ef-b9866a42fb1d","system_id":"levelo_inurba_marseille","lat":43.312155,"lon":5.36867,"is_reserved":false,"is_disabled":false,"rental_uris":{"android":"levelo://app?vid=071bae66-a3c2-407f-a4ef-b9866a42fb1d","ios":"levelo://app?vid=071bae66-a3c2-407f-a4ef-b9866a42fb1d"},"vehicle_type_id":"4","last_reported":1747225212,"current_range_meters":16800,"station_id":"ce4bgl92rcd13ifvqbq0","pricing_plan_id":"cebpf4jnsgd1na2vs0mg"},{"bike_id":"23f71ea3-17bf-426f-b2f9-e4753444284e","system_id":"levelo_inurba_marseille","lat":43.28842,"lon":5.39301,"is_reserved":false,"is_disabled":false,"rental_uris":{"android":"levelo://app?vid=23f71ea3-17bf-426f-b2f9-e4753444284e","ios":"levelo://app?vid=23f71ea3-17bf-426f-b2f9-e4753444284e"},"vehicle_type_id":"4","last_reported":1747225212,"current_range_meters":16800,"station_id":"ce4bh2p2rcd13ifvqdi0","pricing_plan_id":"cebpf4jnsgd1na2vs0mg"},{"bike_id":"1d942bfe-9c5f-4ec2-b628-6b4c07d42b6d","system_id":"levelo_inurba_marseille","lat":43.26219,"lon":5.37429,"is_reserved":false,"is_disabled":false,"rental_uris":{"android":"levelo://app?vid=1d942bfe-9c5f-4ec2-b628-6b4c07d42b6d","ios":"levelo://app?vid=1d942bfe-9c5f-4ec2-b628-6b4c07d42b6d"},"vehicle_type_id":"4","last_reported":1747225212,"current_range_meters":16800,"station_id":"ce4bhgp2rcd13ifvqfc0","pricing_plan_id":"cebpf4jnsgd1na2vs0mg"},{"bike_id":"81df83bd-96fe-4025-8404-279d0c4d21a9","system_id":"levelo_inurba_marseille","lat":43.25943,"lon":5.40891,"is_reserved":false,"is_disabled":false,"rental_uris":{"android":"levelo://app?vid=81df83bd-96fe-4025-8404-279d0c4d21a9","ios":"levelo://app?vid=81df83bd-96fe-4025-8404-279d0c4d21a9"},"vehicle_type_id":"4","last_reported":1747225212,"current_range_meters":16800,"station_id":"ce4bhm92rcd13ifvqglg","pricing_plan_id":"cebpf4jnsgd1na2vs0mg"},{"bike_id":"5b2bf2cc-e79c-4a99-a91f-20d49657d90b","system_id":"levelo_inurba_marseille","lat":43.241739,"lon":5.397363,"is_reserved":false,"is_disabled":false,"rental_uris":{"android":"levelo://app?vid=5b2bf2cc-e79c-4a99-a91f-20d49657d90b","ios":"levelo://app?vid=5b2bf2cc-e79c-4a99-a91f-20d49657d90b"},"vehicle_type_id":"4","last_reported":1747225212,"current_range_meters":16800,"station_id":"ce4bhn12rcd13ifvqgpg","pricing_plan_id":"cebpf4jnsgd1na2vs0mg"},{"bike_id":"a0fd54c0-4c17-41ee-9f2f-af0a81d9b4a1","system_id":"levelo_inurba_marseille","lat":43.337214,"lon":5.391832,"is_reserved":false,"is_disabled":false,"rental_uris":{"android":"levelo://app?vid=a0fd54c0-4c17-41ee-9f2f-af0a81d9b4a1","ios":"levelo://app?vid=a0fd54c0-4c17-41ee-9f2f-af0a81d9b4a1"},"vehicle_type_id":"4","last_reported":1747225212,"current_range_meters":16800,"station_id":"ce4bhr92rcd13ifvqhsg","pricing_plan_id":"cebpf4jnsgd1na2vs0mg"},{"bike_id":"6ed6b045-5fdd-4b23-810c-9f519910480c","system_id":"levelo_inurba_marseille","lat":43.30929,"lon":5.36852,"is_reserved":false,"is_disabled":false,"rental_uris":{"android":"levelo://app?vid=6ed6b045-5fdd-4b23-810c-9f519910480c","ios":"levelo://app?vid=6ed6b045-5fdd-4b23-810c-9f519910480c"},"vehicle_type_id":"4","last_reported":1747225212,"current_range_meters":17200,"station_id":"ce4bgn92rcd13ifvqbvg","pricing_plan_id":"cebpf4jnsgd1na2vs0mg"},{"bike_id":"934b854a-fd69-40b8-86db-c5938890c71e","system_id":"levelo_inurba_marseille","lat":43.32532,"lon":5.41428,"is_reserved":false,"is_disabled":false,"rental_uris":{"android":"levelo://app?vid=934b854a-fd69-40b8-86db-c5938890c71e","ios":"levelo://app?vid=934b854a-fd69-40b8-86db-c5938890c71e"},"vehicle_type_id":"4","last_reported":1747225212,"current_range_meters":17200,"station_id":"ce4bhq12rcd13ifvqhhg","pricing_plan_id":"cebpf4jnsgd1na2vs0mg"},{"bike_id":"ff36c01f-2286-42c9-a2fe-0aaba96b93c0","system_id":"levelo_inurba_marseille","lat":43.320475,"lon":5.41539,"is_reserved":false,"is_disabled":false,"rental_uris":{"android":"levelo://app?vid=ff36c01f-2286-42c9-a2fe-0aaba96b93c0","ios":"levelo://app?vid=ff36c01f-2286-42c9-a2fe-0aaba96b93c0"},"vehicle_type_id":"4","last_reported":1747225212,"current_range_meters":17200,"station_id":"ce4bhq92rcd13ifvqhkg","pricing_plan_id":"cebpf4jnsgd1na2vs0mg"},{"bike_id":"7a906d5d-d156-472a-a645-d2ee30c1fbc8","system_id":"levelo_inurba_marseille","lat":43.336128,"lon":5.41031,"is_reserved":false,"is_disabled":false,"rental_uris":{"android":"levelo://app?vid=7a906d5d-d156-472a-a645-d2ee30c1fbc8","ios":"levelo://app?vid=7a906d5d-d156-472a-a645-d2ee30c1fbc8"},"vehicle_type_id":"4","last_reported":1747225212,"current_range_meters":17200,"station_id":"ce4bhqh2rcd13ifvqhmg","pricing_plan_id":"cebpf4jnsgd1na2vs0mg"},{"bike_id":"de52340f-fdc2-4724-9074-4aeed6638cab","system_id":"levelo_inurba_marseille","lat":43.25497,"lon":5.37647,"is_reserved":false,"is_disabled":false,"rental_uris":{"android":"levelo://app?vid=de52340f-fdc2-4724-9074-4aeed6638cab","ios":"levelo://app?vid=de52340f-fdc2-4724-9074-4aeed6638cab"},"vehicle_type_id":"4","last_reported":1747225212,"current_range_meters":17600,"station_id":"ce4bhh12rcd13ifvqff0","pricing_plan_id":"cebpf4jnsgd1na2vs0mg"},{"bike_id":"73058432-9e4f-4615-9be6-331b2d7a5432","system_id":"levelo_inurba_marseille","lat":43.24544,"lon":5.39523,"is_reserved":false,"is_disabled":false,"rental_uris":{"android":"levelo://app?vid=73058432-9e4f-4615-9be6-331b2d7a5432","ios":"levelo://app?vid=73058432-9e4f-4615-9be6-331b2d7a5432"},"vehicle_type_id":"4","last_reported":1747225212,"current_range_meters":17600,"station_id":"ce4bhlp2rcd13ifvqgjg","pricing_plan_id":"cebpf4jnsgd1na2vs0mg"},{"bike_id":"d74dda0c-2ae8-4a20-aee3-80ba3b692d64","system_id":"levelo_inurba_marseille","lat":43.30464,"lon":5.37174,"is_reserved":false,"is_disabled":false,"rental_uris":{"android":"levelo://app?vid=d74dda0c-2ae8-4a20-aee3-80ba3b692d64","ios":"levelo://app?vid=d74dda0c-2ae8-4a20-aee3-80ba3b692d64"},"vehicle_type_id":"4","last_reported":1747225212,"current_range_meters":18000,"station_id":"","pricing_plan_id":"cebpf4jnsgd1na2vs0mg"},{"bike_id":"c4021d13-ea23-4f68-b56d-9ec951ef5a83","system_id":"levelo_inurba_marseille","lat":43.29612,"lon":5.38087,"is_reserved":false,"is_disabled":false,"rental_uris":{"android":"levelo://app?vid=c4021d13-ea23-4f68-b56d-9ec951ef5a83","ios":"levelo://app?vid=c4021d13-ea23-4f68-b56d-9ec951ef5a83"},"vehicle_type_id":"4","last_reported":1747225212,"current_range_meters":18000,"station_id":"ce4bgl12rcd13ifvqbo0","pricing_plan_id":"cebpf4jnsgd1na2vs0mg"},{"bike_id":"b12ed505-2ca6-4f05-9936-9f36a0274522","system_id":"levelo_inurba_marseille","lat":43.31479,"lon":5.37309,"is_reserved":false,"is_disabled":false,"rental_uris":{"android":"levelo://app?vid=b12ed505-2ca6-4f05-9936-9f36a0274522","ios":"levelo://app?vid=b12ed505-2ca6-4f05-9936-9f36a0274522"},"vehicle_type_id":"4","last_reported":1747225212,"current_range_meters":18000,"station_id":"ce4bgt12rcd13ifvqcd0","pricing_plan_id":"cebpf4jnsgd1na2vs0mg"},{"bike_id":"c785251c-780d-4a50-9ca1-3185167bc6d2","system_id":"levelo_inurba_marseille","lat":43.23149,"lon":5.43718,"is_reserved":false,"is_disabled":false,"rental_uris":{"android":"levelo://app?vid=c785251c-780d-4a50-9ca1-3185167bc6d2","ios":"levelo://app?vid=c785251c-780d-4a50-9ca1-3185167bc6d2"},"vehicle_type_id":"4","last_reported":1747225212,"current_range_meters":18000,"station_id":"ce4bhmp2rcd13ifvqgog","pricing_plan_id":"cebpf4jnsgd1na2vs0mg"},{"bike_id":"1869438b-37aa-4321-baab-383c2a786ee6","system_id":"levelo_inurba_marseille","lat":43.28,"lon":5.40016,"is_reserved":false,"is_disabled":false,"rental_uris":{"android":"levelo://app?vid=1869438b-37aa-4321-baab-383c2a786ee6","ios":"levelo://app?vid=1869438b-37aa-4321-baab-383c2a786ee6"},"vehicle_type_id":"4","last_reported":1747225212,"current_range_meters":18000,"station_id":"ce4bho92rcd13ifvqh4g","pricing_plan_id":"cebpf4jnsgd1na2vs0mg"},{"bike_id":"f04ed4f1-a584-4874-a890-bc37eef487be","system_id":"levelo_inurba_marseille","lat":43.30423,"lon":5.41285,"is_reserved":false,"is_disabled":false,"rental_uris":{"android":"levelo://app?vid=f04ed4f1-a584-4874-a890-bc37eef487be","ios":"levelo://app?vid=f04ed4f1-a584-4874-a890-bc37eef487be"},"vehicle_type_id":"4","last_reported":1747225212,"current_range_meters":18000,"station_id":"ce4bhop2rcd13ifvqh8g","pricing_plan_id":"cebpf4jnsgd1na2vs0mg"},{"bike_id":"ac0112c9-313e-422c-910b-a3523b05b0c9","system_id":"levelo_inurba_marseille","lat":43.23056,"lon":5.354885,"is_reserved":false,"is_disabled":false,"rental_uris":{"android":"levelo://app?vid=ac0112c9-313e-422c-910b-a3523b05b0c9","ios":"levelo://app?vid=ac0112c9-313e-422c-910b-a3523b05b0c9"},"vehicle_type_id":"4","last_reported":1747225212,"current_range_meters":18000,"station_id":"cpo3342slgdg3j2ifvpg","pricing_plan_id":"cebpf4jnsgd1na2vs0mg"},{"bike_id":"4942d665-c741-48d1-8635-788f5b545a7c","system_id":"levelo_inurba_marseille","lat":43.30147,"lon":5.38097,"is_reserved":false,"is_disabled":false,"rental_uris":{"android":"levelo://app?vid=4942d665-c741-48d1-8635-788f5b545a7c","ios":"levelo://app?vid=4942d665-c741-48d1-8635-788f5b545a7c"},"vehicle_type_id":"4","last_reported":1747225212,"current_range_meters":18800,"station_id":"ce4bgjp2rcd13ifvqbh0","pricing_plan_id":"cebpf4jnsgd1na2vs0mg"},{"bike_id":"4c3b8585-c6f7-47ce-9660-fe1d7156c97d","system_id":"levelo_inurba_marseille","lat":43.30884,"lon":5.39652,"is_reserved":false,"is_disabled":false,"rental_uris":{"android":"levelo://app?vid=4c3b8585-c6f7-47ce-9660-fe1d7156c97d","ios":"levelo://app?vid=4c3b8585-c6f7-47ce-9660-fe1d7156c97d"},"vehicle_type_id":"4","last_reported":1747225212,"current_range_meters":18800,"station_id":"ce4bh012rcd13ifvqcv0","pricing_plan_id":"cebpf4jnsgd1na2vs0mg"},{"bike_id":"7495cbd9-e733-4e7b-822f-d573c7cb6fab","system_id":"levelo_inurba_marseille","lat":43.28416,"lon":5.34992,"is_reserved":false,"is_disabled":false,"rental_uris":{"android":"levelo://app?vid=7495cbd9-e733-4e7b-822f-d573c7cb6fab","ios":"levelo://app?vid=7495cbd9-e733-4e7b-822f-d573c7cb6fab"},"vehicle_type_id":"4","last_reported":1747225212,"current_range_meters":18800,"station_id":"ce4bhbh2rcd13ifvqepg","pricing_plan_id":"cebpf4jnsgd1na2vs0mg"},{"bike_id":"eebee00f-6d70-45b3-8bd0-1f5457c4addb","system_id":"levelo_inurba_marseille","lat":43.2842,"lon":5.34989,"is_reserved":false,"is_disabled":false,"rental_uris":{"android":"levelo://app?vid=eebee00f-6d70-45b3-8bd0-1f5457c4addb","ios":"levelo://app?vid=eebee00f-6d70-45b3-8bd0-1f5457c4addb"},"vehicle_type_id":"4","last_reported":1747225212,"current_range_meters":18800,"station_id":"ce4bhbh2rcd13ifvqepg","pricing_plan_id":"cebpf4jnsgd1na2vs0mg"},{"bike_id":"848a305e-a782-426b-b344-ae683f56e5ca","system_id":"levelo_inurba_marseille","lat":43.286215,"lon":5.351023,"is_reserved":false,"is_disabled":false,"rental_uris":{"android":"levelo://app?vid=848a305e-a782-426b-b344-ae683f56e5ca","ios":"levelo://app?vid=848a305e-a782-426b-b344-ae683f56e5ca"},"vehicle_type_id":"4","last_reported":1747225212,"current_range_meters":18800,"station_id":"ce4bhch2rcd13ifvqeug","pricing_plan_id":"cebpf4jnsgd1na2vs0mg"},{"bike_id":"fdf5099d-3cb8-4fb5-90c4-f9dcbc7c2a8c","system_id":"levelo_inurba_marseille","lat":43.25927,"lon":5.4089,"is_reserved":false,"is_disabled":false,"rental_uris":{"android":"levelo://app?vid=fdf5099d-3cb8-4fb5-90c4-f9dcbc7c2a8c","ios":"levelo://app?vid=fdf5099d-3cb8-4fb5-90c4-f9dcbc7c2a8c"},"vehicle_type_id":"4","last_reported":1747225212,"current_range_meters":18800,"station_id":"ce4bhm92rcd13ifvqglg","pricing_plan_id":"cebpf4jnsgd1na2vs0mg"},{"bike_id":"644511a3-94a8-4d9e-a99e-a8a4681f0634","system_id":"levelo_inurba_marseille","lat":43.241704,"lon":5.397394,"is_reserved":false,"is_disabled":false,"rental_uris":{"android":"levelo://app?vid=644511a3-94a8-4d9e-a99e-a8a4681f0634","ios":"levelo://app?vid=644511a3-94a8-4d9e-a99e-a8a4681f0634"},"vehicle_type_id":"4","last_reported":1747225212,"current_range_meters":18800,"station_id":"ce4bhn12rcd13ifvqgpg","pricing_plan_id":"cebpf4jnsgd1na2vs0mg"},{"bike_id":"2130f03a-a862-4bec-963d-d70d2b4dda53","system_id":"levelo_inurba_marseille","lat":43.32334,"lon":5.4062,"is_reserved":false,"is_disabled":false,"rental_uris":{"android":"levelo://app?vid=2130f03a-a862-4bec-963d-d70d2b4dda53","ios":"levelo://app?vid=2130f03a-a862-4bec-963d-d70d2b4dda53"},"vehicle_type_id":"4","last_reported":1747225212,"current_range_meters":18800,"station_id":"ce4bhq92rcd13ifvqhjg","pricing_plan_id":"cebpf4jnsgd1na2vs0mg"},{"bike_id":"1a6f85e0-b629-4ca4-a30b-62c25b7da9ad","system_id":"levelo_inurba_marseille","lat":43.29566,"lon":5.37535,"is_reserved":false,"is_disabled":false,"rental_uris":{"android":"levelo://app?vid=1a6f85e0-b629-4ca4-a30b-62c25b7da9ad","ios":"levelo://app?vid=1a6f85e0-b629-4ca4-a30b-62c25b7da9ad"},"vehicle_type_id":"4","last_reported":1747225212,"current_range_meters":19200,"station_id":"ce4bgh92rcd13ifvqb50","pricing_plan_id":"cebpf4jnsgd1na2vs0mg"},{"bike_id":"8c32ae4c-85e3-47df-af02-7e8ca739be33","system_id":"levelo_inurba_marseille","lat":43.30534,"lon":5.365383,"is_reserved":false,"is_disabled":false,"rental_uris":{"android":"levelo://app?vid=8c32ae4c-85e3-47df-af02-7e8ca739be33","ios":"levelo://app?vid=8c32ae4c-85e3-47df-af02-7e8ca739be33"},"vehicle_type_id":"4","last_reported":1747225212,"current_range_meters":19200,"station_id":"ce4bgs12rcd13ifvqcag","pricing_plan_id":"cebpf4jnsgd1na2vs0mg"},{"bike_id":"59522c92-ae68-47cb-8192-6c1f292c4785","system_id":"levelo_inurba_marseille","lat":43.284098,"lon":5.349877,"is_reserved":false,"is_disabled":false,"rental_uris":{"android":"levelo://app?vid=59522c92-ae68-47cb-8192-6c1f292c4785","ios":"levelo://app?vid=59522c92-ae68-47cb-8192-6c1f292c4785"},"vehicle_type_id":"4","last_reported":1747225212,"current_range_meters":19200,"station_id":"ce4bhbh2rcd13ifvqepg","pricing_plan_id":"cebpf4jnsgd1na2vs0mg"},{"bike_id":"38211f5a-9e6b-43fb-a533-35898239b6a3","system_id":"levelo_inurba_marseille","lat":43.23967,"lon":5.36619,"is_reserved":false,"is_disabled":false,"rental_uris":{"android":"levelo://app?vid=38211f5a-9e6b-43fb-a533-35898239b6a3","ios":"levelo://app?vid=38211f5a-9e6b-43fb-a533-35898239b6a3"},"vehicle_type_id":"4","last_reported":1747225212,"current_range_meters":19200,"station_id":"ce4bhi12rcd13ifvqfp0","pricing_plan_id":"cebpf4jnsgd1na2vs0mg"},{"bike_id":"4269a203-34b5-408c-9237-8b2f72169f12","system_id":"levelo_inurba_marseille","lat":43.23152,"lon":5.4369,"is_reserved":false,"is_disabled":false,"rental_uris":{"android":"levelo://app?vid=4269a203-34b5-408c-9237-8b2f72169f12","ios":"levelo://app?vid=4269a203-34b5-408c-9237-8b2f72169f12"},"vehicle_type_id":"4","last_reported":1747225212,"current_range_meters":19200,"station_id":"ce4bhmp2rcd13ifvqgog","pricing_plan_id":"cebpf4jnsgd1na2vs0mg"},{"bike_id":"297a85b0-fa8c-489e-bd98-6fd7f3aae510","system_id":"levelo_inurba_marseille","lat":43.24175,"lon":5.39729,"is_reserved":false,"is_disabled":false,"rental_uris":{"android":"levelo://app?vid=297a85b0-fa8c-489e-bd98-6fd7f3aae510","ios":"levelo://app?vid=297a85b0-fa8c-489e-bd98-6fd7f3aae510"},"vehicle_type_id":"4","last_reported":1747225212,"current_range_meters":19200,"station_id":"ce4bhn12rcd13ifvqgpg","pricing_plan_id":"cebpf4jnsgd1na2vs0mg"},{"bike_id":"74e465a6-62f1-45be-9144-40f0ae71c9e6","system_id":"levelo_inurba_marseille","lat":43.32356,"lon":5.36742,"is_reserved":false,"is_disabled":false,"rental_uris":{"android":"levelo://app?vid=74e465a6-62f1-45be-9144-40f0ae71c9e6","ios":"levelo://app?vid=74e465a6-62f1-45be-9144-40f0ae71c9e6"},"vehicle_type_id":"4","last_reported":1747225212,"current_range_meters":19200,"station_id":"ce4bhsh2rcd13ifvqi2g","pricing_plan_id":"cebpf4jnsgd1na2vs0mg"},{"bike_id":"1def4d9e-ba54-4554-8279-72b57c0de750","system_id":"levelo_inurba_marseille","lat":43.337444,"lon":5.374475,"is_reserved":false,"is_disabled":false,"rental_uris":{"android":"levelo://app?vid=1def4d9e-ba54-4554-8279-72b57c0de750","ios":"levelo://app?vid=1def4d9e-ba54-4554-8279-72b57c0de750"},"vehicle_type_id":"4","last_reported":1747225212,"current_range_meters":19600,"station_id":"","pricing_plan_id":"cebpf4jnsgd1na2vs0mg"},{"bike_id":"1c6fe7b0-e1cd-437a-a559-00990c9e1fc1","system_id":"levelo_inurba_marseille","lat":43.30177,"lon":5.3661,"is_reserved":false,"is_disabled":false,"rental_uris":{"android":"levelo://app?vid=1c6fe7b0-e1cd-437a-a559-00990c9e1fc1","ios":"levelo://app?vid=1c6fe7b0-e1cd-437a-a559-00990c9e1fc1"},"vehicle_type_id":"4","last_reported":1747225212,"current_range_meters":19600,"station_id":"ce4bgrh2rcd13ifvqc8g","pricing_plan_id":"cebpf4jnsgd1na2vs0mg"},{"bike_id":"2ecb114f-5d75-4c5d-8f1f-6d26727f9732","system_id":"levelo_inurba_marseille","lat":43.286173,"lon":5.350997,"is_reserved":false,"is_disabled":false,"rental_uris":{"android":"levelo://app?vid=2ecb114f-5d75-4c5d-8f1f-6d26727f9732","ios":"levelo://app?vid=2ecb114f-5d75-4c5d-8f1f-6d26727f9732"},"vehicle_type_id":"4","last_reported":1747225212,"current_range_meters":19600,"station_id":"ce4bhch2rcd13ifvqeug","pricing_plan_id":"cebpf4jnsgd1na2vs0mg"},{"bike_id":"70136c98-e1a2-4944-bc03-8f5e5e059d96","system_id":"levelo_inurba_marseille","lat":43.23148,"lon":5.43706,"is_reserved":false,"is_disabled":false,"rental_uris":{"android":"levelo://app?vid=70136c98-e1a2-4944-bc03-8f5e5e059d96","ios":"levelo://app?vid=70136c98-e1a2-4944-bc03-8f5e5e059d96"},"vehicle_type_id":"4","last_reported":1747225212,"current_range_meters":19600,"station_id":"ce4bhmp2rcd13ifvqgog","pricing_plan_id":"cebpf4jnsgd1na2vs0mg"},{"bike_id":"4bf5ce02-59c5-428f-a5c8-351ac81a0899","system_id":"levelo_inurba_marseille","lat":43.32542,"lon":5.41439,"is_reserved":false,"is_disabled":false,"rental_uris":{"android":"levelo://app?vid=4bf5ce02-59c5-428f-a5c8-351ac81a0899","ios":"levelo://app?vid=4bf5ce02-59c5-428f-a5c8-351ac81a0899"},"vehicle_type_id":"4","last_reported":1747225212,"current_range_meters":19600,"station_id":"ce4bhq12rcd13ifvqhhg","pricing_plan_id":"cebpf4jnsgd1na2vs0mg"},{"bike_id":"236fe8a1-bb49-4378-9a13-707d1ea97db2","system_id":"levelo_inurba_marseille","lat":43.32108,"lon":5.36774,"is_reserved":false,"is_disabled":false,"rental_uris":{"android":"levelo://app?vid=236fe8a1-bb49-4378-9a13-707d1ea97db2","ios":"levelo://app?vid=236fe8a1-bb49-4378-9a13-707d1ea97db2"},"vehicle_type_id":"4","last_reported":1747225212,"current_range_meters":19600,"station_id":"ce4bhrh2rcd13ifvqhug","pricing_plan_id":"cebpf4jnsgd1na2vs0mg"},{"bike_id":"5766e2cb-0f22-44c2-aff4-fafe3037b8fc","system_id":"levelo_inurba_marseille","lat":43.25106,"lon":5.40338,"is_reserved":false,"is_disabled":false,"rental_uris":{"android":"levelo://app?vid=5766e2cb-0f22-44c2-aff4-fafe3037b8fc","ios":"levelo://app?vid=5766e2cb-0f22-44c2-aff4-fafe3037b8fc"},"vehicle_type_id":"4","last_reported":1747225212,"current_range_meters":20000,"station_id":"ce4bhlh2rcd13ifvqgig","pricing_plan_id":"cebpf4jnsgd1na2vs0mg"},{"bike_id":"0c139302-ba80-4a2f-9a2c-8f684bc2a58e","system_id":"levelo_inurba_marseille","lat":43.24544,"lon":5.39515,"is_reserved":false,"is_disabled":false,"rental_uris":{"android":"levelo://app?vid=0c139302-ba80-4a2f-9a2c-8f684bc2a58e","ios":"levelo://app?vid=0c139302-ba80-4a2f-9a2c-8f684bc2a58e"},"vehicle_type_id":"4","last_reported":1747225212,"current_range_meters":20000,"station_id":"ce4bhlp2rcd13ifvqgjg","pricing_plan_id":"cebpf4jnsgd1na2vs0mg"},{"bike_id":"61aa1782-49d9-4762-bea1-94c390716a66","system_id":"levelo_inurba_marseille","lat":43.33607,"lon":5.41022,"is_reserved":false,"is_disabled":false,"rental_uris":{"android":"levelo://app?vid=61aa1782-49d9-4762-bea1-94c390716a66","ios":"levelo://app?vid=61aa1782-49d9-4762-bea1-94c390716a66"},"vehicle_type_id":"4","last_reported":1747225212,"current_range_meters":20000,"station_id":"ce4bhqh2rcd13ifvqhmg","pricing_plan_id":"cebpf4jnsgd1na2vs0mg"},{"bike_id":"13c9dde3-370f-4898-921a-52334846866b","system_id":"levelo_inurba_marseille","lat":43.312165,"lon":5.368615,"is_reserved":false,"is_disabled":false,"rental_uris":{"android":"levelo://app?vid=13c9dde3-370f-4898-921a-52334846866b","ios":"levelo://app?vid=13c9dde3-370f-4898-921a-52334846866b"},"vehicle_type_id":"4","last_reported":1747225212,"current_range_meters":20400,"station_id":"ce4bgl92rcd13ifvqbq0","pricing_plan_id":"cebpf4jnsgd1na2vs0mg"},{"bike_id":"a746e2c7-b52e-4d4e-8bfc-76b12e0209f6","system_id":"levelo_inurba_marseille","lat":43.325434,"lon":5.41438,"is_reserved":false,"is_disabled":false,"rental_uris":{"android":"levelo://app?vid=a746e2c7-b52e-4d4e-8bfc-76b12e0209f6","ios":"levelo://app?vid=a746e2c7-b52e-4d4e-8bfc-76b12e0209f6"},"vehicle_type_id":"4","last_reported":1747225212,"current_range_meters":20400,"station_id":"ce4bhq12rcd13ifvqhhg","pricing_plan_id":"cebpf4jnsgd1na2vs0mg"},{"bike_id":"2cb2c80c-a63d-4f7d-88b4-cacc8db008d6","system_id":"levelo_inurba_marseille","lat":43.23065,"lon":5.35493,"is_reserved":false,"is_disabled":false,"rental_uris":{"android":"levelo://app?vid=2cb2c80c-a63d-4f7d-88b4-cacc8db008d6","ios":"levelo://app?vid=2cb2c80c-a63d-4f7d-88b4-cacc8db008d6"},"vehicle_type_id":"4","last_reported":1747225212,"current_range_meters":20400,"station_id":"cpo3342slgdg3j2ifvpg","pricing_plan_id":"cebpf4jnsgd1na2vs0mg"},{"bike_id":"1ae0b734-22b3-4b50-80d3-c63698279b7b","system_id":"levelo_inurba_marseille","lat":43.30593,"lon":5.37104,"is_reserved":false,"is_disabled":false,"rental_uris":{"android":"levelo://app?vid=1ae0b734-22b3-4b50-80d3-c63698279b7b","ios":"levelo://app?vid=1ae0b734-22b3-4b50-80d3-c63698279b7b"},"vehicle_type_id":"4","last_reported":1747225212,"current_range_meters":20800,"station_id":"","pricing_plan_id":"cebpf4jnsgd1na2vs0mg"},{"bike_id":"3510939f-7cd9-4aa4-b8cb-9520e70f17e7","system_id":"levelo_inurba_marseille","lat":43.28434,"lon":5.34998,"is_reserved":false,"is_disabled":false,"rental_uris":{"android":"levelo://app?vid=3510939f-7cd9-4aa4-b8cb-9520e70f17e7","ios":"levelo://app?vid=3510939f-7cd9-4aa4-b8cb-9520e70f17e7"},"vehicle_type_id":"4","last_reported":1747225212,"current_range_meters":20800,"station_id":"ce4bhbh2rcd13ifvqepg","pricing_plan_id":"cebpf4jnsgd1na2vs0mg"},{"bike_id":"c41dfe03-8515-4f3b-be02-a998e39f9069","system_id":"levelo_inurba_marseille","lat":43.336139,"lon":5.410312,"is_reserved":false,"is_disabled":false,"rental_uris":{"android":"levelo://app?vid=c41dfe03-8515-4f3b-be02-a998e39f9069","ios":"levelo://app?vid=c41dfe03-8515-4f3b-be02-a998e39f9069"},"vehicle_type_id":"4","last_reported":1747225212,"current_range_meters":20800,"station_id":"ce4bhqh2rcd13ifvqhmg","pricing_plan_id":"cebpf4jnsgd1na2vs0mg"},{"bike_id":"def2aa14-8fea-48c2-9e53-91c1ba85147e","system_id":"levelo_inurba_marseille","lat":43.24175,"lon":5.36372,"is_reserved":false,"is_disabled":false,"rental_uris":{"android":"levelo://app?vid=def2aa14-8fea-48c2-9e53-91c1ba85147e","ios":"levelo://app?vid=def2aa14-8fea-48c2-9e53-91c1ba85147e"},"vehicle_type_id":"4","last_reported":1747225212,"current_range_meters":20800,"station_id":"cpo36qri1sfpv3e86is0","pricing_plan_id":"cebpf4jnsgd1na2vs0mg"},{"bike_id":"9a402898-f116-408b-8709-c62dd77d2b5d","system_id":"levelo_inurba_marseille","lat":43.29346,"lon":5.42816,"is_reserved":false,"is_disabled":false,"rental_uris":{"android":"levelo://app?vid=9a402898-f116-408b-8709-c62dd77d2b5d","ios":"levelo://app?vid=9a402898-f116-408b-8709-c62dd77d2b5d"},"vehicle_type_id":"4","last_reported":1747225212,"current_range_meters":21600,"station_id":"","pricing_plan_id":"cebpf4jnsgd1na2vs0mg"},{"bike_id":"bbaeff81-db14-45c9-93f7-24c2eec9f70e","system_id":"levelo_inurba_marseille","lat":43.29677,"lon":5.37287,"is_reserved":false,"is_disabled":false,"rental_uris":{"android":"levelo://app?vid=bbaeff81-db14-45c9-93f7-24c2eec9f70e","ios":"levelo://app?vid=bbaeff81-db14-45c9-93f7-24c2eec9f70e"},"vehicle_type_id":"4","last_reported":1747225212,"current_range_meters":21600,"station_id":"ce4bgk12rcd13ifvqbj0","pricing_plan_id":"cebpf4jnsgd1na2vs0mg"},{"bike_id":"70bcf05f-11a2-4b3a-bbbf-ec76dee62913","system_id":"levelo_inurba_marseille","lat":43.25498,"lon":5.37653,"is_reserved":false,"is_disabled":false,"rental_uris":{"android":"levelo://app?vid=70bcf05f-11a2-4b3a-bbbf-ec76dee62913","ios":"levelo://app?vid=70bcf05f-11a2-4b3a-bbbf-ec76dee62913"},"vehicle_type_id":"4","last_reported":1747225212,"current_range_meters":21600,"station_id":"ce4bhh12rcd13ifvqff0","pricing_plan_id":"cebpf4jnsgd1na2vs0mg"},{"bike_id":"75bddf96-5ca0-4fe6-9447-53dded0e6560","system_id":"levelo_inurba_marseille","lat":43.26499,"lon":5.39534,"is_reserved":false,"is_disabled":false,"rental_uris":{"android":"levelo://app?vid=75bddf96-5ca0-4fe6-9447-53dded0e6560","ios":"levelo://app?vid=75bddf96-5ca0-4fe6-9447-53dded0e6560"},"vehicle_type_id":"4","last_reported":1747225212,"current_range_meters":21600,"station_id":"ce4bhi12rcd13ifvqfq0","pricing_plan_id":"cebpf4jnsgd1na2vs0mg"},{"bike_id":"f79fad5e-e5b3-4270-810a-cf13601bd960","system_id":"levelo_inurba_marseille","lat":43.32333,"lon":5.40617,"is_reserved":false,"is_disabled":false,"rental_uris":{"android":"levelo://app?vid=f79fad5e-e5b3-4270-810a-cf13601bd960","ios":"levelo://app?vid=f79fad5e-e5b3-4270-810a-cf13601bd960"},"vehicle_type_id":"4","last_reported":1747225212,"current_range_meters":21600,"station_id":"ce4bhq92rcd13ifvqhjg","pricing_plan_id":"cebpf4jnsgd1na2vs0mg"},{"bike_id":"980fa866-67fc-46e8-87de-865888f1caed","system_id":"levelo_inurba_marseille","lat":43.211884,"lon":5.350744,"is_reserved":false,"is_disabled":false,"rental_uris":{"android":"levelo://app?vid=980fa866-67fc-46e8-87de-865888f1caed","ios":"levelo://app?vid=980fa866-67fc-46e8-87de-865888f1caed"},"vehicle_type_id":"4","last_reported":1747225212,"current_range_meters":21600,"station_id":"st_cvj6sg6p6f1abm77japg","pricing_plan_id":"cebpf4jnsgd1na2vs0mg"},{"bike_id":"109d9723-76e0-4255-be7b-ac39d3cd0307","system_id":"levelo_inurba_marseille","lat":43.21192,"lon":5.35064,"is_reserved":false,"is_disabled":false,"rental_uris":{"android":"levelo://app?vid=109d9723-76e0-4255-be7b-ac39d3cd0307","ios":"levelo://app?vid=109d9723-76e0-4255-be7b-ac39d3cd0307"},"vehicle_type_id":"4","last_reported":1747225212,"current_range_meters":21600,"station_id":"st_cvj6sg6p6f1abm77japg","pricing_plan_id":"cebpf4jnsgd1na2vs0mg"},{"bike_id":"aabab722-0705-4250-8ae2-412eebb8e07d","system_id":"levelo_inurba_marseille","lat":43.298654,"lon":5.397279,"is_reserved":false,"is_disabled":false,"rental_uris":{"android":"levelo://app?vid=aabab722-0705-4250-8ae2-412eebb8e07d","ios":"levelo://app?vid=aabab722-0705-4250-8ae2-412eebb8e07d"},"vehicle_type_id":"4","last_reported":1747225212,"current_range_meters":22000,"station_id":"","pricing_plan_id":"cebpf4jnsgd1na2vs0mg"},{"bike_id":"a9d31fe0-2508-42cc-8e0b-6f6a14799b08","system_id":"levelo_inurba_marseille","lat":43.3015,"lon":5.37245,"is_reserved":false,"is_disabled":false,"rental_uris":{"android":"levelo://app?vid=a9d31fe0-2508-42cc-8e0b-6f6a14799b08","ios":"levelo://app?vid=a9d31fe0-2508-42cc-8e0b-6f6a14799b08"},"vehicle_type_id":"4","last_reported":1747225212,"current_range_meters":22000,"station_id":"","pricing_plan_id":"cebpf4jnsgd1na2vs0mg"},{"bike_id":"8f7320a4-2864-4b50-9121-159a1de7c6ed","system_id":"levelo_inurba_marseille","lat":43.28106,"lon":5.37835,"is_reserved":false,"is_disabled":false,"rental_uris":{"android":"levelo://app?vid=8f7320a4-2864-4b50-9121-159a1de7c6ed","ios":"levelo://app?vid=8f7320a4-2864-4b50-9121-159a1de7c6ed"},"vehicle_type_id":"4","last_reported":1747225212,"current_range_meters":22000,"station_id":"ce4bha12rcd13ifvqee0","pricing_plan_id":"cebpf4jnsgd1na2vs0mg"},{"bike_id":"0cdce39c-9f76-4f08-bf23-3363e48192f5","system_id":"levelo_inurba_marseille","lat":43.27071,"lon":5.42278,"is_reserved":false,"is_disabled":false,"rental_uris":{"android":"levelo://app?vid=0cdce39c-9f76-4f08-bf23-3363e48192f5","ios":"levelo://app?vid=0cdce39c-9f76-4f08-bf23-3363e48192f5"},"vehicle_type_id":"4","last_reported":1747225212,"current_range_meters":22000,"station_id":"ce4bhk92rcd13ifvqgb0","pricing_plan_id":"cebpf4jnsgd1na2vs0mg"},{"bike_id":"2af92e6d-ddc6-4355-bfb7-94a4c9a1c44e","system_id":"levelo_inurba_marseille","lat":43.24068,"lon":5.3776,"is_reserved":false,"is_disabled":false,"rental_uris":{"android":"levelo://app?vid=2af92e6d-ddc6-4355-bfb7-94a4c9a1c44e","ios":"levelo://app?vid=2af92e6d-ddc6-4355-bfb7-94a4c9a1c44e"},"vehicle_type_id":"4","last_reported":1747225212,"current_range_meters":22000,"station_id":"ce4bhnp2rcd13ifvqgvg","pricing_plan_id":"cebpf4jnsgd1na2vs0mg"},{"bike_id":"6b7c691e-f2b5-488a-bb78-f3336304d229","system_id":"levelo_inurba_marseille","lat":43.24166,"lon":5.36393,"is_reserved":false,"is_disabled":false,"rental_uris":{"android":"levelo://app?vid=6b7c691e-f2b5-488a-bb78-f3336304d229","ios":"levelo://app?vid=6b7c691e-f2b5-488a-bb78-f3336304d229"},"vehicle_type_id":"4","last_reported":1747225212,"current_range_meters":22000,"station_id":"cpo36qri1sfpv3e86is0","pricing_plan_id":"cebpf4jnsgd1na2vs0mg"},{"bike_id":"e85948bd-cc69-4d18-8d59-57169be267b7","system_id":"levelo_inurba_marseille","lat":43.3059,"lon":5.37202,"is_reserved":false,"is_disabled":false,"rental_uris":{"android":"levelo://app?vid=e85948bd-cc69-4d18-8d59-57169be267b7","ios":"levelo://app?vid=e85948bd-cc69-4d18-8d59-57169be267b7"},"vehicle_type_id":"4","last_reported":1747225212,"current_range_meters":22400,"station_id":"","pricing_plan_id":"cebpf4jnsgd1na2vs0mg"},{"bike_id":"04d5fd50-4e50-44b3-a3d9-c4af1ab74a1f","system_id":"levelo_inurba_marseille","lat":43.293,"lon":5.3746,"is_reserved":false,"is_disabled":false,"rental_uris":{"android":"levelo://app?vid=04d5fd50-4e50-44b3-a3d9-c4af1ab74a1f","ios":"levelo://app?vid=04d5fd50-4e50-44b3-a3d9-c4af1ab74a1f"},"vehicle_type_id":"4","last_reported":1747225212,"current_range_meters":22400,"station_id":"ce4bgi12rcd13ifvqb70","pricing_plan_id":"cebpf4jnsgd1na2vs0mg"},{"bike_id":"0bbae7b2-531d-4cae-bdb7-8f948d41f12e","system_id":"levelo_inurba_marseille","lat":43.29619,"lon":5.3716,"is_reserved":false,"is_disabled":false,"rental_uris":{"android":"levelo://app?vid=0bbae7b2-531d-4cae-bdb7-8f948d41f12e","ios":"levelo://app?vid=0bbae7b2-531d-4cae-bdb7-8f948d41f12e"},"vehicle_type_id":"4","last_reported":1747225212,"current_range_meters":22400,"station_id":"ce4bgnh2rcd13ifvqc0g","pricing_plan_id":"cebpf4jnsgd1na2vs0mg"},{"bike_id":"91665dda-a13e-407a-8c49-5c13a211b6ea","system_id":"levelo_inurba_marseille","lat":43.2803,"lon":5.36944,"is_reserved":false,"is_disabled":false,"rental_uris":{"android":"levelo://app?vid=91665dda-a13e-407a-8c49-5c13a211b6ea","ios":"levelo://app?vid=91665dda-a13e-407a-8c49-5c13a211b6ea"},"vehicle_type_id":"4","last_reported":1747225212,"current_range_meters":22400,"station_id":"ce4bha12rcd13ifvqef0","pricing_plan_id":"cebpf4jnsgd1na2vs0mg"},{"bike_id":"f5ce7d4a-b038-493d-a2cd-a9009ea02b09","system_id":"levelo_inurba_marseille","lat":43.26032,"lon":5.37554,"is_reserved":false,"is_disabled":false,"rental_uris":{"android":"levelo://app?vid=f5ce7d4a-b038-493d-a2cd-a9009ea02b09","ios":"levelo://app?vid=f5ce7d4a-b038-493d-a2cd-a9009ea02b09"},"vehicle_type_id":"4","last_reported":1747225212,"current_range_meters":22400,"station_id":"ce4bhgh2rcd13ifvqfa0","pricing_plan_id":"cebpf4jnsgd1na2vs0mg"},{"bike_id":"f8b1959f-3139-4509-a0d1-93140f737f23","system_id":"levelo_inurba_marseille","lat":43.25911,"lon":5.40935,"is_reserved":false,"is_disabled":false,"rental_uris":{"android":"levelo://app?vid=f8b1959f-3139-4509-a0d1-93140f737f23","ios":"levelo://app?vid=f8b1959f-3139-4509-a0d1-93140f737f23"},"vehicle_type_id":"4","last_reported":1747225212,"current_range_meters":22400,"station_id":"ce4bhm92rcd13ifvqglg","pricing_plan_id":"cebpf4jnsgd1na2vs0mg"},{"bike_id":"8b04737c-0483-4ac0-8e76-fc6544c07c98","system_id":"levelo_inurba_marseille","lat":43.3255,"lon":5.41419,"is_reserved":false,"is_disabled":false,"rental_uris":{"android":"levelo://app?vid=8b04737c-0483-4ac0-8e76-fc6544c07c98","ios":"levelo://app?vid=8b04737c-0483-4ac0-8e76-fc6544c07c98"},"vehicle_type_id":"4","last_reported":1747225212,"current_range_meters":22400,"station_id":"ce4bhq12rcd13ifvqhhg","pricing_plan_id":"cebpf4jnsgd1na2vs0mg"},