{"last_updated":1750104731,"ttl":60,"version":"2.2","data":{"bikes":[{"bike_id":"3da29fb8-fc97-44c6-b9ac-31dd456b2fd4","system_id":"levelo_inurba_marseille","lat":43.33771,"lon":5.37424,"is_reserved":false,"is_disabled":true,"rental_uris":{"android":"levelo://app?vid=3da29fb8-fc97-44c6-b9ac-31dd456b2fd4","ios":"levelo://app?vid=3da29fb8-fc97-44c6-b9ac-31dd456b2fd4"},"vehicle_type_id":"4","last_reported":1750104731,"current_range_meters":0,"station_id":"","pricing_plan_id":"cebpf4jnsgd1na2vs0mg"},{"bike_id":"01861ad8-a8d7-4be6-816e-651927c87584","system_id":"levelo_inurba_marseille","lat":43.33751,"lon":5.37456,"is_reserved":false,"is_disabled":true,"rental_uris":{"android":"levelo://app?vid=01861ad8-a8d7-4be6-816e-651927c87584","ios":"levelo://app?vid=01861ad8-a8d7-4be6-816e-651927c87584"},"vehicle_type_id":"4","last_reported":1750104731,"current_range_meters":0,"station_id":"","pricing_plan_id":"cebpf4jnsgd1na2vs0mg"},{"bike_id":"2c88bcb9-85cb-4248-baf5-13b87393da63","system_id":"levelo_inurba_marseille","lat":43.28539,"lon":5.38816,"is_reserved":false,"is_disabled":true,"rental_uris":{"android":"levelo://app?vid=2c88bcb9-85cb-4248-baf5-13b87393da63","ios":"levelo://app?vid=2c88bcb9-85cb-4248-baf5-13b87393da63"},"vehicle_type_id":"4","last_reported":1750104731,"current_range_meters":0,"station_id":"","pricing_plan_id":"cebpf4jnsgd1na2vs0mg"},{"bike_id":"d2bd57c8-6b64-48db-ad24-5398eb3fd9d6","system_id":"levelo_inurba_marseille","lat":43.337444,"lon":5.374475,"is_reserved":false,"is_disabled":true,"rental_uris":{"android":"levelo://app?vid=d2bd57c8-6b64-48db-ad24-5398eb3fd9d6","ios":"levelo://app?vid=d2bd57c8-6b64-48db-ad24-5398eb3fd9d6"},"vehicle_type_id":"4","last_reported":1750104731,"current_range_meters":0,"station_id":"","pricing_plan_id":"cebpf4jnsgd1na2vs0mg"},{"bike_id":"359f8b37-6ef5-4a21-a5ad-2946b7f24955","system_id":"levelo_inurba_marseille","lat":43.30762,"lon":5.43709,"is_reserved":false,"is_disabled":true,"rental_uris":{"android":"levelo://app?vid=359f8b37-6ef5-4a21-a5ad-2946b7f24955","ios":"levelo://app?vid=359f8b37-6ef5-4a21-a5ad-2946b7f24955"},"vehicle_type_id":"4","last_reported":1750104731,"current_range_meters":0,"station_id":"","pricing_plan_id":"cebpf4jnsgd1na2vs0mg"},{"bike_id":"31efc9ba-0c74-4af5-9228-1de18fc992e3","system_id":"levelo_inurba_marseille","lat":43.29996,"lon":5.37001,"is_reserved":false,"is_disabled":true,"rental_uris":{"android":"levelo://app?vid=31efc9ba-0c74-4af5-9228-1de18fc992e3","ios":"levelo://app?vid=31efc9ba-0c74-4af5-9228-1de18fc992e3"},"vehicle_type_id":"4","last_reported":1750104731,"current_range_meters":0,"station_id":"","pricing_plan_id":"cebpf4jnsgd1na2vs0mg"},{"bike_id":"62a493c7-4534-4419-ad43-0582de34a72a","system_id":"levelo_inurba_marseille","lat":43.21366,"lon":5.355183,"is_reserved":false,"is_disabled":true,"rental_uris":{"android":"levelo://app?vid=62a493c7-4534-4419-ad43-0582de34a72a","ios":"levelo://app?vid=62a493c7-4534-4419-ad43-0582de34a72a"},"vehicle_type_id":"4","last_reported":1750104731,"current_range_meters":0,"station_id":"","pricing_plan_id":"cebpf4jnsgd1na2vs0mg"},{"bike_id":"117f24b3-d6ce-455f-99fd-f28a795c0458","system_id":"levelo_inurba_marseille","lat":43.279963,"lon":5.384393,"is_reserved":false,"is_disabled":true,"rental_uris":{"android":"levelo://app?vid=117f24b3-d6ce-455f-99fd-f28a795c0458","ios":"levelo://app?vid=117f24b3-d6ce-455f-99fd-f28a795c0458"},"vehicle_type_id":"4","last_reported":1750104731,"current_range_meters":0,"station_id":"","pricing_plan_id":"cebpf4jnsgd1na2vs0mg"},{"bike_id":"946f5633-31c1-46bf-ab81-23560e476e56","system_id":"levelo_inurba_marseille","lat":43.26052,"lon":5.38735,"is_reserved":false,"is_disabled":true,"rental_uris":{"android":"levelo://app?vid=946f5633-31c1-46bf-ab81-23560e476e56","ios":"levelo://app?vid=946f5633-31c1-46bf-ab81-23560e476e56"},"vehicle_type_id":"4","last_reported":1750104731,"current_range_meters":0,"station_id":"","pricing_plan_id":"cebpf4jnsgd1na2vs0mg"},{"bike_id":"caca20da-18e0-443e-a3dc-04ab1bbad8db","system_id":"levelo_inurba_marseille","lat":43.27128,"lon":5.36383,"is_reserved":false,"is_disabled":true,"rental_uris":{"android":"levelo://app?vid=caca20da-18e0-443e-a3dc-04ab1bbad8db","ios":"levelo://app?vid=caca20da-18e0-443e-a3dc-04ab1bbad8db"},"vehicle_type_id":"4","last_reported":1750104731,"current_range_meters":0,"station_id":"","pricing_plan_id":"cebpf4jnsgd1na2vs0mg"},{"bike_id":"93af304b-67b5-47b8-a3fd-e0775f7cde8c","system_id":"levelo_inurba_marseille","lat":43.21555,"lon":5.34734,"is_reserved":false,"is_disabled":true,"rental_uris":{"android":"levelo://app?vid=93af304b-67b5-47b8-a3fd-e0775f7cde8c","ios":"levelo://app?vid=93af304b-67b5-47b8-a3fd-e0775f7cde8c"},"vehicle_type_id":"4","last_reported":1750104731,"current_range_meters":0,"station_id":"","pricing_plan_id":"cebpf4jnsgd1na2vs0mg"},{"bike_id":"d6609b4f-333b-43c1-9ebe-8726f5e76e88","system_id":"levelo_inurba_marseille","lat":43.337444,"lon":5.374475,"is_reserved":false,"is_disabled":true,"rental_uris":{"android":"levelo://app?vid=d6609b4f-333b-43c1-9ebe-8726f5e76e88","ios":"levelo://app?vid=d6609b4f-333b-43c1-9ebe-8726f5e76e88"},"vehicle_type_id":"4","last_reported":1750104731,"current_range_meters":0,"station_id":"","pricing_plan_id":"cebpf4jnsgd1na2vs0mg"},{"bike_id":"a354a693-87cc-4bf2-b99d-b0ea81e88075","system_id":"levelo_inurba_marseille","lat":43.26159,"lon":5.38819,"is_reserved":false,"is_disabled":true,"rental_uris":{"android":"levelo://app?vid=a354a693-87cc-4bf2-b99d-b0ea81e88075","ios":"levelo://app?vid=a354a693-87cc-4bf2-b99d-b0ea81e88075"},"vehicle_type_id":"4","last_reported":1750104731,"current_range_meters":0,"station_id":"","pricing_plan_id":"cebpf4jnsgd1na2vs0mg"},{"bike_id":"ee1c0f06-5e7c-4ac8-ae1a-00f13ebc5862","system_id":"levelo_inurba_marseille","lat":43.27957,"lon":5.38738,"is_reserved":false,"is_disabled":true,"rental_uris":{"android":"levelo://app?vid=ee1c0f06-5e7c-4ac8-ae1a-00f13ebc5862","ios":"levelo://app?vid=ee1c0f06-5e7c-4ac8-ae1a-00f13ebc5862"},"vehicle_type_id":"4","last_reported":1750104731,"current_range_meters":0,"station_id":"ce4bhg12rcd13ifvqf80","pricing_plan_id":"cebpf4jnsgd1na2vs0mg"},{"bike_id":"9915bbb3-6361-405f-a0a4-ca4cf0c50fe0","system_id":"levelo_inurba_marseille","lat":43.2314,"lon":5.43714,"is_reserved":false,"is_disabled":true,"rental_uris":{"android":"levelo://app?vid=9915bbb3-6361-405f-a0a4-ca4cf0c50fe0","ios":"levelo://app?vid=9915bbb3-6361-405f-a0a4-ca4cf0c50fe0"},"vehicle_type_id":"4","last_reported":1750104731,"current_range_meters":0,"station_id":"ce4bhmp2rcd13ifvqgog","pricing_plan_id":"cebpf4jnsgd1na2vs0mg"},{"bike_id":"a3c256ea-00dc-4f86-b706-ffc6f1fd91ad","system_id":"levelo_inurba_marseille","lat":43.29524,"lon":5.38548,"is_reserved":false,"is_disabled":true,"rental_uris":{"android":"levelo://app?vid=a3c256ea-00dc-4f86-b706-ffc6f1fd91ad","ios":"levelo://app?vid=a3c256ea-00dc-4f86-b706-ffc6f1fd91ad"},"vehicle_type_id":"4","last_reported":1750104731,"current_range_meters":800,"station_id":"ce4bgih2rcd13ifvqba0","pricing_plan_id":"cebpf4jnsgd1na2vs0mg"},{"bike_id":"e967d8e5-0a72-4a93-86d0-825565bad921","system_id":"levelo_inurba_marseille","lat":43.3233,"lon":5.40626,"is_reserved":false,"is_disabled":true,"rental_uris":{"android":"levelo://app?vid=e967d8e5-0a72-4a93-86d0-825565bad921","ios":"levelo://app?vid=e967d8e5-0a72-4a93-86d0-825565bad921"},"vehicle_type_id":"4","last_reported":1750104731,"current_range_meters":800,"station_id":"ce4bhq92rcd13ifvqhjg","pricing_plan_id":"cebpf4jnsgd1na2vs0mg"},{"bike_id":"bdf959be-ba57-43db-ae79-a0ff232caaab","system_id":"levelo_inurba_marseille","lat":43.30735,"lon":5.42447,"is_reserved":false,"is_disabled":true,"rental_uris":{"android":"levelo://app?vid=bdf959be-ba57-43db-ae79-a0ff232caaab","ios":"levelo://app?vid=bdf959be-ba57-43db-ae79-a0ff232caaab"},"vehicle_type_id":"4","last_reported":1750104731,"current_range_meters":800,"station_id":"st_cvj6ca6bvosntc0bfgr0","pricing_plan_id":"cebpf4jnsgd1na2vs0mg"},{"bike_id":"2948be09-87e8-444c-a26e-f44da42eb187","system_id":"levelo_inurba_marseille","lat":43.30307,"lon":5.36901,"is_reserved":false,"is_disabled":true,"rental_uris":{"android":"levelo://app?vid=2948be09-87e8-444c-a26e-f44da42eb187","ios":"levelo://app?vid=2948be09-87e8-444c-a26e-f44da42eb187"},"vehicle_type_id":"4","last_reported":1750104731,"current_range_meters":1600,"station_id":"ce4bgqh2rcd13ifvqc5g","pricing_plan_id":"cebpf4jnsgd1na2vs0mg"},{"bike_id":"de395f36-469a-4a81-8654-e2cf01c752ea","system_id":"levelo_inurba_marseille","lat":43.271927,"lon":5.362629,"is_reserved":false,"is_disabled":true,"rental_uris":{"android":"levelo://app?vid=de395f36-469a-4a81-8654-e2cf01c752ea","ios":"levelo://app?vid=de395f36-469a-4a81-8654-e2cf01c752ea"},"vehicle_type_id":"4","last_reported":1750104731,"current_range_meters":2000,"station_id":"ce4bhgp2rcd13ifvqfc0","pricing_plan_id":"cebpf4jnsgd1na2vs0mg"},{"bike_id":"650a0df7-5039-4f0e-b2cb-89836c693f5c","system_id":"levelo_inurba_marseille","lat":43.3131,"lon":5.3735,"is_reserved":false,"is_disabled":false,"rental_uris":{"android":"levelo://app?vid=650a0df7-5039-4f0e-b2cb-89836c693f5c","ios":"levelo://app?vid=650a0df7-5039-4f0e-b2cb-89836c693f5c"},"vehicle_type_id":"4","last_reported":1750104731,"current_range_meters":2800,"station_id":"","pricing_plan_id":"cebpf4jnsgd1na2vs0mg"},{"bike_id":"9af8ccc5-6031-4ae1-912c-27d7b15de762","system_id":"levelo_inurba_marseille","lat":43.30933,"lon":5.40146,"is_reserved":false,"is_disabled":false,"rental_uris":{"android":"levelo://app?vid=9af8ccc5-6031-4ae1-912c-27d7b15de762","ios":"levelo://app?vid=9af8ccc5-6031-4ae1-912c-27d7b15de762"},"vehicle_type_id":"4","last_reported":1750104731,"current_range_meters":2800,"station_id":"ce4bgvp2rcd13ifvqct0","pricing_plan_id":"cebpf4jnsgd1na2vs0mg"},{"bike_id":"87d281c5-e325-4e4d-a6b8-27567c7f9504","system_id":"levelo_inurba_marseille","lat":43.31329,"lon":5.39692,"is_reserved":false,"is_disabled":false,"rental_uris":{"android":"levelo://app?vid=87d281c5-e325-4e4d-a6b8-27567c7f9504","ios":"levelo://app?vid=87d281c5-e325-4e4d-a6b8-27567c7f9504"},"vehicle_type_id":"4","last_reported":1750104731,"current_range_meters":2800,"station_id":"ce4bgvp2rcd13ifvqcu0","pricing_plan_id":"cebpf4jnsgd1na2vs0mg"},{"bike_id":"503d0b8c-baee-45b7-9efa-70e7094be0e3","system_id":"levelo_inurba_marseille","lat":43.28437,"lon":5.39203,"is_reserved":false,"is_disabled":false,"rental_uris":{"android":"levelo://app?vid=503d0b8c-baee-45b7-9efa-70e7094be0e3","ios":"levelo://app?vid=503d0b8c-baee-45b7-9efa-70e7094be0e3"},"vehicle_type_id":"4","last_reported":1750104731,"current_range_meters":2800,"station_id":"ce4bhoh2rcd13ifvqh5g","pricing_plan_id":"cebpf4jnsgd1na2vs0mg"},{"bike_id":"fa82fe42-c380-445f-aa69-98e4556d2295","system_id":"levelo_inurba_marseille","lat":43.30731,"lon":5.42449,"is_reserved":false,"is_disabled":false,"rental_uris":{"android":"levelo://app?vid=fa82fe42-c380-445f-aa69-98e4556d2295","ios":"levelo://app?vid=fa82fe42-c380-445f-aa69-98e4556d2295"},"vehicle_type_id":"4","last_reported":1750104731,"current_range_meters":2800,"station_id":"st_cvj6ca6bvosntc0bfgr0","pricing_plan_id":"cebpf4jnsgd1na2vs0mg"},{"bike_id":"cba28a02-9f06-41dd-8645-e3bd321e07ba","system_id":"levelo_inurba_marseille","lat":43.288,"lon":5.38706,"is_reserved":false,"is_disabled":false,"rental_uris":{"android":"levelo://app?vid=cba28a02-9f06-41dd-8645-e3bd321e07ba","ios":"levelo://app?vid=cba28a02-9f06-41dd-8645-e3bd321e07ba"},"vehicle_type_id":"4","last_reported":1750104731,"current_range_meters":3200,"station_id":"","pricing_plan_id":"cebpf4jnsgd1na2vs0mg"},{"bike_id":"1827d622-e20d-4be6-99ac-0d1e0724dbb6","system_id":"levelo_inurba_marseille","lat":43.337444,"lon":5.374475,"is_reserved":false,"is_disabled":false,"rental_uris":{"android":"levelo://app?vid=1827d622-e20d-4be6-99ac-0d1e0724dbb6","ios":"levelo://app?vid=1827d622-e20d-4be6-99ac-0d1e0724dbb6"},"vehicle_type_id":"4","last_reported":1750104731,"current_range_meters":3200,"station_id":"","pricing_plan_id":"cebpf4jnsgd1na2vs0mg"},{"bike_id":"21874d78-e1de-4ef8-aa91-a8ad7b3d0537","system_id":"levelo_inurba_marseille","lat":43.30911,"lon":5.36851,"is_reserved":false,"is_disabled":false,"rental_uris":{"android":"levelo://app?vid=21874d78-e1de-4ef8-aa91-a8ad7b3d0537","ios":"levelo://app?vid=21874d78-e1de-4ef8-aa91-a8ad7b3d0537"},"vehicle_type_id":"4","last_reported":1750104731,"current_range_meters":3200,"station_id":"ce4bgn92rcd13ifvqbvg","pricing_plan_id":"cebpf4jnsgd1na2vs0mg"},{"bike_id":"6e985bfe-d33d-420f-8b01-bbdfff213e79","system_id":"levelo_inurba_marseille","lat":43.28345,"lon":5.38096,"is_reserved":false,"is_disabled":false,"rental_uris":{"android":"levelo://app?vid=6e985bfe-d33d-420f-8b01-bbdfff213e79","ios":"levelo://app?vid=6e985bfe-d33d-420f-8b01-bbdfff213e79"},"vehicle_type_id":"4","last_reported":1750104731,"current_range_meters":3200,"station_id":"ce4bh412rcd13ifvqdr0","pricing_plan_id":"cebpf4jnsgd1na2vs0mg"},{"bike_id":"f7d61edd-3d98-4317-ac93-00130fdb72f9","system_id":"levelo_inurba_marseille","lat":43.33562,"lon":5.39847,"is_reserved":false,"is_disabled":false,"rental_uris":{"android":"levelo://app?vid=f7d61edd-3d98-4317-ac93-00130fdb72f9","ios":"levelo://app?vid=f7d61edd-3d98-4317-ac93-00130fdb72f9"},"vehicle_type_id":"4","last_reported":1750104731,"current_range_meters":3600,"station_id":"","pricing_plan_id":"cebpf4jnsgd1na2vs0mg"},{"bike_id":"e90986e2-8c28-49ea-9d7d-4035e7da16dd","system_id":"levelo_inurba_marseille","lat":43.29605,"lon":5.37713,"is_reserved":false,"is_disabled":false,"rental_uris":{"android":"levelo://app?vid=e90986e2-8c28-49ea-9d7d-4035e7da16dd","ios":"levelo://app?vid=e90986e2-8c28-49ea-9d7d-4035e7da16dd"},"vehicle_type_id":"4","last_reported":1750104731,"current_range_meters":4000,"station_id":"ce4bgi92rcd13ifvqb90","pricing_plan_id":"cebpf4jnsgd1na2vs0mg"},{"bike_id":"213286f5-6834-4586-8c33-2834fdb9a50c","system_id":"levelo_inurba_marseille","lat":43.31706,"lon":5.37747,"is_reserved":false,"is_disabled":true,"rental_uris":{"android":"levelo://app?vid=213286f5-6834-4586-8c33-2834fdb9a50c","ios":"levelo://app?vid=213286f5-6834-4586-8c33-2834fdb9a50c"},"vehicle_type_id":"4","last_reported":1750104731,"current_range_meters":4000,"station_id":"ce4bgth2rcd13ifvqch0","pricing_plan_id":"cebpf4jnsgd1na2vs0mg"},{"bike_id":"f1f710f9-9932-4d6a-b758-2d58f1a6219a","system_id":"levelo_inurba_marseille","lat":43.28712,"lon":5.37927,"is_reserved":false,"is_disabled":false,"rental_uris":{"android":"levelo://app?vid=f1f710f9-9932-4d6a-b758-2d58f1a6219a","ios":"levelo://app?vid=f1f710f9-9932-4d6a-b758-2d58f1a6219a"},"vehicle_type_id":"4","last_reported":1750104731,"current_range_meters":4000,"station_id":"ce4bh9p2rcd13ifvqec0","pricing_plan_id":"cebpf4jnsgd1na2vs0mg"},{"bike_id":"4e0eddfe-3dc6-4a57-9b44-279f064cd265","system_id":"levelo_inurba_marseille","lat":43.28665,"lon":5.36346,"is_reserved":false,"is_disabled":false,"rental_uris":{"android":"levelo://app?vid=4e0eddfe-3dc6-4a57-9b44-279f064cd265","ios":"levelo://app?vid=4e0eddfe-3dc6-4a57-9b44-279f064cd265"},"vehicle_type_id":"4","last_reported":1750104731,"current_range_meters":4000,"station_id":"ce4bhah2rcd13ifvqej0","pricing_plan_id":"cebpf4jnsgd1na2vs0mg"},{"bike_id":"f16a5698-ddc2-4e59-97f5-5526424b5a60","system_id":"levelo_inurba_marseille","lat":43.211923,"lon":5.350723,"is_reserved":false,"is_disabled":false,"rental_uris":{"android":"levelo://app?vid=f16a5698-ddc2-4e59-97f5-5526424b5a60","ios":"levelo://app?vid=f16a5698-ddc2-4e59-97f5-5526424b5a60"},"vehicle_type_id":"4","last_reported":1750104731,"current_range_meters":4400,"station_id":"st_cvj6sg6p6f1abm77japg","pricing_plan_id":"cebpf4jnsgd1na2vs0mg"},{"bike_id":"dbfce7a3-3423-4296-b193-a177dea644ac","system_id":"levelo_inurba_marseille","lat":43.2729,"lon":5.41617,"is_reserved":false,"is_disabled":false,"rental_uris":{"android":"levelo://app?vid=dbfce7a3-3423-4296-b193-a177dea644ac","ios":"levelo://app?vid=dbfce7a3-3423-4296-b193-a177dea644ac"},"vehicle_type_id":"4","last_reported":1750104731,"current_range_meters":4800,"station_id":"","pricing_plan_id":"cebpf4jnsgd1na2vs0mg"},{"bike_id":"e4c3b0a7-7557-4af5-af0b-7af4ecbef1aa","system_id":"levelo_inurba_marseille","lat":43.33606,"lon":5.41032,"is_reserved":false,"is_disabled":false,"rental_uris":{"android":"levelo://app?vid=e4c3b0a7-7557-4af5-af0b-7af4ecbef1aa","ios":"levelo://app?vid=e4c3b0a7-7557-4af5-af0b-7af4ecbef1aa"},"vehicle_type_id":"4","last_reported":1750104731,"current_range_meters":4800,"station_id":"ce4bhqh2rcd13ifvqhmg","pricing_plan_id":"cebpf4jnsgd1na2vs0mg"},{"bike_id":"2a2ec665-a11b-4576-a1bc-f2eb990d2137","system_id":"levelo_inurba_marseille","lat":43.313265,"lon":5.396899,"is_reserved":false,"is_disabled":false,"rental_uris":{"android":"levelo://app?vid=2a2ec665-a11b-4576-a1bc-f2eb990d2137","ios":"levelo://app?vid=2a2ec665-a11b-4576-a1bc-f2eb990d2137"},"vehicle_type_id":"4","last_reported":1750104731,"current_range_meters":6000,"station_id":"ce4bgvp2rcd13ifvqcu0","pricing_plan_id":"cebpf4jnsgd1na2vs0mg"},{"bike_id":"5ece6c68-4fae-4e5d-b152-b823bee4df6b","system_id":"levelo_inurba_marseille","lat":43.28672,"lon":5.36347,"is_reserved":false,"is_disabled":false,"rental_uris":{"android":"levelo://app?vid=5ece6c68-4fae-4e5d-b152-b823bee4df6b","ios":"levelo://app?vid=5ece6c68-4fae-4e5d-b152-b823bee4df6b"},"vehicle_type_id":"4","last_reported":1750104731,"current_range_meters":6000,"station_id":"ce4bhah2rcd13ifvqej0","pricing_plan_id":"cebpf4jnsgd1na2vs0mg"},{"bike_id":"f3fce22a-de5a-4bf6-9458-457900dba1be","system_id":"levelo_inurba_marseille","lat":43.27919,"lon":5.39577,"is_reserved":false,"is_disabled":false,"rental_uris":{"android":"levelo://app?vid=f3fce22a-de5a-4bf6-9458-457900dba1be","ios":"levelo://app?vid=f3fce22a-de5a-4bf6-9458-457900dba1be"},"vehicle_type_id":"4","last_reported":1750104731,"current_range_meters":6000,"station_id":"ce4bhf92rcd13ifvqf40","pricing_plan_id":"cebpf4jnsgd1na2vs0mg"},{"bike_id":"004ee58b-d4d2-4663-a126-06c2f6d21b11","system_id":"levelo_inurba_marseille","lat":43.27169,"lon":5.40989,"is_reserved":false,"is_disabled":false,"rental_uris":{"android":"levelo://app?vid=004ee58b-d4d2-4663-a126-06c2f6d21b11","ios":"levelo://app?vid=004ee58b-d4d2-4663-a126-06c2f6d21b11"},"vehicle_type_id":"4","last_reported":1750104731,"current_range_meters":6000,"station_id":"ce4bhl12rcd13ifvqgf0","pricing_plan_id":"cebpf4jnsgd1na2vs0mg"},{"bike_id":"49f12802-d823-4cb5-903c-1c17fbf5b903","system_id":"levelo_inurba_marseille","lat":43.27816,"lon":5.41422,"is_reserved":false,"is_disabled":false,"rental_uris":{"android":"levelo://app?vid=49f12802-d823-4cb5-903c-1c17fbf5b903","ios":"levelo://app?vid=49f12802-d823-4cb5-903c-1c17fbf5b903"},"vehicle_type_id":"4","last_reported":1750104731,"current_range_meters":6400,"station_id":"","pricing_plan_id":"cebpf4jnsgd1na2vs0mg"},{"bike_id":"d37aced2-e5fa-44ac-abbb-41ce610b9590","system_id":"levelo_inurba_marseille","lat":43.29802,"lon":5.38059,"is_reserved":false,"is_disabled":false,"rental_uris":{"android":"levelo://app?vid=d37aced2-e5fa-44ac-abbb-41ce610b9590","ios":"levelo://app?vid=d37aced2-e5fa-44ac-abbb-41ce610b9590"},"vehicle_type_id":"4","last_reported":1750104731,"current_range_meters":6400,"station_id":"ce4bgip2rcd13ifvqbb0","pricing_plan_id":"cebpf4jnsgd1na2vs0mg"},{"bike_id":"4a535caa-f9ff-4f63-b561-0838de9fdec5","system_id":"levelo_inurba_marseille","lat":43.31326,"lon":5.39699,"is_reserved":false,"is_disabled":false,"rental_uris":{"android":"levelo://app?vid=4a535caa-f9ff-4f63-b561-0838de9fdec5","ios":"levelo://app?vid=4a535caa-f9ff-4f63-b561-0838de9fdec5"},"vehicle_type_id":"4","last_reported":1750104731,"current_range_meters":6400,"station_id":"ce4bgvp2rcd13ifvqcu0","pricing_plan_id":"cebpf4jnsgd1na2vs0mg"},{"bike_id":"3ea08267-6af9-42c7-897e-94bfa785396a","system_id":"levelo_inurba_marseille","lat":43.29265,"lon":5.38443,"is_reserved":false,"is_disabled":false,"rental_uris":{"android":"levelo://app?vid=3ea08267-6af9-42c7-897e-94bfa785396a","ios":"levelo://app?vid=3ea08267-6af9-42c7-897e-94bfa785396a"},"vehicle_type_id":"4","last_reported":1750104731,"current_range_meters":6400,"station_id":"ce4bh692rcd13ifvqea0","pricing_plan_id":"cebpf4jnsgd1na2vs0mg"},{"bike_id":"c6e1809d-24b4-4ac9-b4b9-6fc53cb4e886","system_id":"levelo_inurba_marseille","lat":43.25004,"lon":5.38926,"is_reserved":false,"is_disabled":false,"rental_uris":{"android":"levelo://app?vid=c6e1809d-24b4-4ac9-b4b9-6fc53cb4e886","ios":"levelo://app?vid=c6e1809d-24b4-4ac9-b4b9-6fc53cb4e886"},"vehicle_type_id":"4","last_reported":1750104731,"current_range_meters":6400,"station_id":"ce4bhgp2rcd13ifvqfd0","pricing_plan_id":"cebpf4jnsgd1na2vs0mg"},{"bike_id":"a366b227-8944-4cfe-b7f8-8ee3c949fade","system_id":"levelo_inurba_marseille","lat":43.29282,"lon":5.36844,"is_reserved":false,"is_disabled":false,"rental_uris":{"android":"levelo://app?vid=a366b227-8944-4cfe-b7f8-8ee3c949fade","ios":"levelo://app?vid=a366b227-8944-4cfe-b7f8-8ee3c949fade"},"vehicle_type_id":"4","last_reported":1750104731,"current_range_meters":6800,"station_id":"ce4bhbp2rcd13ifvqesg","pricing_plan_id":"cebpf4jnsgd1na2vs0mg"},{"bike_id":"8d297b38-f666-4a46-9dee-0132f800019c","system_id":"levelo_inurba_marseille","lat":43.322217,"lon":5.386587,"is_reserved":false,"is_disabled":false,"rental_uris":{"android":"levelo://app?vid=8d297b38-f666-4a46-9dee-0132f800019c","ios":"levelo://app?vid=8d297b38-f666-4a46-9dee-0132f800019c"},"vehicle_type_id":"4","last_reported":1750104731,"current_range_meters":7200,"station_id":"","pricing_plan_id":"cebpf4jnsgd1na2vs0mg"},{"bike_id":"bfb2de77-9405-40f3-bc15-80b86ec7f37d","system_id":"levelo_inurba_marseille","lat":43.31711,"lon":5.37738,"is_reserved":false,"is_disabled":false,"rental_uris":{"android":"levelo://app?vid=bfb2de77-9405-40f3-bc15-80b86ec7f37d","ios":"levelo://app?vid=bfb2de77-9405-40f3-bc15-80b86ec7f37d"},"vehicle_type_id":"4","last_reported":1750104731,"current_range_meters":7200,"station_id":"ce4bgth2rcd13ifvqch0","pricing_plan_id":"cebpf4jnsgd1na2vs0mg"},{"bike_id":"6f142a0e-0e0c-4223-9a33-f3d17b58b303","system_id":"levelo_inurba_marseille","lat":43.28703,"lon":5.37386,"is_reserved":false,"is_disabled":false,"rental_uris":{"android":"levelo://app?vid=6f142a0e-0e0c-4223-9a33-f3d17b58b303","ios":"levelo://app?vid=6f142a0e-0e0c-4223-9a33-f3d17b58b303"},"vehicle_type_id":"4","last_reported":1750104731,"current_range_meters":7200,"station_id":"ce4bh3p2rcd13ifvqdq0","pricing_plan_id":"cebpf4jnsgd1na2vs0mg"},{"bike_id":"014c11f2-6811-4473-904a-cc6b53abfea5","system_id":"levelo_inurba_marseille","lat":43.28113,"lon":5.37833,"is_reserved":false,"is_disabled":false,"rental_uris":{"android":"levelo://app?vid=014c11f2-6811-4473-904a-cc6b53abfea5","ios":"levelo://app?vid=014c11f2-6811-4473-904a-cc6b53abfea5"},"vehicle_type_id":"4","last_reported":1750104731,"current_range_meters":7200,"station_id":"ce4bha12rcd13ifvqee0","pricing_plan_id":"cebpf4jnsgd1na2vs0mg"},{"bike_id":"ec4c75ec-c76d-42f8-b556-b0d723b867ae","system_id":"levelo_inurba_marseille","lat":43.30411,"lon":5.41274,"is_reserved":false,"is_disabled":false,"rental_uris":{"android":"levelo://app?vid=ec4c75ec-c76d-42f8-b556-b0d723b867ae","ios":"levelo://app?vid=ec4c75ec-c76d-42f8-b556-b0d723b867ae"},"vehicle_type_id":"4","last_reported":1750104731,"current_range_meters":7200,"station_id":"ce4bhop2rcd13ifvqh8g","pricing_plan_id":"cebpf4jnsgd1na2vs0mg"},{"bike_id":"cebc2cc3-117c-47bf-830f-51abfed1d6a6","system_id":"levelo_inurba_marseille","lat":43.29556,"lon":5.42293,"is_reserved":false,"is_disabled":false,"rental_uris":{"android":"levelo://app?vid=cebc2cc3-117c-47bf-830f-51abfed1d6a6","ios":"levelo://app?vid=cebc2cc3-117c-47bf-830f-51abfed1d6a6"},"vehicle_type_id":"4","last_reported":1750104731,"current_range_meters":7200,"station_id":"ce4bhph2rcd13ifvqhdg","pricing_plan_id":"cebpf4jnsgd1na2vs0mg"},{"bike_id":"ce4cddc7-c413-48b6-8075-b3c3692a383a","system_id":"levelo_inurba_marseille","lat":43.30792,"lon":5.38144,"is_reserved":false,"is_disabled":false,"rental_uris":{"android":"levelo://app?vid=ce4cddc7-c413-48b6-8075-b3c3692a383a","ios":"levelo://app?vid=ce4cddc7-c413-48b6-8075-b3c3692a383a"},"vehicle_type_id":"4","last_reported":1750104731,"current_range_meters":8000,"station_id":"ce4bgt12rcd13ifvqce0","pricing_plan_id":"cebpf4jnsgd1na2vs0mg"},{"bike_id":"8d1e9c8b-2630-4198-b28c-a3131132064c","system_id":"levelo_inurba_marseille","lat":43.30588,"lon":5.39352,"is_reserved":false,"is_disabled":false,"rental_uris":{"android":"levelo://app?vid=8d1e9c8b-2630-4198-b28c-a3131132064c","ios":"levelo://app?vid=8d1e9c8b-2630-4198-b28c-a3131132064c"},"vehicle_type_id":"4","last_reported":1750104731,"current_range_meters":8000,"station_id":"ce4bh0p2rcd13ifvqd80","pricing_plan_id":"cebpf4jnsgd1na2vs0mg"},{"bike_id":"8fdcc0e3-fb55-49d0-9920-54050077d581","system_id":"levelo_inurba_marseille","lat":43.251062,"lon":5.403244,"is_reserved":false,"is_disabled":false,"rental_uris":{"android":"levelo://app?vid=8fdcc0e3-fb55-49d0-9920-54050077d581","ios":"levelo://app?vid=8fdcc0e3-fb55-49d0-9920-54050077d581"},"vehicle_type_id":"4","last_reported":1750104731,"current_range_meters":8000,"station_id":"ce4bhlh2rcd13ifvqgig","pricing_plan_id":"cebpf4jnsgd1na2vs0mg"},{"bike_id":"0d9f4a63-4fb4-480c-8397-f744b381e19b","system_id":"levelo_inurba_marseille","lat":43.275,"lon":5.4246,"is_reserved":false,"is_disabled":false,"rental_uris":{"android":"levelo://app?vid=0d9f4a63-4fb4-480c-8397-f744b381e19b","ios":"levelo://app?vid=0d9f4a63-4fb4-480c-8397-f744b381e19b"},"vehicle_type_id":"4","last_reported":1750104731,"current_range_meters":8000,"station_id":"ce4bhn92rcd13ifvqgrg","pricing_plan_id":"cebpf4jnsgd1na2vs0mg"},{"bike_id":"79eeb666-d8d8-469a-94d3-68222c812a1d","system_id":"levelo_inurba_marseille","lat":43.31797,"lon":5.37465,"is_reserved":false,"is_disabled":false,"rental_uris":{"android":"levelo://app?vid=79eeb666-d8d8-469a-94d3-68222c812a1d","ios":"levelo://app?vid=79eeb666-d8d8-469a-94d3-68222c812a1d"},"vehicle_type_id":"4","last_reported":1750104731,"current_range_meters":8400,"station_id":"","pricing_plan_id":"cebpf4jnsgd1na2vs0mg"},{"bike_id":"dcb87a9a-18f8-41c6-9134-949f31e21b42","system_id":"levelo_inurba_marseille","lat":43.26994,"lon":5.39962,"is_reserved":false,"is_disabled":false,"rental_uris":{"android":"levelo://app?vid=dcb87a9a-18f8-41c6-9134-949f31e21b42","ios":"levelo://app?vid=dcb87a9a-18f8-41c6-9134-949f31e21b42"},"vehicle_type_id":"4","last_reported":1750104731,"current_range_meters":8400,"station_id":"","pricing_plan_id":"cebpf4jnsgd1na2vs0mg"},{"bike_id":"884b1df2-bb21-4996-961c-190996f9d870","system_id":"levelo_inurba_marseille","lat":43.29602,"lon":5.38096,"is_reserved":false,"is_disabled":false,"rental_uris":{"android":"levelo://app?vid=884b1df2-bb21-4996-961c-190996f9d870","ios":"levelo://app?vid=884b1df2-bb21-4996-961c-190996f9d870"},"vehicle_type_id":"4","last_reported":1750104731,"current_range_meters":8400,"station_id":"ce4bgl12rcd13ifvqbo0","pricing_plan_id":"cebpf4jnsgd1na2vs0mg"},{"bike_id":"7ce144e4-ba39-4394-ae59-b6b9726aebfc","system_id":"levelo_inurba_marseille","lat":43.31329,"lon":5.39692,"is_reserved":false,"is_disabled":false,"rental_uris":{"android":"levelo://app?vid=7ce144e4-ba39-4394-ae59-b6b9726aebfc","ios":"levelo://app?vid=7ce144e4-ba39-4394-ae59-b6b9726aebfc"},"vehicle_type_id":"4","last_reported":1750104731,"current_range_meters":8400,"station_id":"ce4bgvp2rcd13ifvqcu0","pricing_plan_id":"cebpf4jnsgd1na2vs0mg"},{"bike_id":"aa000465-66c9-4f97-a64b-8561781b8c2c","system_id":"levelo_inurba_marseille","lat":43.29035,"lon":5.39965,"is_reserved":false,"is_disabled":false,"rental_uris":{"android":"levelo://app?vid=aa000465-66c9-4f97-a64b-8561781b8c2c","ios":"levelo://app?vid=aa000465-66c9-4f97-a64b-8561781b8c2c"},"vehicle_type_id":"4","last_reported":1750104731,"current_range_meters":8400,"station_id":"ce4bh392rcd13ifvqdm0","pricing_plan_id":"cebpf4jnsgd1na2vs0mg"},{"bike_id":"b2ed354d-6103-45b5-b3ed-b9352b377277","system_id":"levelo_inurba_marseille","lat":43.2903,"lon":5.3757,"is_reserved":false,"is_disabled":false,"rental_uris":{"android":"levelo://app?vid=b2ed354d-6103-45b5-b3ed-b9352b377277","ios":"levelo://app?vid=b2ed354d-6103-45b5-b3ed-b9352b377277"},"vehicle_type_id":"4","last_reported":1750104731,"current_range_meters":8400,"station_id":"ce4bh692rcd13ifvqe90","pricing_plan_id":"cebpf4jnsgd1na2vs0mg"},{"bike_id":"f3b1be41-32f0-4ae6-bb69-ed8a1f8c6589","system_id":"levelo_inurba_marseille","lat":43.29274,"lon":5.38445,"is_reserved":false,"is_disabled":false,"rental_uris":{"android":"levelo://app?vid=f3b1be41-32f0-4ae6-bb69-ed8a1f8c6589","ios":"levelo://app?vid=f3b1be41-32f0-4ae6-bb69-ed8a1f8c6589"},"vehicle_type_id":"4","last_reported":1750104731,"current_range_meters":8400,"station_id":"ce4bh692rcd13ifvqea0","pricing_plan_id":"cebpf4jnsgd1na2vs0mg"},{"bike_id":"96f28763-58d8-41d3-90ae-00e2aae7e5cc","system_id":"levelo_inurba_marseille","lat":43.29685,"lon":5.37994,"is_reserved":false,"is_disabled":false,"rental_uris":{"android":"levelo://app?vid=96f28763-58d8-41d3-90ae-00e2aae7e5cc","ios":"levelo://app?vid=96f28763-58d8-41d3-90ae-00e2aae7e5cc"},"vehicle_type_id":"4","last_reported":1750104731,"current_range_meters":8800,"station_id":"","pricing_plan_id":"cebpf4jnsgd1na2vs0mg"},{"bike_id":"76f703f8-faad-4f6d-9ff9-4b8a2c964d19","system_id":"levelo_inurba_marseille","lat":43.303,"lon":5.39209,"is_reserved":false,"is_disabled":false,"rental_uris":{"android":"levelo://app?vid=76f703f8-faad-4f6d-9ff9-4b8a2c964d19","ios":"levelo://app?vid=76f703f8-faad-4f6d-9ff9-4b8a2c964d19"},"vehicle_type_id":"4","last_reported":1750104731,"current_range_meters":8800,"station_id":"ce4bgkh2rcd13ifvqbk0","pricing_plan_id":"cebpf4jnsgd1na2vs0mg"},{"bike_id":"10d8703f-8168-48d3-b44c-9eaaf686e239","system_id":"levelo_inurba_marseille","lat":43.30605,"lon":5.37283,"is_reserved":false,"is_disabled":false,"rental_uris":{"android":"levelo://app?vid=10d8703f-8168-48d3-b44c-9eaaf686e239","ios":"levelo://app?vid=10d8703f-8168-48d3-b44c-9eaaf686e239"},"vehicle_type_id":"4","last_reported":1750104731,"current_range_meters":8800,"station_id":"ce4bgqh2rcd13ifvqc4g","pricing_plan_id":"cebpf4jnsgd1na2vs0mg"},{"bike_id":"3042c9e5-c5a5-4a11-94d1-8e536b5e25f7","system_id":"levelo_inurba_marseille","lat":43.21186,"lon":5.35053,"is_reserved":false,"is_disabled":false,"rental_uris":{"android":"levelo://app?vid=3042c9e5-c5a5-4a11-94d1-8e536b5e25f7","ios":"levelo://app?vid=3042c9e5-c5a5-4a11-94d1-8e536b5e25f7"},"vehicle_type_id":"4","last_reported":1750104731,"current_range_meters":8800,"station_id":"st_cvj6sg6p6f1abm77japg","pricing_plan_id":"cebpf4jnsgd1na2vs0mg"},{"bike_id":"87a73488-390c-4e28-a3b3-5d6b7a9184c3","system_id":"levelo_inurba_marseille","lat":43.337444,"lon":5.374475,"is_reserved":false,"is_disabled":false,"rental_uris":{"android":"levelo://app?vid=87a73488-390c-4e28-a3b3-5d6b7a9184c3","ios":"levelo://app?vid=87a73488-390c-4e28-a3b3-5d6b7a9184c3"},"vehicle_type_id":"4","last_reported":1750104731,"current_range_meters":9200,"station_id":"","pricing_plan_id":"cebpf4jnsgd1na2vs0mg"},{"bike_id":"0ccf6ea8-a2a5-4cc6-b35c-58ebd4c849ea","system_id":"levelo_inurba_marseille","lat":43.29532,"lon":5.38527,"is_reserved":false,"is_disabled":false,"rental_uris":{"android":"levelo://app?vid=0ccf6ea8-a2a5-4cc6-b35c-58ebd4c849ea","ios":"levelo://app?vid=0ccf6ea8-a2a5-4cc6-b35c-58ebd4c849ea"},"vehicle_type_id":"4","last_reported":1750104731,"current_range_meters":9200,"station_id":"ce4bgih2rcd13ifvqba0","pricing_plan_id":"cebpf4jnsgd1na2vs0mg"},{"bike_id":"016a5d5f-6548-4f40-b266-37f605804a16","system_id":"levelo_inurba_marseille","lat":43.29534,"lon":5.38535,"is_reserved":false,"is_disabled":false,"rental_uris":{"android":"levelo://app?vid=016a5d5f-6548-4f40-b266-37f605804a16","ios":"levelo://app?vid=016a5d5f-6548-4f40-b266-37f605804a16"},"vehicle_type_id":"4","last_reported":1750104731,"current_range_meters":9200,"station_id":"ce4bgih2rcd13ifvqba0","pricing_plan_id":"cebpf4jnsgd1na2vs0mg"},{"bike_id":"fa64d45f-23ea-4080-b163-1ec6540d7d1c","system_id":"levelo_inurba_marseille","lat":43.29192,"lon":5.393207,"is_reserved":false,"is_disabled":false,"rental_uris":{"android":"levelo://app?vid=fa64d45f-23ea-4080-b163-1ec6540d7d1c","ios":"levelo://app?vid=fa64d45f-23ea-4080-b163-1ec6540d7d1c"},"vehicle_type_id":"4","last_reported":1750104731,"current_range_meters":9200,"station_id":"ce4bh192rcd13ifvqdd0","pricing_plan_id":"cebpf4jnsgd1na2vs0mg"},{"bike_id":"e8e1fde8-5d7a-4dc7-a1d2-b22f7b8efbe2","system_id":"levelo_inurba_marseille","lat":43.28936,"lon":5.36394,"is_reserved":false,"is_disabled":false,"rental_uris":{"android":"levelo://app?vid=e8e1fde8-5d7a-4dc7-a1d2-b22f7b8efbe2","ios":"levelo://app?vid=e8e1fde8-5d7a-4dc7-a1d2-b22f7b8efbe2"},"vehicle_type_id":"4","last_reported":1750104731,"current_range_meters":9200,"station_id":"ce4bhc92rcd13ifvqetg","pricing_plan_id":"cebpf4jnsgd1na2vs0mg"},{"bike_id":"173b591c-ae75-4d11-baa0-17dc2391e20a","system_id":"levelo_inurba_marseille","lat":43.275607,"lon":5.384247,"is_reserved":false,"is_disabled":false,"rental_uris":{"android":"levelo://app?vid=173b591c-ae75-4d11-baa0-17dc2391e20a","ios":"levelo://app?vid=173b591c-ae75-4d11-baa0-17dc2391e20a"},"vehicle_type_id":"4","last_reported":1750104731,"current_range_meters":9200,"station_id":"ce4bhh92rcd13ifvqfi0","pricing_plan_id":"cebpf4jnsgd1na2vs0mg"},{"bike_id":"be223be7-d17a-4f1a-a4de-3c05145338dc","system_id":"levelo_inurba_marseille","lat":43.31997,"lon":5.38161,"is_reserved":false,"is_disabled":false,"rental_uris":{"android":"levelo://app?vid=be223be7-d17a-4f1a-a4de-3c05145338dc","ios":"levelo://app?vid=be223be7-d17a-4f1a-a4de-3c05145338dc"},"vehicle_type_id":"4","last_reported":1750104731,"current_range_meters":9200,"station_id":"ce4bhr12rcd13ifvqhpg","pricing_plan_id":"cebpf4jnsgd1na2vs0mg"},{"bike_id":"77b7c287-9265-4ac4-861c-2f4219d04dc6","system_id":"levelo_inurba_marseille","lat":43.29269,"lon":5.36841,"is_reserved":false,"is_disabled":false,"rental_uris":{"android":"levelo://app?vid=77b7c287-9265-4ac4-861c-2f4219d04dc6","ios":"levelo://app?vid=77b7c287-9265-4ac4-861c-2f4219d04dc6"},"vehicle_type_id":"4","last_reported":1750104731,"current_range_meters":9600,"station_id":"","pricing_plan_id":"cebpf4jnsgd1na2vs0mg"},{"bike_id":"582916b6-51fa-4271-8ac0-1cf01d116d2e","system_id":"levelo_inurba_marseille","lat":43.3026,"lon":5.40075,"is_reserved":false,"is_disabled":false,"rental_uris":{"android":"levelo://app?vid=582916b6-51fa-4271-8ac0-1cf01d116d2e","ios":"levelo://app?vid=582916b6-51fa-4271-8ac0-1cf01d116d2e"},"vehicle_type_id":"4","last_reported":1750104731,"current_range_meters":9600,"station_id":"ce4bgvh2rcd13ifvqcs0","pricing_plan_id":"cebpf4jnsgd1na2vs0mg"},{"bike_id":"6d8fdf5a-a287-447e-b7e8-cefe65685212","system_id":"levelo_inurba_marseille","lat":43.30649,"lon":5.40084,"is_reserved":false,"is_disabled":false,"rental_uris":{"android":"levelo://app?vid=6d8fdf5a-a287-447e-b7e8-cefe65685212","ios":"levelo://app?vid=6d8fdf5a-a287-447e-b7e8-cefe65685212"},"vehicle_type_id":"4","last_reported":1750104731,"current_range_meters":9600,"station_id":"ce4bh112rcd13ifvqda0","pricing_plan_id":"cebpf4jnsgd1na2vs0mg"},{"bike_id":"380a30da-3fd9-4db4-b1db-954ac21a6dde","system_id":"levelo_inurba_marseille","lat":43.29262,"lon":5.3844,"is_reserved":false,"is_disabled":false,"rental_uris":{"android":"levelo://app?vid=380a30da-3fd9-4db4-b1db-954ac21a6dde","ios":"levelo://app?vid=380a30da-3fd9-4db4-b1db-954ac21a6dde"},"vehicle_type_id":"4","last_reported":1750104731,"current_range_meters":9600,"station_id":"ce4bh692rcd13ifvqea0","pricing_plan_id":"cebpf4jnsgd1na2vs0mg"},{"bike_id":"6afc644c-08c3-42de-8619-3f94e2ba41cd","system_id":"levelo_inurba_marseille","lat":43.29922,"lon":5.43646,"is_reserved":false,"is_disabled":false,"rental_uris":{"android":"levelo://app?vid=6afc644c-08c3-42de-8619-3f94e2ba41cd","ios":"levelo://app?vid=6afc644c-08c3-42de-8619-3f94e2ba41cd"},"vehicle_type_id":"4","last_reported":1750104731,"current_range_meters":9600,"station_id":"ce4bhpp2rcd13ifvqhfg","pricing_plan_id":"cebpf4jnsgd1na2vs0mg"},{"bike_id":"65991982-0ad9-4ac9-b9ad-57ea724ff52d","system_id":"levelo_inurba_marseille","lat":43.30512,"lon":5.38413,"is_reserved":false,"is_disabled":false,"rental_uris":{"android":"levelo://app?vid=65991982-0ad9-4ac9-b9ad-57ea724ff52d","ios":"levelo://app?vid=65991982-0ad9-4ac9-b9ad-57ea724ff52d"},"vehicle_type_id":"4","last_reported":1750104731,"current_range_meters":10000,"station_id":"ce4bgg92rcd13ifvqb30","pricing_plan_id":"cebpf4jnsgd1na2vs0mg"},{"bike_id":"b0dcebab-f6ea-4c6c-9cad-883409a6afe2","system_id":"levelo_inurba_marseille","lat":43.29613,"lon":5.38093,"is_reserved":false,"is_disabled":false,"rental_uris":{"android":"levelo://app?vid=b0dcebab-f6ea-4c6c-9cad-883409a6afe2","ios":"levelo://app?vid=b0dcebab-f6ea-4c6c-9cad-883409a6afe2"},"vehicle_type_id":"4","last_reported":1750104731,"current_range_meters":10000,"station_id":"ce4bgl12rcd13ifvqbo0","pricing_plan_id":"cebpf4jnsgd1na2vs0mg"},{"bike_id":"719eff0c-7683-4506-a2f6-cd86152890b6","system_id":"levelo_inurba_marseille","lat":43.29871,"lon":5.38916,"is_reserved":false,"is_disabled":false,"rental_uris":{"android":"levelo://app?vid=719eff0c-7683-4506-a2f6-cd86152890b6","ios":"levelo://app?vid=719eff0c-7683-4506-a2f6-cd86152890b6"},"vehicle_type_id":"4","last_reported":1750104731,"current_range_meters":10000,"station_id":"ce4bh392rcd13ifvqdl0","pricing_plan_id":"cebpf4jnsgd1na2vs0mg"},{"bike_id":"90f9c9de-e0ff-4789-bcb3-1464418d3bee","system_id":"levelo_inurba_marseille","lat":43.29266,"lon":5.38448,"is_reserved":false,"is_disabled":false,"rental_uris":{"android":"levelo://app?vid=90f9c9de-e0ff-4789-bcb3-1464418d3bee","ios":"levelo://app?vid=90f9c9de-e0ff-4789-bcb3-1464418d3bee"},"vehicle_type_id":"4","last_reported":1750104731,"current_range_meters":10000,"station_id":"ce4bh692rcd13ifvqea0","pricing_plan_id":"cebpf4jnsgd1na2vs0mg"},{"bike_id":"06f40307-787f-473b-b0ab-7a6e9db95cb2","system_id":"levelo_inurba_marseille","lat":43.29252,"lon":5.38428,"is_reserved":false,"is_disabled":false,"rental_uris":{"android":"levelo://app?vid=06f40307-787f-473b-b0ab-7a6e9db95cb2","ios":"levelo://app?vid=06f40307-787f-473b-b0ab-7a6e9db95cb2"},"vehicle_type_id":"4","last_reported":1750104731,"current_range_meters":10000,"station_id":"ce4bh692rcd13ifvqea0","pricing_plan_id":"cebpf4jnsgd1na2vs0mg"},{"bike_id":"25be301b-e50b-4f31-a209-462aec1b4ce5","system_id":"levelo_inurba_marseille","lat":43.21206,"lon":5.35059,"is_reserved":false,"is_disabled":false,"rental_uris":{"android":"levelo://app?vid=25be301b-e50b-4f31-a209-462aec1b4ce5","ios":"levelo://app?vid=25be301b-e50b-4f31-a209-462aec1b4ce5"},"vehicle_type_id":"4","last_reported":1750104731,"current_range_meters":10000,"station_id":"st_cvj6sg6p6f1abm77japg","pricing_plan_id":"cebpf4jnsgd1na2vs0mg"},{"bike_id":"8c6e3f5c-fbd9-4abe-a7be-ece848b4fc54","system_id":"levelo_inurba_marseille","lat":43.30922,"lon":5.43747,"is_reserved":false,"is_disabled":false,"rental_uris":{"android":"levelo://app?vid=8c6e3f5c-fbd9-4abe-a7be-ece848b4fc54","ios":"levelo://app?vid=8c6e3f5c-fbd9-4abe-a7be-ece848b4fc54"},"vehicle_type_id":"4","last_reported":1750104731,"current_range_meters":10800,"station_id":"","pricing_plan_id":"cebpf4jnsgd1na2vs0mg"},{"bike_id":"57e39ed0-eb82-471e-837a-2efd7f338d95","system_id":"levelo_inurba_marseille","lat":43.27618,"lon":5.36107,"is_reserved":false,"is_disabled":false,"rental_uris":{"android":"levelo://app?vid=57e39ed0-eb82-471e-837a-2efd7f338d95","ios":"levelo://app?vid=57e39ed0-eb82-471e-837a-2efd7f338d95"},"vehicle_type_id":"4","last_reported":1750104731,"current_range_meters":10800,"station_id":"ce4bgj92rcd13ifvqbe0","pricing_plan_id":"cebpf4jnsgd1na2vs0mg"},{"bike_id":"b6e9cbe8-359c-4c2b-a4ad-846afa8fe8ed","system_id":"levelo_inurba_marseille","lat":43.29604,"lon":5.38065,"is_reserved":false,"is_disabled":false,"rental_uris":{"android":"levelo://app?vid=b6e9cbe8-359c-4c2b-a4ad-846afa8fe8ed","ios":"levelo://app?vid=b6e9cbe8-359c-4c2b-a4ad-846afa8fe8ed"},"vehicle_type_id":"4","last_reported":1750104731,"current_range_meters":10800,"station_id":"ce4bgl12rcd13ifvqbo0","pricing_plan_id":"cebpf4jnsgd1na2vs0mg"},{"bike_id":"e634897e-7c2a-465e-a05e-68086415d277","system_id":"levelo_inurba_marseille","lat":43.301267,"lon":5.398663,"is_reserved":false,"is_disabled":false,"rental_uris":{"android":"levelo://app?vid=e634897e-7c2a-465e-a05e-68086415d277","ios":"levelo://app?vid=e634897e-7c2a-465e-a05e-68086415d277"},"vehicle_type_id":"4","last_reported":1750104731,"current_range_meters":10800,"station_id":"ce4bh0h2rcd13ifvqd40","pricing_plan_id":"cebpf4jnsgd1na2vs0mg"},{"bike_id":"609537b7-123c-46cf-8168-8df033f9ec3b","system_id":"levelo_inurba_marseille","lat":43.29869,"lon":5.39731,"is_reserved":false,"is_disabled":false,"rental_uris":{"android":"levelo://app?vid=609537b7-123c-46cf-8168-8df033f9ec3b","ios":"levelo://app?vid=609537b7-123c-46cf-8168-8df033f9ec3b"},"vehicle_type_id":"4","last_reported":1750104731,"current_range_meters":10800,"station_id":"ce4bh0h2rcd13ifvqd50","pricing_plan_id":"cebpf4jnsgd1na2vs0mg"},{"bike_id":"aa46699f-c250-4862-979f-cc5b12c13e91","system_id":"levelo_inurba_marseille","lat":43.2867,"lon":5.36346,"is_reserved":false,"is_disabled":false,"rental_uris":{"android":"levelo://app?vid=aa46699f-c250-4862-979f-cc5b12c13e91","ios":"levelo://app?vid=aa46699f-c250-4862-979f-cc5b12c13e91"},"vehicle_type_id":"4","last_reported":1750104731,"current_range_meters":10800,"station_id":"ce4bhah2rcd13ifvqej0","pricing_plan_id":"cebpf4jnsgd1na2vs0mg"},{"bike_id":"a66728c4-f2e7-428e-b872-e7406fb70732","system_id":"levelo_inurba_marseille","lat":43.21194,"lon":5.3508,"is_reserved":false,"is_disabled":false,"rental_uris":{"android":"levelo://app?vid=a66728c4-f2e7-428e-b872-e7406fb70732","ios":"levelo://app?vid=a66728c4-f2e7-428e-b872-e7406fb70732"},"vehicle_type_id":"4","last_reported":1750104731,"current_range_meters":10800,"station_id":"st_cvj6sg6p6f1abm77japg","pricing_plan_id":"cebpf4jnsgd1na2vs0mg"},{"bike_id":"cad0b5c0-607d-4cfe-b847-6e28cd45a43d","system_id":"levelo_inurba_marseille","lat":43.33605,"lon":5.41034,"is_reserved":false,"is_disabled":false,"rental_uris":{"android":"levelo://app?vid=cad0b5c0-607d-4cfe-b847-6e28cd45a43d","ios":"levelo://app?vid=cad0b5c0-607d-4cfe-b847-6e28cd45a43d"},"vehicle_type_id":"4","last_reported":1750104731,"current_range_meters":11200,"station_id":"ce4bhqh2rcd13ifvqhmg","pricing_plan_id":"cebpf4jnsgd1na2vs0mg"},{"bike_id":"e27ba4aa-b26e-4797-8598-2bfa6e202553","system_id":"levelo_inurba_marseille","lat":43.30424,"lon":5.3975,"is_reserved":false,"is_disabled":false,"rental_uris":{"android":"levelo://app?vid=e27ba4aa-b26e-4797-8598-2bfa6e202553","ios":"levelo://app?vid=e27ba4aa-b26e-4797-8598-2bfa6e202553"},"vehicle_type_id":"4","last_reported":1750104731,"current_range_meters":11600,"station_id":"ce4bh092rcd13ifvqd20","pricing_plan_id":"cebpf4jnsgd1na2vs0mg"},{"bike_id":"b4d63fbc-28f7-4e9a-9e63-650858128a71","system_id":"levelo_inurba_marseille","lat":43.29518,"lon":5.39396,"is_reserved":false,"is_disabled":false,"rental_uris":{"android":"levelo://app?vid=b4d63fbc-28f7-4e9a-9e63-650858128a71","ios":"levelo://app?vid=b4d63fbc-28f7-4e9a-9e63-650858128a71"},"vehicle_type_id":"4","last_reported":1750104731,"current_range_meters":11600,"station_id":"ce4bh292rcd13ifvqdf0","pricing_plan_id":"cebpf4jnsgd1na2vs0mg"},{"bike_id":"d0c6b551-4765-4114-aa10-e8fbbdc1a4a7","system_id":"levelo_inurba_marseille","lat":43.27383,"lon":5.36286,"is_reserved":false,"is_disabled":false,"rental_uris":{"android":"levelo://app?vid=d0c6b551-4765-4114-aa10-e8fbbdc1a4a7","ios":"levelo://app?vid=d0c6b551-4765-4114-aa10-e8fbbdc1a4a7"},"vehicle_type_id":"4","last_reported":1750104731,"current_range_meters":11600,"station_id":"ce4bhbh2rcd13ifvqeo0","pricing_plan_id":"cebpf4jnsgd1na2vs0mg"},{"bike_id":"550c51b6-9f1a-45f8-b03f-591fd109d834","system_id":"levelo_inurba_marseille","lat":43.26227,"lon":5.4045,"is_reserved":false,"is_disabled":false,"rental_uris":{"android":"levelo://app?vid=550c51b6-9f1a-45f8-b03f-591fd109d834","ios":"levelo://app?vid=550c51b6-9f1a-45f8-b03f-591fd109d834"},"vehicle_type_id":"4","last_reported":1750104731,"current_range_meters":11600,"station_id":"ce4bhmh2rcd13ifvqgmg","pricing_plan_id":"cebpf4jnsgd1na2vs0mg"},{"bike_id":"375eaea8-6916-41aa-b3a9-2ba69a0f0544","system_id":"levelo_inurba_marseille","lat":43.32114,"lon":5.36768,"is_reserved":false,"is_disabled":false,"rental_uris":{"android":"levelo://app?vid=375eaea8-6916-41aa-b3a9-2ba69a0f0544","ios":"levelo://app?vid=375eaea8-6916-41aa-b3a9-2ba69a0f0544"},"vehicle_type_id":"4","last_reported":1750104731,"current_range_meters":11600,"station_id":"ce4bhrh2rcd13ifvqhug","pricing_plan_id":"cebpf4jnsgd1na2vs0mg"},{"bike_id":"da3e1724-606c-4f9a-9130-d56dd48e22e0","system_id":"levelo_inurba_marseille","lat":43.32883,"lon":5.40508,"is_reserved":false,"is_disabled":false,"rental_uris":{"android":"levelo://app?vid=da3e1724-606c-4f9a-9130-d56dd48e22e0","ios":"levelo://app?vid=da3e1724-606c-4f9a-9130-d56dd48e22e0"},"vehicle_type_id":"4","last_reported":1750104731,"current_range_meters":12000,"station_id":"","pricing_plan_id":"cebpf4jnsgd1na2vs0mg"},{"bike_id":"64c6d212-acc6-47e3-9e04-fbaf04a7ed4e","system_id":"levelo_inurba_marseille","lat":43.270029,"lon":5.387808,"is_reserved":false,"is_disabled":false,"rental_uris":{"android":"levelo://app?vid=64c6d212-acc6-47e3-9e04-fbaf04a7ed4e","ios":"levelo://app?vid=64c6d212-acc6-47e3-9e04-fbaf04a7ed4e"},"vehicle_type_id":"4","last_reported":1750104731,"current_range_meters":12000,"station_id":"","pricing_plan_id":"cebpf4jnsgd1na2vs0mg"},{"bike_id":"fc48dc97-4c7e-4280-b016-7f0f70154460","system_id":"levelo_inurba_marseille","lat":43.30437,"lon":5.38889,"is_reserved":false,"is_disabled":false,"rental_uris":{"android":"levelo://app?vid=fc48dc97-4c7e-4280-b016-7f0f70154460","ios":"levelo://app?vid=fc48dc97-4c7e-4280-b016-7f0f70154460"},"vehicle_type_id":"4","last_reported":1750104731,"current_range_meters":12000,"station_id":"ce4bgk12rcd13ifvqbi0","pricing_plan_id":"cebpf4jnsgd1na2vs0mg"},{"bike_id":"27714f46-d974-4810-8627-4e3e72b4b648","system_id":"levelo_inurba_marseille","lat":43.294353,"lon":5.401094,"is_reserved":false,"is_disabled":false,"rental_uris":{"android":"levelo://app?vid=27714f46-d974-4810-8627-4e3e72b4b648","ios":"levelo://app?vid=27714f46-d974-4810-8627-4e3e72b4b648"},"vehicle_type_id":"4","last_reported":1750104731,"current_range_meters":12000,"station_id":"ce4bh312rcd13ifvqdj0","pricing_plan_id":"cebpf4jnsgd1na2vs0mg"},{"bike_id":"36eeb858-56d7-415e-a056-5a92580a063d","system_id":"levelo_inurba_marseille","lat":43.28708,"lon":5.3739,"is_reserved":false,"is_disabled":false,"rental_uris":{"android":"levelo://app?vid=36eeb858-56d7-415e-a056-5a92580a063d","ios":"levelo://app?vid=36eeb858-56d7-415e-a056-5a92580a063d"},"vehicle_type_id":"4","last_reported":1750104731,"current_range_meters":12000,"station_id":"ce4bh3p2rcd13ifvqdq0","pricing_plan_id":"cebpf4jnsgd1na2vs0mg"},{"bike_id":"ae058020-8800-40be-9fdf-0734d9f4ff8b","system_id":"levelo_inurba_marseille","lat":43.29272,"lon":5.38445,"is_reserved":false,"is_disabled":false,"rental_uris":{"android":"levelo://app?vid=ae058020-8800-40be-9fdf-0734d9f4ff8b","ios":"levelo://app?vid=ae058020-8800-40be-9fdf-0734d9f4ff8b"},"vehicle_type_id":"4","last_reported":1750104731,"current_range_meters":12000,"station_id":"ce4bh692rcd13ifvqea0","pricing_plan_id":"cebpf4jnsgd1na2vs0mg"},{"bike_id":"496aa517-ab0e-4c29-8d0b-298d109690d8","system_id":"levelo_inurba_marseille","lat":43.28669,"lon":5.36335,"is_reserved":false,"is_disabled":false,"rental_uris":{"android":"levelo://app?vid=496aa517-ab0e-4c29-8d0b-298d109690d8","ios":"levelo://app?vid=496aa517-ab0e-4c29-8d0b-298d109690d8"},"vehicle_type_id":"4","last_reported":1750104731,"current_range_meters":12000,"station_id":"ce4bhah2rcd13ifvqej0","pricing_plan_id":"cebpf4jnsgd1na2vs0mg"},{"bike_id":"88d4fd99-6294-4e6d-a1d4-ea2437f96cef","system_id":"levelo_inurba_marseille","lat":43.27384,"lon":5.36252,"is_reserved":false,"is_disabled":false,"rental_uris":{"android":"levelo://app?vid=88d4fd99-6294-4e6d-a1d4-ea2437f96cef","ios":"levelo://app?vid=88d4fd99-6294-4e6d-a1d4-ea2437f96cef"},"vehicle_type_id":"4","last_reported":1750104731,"current_range_meters":12000,"station_id":"ce4bhbh2rcd13ifvqeo0","pricing_plan_id":"cebpf4jnsgd1na2vs0mg"},{"bike_id":"48e98c35-6eaf-4651-a68c-7876f7d82eba","system_id":"levelo_inurba_marseille","lat":43.24817,"lon":5.37445,"is_reserved":false,"is_disabled":false,"rental_uris":{"android":"levelo://app?vid=48e98c35-6eaf-4651-a68c-7876f7d82eba","ios":"levelo://app?vid=48e98c35-6eaf-4651-a68c-7876f7d82eba"},"vehicle_type_id":"4","last_reported":1750104731,"current_range_meters":12000,"station_id":"ce4bhgh2rcd13ifvqfb0","pricing_plan_id":"cebpf4jnsgd1na2vs0mg"},{"bike_id":"eabb5c4c-c40e-49bb-9374-83f49b7002d1","system_id":"levelo_inurba_marseille","lat":43.27993,"lon":5.41656,"is_reserved":false,"is_disabled":false,"rental_uris":{"android":"levelo://app?vid=eabb5c4c-c40e-49bb-9374-83f49b7002d1","ios":"levelo://app?vid=eabb5c4c-c40e-49bb-9374-83f49b7002d1"},"vehicle_type_id":"4","last_reported":1750104731,"current_range_meters":12000,"station_id":"ce4bho12rcd13ifvqh1g","pricing_plan_id":"cebpf4jnsgd1na2vs0mg"},{"bike_id":"356258c8-0ad6-493b-b5a4-77e865070f65","system_id":"levelo_inurba_marseille","lat":43.32604,"lon":5.41955,"is_reserved":false,"is_disabled":false,"rental_uris":{"android":"levelo://app?vid=356258c8-0ad6-493b-b5a4-77e865070f65","ios":"levelo://app?vid=356258c8-0ad6-493b-b5a4-77e865070f65"},"vehicle_type_id":"4","last_reported":1750104731,"current_range_meters":12400,"station_id":"","pricing_plan_id":"cebpf4jnsgd1na2vs0mg"},{"bike_id":"bb35f8ac-385e-404e-92fd-ca348f13b269","system_id":"levelo_inurba_marseille","lat":43.30084,"lon":5.39074,"is_reserved":false,"is_disabled":false,"rental_uris":{"android":"levelo://app?vid=bb35f8ac-385e-404e-92fd-ca348f13b269","ios":"levelo://app?vid=bb35f8ac-385e-404e-92fd-ca348f13b269"},"vehicle_type_id":"4","last_reported":1750104731,"current_range_meters":12400,"station_id":"ce4bh192rcd13ifvqdb0","pricing_plan_id":"cebpf4jnsgd1na2vs0mg"},{"bike_id":"398a0bbf-4f1e-4b6e-a4e1-0e8ceb1b1dbe","system_id":"levelo_inurba_marseille","lat":43.23958,"lon":5.36627,"is_reserved":false,"is_disabled":false,"rental_uris":{"android":"levelo://app?vid=398a0bbf-4f1e-4b6e-a4e1-0e8ceb1b1dbe","ios":"levelo://app?vid=398a0bbf-4f1e-4b6e-a4e1-0e8ceb1b1dbe"},"vehicle_type_id":"4","last_reported":1750104731,"current_range_meters":12400,"station_id":"ce4bhi12rcd13ifvqfp0","pricing_plan_id":"cebpf4jnsgd1na2vs0mg"},{"bike_id":"d2868572-6fee-4690-8a81-283adbeec80c","system_id":"levelo_inurba_marseille","lat":43.21196,"lon":5.35074,"is_reserved":false,"is_disabled":false,"rental_uris":{"android":"levelo://app?vid=d2868572-6fee-4690-8a81-283adbeec80c","ios":"levelo://app?vid=d2868572-6fee-4690-8a81-283adbeec80c"},"vehicle_type_id":"4","last_reported":1750104731,"current_range_meters":12400,"station_id":"st_cvj6sg6p6f1abm77japg","pricing_plan_id":"cebpf4jnsgd1na2vs0mg"},{"bike_id":"9005d0b9-c65c-4c3b-8dbe-d83b26c50c4e","system_id":"levelo_inurba_marseille","lat":43.29624,"lon":5.38077,"is_reserved":false,"is_disabled":false,"rental_uris":{"android":"levelo://app?vid=9005d0b9-c65c-4c3b-8dbe-d83b26c50c4e","ios":"levelo://app?vid=9005d0b9-c65c-4c3b-8dbe-d83b26c50c4e"},"vehicle_type_id":"4","last_reported":1750104731,"current_range_meters":12800,"station_id":"ce4bgl12rcd13ifvqbo0","pricing_plan_id":"cebpf4jnsgd1na2vs0mg"},{"bike_id":"e9307d5b-81f6-412e-ab0e-5f6acb32333c","system_id":"levelo_inurba_marseille","lat":43.27382,"lon":5.36242,"is_reserved":false,"is_disabled":false,"rental_uris":{"android":"levelo://app?vid=e9307d5b-81f6-412e-ab0e-5f6acb32333c","ios":"levelo://app?vid=e9307d5b-81f6-412e-ab0e-5f6acb32333c"},"vehicle_type_id":"4","last_reported":1750104731,"current_range_meters":12800,"station_id":"ce4bhbh2rcd13ifvqeo0","pricing_plan_id":"cebpf4jnsgd1na2vs0mg"},{"bike_id":"7c7160a5-cf44-4137-822d-c88eca1871ed","system_id":"levelo_inurba_marseille","lat":43.27372,"lon":5.36233,"is_reserved":false,"is_disabled":false,"rental_uris":{"android":"levelo://app?vid=7c7160a5-cf44-4137-822d-c88eca1871ed","ios":"levelo://app?vid=7c7160a5-cf44-4137-822d-c88eca1871ed"},"vehicle_type_id":"4","last_reported":1750104731,"current_range_meters":12800,"station_id":"ce4bhbh2rcd13ifvqeo0","pricing_plan_id":"cebpf4jnsgd1na2vs0mg"},{"bike_id":"17cb6670-90eb-4b74-a1d1-e563b971ca41","system_id":"levelo_inurba_marseille","lat":43.25862,"lon":5.39896,"is_reserved":false,"is_disabled":false,"rental_uris":{"android":"levelo://app?vid=17cb6670-90eb-4b74-a1d1-e563b971ca41","ios":"levelo://app?vid=17cb6670-90eb-4b74-a1d1-e563b971ca41"},"vehicle_type_id":"4","last_reported":1750104731,"current_range_meters":12800,"station_id":"ce4bhl92rcd13ifvqghg","pricing_plan_id":"cebpf4jnsgd1na2vs0mg"},{"bike_id":"3c4d6416-c936-4ae6-aee7-775ec241b658","system_id":"levelo_inurba_marseille","lat":43.297898,"lon":5.393491,"is_reserved":false,"is_disabled":false,"rental_uris":{"android":"levelo://app?vid=3c4d6416-c936-4ae6-aee7-775ec241b658","ios":"levelo://app?vid=3c4d6416-c936-4ae6-aee7-775ec241b658"},"vehicle_type_id":"4","last_reported":1750104731,"current_range_meters":12800,"station_id":"chh1huq6cuj3fo74tm60","pricing_plan_id":"cebpf4jnsgd1na2vs0mg"},{"bike_id":"619a1359-2b3c-4059-98cd-73766c8a6cc5","system_id":"levelo_inurba_marseille","lat":43.2175,"lon":5.34601,"is_reserved":false,"is_disabled":false,"rental_uris":{"android":"levelo://app?vid=619a1359-2b3c-4059-98cd-73766c8a6cc5","ios":"levelo://app?vid=619a1359-2b3c-4059-98cd-73766c8a6cc5"},"vehicle_type_id":"4","last_reported":1750104731,"current_range_meters":13600,"station_id":"","pricing_plan_id":"cebpf4jnsgd1na2vs0mg"},{"bike_id":"f26d737b-df63-4894-960d-c1c1e31ae156","system_id":"levelo_inurba_marseille","lat":43.29519,"lon":5.37503,"is_reserved":false,"is_disabled":false,"rental_uris":{"android":"levelo://app?vid=f26d737b-df63-4894-960d-c1c1e31ae156","ios":"levelo://app?vid=f26d737b-df63-4894-960d-c1c1e31ae156"},"vehicle_type_id":"4","last_reported":1750104731,"current_range_meters":13600,"station_id":"ce4bgkp2rcd13ifvqbmg","pricing_plan_id":"cebpf4jnsgd1na2vs0mg"},{"bike_id":"67839ca0-f511-4d8d-9f08-47e96fde5daf","system_id":"levelo_inurba_marseille","lat":43.29839,"lon":5.36263,"is_reserved":false,"is_disabled":false,"rental_uris":{"android":"levelo://app?vid=67839ca0-f511-4d8d-9f08-47e96fde5daf","ios":"levelo://app?vid=67839ca0-f511-4d8d-9f08-47e96fde5daf"},"vehicle_type_id":"4","last_reported":1750104731,"current_range_meters":13600,"station_id":"ce4bgpp2rcd13ifvqc3g","pricing_plan_id":"cebpf4jnsgd1na2vs0mg"},{"bike_id":"54140314-f8b8-4e10-b914-d2426efd86cb","system_id":"levelo_inurba_marseille","lat":43.31113,"lon":5.37761,"is_reserved":false,"is_disabled":false,"rental_uris":{"android":"levelo://app?vid=54140314-f8b8-4e10-b914-d2426efd86cb","ios":"levelo://app?vid=54140314-f8b8-4e10-b914-d2426efd86cb"},"vehicle_type_id":"4","last_reported":1750104731,"current_range_meters":13600,"station_id":"ce4bgt92rcd13ifvqcg0","pricing_plan_id":"cebpf4jnsgd1na2vs0mg"},{"bike_id":"2494848a-6f29-48cb-9eb6-da467ddb466f","system_id":"levelo_inurba_marseille","lat":43.31074,"lon":5.38353,"is_reserved":false,"is_disabled":false,"rental_uris":{"android":"levelo://app?vid=2494848a-6f29-48cb-9eb6-da467ddb466f","ios":"levelo://app?vid=2494848a-6f29-48cb-9eb6-da467ddb466f"},"vehicle_type_id":"4","last_reported":1750104731,"current_range_meters":13600,"station_id":"ce4bgv92rcd13ifvqcr0","pricing_plan_id":"cebpf4jnsgd1na2vs0mg"},{"bike_id":"ff3e1354-47e0-4719-87c5-08dbc5c733f5","system_id":"levelo_inurba_marseille","lat":43.23958,"lon":5.36631,"is_reserved":false,"is_disabled":false,"rental_uris":{"android":"levelo://app?vid=ff3e1354-47e0-4719-87c5-08dbc5c733f5","ios":"levelo://app?vid=ff3e1354-47e0-4719-87c5-08dbc5c733f5"},"vehicle_type_id":"4","last_reported":1750104731,"current_range_meters":13600,"station_id":"ce4bhi12rcd13ifvqfp0","pricing_plan_id":"cebpf4jnsgd1na2vs0mg"},{"bike_id":"6b75a80e-12fa-4bd0-b8db-b509b9abce19","system_id":"levelo_inurba_marseille","lat":43.21198,"lon":5.35073,"is_reserved":false,"is_disabled":false,"rental_uris":{"android":"levelo://app?vid=6b75a80e-12fa-4bd0-b8db-b509b9abce19","ios":"levelo://app?vid=6b75a80e-12fa-4bd0-b8db-b509b9abce19"},"vehicle_type_id":"4","last_reported":1750104731,"current_range_meters":13600,"station_id":"st_cvj6sg6p6f1abm77japg","pricing_plan_id":"cebpf4jnsgd1na2vs0mg"},{"bike_id":"d247f4ab-211a-407b-9290-4f185f6cd66a","system_id":"levelo_inurba_marseille","lat":43.21201,"lon":5.35055,"is_reserved":false,"is_disabled":false,"rental_uris":{"android":"levelo://app?vid=d247f4ab-211a-407b-9290-4f185f6cd66a","ios":"levelo://app?vid=d247f4ab-211a-407b-9290-4f185f6cd66a"},"vehicle_type_id":"4","last_reported":1750104731,"current_range_meters":13600,"station_id":"st_cvj6sg6p6f1abm77japg","pricing_plan_id":"cebpf4jnsgd1na2vs0mg"},{"bike_id":"757906b4-eb86-4ed8-a0a5-7f582bcde75a","system_id":"levelo_inurba_marseille","lat":43.265332,"lon":5.395246,"is_reserved":false,"is_disabled":false,"rental_uris":{"android":"levelo://app?vid=757906b4-eb86-4ed8-a0a5-7f582bcde75a","ios":"levelo://app?vid=757906b4-eb86-4ed8-a0a5-7f582bcde75a"},"vehicle_type_id":"4","last_reported":1750104731,"current_range_meters":14000,"station_id":"","pricing_plan_id":"cebpf4jnsgd1na2vs0mg"},{"bike_id":"d05c512f-ecf8-4d54-8646-fa719dc17ab7","system_id":"levelo_inurba_marseille","lat":43.27554,"lon":5.41731,"is_reserved":false,"is_disabled":false,"rental_uris":{"android":"levelo://app?vid=d05c512f-ecf8-4d54-8646-fa719dc17ab7","ios":"levelo://app?vid=d05c512f-ecf8-4d54-8646-fa719dc17ab7"},"vehicle_type_id":"4","last_reported":1750104731,"current_range_meters":14000,"station_id":"","pricing_plan_id":"cebpf4jnsgd1na2vs0mg"},{"bike_id":"113226f3-5522-464f-a55d-3826c86b07fd","system_id":"levelo_inurba_marseille","lat":43.29534,"lon":5.38541,"is_reserved":false,"is_disabled":false,"rental_uris":{"android":"levelo://app?vid=113226f3-5522-464f-a55d-3826c86b07fd","ios":"levelo://app?vid=113226f3-5522-464f-a55d-3826c86b07fd"},"vehicle_type_id":"4","last_reported":1750104731,"current_range_meters":14000,"station_id":"ce4bgih2rcd13ifvqba0","pricing_plan_id":"cebpf4jnsgd1na2vs0mg"},{"bike_id":"299c2314-047f-4221-a8a5-307740e00a66","system_id":"levelo_inurba_marseille","lat":43.29532,"lon":5.38542,"is_reserved":false,"is_disabled":false,"rental_uris":{"android":"levelo://app?vid=299c2314-047f-4221-a8a5-307740e00a66","ios":"levelo://app?vid=299c2314-047f-4221-a8a5-307740e00a66"},"vehicle_type_id":"4","last_reported":1750104731,"current_range_meters":14000,"station_id":"ce4bgih2rcd13ifvqba0","pricing_plan_id":"cebpf4jnsgd1na2vs0mg"},{"bike_id":"c70f2948-35aa-4931-91a0-30f51b3792de","system_id":"levelo_inurba_marseille","lat":43.273778,"lon":5.362556,"is_reserved":false,"is_disabled":false,"rental_uris":{"android":"levelo://app?vid=c70f2948-35aa-4931-91a0-30f51b3792de","ios":"levelo://app?vid=c70f2948-35aa-4931-91a0-30f51b3792de"},"vehicle_type_id":"4","last_reported":1750104731,"current_range_meters":14000,"station_id":"ce4bhbh2rcd13ifvqeo0","pricing_plan_id":"cebpf4jnsgd1na2vs0mg"},{"bike_id":"7899e2f4-235b-449a-b0d2-d1c4929fe5d9","system_id":"levelo_inurba_marseille","lat":43.2871,"lon":5.36061,"is_reserved":false,"is_disabled":false,"rental_uris":{"android":"levelo://app?vid=7899e2f4-235b-449a-b0d2-d1c4929fe5d9","ios":"levelo://app?vid=7899e2f4-235b-449a-b0d2-d1c4929fe5d9"},"vehicle_type_id":"4","last_reported":1750104731,"current_range_meters":14000,"station_id":"cki0cbj6b192h4jlfktg","pricing_plan_id":"cebpf4jnsgd1na2vs0mg"},{"bike_id":"ce681b13-33c2-42cd-8516-b72e3aaf1212","system_id":"levelo_inurba_marseille","lat":43.284239,"lon":5.375169,"is_reserved":false,"is_disabled":false,"rental_uris":{"android":"levelo://app?vid=ce681b13-33c2-42cd-8516-b72e3aaf1212","ios":"levelo://app?vid=ce681b13-33c2-42cd-8516-b72e3aaf1212"},"vehicle_type_id":"4","last_reported":1750104731,"current_range_meters":14400,"station_id":"ce4bh412rcd13ifvqds0","pricing_plan_id":"cebpf4jnsgd1na2vs0mg"},{"bike_id":"cd7c23fa-b8f3-4ee0-b468-29ec75e71ebe","system_id":"levelo_inurba_marseille","lat":43.24995,"lon":5.3893,"is_reserved":false,"is_disabled":false,"rental_uris":{"android":"levelo://app?vid=cd7c23fa-b8f3-4ee0-b468-29ec75e71ebe","ios":"levelo://app?vid=cd7c23fa-b8f3-4ee0-b468-29ec75e71ebe"},"vehicle_type_id":"4","last_reported":1750104731,"current_range_meters":14400,"station_id":"ce4bhgp2rcd13ifvqfd0","pricing_plan_id":"cebpf4jnsgd1na2vs0mg"},{"bike_id":"e83485c9-6882-402f-b854-1902b875d9db","system_id":"levelo_inurba_marseille","lat":43.27077,"lon":5.42275,"is_reserved":false,"is_disabled":false,"rental_uris":{"android":"levelo://app?vid=e83485c9-6882-402f-b854-1902b875d9db","ios":"levelo://app?vid=e83485c9-6882-402f-b854-1902b875d9db"},"vehicle_type_id":"4","last_reported":1750104731,"current_range_meters":14400,"station_id":"ce4bhk92rcd13ifvqgb0","pricing_plan_id":"cebpf4jnsgd1na2vs0mg"},{"bike_id":"60aee3e5-ddf8-4600-a663-08cc0004499c","system_id":"levelo_inurba_marseille","lat":43.28034,"lon":5.3694,"is_reserved":false,"is_disabled":false,"rental_uris":{"android":"levelo://app?vid=60aee3e5-ddf8-4600-a663-08cc0004499c","ios":"levelo://app?vid=60aee3e5-ddf8-4600-a663-08cc0004499c"},"vehicle_type_id":"4","last_reported":1750104731,"current_range_meters":14800,"station_id":"ce4bha12rcd13ifvqef0","pricing_plan_id":"cebpf4jnsgd1na2vs0mg"},{"bike_id":"22bb4219-1113-4018-bc48-214e822df766","system_id":"levelo_inurba_marseille","lat":43.2407,"lon":5.37764,"is_reserved":false,"is_disabled":false,"rental_uris":{"android":"levelo://app?vid=22bb4219-1113-4018-bc48-214e822df766","ios":"levelo://app?vid=22bb4219-1113-4018-bc48-214e822df766"},"vehicle_type_id":"4","last_reported":1750104731,"current_range_meters":14800,"station_id":"ce4bhnp2rcd13ifvqgvg","pricing_plan_id":"cebpf4jnsgd1na2vs0mg"},{"bike_id":"1915170c-b7c7-426c-b0df-50188b5347d7","system_id":"levelo_inurba_marseille","lat":43.32286,"lon":5.38272,"is_reserved":false,"is_disabled":false,"rental_uris":{"android":"levelo://app?vid=1915170c-b7c7-426c-b0df-50188b5347d7","ios":"levelo://app?vid=1915170c-b7c7-426c-b0df-50188b5347d7"},"vehicle_type_id":"4","last_reported":1750104731,"current_range_meters":14800,"station_id":"ce4bhr12rcd13ifvqhqg","pricing_plan_id":"cebpf4jnsgd1na2vs0mg"},{"bike_id":"25960fd9-8509-4555-9b23-fa4fae1e21d0","system_id":"levelo_inurba_marseille","lat":43.29005,"lon":5.38215,"is_reserved":false,"is_disabled":false,"rental_uris":{"android":"levelo://app?vid=25960fd9-8509-4555-9b23-fa4fae1e21d0","ios":"levelo://app?vid=25960fd9-8509-4555-9b23-fa4fae1e21d0"},"vehicle_type_id":"4","last_reported":1750104731,"current_range_meters":15200,"station_id":"","pricing_plan_id":"cebpf4jnsgd1na2vs0mg"},{"bike_id":"e1c3031a-cfe2-4224-9867-102b64096bd8","system_id":"levelo_inurba_marseille","lat":43.29475,"lon":5.38614,"is_reserved":false,"is_disabled":false,"rental_uris":{"android":"levelo://app?vid=e1c3031a-cfe2-4224-9867-102b64096bd8","ios":"levelo://app?vid=e1c3031a-cfe2-4224-9867-102b64096bd8"},"vehicle_type_id":"4","last_reported":1750104731,"current_range_meters":15200,"station_id":"","pricing_plan_id":"cebpf4jnsgd1na2vs0mg"},{"bike_id":"decda955-c040-4aa0-bbb0-1613443766a0","system_id":"levelo_inurba_marseille","lat":43.29255,"lon":5.38442,"is_reserved":false,"is_disabled":false,"rental_uris":{"android":"levelo://app?vid=decda955-c040-4aa0-bbb0-1613443766a0","ios":"levelo://app?vid=decda955-c040-4aa0-bbb0-1613443766a0"},"vehicle_type_id":"4","last_reported":1750104731,"current_range_meters":15200,"station_id":"ce4bh692rcd13ifvqea0","pricing_plan_id":"cebpf4jnsgd1na2vs0mg"},{"bike_id":"c6e11e18-206f-4bff-84da-d0aa44e03a49","system_id":"levelo_inurba_marseille","lat":43.27385,"lon":5.36254,"is_reserved":false,"is_disabled":false,"rental_uris":{"android":"levelo://app?vid=c6e11e18-206f-4bff-84da-d0aa44e03a49","ios":"levelo://app?vid=c6e11e18-206f-4bff-84da-d0aa44e03a49"},"vehicle_type_id":"4","last_reported":1750104731,"current_range_meters":15200,"station_id":"ce4bhbh2rcd13ifvqeo0","pricing_plan_id":"cebpf4jnsgd1na2vs0mg"},{"bike_id":"c1ba07ad-731d-49d8-9fd6-a826431f3438","system_id":"levelo_inurba_marseille","lat":43.29894,"lon":5.43671,"is_reserved":false,"is_disabled":false,"rental_uris":{"android":"levelo://app?vid=c1ba07ad-731d-49d8-9fd6-a826431f3438","ios":"levelo://app?vid=c1ba07ad-731d-49d8-9fd6-a826431f3438"},"vehicle_type_id":"4","last_reported":1750104731,"current_range_meters":15200,"station_id":"ce4bhpp2rcd13ifvqhfg","pricing_plan_id":"cebpf4jnsgd1na2vs0mg"},{"bike_id":"9ca4474d-50d3-4613-90fd-fa8476250cd0","system_id":"levelo_inurba_marseille","lat":43.266812,"lon":5.382665,"is_reserved":false,"is_disabled":false,"rental_uris":{"android":"levelo://app?vid=9ca4474d-50d3-4613-90fd-fa8476250cd0","ios":"levelo://app?vid=9ca4474d-50d3-4613-90fd-fa8476250cd0"},"vehicle_type_id":"4","last_reported":1750104731,"current_range_meters":16000,"station_id":"ce4bhg92rcd13ifvqf90","pricing_plan_id":"cebpf4jnsgd1na2vs0mg"},{"bike_id":"1e373418-986e-4d3c-9ff7-c37dd7c7a214","system_id":"levelo_inurba_marseille","lat":43.299025,"lon":5.43662,"is_reserved":false,"is_disabled":false,"rental_uris":{"android":"levelo://app?vid=1e373418-986e-4d3c-9ff7-c37dd7c7a214","ios":"levelo://app?vid=1e373418-986e-4d3c-9ff7-c37dd7c7a214"},"vehicle_type_id":"4","last_reported":1750104731,"current_range_meters":16000,"station_id":"ce4bhpp2rcd13ifvqhfg","pricing_plan_id":"cebpf4jnsgd1na2vs0mg"},{"bike_id":"328a6a4f-8026-4738-b685-57d56d3e3f01","system_id":"levelo_inurba_marseille","lat":43.3246,"lon":5.36537,"is_reserved":false,"is_disabled":false,"rental_uris":{"android":"levelo://app?vid=328a6a4f-8026-4738-b685-57d56d3e3f01","ios":"levelo://app?vid=328a6a4f-8026-4738-b685-57d56d3e3f01"},"vehicle_type_id":"4","last_reported":1750104731,"current_range_meters":16000,"station_id":"ce4bhs12rcd13ifvqhvg","pricing_plan_id":"cebpf4jnsgd1na2vs0mg"},{"bike_id":"0e27dafc-21df-4fb1-bd36-2450a7866702","system_id":"levelo_inurba_marseille","lat":43.27144,"lon":5.39991,"is_reserved":false,"is_disabled":false,"rental_uris":{"android":"levelo://app?vid=0e27dafc-21df-4fb1-bd36-2450a7866702","ios":"levelo://app?vid=0e27dafc-21df-4fb1-bd36-2450a7866702"},"vehicle_type_id":"4","last_reported":1750104731,"current_range_meters":16400,"station_id":"","pricing_plan_id":"cebpf4jnsgd1na2vs0mg"},{"bike_id":"a066e194-fa01-49a0-979c-26a09b100d60","system_id":"levelo_inurba_marseille","lat":43.29198,"lon":5.35805,"is_reserved":false,"is_disabled":false,"rental_uris":{"android":"levelo://app?vid=a066e194-fa01-49a0-979c-26a09b100d60","ios":"levelo://app?vid=a066e194-fa01-49a0-979c-26a09b100d60"},"vehicle_type_id":"4","last_reported":1750104731,"current_range_meters":16400,"station_id":"","pricing_plan_id":"cebpf4jnsgd1na2vs0mg"},{"bike_id":"b9713f52-9810-4f93-8cbd-3f1a8b66be76","system_id":"levelo_inurba_marseille","lat":43.31046,"lon":5.43819,"is_reserved":false,"is_disabled":false,"rental_uris":{"android":"levelo://app?vid=b9713f52-9810-4f93-8cbd-3f1a8b66be76","ios":"levelo://app?vid=b9713f52-9810-4f93-8cbd-3f1a8b66be76"},"vehicle_type_id":"4","last_reported":1750104731,"current_range_meters":16400,"station_id":"","pricing_plan_id":"cebpf4jnsgd1na2vs0mg"},{"bike_id":"a27808de-5363-4b7d-9a0c-616c0b9f2ae1","system_id":"levelo_inurba_marseille","lat":43.29263,"lon":5.37628,"is_reserved":false,"is_disabled":false,"rental_uris":{"android":"levelo://app?vid=a27808de-5363-4b7d-9a0c-616c0b9f2ae1","ios":"levelo://app?vid=a27808de-5363-4b7d-9a0c-616c0b9f2ae1"},"vehicle_type_id":"4","last_reported":1750104731,"current_range_meters":16400,"station_id":"ce4bgi12rcd13ifvqb80","pricing_plan_id":"cebpf4jnsgd1na2vs0mg"},{"bike_id":"2026b0aa-367e-465d-a80b-ddcce9fcd2b5","system_id":"levelo_inurba_marseille","lat":43.303003,"lon":5.368955,"is_reserved":false,"is_disabled":false,"rental_uris":{"android":"levelo://app?vid=2026b0aa-367e-465d-a80b-ddcce9fcd2b5","ios":"levelo://app?vid=2026b0aa-367e-465d-a80b-ddcce9fcd2b5"},"vehicle_type_id":"4","last_reported":1750104731,"current_range_meters":16400,"station_id":"ce4bgqh2rcd13ifvqc5g","pricing_plan_id":"cebpf4jnsgd1na2vs0mg"},{"bike_id":"8d8216b7-70be-4e0e-b02f-ed276d5ecd5f","system_id":"levelo_inurba_marseille","lat":43.23064,"lon":5.35499,"is_reserved":false,"is_disabled":false,"rental_uris":{"android":"levelo://app?vid=8d8216b7-70be-4e0e-b02f-ed276d5ecd5f","ios":"levelo://app?vid=8d8216b7-70be-4e0e-b02f-ed276d5ecd5f"},"vehicle_type_id":"4","last_reported":1750104731,"current_range_meters":16400,"station_id":"cpo3342slgdg3j2ifvpg","pricing_plan_id":"cebpf4jnsgd1na2vs0mg"},{"bike_id":"0d79b82b-c3e9-4614-a82f-42fc2b9e35d4","system_id":"levelo_inurba_marseille","lat":43.31172,"lon":5.38715,"is_reserved":false,"is_disabled":false,"rental_uris":{"android":"levelo://app?vid=0d79b82b-c3e9-4614-a82f-42fc2b9e35d4","ios":"levelo://app?vid=0d79b82b-c3e9-4614-a82f-42fc2b9e35d4"},"vehicle_type_id":"4","last_reported":1750104731,"current_range_meters":16800,"station_id":"ce4bgv12rcd13ifvqcp0","pricing_plan_id":"cebpf4jnsgd1na2vs0mg"},{"bike_id":"25987d11-b896-46b5-b059-ef8150553ab5","system_id":"levelo_inurba_marseille","lat":43.29263,"lon":5.38442,"is_reserved":false,"is_disabled":false,"rental_uris":{"android":"levelo://app?vid=25987d11-b896-46b5-b059-ef8150553ab5","ios":"levelo://app?vid=25987d11-b896-46b5-b059-ef8150553ab5"},"vehicle_type_id":"4","last_reported":1750104731,"current_range_meters":16800,"station_id":"ce4bh692rcd13ifvqea0","pricing_plan_id":"cebpf4jnsgd1na2vs0mg"},{"bike_id":"3be844da-350b-45fa-b12d-4dd2be126d17","system_id":"levelo_inurba_marseille","lat":43.2792,"lon":5.39574,"is_reserved":false,"is_disabled":false,"rental_uris":{"android":"levelo://app?vid=3be844da-350b-45fa-b12d-4dd2be126d17","ios":"levelo://app?vid=3be844da-350b-45fa-b12d-4dd2be126d17"},"vehicle_type_id":"4","last_reported":1750104731,"current_range_meters":16800,"station_id":"ce4bhf92rcd13ifvqf40","pricing_plan_id":"cebpf4jnsgd1na2vs0mg"},{"bike_id":"83cfee7d-980d-496a-98c8-745c7e44c68d","system_id":"levelo_inurba_marseille","lat":43.32875,"lon":5.39126,"is_reserved":false,"is_disabled":false,"rental_uris":{"android":"levelo://app?vid=83cfee7d-980d-496a-98c8-745c7e44c68d","ios":"levelo://app?vid=83cfee7d-980d-496a-98c8-745c7e44c68d"},"vehicle_type_id":"4","last_reported":1750104731,"current_range_meters":17200,"station_id":"","pricing_plan_id":"cebpf4jnsgd1na2vs0mg"},{"bike_id":"9b533967-9359-4336-9840-85e4457ec9d1","system_id":"levelo_inurba_marseille","lat":43.27617,"lon":5.36104,"is_reserved":false,"is_disabled":false,"rental_uris":{"android":"levelo://app?vid=9b533967-9359-4336-9840-85e4457ec9d1","ios":"levelo://app?vid=9b533967-9359-4336-9840-85e4457ec9d1"},"vehicle_type_id":"4","last_reported":1750104731,"current_range_meters":17200,"station_id":"ce4bgj92rcd13ifvqbe0","pricing_plan_id":"cebpf4jnsgd1na2vs0mg"},{"bike_id":"7f8d35a8-5019-43dd-90df-035eaec9af01","system_id":"levelo_inurba_marseille","lat":43.300241,"lon":5.386125,"is_reserved":false,"is_disabled":false,"rental_uris":{"android":"levelo://app?vid=7f8d35a8-5019-43dd-90df-035eaec9af01","ios":"levelo://app?vid=7f8d35a8-5019-43dd-90df-035eaec9af01"},"vehicle_type_id":"4","last_reported":1750104731,"current_range_meters":17200,"station_id":"ce4bh0p2rcd13ifvqd80","pricing_plan_id":"cebpf4jnsgd1na2vs0mg"},{"bike_id":"874abac4-f2b3-4fc6-ba72-379d3b298e3b","system_id":"levelo_inurba_marseille","lat":43.251,"lon":5.40336,"is_reserved":false,"is_disabled":false,"rental_uris":{"android":"levelo://app?vid=874abac4-f2b3-4fc6-ba72-379d3b298e3b","ios":"levelo://app?vid=874abac4-f2b3-4fc6-ba72-379d3b298e3b"},"vehicle_type_id":"4","last_reported":1750104731,"current_range_meters":17200,"station_id":"ce4bhlh2rcd13ifvqgig","pricing_plan_id":"cebpf4jnsgd1na2vs0mg"},{"bike_id":"381bd0ad-ce73-4a4f-b643-1e1c87957c84","system_id":"levelo_inurba_marseille","lat":43.24072,"lon":5.37752,"is_reserved":false,"is_disabled":false,"rental_uris":{"android":"levelo://app?vid=381bd0ad-ce73-4a4f-b643-1e1c87957c84","ios":"levelo://app?vid=381bd0ad-ce73-4a4f-b643-1e1c87957c84"},"vehicle_type_id":"4","last_reported":1750104731,"current_range_meters":17200,"station_id":"ce4bhnp2rcd13ifvqgvg","pricing_plan_id":"cebpf4jnsgd1na2vs0mg"},{"bike_id":"8b4c7346-dccd-4251-bfd5-ca1f01bf6f51","system_id":"levelo_inurba_marseille","lat":43.3211,"lon":5.3677,"is_reserved":false,"is_disabled":false,"rental_uris":{"android":"levelo://app?vid=8b4c7346-dccd-4251-bfd5-ca1f01bf6f51","ios":"levelo://app?vid=8b4c7346-dccd-4251-bfd5-ca1f01bf6f51"},"vehicle_type_id":"4","last_reported":1750104731,"current_range_meters":17200,"station_id":"ce4bhrh2rcd13ifvqhug","pricing_plan_id":"cebpf4jnsgd1na2vs0mg"},{"bike_id":"63d8f8de-6fb5-461e-8196-70d15c64a587","system_id":"levelo_inurba_marseille","lat":43.21198,"lon":5.35054,"is_reserved":false,"is_disabled":false,"rental_uris":{"android":"levelo://app?vid=63d8f8de-6fb5-461e-8196-70d15c64a587","ios":"levelo://app?vid=63d8f8de-6fb5-461e-8196-70d15c64a587"},"vehicle_type_id":"4","last_reported":1750104731,"current_range_meters":17200,"station_id":"st_cvj6sg6p6f1abm77japg","pricing_plan_id":"cebpf4jnsgd1na2vs0mg"},{"bike_id":"f9e01266-b967-4bfd-b75b-feefbe1a2bff","system_id":"levelo_inurba_marseille","lat":43.30922,"lon":5.40142,"is_reserved":false,"is_disabled":false,"rental_uris":{"android":"levelo://app?vid=f9e01266-b967-4bfd-b75b-feefbe1a2bff","ios":"levelo://app?vid=f9e01266-b967-4bfd-b75b-feefbe1a2bff"},"vehicle_type_id":"4","last_reported":1750104731,"current_range_meters":17600,"station_id":"ce4bgvp2rcd13ifvqct0","pricing_plan_id":"cebpf4jnsgd1na2vs0mg"},{"bike_id":"2b7e1c15-55ee-402f-85de-669180e0c890","system_id":"levelo_inurba_marseille","lat":43.30092,"lon":5.39062,"is_reserved":false,"is_disabled":false,"rental_uris":{"android":"levelo://app?vid=2b7e1c15-55ee-402f-85de-669180e0c890","ios":"levelo://app?vid=2b7e1c15-55ee-402f-85de-669180e0c890"},"vehicle_type_id":"4","last_reported":1750104731,"current_range_meters":17600,"station_id":"ce4bh192rcd13ifvqdb0","pricing_plan_id":"cebpf4jnsgd1na2vs0mg"},{"bike_id":"e150441e-bc69-4619-9492-e5fd375524c1","system_id":"levelo_inurba_marseille","lat":43.28102,"lon":5.37837,"is_reserved":false,"is_disabled":false,"rental_uris":{"android":"levelo://app?vid=e150441e-bc69-4619-9492-e5fd375524c1","ios":"levelo://app?vid=e150441e-bc69-4619-9492-e5fd375524c1"},"vehicle_type_id":"4","last_reported":1750104731,"current_range_meters":17600,"station_id":"ce4bha12rcd13ifvqee0","pricing_plan_id":"cebpf4jnsgd1na2vs0mg"},{"bike_id":"79abc4be-d098-49eb-bb09-398f4f37ddcd","system_id":"levelo_inurba_marseille","lat":43.281587,"lon":5.426423,"is_reserved":false,"is_disabled":false,"rental_uris":{"android":"levelo://app?vid=79abc4be-d098-49eb-bb09-398f4f37ddcd","ios":"levelo://app?vid=79abc4be-d098-49eb-bb09-398f4f37ddcd"},"vehicle_type_id":"4","last_reported":1750104731,"current_range_meters":17600,"station_id":"ce4bhnh2rcd13ifvqgug","pricing_plan_id":"cebpf4jnsgd1na2vs0mg"},{"bike_id":"f1c51b49-2723-4952-968b-ca0c8a907afc","system_id":"levelo_inurba_marseille","lat":43.286,"lon":5.37063,"is_reserved":false,"is_disabled":false,"rental_uris":{"android":"levelo://app?vid=f1c51b49-2723-4952-968b-ca0c8a907afc","ios":"levelo://app?vid=f1c51b49-2723-4952-968b-ca0c8a907afc"},"vehicle_type_id":"4","last_reported":1750104731,"current_range_meters":17600,"station_id":"ce4bht12rcd13ifvqi60","pricing_plan_id":"cebpf4jnsgd1na2vs0mg"},{"bike_id":"203ce7ae-f28e-4055-a214-c37590a01e71","system_id":"levelo_inurba_marseille","lat":43.28697,"lon":5.37941,"is_reserved":false,"is_disabled":false,"rental_uris":{"android":"levelo://app?vid=203ce7ae-f28e-4055-a214-c37590a01e71","ios":"levelo://app?vid=203ce7ae-f28e-4055-a214-c37590a01e71"},"vehicle_type_id":"4","last_reported":1750104731,"current_range_meters":18000,"station_id":"ce4bh9p2rcd13ifvqec0","pricing_plan_id":"cebpf4jnsgd1na2vs0mg"},{"bike_id":"4ce5b165-f22d-40cf-abd3-1cb294861955","system_id":"levelo_inurba_marseille","lat":43.21203,"lon":5.35053,"is_reserved":false,"is_disabled":false,"rental_uris":{"android":"levelo://app?vid=4ce5b165-f22d-40cf-abd3-1cb294861955","ios":"levelo://app?vid=4ce5b165-f22d-40cf-abd3-1cb294861955"},"vehicle_type_id":"4","last_reported":1750104731,"current_range_meters":18800,"station_id":"","pricing_plan_id":"cebpf4jnsgd1na2vs0mg"},{"bike_id":"e4545242-0d34-410b-9092-52e20d435c24","system_id":"levelo_inurba_marseille","lat":43.30873,"lon":5.37022,"is_reserved":false,"is_disabled":false,"rental_uris":{"android":"levelo://app?vid=e4545242-0d34-410b-9092-52e20d435c24","ios":"levelo://app?vid=e4545242-0d34-410b-9092-52e20d435c24"},"vehicle_type_id":"4","last_reported":1750104731,"current_range_meters":18800,"station_id":"","pricing_plan_id":"cebpf4jnsgd1na2vs0mg"},{"bike_id":"c5db1c48-1164-4250-a261-b7f3a688b525","system_id":"levelo_inurba_marseille","lat":43.29936,"lon":5.36551,"is_reserved":false,"is_disabled":false,"rental_uris":{"android":"levelo://app?vid=c5db1c48-1164-4250-a261-b7f3a688b525","ios":"levelo://app?vid=c5db1c48-1164-4250-a261-b7f3a688b525"},"vehicle_type_id":"4","last_reported":1750104731,"current_range_meters":18800,"station_id":"ce4bgm92rcd13ifvqbr0","pricing_plan_id":"cebpf4jnsgd1na2vs0mg"},{"bike_id":"5fb479d1-47ba-4102-b244-e84ad3ff1ae2","system_id":"levelo_inurba_marseille","lat":43.30783,"lon":5.3766,"is_reserved":false,"is_disabled":false,"rental_uris":{"android":"levelo://app?vid=5fb479d1-47ba-4102-b244-e84ad3ff1ae2","ios":"levelo://app?vid=5fb479d1-47ba-4102-b244-e84ad3ff1ae2"},"vehicle_type_id":"4","last_reported":1750104731,"current_range_meters":18800,"station_id":"ce4bgv92rcd13ifvqcq0","pricing_plan_id":"cebpf4jnsgd1na2vs0mg"},{"bike_id":"d2c1a0ca-5367-4619-b0c8-51326504b462","system_id":"levelo_inurba_marseille","lat":43.30881,"lon":5.39631,"is_reserved":false,"is_disabled":false,"rental_uris":{"android":"levelo://app?vid=d2c1a0ca-5367-4619-b0c8-51326504b462","ios":"levelo://app?vid=d2c1a0ca-5367-4619-b0c8-51326504b462"},"vehicle_type_id":"4","last_reported":1750104731,"current_range_meters":18800,"station_id":"ce4bh012rcd13ifvqcv0","pricing_plan_id":"cebpf4jnsgd1na2vs0mg"},{"bike_id":"8d092cd5-1b2f-4e79-acb3-d3e3bf42c8b7","system_id":"levelo_inurba_marseille","lat":43.27382,"lon":5.36258,"is_reserved":false,"is_disabled":false,"rental_uris":{"android":"levelo://app?vid=8d092cd5-1b2f-4e79-acb3-d3e3bf42c8b7","ios":"levelo://app?vid=8d092cd5-1b2f-4e79-acb3-d3e3bf42c8b7"},"vehicle_type_id":"4","last_reported":1750104731,"current_range_meters":18800,"station_id":"ce4bhbh2rcd13ifvqeo0","pricing_plan_id":"cebpf4jnsgd1na2vs0mg"},{"bike_id":"f1501383-0c54-4bdc-a395-17cc7b3f99e3","system_id":"levelo_inurba_marseille","lat":43.27371,"lon":5.36264,"is_reserved":false,"is_disabled":false,"rental_uris":{"android":"levelo://app?vid=f1501383-0c54-4bdc-a395-17cc7b3f99e3","ios":"levelo://app?vid=f1501383-0c54-4bdc-a395-17cc7b3f99e3"},"vehicle_type_id":"4","last_reported":1750104731,"current_range_meters":18800,"station_id":"ce4bhbh2rcd13ifvqeo0","pricing_plan_id":"cebpf4jnsgd1na2vs0mg"},{"bike_id":"9477105b-a889-4580-b91d-9a844619e545","system_id":"levelo_inurba_marseille","lat":43.28956,"lon":5.36379,"is_reserved":false,"is_disabled":false,"rental_uris":{"android":"levelo://app?vid=9477105b-a889-4580-b91d-9a844619e545","ios":"levelo://app?vid=9477105b-a889-4580-b91d-9a844619e545"},"vehicle_type_id":"4","last_reported":1750104731,"current_range_meters":18800,"station_id":"ce4bhc92rcd13ifvqetg","pricing_plan_id":"cebpf4jnsgd1na2vs0mg"},{"bike_id":"128e7486-4446-4619-a699-90d2b747f04a","system_id":"levelo_inurba_marseille","lat":43.27944,"lon":5.41034,"is_reserved":false,"is_disabled":false,"rental_uris":{"android":"levelo://app?vid=128e7486-4446-4619-a699-90d2b747f04a","ios":"levelo://app?vid=128e7486-4446-4619-a699-90d2b747f04a"},"vehicle_type_id":"4","last_reported":1750104731,"current_range_meters":18800,"station_id":"ce4bhnp2rcd13ifvqh0g","pricing_plan_id":"cebpf4jnsgd1na2vs0mg"},{"bike_id":"2090556a-ebe6-4fcd-b60b-df67d7c8e4f7","system_id":"levelo_inurba_marseille","lat":43.29901,"lon":5.436656,"is_reserved":false,"is_disabled":false,"rental_uris":{"android":"levelo://app?vid=2090556a-ebe6-4fcd-b60b-df67d7c8e4f7","ios":"levelo://app?vid=2090556a-ebe6-4fcd-b60b-df67d7c8e4f7"},"vehicle_type_id":"4","last_reported":1750104731,"current_range_meters":18800,"station_id":"ce4bhpp2rcd13ifvqhfg","pricing_plan_id":"cebpf4jnsgd1na2vs0mg"},{"bike_id":"a8f9e697-30cf-458f-bd47-e14782fac29b","system_id":"levelo_inurba_marseille","lat":43.30905,"lon":5.37405,"is_reserved":false,"is_disabled":false,"rental_uris":{"android":"levelo://app?vid=a8f9e697-30cf-458f-bd47-e14782fac29b","ios":"levelo://app?vid=a8f9e697-30cf-458f-bd47-e14782fac29b"},"vehicle_type_id":"4","last_reported":1750104731,"current_range_meters":19200,"station_id":"","pricing_plan_id":"cebpf4jnsgd1na2vs0mg"},{"bike_id":"d4b764d1-ac6c-4c6d-a4ac-1d9caabd3af3","system_id":"levelo_inurba_marseille","lat":43.292606,"lon":5.384289,"is_reserved":false,"is_disabled":false,"rental_uris":{"android":"levelo://app?vid=d4b764d1-ac6c-4c6d-a4ac-1d9caabd3af3","ios":"levelo://app?vid=d4b764d1-ac6c-4c6d-a4ac-1d9caabd3af3"},"vehicle_type_id":"4","last_reported":1750104731,"current_range_meters":19200,"station_id":"","pricing_plan_id":"cebpf4jnsgd1na2vs0mg"},{"bike_id":"e3977fb1-6092-4714-9d4c-8351cace434d","system_id":"levelo_inurba_marseille","lat":43.252568,"lon":5.375659,"is_reserved":false,"is_disabled":false,"rental_uris":{"android":"levelo://app?vid=e3977fb1-6092-4714-9d4c-8351cace434d","ios":"levelo://app?vid=e3977fb1-6092-4714-9d4c-8351cace434d"},"vehicle_type_id":"4","last_reported":1750104731,"current_range_meters":19200,"station_id":"","pricing_plan_id":"cebpf4jnsgd1na2vs0mg"},{"bike_id":"80ea53d9-7f2f-4725-9e06-f74b97467053","system_id":"levelo_inurba_marseille","lat":43.31167,"lon":5.38707,"is_reserved":false,"is_disabled":false,"rental_uris":{"android":"levelo://app?vid=80ea53d9-7f2f-4725-9e06-f74b97467053","ios":"levelo://app?vid=80ea53d9-7f2f-4725-9e06-f74b97467053"},"vehicle_type_id":"4","last_reported":1750104731,"current_range_meters":19200,"station_id":"ce4bgv12rcd13ifvqcp0","pricing_plan_id":"cebpf4jnsgd1na2vs0mg"},{"bike_id":"0e1040a4-5b91-4f5d-a243-54caba80cba4","system_id":"levelo_inurba_marseille","lat":43.29188,"lon":5.39331,"is_reserved":false,"is_disabled":false,"rental_uris":{"android":"levelo://app?vid=0e1040a4-5b91-4f5d-a243-54caba80cba4","ios":"levelo://app?vid=0e1040a4-5b91-4f5d-a243-54caba80cba4"},"vehicle_type_id":"4","last_reported":1750104731,"current_range_meters":19200,"station_id":"ce4bh192rcd13ifvqdd0","pricing_plan_id":"cebpf4jnsgd1na2vs0mg"},{"bike_id":"dab6fb6d-3e6d-412b-a0e1-f672326dbd00","system_id":"levelo_inurba_marseille","lat":43.24166,"lon":5.39749,"is_reserved":false,"is_disabled":false,"rental_uris":{"android":"levelo://app?vid=dab6fb6d-3e6d-412b-a0e1-f672326dbd00","ios":"levelo://app?vid=dab6fb6d-3e6d-412b-a0e1-f672326dbd00"},"vehicle_type_id":"4","last_reported":1750104731,"current_range_meters":19200,"station_id":"ce4bhn12rcd13ifvqgpg","pricing_plan_id":"cebpf4jnsgd1na2vs0mg"},{"bike_id":"5f713623-e820-4177-b147-6ae186477a14","system_id":"levelo_inurba_marseille","lat":43.27816,"lon":5.40709,"is_reserved":false,"is_disabled":false,"rental_uris":{"android":"levelo://app?vid=5f713623-e820-4177-b147-6ae186477a14","ios":"levelo://app?vid=5f713623-e820-4177-b147-6ae186477a14"},"vehicle_type_id":"4","last_reported":1750104731,"current_range_meters":19200,"station_id":"ce4bhnh2rcd13ifvqgtg","pricing_plan_id":"cebpf4jnsgd1na2vs0mg"},{"bike_id":"7516c593-6640-4b00-96c9-31c1b5678a8a","system_id":"levelo_inurba_marseille","lat":43.32372,"lon":5.38876,"is_reserved":false,"is_disabled":false,"rental_uris":{"android":"levelo://app?vid=7516c593-6640-4b00-96c9-31c1b5678a8a","ios":"levelo://app?vid=7516c593-6640-4b00-96c9-31c1b5678a8a"},"vehicle_type_id":"4","last_reported":1750104731,"current_range_meters":19200,"station_id":"ce4bhqp2rcd13ifvqhog","pricing_plan_id":"cebpf4jnsgd1na2vs0mg"},{"bike_id":"de0f7c2b-5974-4035-a240-8ed367c0e3f3","system_id":"levelo_inurba_marseille","lat":43.31973,"lon":5.37619,"is_reserved":false,"is_disabled":false,"rental_uris":{"android":"levelo://app?vid=de0f7c2b-5974-4035-a240-8ed367c0e3f3","ios":"levelo://app?vid=de0f7c2b-5974-4035-a240-8ed367c0e3f3"},"vehicle_type_id":"4","last_reported":1750104731,"current_range_meters":19600,"station_id":"","pricing_plan_id":"cebpf4jnsgd1na2vs0mg"},{"bike_id":"4ecccee2-787d-4f83-8873-6d5bea0976e0","system_id":"levelo_inurba_marseille","lat":43.30303,"lon":5.36892,"is_reserved":false,"is_disabled":false,"rental_uris":{"android":"levelo://app?vid=4ecccee2-787d-4f83-8873-6d5bea0976e0","ios":"levelo://app?vid=4ecccee2-787d-4f83-8873-6d5bea0976e0"},"vehicle_type_id":"4","last_reported":1750104731,"current_range_meters":19600,"station_id":"ce4bgqh2rcd13ifvqc5g","pricing_plan_id":"cebpf4jnsgd1na2vs0mg"},{"bike_id":"af09b6ed-8248-408e-9d26-8490d79dce0f","system_id":"levelo_inurba_marseille","lat":43.3148,"lon":5.3731,"is_reserved":false,"is_disabled":false,"rental_uris":{"android":"levelo://app?vid=af09b6ed-8248-408e-9d26-8490d79dce0f","ios":"levelo://app?vid=af09b6ed-8248-408e-9d26-8490d79dce0f"},"vehicle_type_id":"4","last_reported":1750104731,"current_range_meters":19600,"station_id":"ce4bgt12rcd13ifvqcd0","pricing_plan_id":"cebpf4jnsgd1na2vs0mg"},{"bike_id":"145c11e5-dce3-4c6d-ab6e-7ff3243c1291","system_id":"levelo_inurba_marseille","lat":43.278988,"lon":5.37997,"is_reserved":false,"is_disabled":false,"rental_uris":{"android":"levelo://app?vid=145c11e5-dce3-4c6d-ab6e-7ff3243c1291","ios":"levelo://app?vid=145c11e5-dce3-4c6d-ab6e-7ff3243c1291"},"vehicle_type_id":"4","last_reported":1750104731,"current_range_meters":19600,"station_id":"ce4bhf92rcd13ifvqf50","pricing_plan_id":"cebpf4jnsgd1na2vs0mg"},{"bike_id":"6fb9eb53-4009-4a7d-afc2-085c87fcfb5b","system_id":"levelo_inurba_marseille","lat":43.28143,"lon":5.42662,"is_reserved":false,"is_disabled":false,"rental_uris":{"android":"levelo://app?vid=6fb9eb53-4009-4a7d-afc2-085c87fcfb5b","ios":"levelo://app?vid=6fb9eb53-4009-4a7d-afc2-085c87fcfb5b"},"vehicle_type_id":"4","last_reported":1750104731,"current_range_meters":19600,"station_id":"ce4bhnh2rcd13ifvqgug","pricing_plan_id":"cebpf4jnsgd1na2vs0mg"},{"bike_id":"20caf0df-5d9d-4e78-a9be-b32e617b6e67","system_id":"levelo_inurba_marseille","lat":43.28723,"lon":5.36091,"is_reserved":false,"is_disabled":false,"rental_uris":{"android":"levelo://app?vid=20caf0df-5d9d-4e78-a9be-b32e617b6e67","ios":"levelo://app?vid=20caf0df-5d9d-4e78-a9be-b32e617b6e67"},"vehicle_type_id":"4","last_reported":1750104731,"current_range_meters":19600,"station_id":"cki0cbj6b192h4jlfktg","pricing_plan_id":"cebpf4jnsgd1na2vs0mg"},{"bike_id":"2f0f7865-53e4-4955-8eb9-1bb98bf95595","system_id":"levelo_inurba_marseille","lat":43.317543,"lon":5.375737,"is_reserved":false,"is_disabled":false,"rental_uris":{"android":"levelo://app?vid=2f0f7865-53e4-4955-8eb9-1bb98bf95595","ios":"levelo://app?vid=2f0f7865-53e4-4955-8eb9-1bb98bf95595"},"vehicle_type_id":"4","last_reported":1750104731,"current_range_meters":20000,"station_id":"","pricing_plan_id":"cebpf4jnsgd1na2vs0mg"},{"bike_id":"42d56f99-c1d9-4eaf-a0aa-e97008834ba8","system_id":"levelo_inurba_marseille","lat":43.3013,"lon":5.39861,"is_reserved":false,"is_disabled":false,"rental_uris":{"android":"levelo://app?vid=42d56f99-c1d9-4eaf-a0aa-e97008834ba8","ios":"levelo://app?vid=42d56f99-c1d9-4eaf-a0aa-e97008834ba8"},"vehicle_type_id":"4","last_reported":1750104731,"current_range_meters":20000,"station_id":"ce4bh0h2rcd13ifvqd40","pricing_plan_id":"cebpf4jnsgd1na2vs0mg"},{"bike_id":"a58e79f2-6af2-4234-8086-f68b60400b10","system_id":"levelo_inurba_marseille","lat":43.29872,"lon":5.39716,"is_reserved":false,"is_disabled":false,"rental_uris":{"android":"levelo://app?vid=a58e79f2-6af2-4234-8086-f68b60400b10","ios":"levelo://app?vid=a58e79f2-6af2-4234-8086-f68b60400b10"},"vehicle_type_id":"4","last_reported":1750104731,"current_range_meters":20000,"station_id":"ce4bh0h2rcd13ifvqd50","pricing_plan_id":"cebpf4jnsgd1na2vs0mg"},{"bike_id":"b9fc6d28-f37c-4c31-9311-f5fc6b238aa8","system_id":"levelo_inurba_marseille","lat":43.29071,"lon":5.37154,"is_reserved":false,"is_disabled":false,"rental_uris":{"android":"levelo://app?vid=b9fc6d28-f37c-4c31-9311-f5fc6b238aa8","ios":"levelo://app?vid=b9fc6d28-f37c-4c31-9311-f5fc6b238aa8"},"vehicle_type_id":"4","last_reported":1750104731,"current_range_meters":20000,"station_id":"ce4bh5p2rcd13ifvqe4g","pricing_plan_id":"cebpf4jnsgd1na2vs0mg"},{"bike_id":"a66a5807-5e81-4b42-87cd-6ab38510de0a","system_id":"levelo_inurba_marseille","lat":43.27387,"lon":5.36264,"is_reserved":false,"is_disabled":false,"rental_uris":{"android":"levelo://app?vid=a66a5807-5e81-4b42-87cd-6ab38510de0a","ios":"levelo://app?vid=a66a5807-5e81-4b42-87cd-6ab38510de0a"},"vehicle_type_id":"4","last_reported":1750104731,"current_range_meters":20000,"station_id":"ce4bhbh2rcd13ifvqeo0","pricing_plan_id":"cebpf4jnsgd1na2vs0mg"},{"bike_id":"277c3eff-f2ad-4fcd-b30b-9c5581110c23","system_id":"levelo_inurba_marseille","lat":43.25119,"lon":5.40317,"is_reserved":false,"is_disabled":false,"rental_uris":{"android":"levelo://app?vid=277c3eff-f2ad-4fcd-b30b-9c5581110c23","ios":"levelo://app?vid=277c3eff-f2ad-4fcd-b30b-9c5581110c23"},"vehicle_type_id":"4","last_reported":1750104731,"current_range_meters":20000,"station_id":"ce4bhlh2rcd13ifvqgig","pricing_plan_id":"cebpf4jnsgd1na2vs0mg"},{"bike_id":"3bd03d60-eaee-452d-9885-111613b74a98","system_id":"levelo_inurba_marseille","lat":43.33611,"lon":5.41036,"is_reserved":false,"is_disabled":false,"rental_uris":{"android":"levelo://app?vid=3bd03d60-eaee-452d-9885-111613b74a98","ios":"levelo://app?vid=3bd03d60-eaee-452d-9885-111613b74a98"},"vehicle_type_id":"4","last_reported":1750104731,"current_range_meters":20000,"station_id":"ce4bhqh2rcd13ifvqhmg","pricing_plan_id":"cebpf4jnsgd1na2vs0mg"},{"bike_id":"cf96569c-8aed-4094-b5c5-fe00b8ebf061","system_id":"levelo_inurba_marseille","lat":43.23188,"lon":5.35546,"is_reserved":false,"is_disabled":false,"rental_uris":{"android":"levelo://app?vid=cf96569c-8aed-4094-b5c5-fe00b8ebf061","ios":"levelo://app?vid=cf96569c-8aed-4094-b5c5-fe00b8ebf061"},"vehicle_type_id":"4","last_reported":1750104731,"current_range_meters":20000,"station_id":"ce4bhu92rcd13ifvqi70","pricing_plan_id":"cebpf4jnsgd1na2vs0mg"},{"bike_id":"5b8a18e3-8b29-48dc-804f-df5ca303f004","system_id":"levelo_inurba_marseille","lat":43.281541,"lon":5.426452,"is_reserved":false,"is_disabled":false,"rental_uris":{"android":"levelo://app?vid=5b8a18e3-8b29-48dc-804f-df5ca303f004","ios":"levelo://app?vid=5b8a18e3-8b29-48dc-804f-df5ca303f004"},"vehicle_type_id":"4","last_reported":1750104731,"current_range_meters":20400,"station_id":"","pricing_plan_id":"cebpf4jnsgd1na2vs0mg"},{"bike_id":"7b4634e9-007b-4fab-a7d3-71e9f2e20161","system_id":"levelo_inurba_marseille","lat":43.31077,"lon":5.38351,"is_reserved":false,"is_disabled":false,"rental_uris":{"android":"levelo://app?vid=7b4634e9-007b-4fab-a7d3-71e9f2e20161","ios":"levelo://app?vid=7b4634e9-007b-4fab-a7d3-71e9f2e20161"},"vehicle_type_id":"4","last_reported":1750104731,"current_range_meters":20400,"station_id":"ce4bgv92rcd13ifvqcr0","pricing_plan_id":"cebpf4jnsgd1na2vs0mg"},{"bike_id":"fb87a7f0-921e-48dd-b09b-f344c4c3d1fd","system_id":"levelo_inurba_marseille","lat":43.30932,"lon":5.40168,"is_reserved":false,"is_disabled":false,"rental_uris":{"android":"levelo://app?vid=fb87a7f0-921e-48dd-b09b-f344c4c3d1fd","ios":"levelo://app?vid=fb87a7f0-921e-48dd-b09b-f344c4c3d1fd"},"vehicle_type_id":"4","last_reported":1750104731,"current_range_meters":20400,"station_id":"ce4bgvp2rcd13ifvqct0","pricing_plan_id":"cebpf4jnsgd1na2vs0mg"},{"bike_id":"17a652bb-5d33-4aac-80f2-ac76f91930f4","system_id":"levelo_inurba_marseille","lat":43.29887,"lon":5.39736,"is_reserved":false,"is_disabled":false,"rental_uris":{"android":"levelo://app?vid=17a652bb-5d33-4aac-80f2-ac76f91930f4","ios":"levelo://app?vid=17a652bb-5d33-4aac-80f2-ac76f91930f4"},"vehicle_type_id":"4","last_reported":1750104731,"current_range_meters":20400,"station_id":"ce4bh0h2rcd13ifvqd50","pricing_plan_id":"cebpf4jnsgd1na2vs0mg"},{"bike_id":"09f1a4b5-0afb-4b27-8012-3bdbd5422b02","system_id":"levelo_inurba_marseille","lat":43.29275,"lon":5.40123,"is_reserved":false,"is_disabled":false,"rental_uris":{"android":"levelo://app?vid=09f1a4b5-0afb-4b27-8012-3bdbd5422b02","ios":"levelo://app?vid=09f1a4b5-0afb-4b27-8012-3bdbd5422b02"},"vehicle_type_id":"4","last_reported":1750104731,"current_range_meters":20400,"station_id":"ce4bh312rcd13ifvqdk0","pricing_plan_id":"cebpf4jnsgd1na2vs0mg"},{"bike_id":"aadc714e-d6d5-42f3-a985-d882706eb8d8","system_id":"levelo_inurba_marseille","lat":43.29531,"lon":5.39034,"is_reserved":false,"is_disabled":false,"rental_uris":{"android":"levelo://app?vid=aadc714e-d6d5-42f3-a985-d882706eb8d8","ios":"levelo://app?vid=aadc714e-d6d5-42f3-a985-d882706eb8d8"},"vehicle_type_id":"4","last_reported":1750104731,"current_range_meters":20400,"station_id":"ce4bh3p2rcd13ifvqdp0","pricing_plan_id":"cebpf4jnsgd1na2vs0mg"},{"bike_id":"fdeb4dde-05f3-4dcb-a91e-d552e36afb4b","system_id":"levelo_inurba_marseille","lat":43.29266,"lon":5.38447,"is_reserved":false,"is_disabled":false,"rental_uris":{"android":"levelo://app?vid=fdeb4dde-05f3-4dcb-a91e-d552e36afb4b","ios":"levelo://app?vid=fdeb4dde-05f3-4dcb-a91e-d552e36afb4b"},"vehicle_type_id":"4","last_reported":1750104731,"current_range_meters":20400,"station_id":"ce4bh692rcd13ifvqea0","pricing_plan_id":"cebpf4jnsgd1na2vs0mg"},{"bike_id":"28da8b92-f209-4378-9080-73750680ec6e","system_id":"levelo_inurba_marseille","lat":43.23129,"lon":5.35497,"is_reserved":false,"is_disabled":false,"rental_uris":{"android":"levelo://app?vid=28da8b92-f209-4378-9080-73750680ec6e","ios":"levelo://app?vid=28da8b92-f209-4378-9080-73750680ec6e"},"vehicle_type_id":"4","last_reported":1750104731,"current_range_meters":20800,"station_id":"","pricing_plan_id":"cebpf4jnsgd1na2vs0mg"},{"bike_id":"a26e1bf7-0039-49ab-b3cd-32cede045aac","system_id":"levelo_inurba_marseille","lat":43.24942,"lon":5.4088,"is_reserved":false,"is_disabled":false,"rental_uris":{"android":"levelo://app?vid=a26e1bf7-0039-49ab-b3cd-32cede045aac","ios":"levelo://app?vid=a26e1bf7-0039-49ab-b3cd-32cede045aac"},"vehicle_type_id":"4","last_reported":1750104731,"current_range_meters":20800,"station_id":"","pricing_plan_id":"cebpf4jnsgd1na2vs0mg"},{"bike_id":"8f845180-39cd-40a0-b706-cb9de199f88f","system_id":"levelo_inurba_marseille","lat":43.29382,"lon":5.37852,"is_reserved":false,"is_disabled":false,"rental_uris":{"android":"levelo://app?vid=8f845180-39cd-40a0-b706-cb9de199f88f","ios":"levelo://app?vid=8f845180-39cd-40a0-b706-cb9de199f88f"},"vehicle_type_id":"4","last_reported":1750104731,"current_range_meters":20800,"station_id":"ce4bgjh2rcd13ifvqbf0","pricing_plan_id":"cebpf4jnsgd1na2vs0mg"},{"bike_id":"f9b45745-49c5-4d28-85d0-b45fa3d57629","system_id":"levelo_inurba_marseille","lat":43.29203,"lon":5.39317,"is_reserved":false,"is_disabled":false,"rental_uris":{"android":"levelo://app?vid=f9b45745-49c5-4d28-85d0-b45fa3d57629","ios":"levelo://app?vid=f9b45745-49c5-4d28-85d0-b45fa3d57629"},"vehicle_type_id":"4","last_reported":1750104731,"current_range_meters":20800,"station_id":"ce4bh192rcd13ifvqdd0","pricing_plan_id":"cebpf4jnsgd1na2vs0mg"},{"bike_id":"d7749d6e-00b9-4075-a973-e996e3abc92f","system_id":"levelo_inurba_marseille","lat":43.29275,"lon":5.40118,"is_reserved":false,"is_disabled":false,"rental_uris":{"android":"levelo://app?vid=d7749d6e-00b9-4075-a973-e996e3abc92f","ios":"levelo://app?vid=d7749d6e-00b9-4075-a973-e996e3abc92f"},"vehicle_type_id":"4","last_reported":1750104731,"current_range_meters":20800,"station_id":"ce4bh312rcd13ifvqdk0","pricing_plan_id":"cebpf4jnsgd1na2vs0mg"},{"bike_id":"84a7423a-6ee8-4526-8b56-5f1e0b700a44","system_id":"levelo_inurba_marseille","lat":43.29268,"lon":5.38431,"is_reserved":false,"is_disabled":false,"rental_uris":{"android":"levelo://app?vid=84a7423a-6ee8-4526-8b56-5f1e0b700a44","ios":"levelo://app?vid=84a7423a-6ee8-4526-8b56-5f1e0b700a44"},"vehicle_type_id":"4","last_reported":1750104731,"current_range_meters":20800,"station_id":"ce4bh692rcd13ifvqea0","pricing_plan_id":"cebpf4jnsgd1na2vs0mg"},{"bike_id":"c0f9d178-7659-4450-945d-f2e239d96213","system_id":"levelo_inurba_marseille","lat":43.25714,"lon":5.41102,"is_reserved":false,"is_disabled":false,"rental_uris":{"android":"levelo://app?vid=c0f9d178-7659-4450-945d-f2e239d96213","ios":"levelo://app?vid=c0f9d178-7659-4450-945d-f2e239d96213"},"vehicle_type_id":"4","last_reported":1750104731,"current_range_meters":20800,"station_id":"ce4bhkp2rcd13ifvqgd0","pricing_plan_id":"cebpf4jnsgd1na2vs0mg"},{"bike_id":"a530d777-e70b-40e3-bb04-aa7ab9b80fe5","system_id":"levelo_inurba_marseille","lat":43.28157,"lon":5.42643,"is_reserved":false,"is_disabled":false,"rental_uris":{"android":"levelo://app?vid=a530d777-e70b-40e3-bb04-aa7ab9b80fe5","ios":"levelo://app?vid=a530d777-e70b-40e3-bb04-aa7ab9b80fe5"},"vehicle_type_id":"4","last_reported":1750104731,"current_range_meters":20800,"station_id":"ce4bhnh2rcd13ifvqgug","pricing_plan_id":"cebpf4jnsgd1na2vs0mg"},{"bike_id":"e177c348-a421-4537-8b19-31b7b8dd81da","system_id":"levelo_inurba_marseille","lat":43.28706,"lon":5.39994,"is_reserved":false,"is_disabled":false,"rental_uris":{"android":"levelo://app?vid=e177c348-a421-4537-8b19-31b7b8dd81da","ios":"levelo://app?vid=e177c348-a421-4537-8b19-31b7b8dd81da"},"vehicle_type_id":"4","last_reported":1750104731,"current_range_meters":20800,"station_id":"ce4bho92rcd13ifvqh3g","pricing_plan_id":"cebpf4jnsgd1na2vs0mg"},{"bike_id":"66f2bb4f-c7bc-4352-8154-9dd7fb565a75","system_id":"levelo_inurba_marseille","lat":43.31529,"lon":5.3803,"is_reserved":false,"is_disabled":false,"rental_uris":{"android":"levelo://app?vid=66f2bb4f-c7bc-4352-8154-9dd7fb565a75","ios":"levelo://app?vid=66f2bb4f-c7bc-4352-8154-9dd7fb565a75"},"vehicle_type_id":"4","last_reported":1750104731,"current_range_meters":20800,"station_id":"ce4bhsp2rcd13ifvqi50","pricing_plan_id":"cebpf4jnsgd1na2vs0mg"},{"bike_id":"d07b1e20-0d78-4f0c-887a-08ea9924ddfc","system_id":"levelo_inurba_marseille","lat":43.29785,"lon":5.39345,"is_reserved":false,"is_disabled":false,"rental_uris":{"android":"levelo://app?vid=d07b1e20-0d78-4f0c-887a-08ea9924ddfc","ios":"levelo://app?vid=d07b1e20-0d78-4f0c-887a-08ea9924ddfc"},"vehicle_type_id":"4","last_reported":1750104731,"current_range_meters":20800,"station_id":"chh1huq6cuj3fo74tm60","pricing_plan_id":"cebpf4jnsgd1na2vs0mg"},{"bike_id":"cc8086c3-023b-4662-b7ba-91199240f1a1","system_id":"levelo_inurba_marseille","lat":43.23043,"lon":5.355,"is_reserved":false,"is_disabled":false,"rental_uris":{"android":"levelo://app?vid=cc8086c3-023b-4662-b7ba-91199240f1a1","ios":"levelo://app?vid=cc8086c3-023b-4662-b7ba-91199240f1a1"},"vehicle_type_id":"4","last_reported":1750104731,"current_range_meters":20800,"station_id":"cpo3342slgdg3j2ifvpg","pricing_plan_id":"cebpf4jnsgd1na2vs0mg"},{"bike_id":"4cda9327-46c6-426e-87dd-c291d5dc5ff7","system_id":"levelo_inurba_marseille","lat":43.211913,"lon":5.350744,"is_reserved":false,"is_disabled":false,"rental_uris":{"android":"levelo://app?vid=4cda9327-46c6-426e-87dd-c291d5dc5ff7","ios":"levelo://app?vid=4cda9327-46c6-426e-87dd-c291d5dc5ff7"},"vehicle_type_id":"4","last_reported":1750104731,"current_range_meters":20800,"station_id":"st_cvj6sg6p6f1abm77japg","pricing_plan_id":"cebpf4jnsgd1na2vs0mg"},{"bike_id":"f2de21a6-a98f-453a-ac72-bb87f47f02e1","system_id":"levelo_inurba_marseille","lat":43.31481,"lon":5.37314,"is_reserved":false,"is_disabled":false,"rental_uris":{"android":"levelo://app?vid=f2de21a6-a98f-453a-ac72-bb87f47f02e1","ios":"levelo://app?vid=f2de21a6-a98f-453a-ac72-bb87f47f02e1"},