{"last_updated":1727910547,"ttl":60,"version":"2.2","data":{"bikes":[{"bike_id":"56edf063-4465-4465-8fba-a922b551198c","system_id":"levelo_inurba_marseille","lat":43.28466,"lon":5.35882,"is_reserved":false,"is_disabled":false,"rental_uris":{"android":"levelo://app?vid=56edf063-4465-4465-8fba-a922b551198c","ios":"levelo://app?vid=56edf063-4465-4465-8fba-a922b551198c"},"vehicle_type_id":"4","last_reported":1727910547,"current_range_meters":9200,"station_id":"ce4bhah2rcd13ifvqei0","pricing_plan_id":"cebpf4jnsgd1na2vs0mg"},{"bike_id":"8bc0aa01-1d61-49ab-973d-784704f64634","system_id":"levelo_inurba_marseille","lat":43.3014,"lon":5.36527,"is_reserved":false,"is_disabled":false,"rental_uris":{"android":"levelo://app?vid=8bc0aa01-1d61-49ab-973d-784704f64634","ios":"levelo://app?vid=8bc0aa01-1d61-49ab-973d-784704f64634"},"vehicle_type_id":"4","last_reported":1727910547,"current_range_meters":9600,"station_id":"","pricing_plan_id":"cebpf4jnsgd1na2vs0mg"},{"bike_id":"f3d69886-ec02-41c3-9429-f0f4f53135da","system_id":"levelo_inurba_marseille","lat":43.25821,"lon":5.3943,"is_reserved":false,"is_disabled":false,"rental_uris":{"android":"levelo://app?vid=f3d69886-ec02-41c3-9429-f0f4f53135da","ios":"levelo://app?vid=f3d69886-ec02-41c3-9429-f0f4f53135da"},"vehicle_type_id":"4","last_reported":1727910547,"current_range_meters":38800,"station_id":"ce4bhip2rcd13ifvqft0","pricing_plan_id":"cebpf4jnsgd1na2vs0mg"},{"bike_id":"9fcb4fa3-22c0-447c-9c4b-cd3b15a26793","system_id":"levelo_inurba_marseille","lat":43.31185,"lon":5.387006,"is_reserved":false,"is_disabled":false,"rental_uris":{"android":"levelo://app?vid=9fcb4fa3-22c0-447c-9c4b-cd3b15a26793","ios":"levelo://app?vid=9fcb4fa3-22c0-447c-9c4b-cd3b15a26793"},"vehicle_type_id":"4","last_reported":1727910547,"current_range_meters":36800,"station_id":"ce4bgv12rcd13ifvqcp0","pricing_plan_id":"cebpf4jnsgd1na2vs0mg"},{"bike_id":"ff95fd71-a032-4106-b338-dfc900b7311c","system_id":"levelo_inurba_marseille","lat":43.2818,"lon":5.42622,"is_reserved":false,"is_disabled":false,"rental_uris":{"android":"levelo://app?vid=ff95fd71-a032-4106-b338-dfc900b7311c","ios":"levelo://app?vid=ff95fd71-a032-4106-b338-dfc900b7311c"},"vehicle_type_id":"4","last_reported":1727910547,"current_range_meters":4400,"station_id":"ce4bhnh2rcd13ifvqgug","pricing_plan_id":"cebpf4jnsgd1na2vs0mg"},{"bike_id":"b8d32f9e-42f8-4564-8290-6be3e340ccec","system_id":"levelo_inurba_marseille","lat":43.2803,"lon":5.36952,"is_reserved":false,"is_disabled":false,"rental_uris":{"android":"levelo://app?vid=b8d32f9e-42f8-4564-8290-6be3e340ccec","ios":"levelo://app?vid=b8d32f9e-42f8-4564-8290-6be3e340ccec"},"vehicle_type_id":"4","last_reported":1727910547,"current_range_meters":10800,"station_id":"ce4bha12rcd13ifvqef0","pricing_plan_id":"cebpf4jnsgd1na2vs0mg"},{"bike_id":"dfa316ed-31fe-4eb7-ae98-3312a562d760","system_id":"levelo_inurba_marseille","lat":43.27179,"lon":5.40999,"is_reserved":false,"is_disabled":false,"rental_uris":{"android":"levelo://app?vid=dfa316ed-31fe-4eb7-ae98-3312a562d760","ios":"levelo://app?vid=dfa316ed-31fe-4eb7-ae98-3312a562d760"},"vehicle_type_id":"4","last_reported":1727910547,"current_range_meters":37600,"station_id":"ce4bhl12rcd13ifvqgf0","pricing_plan_id":"cebpf4jnsgd1na2vs0mg"},{"bike_id":"df4ec099-b188-48ab-96c7-11a1ce7c7011","system_id":"levelo_inurba_marseille","lat":43.24649,"lon":5.38893,"is_reserved":false,"is_disabled":false,"rental_uris":{"android":"levelo://app?vid=df4ec099-b188-48ab-96c7-11a1ce7c7011","ios":"levelo://app?vid=df4ec099-b188-48ab-96c7-11a1ce7c7011"},"vehicle_type_id":"4","last_reported":1727910547,"current_range_meters":14000,"station_id":"ce4bhg12rcd13ifvqf60","pricing_plan_id":"cebpf4jnsgd1na2vs0mg"},{"bike_id":"9ade3805-4c4b-4f13-84dc-cbed8d16c5b1","system_id":"levelo_inurba_marseille","lat":43.27992,"lon":5.40025,"is_reserved":false,"is_disabled":false,"rental_uris":{"android":"levelo://app?vid=9ade3805-4c4b-4f13-84dc-cbed8d16c5b1","ios":"levelo://app?vid=9ade3805-4c4b-4f13-84dc-cbed8d16c5b1"},"vehicle_type_id":"4","last_reported":1727910547,"current_range_meters":35600,"station_id":"ce4bho92rcd13ifvqh4g","pricing_plan_id":"cebpf4jnsgd1na2vs0mg"},{"bike_id":"a955c07c-7411-4978-bdef-3a223f18e310","system_id":"levelo_inurba_marseille","lat":43.288533,"lon":5.358592,"is_reserved":false,"is_disabled":false,"rental_uris":{"android":"levelo://app?vid=a955c07c-7411-4978-bdef-3a223f18e310","ios":"levelo://app?vid=a955c07c-7411-4978-bdef-3a223f18e310"},"vehicle_type_id":"4","last_reported":1727910547,"current_range_meters":35600,"station_id":"ce4bhb12rcd13ifvqem0","pricing_plan_id":"cebpf4jnsgd1na2vs0mg"},{"bike_id":"ff89b7e6-8dbb-4502-ae6b-954b46feae02","system_id":"levelo_inurba_marseille","lat":43.25006,"lon":5.38921,"is_reserved":false,"is_disabled":false,"rental_uris":{"android":"levelo://app?vid=ff89b7e6-8dbb-4502-ae6b-954b46feae02","ios":"levelo://app?vid=ff89b7e6-8dbb-4502-ae6b-954b46feae02"},"vehicle_type_id":"4","last_reported":1727910547,"current_range_meters":38800,"station_id":"ce4bhgp2rcd13ifvqfd0","pricing_plan_id":"cebpf4jnsgd1na2vs0mg"},{"bike_id":"bc41810d-3fc6-4e9c-bcc1-3b1d7bce3ce2","system_id":"levelo_inurba_marseille","lat":43.231833,"lon":5.399797,"is_reserved":false,"is_disabled":false,"rental_uris":{"android":"levelo://app?vid=bc41810d-3fc6-4e9c-bcc1-3b1d7bce3ce2","ios":"levelo://app?vid=bc41810d-3fc6-4e9c-bcc1-3b1d7bce3ce2"},"vehicle_type_id":"4","last_reported":1727910547,"current_range_meters":27200,"station_id":"ce4bhn12rcd13ifvqgqg","pricing_plan_id":"cebpf4jnsgd1na2vs0mg"},{"bike_id":"105019b0-87a5-46e0-a5f9-e33b57491653","system_id":"levelo_inurba_marseille","lat":43.2408,"lon":5.37757,"is_reserved":false,"is_disabled":false,"rental_uris":{"android":"levelo://app?vid=105019b0-87a5-46e0-a5f9-e33b57491653","ios":"levelo://app?vid=105019b0-87a5-46e0-a5f9-e33b57491653"},"vehicle_type_id":"4","last_reported":1727910547,"current_range_meters":38800,"station_id":"ce4bhnp2rcd13ifvqgvg","pricing_plan_id":"cebpf4jnsgd1na2vs0mg"},{"bike_id":"4b6721b8-1a28-4ce5-a9fa-1b893f7f0ac0","system_id":"levelo_inurba_marseille","lat":43.32486,"lon":5.36554,"is_reserved":false,"is_disabled":false,"rental_uris":{"android":"levelo://app?vid=4b6721b8-1a28-4ce5-a9fa-1b893f7f0ac0","ios":"levelo://app?vid=4b6721b8-1a28-4ce5-a9fa-1b893f7f0ac0"},"vehicle_type_id":"4","last_reported":1727910547,"current_range_meters":38800,"station_id":"ce4bhs12rcd13ifvqhvg","pricing_plan_id":"cebpf4jnsgd1na2vs0mg"},{"bike_id":"56991410-d98c-48b7-8ffa-26c899931d2b","system_id":"levelo_inurba_marseille","lat":43.28038,"lon":5.36948,"is_reserved":false,"is_disabled":false,"rental_uris":{"android":"levelo://app?vid=56991410-d98c-48b7-8ffa-26c899931d2b","ios":"levelo://app?vid=56991410-d98c-48b7-8ffa-26c899931d2b"},"vehicle_type_id":"4","last_reported":1727910547,"current_range_meters":19200,"station_id":"ce4bha12rcd13ifvqef0","pricing_plan_id":"cebpf4jnsgd1na2vs0mg"},{"bike_id":"3321b570-086d-4091-a24d-ba1d97ba7ad9","system_id":"levelo_inurba_marseille","lat":43.27983,"lon":5.41654,"is_reserved":false,"is_disabled":false,"rental_uris":{"android":"levelo://app?vid=3321b570-086d-4091-a24d-ba1d97ba7ad9","ios":"levelo://app?vid=3321b570-086d-4091-a24d-ba1d97ba7ad9"},"vehicle_type_id":"4","last_reported":1727910547,"current_range_meters":14400,"station_id":"ce4bho12rcd13ifvqh1g","pricing_plan_id":"cebpf4jnsgd1na2vs0mg"},{"bike_id":"6283320e-521a-405f-914a-921643537156","system_id":"levelo_inurba_marseille","lat":43.29297,"lon":5.37171,"is_reserved":false,"is_disabled":false,"rental_uris":{"android":"levelo://app?vid=6283320e-521a-405f-914a-921643537156","ios":"levelo://app?vid=6283320e-521a-405f-914a-921643537156"},"vehicle_type_id":"4","last_reported":1727910547,"current_range_meters":38400,"station_id":"ce4bgh92rcd13ifvqb40","pricing_plan_id":"cebpf4jnsgd1na2vs0mg"},{"bike_id":"a55fd103-df0f-40ea-9c6b-3f6ab24d0c8e","system_id":"levelo_inurba_marseille","lat":43.31754,"lon":5.39018,"is_reserved":false,"is_disabled":false,"rental_uris":{"android":"levelo://app?vid=a55fd103-df0f-40ea-9c6b-3f6ab24d0c8e","ios":"levelo://app?vid=a55fd103-df0f-40ea-9c6b-3f6ab24d0c8e"},"vehicle_type_id":"4","last_reported":1727910547,"current_range_meters":38000,"station_id":"ce4bhqp2rcd13ifvqhng","pricing_plan_id":"cebpf4jnsgd1na2vs0mg"},{"bike_id":"49431cdf-3845-482f-8f51-ad441197da5e","system_id":"levelo_inurba_marseille","lat":43.29285,"lon":5.40142,"is_reserved":false,"is_disabled":false,"rental_uris":{"android":"levelo://app?vid=49431cdf-3845-482f-8f51-ad441197da5e","ios":"levelo://app?vid=49431cdf-3845-482f-8f51-ad441197da5e"},"vehicle_type_id":"4","last_reported":1727910547,"current_range_meters":12800,"station_id":"ce4bh312rcd13ifvqdk0","pricing_plan_id":"cebpf4jnsgd1na2vs0mg"},{"bike_id":"5f3c68c4-2b6c-4d2e-9835-dd9f6f06394a","system_id":"levelo_inurba_marseille","lat":43.30185,"lon":5.36613,"is_reserved":false,"is_disabled":false,"rental_uris":{"android":"levelo://app?vid=5f3c68c4-2b6c-4d2e-9835-dd9f6f06394a","ios":"levelo://app?vid=5f3c68c4-2b6c-4d2e-9835-dd9f6f06394a"},"vehicle_type_id":"4","last_reported":1727910547,"current_range_meters":38400,"station_id":"ce4bgrh2rcd13ifvqc8g","pricing_plan_id":"cebpf4jnsgd1na2vs0mg"},{"bike_id":"f730a887-ab52-460a-884b-3e5ce7ef04f6","system_id":"levelo_inurba_marseille","lat":43.33022,"lon":5.39041,"is_reserved":false,"is_disabled":false,"rental_uris":{"android":"levelo://app?vid=f730a887-ab52-460a-884b-3e5ce7ef04f6","ios":"levelo://app?vid=f730a887-ab52-460a-884b-3e5ce7ef04f6"},"vehicle_type_id":"4","last_reported":1727910547,"current_range_meters":20800,"station_id":"ce4bhr92rcd13ifvqhrg","pricing_plan_id":"cebpf4jnsgd1na2vs0mg"},{"bike_id":"25454cee-75e1-4829-863e-96eae8fc3747","system_id":"levelo_inurba_marseille","lat":43.34142,"lon":5.40908,"is_reserved":false,"is_disabled":false,"rental_uris":{"android":"levelo://app?vid=25454cee-75e1-4829-863e-96eae8fc3747","ios":"levelo://app?vid=25454cee-75e1-4829-863e-96eae8fc3747"},"vehicle_type_id":"4","last_reported":1727910547,"current_range_meters":39200,"station_id":"ce4bhqh2rcd13ifvqhlg","pricing_plan_id":"cebpf4jnsgd1na2vs0mg"},{"bike_id":"6252736a-9bb6-42e9-81fa-0830ee833060","system_id":"levelo_inurba_marseille","lat":43.24805,"lon":5.37455,"is_reserved":false,"is_disabled":false,"rental_uris":{"android":"levelo://app?vid=6252736a-9bb6-42e9-81fa-0830ee833060","ios":"levelo://app?vid=6252736a-9bb6-42e9-81fa-0830ee833060"},"vehicle_type_id":"4","last_reported":1727910547,"current_range_meters":38800,"station_id":"ce4bhgh2rcd13ifvqfb0","pricing_plan_id":"cebpf4jnsgd1na2vs0mg"},{"bike_id":"d49d90db-e06a-4015-a8fe-bd419d6e7155","system_id":"levelo_inurba_marseille","lat":43.2926,"lon":5.40912,"is_reserved":false,"is_disabled":false,"rental_uris":{"android":"levelo://app?vid=d49d90db-e06a-4015-a8fe-bd419d6e7155","ios":"levelo://app?vid=d49d90db-e06a-4015-a8fe-bd419d6e7155"},"vehicle_type_id":"4","last_reported":1727910547,"current_range_meters":36800,"station_id":"ce4bh192rcd13ifvqdc0","pricing_plan_id":"cebpf4jnsgd1na2vs0mg"},{"bike_id":"976b0247-357e-451c-88dc-97d5e6b73f42","system_id":"levelo_inurba_marseille","lat":43.28862,"lon":5.35851,"is_reserved":false,"is_disabled":false,"rental_uris":{"android":"levelo://app?vid=976b0247-357e-451c-88dc-97d5e6b73f42","ios":"levelo://app?vid=976b0247-357e-451c-88dc-97d5e6b73f42"},"vehicle_type_id":"4","last_reported":1727910547,"current_range_meters":26000,"station_id":"ce4bhb12rcd13ifvqem0","pricing_plan_id":"cebpf4jnsgd1na2vs0mg"},{"bike_id":"98b76816-00e9-4c3f-9a79-d1fda17a0060","system_id":"levelo_inurba_marseille","lat":43.28457,"lon":5.35894,"is_reserved":false,"is_disabled":false,"rental_uris":{"android":"levelo://app?vid=98b76816-00e9-4c3f-9a79-d1fda17a0060","ios":"levelo://app?vid=98b76816-00e9-4c3f-9a79-d1fda17a0060"},"vehicle_type_id":"4","last_reported":1727910547,"current_range_meters":7200,"station_id":"ce4bhah2rcd13ifvqei0","pricing_plan_id":"cebpf4jnsgd1na2vs0mg"},{"bike_id":"cf2deed3-5bfe-45ad-b669-5f0b5685af6b","system_id":"levelo_inurba_marseille","lat":43.29874,"lon":5.39732,"is_reserved":false,"is_disabled":false,"rental_uris":{"android":"levelo://app?vid=cf2deed3-5bfe-45ad-b669-5f0b5685af6b","ios":"levelo://app?vid=cf2deed3-5bfe-45ad-b669-5f0b5685af6b"},"vehicle_type_id":"4","last_reported":1727910547,"current_range_meters":34000,"station_id":"ce4bh0h2rcd13ifvqd50","pricing_plan_id":"cebpf4jnsgd1na2vs0mg"},{"bike_id":"e7be1456-30cd-4206-bfa6-5cd79c2ad407","system_id":"levelo_inurba_marseille","lat":43.25497,"lon":5.3765,"is_reserved":false,"is_disabled":false,"rental_uris":{"android":"levelo://app?vid=e7be1456-30cd-4206-bfa6-5cd79c2ad407","ios":"levelo://app?vid=e7be1456-30cd-4206-bfa6-5cd79c2ad407"},"vehicle_type_id":"4","last_reported":1727910547,"current_range_meters":14400,"station_id":"ce4bhh12rcd13ifvqff0","pricing_plan_id":"cebpf4jnsgd1na2vs0mg"},{"bike_id":"8975a5a7-278f-4d5f-bd0b-adae377ca66d","system_id":"levelo_inurba_marseille","lat":43.24663,"lon":5.38165,"is_reserved":false,"is_disabled":false,"rental_uris":{"android":"levelo://app?vid=8975a5a7-278f-4d5f-bd0b-adae377ca66d","ios":"levelo://app?vid=8975a5a7-278f-4d5f-bd0b-adae377ca66d"},"vehicle_type_id":"4","last_reported":1727910547,"current_range_meters":38000,"station_id":"ce4bhih2rcd13ifvqfr0","pricing_plan_id":"cebpf4jnsgd1na2vs0mg"},{"bike_id":"af501c78-7631-4860-acb5-122e74b9c092","system_id":"levelo_inurba_marseille","lat":43.25002,"lon":5.38926,"is_reserved":false,"is_disabled":false,"rental_uris":{"android":"levelo://app?vid=af501c78-7631-4860-acb5-122e74b9c092","ios":"levelo://app?vid=af501c78-7631-4860-acb5-122e74b9c092"},"vehicle_type_id":"4","last_reported":1727910547,"current_range_meters":17200,"station_id":"ce4bhgp2rcd13ifvqfd0","pricing_plan_id":"cebpf4jnsgd1na2vs0mg"},{"bike_id":"2ebd8bfa-87ff-4cfa-8840-a6b185579546","system_id":"levelo_inurba_marseille","lat":43.29571,"lon":5.39967,"is_reserved":false,"is_disabled":false,"rental_uris":{"android":"levelo://app?vid=2ebd8bfa-87ff-4cfa-8840-a6b185579546","ios":"levelo://app?vid=2ebd8bfa-87ff-4cfa-8840-a6b185579546"},"vehicle_type_id":"4","last_reported":1727910547,"current_range_meters":30400,"station_id":"ce4bgk12rcd13ifvqbi0","pricing_plan_id":"cebpf4jnsgd1na2vs0mg"},{"bike_id":"59f1bb81-6a4b-4063-b7a2-5fc8ce8aa2a6","system_id":"levelo_inurba_marseille","lat":43.3133,"lon":5.39696,"is_reserved":false,"is_disabled":false,"rental_uris":{"android":"levelo://app?vid=59f1bb81-6a4b-4063-b7a2-5fc8ce8aa2a6","ios":"levelo://app?vid=59f1bb81-6a4b-4063-b7a2-5fc8ce8aa2a6"},"vehicle_type_id":"4","last_reported":1727910547,"current_range_meters":40000,"station_id":"ce4bgvp2rcd13ifvqcu0","pricing_plan_id":"cebpf4jnsgd1na2vs0mg"},{"bike_id":"baf545b0-7fa5-41ff-9fdc-e94b60c0513e","system_id":"levelo_inurba_marseille","lat":43.27827,"lon":5.40713,"is_reserved":false,"is_disabled":false,"rental_uris":{"android":"levelo://app?vid=baf545b0-7fa5-41ff-9fdc-e94b60c0513e","ios":"levelo://app?vid=baf545b0-7fa5-41ff-9fdc-e94b60c0513e"},"vehicle_type_id":"4","last_reported":1727910547,"current_range_meters":35200,"station_id":"ce4bhnh2rcd13ifvqgtg","pricing_plan_id":"cebpf4jnsgd1na2vs0mg"},{"bike_id":"e892a682-8f0d-45b4-9511-6f7eaf94e86f","system_id":"levelo_inurba_marseille","lat":43.28939,"lon":5.39635,"is_reserved":false,"is_disabled":false,"rental_uris":{"android":"levelo://app?vid=e892a682-8f0d-45b4-9511-6f7eaf94e86f","ios":"levelo://app?vid=e892a682-8f0d-45b4-9511-6f7eaf94e86f"},"vehicle_type_id":"4","last_reported":1727910547,"current_range_meters":26000,"station_id":"ce4bh3h2rcd13ifvqdn0","pricing_plan_id":"cebpf4jnsgd1na2vs0mg"},{"bike_id":"68fcdcd9-c69d-4d53-a155-31919b0b9c9b","system_id":"levelo_inurba_marseille","lat":43.2668,"lon":5.38264,"is_reserved":false,"is_disabled":false,"rental_uris":{"android":"levelo://app?vid=68fcdcd9-c69d-4d53-a155-31919b0b9c9b","ios":"levelo://app?vid=68fcdcd9-c69d-4d53-a155-31919b0b9c9b"},"vehicle_type_id":"4","last_reported":1727910547,"current_range_meters":21600,"station_id":"ce4bhg92rcd13ifvqf90","pricing_plan_id":"cebpf4jnsgd1na2vs0mg"},{"bike_id":"a5bc78e8-0ff4-4da0-acba-f17ca5d6e61c","system_id":"levelo_inurba_marseille","lat":43.28042,"lon":5.36944,"is_reserved":false,"is_disabled":false,"rental_uris":{"android":"levelo://app?vid=a5bc78e8-0ff4-4da0-acba-f17ca5d6e61c","ios":"levelo://app?vid=a5bc78e8-0ff4-4da0-acba-f17ca5d6e61c"},"vehicle_type_id":"4","last_reported":1727910547,"current_range_meters":38800,"station_id":"ce4bha12rcd13ifvqef0","pricing_plan_id":"cebpf4jnsgd1na2vs0mg"},{"bike_id":"de3e6020-9925-4b34-92c3-9580aac719a6","system_id":"levelo_inurba_marseille","lat":43.33595,"lon":5.41002,"is_reserved":false,"is_disabled":false,"rental_uris":{"android":"levelo://app?vid=de3e6020-9925-4b34-92c3-9580aac719a6","ios":"levelo://app?vid=de3e6020-9925-4b34-92c3-9580aac719a6"},"vehicle_type_id":"4","last_reported":1727910547,"current_range_meters":10000,"station_id":"ce4bhqh2rcd13ifvqhmg","pricing_plan_id":"cebpf4jnsgd1na2vs0mg"},{"bike_id":"4058d11f-9af0-4a1f-b48a-153cfaea3658","system_id":"levelo_inurba_marseille","lat":43.28975,"lon":5.3784,"is_reserved":false,"is_disabled":false,"rental_uris":{"android":"levelo://app?vid=4058d11f-9af0-4a1f-b48a-153cfaea3658","ios":"levelo://app?vid=4058d11f-9af0-4a1f-b48a-153cfaea3658"},"vehicle_type_id":"4","last_reported":1727910547,"current_range_meters":39200,"station_id":"ce4bh9p2rcd13ifvqed0","pricing_plan_id":"cebpf4jnsgd1na2vs0mg"},{"bike_id":"7abba7f8-027c-47e5-bdf4-c0b33099bbee","system_id":"levelo_inurba_marseille","lat":43.31325,"lon":5.39701,"is_reserved":false,"is_disabled":false,"rental_uris":{"android":"levelo://app?vid=7abba7f8-027c-47e5-bdf4-c0b33099bbee","ios":"levelo://app?vid=7abba7f8-027c-47e5-bdf4-c0b33099bbee"},"vehicle_type_id":"4","last_reported":1727910547,"current_range_meters":28000,"station_id":"ce4bgvp2rcd13ifvqcu0","pricing_plan_id":"cebpf4jnsgd1na2vs0mg"},{"bike_id":"ea1188b7-ac96-4afd-9344-ae967a924877","system_id":"levelo_inurba_marseille","lat":43.31529,"lon":5.38034,"is_reserved":false,"is_disabled":false,"rental_uris":{"android":"levelo://app?vid=ea1188b7-ac96-4afd-9344-ae967a924877","ios":"levelo://app?vid=ea1188b7-ac96-4afd-9344-ae967a924877"},"vehicle_type_id":"4","last_reported":1727910547,"current_range_meters":34800,"station_id":"ce4bhsp2rcd13ifvqi50","pricing_plan_id":"cebpf4jnsgd1na2vs0mg"},{"bike_id":"c9db3f60-427c-4925-8b51-d81989497936","system_id":"levelo_inurba_marseille","lat":43.28715,"lon":5.37387,"is_reserved":false,"is_disabled":false,"rental_uris":{"android":"levelo://app?vid=c9db3f60-427c-4925-8b51-d81989497936","ios":"levelo://app?vid=c9db3f60-427c-4925-8b51-d81989497936"},"vehicle_type_id":"4","last_reported":1727910547,"current_range_meters":39200,"station_id":"ce4bh3p2rcd13ifvqdq0","pricing_plan_id":"cebpf4jnsgd1na2vs0mg"},{"bike_id":"700f43df-a81e-46fd-b7d8-6beab4a2c0a8","system_id":"levelo_inurba_marseille","lat":43.31182,"lon":5.38722,"is_reserved":false,"is_disabled":false,"rental_uris":{"android":"levelo://app?vid=700f43df-a81e-46fd-b7d8-6beab4a2c0a8","ios":"levelo://app?vid=700f43df-a81e-46fd-b7d8-6beab4a2c0a8"},"vehicle_type_id":"4","last_reported":1727910547,"current_range_meters":39200,"station_id":"ce4bgv12rcd13ifvqcp0","pricing_plan_id":"cebpf4jnsgd1na2vs0mg"},{"bike_id":"91a34acf-7ef7-4662-b769-c1b781cebd21","system_id":"levelo_inurba_marseille","lat":43.32291,"lon":5.3828,"is_reserved":false,"is_disabled":false,"rental_uris":{"android":"levelo://app?vid=91a34acf-7ef7-4662-b769-c1b781cebd21","ios":"levelo://app?vid=91a34acf-7ef7-4662-b769-c1b781cebd21"},"vehicle_type_id":"4","last_reported":1727910547,"current_range_meters":36800,"station_id":"ce4bhr12rcd13ifvqhqg","pricing_plan_id":"cebpf4jnsgd1na2vs0mg"},{"bike_id":"1788357e-4d2c-46b7-a391-26a4e6c6111c","system_id":"levelo_inurba_marseille","lat":43.30933,"lon":5.40147,"is_reserved":false,"is_disabled":false,"rental_uris":{"android":"levelo://app?vid=1788357e-4d2c-46b7-a391-26a4e6c6111c","ios":"levelo://app?vid=1788357e-4d2c-46b7-a391-26a4e6c6111c"},"vehicle_type_id":"4","last_reported":1727910547,"current_range_meters":24000,"station_id":"ce4bgvp2rcd13ifvqct0","pricing_plan_id":"cebpf4jnsgd1na2vs0mg"},{"bike_id":"83f9c5b0-03dc-4f07-9024-f86cd68fcfc1","system_id":"levelo_inurba_marseille","lat":43.26953,"lon":5.38634,"is_reserved":false,"is_disabled":false,"rental_uris":{"android":"levelo://app?vid=83f9c5b0-03dc-4f07-9024-f86cd68fcfc1","ios":"levelo://app?vid=83f9c5b0-03dc-4f07-9024-f86cd68fcfc1"},"vehicle_type_id":"4","last_reported":1727910547,"current_range_meters":37600,"station_id":"ce4bhh92rcd13ifvqfh0","pricing_plan_id":"cebpf4jnsgd1na2vs0mg"},{"bike_id":"1a092ddf-d495-48af-acc4-5588274e43d7","system_id":"levelo_inurba_marseille","lat":43.28847,"lon":5.3585,"is_reserved":false,"is_disabled":false,"rental_uris":{"android":"levelo://app?vid=1a092ddf-d495-48af-acc4-5588274e43d7","ios":"levelo://app?vid=1a092ddf-d495-48af-acc4-5588274e43d7"},"vehicle_type_id":"4","last_reported":1727910547,"current_range_meters":39200,"station_id":"ce4bhb12rcd13ifvqem0","pricing_plan_id":"cebpf4jnsgd1na2vs0mg"},{"bike_id":"26b21c5b-d888-47bb-863e-31bd08a7f79a","system_id":"levelo_inurba_marseille","lat":43.31173,"lon":5.38712,"is_reserved":false,"is_disabled":false,"rental_uris":{"android":"levelo://app?vid=26b21c5b-d888-47bb-863e-31bd08a7f79a","ios":"levelo://app?vid=26b21c5b-d888-47bb-863e-31bd08a7f79a"},"vehicle_type_id":"4","last_reported":1727910547,"current_range_meters":38800,"station_id":"ce4bgv12rcd13ifvqcp0","pricing_plan_id":"cebpf4jnsgd1na2vs0mg"},{"bike_id":"dac34942-976a-4665-9361-4e547d19ce8a","system_id":"levelo_inurba_marseille","lat":43.240421,"lon":5.366105,"is_reserved":false,"is_disabled":false,"rental_uris":{"android":"levelo://app?vid=dac34942-976a-4665-9361-4e547d19ce8a","ios":"levelo://app?vid=dac34942-976a-4665-9361-4e547d19ce8a"},"vehicle_type_id":"4","last_reported":1727910547,"current_range_meters":38800,"station_id":"ce4bhi12rcd13ifvqfp0","pricing_plan_id":"cebpf4jnsgd1na2vs0mg"},{"bike_id":"24d92f51-0476-4c2e-838c-c91673ebb0c9","system_id":"levelo_inurba_marseille","lat":43.28154,"lon":5.42639,"is_reserved":false,"is_disabled":false,"rental_uris":{"android":"levelo://app?vid=24d92f51-0476-4c2e-838c-c91673ebb0c9","ios":"levelo://app?vid=24d92f51-0476-4c2e-838c-c91673ebb0c9"},"vehicle_type_id":"4","last_reported":1727910547,"current_range_meters":38400,"station_id":"ce4bhnh2rcd13ifvqgug","pricing_plan_id":"cebpf4jnsgd1na2vs0mg"},{"bike_id":"149ff410-e6d0-4c7a-9459-cc82bab3c39f","system_id":"levelo_inurba_marseille","lat":43.30809,"lon":5.38147,"is_reserved":false,"is_disabled":false,"rental_uris":{"android":"levelo://app?vid=149ff410-e6d0-4c7a-9459-cc82bab3c39f","ios":"levelo://app?vid=149ff410-e6d0-4c7a-9459-cc82bab3c39f"},"vehicle_type_id":"4","last_reported":1727910547,"current_range_meters":38800,"station_id":"ce4bgt12rcd13ifvqce0","pricing_plan_id":"cebpf4jnsgd1na2vs0mg"},{"bike_id":"32f6824e-5471-4d07-9784-8341224d62c6","system_id":"levelo_inurba_marseille","lat":43.28849,"lon":5.35843,"is_reserved":false,"is_disabled":false,"rental_uris":{"android":"levelo://app?vid=32f6824e-5471-4d07-9784-8341224d62c6","ios":"levelo://app?vid=32f6824e-5471-4d07-9784-8341224d62c6"},"vehicle_type_id":"4","last_reported":1727910547,"current_range_meters":19600,"station_id":"ce4bhb12rcd13ifvqem0","pricing_plan_id":"cebpf4jnsgd1na2vs0mg"},{"bike_id":"0d38caac-4e1b-4bc6-8634-fba8549655ca","system_id":"levelo_inurba_marseille","lat":43.32112,"lon":5.36778,"is_reserved":false,"is_disabled":false,"rental_uris":{"android":"levelo://app?vid=0d38caac-4e1b-4bc6-8634-fba8549655ca","ios":"levelo://app?vid=0d38caac-4e1b-4bc6-8634-fba8549655ca"},"vehicle_type_id":"4","last_reported":1727910547,"current_range_meters":38400,"station_id":"ce4bhrh2rcd13ifvqhug","pricing_plan_id":"cebpf4jnsgd1na2vs0mg"},{"bike_id":"e2c709ab-362f-4f28-8df2-e58b4fabe9a9","system_id":"levelo_inurba_marseille","lat":43.28103,"lon":5.3784,"is_reserved":false,"is_disabled":false,"rental_uris":{"android":"levelo://app?vid=e2c709ab-362f-4f28-8df2-e58b4fabe9a9","ios":"levelo://app?vid=e2c709ab-362f-4f28-8df2-e58b4fabe9a9"},"vehicle_type_id":"4","last_reported":1727910547,"current_range_meters":9600,"station_id":"ce4bha12rcd13ifvqee0","pricing_plan_id":"cebpf4jnsgd1na2vs0mg"},{"bike_id":"c000849c-5bdd-4942-9148-10e6e205fcbc","system_id":"levelo_inurba_marseille","lat":43.311813,"lon":5.387101,"is_reserved":false,"is_disabled":false,"rental_uris":{"android":"levelo://app?vid=c000849c-5bdd-4942-9148-10e6e205fcbc","ios":"levelo://app?vid=c000849c-5bdd-4942-9148-10e6e205fcbc"},"vehicle_type_id":"4","last_reported":1727910547,"current_range_meters":39200,"station_id":"ce4bgv12rcd13ifvqcp0","pricing_plan_id":"cebpf4jnsgd1na2vs0mg"},{"bike_id":"928a629e-8e97-4aa4-be5e-ab44717b40f3","system_id":"levelo_inurba_marseille","lat":43.2871,"lon":5.39981,"is_reserved":false,"is_disabled":false,"rental_uris":{"android":"levelo://app?vid=928a629e-8e97-4aa4-be5e-ab44717b40f3","ios":"levelo://app?vid=928a629e-8e97-4aa4-be5e-ab44717b40f3"},"vehicle_type_id":"4","last_reported":1727910547,"current_range_meters":27200,"station_id":"ce4bho92rcd13ifvqh3g","pricing_plan_id":"cebpf4jnsgd1na2vs0mg"},{"bike_id":"5193785c-263c-401d-a7b6-51f84a49819f","system_id":"levelo_inurba_marseille","lat":43.29554,"lon":5.42275,"is_reserved":false,"is_disabled":false,"rental_uris":{"android":"levelo://app?vid=5193785c-263c-401d-a7b6-51f84a49819f","ios":"levelo://app?vid=5193785c-263c-401d-a7b6-51f84a49819f"},"vehicle_type_id":"4","last_reported":1727910547,"current_range_meters":39200,"station_id":"ce4bhph2rcd13ifvqhdg","pricing_plan_id":"cebpf4jnsgd1na2vs0mg"},{"bike_id":"e44f7360-cba0-46f8-982b-60e2cc13de75","system_id":"levelo_inurba_marseille","lat":43.3176,"lon":5.39019,"is_reserved":false,"is_disabled":false,"rental_uris":{"android":"levelo://app?vid=e44f7360-cba0-46f8-982b-60e2cc13de75","ios":"levelo://app?vid=e44f7360-cba0-46f8-982b-60e2cc13de75"},"vehicle_type_id":"4","last_reported":1727910547,"current_range_meters":36400,"station_id":"ce4bhqp2rcd13ifvqhng","pricing_plan_id":"cebpf4jnsgd1na2vs0mg"},{"bike_id":"5d1a6024-a964-4811-b99b-ce409a4cb4b2","system_id":"levelo_inurba_marseille","lat":43.28621,"lon":5.35102,"is_reserved":false,"is_disabled":false,"rental_uris":{"android":"levelo://app?vid=5d1a6024-a964-4811-b99b-ce409a4cb4b2","ios":"levelo://app?vid=5d1a6024-a964-4811-b99b-ce409a4cb4b2"},"vehicle_type_id":"4","last_reported":1727910547,"current_range_meters":38400,"station_id":"ce4bhch2rcd13ifvqeug","pricing_plan_id":"cebpf4jnsgd1na2vs0mg"},{"bike_id":"9eee32ff-4f3c-409c-873a-d4ee1dd4f7d6","system_id":"levelo_inurba_marseille","lat":43.2919,"lon":5.3931,"is_reserved":false,"is_disabled":false,"rental_uris":{"android":"levelo://app?vid=9eee32ff-4f3c-409c-873a-d4ee1dd4f7d6","ios":"levelo://app?vid=9eee32ff-4f3c-409c-873a-d4ee1dd4f7d6"},"vehicle_type_id":"4","last_reported":1727910547,"current_range_meters":22800,"station_id":"ce4bh192rcd13ifvqdd0","pricing_plan_id":"cebpf4jnsgd1na2vs0mg"},{"bike_id":"499cb64c-6fb8-4407-89d8-a118e3c5c28d","system_id":"levelo_inurba_marseille","lat":43.27998,"lon":5.4001,"is_reserved":false,"is_disabled":false,"rental_uris":{"android":"levelo://app?vid=499cb64c-6fb8-4407-89d8-a118e3c5c28d","ios":"levelo://app?vid=499cb64c-6fb8-4407-89d8-a118e3c5c28d"},"vehicle_type_id":"4","last_reported":1727910547,"current_range_meters":24000,"station_id":"ce4bho92rcd13ifvqh4g","pricing_plan_id":"cebpf4jnsgd1na2vs0mg"},{"bike_id":"506e55c5-b8fd-4962-aa7f-acad910ad64e","system_id":"levelo_inurba_marseille","lat":43.28699,"lon":5.37404,"is_reserved":false,"is_disabled":false,"rental_uris":{"android":"levelo://app?vid=506e55c5-b8fd-4962-aa7f-acad910ad64e","ios":"levelo://app?vid=506e55c5-b8fd-4962-aa7f-acad910ad64e"},"vehicle_type_id":"4","last_reported":1727910547,"current_range_meters":39200,"station_id":"ce4bh3p2rcd13ifvqdq0","pricing_plan_id":"cebpf4jnsgd1na2vs0mg"},{"bike_id":"dcdab98f-dc35-4afb-a4b9-249f150c448a","system_id":"levelo_inurba_marseille","lat":43.31178,"lon":5.38709,"is_reserved":false,"is_disabled":false,"rental_uris":{"android":"levelo://app?vid=dcdab98f-dc35-4afb-a4b9-249f150c448a","ios":"levelo://app?vid=dcdab98f-dc35-4afb-a4b9-249f150c448a"},"vehicle_type_id":"4","last_reported":1727910547,"current_range_meters":36800,"station_id":"ce4bgv12rcd13ifvqcp0","pricing_plan_id":"cebpf4jnsgd1na2vs0mg"},{"bike_id":"ffa926d7-93d2-402b-a4a7-a01d8985b329","system_id":"levelo_inurba_marseille","lat":43.28,"lon":5.40014,"is_reserved":false,"is_disabled":false,"rental_uris":{"android":"levelo://app?vid=ffa926d7-93d2-402b-a4a7-a01d8985b329","ios":"levelo://app?vid=ffa926d7-93d2-402b-a4a7-a01d8985b329"},"vehicle_type_id":"4","last_reported":1727910547,"current_range_meters":16400,"station_id":"ce4bho92rcd13ifvqh4g","pricing_plan_id":"cebpf4jnsgd1na2vs0mg"},{"bike_id":"012f8305-fce2-4582-954b-85deb454c741","system_id":"levelo_inurba_marseille","lat":43.28846,"lon":5.35857,"is_reserved":false,"is_disabled":false,"rental_uris":{"android":"levelo://app?vid=012f8305-fce2-4582-954b-85deb454c741","ios":"levelo://app?vid=012f8305-fce2-4582-954b-85deb454c741"},"vehicle_type_id":"4","last_reported":1727910547,"current_range_meters":38800,"station_id":"ce4bhb12rcd13ifvqem0","pricing_plan_id":"cebpf4jnsgd1na2vs0mg"},{"bike_id":"0bbecbc4-d4ad-4e16-983e-c92a83b35860","system_id":"levelo_inurba_marseille","lat":43.26681,"lon":5.38267,"is_reserved":false,"is_disabled":false,"rental_uris":{"android":"levelo://app?vid=0bbecbc4-d4ad-4e16-983e-c92a83b35860","ios":"levelo://app?vid=0bbecbc4-d4ad-4e16-983e-c92a83b35860"},"vehicle_type_id":"4","last_reported":1727910547,"current_range_meters":33200,"station_id":"ce4bhg92rcd13ifvqf90","pricing_plan_id":"cebpf4jnsgd1na2vs0mg"},{"bike_id":"8f181795-3aeb-4156-971d-e32d9f5f03a5","system_id":"levelo_inurba_marseille","lat":43.28864,"lon":5.36094,"is_reserved":false,"is_disabled":false,"rental_uris":{"android":"levelo://app?vid=8f181795-3aeb-4156-971d-e32d9f5f03a5","ios":"levelo://app?vid=8f181795-3aeb-4156-971d-e32d9f5f03a5"},"vehicle_type_id":"4","last_reported":1727910547,"current_range_meters":33600,"station_id":"","pricing_plan_id":"cebpf4jnsgd1na2vs0mg"},{"bike_id":"ab0ec3d3-4f39-4c45-bb5f-ebeb07cb01d2","system_id":"levelo_inurba_marseille","lat":43.2781,"lon":5.40712,"is_reserved":false,"is_disabled":false,"rental_uris":{"android":"levelo://app?vid=ab0ec3d3-4f39-4c45-bb5f-ebeb07cb01d2","ios":"levelo://app?vid=ab0ec3d3-4f39-4c45-bb5f-ebeb07cb01d2"},"vehicle_type_id":"4","last_reported":1727910547,"current_range_meters":36800,"station_id":"ce4bhnh2rcd13ifvqgtg","pricing_plan_id":"cebpf4jnsgd1na2vs0mg"},{"bike_id":"12924d24-3cc0-4103-9cc5-36dfbf266a2c","system_id":"levelo_inurba_marseille","lat":43.27894,"lon":5.38001,"is_reserved":false,"is_disabled":false,"rental_uris":{"android":"levelo://app?vid=12924d24-3cc0-4103-9cc5-36dfbf266a2c","ios":"levelo://app?vid=12924d24-3cc0-4103-9cc5-36dfbf266a2c"},"vehicle_type_id":"4","last_reported":1727910547,"current_range_meters":20000,"station_id":"ce4bhf92rcd13ifvqf50","pricing_plan_id":"cebpf4jnsgd1na2vs0mg"},{"bike_id":"7bfb5721-baf3-4893-bbf9-7c8112a113a1","system_id":"levelo_inurba_marseille","lat":43.27996,"lon":5.40011,"is_reserved":false,"is_disabled":false,"rental_uris":{"android":"levelo://app?vid=7bfb5721-baf3-4893-bbf9-7c8112a113a1","ios":"levelo://app?vid=7bfb5721-baf3-4893-bbf9-7c8112a113a1"},"vehicle_type_id":"4","last_reported":1727910547,"current_range_meters":36800,"station_id":"ce4bho92rcd13ifvqh4g","pricing_plan_id":"cebpf4jnsgd1na2vs0mg"},{"bike_id":"9bb1827b-7858-47e7-aca0-f7469a633994","system_id":"levelo_inurba_marseille","lat":43.30323,"lon":5.40439,"is_reserved":false,"is_disabled":false,"rental_uris":{"android":"levelo://app?vid=9bb1827b-7858-47e7-aca0-f7469a633994","ios":"levelo://app?vid=9bb1827b-7858-47e7-aca0-f7469a633994"},"vehicle_type_id":"4","last_reported":1727910547,"current_range_meters":35200,"station_id":"ce4bh012rcd13ifvqd10","pricing_plan_id":"cebpf4jnsgd1na2vs0mg"},{"bike_id":"563e6912-b751-4068-8cd9-50117235c071","system_id":"levelo_inurba_marseille","lat":43.28458,"lon":5.3589,"is_reserved":false,"is_disabled":false,"rental_uris":{"android":"levelo://app?vid=563e6912-b751-4068-8cd9-50117235c071","ios":"levelo://app?vid=563e6912-b751-4068-8cd9-50117235c071"},"vehicle_type_id":"4","last_reported":1727910547,"current_range_meters":16400,"station_id":"ce4bhah2rcd13ifvqei0","pricing_plan_id":"cebpf4jnsgd1na2vs0mg"},{"bike_id":"c28aadbf-2763-4c15-b0ea-1af098ca2508","system_id":"levelo_inurba_marseille","lat":43.3254,"lon":5.41453,"is_reserved":false,"is_disabled":false,"rental_uris":{"android":"levelo://app?vid=c28aadbf-2763-4c15-b0ea-1af098ca2508","ios":"levelo://app?vid=c28aadbf-2763-4c15-b0ea-1af098ca2508"},"vehicle_type_id":"4","last_reported":1727910547,"current_range_meters":39200,"station_id":"ce4bhq12rcd13ifvqhhg","pricing_plan_id":"cebpf4jnsgd1na2vs0mg"},{"bike_id":"1f8d1e3d-9d2a-4e06-afd4-5fea70da48f3","system_id":"levelo_inurba_marseille","lat":43.24668,"lon":5.38163,"is_reserved":false,"is_disabled":false,"rental_uris":{"android":"levelo://app?vid=1f8d1e3d-9d2a-4e06-afd4-5fea70da48f3","ios":"levelo://app?vid=1f8d1e3d-9d2a-4e06-afd4-5fea70da48f3"},"vehicle_type_id":"4","last_reported":1727910547,"current_range_meters":39200,"station_id":"ce4bhih2rcd13ifvqfr0","pricing_plan_id":"cebpf4jnsgd1na2vs0mg"},{"bike_id":"720575a9-1c2c-4181-b3f7-c1b39f8bdabb","system_id":"levelo_inurba_marseille","lat":43.28702,"lon":5.39979,"is_reserved":false,"is_disabled":false,"rental_uris":{"android":"levelo://app?vid=720575a9-1c2c-4181-b3f7-c1b39f8bdabb","ios":"levelo://app?vid=720575a9-1c2c-4181-b3f7-c1b39f8bdabb"},"vehicle_type_id":"4","last_reported":1727910547,"current_range_meters":40000,"station_id":"ce4bho92rcd13ifvqh3g","pricing_plan_id":"cebpf4jnsgd1na2vs0mg"},{"bike_id":"2a5e89a5-010d-4243-bd8f-a53188703acb","system_id":"levelo_inurba_marseille","lat":43.31686,"lon":5.40462,"is_reserved":false,"is_disabled":false,"rental_uris":{"android":"levelo://app?vid=2a5e89a5-010d-4243-bd8f-a53188703acb","ios":"levelo://app?vid=2a5e89a5-010d-4243-bd8f-a53188703acb"},"vehicle_type_id":"4","last_reported":1727910547,"current_range_meters":38400,"station_id":"ce4bh012rcd13ifvqd00","pricing_plan_id":"cebpf4jnsgd1na2vs0mg"},{"bike_id":"f13ae62b-0d02-4c4a-bd54-f8d021796470","system_id":"levelo_inurba_marseille","lat":43.3043,"lon":5.38892,"is_reserved":false,"is_disabled":false,"rental_uris":{"android":"levelo://app?vid=f13ae62b-0d02-4c4a-bd54-f8d021796470","ios":"levelo://app?vid=f13ae62b-0d02-4c4a-bd54-f8d021796470"},"vehicle_type_id":"4","last_reported":1727910547,"current_range_meters":35600,"station_id":"ce4bgk12rcd13ifvqbi0","pricing_plan_id":"cebpf4jnsgd1na2vs0mg"},{"bike_id":"ded6ed03-6670-4556-b0c7-cc18513cb314","system_id":"levelo_inurba_marseille","lat":43.26495,"lon":5.39541,"is_reserved":false,"is_disabled":false,"rental_uris":{"android":"levelo://app?vid=ded6ed03-6670-4556-b0c7-cc18513cb314","ios":"levelo://app?vid=ded6ed03-6670-4556-b0c7-cc18513cb314"},"vehicle_type_id":"4","last_reported":1727910547,"current_range_meters":14000,"station_id":"ce4bhi12rcd13ifvqfq0","pricing_plan_id":"cebpf4jnsgd1na2vs0mg"},{"bike_id":"8b324eaf-db0e-4f63-abfa-425c372857cb","system_id":"levelo_inurba_marseille","lat":43.30781,"lon":5.37649,"is_reserved":false,"is_disabled":false,"rental_uris":{"android":"levelo://app?vid=8b324eaf-db0e-4f63-abfa-425c372857cb","ios":"levelo://app?vid=8b324eaf-db0e-4f63-abfa-425c372857cb"},"vehicle_type_id":"4","last_reported":1727910547,"current_range_meters":36400,"station_id":"ce4bgv92rcd13ifvqcq0","pricing_plan_id":"cebpf4jnsgd1na2vs0mg"},{"bike_id":"3e55463a-ac46-4231-9101-abcd2156792a","system_id":"levelo_inurba_marseille","lat":43.30801,"lon":5.43518,"is_reserved":false,"is_disabled":false,"rental_uris":{"android":"levelo://app?vid=3e55463a-ac46-4231-9101-abcd2156792a","ios":"levelo://app?vid=3e55463a-ac46-4231-9101-abcd2156792a"},"vehicle_type_id":"4","last_reported":1727910547,"current_range_meters":27600,"station_id":"ce4bhph2rcd13ifvqheg","pricing_plan_id":"cebpf4jnsgd1na2vs0mg"},{"bike_id":"65e7b6b0-2911-4a20-a5c1-7d9c323667da","system_id":"levelo_inurba_marseille","lat":43.3254,"lon":5.41453,"is_reserved":false,"is_disabled":false,"rental_uris":{"android":"levelo://app?vid=65e7b6b0-2911-4a20-a5c1-7d9c323667da","ios":"levelo://app?vid=65e7b6b0-2911-4a20-a5c1-7d9c323667da"},"vehicle_type_id":"4","last_reported":1727910547,"current_range_meters":38800,"station_id":"ce4bhq12rcd13ifvqhhg","pricing_plan_id":"cebpf4jnsgd1na2vs0mg"},{"bike_id":"c47c7f74-a0cb-4688-804b-641184ce0dc3","system_id":"levelo_inurba_marseille","lat":43.291901,"lon":5.393048,"is_reserved":false,"is_disabled":false,"rental_uris":{"android":"levelo://app?vid=c47c7f74-a0cb-4688-804b-641184ce0dc3","ios":"levelo://app?vid=c47c7f74-a0cb-4688-804b-641184ce0dc3"},"vehicle_type_id":"4","last_reported":1727910547,"current_range_meters":38000,"station_id":"ce4bho92rcd13ifvqh3g","pricing_plan_id":"cebpf4jnsgd1na2vs0mg"},{"bike_id":"5d8041cf-19b6-4f04-b6db-837ad2e405c1","system_id":"levelo_inurba_marseille","lat":43.28451,"lon":5.35897,"is_reserved":false,"is_disabled":false,"rental_uris":{"android":"levelo://app?vid=5d8041cf-19b6-4f04-b6db-837ad2e405c1","ios":"levelo://app?vid=5d8041cf-19b6-4f04-b6db-837ad2e405c1"},"vehicle_type_id":"4","last_reported":1727910547,"current_range_meters":20800,"station_id":"ce4bhah2rcd13ifvqei0","pricing_plan_id":"cebpf4jnsgd1na2vs0mg"},{"bike_id":"e865db4a-278f-4374-8259-819184dcd8f4","system_id":"levelo_inurba_marseille","lat":43.29784,"lon":5.3934,"is_reserved":false,"is_disabled":false,"rental_uris":{"android":"levelo://app?vid=e865db4a-278f-4374-8259-819184dcd8f4","ios":"levelo://app?vid=e865db4a-278f-4374-8259-819184dcd8f4"},"vehicle_type_id":"4","last_reported":1727910547,"current_range_meters":11200,"station_id":"chh1huq6cuj3fo74tm60","pricing_plan_id":"cebpf4jnsgd1na2vs0mg"},{"bike_id":"54ee485c-6ab8-4ad2-81b0-e28e15ba2b83","system_id":"levelo_inurba_marseille","lat":43.28273,"lon":5.35065,"is_reserved":false,"is_disabled":false,"rental_uris":{"android":"levelo://app?vid=54ee485c-6ab8-4ad2-81b0-e28e15ba2b83","ios":"levelo://app?vid=54ee485c-6ab8-4ad2-81b0-e28e15ba2b83"},"vehicle_type_id":"4","last_reported":1727910547,"current_range_meters":10000,"station_id":"ce4bhbp2rcd13ifvqerg","pricing_plan_id":"cebpf4jnsgd1na2vs0mg"},{"bike_id":"a787ad9f-0044-4839-a952-1ca23f7069fc","system_id":"levelo_inurba_marseille","lat":43.31724,"lon":5.42382,"is_reserved":false,"is_disabled":false,"rental_uris":{"android":"levelo://app?vid=a787ad9f-0044-4839-a952-1ca23f7069fc","ios":"levelo://app?vid=a787ad9f-0044-4839-a952-1ca23f7069fc"},"vehicle_type_id":"4","last_reported":1727910547,"current_range_meters":8800,"station_id":"ce4bhp92rcd13ifvqhbg","pricing_plan_id":"cebpf4jnsgd1na2vs0mg"},{"bike_id":"fab07bf1-09c2-4882-a9c1-73b120270859","system_id":"levelo_inurba_marseille","lat":43.26555,"lon":5.39009,"is_reserved":false,"is_disabled":false,"rental_uris":{"android":"levelo://app?vid=fab07bf1-09c2-4882-a9c1-73b120270859","ios":"levelo://app?vid=fab07bf1-09c2-4882-a9c1-73b120270859"},"vehicle_type_id":"4","last_reported":1727910547,"current_range_meters":38400,"station_id":"ce4bhe12rcd13ifvqf30","pricing_plan_id":"cebpf4jnsgd1na2vs0mg"},{"bike_id":"e1fb70b2-3a3b-495a-b1e8-acda54a54945","system_id":"levelo_inurba_marseille","lat":43.28857,"lon":5.35849,"is_reserved":false,"is_disabled":false,"rental_uris":{"android":"levelo://app?vid=e1fb70b2-3a3b-495a-b1e8-acda54a54945","ios":"levelo://app?vid=e1fb70b2-3a3b-495a-b1e8-acda54a54945"},"vehicle_type_id":"4","last_reported":1727910547,"current_range_meters":10000,"station_id":"ce4bhb12rcd13ifvqem0","pricing_plan_id":"cebpf4jnsgd1na2vs0mg"},{"bike_id":"5b95b53b-de42-4354-8e1a-9524026b6a69","system_id":"levelo_inurba_marseille","lat":43.27917,"lon":5.39581,"is_reserved":false,"is_disabled":false,"rental_uris":{"android":"levelo://app?vid=5b95b53b-de42-4354-8e1a-9524026b6a69","ios":"levelo://app?vid=5b95b53b-de42-4354-8e1a-9524026b6a69"},"vehicle_type_id":"4","last_reported":1727910547,"current_range_meters":34800,"station_id":"ce4bhf92rcd13ifvqf40","pricing_plan_id":"cebpf4jnsgd1na2vs0mg"},{"bike_id":"508b3170-34e3-430c-b754-dd4ea96fae6e","system_id":"levelo_inurba_marseille","lat":43.28722,"lon":5.36086,"is_reserved":false,"is_disabled":false,"rental_uris":{"android":"levelo://app?vid=508b3170-34e3-430c-b754-dd4ea96fae6e","ios":"levelo://app?vid=508b3170-34e3-430c-b754-dd4ea96fae6e"},"vehicle_type_id":"4","last_reported":1727910547,"current_range_meters":40000,"station_id":"cki0cbj6b192h4jlfktg","pricing_plan_id":"cebpf4jnsgd1na2vs0mg"},{"bike_id":"34035cb3-8ff9-4eb1-a981-e0964c96626b","system_id":"levelo_inurba_marseille","lat":43.23057,"lon":5.35492,"is_reserved":false,"is_disabled":false,"rental_uris":{"android":"levelo://app?vid=34035cb3-8ff9-4eb1-a981-e0964c96626b","ios":"levelo://app?vid=34035cb3-8ff9-4eb1-a981-e0964c96626b"},"vehicle_type_id":"4","last_reported":1727910547,"current_range_meters":36400,"station_id":"cpo3342slgdg3j2ifvpg","pricing_plan_id":"cebpf4jnsgd1na2vs0mg"},{"bike_id":"ba76bde8-4837-48f2-a654-89f03ceb034e","system_id":"levelo_inurba_marseille","lat":43.28038,"lon":5.36942,"is_reserved":false,"is_disabled":false,"rental_uris":{"android":"levelo://app?vid=ba76bde8-4837-48f2-a654-89f03ceb034e","ios":"levelo://app?vid=ba76bde8-4837-48f2-a654-89f03ceb034e"},"vehicle_type_id":"4","last_reported":1727910547,"current_range_meters":26800,"station_id":"ce4bha12rcd13ifvqef0","pricing_plan_id":"cebpf4jnsgd1na2vs0mg"},{"bike_id":"64dc80aa-3c56-4860-abae-517dc9e34990","system_id":"levelo_inurba_marseille","lat":43.28408,"lon":5.37514,"is_reserved":false,"is_disabled":false,"rental_uris":{"android":"levelo://app?vid=64dc80aa-3c56-4860-abae-517dc9e34990","ios":"levelo://app?vid=64dc80aa-3c56-4860-abae-517dc9e34990"},"vehicle_type_id":"4","last_reported":1727910547,"current_range_meters":4400,"station_id":"ce4bh412rcd13ifvqds0","pricing_plan_id":"cebpf4jnsgd1na2vs0mg"},{"bike_id":"e37eb050-aec1-4959-aa63-8219d0b7cd60","system_id":"levelo_inurba_marseille","lat":43.27812,"lon":5.40708,"is_reserved":false,"is_disabled":false,"rental_uris":{"android":"levelo://app?vid=e37eb050-aec1-4959-aa63-8219d0b7cd60","ios":"levelo://app?vid=e37eb050-aec1-4959-aa63-8219d0b7cd60"},"vehicle_type_id":"4","last_reported":1727910547,"current_range_meters":24000,"station_id":"ce4bhnh2rcd13ifvqgtg","pricing_plan_id":"cebpf4jnsgd1na2vs0mg"},{"bike_id":"123ff6ed-4385-4a10-999b-eb298bcab43c","system_id":"levelo_inurba_marseille","lat":43.3302,"lon":5.39037,"is_reserved":false,"is_disabled":false,"rental_uris":{"android":"levelo://app?vid=123ff6ed-4385-4a10-999b-eb298bcab43c","ios":"levelo://app?vid=123ff6ed-4385-4a10-999b-eb298bcab43c"},"vehicle_type_id":"4","last_reported":1727910547,"current_range_meters":38800,"station_id":"ce4bhr92rcd13ifvqhrg","pricing_plan_id":"cebpf4jnsgd1na2vs0mg"},{"bike_id":"a9fb0711-9ff1-467a-971b-ce61ada1f3b0","system_id":"levelo_inurba_marseille","lat":43.28845,"lon":5.35853,"is_reserved":false,"is_disabled":false,"rental_uris":{"android":"levelo://app?vid=a9fb0711-9ff1-467a-971b-ce61ada1f3b0","ios":"levelo://app?vid=a9fb0711-9ff1-467a-971b-ce61ada1f3b0"},"vehicle_type_id":"4","last_reported":1727910547,"current_range_meters":38800,"station_id":"ce4bhb12rcd13ifvqem0","pricing_plan_id":"cebpf4jnsgd1na2vs0mg"},{"bike_id":"64e20bcb-fdaf-4190-a780-c5d3ba0792ae","system_id":"levelo_inurba_marseille","lat":43.29805,"lon":5.40396,"is_reserved":false,"is_disabled":false,"rental_uris":{"android":"levelo://app?vid=64e20bcb-fdaf-4190-a780-c5d3ba0792ae","ios":"levelo://app?vid=64e20bcb-fdaf-4190-a780-c5d3ba0792ae"},"vehicle_type_id":"4","last_reported":1727910547,"current_range_meters":24000,"station_id":"ce4bh112rcd13ifvqd90","pricing_plan_id":"cebpf4jnsgd1na2vs0mg"},{"bike_id":"1f4ac54b-0b84-4115-8b10-7f817eac71df","system_id":"levelo_inurba_marseille","lat":43.28575,"lon":5.39497,"is_reserved":false,"is_disabled":false,"rental_uris":{"android":"levelo://app?vid=1f4ac54b-0b84-4115-8b10-7f817eac71df","ios":"levelo://app?vid=1f4ac54b-0b84-4115-8b10-7f817eac71df"},"vehicle_type_id":"4","last_reported":1727910547,"current_range_meters":27200,"station_id":"ce4bh292rcd13ifvqdg0","pricing_plan_id":"cebpf4jnsgd1na2vs0mg"},{"bike_id":"4600ed92-a9fd-4038-9dd3-2f7f99ae9d9b","system_id":"levelo_inurba_marseille","lat":43.24651,"lon":5.38893,"is_reserved":false,"is_disabled":false,"rental_uris":{"android":"levelo://app?vid=4600ed92-a9fd-4038-9dd3-2f7f99ae9d9b","ios":"levelo://app?vid=4600ed92-a9fd-4038-9dd3-2f7f99ae9d9b"},"vehicle_type_id":"4","last_reported":1727910547,"current_range_meters":25600,"station_id":"ce4bhg12rcd13ifvqf60","pricing_plan_id":"cebpf4jnsgd1na2vs0mg"},{"bike_id":"ad9bd38c-6e21-41e8-8513-132c1c15c21b","system_id":"levelo_inurba_marseille","lat":43.29884,"lon":5.43662,"is_reserved":false,"is_disabled":false,"rental_uris":{"android":"levelo://app?vid=ad9bd38c-6e21-41e8-8513-132c1c15c21b","ios":"levelo://app?vid=ad9bd38c-6e21-41e8-8513-132c1c15c21b"},"vehicle_type_id":"4","last_reported":1727910547,"current_range_meters":20000,"station_id":"ce4bhpp2rcd13ifvqhfg","pricing_plan_id":"cebpf4jnsgd1na2vs0mg"},{"bike_id":"8acb8a62-24a9-468c-99ca-565a01689086","system_id":"levelo_inurba_marseille","lat":43.29259,"lon":5.40913,"is_reserved":false,"is_disabled":false,"rental_uris":{"android":"levelo://app?vid=8acb8a62-24a9-468c-99ca-565a01689086","ios":"levelo://app?vid=8acb8a62-24a9-468c-99ca-565a01689086"},"vehicle_type_id":"4","last_reported":1727910547,"current_range_meters":31200,"station_id":"ce4bh192rcd13ifvqdc0","pricing_plan_id":"cebpf4jnsgd1na2vs0mg"},{"bike_id":"2cb30948-6f1d-479f-a4a2-1b9088c2c486","system_id":"levelo_inurba_marseille","lat":43.28443,"lon":5.39167,"is_reserved":false,"is_disabled":false,"rental_uris":{"android":"levelo://app?vid=2cb30948-6f1d-479f-a4a2-1b9088c2c486","ios":"levelo://app?vid=2cb30948-6f1d-479f-a4a2-1b9088c2c486"},"vehicle_type_id":"4","last_reported":1727910547,"current_range_meters":32000,"station_id":"ce4bhoh2rcd13ifvqh5g","pricing_plan_id":"cebpf4jnsgd1na2vs0mg"},{"bike_id":"9a2d3eb4-5bb0-446a-b10a-38f2501ad9e5","system_id":"levelo_inurba_marseille","lat":43.28083,"lon":5.39658,"is_reserved":false,"is_disabled":false,"rental_uris":{"android":"levelo://app?vid=9a2d3eb4-5bb0-446a-b10a-38f2501ad9e5","ios":"levelo://app?vid=9a2d3eb4-5bb0-446a-b10a-38f2501ad9e5"},"vehicle_type_id":"4","last_reported":1727910547,"current_range_meters":39200,"station_id":"ce4bho12rcd13ifvqh2g","pricing_plan_id":"cebpf4jnsgd1na2vs0mg"},{"bike_id":"a68a6235-7e79-4685-a3aa-e9eae8b74673","system_id":"levelo_inurba_marseille","lat":43.31758,"lon":5.39024,"is_reserved":false,"is_disabled":false,"rental_uris":{"android":"levelo://app?vid=a68a6235-7e79-4685-a3aa-e9eae8b74673","ios":"levelo://app?vid=a68a6235-7e79-4685-a3aa-e9eae8b74673"},"vehicle_type_id":"4","last_reported":1727910547,"current_range_meters":38800,"station_id":"ce4bhqp2rcd13ifvqhng","pricing_plan_id":"cebpf4jnsgd1na2vs0mg"},{"bike_id":"a292cc6b-0b15-4b33-8f09-f41be692a4eb","system_id":"levelo_inurba_marseille","lat":43.24395,"lon":5.37067,"is_reserved":false,"is_disabled":false,"rental_uris":{"android":"levelo://app?vid=a292cc6b-0b15-4b33-8f09-f41be692a4eb","ios":"levelo://app?vid=a292cc6b-0b15-4b33-8f09-f41be692a4eb"},"vehicle_type_id":"4","last_reported":1727910547,"current_range_meters":38800,"station_id":"ce4bhhh2rcd13ifvqfk0","pricing_plan_id":"cebpf4jnsgd1na2vs0mg"},{"bike_id":"16064f74-3613-4fe2-9a57-457e6e8d81c5","system_id":"levelo_inurba_marseille","lat":43.31713,"lon":5.43698,"is_reserved":false,"is_disabled":false,"rental_uris":{"android":"levelo://app?vid=16064f74-3613-4fe2-9a57-457e6e8d81c5","ios":"levelo://app?vid=16064f74-3613-4fe2-9a57-457e6e8d81c5"},"vehicle_type_id":"4","last_reported":1727910547,"current_range_meters":38800,"station_id":"ce4bhp92rcd13ifvqhcg","pricing_plan_id":"cebpf4jnsgd1na2vs0mg"},{"bike_id":"d9c2381b-f5b4-4f9c-adb6-506d987db672","system_id":"levelo_inurba_marseille","lat":43.28658,"lon":5.3635,"is_reserved":false,"is_disabled":false,"rental_uris":{"android":"levelo://app?vid=d9c2381b-f5b4-4f9c-adb6-506d987db672","ios":"levelo://app?vid=d9c2381b-f5b4-4f9c-adb6-506d987db672"},"vehicle_type_id":"4","last_reported":1727910547,"current_range_meters":8400,"station_id":"ce4bhah2rcd13ifvqej0","pricing_plan_id":"cebpf4jnsgd1na2vs0mg"},{"bike_id":"32fc2753-529a-4d3f-9dea-dc7b52e35d15","system_id":"levelo_inurba_marseille","lat":43.30643,"lon":5.40077,"is_reserved":false,"is_disabled":false,"rental_uris":{"android":"levelo://app?vid=32fc2753-529a-4d3f-9dea-dc7b52e35d15","ios":"levelo://app?vid=32fc2753-529a-4d3f-9dea-dc7b52e35d15"},"vehicle_type_id":"4","last_reported":1727910547,"current_range_meters":20800,"station_id":"ce4bh112rcd13ifvqda0","pricing_plan_id":"cebpf4jnsgd1na2vs0mg"},{"bike_id":"3cf74a3f-8222-4d03-b2e6-c9d25d38cf35","system_id":"levelo_inurba_marseille","lat":43.25004,"lon":5.38926,"is_reserved":false,"is_disabled":false,"rental_uris":{"android":"levelo://app?vid=3cf74a3f-8222-4d03-b2e6-c9d25d38cf35","ios":"levelo://app?vid=3cf74a3f-8222-4d03-b2e6-c9d25d38cf35"},"vehicle_type_id":"4","last_reported":1727910547,"current_range_meters":38800,"station_id":"ce4bhgp2rcd13ifvqfd0","pricing_plan_id":"cebpf4jnsgd1na2vs0mg"},{"bike_id":"df35103d-0afb-4a29-bcb0-3d33b933f0f7","system_id":"levelo_inurba_marseille","lat":43.30553,"lon":5.36705,"is_reserved":false,"is_disabled":false,"rental_uris":{"android":"levelo://app?vid=df35103d-0afb-4a29-bcb0-3d33b933f0f7","ios":"levelo://app?vid=df35103d-0afb-4a29-bcb0-3d33b933f0f7"},"vehicle_type_id":"4","last_reported":1727910547,"current_range_meters":38800,"station_id":"ce4bgrp2rcd13ifvqc9g","pricing_plan_id":"cebpf4jnsgd1na2vs0mg"},{"bike_id":"734a8f00-2cca-4391-9762-11ecc8542eea","system_id":"levelo_inurba_marseille","lat":43.28714,"lon":5.39996,"is_reserved":false,"is_disabled":false,"rental_uris":{"android":"levelo://app?vid=734a8f00-2cca-4391-9762-11ecc8542eea","ios":"levelo://app?vid=734a8f00-2cca-4391-9762-11ecc8542eea"},"vehicle_type_id":"4","last_reported":1727910547,"current_range_meters":11600,"station_id":"ce4bho92rcd13ifvqh3g","pricing_plan_id":"cebpf4jnsgd1na2vs0mg"},{"bike_id":"50fd90fe-2219-4f2e-9ba5-06d593c1eb24","system_id":"levelo_inurba_marseille","lat":43.30797,"lon":5.38148,"is_reserved":false,"is_disabled":false,"rental_uris":{"android":"levelo://app?vid=50fd90fe-2219-4f2e-9ba5-06d593c1eb24","ios":"levelo://app?vid=50fd90fe-2219-4f2e-9ba5-06d593c1eb24"},"vehicle_type_id":"4","last_reported":1727910547,"current_range_meters":28000,"station_id":"ce4bgt12rcd13ifvqce0","pricing_plan_id":"cebpf4jnsgd1na2vs0mg"},{"bike_id":"de302269-fdda-4ef3-9935-87f4834e17d5","system_id":"levelo_inurba_marseille","lat":43.25933,"lon":5.40914,"is_reserved":false,"is_disabled":false,"rental_uris":{"android":"levelo://app?vid=de302269-fdda-4ef3-9935-87f4834e17d5","ios":"levelo://app?vid=de302269-fdda-4ef3-9935-87f4834e17d5"},"vehicle_type_id":"4","last_reported":1727910547,"current_range_meters":12000,"station_id":"ce4bhm92rcd13ifvqglg","pricing_plan_id":"cebpf4jnsgd1na2vs0mg"},{"bike_id":"0c96b1bb-428c-438b-9e93-a7688a1db556","system_id":"levelo_inurba_marseille","lat":43.31763,"lon":5.39017,"is_reserved":false,"is_disabled":false,"rental_uris":{"android":"levelo://app?vid=0c96b1bb-428c-438b-9e93-a7688a1db556","ios":"levelo://app?vid=0c96b1bb-428c-438b-9e93-a7688a1db556"},"vehicle_type_id":"4","last_reported":1727910547,"current_range_meters":29600,"station_id":"ce4bhqp2rcd13ifvqhng","pricing_plan_id":"cebpf4jnsgd1na2vs0mg"},{"bike_id":"5903311c-739a-4031-8184-58a01e82a451","system_id":"levelo_inurba_marseille","lat":43.309312,"lon":5.401353,"is_reserved":false,"is_disabled":false,"rental_uris":{"android":"levelo://app?vid=5903311c-739a-4031-8184-58a01e82a451","ios":"levelo://app?vid=5903311c-739a-4031-8184-58a01e82a451"},"vehicle_type_id":"4","last_reported":1727910547,"current_range_meters":38800,"station_id":"ce4bgvp2rcd13ifvqct0","pricing_plan_id":"cebpf4jnsgd1na2vs0mg"},{"bike_id":"ef533dc3-c49c-49e1-91dd-5eecd6f5cee8","system_id":"levelo_inurba_marseille","lat":43.30775,"lon":5.37647,"is_reserved":false,"is_disabled":false,"rental_uris":{"android":"levelo://app?vid=ef533dc3-c49c-49e1-91dd-5eecd6f5cee8","ios":"levelo://app?vid=ef533dc3-c49c-49e1-91dd-5eecd6f5cee8"},"vehicle_type_id":"4","last_reported":1727910547,"current_range_meters":38800,"station_id":"ce4bgv92rcd13ifvqcq0","pricing_plan_id":"cebpf4jnsgd1na2vs0mg"},{"bike_id":"5bd58d62-3e59-4583-9f27-c2849b27bd5c","system_id":"levelo_inurba_marseille","lat":43.24184,"lon":5.39727,"is_reserved":false,"is_disabled":false,"rental_uris":{"android":"levelo://app?vid=5bd58d62-3e59-4583-9f27-c2849b27bd5c","ios":"levelo://app?vid=5bd58d62-3e59-4583-9f27-c2849b27bd5c"},"vehicle_type_id":"4","last_reported":1727910547,"current_range_meters":36800,"station_id":"ce4bhn12rcd13ifvqgpg","pricing_plan_id":"cebpf4jnsgd1na2vs0mg"},{"bike_id":"bceeceef-28be-4631-befc-7ca2509a7015","system_id":"levelo_inurba_marseille","lat":43.28839,"lon":5.35846,"is_reserved":false,"is_disabled":false,"rental_uris":{"android":"levelo://app?vid=bceeceef-28be-4631-befc-7ca2509a7015","ios":"levelo://app?vid=bceeceef-28be-4631-befc-7ca2509a7015"},"vehicle_type_id":"4","last_reported":1727910547,"current_range_meters":25200,"station_id":"ce4bhb12rcd13ifvqem0","pricing_plan_id":"cebpf4jnsgd1na2vs0mg"},{"bike_id":"48d2fe06-7dd5-41c5-b20a-3fa66b6138ba","system_id":"levelo_inurba_marseille","lat":43.31364,"lon":5.38504,"is_reserved":false,"is_disabled":false,"rental_uris":{"android":"levelo://app?vid=48d2fe06-7dd5-41c5-b20a-3fa66b6138ba","ios":"levelo://app?vid=48d2fe06-7dd5-41c5-b20a-3fa66b6138ba"},"vehicle_type_id":"4","last_reported":1727910547,"current_range_meters":38800,"station_id":"ce4bgt92rcd13ifvqcf0","pricing_plan_id":"cebpf4jnsgd1na2vs0mg"},{"bike_id":"9671deaf-e295-4653-a9a3-be450d347933","system_id":"levelo_inurba_marseille","lat":43.29971,"lon":5.37178,"is_reserved":false,"is_disabled":false,"rental_uris":{"android":"levelo://app?vid=9671deaf-e295-4653-a9a3-be450d347933","ios":"levelo://app?vid=9671deaf-e295-4653-a9a3-be450d347933"},"vehicle_type_id":"4","last_reported":1727910547,"current_range_meters":17200,"station_id":"ce4bgr92rcd13ifvqc7g","pricing_plan_id":"cebpf4jnsgd1na2vs0mg"},{"bike_id":"45616239-f887-4b93-960c-cb4018bee533","system_id":"levelo_inurba_marseille","lat":43.31372,"lon":5.38493,"is_reserved":false,"is_disabled":false,"rental_uris":{"android":"levelo://app?vid=45616239-f887-4b93-960c-cb4018bee533","ios":"levelo://app?vid=45616239-f887-4b93-960c-cb4018bee533"},"vehicle_type_id":"4","last_reported":1727910547,"current_range_meters":8400,"station_id":"ce4bgt92rcd13ifvqcf0","pricing_plan_id":"cebpf4jnsgd1na2vs0mg"},{"bike_id":"56541361-4447-4de9-b386-73b376944d02","system_id":"levelo_inurba_marseille","lat":43.28697,"lon":5.37397,"is_reserved":false,"is_disabled":false,"rental_uris":{"android":"levelo://app?vid=56541361-4447-4de9-b386-73b376944d02","ios":"levelo://app?vid=56541361-4447-4de9-b386-73b376944d02"},"vehicle_type_id":"4","last_reported":1727910547,"current_range_meters":38800,"station_id":"ce4bh3p2rcd13ifvqdq0","pricing_plan_id":"cebpf4jnsgd1na2vs0mg"},{"bike_id":"43f49d82-631b-4935-835c-5bba04851cb5","system_id":"levelo_inurba_marseille","lat":43.31524,"lon":5.38043,"is_reserved":false,"is_disabled":false,"rental_uris":{"android":"levelo://app?vid=43f49d82-631b-4935-835c-5bba04851cb5","ios":"levelo://app?vid=43f49d82-631b-4935-835c-5bba04851cb5"},"vehicle_type_id":"4","last_reported":1727910547,"current_range_meters":19200,"station_id":"ce4bhsp2rcd13ifvqi50","pricing_plan_id":"cebpf4jnsgd1na2vs0mg"},{"bike_id":"77f7df7c-9235-419f-bfd3-103172b17788","system_id":"levelo_inurba_marseille","lat":43.30929,"lon":5.4015,"is_reserved":false,"is_disabled":false,"rental_uris":{"android":"levelo://app?vid=77f7df7c-9235-419f-bfd3-103172b17788","ios":"levelo://app?vid=77f7df7c-9235-419f-bfd3-103172b17788"},"vehicle_type_id":"4","last_reported":1727910547,"current_range_meters":36000,"station_id":"ce4bgvp2rcd13ifvqct0","pricing_plan_id":"cebpf4jnsgd1na2vs0mg"},{"bike_id":"24d405d8-d4b8-45f4-b763-bdf578f4da9b","system_id":"levelo_inurba_marseille","lat":43.29258,"lon":5.409,"is_reserved":false,"is_disabled":false,"rental_uris":{"android":"levelo://app?vid=24d405d8-d4b8-45f4-b763-bdf578f4da9b","ios":"levelo://app?vid=24d405d8-d4b8-45f4-b763-bdf578f4da9b"},"vehicle_type_id":"4","last_reported":1727910547,"current_range_meters":4400,"station_id":"ce4bh192rcd13ifvqdc0","pricing_plan_id":"cebpf4jnsgd1na2vs0mg"},{"bike_id":"df81b8be-bc2a-4833-b316-2db6ce688d25","system_id":"levelo_inurba_marseille","lat":43.30793,"lon":5.37644,"is_reserved":false,"is_disabled":false,"rental_uris":{"android":"levelo://app?vid=df81b8be-bc2a-4833-b316-2db6ce688d25","ios":"levelo://app?vid=df81b8be-bc2a-4833-b316-2db6ce688d25"},"vehicle_type_id":"4","last_reported":1727910547,"current_range_meters":25600,"station_id":"ce4bgv92rcd13ifvqcq0","pricing_plan_id":"cebpf4jnsgd1na2vs0mg"},{"bike_id":"b482df99-7ee8-4eea-8d8b-1d22667db679","system_id":"levelo_inurba_marseille","lat":43.29343,"lon":5.42847,"is_reserved":false,"is_disabled":false,"rental_uris":{"android":"levelo://app?vid=b482df99-7ee8-4eea-8d8b-1d22667db679","ios":"levelo://app?vid=b482df99-7ee8-4eea-8d8b-1d22667db679"},"vehicle_type_id":"4","last_reported":1727910547,"current_range_meters":19200,"station_id":"","pricing_plan_id":"cebpf4jnsgd1na2vs0mg"},{"bike_id":"a55c725a-9129-4efc-8da2-729024ee5734","system_id":"levelo_inurba_marseille","lat":43.31896,"lon":5.40736,"is_reserved":false,"is_disabled":false,"rental_uris":{"android":"levelo://app?vid=a55c725a-9129-4efc-8da2-729024ee5734","ios":"levelo://app?vid=a55c725a-9129-4efc-8da2-729024ee5734"},"vehicle_type_id":"4","last_reported":1727910547,"current_range_meters":38800,"station_id":"ce4bhq12rcd13ifvqhig","pricing_plan_id":"cebpf4jnsgd1na2vs0mg"},{"bike_id":"06923303-6f5c-4517-9e3e-a22a202abf46","system_id":"levelo_inurba_marseille","lat":43.30892,"lon":5.39649,"is_reserved":false,"is_disabled":false,"rental_uris":{"android":"levelo://app?vid=06923303-6f5c-4517-9e3e-a22a202abf46","ios":"levelo://app?vid=06923303-6f5c-4517-9e3e-a22a202abf46"},"vehicle_type_id":"4","last_reported":1727910547,"current_range_meters":36400,"station_id":"ce4bh012rcd13ifvqcv0","pricing_plan_id":"cebpf4jnsgd1na2vs0mg"},{"bike_id":"2396aba7-c99b-4b8e-97f0-cc89734783f1","system_id":"levelo_inurba_marseille","lat":43.262,"lon":5.3792,"is_reserved":false,"is_disabled":false,"rental_uris":{"android":"levelo://app?vid=2396aba7-c99b-4b8e-97f0-cc89734783f1","ios":"levelo://app?vid=2396aba7-c99b-4b8e-97f0-cc89734783f1"},"vehicle_type_id":"4","last_reported":1727910547,"current_range_meters":28800,"station_id":"ce4bhjp2rcd13ifvqg90","pricing_plan_id":"cebpf4jnsgd1na2vs0mg"},{"bike_id":"e146ad62-4f4b-4aaf-a6f4-3dc7cee5ad03","system_id":"levelo_inurba_marseille","lat":43.25106,"lon":5.40313,"is_reserved":false,"is_disabled":false,"rental_uris":{"android":"levelo://app?vid=e146ad62-4f4b-4aaf-a6f4-3dc7cee5ad03","ios":"levelo://app?vid=e146ad62-4f4b-4aaf-a6f4-3dc7cee5ad03"},"vehicle_type_id":"4","last_reported":1727910547,"current_range_meters":24800,"station_id":"ce4bhlh2rcd13ifvqgig","pricing_plan_id":"cebpf4jnsgd1na2vs0mg"},{"bike_id":"786c53af-afa9-47b0-a1b1-5d330f6015d9","system_id":"levelo_inurba_marseille","lat":43.28854,"lon":5.35845,"is_reserved":false,"is_disabled":false,"rental_uris":{"android":"levelo://app?vid=786c53af-afa9-47b0-a1b1-5d330f6015d9","ios":"levelo://app?vid=786c53af-afa9-47b0-a1b1-5d330f6015d9"},"vehicle_type_id":"4","last_reported":1727910547,"current_range_meters":27200,"station_id":"ce4bhb12rcd13ifvqem0","pricing_plan_id":"cebpf4jnsgd1na2vs0mg"},{"bike_id":"0ed9de7d-aa21-4211-ae93-47394a9486c4","system_id":"levelo_inurba_marseille","lat":43.28265,"lon":5.35066,"is_reserved":false,"is_disabled":false,"rental_uris":{"android":"levelo://app?vid=0ed9de7d-aa21-4211-ae93-47394a9486c4","ios":"levelo://app?vid=0ed9de7d-aa21-4211-ae93-47394a9486c4"},"vehicle_type_id":"4","last_reported":1727910547,"current_range_meters":40000,"station_id":"ce4bhbp2rcd13ifvqerg","pricing_plan_id":"cebpf4jnsgd1na2vs0mg"},{"bike_id":"53c6fe7a-c5f0-4c29-bdb6-08c6c7db5c71","system_id":"levelo_inurba_marseille","lat":43.32075,"lon":5.36754,"is_reserved":false,"is_disabled":false,"rental_uris":{"android":"levelo://app?vid=53c6fe7a-c5f0-4c29-bdb6-08c6c7db5c71","ios":"levelo://app?vid=53c6fe7a-c5f0-4c29-bdb6-08c6c7db5c71"},"vehicle_type_id":"4","last_reported":1727910547,"current_range_meters":12800,"station_id":"ce4bhrh2rcd13ifvqhug","pricing_plan_id":"cebpf4jnsgd1na2vs0mg"},{"bike_id":"6b32807b-ae22-4b34-9796-2fc06a7fd84d","system_id":"levelo_inurba_marseille","lat":43.31364,"lon":5.38501,"is_reserved":false,"is_disabled":false,"rental_uris":{"android":"levelo://app?vid=6b32807b-ae22-4b34-9796-2fc06a7fd84d","ios":"levelo://app?vid=6b32807b-ae22-4b34-9796-2fc06a7fd84d"},"vehicle_type_id":"4","last_reported":1727910547,"current_range_meters":38000,"station_id":"ce4bgt92rcd13ifvqcf0","pricing_plan_id":"cebpf4jnsgd1na2vs0mg"},{"bike_id":"8f52a2e3-d5cf-450f-8fa4-bf79d49562d1","system_id":"levelo_inurba_marseille","lat":43.28707,"lon":5.39974,"is_reserved":false,"is_disabled":false,"rental_uris":{"android":"levelo://app?vid=8f52a2e3-d5cf-450f-8fa4-bf79d49562d1","ios":"levelo://app?vid=8f52a2e3-d5cf-450f-8fa4-bf79d49562d1"},"vehicle_type_id":"4","last_reported":1727910547,"current_range_meters":20400,"station_id":"ce4bho92rcd13ifvqh3g","pricing_plan_id":"cebpf4jnsgd1na2vs0mg"},{"bike_id":"e95c44e3-8353-4e31-8a0a-4b78de08c376","system_id":"levelo_inurba_marseille","lat":43.31176,"lon":5.38711,"is_reserved":false,"is_disabled":false,"rental_uris":{"android":"levelo://app?vid=e95c44e3-8353-4e31-8a0a-4b78de08c376","ios":"levelo://app?vid=e95c44e3-8353-4e31-8a0a-4b78de08c376"},"vehicle_type_id":"4","last_reported":1727910547,"current_range_meters":25200,"station_id":"ce4bgv12rcd13ifvqcp0","pricing_plan_id":"cebpf4jnsgd1na2vs0mg"},{"bike_id":"6ce60676-3f86-4aaa-a5df-572436c32ad4","system_id":"levelo_inurba_marseille","lat":43.23196,"lon":5.35545,"is_reserved":false,"is_disabled":false,"rental_uris":{"android":"levelo://app?vid=6ce60676-3f86-4aaa-a5df-572436c32ad4","ios":"levelo://app?vid=6ce60676-3f86-4aaa-a5df-572436c32ad4"},"vehicle_type_id":"4","last_reported":1727910547,"current_range_meters":24000,"station_id":"ce4bhu92rcd13ifvqi70","pricing_plan_id":"cebpf4jnsgd1na2vs0mg"},{"bike_id":"6a8178a3-fd76-4731-8f30-7d25bc176586","system_id":"levelo_inurba_marseille","lat":43.25863,"lon":5.39899,"is_reserved":false,"is_disabled":false,"rental_uris":{"android":"levelo://app?vid=6a8178a3-fd76-4731-8f30-7d25bc176586","ios":"levelo://app?vid=6a8178a3-fd76-4731-8f30-7d25bc176586"},"vehicle_type_id":"4","last_reported":1727910547,"current_range_meters":30800,"station_id":"ce4bhl92rcd13ifvqghg","pricing_plan_id":"cebpf4jnsgd1na2vs0mg"},{"bike_id":"1def21d1-435f-4803-8b06-3978ff507c93","system_id":"levelo_inurba_marseille","lat":43.3372,"lon":5.39191,"is_reserved":false,"is_disabled":false,"rental_uris":{"android":"levelo://app?vid=1def21d1-435f-4803-8b06-3978ff507c93","ios":"levelo://app?vid=1def21d1-435f-4803-8b06-3978ff507c93"},"vehicle_type_id":"4","last_reported":1727910547,"current_range_meters":39200,"station_id":"ce4bhr92rcd13ifvqhsg","pricing_plan_id":"cebpf4jnsgd1na2vs0mg"},{"bike_id":"06628443-07e2-4b30-a691-cb684c31ea43","system_id":"levelo_inurba_marseille","lat":43.23968,"lon":5.36631,"is_reserved":false,"is_disabled":false,"rental_uris":{"android":"levelo://app?vid=06628443-07e2-4b30-a691-cb684c31ea43","ios":"levelo://app?vid=06628443-07e2-4b30-a691-cb684c31ea43"},"vehicle_type_id":"4","last_reported":1727910547,"current_range_meters":20400,"station_id":"ce4bhi12rcd13ifvqfp0","pricing_plan_id":"cebpf4jnsgd1na2vs0mg"},{"bike_id":"e08f994a-560a-4d82-9e2b-bae6d27d58c9","system_id":"levelo_inurba_marseille","lat":43.25121,"lon":5.40318,"is_reserved":false,"is_disabled":false,"rental_uris":{"android":"levelo://app?vid=e08f994a-560a-4d82-9e2b-bae6d27d58c9","ios":"levelo://app?vid=e08f994a-560a-4d82-9e2b-bae6d27d58c9"},"vehicle_type_id":"4","last_reported":1727910547,"current_range_meters":27600,"station_id":"ce4bhlh2rcd13ifvqgig","pricing_plan_id":"cebpf4jnsgd1na2vs0mg"},{"bike_id":"15bc2474-416b-4ea7-ae8a-edd4eaaadae5","system_id":"levelo_inurba_marseille","lat":43.31534,"lon":5.38018,"is_reserved":false,"is_disabled":false,"rental_uris":{"android":"levelo://app?vid=15bc2474-416b-4ea7-ae8a-edd4eaaadae5","ios":"levelo://app?vid=15bc2474-416b-4ea7-ae8a-edd4eaaadae5"},"vehicle_type_id":"4","last_reported":1727910547,"current_range_meters":8400,"station_id":"ce4bhsp2rcd13ifvqi50","pricing_plan_id":"cebpf4jnsgd1na2vs0mg"},{"bike_id":"ac73cba3-67ac-49e6-9911-c708fff7cfd4","system_id":"levelo_inurba_marseille","lat":43.33025,"lon":5.39035,"is_reserved":false,"is_disabled":false,"rental_uris":{"android":"levelo://app?vid=ac73cba3-67ac-49e6-9911-c708fff7cfd4","ios":"levelo://app?vid=ac73cba3-67ac-49e6-9911-c708fff7cfd4"},"vehicle_type_id":"4","last_reported":1727910547,"current_range_meters":38800,"station_id":"ce4bhr92rcd13ifvqhrg","pricing_plan_id":"cebpf4jnsgd1na2vs0mg"},{"bike_id":"52919348-68a3-4d50-a4fd-b98befc7396b","system_id":"levelo_inurba_marseille","lat":43.31117,"lon":5.3777,"is_reserved":false,"is_disabled":false,"rental_uris":{"android":"levelo://app?vid=52919348-68a3-4d50-a4fd-b98befc7396b","ios":"levelo://app?vid=52919348-68a3-4d50-a4fd-b98befc7396b"},"vehicle_type_id":"4","last_reported":1727910547,"current_range_meters":39200,"station_id":"ce4bgt92rcd13ifvqcg0","pricing_plan_id":"cebpf4jnsgd1na2vs0mg"},{"bike_id":"6a761229-3c92-441b-bc03-51a8f126d929","system_id":"levelo_inurba_marseille","lat":43.30654,"lon":5.40082,"is_reserved":false,"is_disabled":false,"rental_uris":{"android":"levelo://app?vid=6a761229-3c92-441b-bc03-51a8f126d929","ios":"levelo://app?vid=6a761229-3c92-441b-bc03-51a8f126d929"},"vehicle_type_id":"4","last_reported":1727910547,"current_range_meters":39200,"station_id":"ce4bh112rcd13ifvqda0","pricing_plan_id":"cebpf4jnsgd1na2vs0mg"},{"bike_id":"1afa427e-14c3-4790-839f-347e738fba63","system_id":"levelo_inurba_marseille","lat":43.29189,"lon":5.35807,"is_reserved":false,"is_disabled":false,"rental_uris":{"android":"levelo://app?vid=1afa427e-14c3-4790-839f-347e738fba63","ios":"levelo://app?vid=1afa427e-14c3-4790-839f-347e738fba63"},"vehicle_type_id":"4","last_reported":1727910547,"current_range_meters":30000,"station_id":"ce4bhb12rcd13ifvqel0","pricing_plan_id":"cebpf4jnsgd1na2vs0mg"},{"bike_id":"3f52831f-d1ca-4522-99f2-ca762dcd1821","system_id":"levelo_inurba_marseille","lat":43.31759,"lon":5.39012,"is_reserved":false,"is_disabled":false,"rental_uris":{"android":"levelo://app?vid=3f52831f-d1ca-4522-99f2-ca762dcd1821","ios":"levelo://app?vid=3f52831f-d1ca-4522-99f2-ca762dcd1821"},"vehicle_type_id":"4","last_reported":1727910547,"current_range_meters":30000,"station_id":"ce4bhqp2rcd13ifvqhng","pricing_plan_id":"cebpf4jnsgd1na2vs0mg"},{"bike_id":"1edc7b98-f3bf-4931-bd48-3a6026d28bdc","system_id":"levelo_inurba_marseille","lat":43.28244,"lon":5.39486,"is_reserved":false,"is_disabled":false,"rental_uris":{"android":"levelo://app?vid=1edc7b98-f3bf-4931-bd48-3a6026d28bdc","ios":"levelo://app?vid=1edc7b98-f3bf-4931-bd48-3a6026d28bdc"},"vehicle_type_id":"4","last_reported":1727910547,"current_range_meters":19200,"station_id":"","pricing_plan_id":"cebpf4jnsgd1na2vs0mg"},{"bike_id":"c9bcc9ec-20e5-4c17-8296-b338afd0a143","system_id":"levelo_inurba_marseille","lat":43.28404,"lon":5.37513,"is_reserved":false,"is_disabled":false,"rental_uris":{"android":"levelo://app?vid=c9bcc9ec-20e5-4c17-8296-b338afd0a143","ios":"levelo://app?vid=c9bcc9ec-20e5-4c17-8296-b338afd0a143"},"vehicle_type_id":"4","last_reported":1727910547,"current_range_meters":15200,"station_id":"ce4bh412rcd13ifvqds0","pricing_plan_id":"cebpf4jnsgd1na2vs0mg"},{"bike_id":"88f6b72c-f048-4d55-8593-a5609d8eb13f","system_id":"levelo_inurba_marseille","lat":43.31703,"lon":5.4047,"is_reserved":false,"is_disabled":false,"rental_uris":{"android":"levelo://app?vid=88f6b72c-f048-4d55-8593-a5609d8eb13f","ios":"levelo://app?vid=88f6b72c-f048-4d55-8593-a5609d8eb13f"},"vehicle_type_id":"4","last_reported":1727910547,"current_range_meters":38800,"station_id":"ce4bh012rcd13ifvqd00","pricing_plan_id":"cebpf4jnsgd1na2vs0mg"},{"bike_id":"655618eb-a8ef-4e7c-97c0-fecd3d9fbd1a","system_id":"levelo_inurba_marseille","lat":43.29931,"lon":5.36525,"is_reserved":false,"is_disabled":false,"rental_uris":{"android":"levelo://app?vid=655618eb-a8ef-4e7c-97c0-fecd3d9fbd1a","ios":"levelo://app?vid=655618eb-a8ef-4e7c-97c0-fecd3d9fbd1a"},"vehicle_type_id":"4","last_reported":1727910547,"current_range_meters":24400,"station_id":"ce4bgm92rcd13ifvqbr0","pricing_plan_id":"cebpf4jnsgd1na2vs0mg"},{"bike_id":"8eba8700-4522-463d-bcb5-aa0653ad1026","system_id":"levelo_inurba_marseille","lat":43.32362,"lon":5.38897,"is_reserved":false,"is_disabled":false,"rental_uris":{"android":"levelo://app?vid=8eba8700-4522-463d-bcb5-aa0653ad1026","ios":"levelo://app?vid=8eba8700-4522-463d-bcb5-aa0653ad1026"},"vehicle_type_id":"4","last_reported":1727910547,"current_range_meters":28000,"station_id":"ce4bhqp2rcd13ifvqhog","pricing_plan_id":"cebpf4jnsgd1na2vs0mg"},{"bike_id":"9eaaa8ab-9680-499b-b6a8-ddaffe4a859d","system_id":"levelo_inurba_marseille","lat":43.31333,"lon":5.39696,"is_reserved":false,"is_disabled":false,"rental_uris":{"android":"levelo://app?vid=9eaaa8ab-9680-499b-b6a8-ddaffe4a859d","ios":"levelo://app?vid=9eaaa8ab-9680-499b-b6a8-ddaffe4a859d"},"vehicle_type_id":"4","last_reported":1727910547,"current_range_meters":32400,"station_id":"ce4bgvp2rcd13ifvqcu0","pricing_plan_id":"cebpf4jnsgd1na2vs0mg"},{"bike_id":"74925788-746e-4704-86a3-45ee3bc0ed44","system_id":"levelo_inurba_marseille","lat":43.279947,"lon":5.416624,"is_reserved":false,"is_disabled":false,"rental_uris":{"android":"levelo://app?vid=74925788-746e-4704-86a3-45ee3bc0ed44","ios":"levelo://app?vid=74925788-746e-4704-86a3-45ee3bc0ed44"},"vehicle_type_id":"4","last_reported":1727910547,"current_range_meters":4800,"station_id":"ce4bho12rcd13ifvqh1g","pricing_plan_id":"cebpf4jnsgd1na2vs0mg"},{"bike_id":"d42c1e2f-0120-49d8-8ab6-4a4676c0c0e0","system_id":"levelo_inurba_marseille","lat":43.31333,"lon":5.39693,"is_reserved":false,"is_disabled":false,"rental_uris":{"android":"levelo://app?vid=d42c1e2f-0120-49d8-8ab6-4a4676c0c0e0","ios":"levelo://app?vid=d42c1e2f-0120-49d8-8ab6-4a4676c0c0e0"},"vehicle_type_id":"4","last_reported":1727910547,"current_range_meters":25200,"station_id":"ce4bgvp2rcd13ifvqcu0","pricing_plan_id":"cebpf4jnsgd1na2vs0mg"},{"bike_id":"ab451926-c35c-47e4-9099-c417e33038cb","system_id":"levelo_inurba_marseille","lat":43.31167,"lon":5.38728,"is_reserved":false,"is_disabled":false,"rental_uris":{"android":"levelo://app?vid=ab451926-c35c-47e4-9099-c417e33038cb","ios":"levelo://app?vid=ab451926-c35c-47e4-9099-c417e33038cb"},"vehicle_type_id":"4","last_reported":1727910547,"current_range_meters":38400,"station_id":"ce4bgv12rcd13ifvqcp0","pricing_plan_id":"cebpf4jnsgd1na2vs0mg"},{"bike_id":"0679c212-7bea-4de2-83cb-36518d2c30db","system_id":"levelo_inurba_marseille","lat":43.27567,"lon":5.38425,"is_reserved":false,"is_disabled":false,"rental_uris":{"android":"levelo://app?vid=0679c212-7bea-4de2-83cb-36518d2c30db","ios":"levelo://app?vid=0679c212-7bea-4de2-83cb-36518d2c30db"},"vehicle_type_id":"4","last_reported":1727910547,"current_range_meters":24000,"station_id":"ce4bhh92rcd13ifvqfi0","pricing_plan_id":"cebpf4jnsgd1na2vs0mg"},{"bike_id":"44a0c29e-f923-49c6-ab58-518e409e8b20","system_id":"levelo_inurba_marseille","lat":43.28658,"lon":5.36353,"is_reserved":false,"is_disabled":false,"rental_uris":{"android":"levelo://app?vid=44a0c29e-f923-49c6-ab58-518e409e8b20","ios":"levelo://app?vid=44a0c29e-f923-49c6-ab58-518e409e8b20"},"vehicle_type_id":"4","last_reported":1727910547,"current_range_meters":19600,"station_id":"ce4bhah2rcd13ifvqej0","pricing_plan_id":"cebpf4jnsgd1na2vs0mg"},{"bike_id":"e1a289e3-9a3b-48ca-8adb-3428ce215cfc","system_id":"levelo_inurba_marseille","lat":43.26204,"lon":5.37927,"is_reserved":false,"is_disabled":false,"rental_uris":{"android":"levelo://app?vid=e1a289e3-9a3b-48ca-8adb-3428ce215cfc","ios":"levelo://app?vid=e1a289e3-9a3b-48ca-8adb-3428ce215cfc"},"vehicle_type_id":"4","last_reported":1727910547,"current_range_meters":38800,"station_id":"ce4bhjp2rcd13ifvqg90","pricing_plan_id":"cebpf4jnsgd1na2vs0mg"},{"bike_id":"211017c6-0c0e-45a6-a868-97b9fedaea9b","system_id":"levelo_inurba_marseille","lat":43.29785,"lon":5.37097,"is_reserved":false,"is_disabled":false,"rental_uris":{"android":"levelo://app?vid=211017c6-0c0e-45a6-a868-97b9fedaea9b","ios":"levelo://app?vid=211017c6-0c0e-45a6-a868-97b9fedaea9b"},"vehicle_type_id":"4","last_reported":1727910547,"current_range_meters":28400,"station_id":"ce4bgop2rcd13ifvqc1g","pricing_plan_id":"cebpf4jnsgd1na2vs0mg"},{"bike_id":"e6ffa211-b388-4236-b014-bc8038d48e5f","system_id":"levelo_inurba_marseille","lat":43.2929,"lon":5.40131,"is_reserved":false,"is_disabled":false,"rental_uris":{"android":"levelo://app?vid=e6ffa211-b388-4236-b014-bc8038d48e5f","ios":"levelo://app?vid=e6ffa211-b388-4236-b014-bc8038d48e5f"},"vehicle_type_id":"4","last_reported":1727910547,"current_range_meters":35600,"station_id":"ce4bh312rcd13ifvqdk0","pricing_plan_id":"cebpf4jnsgd1na2vs0mg"},{"bike_id":"f9a001dd-dda8-4793-9023-c66ab8dc3b99","system_id":"levelo_inurba_marseille","lat":43.3171,"lon":5.37766,"is_reserved":false,"is_disabled":false,"rental_uris":{"android":"levelo://app?vid=f9a001dd-dda8-4793-9023-c66ab8dc3b99","ios":"levelo://app?vid=f9a001dd-dda8-4793-9023-c66ab8dc3b99"},"vehicle_type_id":"4","last_reported":1727910547,"current_range_meters":39200,"station_id":"ce4bgth2rcd13ifvqch0","pricing_plan_id":"cebpf4jnsgd1na2vs0mg"},{"bike_id":"48842a5b-c5bf-4751-8ac3-44c25278ff49","system_id":"levelo_inurba_marseille","lat":43.28108,"lon":5.37839,"is_reserved":false,"is_disabled":false,"rental_uris":{"android":"levelo://app?vid=48842a5b-c5bf-4751-8ac3-44c25278ff49","ios":"levelo://app?vid=48842a5b-c5bf-4751-8ac3-44c25278ff49"},"vehicle_type_id":"4","last_reported":1727910547,"current_range_meters":4400,"station_id":"ce4bha12rcd13ifvqee0","pricing_plan_id":"cebpf4jnsgd1na2vs0mg"},{"bike_id":"2b769238-5ec5-4162-b52b-987ddf715384","system_id":"levelo_inurba_marseille","lat":43.308,"lon":5.43522,"is_reserved":false,"is_disabled":false,"rental_uris":{"android":"levelo://app?vid=2b769238-5ec5-4162-b52b-987ddf715384","ios":"levelo://app?vid=2b769238-5ec5-4162-b52b-987ddf715384"},"vehicle_type_id":"4","last_reported":1727910547,"current_range_meters":16400,"station_id":"ce4bhph2rcd13ifvqheg","pricing_plan_id":"cebpf4jnsgd1na2vs0mg"},{"bike_id":"27df8249-41f3-4add-9eaa-d179639b7650","system_id":"levelo_inurba_marseille","lat":43.29553,"lon":5.42289,"is_reserved":false,"is_disabled":false,"rental_uris":{"android":"levelo://app?vid=27df8249-41f3-4add-9eaa-d179639b7650","ios":"levelo://app?vid=27df8249-41f3-4add-9eaa-d179639b7650"},"vehicle_type_id":"4","last_reported":1727910547,"current_range_meters":35600,"station_id":"ce4bhph2rcd13ifvqhdg","pricing_plan_id":"cebpf4jnsgd1na2vs0mg"},{"bike_id":"c8e4ff73-620c-4248-92f7-758d5098242c","system_id":"levelo_inurba_marseille","lat":43.22924,"lon":5.35359,"is_reserved":false,"is_disabled":false,"rental_uris":{"android":"levelo://app?vid=c8e4ff73-620c-4248-92f7-758d5098242c","ios":"levelo://app?vid=c8e4ff73-620c-4248-92f7-758d5098242c"},"vehicle_type_id":"4","last_reported":1727910547,"current_range_meters":30000,"station_id":"cpo3532slgdg3j2ikp40","pricing_plan_id":"cebpf4jnsgd1na2vs0mg"},{"bike_id":"1b6ff049-6d1f-47c9-b2e0-e855181a8541","system_id":"levelo_inurba_marseille","lat":43.24999,"lon":5.38942,"is_reserved":false,"is_disabled":false,"rental_uris":{"android":"levelo://app?vid=1b6ff049-6d1f-47c9-b2e0-e855181a8541","ios":"levelo://app?vid=1b6ff049-6d1f-47c9-b2e0-e855181a8541"},"vehicle_type_id":"4","last_reported":1727910547,"current_range_meters":32400,"station_id":"ce4bhgp2rcd13ifvqfd0","pricing_plan_id":"cebpf4jnsgd1na2vs0mg"},{"bike_id":"8d2eb35c-5c61-4985-991c-67c0c48ef5e8","system_id":"levelo_inurba_marseille","lat":43.30306,"lon":5.36889,"is_reserved":false,"is_disabled":false,"rental_uris":{"android":"levelo://app?vid=8d2eb35c-5c61-4985-991c-67c0c48ef5e8","ios":"levelo://app?vid=8d2eb35c-5c61-4985-991c-67c0c48ef5e8"},"vehicle_type_id":"4","last_reported":1727910547,"current_range_meters":6400,"station_id":"ce4bgqh2rcd13ifvqc5g","pricing_plan_id":"cebpf4jnsgd1na2vs0mg"},{"bike_id":"f05d9877-a5b6-4981-9c11-066c48dfc371","system_id":"levelo_inurba_marseille","lat":43.30427,"lon":5.38881,"is_reserved":false,"is_disabled":false,"rental_uris":{"android":"levelo://app?vid=f05d9877-a5b6-4981-9c11-066c48dfc371","ios":"levelo://app?vid=f05d9877-a5b6-4981-9c11-066c48dfc371"},"vehicle_type_id":"4","last_reported":1727910547,"current_range_meters":39200,"station_id":"ce4bgk12rcd13ifvqbi0","pricing_plan_id":"cebpf4jnsgd1na2vs0mg"},{"bike_id":"2594a4cc-f2ee-4bcf-bf05-a460950beb76","system_id":"levelo_inurba_marseille","lat":43.24995,"lon":5.38936,"is_reserved":false,"is_disabled":false,"rental_uris":{"android":"levelo://app?vid=2594a4cc-f2ee-4bcf-bf05-a460950beb76","ios":"levelo://app?vid=2594a4cc-f2ee-4bcf-bf05-a460950beb76"},"vehicle_type_id":"4","last_reported":1727910547,"current_range_meters":39200,"station_id":"ce4bhgp2rcd13ifvqfd0","pricing_plan_id":"cebpf4jnsgd1na2vs0mg"},{"bike_id":"b6f9f17a-45c4-49ac-872a-3e9ae06d1e3c","system_id":"levelo_inurba_marseille","lat":43.27832,"lon":5.392,"is_reserved":false,"is_disabled":false,"rental_uris":{"android":"levelo://app?vid=b6f9f17a-45c4-49ac-872a-3e9ae06d1e3c","ios":"levelo://app?vid=b6f9f17a-45c4-49ac-872a-3e9ae06d1e3c"},"vehicle_type_id":"4","last_reported":1727910547,"current_range_meters":12400,"station_id":"ce4bhjp2rcd13ifvqga0","pricing_plan_id":"cebpf4jnsgd1na2vs0mg"},{"bike_id":"5925458a-e7ba-442a-919b-c2f0453c8280","system_id":"levelo_inurba_marseille","lat":43.30936,"lon":5.40149,"is_reserved":false,"is_disabled":false,"rental_uris":{"android":"levelo://app?vid=5925458a-e7ba-442a-919b-c2f0453c8280","ios":"levelo://app?vid=5925458a-e7ba-442a-919b-c2f0453c8280"},"vehicle_type_id":"4","last_reported":1727910547,"current_range_meters":38800,"station_id":"ce4bgvp2rcd13ifvqct0","pricing_plan_id":"cebpf4jnsgd1na2vs0mg"},{"bike_id":"ada97698-d425-48f5-978b-22bfa2249aae","system_id":"levelo_inurba_marseille","lat":43.3266,"lon":5.40992,"is_reserved":false,"is_disabled":false,"rental_uris":{"android":"levelo://app?vid=ada97698-d425-48f5-978b-22bfa2249aae","ios":"levelo://app?vid=ada97698-d425-48f5-978b-22bfa2249aae"},"vehicle_type_id":"4","last_reported":1727910547,"current_range_meters":16800,"station_id":"ce4bhpp2rcd13ifvqhgg","pricing_plan_id":"cebpf4jnsgd1na2vs0mg"},{"bike_id":"151fdf4d-fb88-40c5-95db-88049874738d","system_id":"levelo_inurba_marseille","lat":43.31271,"lon":5.40163,"is_reserved":false,"is_disabled":false,"rental_uris":{"android":"levelo://app?vid=151fdf4d-fb88-40c5-95db-88049874738d","ios":"levelo://app?vid=151fdf4d-fb88-40c5-95db-88049874738d"},"vehicle_type_id":"4","last_reported":1727910547,"current_range_meters":39200,"station_id":"ce4bh092rcd13ifvqd30","pricing_plan_id":"cebpf4jnsgd1na2vs0mg"},{"bike_id":"172a6de4-8031-4f2d-9c53-d6f795f45d7e","system_id":"levelo_inurba_marseille","lat":43.28668,"lon":5.3635,"is_reserved":false,"is_disabled":false,"rental_uris":{"android":"levelo://app?vid=172a6de4-8031-4f2d-9c53-d6f795f45d7e","ios":"levelo://app?vid=172a6de4-8031-4f2d-9c53-d6f795f45d7e"},"vehicle_type_id":"4","last_reported":1727910547,"current_range_meters":39200,"station_id":"ce4bhah2rcd13ifvqej0","pricing_plan_id":"cebpf4jnsgd1na2vs0mg"},{"bike_id":"7fd5c868-bea5-4230-9b9e-49d10e465616","system_id":"levelo_inurba_marseille","lat":43.309479,"lon":5.390359,"is_reserved":false,"is_disabled":false,"rental_uris":{"android":"levelo://app?vid=7fd5c868-bea5-4230-9b9e-49d10e465616","ios":"levelo://app?vid=7fd5c868-bea5-4230-9b9e-49d10e465616"},"vehicle_type_id":"4","last_reported":1727910547,"current_range_meters":24000,"station_id":"ce4bgup2rcd13ifvqco0","pricing_plan_id":"cebpf4jnsgd1na2vs0mg"},{"bike_id":"d3db97a8-628e-40cf-8a8d-91828292eef9","system_id":"levelo_inurba_marseille","lat":43.30802,"lon":5.38153,"is_reserved":false,"is_disabled":false,"rental_uris":{"android":"levelo://app?vid=d3db97a8-628e-40cf-8a8d-91828292eef9","ios":"levelo://app?vid=d3db97a8-628e-40cf-8a8d-91828292eef9"},"vehicle_type_id":"4","last_reported":1727910547,"current_range_meters":28400,"station_id":"ce4bgt12rcd13ifvqce0","pricing_plan_id":"cebpf4jnsgd1na2vs0mg"},{"bike_id":"aca3585a-5230-4eb3-a65e-727c519285cd","system_id":"levelo_inurba_marseille","lat":43.32664,"lon":5.40991,"is_reserved":false,"is_disabled":false,"rental_uris":{"android":"levelo://app?vid=aca3585a-5230-4eb3-a65e-727c519285cd","ios":"levelo://app?vid=aca3585a-5230-4eb3-a65e-727c519285cd"},"vehicle_type_id":"4","last_reported":1727910547,"current_range_meters":14400,"station_id":"ce4bhpp2rcd13ifvqhgg","pricing_plan_id":"cebpf4jnsgd1na2vs0mg"},{"bike_id":"f5c5f330-437b-4cb5-a872-f73111964e32","system_id":"levelo_inurba_marseille","lat":43.3089,"lon":5.37184,"is_reserved":false,"is_disabled":false,"rental_uris":{"android":"levelo://app?vid=f5c5f330-437b-4cb5-a872-f73111964e32","ios":"levelo://app?vid=f5c5f330-437b-4cb5-a872-f73111964e32"},"vehicle_type_id":"4","last_reported":1727910547,"current_range_meters":28400,"station_id":"ce4bguh2rcd13ifvqckg","pricing_plan_id":"cebpf4jnsgd1na2vs0mg"},{"bike_id":"ff464913-1fa5-4b84-8f98-d98241a96c46","system_id":"levelo_inurba_marseille","lat":43.31487,"lon":5.37309,"is_reserved":false,"is_disabled":false,"rental_uris":{"android":"levelo://app?vid=ff464913-1fa5-4b84-8f98-d98241a96c46","ios":"levelo://app?vid=ff464913-1fa5-4b84-8f98-d98241a96c46"},"vehicle_type_id":"4","last_reported":1727910547,"current_range_meters":39200,"station_id":"ce4bgt12rcd13ifvqcd0","pricing_plan_id":"cebpf4jnsgd1na2vs0mg"},{"bike_id":"d5999978-d9a1-49d6-b871-bb50b8c8a2b4","system_id":"levelo_inurba_marseille","lat":43.292507,"lon":5.383127,"is_reserved":false,"is_disabled":false,"rental_uris":{"android":"levelo://app?vid=d5999978-d9a1-49d6-b871-bb50b8c8a2b4","ios":"levelo://app?vid=d5999978-d9a1-49d6-b871-bb50b8c8a2b4"},"vehicle_type_id":"4","last_reported":1727910547,"current_range_meters":27600,"station_id":"","pricing_plan_id":"cebpf4jnsgd1na2vs0mg"},{"bike_id":"df1234b7-a348-4ad2-ac0b-e86007921f8d","system_id":"levelo_inurba_marseille","lat":43.24167,"lon":5.36408,"is_reserved":false,"is_disabled":false,"rental_uris":{"android":"levelo://app?vid=df1234b7-a348-4ad2-ac0b-e86007921f8d","ios":"levelo://app?vid=df1234b7-a348-4ad2-ac0b-e86007921f8d"},"vehicle_type_id":"4","last_reported":1727910547,"current_range_meters":38800,"station_id":"cpo36qri1sfpv3e86is0","pricing_plan_id":"cebpf4jnsgd1na2vs0mg"},{"bike_id":"0ad9f8f8-ca80-42a4-9f55-c0ac3f6ded09","system_id":"levelo_inurba_marseille","lat":43.28079,"lon":5.39649,"is_reserved":false,"is_disabled":false,"rental_uris":{"android":"levelo://app?vid=0ad9f8f8-ca80-42a4-9f55-c0ac3f6ded09","ios":"levelo://app?vid=0ad9f8f8-ca80-42a4-9f55-c0ac3f6ded09"},"vehicle_type_id":"4","last_reported":1727910547,"current_range_meters":36400,"station_id":"ce4bho12rcd13ifvqh2g","pricing_plan_id":"cebpf4jnsgd1na2vs0mg"},{"bike_id":"04cba3cc-f090-4d3f-8612-ec77b66c9200","system_id":"levelo_inurba_marseille","lat":43.313661,"lon":5.384962,"is_reserved":false,"is_disabled":false,"rental_uris":{"android":"levelo://app?vid=04cba3cc-f090-4d3f-8612-ec77b66c9200","ios":"levelo://app?vid=04cba3cc-f090-4d3f-8612-ec77b66c9200"},"vehicle_type_id":"4","last_reported":1727910547,"current_range_meters":38800,"station_id":"ce4bgt92rcd13ifvqcf0","pricing_plan_id":"cebpf4jnsgd1na2vs0mg"},{"bike_id":"7bfded05-acf3-4319-a1ac-1cea016a08eb","system_id":"levelo_inurba_marseille","lat":43.30609,"lon":5.37211,"is_reserved":false,"is_disabled":false,"rental_uris":{"android":"levelo://app?vid=7bfded05-acf3-4319-a1ac-1cea016a08eb","ios":"levelo://app?vid=7bfded05-acf3-4319-a1ac-1cea016a08eb"},"vehicle_type_id":"4","last_reported":1727910547,"current_range_meters":36800,"station_id":"ce4bgqh2rcd13ifvqc4g","pricing_plan_id":"cebpf4jnsgd1na2vs0mg"},{"bike_id":"258da59f-73d3-4e22-bd50-5d9d808b4340","system_id":"levelo_inurba_marseille","lat":43.26066,"lon":5.39388,"is_reserved":false,"is_disabled":false,"rental_uris":{"android":"levelo://app?vid=258da59f-73d3-4e22-bd50-5d9d808b4340","ios":"levelo://app?vid=258da59f-73d3-4e22-bd50-5d9d808b4340"},"vehicle_type_id":"4","last_reported":1727910547,"current_range_meters":19600,"station_id":"ce4bhh92rcd13ifvqfj0","pricing_plan_id":"cebpf4jnsgd1na2vs0mg"},{"bike_id":"38677c3c-b9ff-436a-b386-d766bfba54a1","system_id":"levelo_inurba_marseille","lat":43.27997,"lon":5.40007,"is_reserved":false,"is_disabled":false,"rental_uris":{"android":"levelo://app?vid=38677c3c-b9ff-436a-b386-d766bfba54a1","ios":"levelo://app?vid=38677c3c-b9ff-436a-b386-d766bfba54a1"},"vehicle_type_id":"4","last_reported":1727910547,"current_range_meters":33600,"station_id":"ce4bho92rcd13ifvqh4g","pricing_plan_id":"cebpf4jnsgd1na2vs0mg"},{"bike_id":"58463ed2-13c3-48dc-9fd5-efc9d90336aa","system_id":"levelo_inurba_marseille","lat":43.31073,"lon":5.38341,"is_reserved":false,"is_disabled":false,"rental_uris":{"android":"levelo://app?vid=58463ed2-13c3-48dc-9fd5-efc9d90336aa","ios":"levelo://app?vid=58463ed2-13c3-48dc-9fd5-efc9d90336aa"},"vehicle_type_id":"4","last_reported":1727910547,"current_range_meters":10800,"station_id":"ce4bgv92rcd13ifvqcr0","pricing_plan_id":"cebpf4jnsgd1na2vs0mg"},{"bike_id":"54d16307-c546-486b-95c7-fa70e57efb41","system_id":"levelo_inurba_marseille","lat":43.29793,"lon":5.39345,"is_reserved":false,"is_disabled":false,"rental_uris":{"android":"levelo://app?vid=54d16307-c546-486b-95c7-fa70e57efb41","ios":"levelo://app?vid=54d16307-c546-486b-95c7-fa70e57efb41"},"vehicle_type_id":"4","last_reported":1727910547,"current_range_meters":38000,"station_id":"chh1huq6cuj3fo74tm60","pricing_plan_id":"cebpf4jnsgd1na2vs0mg"},{"bike_id":"588610fc-a324-4df8-9499-141a903cebd2","system_id":"levelo_inurba_marseille","lat":43.31713,"lon":5.437,"is_reserved":false,"is_disabled":false,"rental_uris":{"android":"levelo://app?vid=588610fc-a324-4df8-9499-141a903cebd2","ios":"levelo://app?vid=588610fc-a324-4df8-9499-141a903cebd2"},"vehicle_type_id":"4","last_reported":1727910547,"current_range_meters":32000,"station_id":"ce4bhp92rcd13ifvqhcg","pricing_plan_id":"cebpf4jnsgd1na2vs0mg"},{"bike_id":"a5270d38-8392-4ac8-a27f-22a4b6ad7297","system_id":"levelo_inurba_marseille","lat":43.31334,"lon":5.39697,"is_reserved":false,"is_disabled":false,"rental_uris":{"android":"levelo://app?vid=a5270d38-8392-4ac8-a27f-22a4b6ad7297","ios":"levelo://app?vid=a5270d38-8392-4ac8-a27f-22a4b6ad7297"},"vehicle_type_id":"4","last_reported":1727910547,"current_range_meters":40000,"station_id":"ce4bgvp2rcd13ifvqcu0","pricing_plan_id":"cebpf4jnsgd1na2vs0mg"},{"bike_id":"23fcd5dc-52e3-40b6-b601-8da82c35b64a","system_id":"levelo_inurba_marseille","lat":43.232,"lon":5.35549,"is_reserved":false,"is_disabled":false,"rental_uris":{"android":"levelo://app?vid=23fcd5dc-52e3-40b6-b601-8da82c35b64a","ios":"levelo://app?vid=23fcd5dc-52e3-40b6-b601-8da82c35b64a"},"vehicle_type_id":"4","last_reported":1727910547,"current_range_meters":39200,"station_id":"ce4bhu92rcd13ifvqi70","pricing_plan_id":"cebpf4jnsgd1na2vs0mg"},{"bike_id":"8bc8d4b7-f85b-46f3-a580-a5285ba07dab","system_id":"levelo_inurba_marseille","lat":43.23188,"lon":5.39979,"is_reserved":false,"is_disabled":false,"rental_uris":{"android":"levelo://app?vid=8bc8d4b7-f85b-46f3-a580-a5285ba07dab","ios":"levelo://app?vid=8bc8d4b7-f85b-46f3-a580-a5285ba07dab"},"vehicle_type_id":"4","last_reported":1727910547,"current_range_meters":39200,"station_id":"ce4bhn12rcd13ifvqgqg","pricing_plan_id":"cebpf4jnsgd1na2vs0mg"},{"bike_id":"c31b9c32-1716-4eec-aa79-f48f50ec5f06","system_id":"levelo_inurba_marseille","lat":43.23187,"lon":5.39991,"is_reserved":false,"is_disabled":false,"rental_uris":{"android":"levelo://app?vid=c31b9c32-1716-4eec-aa79-f48f50ec5f06","ios":"levelo://app?vid=c31b9c32-1716-4eec-aa79-f48f50ec5f06"},"vehicle_type_id":"4","last_reported":1727910547,"current_range_meters":38800,"station_id":"ce4bhn12rcd13ifvqgqg","pricing_plan_id":"cebpf4jnsgd1na2vs0mg"},{"bike_id":"85bd7558-6d85-4377-a41c-bf41443aa16b","system_id":"levelo_inurba_marseille","lat":43.31359,"lon":5.38496,"is_reserved":false,"is_disabled":false,"rental_uris":{"android":"levelo://app?vid=85bd7558-6d85-4377-a41c-bf41443aa16b","ios":"levelo://app?vid=85bd7558-6d85-4377-a41c-bf41443aa16b"},"vehicle_type_id":"4","last_reported":1727910547,"current_range_meters":9200,"station_id":"ce4bgt92rcd13ifvqcf0","pricing_plan_id":"cebpf4jnsgd1na2vs0mg"},{"bike_id":"449cf1e6-3d4e-41a7-9c2e-23a1ffef0ce4","system_id":"levelo_inurba_marseille","lat":43.2439,"lon":5.37059,"is_reserved":false,"is_disabled":false,"rental_uris":{"android":"levelo://app?vid=449cf1e6-3d4e-41a7-9c2e-23a1ffef0ce4","ios":"levelo://app?vid=449cf1e6-3d4e-41a7-9c2e-23a1ffef0ce4"},"vehicle_type_id":"4","last_reported":1727910547,"current_range_meters":38800,"station_id":"ce4bhhh2rcd13ifvqfk0","pricing_plan_id":"cebpf4jnsgd1na2vs0mg"},{"bike_id":"93b88d3e-05a8-415f-b3f5-d595a042b93c","system_id":"levelo_inurba_marseille","lat":43.32546,"lon":5.41457,"is_reserved":false,"is_disabled":false,"rental_uris":{"android":"levelo://app?vid=93b88d3e-05a8-415f-b3f5-d595a042b93c","ios":"levelo://app?vid=93b88d3e-05a8-415f-b3f5-d595a042b93c"},"vehicle_type_id":"4","last_reported":1727910547,"current_range_meters":38400,"station_id":"ce4bhq12rcd13ifvqhhg","pricing_plan_id":"cebpf4jnsgd1na2vs0mg"},{"bike_id":"a8769ebd-74e9-4824-b75a-07562f2fadcd","system_id":"levelo_inurba_marseille","lat":43.30932,"lon":5.40143,"is_reserved":false,"is_disabled":false,"rental_uris":{"android":"levelo://app?vid=a8769ebd-74e9-4824-b75a-07562f2fadcd","ios":"levelo://app?vid=a8769ebd-74e9-4824-b75a-07562f2fadcd"},"vehicle_type_id":"4","last_reported":1727910547,"current_range_meters":14800,"station_id":"ce4bgvp2rcd13ifvqct0","pricing_plan_id":"cebpf4jnsgd1na2vs0mg"},{"bike_id":"5d859c5d-dff8-4b20-81e1-72960281c79d","system_id":"levelo_inurba_marseille","lat":43.32479,"lon":5.36575,"is_reserved":false,"is_disabled":false,"rental_uris":{"android":"levelo://app?vid=5d859c5d-dff8-4b20-81e1-72960281c79d","ios":"levelo://app?vid=5d859c5d-dff8-4b20-81e1-72960281c79d"},"vehicle_type_id":"4","last_reported":1727910547,"current_range_meters":38400,"station_id":"ce4bhs12rcd13ifvqhvg","pricing_plan_id":"cebpf4jnsgd1na2vs0mg"},{"bike_id":"1ce39c1f-ffa6-47f0-a91a-48ff7de3a9e8","system_id":"levelo_inurba_marseille","lat":43.28459,"lon":5.35893,"is_reserved":false,"is_disabled":false,"rental_uris":{"android":"levelo://app?vid=1ce39c1f-ffa6-47f0-a91a-48ff7de3a9e8","ios":"levelo://app?vid=1ce39c1f-ffa6-47f0-a91a-48ff7de3a9e8"},"vehicle_type_id":"4","last_reported":1727910547,"current_range_meters":12800,"station_id":"ce4bhah2rcd13ifvqei0","pricing_plan_id":"cebpf4jnsgd1na2vs0mg"},{"bike_id":"b0db4ef0-e51c-4c98-ad2a-fd9436246b32","system_id":"levelo_inurba_marseille","lat":43.30816,"lon":5.38161,"is_reserved":false,"is_disabled":false,"rental_uris":{"android":"levelo://app?vid=b0db4ef0-e51c-4c98-ad2a-fd9436246b32","ios":"levelo://app?vid=b0db4ef0-e51c-4c98-ad2a-fd9436246b32"},"vehicle_type_id":"4","last_reported":1727910547,"current_range_meters":24000,"station_id":"ce4bgt12rcd13ifvqce0","pricing_plan_id":"cebpf4jnsgd1na2vs0mg"},{"bike_id":"5b5c89f8-f41a-4786-8824-d1483033f151","system_id":"levelo_inurba_marseille","lat":43.29956,"lon":5.41313,"is_reserved":false,"is_disabled":false,"rental_uris":{"android":"levelo://app?vid=5b5c89f8-f41a-4786-8824-d1483033f151","ios":"levelo://app?vid=5b5c89f8-f41a-4786-8824-d1483033f151"},"vehicle_type_id":"4","last_reported":1727910547,"current_range_meters":18800,"station_id":"ce4bhp12rcd13ifvqh9g","pricing_plan_id":"cebpf4jnsgd1na2vs0mg"},{"bike_id":"c90fe44d-f30a-41b1-889b-18fd360f9607","system_id":"levelo_inurba_marseille","lat":43.28842,"lon":5.35848,"is_reserved":false,"is_disabled":false,"rental_uris":{"android":"levelo://app?vid=c90fe44d-f30a-41b1-889b-18fd360f9607","ios":"levelo://app?vid=c90fe44d-f30a-41b1-889b-18fd360f9607"},"vehicle_type_id":"4","last_reported":1727910547,"current_range_meters":38800,"station_id":"ce4bhb12rcd13ifvqem0","pricing_plan_id":"cebpf4jnsgd1na2vs0mg"},{"bike_id":"1c7b42bf-32d8-4ce8-aa4b-48d5e754dce2","system_id":"levelo_inurba_marseille","lat":43.30325,"lon":5.40438,"is_reserved":false,"is_disabled":false,"rental_uris":{"android":"levelo://app?vid=1c7b42bf-32d8-4ce8-aa4b-48d5e754dce2","ios":"levelo://app?vid=1c7b42bf-32d8-4ce8-aa4b-48d5e754dce2"},"vehicle_type_id":"4","last_reported":1727910547,"current_range_meters":11200,"station_id":"ce4bh012rcd13ifvqd10","pricing_plan_id":"cebpf4jnsgd1na2vs0mg"},{"bike_id":"aa0bfd8b-73da-4d96-972f-1c0ed7f07db4","system_id":"levelo_inurba_marseille","lat":43.294457,"lon":5.381866,"is_reserved":false,"is_disabled":false,"rental_uris":{"android":"levelo://app?vid=aa0bfd8b-73da-4d96-972f-1c0ed7f07db4","ios":"levelo://app?vid=aa0bfd8b-73da-4d96-972f-1c0ed7f07db4"},"vehicle_type_id":"4","last_reported":1727910547,"current_range_meters":13600,"station_id":"ce4bh492rcd13ifvqdug","pricing_plan_id":"cebpf4jnsgd1na2vs0mg"},{"bike_id":"d9513a24-3235-43a7-b9a5-1c5cfe37603f","system_id":"levelo_inurba_marseille","lat":43.23055,"lon":5.35499,"is_reserved":false,"is_disabled":false,"rental_uris":{"android":"levelo://app?vid=d9513a24-3235-43a7-b9a5-1c5cfe37603f","ios":"levelo://app?vid=d9513a24-3235-43a7-b9a5-1c5cfe37603f"},"vehicle_type_id":"4","last_reported":1727910547,"current_range_meters":32800,"station_id":"cpo3342slgdg3j2ifvpg","pricing_plan_id":"cebpf4jnsgd1na2vs0mg"},{"bike_id":"772088a0-7828-4f69-ba5d-0f6cdb83dec2","system_id":"levelo_inurba_marseille","lat":43.337444,"lon":5.374475,"is_reserved":false,"is_disabled":false,"rental_uris":{"android":"levelo://app?vid=772088a0-7828-4f69-ba5d-0f6cdb83dec2","ios":"levelo://app?vid=772088a0-7828-4f69-ba5d-0f6cdb83dec2"},"vehicle_type_id":"4","last_reported":1727910547,"current_range_meters":4000,"station_id":"","pricing_plan_id":"cebpf4jnsgd1na2vs0mg"},{"bike_id":"17e441ff-b276-431a-b65f-f1412d828621","system_id":"levelo_inurba_marseille","lat":43.31169,"lon":5.38707,"is_reserved":false,"is_disabled":false,"rental_uris":{"android":"levelo://app?vid=17e441ff-b276-431a-b65f-f1412d828621","ios":"levelo://app?vid=17e441ff-b276-431a-b65f-f1412d828621"},"vehicle_type_id":"4","last_reported":1727910547,"current_range_meters":22000,"station_id":"ce4bgv12rcd13ifvqcp0","pricing_plan_id":"cebpf4jnsgd1na2vs0mg"},{"bike_id":"b48461c5-d144-4e53-807f-1f47ee839c5d","system_id":"levelo_inurba_marseille","lat":43.31271,"lon":5.40152,"is_reserved":false,"is_disabled":false,"rental_uris":{"android":"levelo://app?vid=b48461c5-d144-4e53-807f-1f47ee839c5d","ios":"levelo://app?vid=b48461c5-d144-4e53-807f-1f47ee839c5d"},"vehicle_type_id":"4","last_reported":1727910547,"current_range_meters":14800,"station_id":"ce4bh092rcd13ifvqd30","pricing_plan_id":"cebpf4jnsgd1na2vs0mg"},{"bike_id":"0d6cdb40-b04c-4ed3-abec-1bcfba714923","system_id":"levelo_inurba_marseille","lat":43.3089,"lon":5.39643,"is_reserved":false,"is_disabled":false,"rental_uris":{"android":"levelo://app?vid=0d6cdb40-b04c-4ed3-abec-1bcfba714923","ios":"levelo://app?vid=0d6cdb40-b04c-4ed3-abec-1bcfba714923"},"vehicle_type_id":"4","last_reported":1727910547,"current_range_meters":38000,"station_id":"ce4bh012rcd13ifvqcv0","pricing_plan_id":"cebpf4jnsgd1na2vs0mg"},{"bike_id":"89f79560-9417-4d80-afea-9f3796d9baaf","system_id":"levelo_inurba_marseille","lat":43.337444,"lon":5.374475,"is_reserved":false,"is_disabled":false,"rental_uris":{"android":"levelo://app?vid=89f79560-9417-4d80-afea-9f3796d9baaf","ios":"levelo://app?vid=89f79560-9417-4d80-afea-9f3796d9baaf"},"vehicle_type_id":"4","last_reported":1727910547,"current_range_meters":12800,"station_id":"","pricing_plan_id":"cebpf4jnsgd1na2vs0mg"},{"bike_id":"d26d7f17-eeee-47b4-8421-0dadb9414eaf","system_id":"levelo_inurba_marseille","lat":43.28711,"lon":5.39974,"is_reserved":false,"is_disabled":false,"rental_uris":{"android":"levelo://app?vid=d26d7f17-eeee-47b4-8421-0dadb9414eaf","ios":"levelo://app?vid=d26d7f17-eeee-47b4-8421-0dadb9414eaf"},"vehicle_type_id":"4","last_reported":1727910547,"current_range_meters":25600,"station_id":"ce4bho92rcd13ifvqh3g","pricing_plan_id":"cebpf4jnsgd1na2vs0mg"},{"bike_id":"3f13e87b-2fc8-4c13-97ff-89bff5a566de","system_id":"levelo_inurba_marseille","lat":43.30647,"lon":5.40077,"is_reserved":false,"is_disabled":false,"rental_uris":{"android":"levelo://app?vid=3f13e87b-2fc8-4c13-97ff-89bff5a566de","ios":"levelo://app?vid=3f13e87b-2fc8-4c13-97ff-89bff5a566de"},"vehicle_type_id":"4","last_reported":1727910547,"current_range_meters":38000,"station_id":"ce4bh112rcd13ifvqda0","pricing_plan_id":"cebpf4jnsgd1na2vs0mg"},{"bike_id":"a2f49ae4-e038-4718-9ffc-62d025d8585e","system_id":"levelo_inurba_marseille","lat":43.299686,"lon":5.384859,"is_reserved":false,"is_disabled":false,"rental_uris":{"android":"levelo://app?vid=a2f49ae4-e038-4718-9ffc-62d025d8585e","ios":"levelo://app?vid=a2f49ae4-e038-4718-9ffc-62d025d8585e"},"vehicle_type_id":"4","last_reported":1727910547,"current_range_meters":38000,"station_id":"ce4bhop2rcd13ifvqh8g","pricing_plan_id":"cebpf4jnsgd1na2vs0mg"},{"bike_id":"382fecf2-4e14-4bf1-8471-456a0a5af13f","system_id":"levelo_inurba_marseille","lat":43.31077,"lon":5.38345,"is_reserved":false,"is_disabled":false,"rental_uris":{"android":"levelo://app?vid=382fecf2-4e14-4bf1-8471-456a0a5af13f","ios":"levelo://app?vid=382fecf2-4e14-4bf1-8471-456a0a5af13f"},"vehicle_type_id":"4","last_reported":1727910547,"current_range_meters":28400,"station_id":"ce4bgv92rcd13ifvqcr0","pricing_plan_id":"cebpf4jnsgd1na2vs0mg"},{"bike_id":"34ef6c5d-a901-4648-89ea-e9f18291da2e","system_id":"levelo_inurba_marseille","lat":43.31532,"lon":5.3803,"is_reserved":false,"is_disabled":false,"rental_uris":{"android":"levelo://app?vid=34ef6c5d-a901-4648-89ea-e9f18291da2e","ios":"levelo://app?vid=34ef6c5d-a901-4648-89ea-e9f18291da2e"},"vehicle_type_id":"4","last_reported":1727910547,"current_range_meters":39200,"station_id":"ce4bhsp2rcd13ifvqi50","pricing_plan_id":"cebpf4jnsgd1na2vs0mg"},{"bike_id":"690de1ae-55a3-4612-a4d6-f4fc6a1327b7","system_id":"levelo_inurba_marseille","lat":43.31333,"lon":5.39696,"is_reserved":false,"is_disabled":false,"rental_uris":{"android":"levelo://app?vid=690de1ae-55a3-4612-a4d6-f4fc6a1327b7","ios":"levelo://app?vid=690de1ae-55a3-4612-a4d6-f4fc6a1327b7"},"vehicle_type_id":"4","last_reported":1727910547,"current_range_meters":38800,"station_id":"ce4bgvp2rcd13ifvqcu0","pricing_plan_id":"cebpf4jnsgd1na2vs0mg"},{"bike_id":"d16c4aea-47c5-4f92-9b60-c8b0af8a4c9f","system_id":"levelo_inurba_marseille","lat":43.28727,"lon":5.36089,"is_reserved":false,"is_disabled":false,"rental_uris":{"android":"levelo://app?vid=d16c4aea-47c5-4f92-9b60-c8b0af8a4c9f","ios":"levelo://app?vid=d16c4aea-47c5-4f92-9b60-c8b0af8a4c9f"},"vehicle_type_id":"4","last_reported":1727910547,"current_range_meters":38400,"station_id":"cki0cbj6b192h4jlfktg","pricing_plan_id":"cebpf4jnsgd1na2vs0mg"},{"bike_id":"2b0693c0-ad8d-424c-befa-3b85cb467101","system_id":"levelo_inurba_marseille","lat":43.279911,"lon":5.416655,"is_reserved":false,"is_disabled":false,"rental_uris":{"android":"levelo://app?vid=2b0693c0-ad8d-424c-befa-3b85cb467101","ios":"levelo://app?vid=2b0693c0-ad8d-424c-befa-3b85cb467101"},"vehicle_type_id":"4","last_reported":1727910547,"current_range_meters":30000,"station_id":"ce4bho12rcd13ifvqh1g","pricing_plan_id":"cebpf4jnsgd1na2vs0mg"},