{"last_updated":1746194998,"ttl":60,"version":"2.2","data":{"bikes":[{"bike_id":"8da37596-f1f7-4ced-ac5f-0e4c72e7b113","system_id":"levelo_inurba_marseille","lat":43.25493,"lon":5.3765,"is_reserved":false,"is_disabled":false,"rental_uris":{"android":"levelo://app?vid=8da37596-f1f7-4ced-ac5f-0e4c72e7b113","ios":"levelo://app?vid=8da37596-f1f7-4ced-ac5f-0e4c72e7b113"},"vehicle_type_id":"4","last_reported":1746194998,"current_range_meters":2800,"station_id":"ce4bhh12rcd13ifvqff0","pricing_plan_id":"cebpf4jnsgd1na2vs0mg"},{"bike_id":"5ce3a451-544b-45f2-a54c-324c70693935","system_id":"levelo_inurba_marseille","lat":43.29541,"lon":5.39386,"is_reserved":false,"is_disabled":false,"rental_uris":{"android":"levelo://app?vid=5ce3a451-544b-45f2-a54c-324c70693935","ios":"levelo://app?vid=5ce3a451-544b-45f2-a54c-324c70693935"},"vehicle_type_id":"4","last_reported":1746194998,"current_range_meters":2800,"station_id":"ce4bh292rcd13ifvqdf0","pricing_plan_id":"cebpf4jnsgd1na2vs0mg"},{"bike_id":"2ea37281-f2e9-4b17-8da0-479ca416e5ef","system_id":"levelo_inurba_marseille","lat":43.28423,"lon":5.34979,"is_reserved":false,"is_disabled":true,"rental_uris":{"android":"levelo://app?vid=2ea37281-f2e9-4b17-8da0-479ca416e5ef","ios":"levelo://app?vid=2ea37281-f2e9-4b17-8da0-479ca416e5ef"},"vehicle_type_id":"4","last_reported":1746194998,"current_range_meters":2800,"station_id":"ce4bhbh2rcd13ifvqepg","pricing_plan_id":"cebpf4jnsgd1na2vs0mg"},{"bike_id":"2ca8a754-0bf8-41d3-999b-d4611119f711","system_id":"levelo_inurba_marseille","lat":43.28414,"lon":5.3751,"is_reserved":false,"is_disabled":false,"rental_uris":{"android":"levelo://app?vid=2ca8a754-0bf8-41d3-999b-d4611119f711","ios":"levelo://app?vid=2ca8a754-0bf8-41d3-999b-d4611119f711"},"vehicle_type_id":"4","last_reported":1746194998,"current_range_meters":2800,"station_id":"ce4bh412rcd13ifvqds0","pricing_plan_id":"cebpf4jnsgd1na2vs0mg"},{"bike_id":"56bbb980-e029-4c0c-a35a-bcbc7ebeff82","system_id":"levelo_inurba_marseille","lat":43.21755,"lon":5.34608,"is_reserved":false,"is_disabled":false,"rental_uris":{"android":"levelo://app?vid=56bbb980-e029-4c0c-a35a-bcbc7ebeff82","ios":"levelo://app?vid=56bbb980-e029-4c0c-a35a-bcbc7ebeff82"},"vehicle_type_id":"4","last_reported":1746194998,"current_range_meters":2800,"station_id":"st_cvj6r9ubvosntc0bgbag","pricing_plan_id":"cebpf4jnsgd1na2vs0mg"},{"bike_id":"7340a9c3-edea-47bd-a14d-b1fc59a198ca","system_id":"levelo_inurba_marseille","lat":43.21746,"lon":5.34606,"is_reserved":false,"is_disabled":false,"rental_uris":{"android":"levelo://app?vid=7340a9c3-edea-47bd-a14d-b1fc59a198ca","ios":"levelo://app?vid=7340a9c3-edea-47bd-a14d-b1fc59a198ca"},"vehicle_type_id":"4","last_reported":1746194998,"current_range_meters":2800,"station_id":"st_cvj6r9ubvosntc0bgbag","pricing_plan_id":"cebpf4jnsgd1na2vs0mg"},{"bike_id":"08cff566-33a2-49d1-b832-98c1edd4237a","system_id":"levelo_inurba_marseille","lat":43.31215,"lon":5.36873,"is_reserved":false,"is_disabled":false,"rental_uris":{"android":"levelo://app?vid=08cff566-33a2-49d1-b832-98c1edd4237a","ios":"levelo://app?vid=08cff566-33a2-49d1-b832-98c1edd4237a"},"vehicle_type_id":"4","last_reported":1746194998,"current_range_meters":2800,"station_id":"ce4bgl92rcd13ifvqbq0","pricing_plan_id":"cebpf4jnsgd1na2vs0mg"},{"bike_id":"432ecfe7-ebf2-40dc-8690-86ca95e3fb39","system_id":"levelo_inurba_marseille","lat":43.30645,"lon":5.40075,"is_reserved":false,"is_disabled":false,"rental_uris":{"android":"levelo://app?vid=432ecfe7-ebf2-40dc-8690-86ca95e3fb39","ios":"levelo://app?vid=432ecfe7-ebf2-40dc-8690-86ca95e3fb39"},"vehicle_type_id":"4","last_reported":1746194998,"current_range_meters":2800,"station_id":"ce4bh112rcd13ifvqda0","pricing_plan_id":"cebpf4jnsgd1na2vs0mg"},{"bike_id":"6611ec79-cdd7-4c20-8982-a731ba453a26","system_id":"levelo_inurba_marseille","lat":43.292786,"lon":5.368555,"is_reserved":false,"is_disabled":false,"rental_uris":{"android":"levelo://app?vid=6611ec79-cdd7-4c20-8982-a731ba453a26","ios":"levelo://app?vid=6611ec79-cdd7-4c20-8982-a731ba453a26"},"vehicle_type_id":"4","last_reported":1746194998,"current_range_meters":2800,"station_id":"ce4bhbp2rcd13ifvqesg","pricing_plan_id":"cebpf4jnsgd1na2vs0mg"},{"bike_id":"3b879ac6-0910-4a6a-88fd-dbdebcb04acb","system_id":"levelo_inurba_marseille","lat":43.250066,"lon":5.389141,"is_reserved":false,"is_disabled":false,"rental_uris":{"android":"levelo://app?vid=3b879ac6-0910-4a6a-88fd-dbdebcb04acb","ios":"levelo://app?vid=3b879ac6-0910-4a6a-88fd-dbdebcb04acb"},"vehicle_type_id":"4","last_reported":1746194998,"current_range_meters":2800,"station_id":"ce4bhgp2rcd13ifvqfd0","pricing_plan_id":"cebpf4jnsgd1na2vs0mg"},{"bike_id":"c2cd0c51-0cf8-4823-b355-28c2953dcb9d","system_id":"levelo_inurba_marseille","lat":43.28851,"lon":5.35843,"is_reserved":false,"is_disabled":false,"rental_uris":{"android":"levelo://app?vid=c2cd0c51-0cf8-4823-b355-28c2953dcb9d","ios":"levelo://app?vid=c2cd0c51-0cf8-4823-b355-28c2953dcb9d"},"vehicle_type_id":"4","last_reported":1746194998,"current_range_meters":3200,"station_id":"ce4bhb12rcd13ifvqem0","pricing_plan_id":"cebpf4jnsgd1na2vs0mg"},{"bike_id":"0f1848bd-c672-42af-ae03-b21cb21df874","system_id":"levelo_inurba_marseille","lat":43.27971,"lon":5.38742,"is_reserved":false,"is_disabled":false,"rental_uris":{"android":"levelo://app?vid=0f1848bd-c672-42af-ae03-b21cb21df874","ios":"levelo://app?vid=0f1848bd-c672-42af-ae03-b21cb21df874"},"vehicle_type_id":"4","last_reported":1746194998,"current_range_meters":3200,"station_id":"ce4bhg12rcd13ifvqf80","pricing_plan_id":"cebpf4jnsgd1na2vs0mg"},{"bike_id":"b00350fd-1154-4094-b21b-392456a99114","system_id":"levelo_inurba_marseille","lat":43.3117,"lon":5.38714,"is_reserved":false,"is_disabled":false,"rental_uris":{"android":"levelo://app?vid=b00350fd-1154-4094-b21b-392456a99114","ios":"levelo://app?vid=b00350fd-1154-4094-b21b-392456a99114"},"vehicle_type_id":"4","last_reported":1746194998,"current_range_meters":3200,"station_id":"ce4bgv12rcd13ifvqcp0","pricing_plan_id":"cebpf4jnsgd1na2vs0mg"},{"bike_id":"f78e6e2a-8107-47fb-b969-25345ac001d6","system_id":"levelo_inurba_marseille","lat":43.30032,"lon":5.3781,"is_reserved":false,"is_disabled":false,"rental_uris":{"android":"levelo://app?vid=f78e6e2a-8107-47fb-b969-25345ac001d6","ios":"levelo://app?vid=f78e6e2a-8107-47fb-b969-25345ac001d6"},"vehicle_type_id":"4","last_reported":1746194998,"current_range_meters":3200,"station_id":"","pricing_plan_id":"cebpf4jnsgd1na2vs0mg"},{"bike_id":"c5484127-186f-4960-84a0-0420fd5139c8","system_id":"levelo_inurba_marseille","lat":43.25868,"lon":5.39896,"is_reserved":false,"is_disabled":false,"rental_uris":{"android":"levelo://app?vid=c5484127-186f-4960-84a0-0420fd5139c8","ios":"levelo://app?vid=c5484127-186f-4960-84a0-0420fd5139c8"},"vehicle_type_id":"4","last_reported":1746194998,"current_range_meters":0,"station_id":"ce4bhl92rcd13ifvqghg","pricing_plan_id":"cebpf4jnsgd1na2vs0mg"},{"bike_id":"41649255-c38b-42cb-ae7f-67f2787c354c","system_id":"levelo_inurba_marseille","lat":43.237684,"lon":5.435708,"is_reserved":false,"is_disabled":false,"rental_uris":{"android":"levelo://app?vid=41649255-c38b-42cb-ae7f-67f2787c354c","ios":"levelo://app?vid=41649255-c38b-42cb-ae7f-67f2787c354c"},"vehicle_type_id":"4","last_reported":1746194998,"current_range_meters":3600,"station_id":"","pricing_plan_id":"cebpf4jnsgd1na2vs0mg"},{"bike_id":"633e43b9-7d5f-40a5-99be-85247782696f","system_id":"levelo_inurba_marseille","lat":43.269259,"lon":5.389024,"is_reserved":false,"is_disabled":false,"rental_uris":{"android":"levelo://app?vid=633e43b9-7d5f-40a5-99be-85247782696f","ios":"levelo://app?vid=633e43b9-7d5f-40a5-99be-85247782696f"},"vehicle_type_id":"4","last_reported":1746194998,"current_range_meters":3600,"station_id":"ce4bhhh2rcd13ifvqfl0","pricing_plan_id":"cebpf4jnsgd1na2vs0mg"},{"bike_id":"6d452d87-7a42-4c28-b9a5-ab17353038a8","system_id":"levelo_inurba_marseille","lat":43.27986,"lon":5.399914,"is_reserved":false,"is_disabled":false,"rental_uris":{"android":"levelo://app?vid=6d452d87-7a42-4c28-b9a5-ab17353038a8","ios":"levelo://app?vid=6d452d87-7a42-4c28-b9a5-ab17353038a8"},"vehicle_type_id":"4","last_reported":1746194998,"current_range_meters":3600,"station_id":"ce4bho92rcd13ifvqh4g","pricing_plan_id":"cebpf4jnsgd1na2vs0mg"},{"bike_id":"75e8d16e-b7fe-4a5b-b2be-9e55ea4832ec","system_id":"levelo_inurba_marseille","lat":43.21748,"lon":5.34593,"is_reserved":false,"is_disabled":false,"rental_uris":{"android":"levelo://app?vid=75e8d16e-b7fe-4a5b-b2be-9e55ea4832ec","ios":"levelo://app?vid=75e8d16e-b7fe-4a5b-b2be-9e55ea4832ec"},"vehicle_type_id":"4","last_reported":1746194998,"current_range_meters":4000,"station_id":"st_cvj6r9ubvosntc0bgbag","pricing_plan_id":"cebpf4jnsgd1na2vs0mg"},{"bike_id":"24de4004-1899-4b32-aa2c-72c514455668","system_id":"levelo_inurba_marseille","lat":43.29234,"lon":5.36071,"is_reserved":false,"is_disabled":false,"rental_uris":{"android":"levelo://app?vid=24de4004-1899-4b32-aa2c-72c514455668","ios":"levelo://app?vid=24de4004-1899-4b32-aa2c-72c514455668"},"vehicle_type_id":"4","last_reported":1746194998,"current_range_meters":3600,"station_id":"ce4bhbh2rcd13ifvqeqg","pricing_plan_id":"cebpf4jnsgd1na2vs0mg"},{"bike_id":"748a8f18-ef88-414e-b61c-ff3222f3dce5","system_id":"levelo_inurba_marseille","lat":43.25833,"lon":5.39431,"is_reserved":false,"is_disabled":false,"rental_uris":{"android":"levelo://app?vid=748a8f18-ef88-414e-b61c-ff3222f3dce5","ios":"levelo://app?vid=748a8f18-ef88-414e-b61c-ff3222f3dce5"},"vehicle_type_id":"4","last_reported":1746194998,"current_range_meters":3600,"station_id":"ce4bhip2rcd13ifvqft0","pricing_plan_id":"cebpf4jnsgd1na2vs0mg"},{"bike_id":"da8c85d2-ee14-408f-a395-569edf20f8da","system_id":"levelo_inurba_marseille","lat":43.29319,"lon":5.37462,"is_reserved":false,"is_disabled":false,"rental_uris":{"android":"levelo://app?vid=da8c85d2-ee14-408f-a395-569edf20f8da","ios":"levelo://app?vid=da8c85d2-ee14-408f-a395-569edf20f8da"},"vehicle_type_id":"4","last_reported":1746194998,"current_range_meters":4400,"station_id":"ce4bgi12rcd13ifvqb70","pricing_plan_id":"cebpf4jnsgd1na2vs0mg"},{"bike_id":"fae8b33f-1157-4db8-8314-a86fdfd23a5b","system_id":"levelo_inurba_marseille","lat":43.2419,"lon":5.39716,"is_reserved":false,"is_disabled":false,"rental_uris":{"android":"levelo://app?vid=fae8b33f-1157-4db8-8314-a86fdfd23a5b","ios":"levelo://app?vid=fae8b33f-1157-4db8-8314-a86fdfd23a5b"},"vehicle_type_id":"4","last_reported":1746194998,"current_range_meters":4000,"station_id":"ce4bhn12rcd13ifvqgpg","pricing_plan_id":"cebpf4jnsgd1na2vs0mg"},{"bike_id":"07d5c6f2-0826-414c-b0e5-05d17867d3aa","system_id":"levelo_inurba_marseille","lat":43.27817,"lon":5.40709,"is_reserved":false,"is_disabled":false,"rental_uris":{"android":"levelo://app?vid=07d5c6f2-0826-414c-b0e5-05d17867d3aa","ios":"levelo://app?vid=07d5c6f2-0826-414c-b0e5-05d17867d3aa"},"vehicle_type_id":"4","last_reported":1746194998,"current_range_meters":4000,"station_id":"ce4bhnh2rcd13ifvqgtg","pricing_plan_id":"cebpf4jnsgd1na2vs0mg"},{"bike_id":"3a998d5b-5eee-4c10-8c09-0553c81a8a23","system_id":"levelo_inurba_marseille","lat":43.298907,"lon":5.371871,"is_reserved":false,"is_disabled":false,"rental_uris":{"android":"levelo://app?vid=3a998d5b-5eee-4c10-8c09-0553c81a8a23","ios":"levelo://app?vid=3a998d5b-5eee-4c10-8c09-0553c81a8a23"},"vehicle_type_id":"4","last_reported":1746194998,"current_range_meters":4000,"station_id":"ce4bgr92rcd13ifvqc7g","pricing_plan_id":"cebpf4jnsgd1na2vs0mg"},{"bike_id":"399bf48f-1976-4b2c-bc9e-5144731a8108","system_id":"levelo_inurba_marseille","lat":43.25822,"lon":5.39429,"is_reserved":false,"is_disabled":false,"rental_uris":{"android":"levelo://app?vid=399bf48f-1976-4b2c-bc9e-5144731a8108","ios":"levelo://app?vid=399bf48f-1976-4b2c-bc9e-5144731a8108"},"vehicle_type_id":"4","last_reported":1746194998,"current_range_meters":4000,"station_id":"ce4bhip2rcd13ifvqft0","pricing_plan_id":"cebpf4jnsgd1na2vs0mg"},{"bike_id":"6771dd09-b404-419b-ab6c-f910e3921e23","system_id":"levelo_inurba_marseille","lat":43.31329,"lon":5.39697,"is_reserved":false,"is_disabled":false,"rental_uris":{"android":"levelo://app?vid=6771dd09-b404-419b-ab6c-f910e3921e23","ios":"levelo://app?vid=6771dd09-b404-419b-ab6c-f910e3921e23"},"vehicle_type_id":"4","last_reported":1746194998,"current_range_meters":4000,"station_id":"ce4bgvp2rcd13ifvqcu0","pricing_plan_id":"cebpf4jnsgd1na2vs0mg"},{"bike_id":"51e61032-b613-4f90-9654-94fe071c5465","system_id":"levelo_inurba_marseille","lat":43.29367,"lon":5.37848,"is_reserved":false,"is_disabled":false,"rental_uris":{"android":"levelo://app?vid=51e61032-b613-4f90-9654-94fe071c5465","ios":"levelo://app?vid=51e61032-b613-4f90-9654-94fe071c5465"},"vehicle_type_id":"4","last_reported":1746194998,"current_range_meters":4000,"station_id":"ce4bgjh2rcd13ifvqbf0","pricing_plan_id":"cebpf4jnsgd1na2vs0mg"},{"bike_id":"a850e1bb-fea5-4b09-9b38-0ccab92eb4cd","system_id":"levelo_inurba_marseille","lat":43.30104,"lon":5.39075,"is_reserved":false,"is_disabled":false,"rental_uris":{"android":"levelo://app?vid=a850e1bb-fea5-4b09-9b38-0ccab92eb4cd","ios":"levelo://app?vid=a850e1bb-fea5-4b09-9b38-0ccab92eb4cd"},"vehicle_type_id":"4","last_reported":1746194998,"current_range_meters":4000,"station_id":"ce4bh192rcd13ifvqdb0","pricing_plan_id":"cebpf4jnsgd1na2vs0mg"},{"bike_id":"865e2607-ebed-4908-8c76-c04277384a7a","system_id":"levelo_inurba_marseille","lat":43.24168,"lon":5.3639,"is_reserved":false,"is_disabled":false,"rental_uris":{"android":"levelo://app?vid=865e2607-ebed-4908-8c76-c04277384a7a","ios":"levelo://app?vid=865e2607-ebed-4908-8c76-c04277384a7a"},"vehicle_type_id":"4","last_reported":1746194998,"current_range_meters":4000,"station_id":"cpo36qri1sfpv3e86is0","pricing_plan_id":"cebpf4jnsgd1na2vs0mg"},{"bike_id":"297f44af-e476-4f0e-8e57-d444d8f43f98","system_id":"levelo_inurba_marseille","lat":43.29897,"lon":5.43669,"is_reserved":false,"is_disabled":false,"rental_uris":{"android":"levelo://app?vid=297f44af-e476-4f0e-8e57-d444d8f43f98","ios":"levelo://app?vid=297f44af-e476-4f0e-8e57-d444d8f43f98"},"vehicle_type_id":"4","last_reported":1746194998,"current_range_meters":4000,"station_id":"ce4bhpp2rcd13ifvqhfg","pricing_plan_id":"cebpf4jnsgd1na2vs0mg"},{"bike_id":"58c86802-196a-42d5-9a56-5d5b7e1c17d5","system_id":"levelo_inurba_marseille","lat":43.297892,"lon":5.370979,"is_reserved":false,"is_disabled":false,"rental_uris":{"android":"levelo://app?vid=58c86802-196a-42d5-9a56-5d5b7e1c17d5","ios":"levelo://app?vid=58c86802-196a-42d5-9a56-5d5b7e1c17d5"},"vehicle_type_id":"4","last_reported":1746194998,"current_range_meters":4400,"station_id":"ce4bh092rcd13ifvqd20","pricing_plan_id":"cebpf4jnsgd1na2vs0mg"},{"bike_id":"eddb7215-cb5d-48fc-9cd0-5f9c9ad2f356","system_id":"levelo_inurba_marseille","lat":43.28576,"lon":5.39494,"is_reserved":false,"is_disabled":false,"rental_uris":{"android":"levelo://app?vid=eddb7215-cb5d-48fc-9cd0-5f9c9ad2f356","ios":"levelo://app?vid=eddb7215-cb5d-48fc-9cd0-5f9c9ad2f356"},"vehicle_type_id":"4","last_reported":1746194998,"current_range_meters":4800,"station_id":"ce4bh292rcd13ifvqdg0","pricing_plan_id":"cebpf4jnsgd1na2vs0mg"},{"bike_id":"55d95711-9d9f-4e1a-b91e-ff4f90f98f77","system_id":"levelo_inurba_marseille","lat":43.23161,"lon":5.43707,"is_reserved":false,"is_disabled":false,"rental_uris":{"android":"levelo://app?vid=55d95711-9d9f-4e1a-b91e-ff4f90f98f77","ios":"levelo://app?vid=55d95711-9d9f-4e1a-b91e-ff4f90f98f77"},"vehicle_type_id":"4","last_reported":1746194998,"current_range_meters":4800,"station_id":"ce4bhmp2rcd13ifvqgog","pricing_plan_id":"cebpf4jnsgd1na2vs0mg"},{"bike_id":"4f166089-66d8-4597-bdbf-85158b6123ec","system_id":"levelo_inurba_marseille","lat":43.273193,"lon":5.390982,"is_reserved":false,"is_disabled":false,"rental_uris":{"android":"levelo://app?vid=4f166089-66d8-4597-bdbf-85158b6123ec","ios":"levelo://app?vid=4f166089-66d8-4597-bdbf-85158b6123ec"},"vehicle_type_id":"4","last_reported":1746194998,"current_range_meters":4800,"station_id":"ce4bhgp2rcd13ifvqfe0","pricing_plan_id":"cebpf4jnsgd1na2vs0mg"},{"bike_id":"25aec79d-3b25-4be7-bdb9-54d9b508bc59","system_id":"levelo_inurba_marseille","lat":43.24184,"lon":5.39724,"is_reserved":false,"is_disabled":false,"rental_uris":{"android":"levelo://app?vid=25aec79d-3b25-4be7-bdb9-54d9b508bc59","ios":"levelo://app?vid=25aec79d-3b25-4be7-bdb9-54d9b508bc59"},"vehicle_type_id":"4","last_reported":1746194998,"current_range_meters":4800,"station_id":"ce4bhn12rcd13ifvqgpg","pricing_plan_id":"cebpf4jnsgd1na2vs0mg"},{"bike_id":"5efbcf12-30e8-490e-967d-c7cd8a8ae32b","system_id":"levelo_inurba_marseille","lat":43.28943,"lon":5.36632,"is_reserved":false,"is_disabled":false,"rental_uris":{"android":"levelo://app?vid=5efbcf12-30e8-490e-967d-c7cd8a8ae32b","ios":"levelo://app?vid=5efbcf12-30e8-490e-967d-c7cd8a8ae32b"},"vehicle_type_id":"4","last_reported":1746194998,"current_range_meters":5600,"station_id":"ce4bhap2rcd13ifvqek0","pricing_plan_id":"cebpf4jnsgd1na2vs0mg"},{"bike_id":"44f8f7a7-959b-47c9-ad37-e076db7b2b31","system_id":"levelo_inurba_marseille","lat":43.25511,"lon":5.37646,"is_reserved":false,"is_disabled":false,"rental_uris":{"android":"levelo://app?vid=44f8f7a7-959b-47c9-ad37-e076db7b2b31","ios":"levelo://app?vid=44f8f7a7-959b-47c9-ad37-e076db7b2b31"},"vehicle_type_id":"4","last_reported":1746194998,"current_range_meters":5600,"station_id":"ce4bhh12rcd13ifvqff0","pricing_plan_id":"cebpf4jnsgd1na2vs0mg"},{"bike_id":"0f2f1a08-37fd-4f19-90dd-7c877b7cc52b","system_id":"levelo_inurba_marseille","lat":43.31389,"lon":5.36658,"is_reserved":false,"is_disabled":false,"rental_uris":{"android":"levelo://app?vid=0f2f1a08-37fd-4f19-90dd-7c877b7cc52b","ios":"levelo://app?vid=0f2f1a08-37fd-4f19-90dd-7c877b7cc52b"},"vehicle_type_id":"4","last_reported":1746194998,"current_range_meters":5600,"station_id":"","pricing_plan_id":"cebpf4jnsgd1na2vs0mg"},{"bike_id":"db10cd7e-3e0a-472e-87f7-aa9546154033","system_id":"levelo_inurba_marseille","lat":43.24657,"lon":5.38896,"is_reserved":false,"is_disabled":false,"rental_uris":{"android":"levelo://app?vid=db10cd7e-3e0a-472e-87f7-aa9546154033","ios":"levelo://app?vid=db10cd7e-3e0a-472e-87f7-aa9546154033"},"vehicle_type_id":"4","last_reported":1746194998,"current_range_meters":5600,"station_id":"ce4bhg12rcd13ifvqf60","pricing_plan_id":"cebpf4jnsgd1na2vs0mg"},{"bike_id":"71ee7904-1889-466d-aca3-021d20ba194a","system_id":"levelo_inurba_marseille","lat":43.21187,"lon":5.35062,"is_reserved":false,"is_disabled":false,"rental_uris":{"android":"levelo://app?vid=71ee7904-1889-466d-aca3-021d20ba194a","ios":"levelo://app?vid=71ee7904-1889-466d-aca3-021d20ba194a"},"vehicle_type_id":"4","last_reported":1746194998,"current_range_meters":6000,"station_id":"st_cvj6sg6p6f1abm77japg","pricing_plan_id":"cebpf4jnsgd1na2vs0mg"},{"bike_id":"2e49f20b-1bed-49e8-a411-c042e8bb707a","system_id":"levelo_inurba_marseille","lat":43.28942,"lon":5.36639,"is_reserved":false,"is_disabled":false,"rental_uris":{"android":"levelo://app?vid=2e49f20b-1bed-49e8-a411-c042e8bb707a","ios":"levelo://app?vid=2e49f20b-1bed-49e8-a411-c042e8bb707a"},"vehicle_type_id":"4","last_reported":1746194998,"current_range_meters":6000,"station_id":"ce4bhap2rcd13ifvqek0","pricing_plan_id":"cebpf4jnsgd1na2vs0mg"},{"bike_id":"59c7f05b-6848-433a-8798-ddb26d6afc61","system_id":"levelo_inurba_marseille","lat":43.32046,"lon":5.415405,"is_reserved":false,"is_disabled":false,"rental_uris":{"android":"levelo://app?vid=59c7f05b-6848-433a-8798-ddb26d6afc61","ios":"levelo://app?vid=59c7f05b-6848-433a-8798-ddb26d6afc61"},"vehicle_type_id":"4","last_reported":1746194998,"current_range_meters":6400,"station_id":"ce4bhq92rcd13ifvqhkg","pricing_plan_id":"cebpf4jnsgd1na2vs0mg"},{"bike_id":"3a1d6d57-f7f2-46df-83ac-332cd17112dc","system_id":"levelo_inurba_marseille","lat":43.27815,"lon":5.40714,"is_reserved":false,"is_disabled":false,"rental_uris":{"android":"levelo://app?vid=3a1d6d57-f7f2-46df-83ac-332cd17112dc","ios":"levelo://app?vid=3a1d6d57-f7f2-46df-83ac-332cd17112dc"},"vehicle_type_id":"4","last_reported":1746194998,"current_range_meters":6400,"station_id":"ce4bhnh2rcd13ifvqgtg","pricing_plan_id":"cebpf4jnsgd1na2vs0mg"},{"bike_id":"1b2e2850-a89a-4902-8497-548cd422a4f7","system_id":"levelo_inurba_marseille","lat":43.29964,"lon":5.38503,"is_reserved":false,"is_disabled":false,"rental_uris":{"android":"levelo://app?vid=1b2e2850-a89a-4902-8497-548cd422a4f7","ios":"levelo://app?vid=1b2e2850-a89a-4902-8497-548cd422a4f7"},"vehicle_type_id":"4","last_reported":1746194998,"current_range_meters":6800,"station_id":"ce4bgj92rcd13ifvqbd0","pricing_plan_id":"cebpf4jnsgd1na2vs0mg"},{"bike_id":"fa4707dd-4ab8-4249-a5fe-9acaf623b85e","system_id":"levelo_inurba_marseille","lat":43.21191,"lon":5.35069,"is_reserved":false,"is_disabled":false,"rental_uris":{"android":"levelo://app?vid=fa4707dd-4ab8-4249-a5fe-9acaf623b85e","ios":"levelo://app?vid=fa4707dd-4ab8-4249-a5fe-9acaf623b85e"},"vehicle_type_id":"4","last_reported":1746194998,"current_range_meters":6400,"station_id":"st_cvj6sg6p6f1abm77japg","pricing_plan_id":"cebpf4jnsgd1na2vs0mg"},{"bike_id":"1a622d24-cc42-440f-a0dd-a38c0f1e6ea5","system_id":"levelo_inurba_marseille","lat":43.27562,"lon":5.38433,"is_reserved":false,"is_disabled":false,"rental_uris":{"android":"levelo://app?vid=1a622d24-cc42-440f-a0dd-a38c0f1e6ea5","ios":"levelo://app?vid=1a622d24-cc42-440f-a0dd-a38c0f1e6ea5"},"vehicle_type_id":"4","last_reported":1746194998,"current_range_meters":2000,"station_id":"ce4bhh92rcd13ifvqfi0","pricing_plan_id":"cebpf4jnsgd1na2vs0mg"},{"bike_id":"51ef9827-05d4-4f72-abc3-c6fec8c5a095","system_id":"levelo_inurba_marseille","lat":43.23155,"lon":5.43718,"is_reserved":false,"is_disabled":false,"rental_uris":{"android":"levelo://app?vid=51ef9827-05d4-4f72-abc3-c6fec8c5a095","ios":"levelo://app?vid=51ef9827-05d4-4f72-abc3-c6fec8c5a095"},"vehicle_type_id":"4","last_reported":1746194998,"current_range_meters":6400,"station_id":"ce4bhmp2rcd13ifvqgog","pricing_plan_id":"cebpf4jnsgd1na2vs0mg"},{"bike_id":"a8eb67cf-775f-4e9a-ae77-209c90c8b411","system_id":"levelo_inurba_marseille","lat":43.283975,"lon":5.38473,"is_reserved":false,"is_disabled":false,"rental_uris":{"android":"levelo://app?vid=a8eb67cf-775f-4e9a-ae77-209c90c8b411","ios":"levelo://app?vid=a8eb67cf-775f-4e9a-ae77-209c90c8b411"},"vehicle_type_id":"4","last_reported":1746194998,"current_range_meters":6400,"station_id":"ce4bh512rcd13ifvqe3g","pricing_plan_id":"cebpf4jnsgd1na2vs0mg"},{"bike_id":"1a0ecb50-5feb-4eb5-a0d9-43372784f410","system_id":"levelo_inurba_marseille","lat":43.26558,"lon":5.37282,"is_reserved":false,"is_disabled":false,"rental_uris":{"android":"levelo://app?vid=1a0ecb50-5feb-4eb5-a0d9-43372784f410","ios":"levelo://app?vid=1a0ecb50-5feb-4eb5-a0d9-43372784f410"},"vehicle_type_id":"4","last_reported":1746194998,"current_range_meters":6400,"station_id":"ce4bhg12rcd13ifvqf70","pricing_plan_id":"cebpf4jnsgd1na2vs0mg"},{"bike_id":"db4caad7-173f-409a-8b73-029d4fe9abc5","system_id":"levelo_inurba_marseille","lat":43.29512,"lon":5.378592,"is_reserved":false,"is_disabled":false,"rental_uris":{"android":"levelo://app?vid=db4caad7-173f-409a-8b73-029d4fe9abc5","ios":"levelo://app?vid=db4caad7-173f-409a-8b73-029d4fe9abc5"},"vehicle_type_id":"4","last_reported":1746194998,"current_range_meters":6400,"station_id":"ce4bgt12rcd13ifvqce0","pricing_plan_id":"cebpf4jnsgd1na2vs0mg"},{"bike_id":"a3983be5-b997-42b4-850b-3b3ba69f436a","system_id":"levelo_inurba_marseille","lat":43.28613,"lon":5.35099,"is_reserved":false,"is_disabled":false,"rental_uris":{"android":"levelo://app?vid=a3983be5-b997-42b4-850b-3b3ba69f436a","ios":"levelo://app?vid=a3983be5-b997-42b4-850b-3b3ba69f436a"},"vehicle_type_id":"4","last_reported":1746194998,"current_range_meters":6400,"station_id":"ce4bhch2rcd13ifvqeug","pricing_plan_id":"cebpf4jnsgd1na2vs0mg"},{"bike_id":"53f0d9d8-c992-4e20-81f5-6effe987b4fa","system_id":"levelo_inurba_marseille","lat":43.298968,"lon":5.43675,"is_reserved":false,"is_disabled":false,"rental_uris":{"android":"levelo://app?vid=53f0d9d8-c992-4e20-81f5-6effe987b4fa","ios":"levelo://app?vid=53f0d9d8-c992-4e20-81f5-6effe987b4fa"},"vehicle_type_id":"4","last_reported":1746194998,"current_range_meters":6400,"station_id":"","pricing_plan_id":"cebpf4jnsgd1na2vs0mg"},{"bike_id":"e7620d04-086d-41c3-8722-b8d9fdef4154","system_id":"levelo_inurba_marseille","lat":43.28579,"lon":5.395,"is_reserved":false,"is_disabled":false,"rental_uris":{"android":"levelo://app?vid=e7620d04-086d-41c3-8722-b8d9fdef4154","ios":"levelo://app?vid=e7620d04-086d-41c3-8722-b8d9fdef4154"},"vehicle_type_id":"4","last_reported":1746194998,"current_range_meters":6800,"station_id":"ce4bh292rcd13ifvqdg0","pricing_plan_id":"cebpf4jnsgd1na2vs0mg"},{"bike_id":"d4b503c5-5df4-4abf-850f-542266f8918d","system_id":"levelo_inurba_marseille","lat":43.24552,"lon":5.3952,"is_reserved":false,"is_disabled":false,"rental_uris":{"android":"levelo://app?vid=d4b503c5-5df4-4abf-850f-542266f8918d","ios":"levelo://app?vid=d4b503c5-5df4-4abf-850f-542266f8918d"},"vehicle_type_id":"4","last_reported":1746194998,"current_range_meters":6800,"station_id":"ce4bhlp2rcd13ifvqgjg","pricing_plan_id":"cebpf4jnsgd1na2vs0mg"},{"bike_id":"c4f24027-fcaf-4621-8ee3-8e2bae79d705","system_id":"levelo_inurba_marseille","lat":43.28442,"lon":5.39201,"is_reserved":false,"is_disabled":false,"rental_uris":{"android":"levelo://app?vid=c4f24027-fcaf-4621-8ee3-8e2bae79d705","ios":"levelo://app?vid=c4f24027-fcaf-4621-8ee3-8e2bae79d705"},"vehicle_type_id":"4","last_reported":1746194998,"current_range_meters":6800,"station_id":"ce4bhoh2rcd13ifvqh5g","pricing_plan_id":"cebpf4jnsgd1na2vs0mg"},{"bike_id":"0a36ccdb-2240-4a9f-a260-a53f54d55586","system_id":"levelo_inurba_marseille","lat":43.2679,"lon":5.39413,"is_reserved":false,"is_disabled":false,"rental_uris":{"android":"levelo://app?vid=0a36ccdb-2240-4a9f-a260-a53f54d55586","ios":"levelo://app?vid=0a36ccdb-2240-4a9f-a260-a53f54d55586"},"vehicle_type_id":"4","last_reported":1746194998,"current_range_meters":6800,"station_id":"ce4bhh12rcd13ifvqfg0","pricing_plan_id":"cebpf4jnsgd1na2vs0mg"},{"bike_id":"551cd518-188b-45bc-9f33-a7246f834727","system_id":"levelo_inurba_marseille","lat":43.25111,"lon":5.40316,"is_reserved":false,"is_disabled":false,"rental_uris":{"android":"levelo://app?vid=551cd518-188b-45bc-9f33-a7246f834727","ios":"levelo://app?vid=551cd518-188b-45bc-9f33-a7246f834727"},"vehicle_type_id":"4","last_reported":1746194998,"current_range_meters":6800,"station_id":"ce4bhlh2rcd13ifvqgig","pricing_plan_id":"cebpf4jnsgd1na2vs0mg"},{"bike_id":"83be4428-ec08-4297-8210-9fc3ce50f5ef","system_id":"levelo_inurba_marseille","lat":43.28621,"lon":5.35105,"is_reserved":false,"is_disabled":false,"rental_uris":{"android":"levelo://app?vid=83be4428-ec08-4297-8210-9fc3ce50f5ef","ios":"levelo://app?vid=83be4428-ec08-4297-8210-9fc3ce50f5ef"},"vehicle_type_id":"4","last_reported":1746194998,"current_range_meters":6800,"station_id":"ce4bhch2rcd13ifvqeug","pricing_plan_id":"cebpf4jnsgd1na2vs0mg"},{"bike_id":"6d5db93a-97fa-4f8c-9d4e-2c6cd13b93ee","system_id":"levelo_inurba_marseille","lat":43.29626,"lon":5.37168,"is_reserved":false,"is_disabled":false,"rental_uris":{"android":"levelo://app?vid=6d5db93a-97fa-4f8c-9d4e-2c6cd13b93ee","ios":"levelo://app?vid=6d5db93a-97fa-4f8c-9d4e-2c6cd13b93ee"},"vehicle_type_id":"4","last_reported":1746194998,"current_range_meters":6800,"station_id":"ce4bgnh2rcd13ifvqc0g","pricing_plan_id":"cebpf4jnsgd1na2vs0mg"},{"bike_id":"bce3562b-174b-48de-aae4-609534f04011","system_id":"levelo_inurba_marseille","lat":43.28614,"lon":5.35101,"is_reserved":false,"is_disabled":false,"rental_uris":{"android":"levelo://app?vid=bce3562b-174b-48de-aae4-609534f04011","ios":"levelo://app?vid=bce3562b-174b-48de-aae4-609534f04011"},"vehicle_type_id":"4","last_reported":1746194998,"current_range_meters":7200,"station_id":"ce4bhch2rcd13ifvqeug","pricing_plan_id":"cebpf4jnsgd1na2vs0mg"},{"bike_id":"b09b2787-da51-47bd-bdc1-606d4f20403e","system_id":"levelo_inurba_marseille","lat":43.25501,"lon":5.37649,"is_reserved":false,"is_disabled":false,"rental_uris":{"android":"levelo://app?vid=b09b2787-da51-47bd-bdc1-606d4f20403e","ios":"levelo://app?vid=b09b2787-da51-47bd-bdc1-606d4f20403e"},"vehicle_type_id":"4","last_reported":1746194998,"current_range_meters":7200,"station_id":"ce4bhh12rcd13ifvqff0","pricing_plan_id":"cebpf4jnsgd1na2vs0mg"},{"bike_id":"4b0be8cc-08fc-44b8-b082-b119a4daba55","system_id":"levelo_inurba_marseille","lat":43.295735,"lon":5.367366,"is_reserved":false,"is_disabled":false,"rental_uris":{"android":"levelo://app?vid=4b0be8cc-08fc-44b8-b082-b119a4daba55","ios":"levelo://app?vid=4b0be8cc-08fc-44b8-b082-b119a4daba55"},"vehicle_type_id":"4","last_reported":1746194998,"current_range_meters":8800,"station_id":"ce4bgph2rcd13ifvqc2g","pricing_plan_id":"cebpf4jnsgd1na2vs0mg"},{"bike_id":"602aae40-1967-482f-9722-74d243c3f5b2","system_id":"levelo_inurba_marseille","lat":43.27675,"lon":5.38876,"is_reserved":false,"is_disabled":false,"rental_uris":{"android":"levelo://app?vid=602aae40-1967-482f-9722-74d243c3f5b2","ios":"levelo://app?vid=602aae40-1967-482f-9722-74d243c3f5b2"},"vehicle_type_id":"4","last_reported":1746194998,"current_range_meters":7200,"station_id":"ce4bhi12rcd13ifvqfo0","pricing_plan_id":"cebpf4jnsgd1na2vs0mg"},{"bike_id":"78feac2a-4a0d-44e9-abb8-535a02a47062","system_id":"levelo_inurba_marseille","lat":43.31765,"lon":5.39028,"is_reserved":false,"is_disabled":false,"rental_uris":{"android":"levelo://app?vid=78feac2a-4a0d-44e9-abb8-535a02a47062","ios":"levelo://app?vid=78feac2a-4a0d-44e9-abb8-535a02a47062"},"vehicle_type_id":"4","last_reported":1746194998,"current_range_meters":7200,"station_id":"ce4bhqp2rcd13ifvqhng","pricing_plan_id":"cebpf4jnsgd1na2vs0mg"},{"bike_id":"360a4ab1-6b00-4a21-b4a6-1da0aefb7721","system_id":"levelo_inurba_marseille","lat":43.27329,"lon":5.39087,"is_reserved":false,"is_disabled":false,"rental_uris":{"android":"levelo://app?vid=360a4ab1-6b00-4a21-b4a6-1da0aefb7721","ios":"levelo://app?vid=360a4ab1-6b00-4a21-b4a6-1da0aefb7721"},"vehicle_type_id":"4","last_reported":1746194998,"current_range_meters":7200,"station_id":"ce4bhgp2rcd13ifvqfe0","pricing_plan_id":"cebpf4jnsgd1na2vs0mg"},{"bike_id":"8c82aae3-7371-4db9-bb54-1f5b09b09d92","system_id":"levelo_inurba_marseille","lat":43.27317,"lon":5.39113,"is_reserved":false,"is_disabled":false,"rental_uris":{"android":"levelo://app?vid=8c82aae3-7371-4db9-bb54-1f5b09b09d92","ios":"levelo://app?vid=8c82aae3-7371-4db9-bb54-1f5b09b09d92"},"vehicle_type_id":"4","last_reported":1746194998,"current_range_meters":6800,"station_id":"ce4bhgp2rcd13ifvqfe0","pricing_plan_id":"cebpf4jnsgd1na2vs0mg"},{"bike_id":"5cda05c5-33c9-4109-89c1-36d218dc0d5f","system_id":"levelo_inurba_marseille","lat":43.31708,"lon":5.40465,"is_reserved":false,"is_disabled":false,"rental_uris":{"android":"levelo://app?vid=5cda05c5-33c9-4109-89c1-36d218dc0d5f","ios":"levelo://app?vid=5cda05c5-33c9-4109-89c1-36d218dc0d5f"},"vehicle_type_id":"4","last_reported":1746194998,"current_range_meters":7200,"station_id":"ce4bh012rcd13ifvqd00","pricing_plan_id":"cebpf4jnsgd1na2vs0mg"},{"bike_id":"e0c69642-153a-4cdf-94dd-e50d7657b75d","system_id":"levelo_inurba_marseille","lat":43.31701,"lon":5.40478,"is_reserved":false,"is_disabled":false,"rental_uris":{"android":"levelo://app?vid=e0c69642-153a-4cdf-94dd-e50d7657b75d","ios":"levelo://app?vid=e0c69642-153a-4cdf-94dd-e50d7657b75d"},"vehicle_type_id":"4","last_reported":1746194998,"current_range_meters":8000,"station_id":"ce4bh012rcd13ifvqd00","pricing_plan_id":"cebpf4jnsgd1na2vs0mg"},{"bike_id":"48d1e66d-ba3e-4e42-a4c3-1dd1475b4242","system_id":"levelo_inurba_marseille","lat":43.28161,"lon":5.42645,"is_reserved":false,"is_disabled":false,"rental_uris":{"android":"levelo://app?vid=48d1e66d-ba3e-4e42-a4c3-1dd1475b4242","ios":"levelo://app?vid=48d1e66d-ba3e-4e42-a4c3-1dd1475b4242"},"vehicle_type_id":"4","last_reported":1746194998,"current_range_meters":8000,"station_id":"ce4bhnh2rcd13ifvqgug","pricing_plan_id":"cebpf4jnsgd1na2vs0mg"},{"bike_id":"af8b0ceb-24b6-4298-a740-eb046bb3aebb","system_id":"levelo_inurba_marseille","lat":43.22919,"lon":5.35373,"is_reserved":false,"is_disabled":false,"rental_uris":{"android":"levelo://app?vid=af8b0ceb-24b6-4298-a740-eb046bb3aebb","ios":"levelo://app?vid=af8b0ceb-24b6-4298-a740-eb046bb3aebb"},"vehicle_type_id":"4","last_reported":1746194998,"current_range_meters":8000,"station_id":"cpo3532slgdg3j2ikp40","pricing_plan_id":"cebpf4jnsgd1na2vs0mg"},{"bike_id":"bf3c2668-426a-4833-a57a-b7c5a282ae64","system_id":"levelo_inurba_marseille","lat":43.32366,"lon":5.38883,"is_reserved":false,"is_disabled":false,"rental_uris":{"android":"levelo://app?vid=bf3c2668-426a-4833-a57a-b7c5a282ae64","ios":"levelo://app?vid=bf3c2668-426a-4833-a57a-b7c5a282ae64"},"vehicle_type_id":"4","last_reported":1746194998,"current_range_meters":8400,"station_id":"ce4bhqp2rcd13ifvqhog","pricing_plan_id":"cebpf4jnsgd1na2vs0mg"},{"bike_id":"daf5ff31-0a9d-4d99-9bf1-dd325ff6390e","system_id":"levelo_inurba_marseille","lat":43.2314,"lon":5.43712,"is_reserved":false,"is_disabled":false,"rental_uris":{"android":"levelo://app?vid=daf5ff31-0a9d-4d99-9bf1-dd325ff6390e","ios":"levelo://app?vid=daf5ff31-0a9d-4d99-9bf1-dd325ff6390e"},"vehicle_type_id":"4","last_reported":1746194998,"current_range_meters":8400,"station_id":"ce4bhmp2rcd13ifvqgog","pricing_plan_id":"cebpf4jnsgd1na2vs0mg"},{"bike_id":"eae53119-b28d-445a-a67d-cbc73f1fd38d","system_id":"levelo_inurba_marseille","lat":43.2514,"lon":5.40314,"is_reserved":false,"is_disabled":false,"rental_uris":{"android":"levelo://app?vid=eae53119-b28d-445a-a67d-cbc73f1fd38d","ios":"levelo://app?vid=eae53119-b28d-445a-a67d-cbc73f1fd38d"},"vehicle_type_id":"4","last_reported":1746194998,"current_range_meters":8400,"station_id":"ce4bhlh2rcd13ifvqgig","pricing_plan_id":"cebpf4jnsgd1na2vs0mg"},{"bike_id":"aa9b7669-e2a6-44a5-96f3-36d30574f1ec","system_id":"levelo_inurba_marseille","lat":43.28414,"lon":5.3498,"is_reserved":false,"is_disabled":false,"rental_uris":{"android":"levelo://app?vid=aa9b7669-e2a6-44a5-96f3-36d30574f1ec","ios":"levelo://app?vid=aa9b7669-e2a6-44a5-96f3-36d30574f1ec"},"vehicle_type_id":"4","last_reported":1746194998,"current_range_meters":8400,"station_id":"ce4bhbh2rcd13ifvqepg","pricing_plan_id":"cebpf4jnsgd1na2vs0mg"},{"bike_id":"0af4aa0d-0584-4252-95d9-41890d2e4e0d","system_id":"levelo_inurba_marseille","lat":43.29903,"lon":5.43667,"is_reserved":false,"is_disabled":false,"rental_uris":{"android":"levelo://app?vid=0af4aa0d-0584-4252-95d9-41890d2e4e0d","ios":"levelo://app?vid=0af4aa0d-0584-4252-95d9-41890d2e4e0d"},"vehicle_type_id":"4","last_reported":1746194998,"current_range_meters":8400,"station_id":"ce4bhpp2rcd13ifvqhfg","pricing_plan_id":"cebpf4jnsgd1na2vs0mg"},{"bike_id":"7971fe93-5f1d-4a59-8508-b415e64fcb18","system_id":"levelo_inurba_marseille","lat":43.30931,"lon":5.37355,"is_reserved":false,"is_disabled":false,"rental_uris":{"android":"levelo://app?vid=7971fe93-5f1d-4a59-8508-b415e64fcb18","ios":"levelo://app?vid=7971fe93-5f1d-4a59-8508-b415e64fcb18"},"vehicle_type_id":"4","last_reported":1746194998,"current_range_meters":8400,"station_id":"","pricing_plan_id":"cebpf4jnsgd1na2vs0mg"},{"bike_id":"2b450ddb-5695-4546-8d57-541a4b87925f","system_id":"levelo_inurba_marseille","lat":43.32364,"lon":5.36758,"is_reserved":false,"is_disabled":false,"rental_uris":{"android":"levelo://app?vid=2b450ddb-5695-4546-8d57-541a4b87925f","ios":"levelo://app?vid=2b450ddb-5695-4546-8d57-541a4b87925f"},"vehicle_type_id":"4","last_reported":1746194998,"current_range_meters":8800,"station_id":"ce4bhsh2rcd13ifvqi2g","pricing_plan_id":"cebpf4jnsgd1na2vs0mg"},{"bike_id":"0d6c5100-7db5-44d0-b9d6-cf2b96014798","system_id":"levelo_inurba_marseille","lat":43.31004,"lon":5.37515,"is_reserved":false,"is_disabled":false,"rental_uris":{"android":"levelo://app?vid=0d6c5100-7db5-44d0-b9d6-cf2b96014798","ios":"levelo://app?vid=0d6c5100-7db5-44d0-b9d6-cf2b96014798"},"vehicle_type_id":"4","last_reported":1746194998,"current_range_meters":8800,"station_id":"","pricing_plan_id":"cebpf4jnsgd1na2vs0mg"},{"bike_id":"4a6851f9-34fb-48f6-8387-4b9c13325bed","system_id":"levelo_inurba_marseille","lat":43.32107,"lon":5.367659,"is_reserved":false,"is_disabled":false,"rental_uris":{"android":"levelo://app?vid=4a6851f9-34fb-48f6-8387-4b9c13325bed","ios":"levelo://app?vid=4a6851f9-34fb-48f6-8387-4b9c13325bed"},"vehicle_type_id":"4","last_reported":1746194998,"current_range_meters":8800,"station_id":"ce4bhrh2rcd13ifvqhug","pricing_plan_id":"cebpf4jnsgd1na2vs0mg"},{"bike_id":"4d945cf9-f22a-473a-9e51-5d84312217af","system_id":"levelo_inurba_marseille","lat":43.25113,"lon":5.40322,"is_reserved":false,"is_disabled":false,"rental_uris":{"android":"levelo://app?vid=4d945cf9-f22a-473a-9e51-5d84312217af","ios":"levelo://app?vid=4d945cf9-f22a-473a-9e51-5d84312217af"},"vehicle_type_id":"4","last_reported":1746194998,"current_range_meters":8800,"station_id":"ce4bhlh2rcd13ifvqgig","pricing_plan_id":"cebpf4jnsgd1na2vs0mg"},{"bike_id":"ba1291bf-568d-477b-8e17-c284858000b8","system_id":"levelo_inurba_marseille","lat":43.33782,"lon":5.3748,"is_reserved":false,"is_disabled":false,"rental_uris":{"android":"levelo://app?vid=ba1291bf-568d-477b-8e17-c284858000b8","ios":"levelo://app?vid=ba1291bf-568d-477b-8e17-c284858000b8"},"vehicle_type_id":"4","last_reported":1746194998,"current_range_meters":8800,"station_id":"","pricing_plan_id":"cebpf4jnsgd1na2vs0mg"},{"bike_id":"73c4d8ea-1ebc-42bf-8573-5a58fc065d70","system_id":"levelo_inurba_marseille","lat":43.292823,"lon":5.368336,"is_reserved":false,"is_disabled":false,"rental_uris":{"android":"levelo://app?vid=73c4d8ea-1ebc-42bf-8573-5a58fc065d70","ios":"levelo://app?vid=73c4d8ea-1ebc-42bf-8573-5a58fc065d70"},"vehicle_type_id":"4","last_reported":1746194998,"current_range_meters":8800,"station_id":"ce4bh9p2rcd13ifvqed0","pricing_plan_id":"cebpf4jnsgd1na2vs0mg"},{"bike_id":"29a83445-0753-40f4-8ed7-c02207f310e3","system_id":"levelo_inurba_marseille","lat":43.28328,"lon":5.38489,"is_reserved":false,"is_disabled":false,"rental_uris":{"android":"levelo://app?vid=29a83445-0753-40f4-8ed7-c02207f310e3","ios":"levelo://app?vid=29a83445-0753-40f4-8ed7-c02207f310e3"},"vehicle_type_id":"4","last_reported":1746194998,"current_range_meters":8800,"station_id":"","pricing_plan_id":"cebpf4jnsgd1na2vs0mg"},{"bike_id":"eeb14b8a-a954-4a77-8472-f9e030471564","system_id":"levelo_inurba_marseille","lat":43.25497,"lon":5.3765,"is_reserved":false,"is_disabled":false,"rental_uris":{"android":"levelo://app?vid=eeb14b8a-a954-4a77-8472-f9e030471564","ios":"levelo://app?vid=eeb14b8a-a954-4a77-8472-f9e030471564"},"vehicle_type_id":"4","last_reported":1746194998,"current_range_meters":8800,"station_id":"ce4bhh12rcd13ifvqff0","pricing_plan_id":"cebpf4jnsgd1na2vs0mg"},{"bike_id":"1ed85654-b48d-45c0-bfe2-89b189e82905","system_id":"levelo_inurba_marseille","lat":43.25498,"lon":5.37648,"is_reserved":false,"is_disabled":false,"rental_uris":{"android":"levelo://app?vid=1ed85654-b48d-45c0-bfe2-89b189e82905","ios":"levelo://app?vid=1ed85654-b48d-45c0-bfe2-89b189e82905"},"vehicle_type_id":"4","last_reported":1746194998,"current_range_meters":9200,"station_id":"ce4bhh12rcd13ifvqff0","pricing_plan_id":"cebpf4jnsgd1na2vs0mg"},{"bike_id":"d579d95c-28c2-47b7-b5d8-c9bc0ec32e17","system_id":"levelo_inurba_marseille","lat":43.24393,"lon":5.37064,"is_reserved":false,"is_disabled":false,"rental_uris":{"android":"levelo://app?vid=d579d95c-28c2-47b7-b5d8-c9bc0ec32e17","ios":"levelo://app?vid=d579d95c-28c2-47b7-b5d8-c9bc0ec32e17"},"vehicle_type_id":"4","last_reported":1746194998,"current_range_meters":12400,"station_id":"ce4bhhh2rcd13ifvqfk0","pricing_plan_id":"cebpf4jnsgd1na2vs0mg"},{"bike_id":"0ea231ce-7ecd-4a56-bffc-ead008eb8622","system_id":"levelo_inurba_marseille","lat":43.27205,"lon":5.39192,"is_reserved":false,"is_disabled":false,"rental_uris":{"android":"levelo://app?vid=0ea231ce-7ecd-4a56-bffc-ead008eb8622","ios":"levelo://app?vid=0ea231ce-7ecd-4a56-bffc-ead008eb8622"},"vehicle_type_id":"4","last_reported":1746194998,"current_range_meters":9200,"station_id":"ce4bhhp2rcd13ifvqfm0","pricing_plan_id":"cebpf4jnsgd1na2vs0mg"},{"bike_id":"27553d84-f48e-489e-b8e0-bb7468b335cb","system_id":"levelo_inurba_marseille","lat":43.30139,"lon":5.38066,"is_reserved":false,"is_disabled":false,"rental_uris":{"android":"levelo://app?vid=27553d84-f48e-489e-b8e0-bb7468b335cb","ios":"levelo://app?vid=27553d84-f48e-489e-b8e0-bb7468b335cb"},"vehicle_type_id":"4","last_reported":1746194998,"current_range_meters":9200,"station_id":"ce4bgjp2rcd13ifvqbh0","pricing_plan_id":"cebpf4jnsgd1na2vs0mg"},{"bike_id":"61d2320d-4c8f-4299-b780-3b5214d5df7f","system_id":"levelo_inurba_marseille","lat":43.28938,"lon":5.36366,"is_reserved":false,"is_disabled":false,"rental_uris":{"android":"levelo://app?vid=61d2320d-4c8f-4299-b780-3b5214d5df7f","ios":"levelo://app?vid=61d2320d-4c8f-4299-b780-3b5214d5df7f"},"vehicle_type_id":"4","last_reported":1746194998,"current_range_meters":9200,"station_id":"ce4bhc92rcd13ifvqetg","pricing_plan_id":"cebpf4jnsgd1na2vs0mg"},{"bike_id":"2e13aaf8-827d-4f7d-af3d-a5b9c64ffdd5","system_id":"levelo_inurba_marseille","lat":43.31375,"lon":5.38492,"is_reserved":false,"is_disabled":false,"rental_uris":{"android":"levelo://app?vid=2e13aaf8-827d-4f7d-af3d-a5b9c64ffdd5","ios":"levelo://app?vid=2e13aaf8-827d-4f7d-af3d-a5b9c64ffdd5"},"vehicle_type_id":"4","last_reported":1746194998,"current_range_meters":9200,"station_id":"ce4bgt92rcd13ifvqcf0","pricing_plan_id":"cebpf4jnsgd1na2vs0mg"},{"bike_id":"bb7114ce-f444-41f6-8645-6c03823734a4","system_id":"levelo_inurba_marseille","lat":43.29627,"lon":5.37171,"is_reserved":false,"is_disabled":false,"rental_uris":{"android":"levelo://app?vid=bb7114ce-f444-41f6-8645-6c03823734a4","ios":"levelo://app?vid=bb7114ce-f444-41f6-8645-6c03823734a4"},"vehicle_type_id":"4","last_reported":1746194998,"current_range_meters":9600,"station_id":"ce4bgnh2rcd13ifvqc0g","pricing_plan_id":"cebpf4jnsgd1na2vs0mg"},{"bike_id":"d133981e-aa9f-45e2-8af9-d0de66d4d9cb","system_id":"levelo_inurba_marseille","lat":43.28439,"lon":5.39188,"is_reserved":false,"is_disabled":false,"rental_uris":{"android":"levelo://app?vid=d133981e-aa9f-45e2-8af9-d0de66d4d9cb","ios":"levelo://app?vid=d133981e-aa9f-45e2-8af9-d0de66d4d9cb"},"vehicle_type_id":"4","last_reported":1746194998,"current_range_meters":9200,"station_id":"ce4bhoh2rcd13ifvqh5g","pricing_plan_id":"cebpf4jnsgd1na2vs0mg"},{"bike_id":"2cbe9895-b61a-4e10-84d6-1db3b08d20aa","system_id":"levelo_inurba_marseille","lat":43.31758,"lon":5.39012,"is_reserved":false,"is_disabled":false,"rental_uris":{"android":"levelo://app?vid=2cbe9895-b61a-4e10-84d6-1db3b08d20aa","ios":"levelo://app?vid=2cbe9895-b61a-4e10-84d6-1db3b08d20aa"},"vehicle_type_id":"4","last_reported":1746194998,"current_range_meters":9600,"station_id":"ce4bhqp2rcd13ifvqhng","pricing_plan_id":"cebpf4jnsgd1na2vs0mg"},{"bike_id":"92e5043b-01a2-4509-be90-1738977e8e29","system_id":"levelo_inurba_marseille","lat":43.26778,"lon":5.39408,"is_reserved":false,"is_disabled":false,"rental_uris":{"android":"levelo://app?vid=92e5043b-01a2-4509-be90-1738977e8e29","ios":"levelo://app?vid=92e5043b-01a2-4509-be90-1738977e8e29"},"vehicle_type_id":"4","last_reported":1746194998,"current_range_meters":9600,"station_id":"ce4bhh12rcd13ifvqfg0","pricing_plan_id":"cebpf4jnsgd1na2vs0mg"},{"bike_id":"045b2767-67d3-41b7-8618-6d27646a5585","system_id":"levelo_inurba_marseille","lat":43.317083,"lon":5.386475,"is_reserved":false,"is_disabled":false,"rental_uris":{"android":"levelo://app?vid=045b2767-67d3-41b7-8618-6d27646a5585","ios":"levelo://app?vid=045b2767-67d3-41b7-8618-6d27646a5585"},"vehicle_type_id":"4","last_reported":1746194998,"current_range_meters":9600,"station_id":"","pricing_plan_id":"cebpf4jnsgd1na2vs0mg"},{"bike_id":"cfd9d347-ec3c-4047-abbd-ec7a19b6697b","system_id":"levelo_inurba_marseille","lat":43.3234,"lon":5.40625,"is_reserved":false,"is_disabled":false,"rental_uris":{"android":"levelo://app?vid=cfd9d347-ec3c-4047-abbd-ec7a19b6697b","ios":"levelo://app?vid=cfd9d347-ec3c-4047-abbd-ec7a19b6697b"},"vehicle_type_id":"4","last_reported":1746194998,"current_range_meters":9600,"station_id":"ce4bhq92rcd13ifvqhjg","pricing_plan_id":"cebpf4jnsgd1na2vs0mg"},{"bike_id":"a46aadbe-cfc3-40bd-8501-a4061700d71f","system_id":"levelo_inurba_marseille","lat":43.32047,"lon":5.41544,"is_reserved":false,"is_disabled":false,"rental_uris":{"android":"levelo://app?vid=a46aadbe-cfc3-40bd-8501-a4061700d71f","ios":"levelo://app?vid=a46aadbe-cfc3-40bd-8501-a4061700d71f"},"vehicle_type_id":"4","last_reported":1746194998,"current_range_meters":9600,"station_id":"ce4bhq92rcd13ifvqhkg","pricing_plan_id":"cebpf4jnsgd1na2vs0mg"},{"bike_id":"46e2fe21-81b9-4c21-8d40-5bcc8b26321e","system_id":"levelo_inurba_marseille","lat":43.29071,"lon":5.37167,"is_reserved":false,"is_disabled":false,"rental_uris":{"android":"levelo://app?vid=46e2fe21-81b9-4c21-8d40-5bcc8b26321e","ios":"levelo://app?vid=46e2fe21-81b9-4c21-8d40-5bcc8b26321e"},"vehicle_type_id":"4","last_reported":1746194998,"current_range_meters":9600,"station_id":"ce4bh5p2rcd13ifvqe4g","pricing_plan_id":"cebpf4jnsgd1na2vs0mg"},{"bike_id":"1e2936d1-69f2-4617-9a6f-c9c1efd73be1","system_id":"levelo_inurba_marseille","lat":43.276764,"lon":5.3887,"is_reserved":false,"is_disabled":false,"rental_uris":{"android":"levelo://app?vid=1e2936d1-69f2-4617-9a6f-c9c1efd73be1","ios":"levelo://app?vid=1e2936d1-69f2-4617-9a6f-c9c1efd73be1"},"vehicle_type_id":"4","last_reported":1746194998,"current_range_meters":8400,"station_id":"ce4bhi12rcd13ifvqfo0","pricing_plan_id":"cebpf4jnsgd1na2vs0mg"},{"bike_id":"7639a495-d869-4ee9-a46c-343aacc4d860","system_id":"levelo_inurba_marseille","lat":43.27814,"lon":5.40702,"is_reserved":false,"is_disabled":false,"rental_uris":{"android":"levelo://app?vid=7639a495-d869-4ee9-a46c-343aacc4d860","ios":"levelo://app?vid=7639a495-d869-4ee9-a46c-343aacc4d860"},"vehicle_type_id":"4","last_reported":1746194998,"current_range_meters":10000,"station_id":"ce4bhnh2rcd13ifvqgtg","pricing_plan_id":"cebpf4jnsgd1na2vs0mg"},{"bike_id":"c8b636f1-afa5-42b0-a318-fe0ce8f5b6d5","system_id":"levelo_inurba_marseille","lat":43.25502,"lon":5.37649,"is_reserved":false,"is_disabled":false,"rental_uris":{"android":"levelo://app?vid=c8b636f1-afa5-42b0-a318-fe0ce8f5b6d5","ios":"levelo://app?vid=c8b636f1-afa5-42b0-a318-fe0ce8f5b6d5"},"vehicle_type_id":"4","last_reported":1746194998,"current_range_meters":12000,"station_id":"ce4bhh12rcd13ifvqff0","pricing_plan_id":"cebpf4jnsgd1na2vs0mg"},{"bike_id":"7d93c775-5288-4baa-a04e-ff34c0d966f2","system_id":"levelo_inurba_marseille","lat":43.29975,"lon":5.37175,"is_reserved":false,"is_disabled":false,"rental_uris":{"android":"levelo://app?vid=7d93c775-5288-4baa-a04e-ff34c0d966f2","ios":"levelo://app?vid=7d93c775-5288-4baa-a04e-ff34c0d966f2"},"vehicle_type_id":"4","last_reported":1746194998,"current_range_meters":10000,"station_id":"ce4bgr92rcd13ifvqc7g","pricing_plan_id":"cebpf4jnsgd1na2vs0mg"},{"bike_id":"bd776d11-baa1-4a45-9872-d4c738f82a1c","system_id":"levelo_inurba_marseille","lat":43.27321,"lon":5.39081,"is_reserved":false,"is_disabled":false,"rental_uris":{"android":"levelo://app?vid=bd776d11-baa1-4a45-9872-d4c738f82a1c","ios":"levelo://app?vid=bd776d11-baa1-4a45-9872-d4c738f82a1c"},"vehicle_type_id":"4","last_reported":1746194998,"current_range_meters":10000,"station_id":"ce4bhgp2rcd13ifvqfe0","pricing_plan_id":"cebpf4jnsgd1na2vs0mg"},{"bike_id":"fd2c3c67-23a6-4380-b7ca-8f23c8f78921","system_id":"levelo_inurba_marseille","lat":43.32359,"lon":5.36754,"is_reserved":false,"is_disabled":false,"rental_uris":{"android":"levelo://app?vid=fd2c3c67-23a6-4380-b7ca-8f23c8f78921","ios":"levelo://app?vid=fd2c3c67-23a6-4380-b7ca-8f23c8f78921"},"vehicle_type_id":"4","last_reported":1746194998,"current_range_meters":10000,"station_id":"ce4bhsh2rcd13ifvqi2g","pricing_plan_id":"cebpf4jnsgd1na2vs0mg"},{"bike_id":"0c31dc72-73fb-4e24-a3f3-3c5cea1b1f8d","system_id":"levelo_inurba_marseille","lat":43.26031,"lon":5.37547,"is_reserved":false,"is_disabled":false,"rental_uris":{"android":"levelo://app?vid=0c31dc72-73fb-4e24-a3f3-3c5cea1b1f8d","ios":"levelo://app?vid=0c31dc72-73fb-4e24-a3f3-3c5cea1b1f8d"},"vehicle_type_id":"4","last_reported":1746194998,"current_range_meters":10800,"station_id":"ce4bhgh2rcd13ifvqfa0","pricing_plan_id":"cebpf4jnsgd1na2vs0mg"},{"bike_id":"0c9a8767-a71f-4ef0-b390-c3b7e9c632a8","system_id":"levelo_inurba_marseille","lat":43.21195,"lon":5.35076,"is_reserved":false,"is_disabled":true,"rental_uris":{"android":"levelo://app?vid=0c9a8767-a71f-4ef0-b390-c3b7e9c632a8","ios":"levelo://app?vid=0c9a8767-a71f-4ef0-b390-c3b7e9c632a8"},"vehicle_type_id":"4","last_reported":1746194998,"current_range_meters":10800,"station_id":"","pricing_plan_id":"cebpf4jnsgd1na2vs0mg"},{"bike_id":"e3cefebf-38ee-4514-af13-806c30d70bbc","system_id":"levelo_inurba_marseille","lat":43.26681,"lon":5.38265,"is_reserved":false,"is_disabled":false,"rental_uris":{"android":"levelo://app?vid=e3cefebf-38ee-4514-af13-806c30d70bbc","ios":"levelo://app?vid=e3cefebf-38ee-4514-af13-806c30d70bbc"},"vehicle_type_id":"4","last_reported":1746194998,"current_range_meters":10800,"station_id":"ce4bhg92rcd13ifvqf90","pricing_plan_id":"cebpf4jnsgd1na2vs0mg"},{"bike_id":"7bd7c79e-5190-4568-b102-e02604e33904","system_id":"levelo_inurba_marseille","lat":43.30416,"lon":5.41284,"is_reserved":false,"is_disabled":false,"rental_uris":{"android":"levelo://app?vid=7bd7c79e-5190-4568-b102-e02604e33904","ios":"levelo://app?vid=7bd7c79e-5190-4568-b102-e02604e33904"},"vehicle_type_id":"4","last_reported":1746194998,"current_range_meters":10800,"station_id":"ce4bhop2rcd13ifvqh8g","pricing_plan_id":"cebpf4jnsgd1na2vs0mg"},{"bike_id":"255731d6-44d9-45e3-84c4-8222de3053d6","system_id":"levelo_inurba_marseille","lat":43.25859,"lon":5.39889,"is_reserved":false,"is_disabled":false,"rental_uris":{"android":"levelo://app?vid=255731d6-44d9-45e3-84c4-8222de3053d6","ios":"levelo://app?vid=255731d6-44d9-45e3-84c4-8222de3053d6"},"vehicle_type_id":"4","last_reported":1746194998,"current_range_meters":10800,"station_id":"ce4bhl92rcd13ifvqghg","pricing_plan_id":"cebpf4jnsgd1na2vs0mg"},{"bike_id":"43f12973-b8a4-4b32-8935-9ea1d9ef9493","system_id":"levelo_inurba_marseille","lat":43.23168,"lon":5.4372,"is_reserved":false,"is_disabled":false,"rental_uris":{"android":"levelo://app?vid=43f12973-b8a4-4b32-8935-9ea1d9ef9493","ios":"levelo://app?vid=43f12973-b8a4-4b32-8935-9ea1d9ef9493"},"vehicle_type_id":"4","last_reported":1746194998,"current_range_meters":11200,"station_id":"ce4bhmp2rcd13ifvqgog","pricing_plan_id":"cebpf4jnsgd1na2vs0mg"},{"bike_id":"da826193-5124-4bc4-b159-6f40b83d7149","system_id":"levelo_inurba_marseille","lat":43.28854,"lon":5.35848,"is_reserved":false,"is_disabled":false,"rental_uris":{"android":"levelo://app?vid=da826193-5124-4bc4-b159-6f40b83d7149","ios":"levelo://app?vid=da826193-5124-4bc4-b159-6f40b83d7149"},"vehicle_type_id":"4","last_reported":1746194998,"current_range_meters":11200,"station_id":"ce4bhb12rcd13ifvqem0","pricing_plan_id":"cebpf4jnsgd1na2vs0mg"},{"bike_id":"7e7391ce-7aea-4fe6-9474-dd98fa902abf","system_id":"levelo_inurba_marseille","lat":43.31278,"lon":5.4016,"is_reserved":false,"is_disabled":false,"rental_uris":{"android":"levelo://app?vid=7e7391ce-7aea-4fe6-9474-dd98fa902abf","ios":"levelo://app?vid=7e7391ce-7aea-4fe6-9474-dd98fa902abf"},"vehicle_type_id":"4","last_reported":1746194998,"current_range_meters":11200,"station_id":"ce4bh092rcd13ifvqd30","pricing_plan_id":"cebpf4jnsgd1na2vs0mg"},{"bike_id":"84aae430-d727-4921-b8e7-d963a3401d68","system_id":"levelo_inurba_marseille","lat":43.21194,"lon":5.35071,"is_reserved":false,"is_disabled":false,"rental_uris":{"android":"levelo://app?vid=84aae430-d727-4921-b8e7-d963a3401d68","ios":"levelo://app?vid=84aae430-d727-4921-b8e7-d963a3401d68"},"vehicle_type_id":"4","last_reported":1746194998,"current_range_meters":11600,"station_id":"st_cvj6sg6p6f1abm77japg","pricing_plan_id":"cebpf4jnsgd1na2vs0mg"},{"bike_id":"3694d090-d909-4d38-9eb1-31338c8af39e","system_id":"levelo_inurba_marseille","lat":43.26693,"lon":5.38269,"is_reserved":false,"is_disabled":true,"rental_uris":{"android":"levelo://app?vid=3694d090-d909-4d38-9eb1-31338c8af39e","ios":"levelo://app?vid=3694d090-d909-4d38-9eb1-31338c8af39e"},"vehicle_type_id":"4","last_reported":1746194998,"current_range_meters":11600,"station_id":"ce4bhg92rcd13ifvqf90","pricing_plan_id":"cebpf4jnsgd1na2vs0mg"},{"bike_id":"3114a036-d5cc-4ae8-9d68-1ee7a9b803e1","system_id":"levelo_inurba_marseille","lat":43.31702,"lon":5.40462,"is_reserved":false,"is_disabled":false,"rental_uris":{"android":"levelo://app?vid=3114a036-d5cc-4ae8-9d68-1ee7a9b803e1","ios":"levelo://app?vid=3114a036-d5cc-4ae8-9d68-1ee7a9b803e1"},"vehicle_type_id":"4","last_reported":1746194998,"current_range_meters":11600,"station_id":"ce4bh012rcd13ifvqd00","pricing_plan_id":"cebpf4jnsgd1na2vs0mg"},{"bike_id":"6d74a9f5-3f03-4e8e-aa3b-29a84082925f","system_id":"levelo_inurba_marseille","lat":43.22933,"lon":5.35374,"is_reserved":false,"is_disabled":false,"rental_uris":{"android":"levelo://app?vid=6d74a9f5-3f03-4e8e-aa3b-29a84082925f","ios":"levelo://app?vid=6d74a9f5-3f03-4e8e-aa3b-29a84082925f"},"vehicle_type_id":"4","last_reported":1746194998,"current_range_meters":11600,"station_id":"cpo3532slgdg3j2ikp40","pricing_plan_id":"cebpf4jnsgd1na2vs0mg"},{"bike_id":"8a0058ae-d47a-4696-afcc-53a66a14ba3f","system_id":"levelo_inurba_marseille","lat":43.29904,"lon":5.43665,"is_reserved":false,"is_disabled":false,"rental_uris":{"android":"levelo://app?vid=8a0058ae-d47a-4696-afcc-53a66a14ba3f","ios":"levelo://app?vid=8a0058ae-d47a-4696-afcc-53a66a14ba3f"},"vehicle_type_id":"4","last_reported":1746194998,"current_range_meters":12000,"station_id":"ce4bhpp2rcd13ifvqhfg","pricing_plan_id":"cebpf4jnsgd1na2vs0mg"},{"bike_id":"e43eaaa4-0642-42f4-9858-10e45f9cbcf5","system_id":"levelo_inurba_marseille","lat":43.29622,"lon":5.37171,"is_reserved":false,"is_disabled":false,"rental_uris":{"android":"levelo://app?vid=e43eaaa4-0642-42f4-9858-10e45f9cbcf5","ios":"levelo://app?vid=e43eaaa4-0642-42f4-9858-10e45f9cbcf5"},"vehicle_type_id":"4","last_reported":1746194998,"current_range_meters":12000,"station_id":"ce4bgnh2rcd13ifvqc0g","pricing_plan_id":"cebpf4jnsgd1na2vs0mg"},{"bike_id":"03f5b910-d1d5-49c8-a7a4-67a333daaa2e","system_id":"levelo_inurba_marseille","lat":43.32551,"lon":5.41409,"is_reserved":false,"is_disabled":false,"rental_uris":{"android":"levelo://app?vid=03f5b910-d1d5-49c8-a7a4-67a333daaa2e","ios":"levelo://app?vid=03f5b910-d1d5-49c8-a7a4-67a333daaa2e"},"vehicle_type_id":"4","last_reported":1746194998,"current_range_meters":12000,"station_id":"ce4bhq12rcd13ifvqhhg","pricing_plan_id":"cebpf4jnsgd1na2vs0mg"},{"bike_id":"738e1a54-dd09-424f-b236-33c071cde349","system_id":"levelo_inurba_marseille","lat":43.27059,"lon":5.40256,"is_reserved":false,"is_disabled":false,"rental_uris":{"android":"levelo://app?vid=738e1a54-dd09-424f-b236-33c071cde349","ios":"levelo://app?vid=738e1a54-dd09-424f-b236-33c071cde349"},"vehicle_type_id":"4","last_reported":1746194998,"current_range_meters":12000,"station_id":"ce4bhk92rcd13ifvqgc0","pricing_plan_id":"cebpf4jnsgd1na2vs0mg"},{"bike_id":"25ee7b9a-765b-4a21-8d6d-ef95fbca1c1b","system_id":"levelo_inurba_marseille","lat":43.27637,"lon":5.3612,"is_reserved":false,"is_disabled":false,"rental_uris":{"android":"levelo://app?vid=25ee7b9a-765b-4a21-8d6d-ef95fbca1c1b","ios":"levelo://app?vid=25ee7b9a-765b-4a21-8d6d-ef95fbca1c1b"},"vehicle_type_id":"4","last_reported":1746194998,"current_range_meters":12000,"station_id":"ce4bgj92rcd13ifvqbe0","pricing_plan_id":"cebpf4jnsgd1na2vs0mg"},{"bike_id":"ca8fa3f0-84e7-4f0d-817c-4cea931c6ea8","system_id":"levelo_inurba_marseille","lat":43.327247,"lon":5.391767,"is_reserved":false,"is_disabled":false,"rental_uris":{"android":"levelo://app?vid=ca8fa3f0-84e7-4f0d-817c-4cea931c6ea8","ios":"levelo://app?vid=ca8fa3f0-84e7-4f0d-817c-4cea931c6ea8"},"vehicle_type_id":"4","last_reported":1746194998,"current_range_meters":12000,"station_id":"","pricing_plan_id":"cebpf4jnsgd1na2vs0mg"},{"bike_id":"8a98d962-578d-444b-a5bb-91a62b69d98d","system_id":"levelo_inurba_marseille","lat":43.21192,"lon":5.35077,"is_reserved":false,"is_disabled":true,"rental_uris":{"android":"levelo://app?vid=8a98d962-578d-444b-a5bb-91a62b69d98d","ios":"levelo://app?vid=8a98d962-578d-444b-a5bb-91a62b69d98d"},"vehicle_type_id":"4","last_reported":1746194998,"current_range_meters":12400,"station_id":"st_cvj6sg6p6f1abm77japg","pricing_plan_id":"cebpf4jnsgd1na2vs0mg"},{"bike_id":"ea425f81-c08a-4289-b44f-024663a0895f","system_id":"levelo_inurba_marseille","lat":43.29965,"lon":5.37169,"is_reserved":false,"is_disabled":false,"rental_uris":{"android":"levelo://app?vid=ea425f81-c08a-4289-b44f-024663a0895f","ios":"levelo://app?vid=ea425f81-c08a-4289-b44f-024663a0895f"},"vehicle_type_id":"4","last_reported":1746194998,"current_range_meters":12400,"station_id":"ce4bgr92rcd13ifvqc7g","pricing_plan_id":"cebpf4jnsgd1na2vs0mg"},{"bike_id":"ed7c5e72-876d-4bab-9793-af84f89442f8","system_id":"levelo_inurba_marseille","lat":43.29201,"lon":5.393195,"is_reserved":false,"is_disabled":false,"rental_uris":{"android":"levelo://app?vid=ed7c5e72-876d-4bab-9793-af84f89442f8","ios":"levelo://app?vid=ed7c5e72-876d-4bab-9793-af84f89442f8"},"vehicle_type_id":"4","last_reported":1746194998,"current_range_meters":12800,"station_id":"ce4bh192rcd13ifvqdd0","pricing_plan_id":"cebpf4jnsgd1na2vs0mg"},{"bike_id":"058faaf7-6e2d-43c7-9eff-2ac1795bea62","system_id":"levelo_inurba_marseille","lat":43.27674,"lon":5.3893,"is_reserved":false,"is_disabled":false,"rental_uris":{"android":"levelo://app?vid=058faaf7-6e2d-43c7-9eff-2ac1795bea62","ios":"levelo://app?vid=058faaf7-6e2d-43c7-9eff-2ac1795bea62"},"vehicle_type_id":"4","last_reported":1746194998,"current_range_meters":12800,"station_id":"ce4bhi12rcd13ifvqfo0","pricing_plan_id":"cebpf4jnsgd1na2vs0mg"},{"bike_id":"ca95ed58-76f9-4333-88d7-4bb3d5adb769","system_id":"levelo_inurba_marseille","lat":43.29294,"lon":5.37464,"is_reserved":false,"is_disabled":false,"rental_uris":{"android":"levelo://app?vid=ca95ed58-76f9-4333-88d7-4bb3d5adb769","ios":"levelo://app?vid=ca95ed58-76f9-4333-88d7-4bb3d5adb769"},"vehicle_type_id":"4","last_reported":1746194998,"current_range_meters":12800,"station_id":"ce4bgi12rcd13ifvqb70","pricing_plan_id":"cebpf4jnsgd1na2vs0mg"},{"bike_id":"2dce2f7a-cc2e-48e2-9c71-9abecc3c3234","system_id":"levelo_inurba_marseille","lat":43.231764,"lon":5.399878,"is_reserved":false,"is_disabled":false,"rental_uris":{"android":"levelo://app?vid=2dce2f7a-cc2e-48e2-9c71-9abecc3c3234","ios":"levelo://app?vid=2dce2f7a-cc2e-48e2-9c71-9abecc3c3234"},"vehicle_type_id":"4","last_reported":1746194998,"current_range_meters":12800,"station_id":"ce4bhn12rcd13ifvqgqg","pricing_plan_id":"cebpf4jnsgd1na2vs0mg"},{"bike_id":"5b620d9c-69f3-4f6b-af3b-c804a24e7b4d","system_id":"levelo_inurba_marseille","lat":43.28727,"lon":5.40021,"is_reserved":false,"is_disabled":false,"rental_uris":{"android":"levelo://app?vid=5b620d9c-69f3-4f6b-af3b-c804a24e7b4d","ios":"levelo://app?vid=5b620d9c-69f3-4f6b-af3b-c804a24e7b4d"},"vehicle_type_id":"4","last_reported":1746194998,"current_range_meters":13600,"station_id":"ce4bho92rcd13ifvqh3g","pricing_plan_id":"cebpf4jnsgd1na2vs0mg"},{"bike_id":"f10f754e-6657-4a2c-b7f9-b50c263d61b8","system_id":"levelo_inurba_marseille","lat":43.29624,"lon":5.37142,"is_reserved":false,"is_disabled":false,"rental_uris":{"android":"levelo://app?vid=f10f754e-6657-4a2c-b7f9-b50c263d61b8","ios":"levelo://app?vid=f10f754e-6657-4a2c-b7f9-b50c263d61b8"},"vehicle_type_id":"4","last_reported":1746194998,"current_range_meters":13600,"station_id":"ce4bgnh2rcd13ifvqc0g","pricing_plan_id":"cebpf4jnsgd1na2vs0mg"},{"bike_id":"a2bf2d54-2fff-4b28-adf1-fde0063faa01","system_id":"levelo_inurba_marseille","lat":43.29175,"lon":5.37163,"is_reserved":false,"is_disabled":false,"rental_uris":{"android":"levelo://app?vid=a2bf2d54-2fff-4b28-adf1-fde0063faa01","ios":"levelo://app?vid=a2bf2d54-2fff-4b28-adf1-fde0063faa01"},"vehicle_type_id":"4","last_reported":1746194998,"current_range_meters":12800,"station_id":"ce4bha92rcd13ifvqeh0","pricing_plan_id":"cebpf4jnsgd1na2vs0mg"},{"bike_id":"00e66528-d941-4c40-89b5-cba3fcddc0ff","system_id":"levelo_inurba_marseille","lat":43.21198,"lon":5.35074,"is_reserved":false,"is_disabled":false,"rental_uris":{"android":"levelo://app?vid=00e66528-d941-4c40-89b5-cba3fcddc0ff","ios":"levelo://app?vid=00e66528-d941-4c40-89b5-cba3fcddc0ff"},"vehicle_type_id":"4","last_reported":1746194998,"current_range_meters":14000,"station_id":"st_cvj6sg6p6f1abm77japg","pricing_plan_id":"cebpf4jnsgd1na2vs0mg"},{"bike_id":"40d7ff48-3bf4-4e3f-8a82-6f7f532a13fb","system_id":"levelo_inurba_marseille","lat":43.28308,"lon":5.35062,"is_reserved":false,"is_disabled":false,"rental_uris":{"android":"levelo://app?vid=40d7ff48-3bf4-4e3f-8a82-6f7f532a13fb","ios":"levelo://app?vid=40d7ff48-3bf4-4e3f-8a82-6f7f532a13fb"},"vehicle_type_id":"4","last_reported":1746194998,"current_range_meters":14000,"station_id":"ce4bhbp2rcd13ifvqerg","pricing_plan_id":"cebpf4jnsgd1na2vs0mg"},{"bike_id":"cbb225c2-72d3-4c41-af4d-60b307e1f0d0","system_id":"levelo_inurba_marseille","lat":43.28569,"lon":5.39497,"is_reserved":false,"is_disabled":false,"rental_uris":{"android":"levelo://app?vid=cbb225c2-72d3-4c41-af4d-60b307e1f0d0","ios":"levelo://app?vid=cbb225c2-72d3-4c41-af4d-60b307e1f0d0"},"vehicle_type_id":"4","last_reported":1746194998,"current_range_meters":14000,"station_id":"ce4bh292rcd13ifvqdg0","pricing_plan_id":"cebpf4jnsgd1na2vs0mg"},{"bike_id":"f72704a2-ef11-4565-bcba-1b7f54db8c23","system_id":"levelo_inurba_marseille","lat":43.255,"lon":5.37651,"is_reserved":false,"is_disabled":false,"rental_uris":{"android":"levelo://app?vid=f72704a2-ef11-4565-bcba-1b7f54db8c23","ios":"levelo://app?vid=f72704a2-ef11-4565-bcba-1b7f54db8c23"},"vehicle_type_id":"4","last_reported":1746194998,"current_range_meters":14000,"station_id":"ce4bhh12rcd13ifvqff0","pricing_plan_id":"cebpf4jnsgd1na2vs0mg"},{"bike_id":"dd643f38-b311-422f-98eb-37fb114a9d01","system_id":"levelo_inurba_marseille","lat":43.29614,"lon":5.37715,"is_reserved":false,"is_disabled":true,"rental_uris":{"android":"levelo://app?vid=dd643f38-b311-422f-98eb-37fb114a9d01","ios":"levelo://app?vid=dd643f38-b311-422f-98eb-37fb114a9d01"},"vehicle_type_id":"4","last_reported":1746194998,"current_range_meters":14400,"station_id":"ce4bgi92rcd13ifvqb90","pricing_plan_id":"cebpf4jnsgd1na2vs0mg"},{"bike_id":"dda78a66-008a-411d-8cc2-cccc8fe6e05e","system_id":"levelo_inurba_marseille","lat":43.27313,"lon":5.39087,"is_reserved":false,"is_disabled":false,"rental_uris":{"android":"levelo://app?vid=dda78a66-008a-411d-8cc2-cccc8fe6e05e","ios":"levelo://app?vid=dda78a66-008a-411d-8cc2-cccc8fe6e05e"},"vehicle_type_id":"4","last_reported":1746194998,"current_range_meters":14400,"station_id":"ce4bhgp2rcd13ifvqfe0","pricing_plan_id":"cebpf4jnsgd1na2vs0mg"},{"bike_id":"1fa59223-e0f2-4c6a-9a20-d9b333d9cdbb","system_id":"levelo_inurba_marseille","lat":43.231836,"lon":5.399901,"is_reserved":false,"is_disabled":false,"rental_uris":{"android":"levelo://app?vid=1fa59223-e0f2-4c6a-9a20-d9b333d9cdbb","ios":"levelo://app?vid=1fa59223-e0f2-4c6a-9a20-d9b333d9cdbb"},"vehicle_type_id":"4","last_reported":1746194998,"current_range_meters":14400,"station_id":"ce4bhn12rcd13ifvqgqg","pricing_plan_id":"cebpf4jnsgd1na2vs0mg"},{"bike_id":"d24e36e0-e0aa-458e-9dc1-1d3e91441d9d","system_id":"levelo_inurba_marseille","lat":43.29031,"lon":5.3865,"is_reserved":false,"is_disabled":true,"rental_uris":{"android":"levelo://app?vid=d24e36e0-e0aa-458e-9dc1-1d3e91441d9d","ios":"levelo://app?vid=d24e36e0-e0aa-458e-9dc1-1d3e91441d9d"},"vehicle_type_id":"4","last_reported":1746194998,"current_range_meters":14800,"station_id":"ce4bh4p2rcd13ifvqe0g","pricing_plan_id":"cebpf4jnsgd1na2vs0mg"},{"bike_id":"f96faf17-4994-446e-8452-efac12cfece1","system_id":"levelo_inurba_marseille","lat":43.25005,"lon":5.38924,"is_reserved":false,"is_disabled":false,"rental_uris":{"android":"levelo://app?vid=f96faf17-4994-446e-8452-efac12cfece1","ios":"levelo://app?vid=f96faf17-4994-446e-8452-efac12cfece1"},"vehicle_type_id":"4","last_reported":1746194998,"current_range_meters":14800,"station_id":"ce4bhgp2rcd13ifvqfd0","pricing_plan_id":"cebpf4jnsgd1na2vs0mg"},{"bike_id":"90079290-66bc-45f0-aa26-b2b1ad417af2","system_id":"levelo_inurba_marseille","lat":43.23058,"lon":5.35489,"is_reserved":false,"is_disabled":false,"rental_uris":{"android":"levelo://app?vid=90079290-66bc-45f0-aa26-b2b1ad417af2","ios":"levelo://app?vid=90079290-66bc-45f0-aa26-b2b1ad417af2"},"vehicle_type_id":"4","last_reported":1746194998,"current_range_meters":15200,"station_id":"cpo3342slgdg3j2ifvpg","pricing_plan_id":"cebpf4jnsgd1na2vs0mg"},{"bike_id":"2fbe4d67-1929-4099-961a-1bb2e5df8938","system_id":"levelo_inurba_marseille","lat":43.21732,"lon":5.34597,"is_reserved":false,"is_disabled":false,"rental_uris":{"android":"levelo://app?vid=2fbe4d67-1929-4099-961a-1bb2e5df8938","ios":"levelo://app?vid=2fbe4d67-1929-4099-961a-1bb2e5df8938"},"vehicle_type_id":"4","last_reported":1746194998,"current_range_meters":15200,"station_id":"st_cvj6r9ubvosntc0bgbag","pricing_plan_id":"cebpf4jnsgd1na2vs0mg"},{"bike_id":"e80c7471-9a68-4a4b-be5f-d3f96f16de9d","system_id":"levelo_inurba_marseille","lat":43.2501,"lon":5.38919,"is_reserved":false,"is_disabled":true,"rental_uris":{"android":"levelo://app?vid=e80c7471-9a68-4a4b-be5f-d3f96f16de9d","ios":"levelo://app?vid=e80c7471-9a68-4a4b-be5f-d3f96f16de9d"},"vehicle_type_id":"4","last_reported":1746194998,"current_range_meters":16000,"station_id":"ce4bhgp2rcd13ifvqfd0","pricing_plan_id":"cebpf4jnsgd1na2vs0mg"},{"bike_id":"b914bfd5-797f-4d05-a401-b7668e67a6e3","system_id":"levelo_inurba_marseille","lat":43.30646,"lon":5.4008,"is_reserved":false,"is_disabled":false,"rental_uris":{"android":"levelo://app?vid=b914bfd5-797f-4d05-a401-b7668e67a6e3","ios":"levelo://app?vid=b914bfd5-797f-4d05-a401-b7668e67a6e3"},"vehicle_type_id":"4","last_reported":1746194998,"current_range_meters":16000,"station_id":"ce4bh112rcd13ifvqda0","pricing_plan_id":"cebpf4jnsgd1na2vs0mg"},{"bike_id":"fb80c1da-d845-467b-9c3b-2f591f4d56ae","system_id":"levelo_inurba_marseille","lat":43.31829,"lon":5.37397,"is_reserved":false,"is_disabled":false,"rental_uris":{"android":"levelo://app?vid=fb80c1da-d845-467b-9c3b-2f591f4d56ae","ios":"levelo://app?vid=fb80c1da-d845-467b-9c3b-2f591f4d56ae"},"vehicle_type_id":"4","last_reported":1746194998,"current_range_meters":16000,"station_id":"","pricing_plan_id":"cebpf4jnsgd1na2vs0mg"},{"bike_id":"a9d4e682-2775-4dcc-b345-daabedb8935d","system_id":"levelo_inurba_marseille","lat":43.22928,"lon":5.35375,"is_reserved":false,"is_disabled":false,"rental_uris":{"android":"levelo://app?vid=a9d4e682-2775-4dcc-b345-daabedb8935d","ios":"levelo://app?vid=a9d4e682-2775-4dcc-b345-daabedb8935d"},"vehicle_type_id":"4","last_reported":1746194998,"current_range_meters":16000,"station_id":"cpo3532slgdg3j2ikp40","pricing_plan_id":"cebpf4jnsgd1na2vs0mg"},{"bike_id":"8efdc192-ba3e-4644-be71-03cc15cccd80","system_id":"levelo_inurba_marseille","lat":43.32025,"lon":5.41539,"is_reserved":false,"is_disabled":false,"rental_uris":{"android":"levelo://app?vid=8efdc192-ba3e-4644-be71-03cc15cccd80","ios":"levelo://app?vid=8efdc192-ba3e-4644-be71-03cc15cccd80"},"vehicle_type_id":"4","last_reported":1746194998,"current_range_meters":16000,"station_id":"ce4bhq92rcd13ifvqhkg","pricing_plan_id":"cebpf4jnsgd1na2vs0mg"},{"bike_id":"d1ba023e-4962-4826-9ec8-5e1299324eaf","system_id":"levelo_inurba_marseille","lat":43.2827,"lon":5.3506,"is_reserved":false,"is_disabled":false,"rental_uris":{"android":"levelo://app?vid=d1ba023e-4962-4826-9ec8-5e1299324eaf","ios":"levelo://app?vid=d1ba023e-4962-4826-9ec8-5e1299324eaf"},"vehicle_type_id":"4","last_reported":1746194998,"current_range_meters":16000,"station_id":"ce4bhbp2rcd13ifvqerg","pricing_plan_id":"cebpf4jnsgd1na2vs0mg"},{"bike_id":"a2910736-613d-4a2a-ae34-e0e5c45da0c9","system_id":"levelo_inurba_marseille","lat":43.29372,"lon":5.3785,"is_reserved":false,"is_disabled":false,"rental_uris":{"android":"levelo://app?vid=a2910736-613d-4a2a-ae34-e0e5c45da0c9","ios":"levelo://app?vid=a2910736-613d-4a2a-ae34-e0e5c45da0c9"},"vehicle_type_id":"4","last_reported":1746194998,"current_range_meters":16000,"station_id":"ce4bgjh2rcd13ifvqbf0","pricing_plan_id":"cebpf4jnsgd1na2vs0mg"},{"bike_id":"d46c6bd4-8bc2-425c-a64c-35c210884eee","system_id":"levelo_inurba_marseille","lat":43.31757,"lon":5.39025,"is_reserved":false,"is_disabled":false,"rental_uris":{"android":"levelo://app?vid=d46c6bd4-8bc2-425c-a64c-35c210884eee","ios":"levelo://app?vid=d46c6bd4-8bc2-425c-a64c-35c210884eee"},"vehicle_type_id":"4","last_reported":1746194998,"current_range_meters":16400,"station_id":"ce4bhqp2rcd13ifvqhng","pricing_plan_id":"cebpf4jnsgd1na2vs0mg"},{"bike_id":"92c9c34a-2661-40c7-b42b-42a1687057dd","system_id":"levelo_inurba_marseille","lat":43.21194,"lon":5.3508,"is_reserved":false,"is_disabled":false,"rental_uris":{"android":"levelo://app?vid=92c9c34a-2661-40c7-b42b-42a1687057dd","ios":"levelo://app?vid=92c9c34a-2661-40c7-b42b-42a1687057dd"},"vehicle_type_id":"4","last_reported":1746194998,"current_range_meters":16400,"station_id":"st_cvj6sg6p6f1abm77japg","pricing_plan_id":"cebpf4jnsgd1na2vs0mg"},{"bike_id":"17bcfe73-c6e2-474b-ba3d-b902ac9e15a8","system_id":"levelo_inurba_marseille","lat":43.22937,"lon":5.35377,"is_reserved":false,"is_disabled":false,"rental_uris":{"android":"levelo://app?vid=17bcfe73-c6e2-474b-ba3d-b902ac9e15a8","ios":"levelo://app?vid=17bcfe73-c6e2-474b-ba3d-b902ac9e15a8"},"vehicle_type_id":"4","last_reported":1746194998,"current_range_meters":16400,"station_id":"cpo3532slgdg3j2ikp40","pricing_plan_id":"cebpf4jnsgd1na2vs0mg"},{"bike_id":"0d78efc2-0e30-48cc-9700-faaed2f83d2e","system_id":"levelo_inurba_marseille","lat":43.32665,"lon":5.40987,"is_reserved":false,"is_disabled":false,"rental_uris":{"android":"levelo://app?vid=0d78efc2-0e30-48cc-9700-faaed2f83d2e","ios":"levelo://app?vid=0d78efc2-0e30-48cc-9700-faaed2f83d2e"},"vehicle_type_id":"4","last_reported":1746194998,"current_range_meters":16400,"station_id":"ce4bhpp2rcd13ifvqhgg","pricing_plan_id":"cebpf4jnsgd1na2vs0mg"},{"bike_id":"09c7b25d-031c-44a6-8a7a-8d93f9f0101f","system_id":"levelo_inurba_marseille","lat":43.292603,"lon":5.376386,"is_reserved":false,"is_disabled":false,"rental_uris":{"android":"levelo://app?vid=09c7b25d-031c-44a6-8a7a-8d93f9f0101f","ios":"levelo://app?vid=09c7b25d-031c-44a6-8a7a-8d93f9f0101f"},"vehicle_type_id":"4","last_reported":1746194998,"current_range_meters":16400,"station_id":"ce4bgi12rcd13ifvqb80","pricing_plan_id":"cebpf4jnsgd1na2vs0mg"},{"bike_id":"8f42bed2-b0d9-4ab6-8027-ec12ba49bdb6","system_id":"levelo_inurba_marseille","lat":43.30529,"lon":5.36727,"is_reserved":false,"is_disabled":false,"rental_uris":{"android":"levelo://app?vid=8f42bed2-b0d9-4ab6-8027-ec12ba49bdb6","ios":"levelo://app?vid=8f42bed2-b0d9-4ab6-8027-ec12ba49bdb6"},"vehicle_type_id":"4","last_reported":1746194998,"current_range_meters":16400,"station_id":"ce4bgrp2rcd13ifvqc9g","pricing_plan_id":"cebpf4jnsgd1na2vs0mg"},{"bike_id":"0c3fbeaa-55ff-4c7c-a66c-46f4ecc86aeb","system_id":"levelo_inurba_marseille","lat":43.21193,"lon":5.35074,"is_reserved":false,"is_disabled":true,"rental_uris":{"android":"levelo://app?vid=0c3fbeaa-55ff-4c7c-a66c-46f4ecc86aeb","ios":"levelo://app?vid=0c3fbeaa-55ff-4c7c-a66c-46f4ecc86aeb"},"vehicle_type_id":"4","last_reported":1746194998,"current_range_meters":16400,"station_id":"st_cvj6sg6p6f1abm77japg","pricing_plan_id":"cebpf4jnsgd1na2vs0mg"},{"bike_id":"dad12780-8a0a-42ee-8183-9f01b6be20c7","system_id":"levelo_inurba_marseille","lat":43.30549,"lon":5.365203,"is_reserved":false,"is_disabled":false,"rental_uris":{"android":"levelo://app?vid=dad12780-8a0a-42ee-8183-9f01b6be20c7","ios":"levelo://app?vid=dad12780-8a0a-42ee-8183-9f01b6be20c7"},"vehicle_type_id":"4","last_reported":1746194998,"current_range_meters":16400,"station_id":"ce4bgs12rcd13ifvqcag","pricing_plan_id":"cebpf4jnsgd1na2vs0mg"},{"bike_id":"606118d3-fbc3-46d2-9186-85db9f0d665b","system_id":"levelo_inurba_marseille","lat":43.230638,"lon":5.354912,"is_reserved":false,"is_disabled":false,"rental_uris":{"android":"levelo://app?vid=606118d3-fbc3-46d2-9186-85db9f0d665b","ios":"levelo://app?vid=606118d3-fbc3-46d2-9186-85db9f0d665b"},"vehicle_type_id":"4","last_reported":1746194998,"current_range_meters":16800,"station_id":"cpo3342slgdg3j2ifvpg","pricing_plan_id":"cebpf4jnsgd1na2vs0mg"},{"bike_id":"4d4424ce-2d54-4c7d-9bfd-da65dd0eda9e","system_id":"levelo_inurba_marseille","lat":43.22932,"lon":5.35373,"is_reserved":false,"is_disabled":false,"rental_uris":{"android":"levelo://app?vid=4d4424ce-2d54-4c7d-9bfd-da65dd0eda9e","ios":"levelo://app?vid=4d4424ce-2d54-4c7d-9bfd-da65dd0eda9e"},"vehicle_type_id":"4","last_reported":1746194998,"current_range_meters":16800,"station_id":"cpo3532slgdg3j2ikp40","pricing_plan_id":"cebpf4jnsgd1na2vs0mg"},{"bike_id":"647c8c44-4942-4484-93e2-bbc486cafff0","system_id":"levelo_inurba_marseille","lat":43.21193,"lon":5.3507,"is_reserved":false,"is_disabled":false,"rental_uris":{"android":"levelo://app?vid=647c8c44-4942-4484-93e2-bbc486cafff0","ios":"levelo://app?vid=647c8c44-4942-4484-93e2-bbc486cafff0"},"vehicle_type_id":"4","last_reported":1746194998,"current_range_meters":16800,"station_id":"st_cvj6sg6p6f1abm77japg","pricing_plan_id":"cebpf4jnsgd1na2vs0mg"},{"bike_id":"3a2ac15b-a10d-42c0-aade-70861a0e07af","system_id":"levelo_inurba_marseille","lat":43.26791,"lon":5.39414,"is_reserved":false,"is_disabled":false,"rental_uris":{"android":"levelo://app?vid=3a2ac15b-a10d-42c0-aade-70861a0e07af","ios":"levelo://app?vid=3a2ac15b-a10d-42c0-aade-70861a0e07af"},"vehicle_type_id":"4","last_reported":1746194998,"current_range_meters":16800,"station_id":"ce4bhh12rcd13ifvqfg0","pricing_plan_id":"cebpf4jnsgd1na2vs0mg"},{"bike_id":"0eacd68b-8667-40de-90f5-781798982dcf","system_id":"levelo_inurba_marseille","lat":43.28628,"lon":5.35106,"is_reserved":false,"is_disabled":false,"rental_uris":{"android":"levelo://app?vid=0eacd68b-8667-40de-90f5-781798982dcf","ios":"levelo://app?vid=0eacd68b-8667-40de-90f5-781798982dcf"},"vehicle_type_id":"4","last_reported":1746194998,"current_range_meters":16800,"station_id":"ce4bhch2rcd13ifvqeug","pricing_plan_id":"cebpf4jnsgd1na2vs0mg"},{"bike_id":"33ddd7b8-e48e-4c93-8bf4-04f59836eece","system_id":"levelo_inurba_marseille","lat":43.29926,"lon":5.36535,"is_reserved":false,"is_disabled":false,"rental_uris":{"android":"levelo://app?vid=33ddd7b8-e48e-4c93-8bf4-04f59836eece","ios":"levelo://app?vid=33ddd7b8-e48e-4c93-8bf4-04f59836eece"},"vehicle_type_id":"4","last_reported":1746194998,"current_range_meters":16800,"station_id":"ce4bgm92rcd13ifvqbr0","pricing_plan_id":"cebpf4jnsgd1na2vs0mg"},{"bike_id":"0216c09d-1c67-4337-81f4-544f248c81d1","system_id":"levelo_inurba_marseille","lat":43.25492,"lon":5.37655,"is_reserved":false,"is_disabled":false,"rental_uris":{"android":"levelo://app?vid=0216c09d-1c67-4337-81f4-544f248c81d1","ios":"levelo://app?vid=0216c09d-1c67-4337-81f4-544f248c81d1"},"vehicle_type_id":"4","last_reported":1746194998,"current_range_meters":16800,"station_id":"ce4bhh12rcd13ifvqff0","pricing_plan_id":"cebpf4jnsgd1na2vs0mg"},{"bike_id":"ed3b4964-66cf-493c-8201-5e92fcc81716","system_id":"levelo_inurba_marseille","lat":43.23184,"lon":5.39976,"is_reserved":false,"is_disabled":false,"rental_uris":{"android":"levelo://app?vid=ed3b4964-66cf-493c-8201-5e92fcc81716","ios":"levelo://app?vid=ed3b4964-66cf-493c-8201-5e92fcc81716"},"vehicle_type_id":"4","last_reported":1746194998,"current_range_meters":13600,"station_id":"ce4bhn12rcd13ifvqgqg","pricing_plan_id":"cebpf4jnsgd1na2vs0mg"},{"bike_id":"e7c5489d-f9ab-4566-adb6-59692fc6f98c","system_id":"levelo_inurba_marseille","lat":43.30952,"lon":5.39029,"is_reserved":false,"is_disabled":false,"rental_uris":{"android":"levelo://app?vid=e7c5489d-f9ab-4566-adb6-59692fc6f98c","ios":"levelo://app?vid=e7c5489d-f9ab-4566-adb6-59692fc6f98c"},"vehicle_type_id":"4","last_reported":1746194998,"current_range_meters":16000,"station_id":"ce4bgup2rcd13ifvqco0","pricing_plan_id":"cebpf4jnsgd1na2vs0mg"},{"bike_id":"8dbab95a-dc66-4cee-9b9f-aedb2f3c3ffc","system_id":"levelo_inurba_marseille","lat":43.2119,"lon":5.35074,"is_reserved":false,"is_disabled":false,"rental_uris":{"android":"levelo://app?vid=8dbab95a-dc66-4cee-9b9f-aedb2f3c3ffc","ios":"levelo://app?vid=8dbab95a-dc66-4cee-9b9f-aedb2f3c3ffc"},"vehicle_type_id":"4","last_reported":1746194998,"current_range_meters":17200,"station_id":"st_cvj6sg6p6f1abm77japg","pricing_plan_id":"cebpf4jnsgd1na2vs0mg"},{"bike_id":"cf17c94b-311b-4c92-a861-9d814c0c5082","system_id":"levelo_inurba_marseille","lat":43.30265,"lon":5.40077,"is_reserved":false,"is_disabled":false,"rental_uris":{"android":"levelo://app?vid=cf17c94b-311b-4c92-a861-9d814c0c5082","ios":"levelo://app?vid=cf17c94b-311b-4c92-a861-9d814c0c5082"},"vehicle_type_id":"4","last_reported":1746194998,"current_range_meters":17200,"station_id":"ce4bgvh2rcd13ifvqcs0","pricing_plan_id":"cebpf4jnsgd1na2vs0mg"},{"bike_id":"ff79280e-1855-4d0a-9416-0d33a2ce1c48","system_id":"levelo_inurba_marseille","lat":43.21193,"lon":5.35079,"is_reserved":false,"is_disabled":true,"rental_uris":{"android":"levelo://app?vid=ff79280e-1855-4d0a-9416-0d33a2ce1c48","ios":"levelo://app?vid=ff79280e-1855-4d0a-9416-0d33a2ce1c48"},"vehicle_type_id":"4","last_reported":1746194998,"current_range_meters":17600,"station_id":"","pricing_plan_id":"cebpf4jnsgd1na2vs0mg"},{"bike_id":"dbb62246-8316-43b6-93ce-7153c96149d8","system_id":"levelo_inurba_marseille","lat":43.292671,"lon":5.368403,"is_reserved":false,"is_disabled":false,"rental_uris":{"android":"levelo://app?vid=dbb62246-8316-43b6-93ce-7153c96149d8","ios":"levelo://app?vid=dbb62246-8316-43b6-93ce-7153c96149d8"},"vehicle_type_id":"4","last_reported":1746194998,"current_range_meters":17600,"station_id":"ce4bhbh2rcd13ifvqeqg","pricing_plan_id":"cebpf4jnsgd1na2vs0mg"},{"bike_id":"21cc4adb-f5de-4f9b-bed7-2c06f2f9b254","system_id":"levelo_inurba_marseille","lat":43.27207,"lon":5.39198,"is_reserved":false,"is_disabled":false,"rental_uris":{"android":"levelo://app?vid=21cc4adb-f5de-4f9b-bed7-2c06f2f9b254","ios":"levelo://app?vid=21cc4adb-f5de-4f9b-bed7-2c06f2f9b254"},"vehicle_type_id":"4","last_reported":1746194998,"current_range_meters":17600,"station_id":"ce4bhhp2rcd13ifvqfm0","pricing_plan_id":"cebpf4jnsgd1na2vs0mg"},{"bike_id":"bbd9b8ed-a1e8-4032-b158-6f4e65154ae8","system_id":"levelo_inurba_marseille","lat":43.295336,"lon":5.38545,"is_reserved":false,"is_disabled":false,"rental_uris":{"android":"levelo://app?vid=bbd9b8ed-a1e8-4032-b158-6f4e65154ae8","ios":"levelo://app?vid=bbd9b8ed-a1e8-4032-b158-6f4e65154ae8"},"vehicle_type_id":"4","last_reported":1746194998,"current_range_meters":17600,"station_id":"ce4bgih2rcd13ifvqba0","pricing_plan_id":"cebpf4jnsgd1na2vs0mg"},{"bike_id":"1b1bfa22-ca8f-47b0-b5e8-c83996deba3b","system_id":"levelo_inurba_marseille","lat":43.30158,"lon":5.38085,"is_reserved":false,"is_disabled":false,"rental_uris":{"android":"levelo://app?vid=1b1bfa22-ca8f-47b0-b5e8-c83996deba3b","ios":"levelo://app?vid=1b1bfa22-ca8f-47b0-b5e8-c83996deba3b"},"vehicle_type_id":"4","last_reported":1746194998,"current_range_meters":17600,"station_id":"ce4bgjp2rcd13ifvqbh0","pricing_plan_id":"cebpf4jnsgd1na2vs0mg"},{"bike_id":"93649171-4459-4782-b5fe-da9af4a333dc","system_id":"levelo_inurba_marseille","lat":43.23721,"lon":5.40377,"is_reserved":false,"is_disabled":false,"rental_uris":{"android":"levelo://app?vid=93649171-4459-4782-b5fe-da9af4a333dc","ios":"levelo://app?vid=93649171-4459-4782-b5fe-da9af4a333dc"},"vehicle_type_id":"4","last_reported":1746194998,"current_range_meters":17600,"station_id":"","pricing_plan_id":"cebpf4jnsgd1na2vs0mg"},{"bike_id":"93a4b852-d8c9-4f3f-9d44-bb989b0f7e8a","system_id":"levelo_inurba_marseille","lat":43.21748,"lon":5.34602,"is_reserved":false,"is_disabled":false,"rental_uris":{"android":"levelo://app?vid=93a4b852-d8c9-4f3f-9d44-bb989b0f7e8a","ios":"levelo://app?vid=93a4b852-d8c9-4f3f-9d44-bb989b0f7e8a"},"vehicle_type_id":"4","last_reported":1746194998,"current_range_meters":17600,"station_id":"st_cvj6r9ubvosntc0bgbag","pricing_plan_id":"cebpf4jnsgd1na2vs0mg"},{"bike_id":"747e3500-dd20-46fe-bd95-1ae0bce846b3","system_id":"levelo_inurba_marseille","lat":43.31059,"lon":5.38195,"is_reserved":false,"is_disabled":false,"rental_uris":{"android":"levelo://app?vid=747e3500-dd20-46fe-bd95-1ae0bce846b3","ios":"levelo://app?vid=747e3500-dd20-46fe-bd95-1ae0bce846b3"},"vehicle_type_id":"4","last_reported":1746194998,"current_range_meters":17600,"station_id":"","pricing_plan_id":"cebpf4jnsgd1na2vs0mg"},{"bike_id":"0b53c3dc-588d-44e2-a493-5d152abcf2e4","system_id":"levelo_inurba_marseille","lat":43.21194,"lon":5.35074,"is_reserved":false,"is_disabled":false,"rental_uris":{"android":"levelo://app?vid=0b53c3dc-588d-44e2-a493-5d152abcf2e4","ios":"levelo://app?vid=0b53c3dc-588d-44e2-a493-5d152abcf2e4"},"vehicle_type_id":"4","last_reported":1746194998,"current_range_meters":18000,"station_id":"st_cvj6sg6p6f1abm77japg","pricing_plan_id":"cebpf4jnsgd1na2vs0mg"},{"bike_id":"6b9a83f0-609e-4cce-b1a2-f30c544a4a37","system_id":"levelo_inurba_marseille","lat":43.24184,"lon":5.39735,"is_reserved":false,"is_disabled":false,"rental_uris":{"android":"levelo://app?vid=6b9a83f0-609e-4cce-b1a2-f30c544a4a37","ios":"levelo://app?vid=6b9a83f0-609e-4cce-b1a2-f30c544a4a37"},"vehicle_type_id":"4","last_reported":1746194998,"current_range_meters":18000,"station_id":"ce4bhn12rcd13ifvqgpg","pricing_plan_id":"cebpf4jnsgd1na2vs0mg"},{"bike_id":"8e9ceff5-c21e-4ae7-8768-7fffbf87cfb6","system_id":"levelo_inurba_marseille","lat":43.29436,"lon":5.39742,"is_reserved":false,"is_disabled":false,"rental_uris":{"android":"levelo://app?vid=8e9ceff5-c21e-4ae7-8768-7fffbf87cfb6","ios":"levelo://app?vid=8e9ceff5-c21e-4ae7-8768-7fffbf87cfb6"},"vehicle_type_id":"4","last_reported":1746194998,"current_range_meters":18000,"station_id":"ce4bh3h2rcd13ifvqdo0","pricing_plan_id":"cebpf4jnsgd1na2vs0mg"},{"bike_id":"259b104b-2df2-4305-be70-885ea23b6dc6","system_id":"levelo_inurba_marseille","lat":43.22931,"lon":5.35395,"is_reserved":false,"is_disabled":false,"rental_uris":{"android":"levelo://app?vid=259b104b-2df2-4305-be70-885ea23b6dc6","ios":"levelo://app?vid=259b104b-2df2-4305-be70-885ea23b6dc6"},"vehicle_type_id":"4","last_reported":1746194998,"current_range_meters":18800,"station_id":"cpo3532slgdg3j2ikp40","pricing_plan_id":"cebpf4jnsgd1na2vs0mg"},{"bike_id":"252aa356-69ed-47f6-9db7-cd08744645ec","system_id":"levelo_inurba_marseille","lat":43.28036,"lon":5.36942,"is_reserved":false,"is_disabled":false,"rental_uris":{"android":"levelo://app?vid=252aa356-69ed-47f6-9db7-cd08744645ec","ios":"levelo://app?vid=252aa356-69ed-47f6-9db7-cd08744645ec"},"vehicle_type_id":"4","last_reported":1746194998,"current_range_meters":18800,"station_id":"ce4bha12rcd13ifvqef0","pricing_plan_id":"cebpf4jnsgd1na2vs0mg"},{"bike_id":"2a6c66a7-38a8-483d-a0e1-47b0b5e0d4e7","system_id":"levelo_inurba_marseille","lat":43.2869,"lon":5.37384,"is_reserved":false,"is_disabled":false,"rental_uris":{"android":"levelo://app?vid=2a6c66a7-38a8-483d-a0e1-47b0b5e0d4e7","ios":"levelo://app?vid=2a6c66a7-38a8-483d-a0e1-47b0b5e0d4e7"},"vehicle_type_id":"4","last_reported":1746194998,"current_range_meters":18800,"station_id":"ce4bh3p2rcd13ifvqdq0","pricing_plan_id":"cebpf4jnsgd1na2vs0mg"},{"bike_id":"8358e3d0-6639-4ac2-ba04-8477e18cc50d","system_id":"levelo_inurba_marseille","lat":43.33218,"lon":5.38555,"is_reserved":false,"is_disabled":false,"rental_uris":{"android":"levelo://app?vid=8358e3d0-6639-4ac2-ba04-8477e18cc50d","ios":"levelo://app?vid=8358e3d0-6639-4ac2-ba04-8477e18cc50d"},"vehicle_type_id":"4","last_reported":1746194998,"current_range_meters":18800,"station_id":"","pricing_plan_id":"cebpf4jnsgd1na2vs0mg"},{"bike_id":"5fd15870-1b92-4efa-95ea-745f6d882214","system_id":"levelo_inurba_marseille","lat":43.325433,"lon":5.41443,"is_reserved":false,"is_disabled":false,"rental_uris":{"android":"levelo://app?vid=5fd15870-1b92-4efa-95ea-745f6d882214","ios":"levelo://app?vid=5fd15870-1b92-4efa-95ea-745f6d882214"},"vehicle_type_id":"4","last_reported":1746194998,"current_range_meters":18800,"station_id":"ce4bhq12rcd13ifvqhhg","pricing_plan_id":"cebpf4jnsgd1na2vs0mg"},{"bike_id":"261610f9-7512-4f50-b2d8-63ec687dd86f","system_id":"levelo_inurba_marseille","lat":43.21192,"lon":5.35074,"is_reserved":false,"is_disabled":false,"rental_uris":{"android":"levelo://app?vid=261610f9-7512-4f50-b2d8-63ec687dd86f","ios":"levelo://app?vid=261610f9-7512-4f50-b2d8-63ec687dd86f"},"vehicle_type_id":"4","last_reported":1746194998,"current_range_meters":18800,"station_id":"st_cvj6sg6p6f1abm77japg","pricing_plan_id":"cebpf4jnsgd1na2vs0mg"},{"bike_id":"932eee8f-d0bf-4827-b80a-72033b31fde7","system_id":"levelo_inurba_marseille","lat":43.255,"lon":5.37648,"is_reserved":false,"is_disabled":false,"rental_uris":{"android":"levelo://app?vid=932eee8f-d0bf-4827-b80a-72033b31fde7","ios":"levelo://app?vid=932eee8f-d0bf-4827-b80a-72033b31fde7"},"vehicle_type_id":"4","last_reported":1746194998,"current_range_meters":18800,"station_id":"ce4bhh12rcd13ifvqff0","pricing_plan_id":"cebpf4jnsgd1na2vs0mg"},{"bike_id":"329b1f37-6a8e-4a15-bcdc-6fc991dc880f","system_id":"levelo_inurba_marseille","lat":43.26806,"lon":5.39425,"is_reserved":false,"is_disabled":false,"rental_uris":{"android":"levelo://app?vid=329b1f37-6a8e-4a15-bcdc-6fc991dc880f","ios":"levelo://app?vid=329b1f37-6a8e-4a15-bcdc-6fc991dc880f"},"vehicle_type_id":"4","last_reported":1746194998,"current_range_meters":18800,"station_id":"ce4bhh12rcd13ifvqfg0","pricing_plan_id":"cebpf4jnsgd1na2vs0mg"},{"bike_id":"81dc6de7-df00-4eeb-bff1-fb3a307ed4fd","system_id":"levelo_inurba_marseille","lat":43.25497,"lon":5.37648,"is_reserved":false,"is_disabled":false,"rental_uris":{"android":"levelo://app?vid=81dc6de7-df00-4eeb-bff1-fb3a307ed4fd","ios":"levelo://app?vid=81dc6de7-df00-4eeb-bff1-fb3a307ed4fd"},"vehicle_type_id":"4","last_reported":1746194998,"current_range_meters":18800,"station_id":"ce4bhh12rcd13ifvqff0","pricing_plan_id":"cebpf4jnsgd1na2vs0mg"},{"bike_id":"8ea83673-9076-4fec-91a4-5ec8e7d4ba25","system_id":"levelo_inurba_marseille","lat":43.23185,"lon":5.39981,"is_reserved":false,"is_disabled":false,"rental_uris":{"android":"levelo://app?vid=8ea83673-9076-4fec-91a4-5ec8e7d4ba25","ios":"levelo://app?vid=8ea83673-9076-4fec-91a4-5ec8e7d4ba25"},"vehicle_type_id":"4","last_reported":1746194998,"current_range_meters":18000,"station_id":"ce4bhn12rcd13ifvqgqg","pricing_plan_id":"cebpf4jnsgd1na2vs0mg"},{"bike_id":"899b4d09-06b3-49fe-9b6a-d6f390f6474c","system_id":"levelo_inurba_marseille","lat":43.29977,"lon":5.37174,"is_reserved":false,"is_disabled":false,"rental_uris":{"android":"levelo://app?vid=899b4d09-06b3-49fe-9b6a-d6f390f6474c","ios":"levelo://app?vid=899b4d09-06b3-49fe-9b6a-d6f390f6474c"},"vehicle_type_id":"4","last_reported":1746194998,"current_range_meters":18800,"station_id":"ce4bgr92rcd13ifvqc7g","pricing_plan_id":"cebpf4jnsgd1na2vs0mg"},{"bike_id":"34e27a80-9291-4708-84ca-cf9b2634175e","system_id":"levelo_inurba_marseille","lat":43.217433,"lon":5.346022,"is_reserved":false,"is_disabled":false,"rental_uris":{"android":"levelo://app?vid=34e27a80-9291-4708-84ca-cf9b2634175e","ios":"levelo://app?vid=34e27a80-9291-4708-84ca-cf9b2634175e"},"vehicle_type_id":"4","last_reported":1746194998,"current_range_meters":19200,"station_id":"st_cvj6r9ubvosntc0bgbag","pricing_plan_id":"cebpf4jnsgd1na2vs0mg"},{"bike_id":"484bff6c-3cba-4805-9e9d-d10245206aa1","system_id":"levelo_inurba_marseille","lat":43.261658,"lon":5.374787,"is_reserved":false,"is_disabled":false,"rental_uris":{"android":"levelo://app?vid=484bff6c-3cba-4805-9e9d-d10245206aa1","ios":"levelo://app?vid=484bff6c-3cba-4805-9e9d-d10245206aa1"},"vehicle_type_id":"4","last_reported":1746194998,"current_range_meters":19200,"station_id":"ce4bhhh2rcd13ifvqfl0","pricing_plan_id":"cebpf4jnsgd1na2vs0mg"},{"bike_id":"98859ef6-db66-471f-816c-1c30571e5f03","system_id":"levelo_inurba_marseille","lat":43.25113,"lon":5.40318,"is_reserved":false,"is_disabled":false,"rental_uris":{"android":"levelo://app?vid=98859ef6-db66-471f-816c-1c30571e5f03","ios":"levelo://app?vid=98859ef6-db66-471f-816c-1c30571e5f03"},"vehicle_type_id":"4","last_reported":1746194998,"current_range_meters":19200,"station_id":"ce4bhlh2rcd13ifvqgig","pricing_plan_id":"cebpf4jnsgd1na2vs0mg"},{"bike_id":"62c2076b-7d64-467b-8df2-5e817741f650","system_id":"levelo_inurba_marseille","lat":43.22936,"lon":5.35382,"is_reserved":false,"is_disabled":false,"rental_uris":{"android":"levelo://app?vid=62c2076b-7d64-467b-8df2-5e817741f650","ios":"levelo://app?vid=62c2076b-7d64-467b-8df2-5e817741f650"},"vehicle_type_id":"4","last_reported":1746194998,"current_range_meters":19200,"station_id":"cpo3532slgdg3j2ikp40","pricing_plan_id":"cebpf4jnsgd1na2vs0mg"},{"bike_id":"72accc23-dced-424c-b834-2ab972b49116","system_id":"levelo_inurba_marseille","lat":43.211943,"lon":5.350638,"is_reserved":false,"is_disabled":false,"rental_uris":{"android":"levelo://app?vid=72accc23-dced-424c-b834-2ab972b49116","ios":"levelo://app?vid=72accc23-dced-424c-b834-2ab972b49116"},"vehicle_type_id":"4","last_reported":1746194998,"current_range_meters":19600,"station_id":"st_cvj6sg6p6f1abm77japg","pricing_plan_id":"cebpf4jnsgd1na2vs0mg"},{"bike_id":"46ec0faa-828d-4cd0-a7b9-78a74bf6a6a1","system_id":"levelo_inurba_marseille","lat":43.32337,"lon":5.4062,"is_reserved":false,"is_disabled":false,"rental_uris":{"android":"levelo://app?vid=46ec0faa-828d-4cd0-a7b9-78a74bf6a6a1","ios":"levelo://app?vid=46ec0faa-828d-4cd0-a7b9-78a74bf6a6a1"},"vehicle_type_id":"4","last_reported":1746194998,"current_range_meters":19600,"station_id":"ce4bhq92rcd13ifvqhjg","pricing_plan_id":"cebpf4jnsgd1na2vs0mg"},{"bike_id":"bb6bada7-f341-4209-b8b5-a56adbf424e2","system_id":"levelo_inurba_marseille","lat":43.29199,"lon":5.357952,"is_reserved":false,"is_disabled":false,"rental_uris":{"android":"levelo://app?vid=bb6bada7-f341-4209-b8b5-a56adbf424e2","ios":"levelo://app?vid=bb6bada7-f341-4209-b8b5-a56adbf424e2"},"vehicle_type_id":"4","last_reported":1746194998,"current_range_meters":19600,"station_id":"ce4bhb12rcd13ifvqel0","pricing_plan_id":"cebpf4jnsgd1na2vs0mg"},{"bike_id":"fbf470e0-6cc5-44c4-9db1-e3c9ca5d8935","system_id":"levelo_inurba_marseille","lat":43.21187,"lon":5.35075,"is_reserved":false,"is_disabled":false,"rental_uris":{"android":"levelo://app?vid=fbf470e0-6cc5-44c4-9db1-e3c9ca5d8935","ios":"levelo://app?vid=fbf470e0-6cc5-44c4-9db1-e3c9ca5d8935"},"vehicle_type_id":"4","last_reported":1746194998,"current_range_meters":19600,"station_id":"st_cvj6sg6p6f1abm77japg","pricing_plan_id":"cebpf4jnsgd1na2vs0mg"},{"bike_id":"8e1d934b-3f1e-4f27-9ca7-20d76ec28925","system_id":"levelo_inurba_marseille","lat":43.31486,"lon":5.37311,"is_reserved":false,"is_disabled":false,"rental_uris":{"android":"levelo://app?vid=8e1d934b-3f1e-4f27-9ca7-20d76ec28925","ios":"levelo://app?vid=8e1d934b-3f1e-4f27-9ca7-20d76ec28925"},"vehicle_type_id":"4","last_reported":1746194998,"current_range_meters":19600,"station_id":"ce4bgt12rcd13ifvqcd0","pricing_plan_id":"cebpf4jnsgd1na2vs0mg"},{"bike_id":"baf4561c-9bda-477a-8871-110377773ec1","system_id":"levelo_inurba_marseille","lat":43.295498,"lon":5.422722,"is_reserved":false,"is_disabled":false,"rental_uris":{"android":"levelo://app?vid=baf4561c-9bda-477a-8871-110377773ec1","ios":"levelo://app?vid=baf4561c-9bda-477a-8871-110377773ec1"},"vehicle_type_id":"4","last_reported":1746194998,"current_range_meters":20000,"station_id":"ce4bhph2rcd13ifvqhdg","pricing_plan_id":"cebpf4jnsgd1na2vs0mg"},{"bike_id":"bc02c704-1f3a-4970-82a0-40d53ec58a95","system_id":"levelo_inurba_marseille","lat":43.22938,"lon":5.35379,"is_reserved":false,"is_disabled":false,"rental_uris":{"android":"levelo://app?vid=bc02c704-1f3a-4970-82a0-40d53ec58a95","ios":"levelo://app?vid=bc02c704-1f3a-4970-82a0-40d53ec58a95"},"vehicle_type_id":"4","last_reported":1746194998,"current_range_meters":20000,"station_id":"cpo3532slgdg3j2ikp40","pricing_plan_id":"cebpf4jnsgd1na2vs0mg"},{"bike_id":"e0ceefc0-61c9-406f-91eb-ef69db9dbe42","system_id":"levelo_inurba_marseille","lat":43.26123,"lon":5.41469,"is_reserved":false,"is_disabled":false,"rental_uris":{"android":"levelo://app?vid=e0ceefc0-61c9-406f-91eb-ef69db9dbe42","ios":"levelo://app?vid=e0ceefc0-61c9-406f-91eb-ef69db9dbe42"},"vehicle_type_id":"4","last_reported":1746194998,"current_range_meters":20000,"station_id":"","pricing_plan_id":"cebpf4jnsgd1na2vs0mg"},{"bike_id":"8c4ba53b-91a6-4d85-a1e5-5517fba215ae","system_id":"levelo_inurba_marseille","lat":43.25502,"lon":5.37647,"is_reserved":false,"is_disabled":false,"rental_uris":{"android":"levelo://app?vid=8c4ba53b-91a6-4d85-a1e5-5517fba215ae","ios":"levelo://app?vid=8c4ba53b-91a6-4d85-a1e5-5517fba215ae"},"vehicle_type_id":"4","last_reported":1746194998,"current_range_meters":19600,"station_id":"ce4bhh12rcd13ifvqff0","pricing_plan_id":"cebpf4jnsgd1na2vs0mg"},{"bike_id":"c085f97d-ab8f-473f-abd9-49aed5cdfec6","system_id":"levelo_inurba_marseille","lat":43.28366,"lon":5.38617,"is_reserved":false,"is_disabled":false,"rental_uris":{"android":"levelo://app?vid=c085f97d-ab8f-473f-abd9-49aed5cdfec6","ios":"levelo://app?vid=c085f97d-ab8f-473f-abd9-49aed5cdfec6"},"vehicle_type_id":"4","last_reported":1746194998,"current_range_meters":20400,"station_id":"ce4bh492rcd13ifvqdvg","pricing_plan_id":"cebpf4jnsgd1na2vs0mg"},{"bike_id":"56619709-a397-465d-8a77-22296c47a293","system_id":"levelo_inurba_marseille","lat":43.30946,"lon":5.39021,"is_reserved":false,"is_disabled":false,"rental_uris":{"android":"levelo://app?vid=56619709-a397-465d-8a77-22296c47a293","ios":"levelo://app?vid=56619709-a397-465d-8a77-22296c47a293"},"vehicle_type_id":"4","last_reported":1746194998,"current_range_meters":19600,"station_id":"ce4bgup2rcd13ifvqco0","pricing_plan_id":"cebpf4jnsgd1na2vs0mg"},{"bike_id":"e35f572d-fc98-4676-a2c2-b6fab78a24cc","system_id":"levelo_inurba_marseille","lat":43.21744,"lon":5.3461,"is_reserved":false,"is_disabled":false,"rental_uris":{"android":"levelo://app?vid=e35f572d-fc98-4676-a2c2-b6fab78a24cc","ios":"levelo://app?vid=e35f572d-fc98-4676-a2c2-b6fab78a24cc"},"vehicle_type_id":"4","last_reported":1746194998,"current_range_meters":20000,"station_id":"st_cvj6r9ubvosntc0bgbag","pricing_plan_id":"cebpf4jnsgd1na2vs0mg"},{"bike_id":"42157d03-ec4f-4ee4-b84f-7fb1c74ddcfc","system_id":"levelo_inurba_marseille","lat":43.32112,"lon":5.36768,"is_reserved":false,"is_disabled":false,"rental_uris":{"android":"levelo://app?vid=42157d03-ec4f-4ee4-b84f-7fb1c74ddcfc","ios":"levelo://app?vid=42157d03-ec4f-4ee4-b84f-7fb1c74ddcfc"},"vehicle_type_id":"4","last_reported":1746194998,"current_range_meters":20000,"station_id":"ce4bhrh2rcd13ifvqhug","pricing_plan_id":"cebpf4jnsgd1na2vs0mg"},{"bike_id":"7570183b-4fd3-4788-bac8-40540f6673b2","system_id":"levelo_inurba_marseille","lat":43.32371,"lon":5.38889,"is_reserved":false,"is_disabled":false,"rental_uris":{"android":"levelo://app?vid=7570183b-4fd3-4788-bac8-40540f6673b2","ios":"levelo://app?vid=7570183b-4fd3-4788-bac8-40540f6673b2"},"vehicle_type_id":"4","last_reported":1746194998,"current_range_meters":20000,"station_id":"ce4bhqp2rcd13ifvqhog","pricing_plan_id":"cebpf4jnsgd1na2vs0mg"},{"bike_id":"4c1244d3-7d09-47f5-9108-f0e0e57b76cc","system_id":"levelo_inurba_marseille","lat":43.30933,"lon":5.36851,"is_reserved":false,"is_disabled":false,"rental_uris":{"android":"levelo://app?vid=4c1244d3-7d09-47f5-9108-f0e0e57b76cc","ios":"levelo://app?vid=4c1244d3-7d09-47f5-9108-f0e0e57b76cc"},"vehicle_type_id":"4","last_reported":1746194998,"current_range_meters":20400,"station_id":"ce4bgn92rcd13ifvqbvg","pricing_plan_id":"cebpf4jnsgd1na2vs0mg"},{"bike_id":"92570534-bd82-4cba-bc4f-8432f73734c5","system_id":"levelo_inurba_marseille","lat":43.30193,"lon":5.3663,"is_reserved":false,"is_disabled":false,"rental_uris":{"android":"levelo://app?vid=92570534-bd82-4cba-bc4f-8432f73734c5","ios":"levelo://app?vid=92570534-bd82-4cba-bc4f-8432f73734c5"},"vehicle_type_id":"4","last_reported":1746194998,"current_range_meters":20400,"station_id":"ce4bgrh2rcd13ifvqc8g","pricing_plan_id":"cebpf4jnsgd1na2vs0mg"},{"bike_id":"5f85e418-84e4-46ba-8501-b499343a4578","system_id":"levelo_inurba_marseille","lat":43.29197,"lon":5.35802,"is_reserved":false,"is_disabled":false,"rental_uris":{"android":"levelo://app?vid=5f85e418-84e4-46ba-8501-b499343a4578","ios":"levelo://app?vid=5f85e418-84e4-46ba-8501-b499343a4578"},"vehicle_type_id":"4","last_reported":1746194998,"current_range_meters":22000,"station_id":"ce4bhb12rcd13ifvqel0","pricing_plan_id":"cebpf4jnsgd1na2vs0mg"},{"bike_id":"2895bc3e-bbfa-4d00-aa14-a26ab654f35c","system_id":"levelo_inurba_marseille","lat":43.27221,"lon":5.39181,"is_reserved":false,"is_disabled":false,"rental_uris":{"android":"levelo://app?vid=2895bc3e-bbfa-4d00-aa14-a26ab654f35c","ios":"levelo://app?vid=2895bc3e-bbfa-4d00-aa14-a26ab654f35c"},"vehicle_type_id":"4","last_reported":1746194998,"current_range_meters":20800,"station_id":"ce4bhhp2rcd13ifvqfm0","pricing_plan_id":"cebpf4jnsgd1na2vs0mg"},{"bike_id":"9fe981d3-cbc1-46ad-a751-45443340f204","system_id":"levelo_inurba_marseille","lat":43.31889,"lon":5.40743,"is_reserved":false,"is_disabled":false,"rental_uris":{"android":"levelo://app?vid=9fe981d3-cbc1-46ad-a751-45443340f204","ios":"levelo://app?vid=9fe981d3-cbc1-46ad-a751-45443340f204"},"vehicle_type_id":"4","last_reported":1746194998,"current_range_meters":20800,"station_id":"ce4bhq12rcd13ifvqhig","pricing_plan_id":"cebpf4jnsgd1na2vs0mg"},{"bike_id":"ff95c483-556d-4a0f-8976-34779bf08988","system_id":"levelo_inurba_marseille","lat":43.30146,"lon":5.38067,"is_reserved":false,"is_disabled":false,"rental_uris":{"android":"levelo://app?vid=ff95c483-556d-4a0f-8976-34779bf08988","ios":"levelo://app?vid=ff95c483-556d-4a0f-8976-34779bf08988"},"vehicle_type_id":"4","last_reported":1746194998,"current_range_meters":22000,"station_id":"ce4bgjp2rcd13ifvqbh0","pricing_plan_id":"cebpf4jnsgd1na2vs0mg"},{"bike_id":"40e95ee4-9004-4bf0-8396-330ebd45f9f7","system_id":"levelo_inurba_marseille","lat":43.22931,"lon":5.3538,"is_reserved":false,"is_disabled":false,"rental_uris":{"android":"levelo://app?vid=40e95ee4-9004-4bf0-8396-330ebd45f9f7","ios":"levelo://app?vid=40e95ee4-9004-4bf0-8396-330ebd45f9f7"},"vehicle_type_id":"4","last_reported":1746194998,"current_range_meters":20800,"station_id":"cpo3532slgdg3j2ikp40","pricing_plan_id":"cebpf4jnsgd1na2vs0mg"},{"bike_id":"50a4a43d-df2a-41e1-955b-499d1f49c2b2","system_id":"levelo_inurba_marseille","lat":43.24387,"lon":5.37063,"is_reserved":false,"is_disabled":true,"rental_uris":{"android":"levelo://app?vid=50a4a43d-df2a-41e1-955b-499d1f49c2b2","ios":"levelo://app?vid=50a4a43d-df2a-41e1-955b-499d1f49c2b2"},"vehicle_type_id":"4","last_reported":1746194998,"current_range_meters":20800,"station_id":"ce4bhhh2rcd13ifvqfk0","pricing_plan_id":"cebpf4jnsgd1na2vs0mg"},{"bike_id":"c8e16fcb-5510-4723-b6e7-2aa49c1b3b8d","system_id":"levelo_inurba_marseille","lat":43.28413,"lon":5.34971,"is_reserved":false,"is_disabled":false,"rental_uris":{"android":"levelo://app?vid=c8e16fcb-5510-4723-b6e7-2aa49c1b3b8d","ios":"levelo://app?vid=c8e16fcb-5510-4723-b6e7-2aa49c1b3b8d"},"vehicle_type_id":"4","last_reported":1746194998,"current_range_meters":21600,"station_id":"","pricing_plan_id":"cebpf4jnsgd1na2vs0mg"},{"bike_id":"fc487630-4070-4633-b515-8a0d0abe3510","system_id":"levelo_inurba_marseille","lat":43.28361,"lon":5.38104,"is_reserved":false,"is_disabled":false,"rental_uris":{"android":"levelo://app?vid=fc487630-4070-4633-b515-8a0d0abe3510","ios":"levelo://app?vid=fc487630-4070-4633-b515-8a0d0abe3510"},"vehicle_type_id":"4","last_reported":1746194998,"current_range_meters":20800,"station_id":"ce4bh412rcd13ifvqdr0","pricing_plan_id":"cebpf4jnsgd1na2vs0mg"},