{"last_updated":1734700574,"ttl":60,"version":"2.2","data":{"bikes":[{"bike_id":"6f417142-4381-4cb7-80ee-165ae6c54951","system_id":"levelo_inurba_marseille","lat":43.31084,"lon":5.42432,"is_reserved":false,"is_disabled":false,"rental_uris":{"android":"levelo://app?vid=6f417142-4381-4cb7-80ee-165ae6c54951","ios":"levelo://app?vid=6f417142-4381-4cb7-80ee-165ae6c54951"},"vehicle_type_id":"4","last_reported":1734700575,"current_range_meters":16400,"station_id":"ce4bhp92rcd13ifvqhag","pricing_plan_id":"cebpf4jnsgd1na2vs0mg"},{"bike_id":"0dd56f32-def4-4e3f-b3dd-536c82db31b0","system_id":"levelo_inurba_marseille","lat":43.28928,"lon":5.36634,"is_reserved":false,"is_disabled":false,"rental_uris":{"android":"levelo://app?vid=0dd56f32-def4-4e3f-b3dd-536c82db31b0","ios":"levelo://app?vid=0dd56f32-def4-4e3f-b3dd-536c82db31b0"},"vehicle_type_id":"4","last_reported":1734700575,"current_range_meters":30000,"station_id":"ce4bhap2rcd13ifvqek0","pricing_plan_id":"cebpf4jnsgd1na2vs0mg"},{"bike_id":"eb156c91-5c91-4664-a66b-8fb17c1b7811","system_id":"levelo_inurba_marseille","lat":43.2844,"lon":5.39186,"is_reserved":false,"is_disabled":false,"rental_uris":{"android":"levelo://app?vid=eb156c91-5c91-4664-a66b-8fb17c1b7811","ios":"levelo://app?vid=eb156c91-5c91-4664-a66b-8fb17c1b7811"},"vehicle_type_id":"4","last_reported":1734700575,"current_range_meters":37600,"station_id":"ce4bhoh2rcd13ifvqh5g","pricing_plan_id":"cebpf4jnsgd1na2vs0mg"},{"bike_id":"c20c717d-c827-41e6-9454-3f93a777b421","system_id":"levelo_inurba_marseille","lat":43.27838,"lon":5.39196,"is_reserved":false,"is_disabled":true,"rental_uris":{"android":"levelo://app?vid=c20c717d-c827-41e6-9454-3f93a777b421","ios":"levelo://app?vid=c20c717d-c827-41e6-9454-3f93a777b421"},"vehicle_type_id":"4","last_reported":1734700575,"current_range_meters":1600,"station_id":"ce4bhjp2rcd13ifvqga0","pricing_plan_id":"cebpf4jnsgd1na2vs0mg"},{"bike_id":"5d2230a4-244e-4c87-99c6-c8f051d7fd37","system_id":"levelo_inurba_marseille","lat":43.28565,"lon":5.39502,"is_reserved":false,"is_disabled":false,"rental_uris":{"android":"levelo://app?vid=5d2230a4-244e-4c87-99c6-c8f051d7fd37","ios":"levelo://app?vid=5d2230a4-244e-4c87-99c6-c8f051d7fd37"},"vehicle_type_id":"4","last_reported":1734700575,"current_range_meters":19200,"station_id":"ce4bh292rcd13ifvqdg0","pricing_plan_id":"cebpf4jnsgd1na2vs0mg"},{"bike_id":"b8d0e431-551e-42b8-b8f0-e2dfb3ae76df","system_id":"levelo_inurba_marseille","lat":43.27416,"lon":5.39408,"is_reserved":false,"is_disabled":false,"rental_uris":{"android":"levelo://app?vid=b8d0e431-551e-42b8-b8f0-e2dfb3ae76df","ios":"levelo://app?vid=b8d0e431-551e-42b8-b8f0-e2dfb3ae76df"},"vehicle_type_id":"4","last_reported":1734700575,"current_range_meters":30000,"station_id":"ce4bhdp2rcd13ifvqf20","pricing_plan_id":"cebpf4jnsgd1na2vs0mg"},{"bike_id":"0b3c962c-40d1-4375-b60d-644d72aaacf1","system_id":"levelo_inurba_marseille","lat":43.28157,"lon":5.4033,"is_reserved":false,"is_disabled":true,"rental_uris":{"android":"levelo://app?vid=0b3c962c-40d1-4375-b60d-644d72aaacf1","ios":"levelo://app?vid=0b3c962c-40d1-4375-b60d-644d72aaacf1"},"vehicle_type_id":"4","last_reported":1734700575,"current_range_meters":0,"station_id":"","pricing_plan_id":"cebpf4jnsgd1na2vs0mg"},{"bike_id":"db944496-3b59-40f7-acb5-b434737b48ca","system_id":"levelo_inurba_marseille","lat":43.31272,"lon":5.40167,"is_reserved":false,"is_disabled":false,"rental_uris":{"android":"levelo://app?vid=db944496-3b59-40f7-acb5-b434737b48ca","ios":"levelo://app?vid=db944496-3b59-40f7-acb5-b434737b48ca"},"vehicle_type_id":"4","last_reported":1734700575,"current_range_meters":36800,"station_id":"ce4bh092rcd13ifvqd30","pricing_plan_id":"cebpf4jnsgd1na2vs0mg"},{"bike_id":"bb8a7f7b-b3a9-42f7-80d9-b15024d74ec2","system_id":"levelo_inurba_marseille","lat":43.28727,"lon":5.360746,"is_reserved":false,"is_disabled":false,"rental_uris":{"android":"levelo://app?vid=bb8a7f7b-b3a9-42f7-80d9-b15024d74ec2","ios":"levelo://app?vid=bb8a7f7b-b3a9-42f7-80d9-b15024d74ec2"},"vehicle_type_id":"4","last_reported":1734700575,"current_range_meters":30800,"station_id":"cki0cbj6b192h4jlfktg","pricing_plan_id":"cebpf4jnsgd1na2vs0mg"},{"bike_id":"8c085808-ca9e-42a0-b4e2-c71c298daa7f","system_id":"levelo_inurba_marseille","lat":43.27055,"lon":5.40258,"is_reserved":false,"is_disabled":false,"rental_uris":{"android":"levelo://app?vid=8c085808-ca9e-42a0-b4e2-c71c298daa7f","ios":"levelo://app?vid=8c085808-ca9e-42a0-b4e2-c71c298daa7f"},"vehicle_type_id":"4","last_reported":1734700575,"current_range_meters":27600,"station_id":"ce4bhk92rcd13ifvqgc0","pricing_plan_id":"cebpf4jnsgd1na2vs0mg"},{"bike_id":"6dbd45f5-882d-4325-9c7e-f0f72386c6da","system_id":"levelo_inurba_marseille","lat":43.23863,"lon":5.37402,"is_reserved":false,"is_disabled":true,"rental_uris":{"android":"levelo://app?vid=6dbd45f5-882d-4325-9c7e-f0f72386c6da","ios":"levelo://app?vid=6dbd45f5-882d-4325-9c7e-f0f72386c6da"},"vehicle_type_id":"4","last_reported":1734700575,"current_range_meters":4800,"station_id":"","pricing_plan_id":"cebpf4jnsgd1na2vs0mg"},{"bike_id":"dae4111a-1c3d-45f4-8835-f110251605a8","system_id":"levelo_inurba_marseille","lat":43.29276,"lon":5.36845,"is_reserved":false,"is_disabled":false,"rental_uris":{"android":"levelo://app?vid=dae4111a-1c3d-45f4-8835-f110251605a8","ios":"levelo://app?vid=dae4111a-1c3d-45f4-8835-f110251605a8"},"vehicle_type_id":"4","last_reported":1734700575,"current_range_meters":35200,"station_id":"ce4bhbp2rcd13ifvqesg","pricing_plan_id":"cebpf4jnsgd1na2vs0mg"},{"bike_id":"b5c13e58-9eda-45bb-85bb-9c9a7b4602b5","system_id":"levelo_inurba_marseille","lat":43.29285,"lon":5.37441,"is_reserved":false,"is_disabled":false,"rental_uris":{"android":"levelo://app?vid=b5c13e58-9eda-45bb-85bb-9c9a7b4602b5","ios":"levelo://app?vid=b5c13e58-9eda-45bb-85bb-9c9a7b4602b5"},"vehicle_type_id":"4","last_reported":1734700575,"current_range_meters":38800,"station_id":"ce4bh9p2rcd13ifvqec0","pricing_plan_id":"cebpf4jnsgd1na2vs0mg"},{"bike_id":"1c7bee34-3735-4b6e-bce4-352db6125a44","system_id":"levelo_inurba_marseille","lat":43.29291,"lon":5.36832,"is_reserved":false,"is_disabled":false,"rental_uris":{"android":"levelo://app?vid=1c7bee34-3735-4b6e-bce4-352db6125a44","ios":"levelo://app?vid=1c7bee34-3735-4b6e-bce4-352db6125a44"},"vehicle_type_id":"4","last_reported":1734700575,"current_range_meters":28000,"station_id":"ce4bhbp2rcd13ifvqesg","pricing_plan_id":"cebpf4jnsgd1na2vs0mg"},{"bike_id":"116f6134-b07d-45c9-8af4-70483af884d5","system_id":"levelo_inurba_marseille","lat":43.26925,"lon":5.38932,"is_reserved":false,"is_disabled":false,"rental_uris":{"android":"levelo://app?vid=116f6134-b07d-45c9-8af4-70483af884d5","ios":"levelo://app?vid=116f6134-b07d-45c9-8af4-70483af884d5"},"vehicle_type_id":"4","last_reported":1734700575,"current_range_meters":28400,"station_id":"ce4bhhh2rcd13ifvqfl0","pricing_plan_id":"cebpf4jnsgd1na2vs0mg"},{"bike_id":"93cd12d2-ee52-454b-a1c6-a2a94b1185da","system_id":"levelo_inurba_marseille","lat":43.24793,"lon":5.37464,"is_reserved":false,"is_disabled":false,"rental_uris":{"android":"levelo://app?vid=93cd12d2-ee52-454b-a1c6-a2a94b1185da","ios":"levelo://app?vid=93cd12d2-ee52-454b-a1c6-a2a94b1185da"},"vehicle_type_id":"4","last_reported":1734700575,"current_range_meters":38800,"station_id":"ce4bhgh2rcd13ifvqfb0","pricing_plan_id":"cebpf4jnsgd1na2vs0mg"},{"bike_id":"5bc88b62-2b1b-4d97-b50f-97b9cca62e2f","system_id":"levelo_inurba_marseille","lat":43.30434,"lon":5.3976,"is_reserved":false,"is_disabled":false,"rental_uris":{"android":"levelo://app?vid=5bc88b62-2b1b-4d97-b50f-97b9cca62e2f","ios":"levelo://app?vid=5bc88b62-2b1b-4d97-b50f-97b9cca62e2f"},"vehicle_type_id":"4","last_reported":1734700575,"current_range_meters":37600,"station_id":"ce4bh092rcd13ifvqd20","pricing_plan_id":"cebpf4jnsgd1na2vs0mg"},{"bike_id":"c68d5f0e-be1a-4a1f-934b-b6bb5b1ff9cf","system_id":"levelo_inurba_marseille","lat":43.26501,"lon":5.40379,"is_reserved":false,"is_disabled":false,"rental_uris":{"android":"levelo://app?vid=c68d5f0e-be1a-4a1f-934b-b6bb5b1ff9cf","ios":"levelo://app?vid=c68d5f0e-be1a-4a1f-934b-b6bb5b1ff9cf"},"vehicle_type_id":"4","last_reported":1734700575,"current_range_meters":35600,"station_id":"ce4bhlh2rcd13ifvqgig","pricing_plan_id":"cebpf4jnsgd1na2vs0mg"},{"bike_id":"a6b29f44-fdb7-43b4-aa0a-03a46febd127","system_id":"levelo_inurba_marseille","lat":43.308863,"lon":5.378124,"is_reserved":false,"is_disabled":true,"rental_uris":{"android":"levelo://app?vid=a6b29f44-fdb7-43b4-aa0a-03a46febd127","ios":"levelo://app?vid=a6b29f44-fdb7-43b4-aa0a-03a46febd127"},"vehicle_type_id":"4","last_reported":1734700575,"current_range_meters":17600,"station_id":"","pricing_plan_id":"cebpf4jnsgd1na2vs0mg"},{"bike_id":"67b63791-69a8-4d5b-bf8d-97af1279ba1f","system_id":"levelo_inurba_marseille","lat":43.3046,"lon":5.37906,"is_reserved":false,"is_disabled":false,"rental_uris":{"android":"levelo://app?vid=67b63791-69a8-4d5b-bf8d-97af1279ba1f","ios":"levelo://app?vid=67b63791-69a8-4d5b-bf8d-97af1279ba1f"},"vehicle_type_id":"4","last_reported":1734700575,"current_range_meters":14800,"station_id":"ce4bgup2rcd13ifvqcn0","pricing_plan_id":"cebpf4jnsgd1na2vs0mg"},{"bike_id":"c7f24469-1136-4e21-b84a-0a12ce3b4eea","system_id":"levelo_inurba_marseille","lat":43.31684,"lon":5.40473,"is_reserved":false,"is_disabled":false,"rental_uris":{"android":"levelo://app?vid=c7f24469-1136-4e21-b84a-0a12ce3b4eea","ios":"levelo://app?vid=c7f24469-1136-4e21-b84a-0a12ce3b4eea"},"vehicle_type_id":"4","last_reported":1734700575,"current_range_meters":38800,"station_id":"ce4bh012rcd13ifvqd00","pricing_plan_id":"cebpf4jnsgd1na2vs0mg"},{"bike_id":"7ec8621a-9726-4d85-b602-b2b6b4a16cb4","system_id":"levelo_inurba_marseille","lat":43.29629,"lon":5.37715,"is_reserved":false,"is_disabled":false,"rental_uris":{"android":"levelo://app?vid=7ec8621a-9726-4d85-b602-b2b6b4a16cb4","ios":"levelo://app?vid=7ec8621a-9726-4d85-b602-b2b6b4a16cb4"},"vehicle_type_id":"4","last_reported":1734700575,"current_range_meters":38800,"station_id":"ce4bgi92rcd13ifvqb90","pricing_plan_id":"cebpf4jnsgd1na2vs0mg"},{"bike_id":"3091d709-3c11-43a1-a95d-31c0908ceed1","system_id":"levelo_inurba_marseille","lat":43.29269,"lon":5.36848,"is_reserved":false,"is_disabled":false,"rental_uris":{"android":"levelo://app?vid=3091d709-3c11-43a1-a95d-31c0908ceed1","ios":"levelo://app?vid=3091d709-3c11-43a1-a95d-31c0908ceed1"},"vehicle_type_id":"4","last_reported":1734700575,"current_range_meters":27200,"station_id":"ce4bhbp2rcd13ifvqesg","pricing_plan_id":"cebpf4jnsgd1na2vs0mg"},{"bike_id":"f2fca4b0-6d09-4b8b-ac93-ff1931bdad1c","system_id":"levelo_inurba_marseille","lat":43.27942,"lon":5.41048,"is_reserved":false,"is_disabled":false,"rental_uris":{"android":"levelo://app?vid=f2fca4b0-6d09-4b8b-ac93-ff1931bdad1c","ios":"levelo://app?vid=f2fca4b0-6d09-4b8b-ac93-ff1931bdad1c"},"vehicle_type_id":"4","last_reported":1734700575,"current_range_meters":27200,"station_id":"ce4bhnp2rcd13ifvqh0g","pricing_plan_id":"cebpf4jnsgd1na2vs0mg"},{"bike_id":"1f5658aa-8ea8-4307-9d90-553d04d04cbd","system_id":"levelo_inurba_marseille","lat":43.23151,"lon":5.43728,"is_reserved":false,"is_disabled":false,"rental_uris":{"android":"levelo://app?vid=1f5658aa-8ea8-4307-9d90-553d04d04cbd","ios":"levelo://app?vid=1f5658aa-8ea8-4307-9d90-553d04d04cbd"},"vehicle_type_id":"4","last_reported":1734700575,"current_range_meters":31200,"station_id":"ce4bhmp2rcd13ifvqgog","pricing_plan_id":"cebpf4jnsgd1na2vs0mg"},{"bike_id":"e54c3fa3-f9e8-43fa-97ab-12f5b2a3bfae","system_id":"levelo_inurba_marseille","lat":43.27823,"lon":5.39214,"is_reserved":false,"is_disabled":false,"rental_uris":{"android":"levelo://app?vid=e54c3fa3-f9e8-43fa-97ab-12f5b2a3bfae","ios":"levelo://app?vid=e54c3fa3-f9e8-43fa-97ab-12f5b2a3bfae"},"vehicle_type_id":"4","last_reported":1734700575,"current_range_meters":26800,"station_id":"ce4bhjp2rcd13ifvqga0","pricing_plan_id":"cebpf4jnsgd1na2vs0mg"},{"bike_id":"85f27a5d-9af7-4b09-a20c-f802a8f11d6d","system_id":"levelo_inurba_marseille","lat":43.3266,"lon":5.40987,"is_reserved":false,"is_disabled":false,"rental_uris":{"android":"levelo://app?vid=85f27a5d-9af7-4b09-a20c-f802a8f11d6d","ios":"levelo://app?vid=85f27a5d-9af7-4b09-a20c-f802a8f11d6d"},"vehicle_type_id":"4","last_reported":1734700575,"current_range_meters":10000,"station_id":"ce4bhpp2rcd13ifvqhgg","pricing_plan_id":"cebpf4jnsgd1na2vs0mg"},{"bike_id":"d34bdf4f-71bc-4ae4-b273-f3852ddc692a","system_id":"levelo_inurba_marseille","lat":43.33756,"lon":5.37472,"is_reserved":false,"is_disabled":false,"rental_uris":{"android":"levelo://app?vid=d34bdf4f-71bc-4ae4-b273-f3852ddc692a","ios":"levelo://app?vid=d34bdf4f-71bc-4ae4-b273-f3852ddc692a"},"vehicle_type_id":"4","last_reported":1734700575,"current_range_meters":33200,"station_id":"","pricing_plan_id":"cebpf4jnsgd1na2vs0mg"},{"bike_id":"f892a8d7-aa95-4d28-b5aa-2d16ed394fe4","system_id":"levelo_inurba_marseille","lat":43.30178,"lon":5.36624,"is_reserved":false,"is_disabled":false,"rental_uris":{"android":"levelo://app?vid=f892a8d7-aa95-4d28-b5aa-2d16ed394fe4","ios":"levelo://app?vid=f892a8d7-aa95-4d28-b5aa-2d16ed394fe4"},"vehicle_type_id":"4","last_reported":1734700575,"current_range_meters":19600,"station_id":"ce4bgrh2rcd13ifvqc8g","pricing_plan_id":"cebpf4jnsgd1na2vs0mg"},{"bike_id":"e179d50b-086e-45cb-a7d9-da9036539d17","system_id":"levelo_inurba_marseille","lat":43.27999,"lon":5.40018,"is_reserved":false,"is_disabled":false,"rental_uris":{"android":"levelo://app?vid=e179d50b-086e-45cb-a7d9-da9036539d17","ios":"levelo://app?vid=e179d50b-086e-45cb-a7d9-da9036539d17"},"vehicle_type_id":"4","last_reported":1734700575,"current_range_meters":22800,"station_id":"ce4bho92rcd13ifvqh4g","pricing_plan_id":"cebpf4jnsgd1na2vs0mg"},{"bike_id":"0aebd018-6f74-44e6-9bf2-f48f465e3d0c","system_id":"levelo_inurba_marseille","lat":43.28483,"lon":5.38547,"is_reserved":false,"is_disabled":false,"rental_uris":{"android":"levelo://app?vid=0aebd018-6f74-44e6-9bf2-f48f465e3d0c","ios":"levelo://app?vid=0aebd018-6f74-44e6-9bf2-f48f465e3d0c"},"vehicle_type_id":"4","last_reported":1734700575,"current_range_meters":30400,"station_id":"ce4bh8p2rcd13ifvqeb0","pricing_plan_id":"cebpf4jnsgd1na2vs0mg"},{"bike_id":"c7a472ed-6dc3-4cde-83b8-4deb8af0b49b","system_id":"levelo_inurba_marseille","lat":43.24385,"lon":5.37065,"is_reserved":false,"is_disabled":false,"rental_uris":{"android":"levelo://app?vid=c7a472ed-6dc3-4cde-83b8-4deb8af0b49b","ios":"levelo://app?vid=c7a472ed-6dc3-4cde-83b8-4deb8af0b49b"},"vehicle_type_id":"4","last_reported":1734700575,"current_range_meters":22400,"station_id":"ce4bhhh2rcd13ifvqfk0","pricing_plan_id":"cebpf4jnsgd1na2vs0mg"},{"bike_id":"4278cb44-4a04-425c-8bea-695edaa3f630","system_id":"levelo_inurba_marseille","lat":43.28938,"lon":5.39639,"is_reserved":false,"is_disabled":false,"rental_uris":{"android":"levelo://app?vid=4278cb44-4a04-425c-8bea-695edaa3f630","ios":"levelo://app?vid=4278cb44-4a04-425c-8bea-695edaa3f630"},"vehicle_type_id":"4","last_reported":1734700575,"current_range_meters":24800,"station_id":"ce4bh3h2rcd13ifvqdn0","pricing_plan_id":"cebpf4jnsgd1na2vs0mg"},{"bike_id":"af375b95-98ed-4d0c-a1db-a5220a0cbfa9","system_id":"levelo_inurba_marseille","lat":43.31682,"lon":5.40474,"is_reserved":false,"is_disabled":false,"rental_uris":{"android":"levelo://app?vid=af375b95-98ed-4d0c-a1db-a5220a0cbfa9","ios":"levelo://app?vid=af375b95-98ed-4d0c-a1db-a5220a0cbfa9"},"vehicle_type_id":"4","last_reported":1734700575,"current_range_meters":37600,"station_id":"ce4bh012rcd13ifvqd00","pricing_plan_id":"cebpf4jnsgd1na2vs0mg"},{"bike_id":"efe5091c-2077-4ef3-a08d-227ccfc08d27","system_id":"levelo_inurba_marseille","lat":43.30129,"lon":5.38774,"is_reserved":false,"is_disabled":false,"rental_uris":{"android":"levelo://app?vid=efe5091c-2077-4ef3-a08d-227ccfc08d27","ios":"levelo://app?vid=efe5091c-2077-4ef3-a08d-227ccfc08d27"},"vehicle_type_id":"4","last_reported":1734700575,"current_range_meters":38400,"station_id":"ce4bhoh2rcd13ifvqh6g","pricing_plan_id":"cebpf4jnsgd1na2vs0mg"},{"bike_id":"8f7404be-a7fd-44b1-965d-fad36bf50ce8","system_id":"levelo_inurba_marseille","lat":43.26202,"lon":5.37916,"is_reserved":false,"is_disabled":false,"rental_uris":{"android":"levelo://app?vid=8f7404be-a7fd-44b1-965d-fad36bf50ce8","ios":"levelo://app?vid=8f7404be-a7fd-44b1-965d-fad36bf50ce8"},"vehicle_type_id":"4","last_reported":1734700575,"current_range_meters":30000,"station_id":"ce4bhjp2rcd13ifvqg90","pricing_plan_id":"cebpf4jnsgd1na2vs0mg"},{"bike_id":"dd52cea9-6fe3-460c-a4fc-255f18d6f38c","system_id":"levelo_inurba_marseille","lat":43.24999,"lon":5.3894,"is_reserved":false,"is_disabled":false,"rental_uris":{"android":"levelo://app?vid=dd52cea9-6fe3-460c-a4fc-255f18d6f38c","ios":"levelo://app?vid=dd52cea9-6fe3-460c-a4fc-255f18d6f38c"},"vehicle_type_id":"4","last_reported":1734700575,"current_range_meters":29600,"station_id":"ce4bhgp2rcd13ifvqfd0","pricing_plan_id":"cebpf4jnsgd1na2vs0mg"},{"bike_id":"714703e4-4373-45a0-8859-0524fe8e8d54","system_id":"levelo_inurba_marseille","lat":43.3015,"lon":5.3743,"is_reserved":false,"is_disabled":false,"rental_uris":{"android":"levelo://app?vid=714703e4-4373-45a0-8859-0524fe8e8d54","ios":"levelo://app?vid=714703e4-4373-45a0-8859-0524fe8e8d54"},"vehicle_type_id":"4","last_reported":1734700575,"current_range_meters":37600,"station_id":"ce4bgs92rcd13ifvqcc0","pricing_plan_id":"cebpf4jnsgd1na2vs0mg"},{"bike_id":"dbfa572c-48d2-40b7-9e4a-c067a654725a","system_id":"levelo_inurba_marseille","lat":43.29718,"lon":5.36586,"is_reserved":false,"is_disabled":false,"rental_uris":{"android":"levelo://app?vid=dbfa572c-48d2-40b7-9e4a-c067a654725a","ios":"levelo://app?vid=dbfa572c-48d2-40b7-9e4a-c067a654725a"},"vehicle_type_id":"4","last_reported":1734700575,"current_range_meters":38000,"station_id":"ce4bgn12rcd13ifvqbt0","pricing_plan_id":"cebpf4jnsgd1na2vs0mg"},{"bike_id":"a3490aca-cd3e-423c-b291-413d54e7a9b6","system_id":"levelo_inurba_marseille","lat":43.29714,"lon":5.37684,"is_reserved":false,"is_disabled":false,"rental_uris":{"android":"levelo://app?vid=a3490aca-cd3e-423c-b291-413d54e7a9b6","ios":"levelo://app?vid=a3490aca-cd3e-423c-b291-413d54e7a9b6"},"vehicle_type_id":"4","last_reported":1734700575,"current_range_meters":36800,"station_id":"ce4bgkh2rcd13ifvqbl0","pricing_plan_id":"cebpf4jnsgd1na2vs0mg"},{"bike_id":"897e83d4-47e9-4759-95cb-be7dcc401779","system_id":"levelo_inurba_marseille","lat":43.28655,"lon":5.3634,"is_reserved":false,"is_disabled":false,"rental_uris":{"android":"levelo://app?vid=897e83d4-47e9-4759-95cb-be7dcc401779","ios":"levelo://app?vid=897e83d4-47e9-4759-95cb-be7dcc401779"},"vehicle_type_id":"4","last_reported":1734700575,"current_range_meters":39200,"station_id":"ce4bhah2rcd13ifvqej0","pricing_plan_id":"cebpf4jnsgd1na2vs0mg"},{"bike_id":"db890328-d7d2-4b3b-9084-5e8afe7f01e5","system_id":"levelo_inurba_marseille","lat":43.24805,"lon":5.37463,"is_reserved":false,"is_disabled":false,"rental_uris":{"android":"levelo://app?vid=db890328-d7d2-4b3b-9084-5e8afe7f01e5","ios":"levelo://app?vid=db890328-d7d2-4b3b-9084-5e8afe7f01e5"},"vehicle_type_id":"4","last_reported":1734700575,"current_range_meters":38400,"station_id":"ce4bhgh2rcd13ifvqfb0","pricing_plan_id":"cebpf4jnsgd1na2vs0mg"},{"bike_id":"6728802e-c3c6-4f8f-ade5-af96b0024ae1","system_id":"levelo_inurba_marseille","lat":43.25704,"lon":5.41131,"is_reserved":false,"is_disabled":false,"rental_uris":{"android":"levelo://app?vid=6728802e-c3c6-4f8f-ade5-af96b0024ae1","ios":"levelo://app?vid=6728802e-c3c6-4f8f-ade5-af96b0024ae1"},"vehicle_type_id":"4","last_reported":1734700575,"current_range_meters":38800,"station_id":"ce4bhkp2rcd13ifvqgd0","pricing_plan_id":"cebpf4jnsgd1na2vs0mg"},{"bike_id":"f20cd36c-a895-444d-b8aa-a67ddb893a61","system_id":"levelo_inurba_marseille","lat":43.306581,"lon":5.400866,"is_reserved":false,"is_disabled":true,"rental_uris":{"android":"levelo://app?vid=f20cd36c-a895-444d-b8aa-a67ddb893a61","ios":"levelo://app?vid=f20cd36c-a895-444d-b8aa-a67ddb893a61"},"vehicle_type_id":"4","last_reported":1734700575,"current_range_meters":4800,"station_id":"ce4bh112rcd13ifvqda0","pricing_plan_id":"cebpf4jnsgd1na2vs0mg"},{"bike_id":"666223cf-f963-4676-a2c3-13c4383f763c","system_id":"levelo_inurba_marseille","lat":43.31714,"lon":5.42402,"is_reserved":false,"is_disabled":false,"rental_uris":{"android":"levelo://app?vid=666223cf-f963-4676-a2c3-13c4383f763c","ios":"levelo://app?vid=666223cf-f963-4676-a2c3-13c4383f763c"},"vehicle_type_id":"4","last_reported":1734700575,"current_range_meters":27600,"station_id":"ce4bhp92rcd13ifvqhbg","pricing_plan_id":"cebpf4jnsgd1na2vs0mg"},{"bike_id":"8a43ed29-2154-4079-ae41-666b3110cdb9","system_id":"levelo_inurba_marseille","lat":43.30544,"lon":5.36557,"is_reserved":false,"is_disabled":false,"rental_uris":{"android":"levelo://app?vid=8a43ed29-2154-4079-ae41-666b3110cdb9","ios":"levelo://app?vid=8a43ed29-2154-4079-ae41-666b3110cdb9"},"vehicle_type_id":"4","last_reported":1734700575,"current_range_meters":38800,"station_id":"ce4bgs12rcd13ifvqcag","pricing_plan_id":"cebpf4jnsgd1na2vs0mg"},{"bike_id":"6840d155-4ad1-41f0-8aba-5b39be5e42db","system_id":"levelo_inurba_marseille","lat":43.34143,"lon":5.40901,"is_reserved":false,"is_disabled":true,"rental_uris":{"android":"levelo://app?vid=6840d155-4ad1-41f0-8aba-5b39be5e42db","ios":"levelo://app?vid=6840d155-4ad1-41f0-8aba-5b39be5e42db"},"vehicle_type_id":"4","last_reported":1734700575,"current_range_meters":30800,"station_id":"ce4bhqh2rcd13ifvqhlg","pricing_plan_id":"cebpf4jnsgd1na2vs0mg"},{"bike_id":"3e722a6d-7cb6-495f-9beb-210a07b931a8","system_id":"levelo_inurba_marseille","lat":43.30595,"lon":5.39364,"is_reserved":false,"is_disabled":false,"rental_uris":{"android":"levelo://app?vid=3e722a6d-7cb6-495f-9beb-210a07b931a8","ios":"levelo://app?vid=3e722a6d-7cb6-495f-9beb-210a07b931a8"},"vehicle_type_id":"4","last_reported":1734700575,"current_range_meters":35600,"station_id":"ce4bh0p2rcd13ifvqd80","pricing_plan_id":"cebpf4jnsgd1na2vs0mg"},{"bike_id":"49afe83b-abb5-4be5-a10f-e37f6b41e94f","system_id":"levelo_inurba_marseille","lat":43.29898,"lon":5.43674,"is_reserved":false,"is_disabled":false,"rental_uris":{"android":"levelo://app?vid=49afe83b-abb5-4be5-a10f-e37f6b41e94f","ios":"levelo://app?vid=49afe83b-abb5-4be5-a10f-e37f6b41e94f"},"vehicle_type_id":"4","last_reported":1734700575,"current_range_meters":32800,"station_id":"ce4bhpp2rcd13ifvqhfg","pricing_plan_id":"cebpf4jnsgd1na2vs0mg"},{"bike_id":"fe187b0f-abff-4fa7-8a20-0462e6c79208","system_id":"levelo_inurba_marseille","lat":43.24386,"lon":5.37063,"is_reserved":false,"is_disabled":false,"rental_uris":{"android":"levelo://app?vid=fe187b0f-abff-4fa7-8a20-0462e6c79208","ios":"levelo://app?vid=fe187b0f-abff-4fa7-8a20-0462e6c79208"},"vehicle_type_id":"4","last_reported":1734700575,"current_range_meters":23200,"station_id":"ce4bhhh2rcd13ifvqfk0","pricing_plan_id":"cebpf4jnsgd1na2vs0mg"},{"bike_id":"08f70048-8806-4481-a8cb-a40f5181985f","system_id":"levelo_inurba_marseille","lat":43.28658,"lon":5.36358,"is_reserved":false,"is_disabled":false,"rental_uris":{"android":"levelo://app?vid=08f70048-8806-4481-a8cb-a40f5181985f","ios":"levelo://app?vid=08f70048-8806-4481-a8cb-a40f5181985f"},"vehicle_type_id":"4","last_reported":1734700575,"current_range_meters":36800,"station_id":"ce4bhah2rcd13ifvqej0","pricing_plan_id":"cebpf4jnsgd1na2vs0mg"},{"bike_id":"4579d738-b31b-41c7-8442-80c8e0da247c","system_id":"levelo_inurba_marseille","lat":43.29794,"lon":5.40394,"is_reserved":false,"is_disabled":false,"rental_uris":{"android":"levelo://app?vid=4579d738-b31b-41c7-8442-80c8e0da247c","ios":"levelo://app?vid=4579d738-b31b-41c7-8442-80c8e0da247c"},"vehicle_type_id":"4","last_reported":1734700575,"current_range_meters":37600,"station_id":"ce4bh112rcd13ifvqd90","pricing_plan_id":"cebpf4jnsgd1na2vs0mg"},{"bike_id":"6be06396-7842-46ec-a270-3e8d410abdb0","system_id":"levelo_inurba_marseille","lat":43.30129,"lon":5.37425,"is_reserved":false,"is_disabled":false,"rental_uris":{"android":"levelo://app?vid=6be06396-7842-46ec-a270-3e8d410abdb0","ios":"levelo://app?vid=6be06396-7842-46ec-a270-3e8d410abdb0"},"vehicle_type_id":"4","last_reported":1734700575,"current_range_meters":38400,"station_id":"ce4bgs92rcd13ifvqcc0","pricing_plan_id":"cebpf4jnsgd1na2vs0mg"},{"bike_id":"aceb3676-6ea7-42ff-8547-5be9aca19066","system_id":"levelo_inurba_marseille","lat":43.30158,"lon":5.38098,"is_reserved":false,"is_disabled":false,"rental_uris":{"android":"levelo://app?vid=aceb3676-6ea7-42ff-8547-5be9aca19066","ios":"levelo://app?vid=aceb3676-6ea7-42ff-8547-5be9aca19066"},"vehicle_type_id":"4","last_reported":1734700575,"current_range_meters":26000,"station_id":"ce4bgjp2rcd13ifvqbh0","pricing_plan_id":"cebpf4jnsgd1na2vs0mg"},{"bike_id":"facbe066-028d-4367-b623-9d5e1db169db","system_id":"levelo_inurba_marseille","lat":43.29531,"lon":5.37511,"is_reserved":false,"is_disabled":false,"rental_uris":{"android":"levelo://app?vid=facbe066-028d-4367-b623-9d5e1db169db","ios":"levelo://app?vid=facbe066-028d-4367-b623-9d5e1db169db"},"vehicle_type_id":"4","last_reported":1734700575,"current_range_meters":29600,"station_id":"ce4bgkp2rcd13ifvqbmg","pricing_plan_id":"cebpf4jnsgd1na2vs0mg"},{"bike_id":"4861dafe-685a-496f-ae05-8dcb29d97473","system_id":"levelo_inurba_marseille","lat":43.26214,"lon":5.3744,"is_reserved":false,"is_disabled":false,"rental_uris":{"android":"levelo://app?vid=4861dafe-685a-496f-ae05-8dcb29d97473","ios":"levelo://app?vid=4861dafe-685a-496f-ae05-8dcb29d97473"},"vehicle_type_id":"4","last_reported":1734700575,"current_range_meters":17600,"station_id":"ce4bhgp2rcd13ifvqfc0","pricing_plan_id":"cebpf4jnsgd1na2vs0mg"},{"bike_id":"c36f9794-db64-4a07-823f-b590f113a19f","system_id":"levelo_inurba_marseille","lat":43.27935,"lon":5.41047,"is_reserved":false,"is_disabled":false,"rental_uris":{"android":"levelo://app?vid=c36f9794-db64-4a07-823f-b590f113a19f","ios":"levelo://app?vid=c36f9794-db64-4a07-823f-b590f113a19f"},"vehicle_type_id":"4","last_reported":1734700575,"current_range_meters":10000,"station_id":"ce4bhnp2rcd13ifvqh0g","pricing_plan_id":"cebpf4jnsgd1na2vs0mg"},{"bike_id":"6b1c02dd-ff4d-4960-9056-ebf73c481a95","system_id":"levelo_inurba_marseille","lat":43.30123,"lon":5.38104,"is_reserved":false,"is_disabled":false,"rental_uris":{"android":"levelo://app?vid=6b1c02dd-ff4d-4960-9056-ebf73c481a95","ios":"levelo://app?vid=6b1c02dd-ff4d-4960-9056-ebf73c481a95"},"vehicle_type_id":"4","last_reported":1734700575,"current_range_meters":38800,"station_id":"ce4bgjp2rcd13ifvqbh0","pricing_plan_id":"cebpf4jnsgd1na2vs0mg"},{"bike_id":"ec8b85ba-80e7-49fc-944d-ae51fa9164e8","system_id":"levelo_inurba_marseille","lat":43.27047,"lon":5.40272,"is_reserved":false,"is_disabled":false,"rental_uris":{"android":"levelo://app?vid=ec8b85ba-80e7-49fc-944d-ae51fa9164e8","ios":"levelo://app?vid=ec8b85ba-80e7-49fc-944d-ae51fa9164e8"},"vehicle_type_id":"4","last_reported":1734700575,"current_range_meters":37600,"station_id":"ce4bhk92rcd13ifvqgc0","pricing_plan_id":"cebpf4jnsgd1na2vs0mg"},{"bike_id":"c5d3dda4-9397-4823-9c8b-ea8eda2ab949","system_id":"levelo_inurba_marseille","lat":43.23957,"lon":5.36651,"is_reserved":false,"is_disabled":false,"rental_uris":{"android":"levelo://app?vid=c5d3dda4-9397-4823-9c8b-ea8eda2ab949","ios":"levelo://app?vid=c5d3dda4-9397-4823-9c8b-ea8eda2ab949"},"vehicle_type_id":"4","last_reported":1734700575,"current_range_meters":34800,"station_id":"ce4bhi12rcd13ifvqfp0","pricing_plan_id":"cebpf4jnsgd1na2vs0mg"},{"bike_id":"f111cf8c-c88f-4078-b751-43b0b653fb0e","system_id":"levelo_inurba_marseille","lat":43.28716,"lon":5.39997,"is_reserved":false,"is_disabled":false,"rental_uris":{"android":"levelo://app?vid=f111cf8c-c88f-4078-b751-43b0b653fb0e","ios":"levelo://app?vid=f111cf8c-c88f-4078-b751-43b0b653fb0e"},"vehicle_type_id":"4","last_reported":1734700575,"current_range_meters":29600,"station_id":"ce4bho92rcd13ifvqh3g","pricing_plan_id":"cebpf4jnsgd1na2vs0mg"},{"bike_id":"b5436064-4838-4a21-99fb-87553b534de1","system_id":"levelo_inurba_marseille","lat":43.29265,"lon":5.36859,"is_reserved":false,"is_disabled":false,"rental_uris":{"android":"levelo://app?vid=b5436064-4838-4a21-99fb-87553b534de1","ios":"levelo://app?vid=b5436064-4838-4a21-99fb-87553b534de1"},"vehicle_type_id":"4","last_reported":1734700575,"current_range_meters":33600,"station_id":"ce4bhbp2rcd13ifvqesg","pricing_plan_id":"cebpf4jnsgd1na2vs0mg"},{"bike_id":"539a2eb1-b77c-4bbe-945b-d9f315a3f756","system_id":"levelo_inurba_marseille","lat":43.31244,"lon":5.36859,"is_reserved":false,"is_disabled":false,"rental_uris":{"android":"levelo://app?vid=539a2eb1-b77c-4bbe-945b-d9f315a3f756","ios":"levelo://app?vid=539a2eb1-b77c-4bbe-945b-d9f315a3f756"},"vehicle_type_id":"4","last_reported":1734700575,"current_range_meters":38800,"station_id":"ce4bgl92rcd13ifvqbq0","pricing_plan_id":"cebpf4jnsgd1na2vs0mg"},{"bike_id":"7de07d86-a9b5-48bf-90c6-c4ac309620b0","system_id":"levelo_inurba_marseille","lat":43.299464,"lon":5.381328,"is_reserved":false,"is_disabled":false,"rental_uris":{"android":"levelo://app?vid=7de07d86-a9b5-48bf-90c6-c4ac309620b0","ios":"levelo://app?vid=7de07d86-a9b5-48bf-90c6-c4ac309620b0"},"vehicle_type_id":"4","last_reported":1734700575,"current_range_meters":26000,"station_id":"ce4bgj12rcd13ifvqbc0","pricing_plan_id":"cebpf4jnsgd1na2vs0mg"},{"bike_id":"72492ff3-d3e5-4b81-822b-1d3357339451","system_id":"levelo_inurba_marseille","lat":43.29303,"lon":5.40004,"is_reserved":false,"is_disabled":true,"rental_uris":{"android":"levelo://app?vid=72492ff3-d3e5-4b81-822b-1d3357339451","ios":"levelo://app?vid=72492ff3-d3e5-4b81-822b-1d3357339451"},"vehicle_type_id":"4","last_reported":1734700575,"current_range_meters":31200,"station_id":"","pricing_plan_id":"cebpf4jnsgd1na2vs0mg"},{"bike_id":"ac35e660-89e6-4739-9d9a-129983f77756","system_id":"levelo_inurba_marseille","lat":43.304025,"lon":5.368135,"is_reserved":false,"is_disabled":false,"rental_uris":{"android":"levelo://app?vid=ac35e660-89e6-4739-9d9a-129983f77756","ios":"levelo://app?vid=ac35e660-89e6-4739-9d9a-129983f77756"},"vehicle_type_id":"4","last_reported":1734700575,"current_range_meters":16000,"station_id":"","pricing_plan_id":"cebpf4jnsgd1na2vs0mg"},{"bike_id":"68cc3280-8c90-422e-b1e6-051d15979724","system_id":"levelo_inurba_marseille","lat":43.23177,"lon":5.39994,"is_reserved":false,"is_disabled":false,"rental_uris":{"android":"levelo://app?vid=68cc3280-8c90-422e-b1e6-051d15979724","ios":"levelo://app?vid=68cc3280-8c90-422e-b1e6-051d15979724"},"vehicle_type_id":"4","last_reported":1734700575,"current_range_meters":17600,"station_id":"ce4bhn12rcd13ifvqgqg","pricing_plan_id":"cebpf4jnsgd1na2vs0mg"},{"bike_id":"2f3ffe14-db03-4fbe-b9e8-6285c689975c","system_id":"levelo_inurba_marseille","lat":43.31321,"lon":5.396982,"is_reserved":false,"is_disabled":true,"rental_uris":{"android":"levelo://app?vid=2f3ffe14-db03-4fbe-b9e8-6285c689975c","ios":"levelo://app?vid=2f3ffe14-db03-4fbe-b9e8-6285c689975c"},"vehicle_type_id":"4","last_reported":1734700575,"current_range_meters":14800,"station_id":"ce4bgvp2rcd13ifvqcu0","pricing_plan_id":"cebpf4jnsgd1na2vs0mg"},{"bike_id":"882e0f33-c985-49f5-9128-ec5a374b2cc1","system_id":"levelo_inurba_marseille","lat":43.25921,"lon":5.40892,"is_reserved":false,"is_disabled":false,"rental_uris":{"android":"levelo://app?vid=882e0f33-c985-49f5-9128-ec5a374b2cc1","ios":"levelo://app?vid=882e0f33-c985-49f5-9128-ec5a374b2cc1"},"vehicle_type_id":"4","last_reported":1734700575,"current_range_meters":30400,"station_id":"ce4bhm92rcd13ifvqglg","pricing_plan_id":"cebpf4jnsgd1na2vs0mg"},{"bike_id":"79bc2550-b3b7-49db-a0e2-c1dd34ad5402","system_id":"levelo_inurba_marseille","lat":43.25856,"lon":5.39918,"is_reserved":false,"is_disabled":false,"rental_uris":{"android":"levelo://app?vid=79bc2550-b3b7-49db-a0e2-c1dd34ad5402","ios":"levelo://app?vid=79bc2550-b3b7-49db-a0e2-c1dd34ad5402"},"vehicle_type_id":"4","last_reported":1734700575,"current_range_meters":38800,"station_id":"ce4bhl92rcd13ifvqghg","pricing_plan_id":"cebpf4jnsgd1na2vs0mg"},{"bike_id":"b3c94148-282c-49ef-bed3-a778d2e917e9","system_id":"levelo_inurba_marseille","lat":43.30164,"lon":5.3809,"is_reserved":false,"is_disabled":false,"rental_uris":{"android":"levelo://app?vid=b3c94148-282c-49ef-bed3-a778d2e917e9","ios":"levelo://app?vid=b3c94148-282c-49ef-bed3-a778d2e917e9"},"vehicle_type_id":"4","last_reported":1734700575,"current_range_meters":34800,"station_id":"ce4bgjp2rcd13ifvqbh0","pricing_plan_id":"cebpf4jnsgd1na2vs0mg"},{"bike_id":"a0b13504-4db3-4c1c-85c9-95caada3e30d","system_id":"levelo_inurba_marseille","lat":43.25932,"lon":5.40913,"is_reserved":false,"is_disabled":false,"rental_uris":{"android":"levelo://app?vid=a0b13504-4db3-4c1c-85c9-95caada3e30d","ios":"levelo://app?vid=a0b13504-4db3-4c1c-85c9-95caada3e30d"},"vehicle_type_id":"4","last_reported":1734700575,"current_range_meters":30400,"station_id":"ce4bhm92rcd13ifvqglg","pricing_plan_id":"cebpf4jnsgd1na2vs0mg"},{"bike_id":"c438a646-b482-4ae8-a441-38ede34475dd","system_id":"levelo_inurba_marseille","lat":43.29798,"lon":5.38085,"is_reserved":false,"is_disabled":false,"rental_uris":{"android":"levelo://app?vid=c438a646-b482-4ae8-a441-38ede34475dd","ios":"levelo://app?vid=c438a646-b482-4ae8-a441-38ede34475dd"},"vehicle_type_id":"4","last_reported":1734700575,"current_range_meters":35200,"station_id":"ce4bgip2rcd13ifvqbb0","pricing_plan_id":"cebpf4jnsgd1na2vs0mg"},{"bike_id":"0389d3f3-c55f-4412-ae76-1d66146421e5","system_id":"levelo_inurba_marseille","lat":43.30271,"lon":5.37701,"is_reserved":false,"is_disabled":false,"rental_uris":{"android":"levelo://app?vid=0389d3f3-c55f-4412-ae76-1d66146421e5","ios":"levelo://app?vid=0389d3f3-c55f-4412-ae76-1d66146421e5"},"vehicle_type_id":"4","last_reported":1734700575,"current_range_meters":35200,"station_id":"ce4bguh2rcd13ifvqcj0","pricing_plan_id":"cebpf4jnsgd1na2vs0mg"},{"bike_id":"ba58848f-ea0b-4f0b-88ad-cbc9bd014a37","system_id":"levelo_inurba_marseille","lat":43.28721,"lon":5.36091,"is_reserved":false,"is_disabled":false,"rental_uris":{"android":"levelo://app?vid=ba58848f-ea0b-4f0b-88ad-cbc9bd014a37","ios":"levelo://app?vid=ba58848f-ea0b-4f0b-88ad-cbc9bd014a37"},"vehicle_type_id":"4","last_reported":1734700575,"current_range_meters":13600,"station_id":"cki0cbj6b192h4jlfktg","pricing_plan_id":"cebpf4jnsgd1na2vs0mg"},{"bike_id":"1a0d11f0-028d-46a4-9578-bf3d63abb59e","system_id":"levelo_inurba_marseille","lat":43.27945,"lon":5.38713,"is_reserved":false,"is_disabled":false,"rental_uris":{"android":"levelo://app?vid=1a0d11f0-028d-46a4-9578-bf3d63abb59e","ios":"levelo://app?vid=1a0d11f0-028d-46a4-9578-bf3d63abb59e"},"vehicle_type_id":"4","last_reported":1734700575,"current_range_meters":39200,"station_id":"ce4bhg12rcd13ifvqf80","pricing_plan_id":"cebpf4jnsgd1na2vs0mg"},{"bike_id":"782bcbf2-b7de-4b04-bebc-aaa0329dd90c","system_id":"levelo_inurba_marseille","lat":43.23184,"lon":5.35558,"is_reserved":false,"is_disabled":false,"rental_uris":{"android":"levelo://app?vid=782bcbf2-b7de-4b04-bebc-aaa0329dd90c","ios":"levelo://app?vid=782bcbf2-b7de-4b04-bebc-aaa0329dd90c"},"vehicle_type_id":"4","last_reported":1734700575,"current_range_meters":36400,"station_id":"ce4bhu92rcd13ifvqi70","pricing_plan_id":"cebpf4jnsgd1na2vs0mg"},{"bike_id":"613c31c6-dc5d-46dd-9f53-76f92d972d40","system_id":"levelo_inurba_marseille","lat":43.29596,"lon":5.38098,"is_reserved":false,"is_disabled":false,"rental_uris":{"android":"levelo://app?vid=613c31c6-dc5d-46dd-9f53-76f92d972d40","ios":"levelo://app?vid=613c31c6-dc5d-46dd-9f53-76f92d972d40"},"vehicle_type_id":"4","last_reported":1734700575,"current_range_meters":17600,"station_id":"ce4bgl12rcd13ifvqbo0","pricing_plan_id":"cebpf4jnsgd1na2vs0mg"},{"bike_id":"e3b1ac7b-0136-46ef-8d0f-11599342f3fc","system_id":"levelo_inurba_marseille","lat":43.29088,"lon":5.38131,"is_reserved":false,"is_disabled":false,"rental_uris":{"android":"levelo://app?vid=e3b1ac7b-0136-46ef-8d0f-11599342f3fc","ios":"levelo://app?vid=e3b1ac7b-0136-46ef-8d0f-11599342f3fc"},"vehicle_type_id":"4","last_reported":1734700575,"current_range_meters":8000,"station_id":"ce4bh512rcd13ifvqe2g","pricing_plan_id":"cebpf4jnsgd1na2vs0mg"},{"bike_id":"7d872448-c3b4-40a4-984e-792a758c118e","system_id":"levelo_inurba_marseille","lat":43.27808,"lon":5.40716,"is_reserved":false,"is_disabled":false,"rental_uris":{"android":"levelo://app?vid=7d872448-c3b4-40a4-984e-792a758c118e","ios":"levelo://app?vid=7d872448-c3b4-40a4-984e-792a758c118e"},"vehicle_type_id":"4","last_reported":1734700575,"current_range_meters":8000,"station_id":"ce4bhnh2rcd13ifvqgtg","pricing_plan_id":"cebpf4jnsgd1na2vs0mg"},{"bike_id":"57e34d55-7cb0-4342-b1dd-efbbca33005f","system_id":"levelo_inurba_marseille","lat":43.33765,"lon":5.37438,"is_reserved":false,"is_disabled":false,"rental_uris":{"android":"levelo://app?vid=57e34d55-7cb0-4342-b1dd-efbbca33005f","ios":"levelo://app?vid=57e34d55-7cb0-4342-b1dd-efbbca33005f"},"vehicle_type_id":"4","last_reported":1734700575,"current_range_meters":38800,"station_id":"","pricing_plan_id":"cebpf4jnsgd1na2vs0mg"},{"bike_id":"1897ad2d-5c02-4d9f-ba4c-937899dfbdc3","system_id":"levelo_inurba_marseille","lat":43.24392,"lon":5.37051,"is_reserved":false,"is_disabled":false,"rental_uris":{"android":"levelo://app?vid=1897ad2d-5c02-4d9f-ba4c-937899dfbdc3","ios":"levelo://app?vid=1897ad2d-5c02-4d9f-ba4c-937899dfbdc3"},"vehicle_type_id":"4","last_reported":1734700575,"current_range_meters":38800,"station_id":"ce4bhhh2rcd13ifvqfk0","pricing_plan_id":"cebpf4jnsgd1na2vs0mg"},{"bike_id":"e9e5d726-62e1-4b6b-a23c-0a4951c24076","system_id":"levelo_inurba_marseille","lat":43.24076,"lon":5.39704,"is_reserved":false,"is_disabled":true,"rental_uris":{"android":"levelo://app?vid=e9e5d726-62e1-4b6b-a23c-0a4951c24076","ios":"levelo://app?vid=e9e5d726-62e1-4b6b-a23c-0a4951c24076"},"vehicle_type_id":"4","last_reported":1734700575,"current_range_meters":0,"station_id":"","pricing_plan_id":"cebpf4jnsgd1na2vs0mg"},{"bike_id":"d532bafb-9e8b-4cf7-90e8-b135eb98500d","system_id":"levelo_inurba_marseille","lat":43.30543,"lon":5.36711,"is_reserved":false,"is_disabled":false,"rental_uris":{"android":"levelo://app?vid=d532bafb-9e8b-4cf7-90e8-b135eb98500d","ios":"levelo://app?vid=d532bafb-9e8b-4cf7-90e8-b135eb98500d"},"vehicle_type_id":"4","last_reported":1734700575,"current_range_meters":38000,"station_id":"ce4bgrp2rcd13ifvqc9g","pricing_plan_id":"cebpf4jnsgd1na2vs0mg"},{"bike_id":"ea300bb5-9ab8-4102-825a-14e36fff0270","system_id":"levelo_inurba_marseille","lat":43.30603,"lon":5.37088,"is_reserved":false,"is_disabled":false,"rental_uris":{"android":"levelo://app?vid=ea300bb5-9ab8-4102-825a-14e36fff0270","ios":"levelo://app?vid=ea300bb5-9ab8-4102-825a-14e36fff0270"},"vehicle_type_id":"4","last_reported":1734700575,"current_range_meters":38800,"station_id":"","pricing_plan_id":"cebpf4jnsgd1na2vs0mg"},{"bike_id":"5f8e4290-a91a-4704-973a-835ea6fc4c37","system_id":"levelo_inurba_marseille","lat":43.30542,"lon":5.36712,"is_reserved":false,"is_disabled":false,"rental_uris":{"android":"levelo://app?vid=5f8e4290-a91a-4704-973a-835ea6fc4c37","ios":"levelo://app?vid=5f8e4290-a91a-4704-973a-835ea6fc4c37"},"vehicle_type_id":"4","last_reported":1734700575,"current_range_meters":19600,"station_id":"ce4bgrp2rcd13ifvqc9g","pricing_plan_id":"cebpf4jnsgd1na2vs0mg"},{"bike_id":"da47edb6-6b7d-48ce-8360-5fd99f41974c","system_id":"levelo_inurba_marseille","lat":43.2318,"lon":5.3999,"is_reserved":false,"is_disabled":false,"rental_uris":{"android":"levelo://app?vid=da47edb6-6b7d-48ce-8360-5fd99f41974c","ios":"levelo://app?vid=da47edb6-6b7d-48ce-8360-5fd99f41974c"},"vehicle_type_id":"4","last_reported":1734700575,"current_range_meters":30400,"station_id":"ce4bhn12rcd13ifvqgqg","pricing_plan_id":"cebpf4jnsgd1na2vs0mg"},{"bike_id":"6654c90b-f1aa-417f-91e2-539aba1adffd","system_id":"levelo_inurba_marseille","lat":43.30098,"lon":5.39092,"is_reserved":false,"is_disabled":false,"rental_uris":{"android":"levelo://app?vid=6654c90b-f1aa-417f-91e2-539aba1adffd","ios":"levelo://app?vid=6654c90b-f1aa-417f-91e2-539aba1adffd"},"vehicle_type_id":"4","last_reported":1734700575,"current_range_meters":28800,"station_id":"","pricing_plan_id":"cebpf4jnsgd1na2vs0mg"},{"bike_id":"8121ea70-bcea-4330-bf34-8839e068416d","system_id":"levelo_inurba_marseille","lat":43.30531,"lon":5.36716,"is_reserved":false,"is_disabled":false,"rental_uris":{"android":"levelo://app?vid=8121ea70-bcea-4330-bf34-8839e068416d","ios":"levelo://app?vid=8121ea70-bcea-4330-bf34-8839e068416d"},"vehicle_type_id":"4","last_reported":1734700575,"current_range_meters":38800,"station_id":"ce4bgrp2rcd13ifvqc9g","pricing_plan_id":"cebpf4jnsgd1na2vs0mg"},{"bike_id":"e96afc68-6981-43c2-9227-f49a1a6968b1","system_id":"levelo_inurba_marseille","lat":43.29282,"lon":5.40105,"is_reserved":false,"is_disabled":false,"rental_uris":{"android":"levelo://app?vid=e96afc68-6981-43c2-9227-f49a1a6968b1","ios":"levelo://app?vid=e96afc68-6981-43c2-9227-f49a1a6968b1"},"vehicle_type_id":"4","last_reported":1734700575,"current_range_meters":36800,"station_id":"ce4bh312rcd13ifvqdk0","pricing_plan_id":"cebpf4jnsgd1na2vs0mg"},{"bike_id":"44127e4e-8e84-4a38-89f7-8f4efb63f7a5","system_id":"levelo_inurba_marseille","lat":43.31188,"lon":5.36758,"is_reserved":false,"is_disabled":true,"rental_uris":{"android":"levelo://app?vid=44127e4e-8e84-4a38-89f7-8f4efb63f7a5","ios":"levelo://app?vid=44127e4e-8e84-4a38-89f7-8f4efb63f7a5"},"vehicle_type_id":"4","last_reported":1734700575,"current_range_meters":0,"station_id":"","pricing_plan_id":"cebpf4jnsgd1na2vs0mg"},{"bike_id":"bb39e43a-d2b6-47cd-a930-53d80e854feb","system_id":"levelo_inurba_marseille","lat":43.28039,"lon":5.36951,"is_reserved":false,"is_disabled":false,"rental_uris":{"android":"levelo://app?vid=bb39e43a-d2b6-47cd-a930-53d80e854feb","ios":"levelo://app?vid=bb39e43a-d2b6-47cd-a930-53d80e854feb"},"vehicle_type_id":"4","last_reported":1734700575,"current_range_meters":19200,"station_id":"ce4bha12rcd13ifvqef0","pricing_plan_id":"cebpf4jnsgd1na2vs0mg"},{"bike_id":"6f29f217-6748-401a-804d-645011e99ed4","system_id":"levelo_inurba_marseille","lat":43.29367,"lon":5.37844,"is_reserved":false,"is_disabled":false,"rental_uris":{"android":"levelo://app?vid=6f29f217-6748-401a-804d-645011e99ed4","ios":"levelo://app?vid=6f29f217-6748-401a-804d-645011e99ed4"},"vehicle_type_id":"4","last_reported":1734700575,"current_range_meters":36400,"station_id":"ce4bgjh2rcd13ifvqbf0","pricing_plan_id":"cebpf4jnsgd1na2vs0mg"},{"bike_id":"1d682500-4366-4dbb-85ee-a82cbd6867e5","system_id":"levelo_inurba_marseille","lat":43.26636,"lon":5.38978,"is_reserved":false,"is_disabled":false,"rental_uris":{"android":"levelo://app?vid=1d682500-4366-4dbb-85ee-a82cbd6867e5","ios":"levelo://app?vid=1d682500-4366-4dbb-85ee-a82cbd6867e5"},"vehicle_type_id":"4","last_reported":1734700575,"current_range_meters":24000,"station_id":"","pricing_plan_id":"cebpf4jnsgd1na2vs0mg"},{"bike_id":"6a89e316-1964-4e33-a208-4f6c81e4789c","system_id":"levelo_inurba_marseille","lat":43.28947,"lon":5.36386,"is_reserved":false,"is_disabled":false,"rental_uris":{"android":"levelo://app?vid=6a89e316-1964-4e33-a208-4f6c81e4789c","ios":"levelo://app?vid=6a89e316-1964-4e33-a208-4f6c81e4789c"},"vehicle_type_id":"4","last_reported":1734700575,"current_range_meters":38800,"station_id":"ce4bhc92rcd13ifvqetg","pricing_plan_id":"cebpf4jnsgd1na2vs0mg"},{"bike_id":"4c1fd80c-e9fb-42bb-9ee8-77cae5913cbe","system_id":"levelo_inurba_marseille","lat":43.28611,"lon":5.37067,"is_reserved":false,"is_disabled":false,"rental_uris":{"android":"levelo://app?vid=4c1fd80c-e9fb-42bb-9ee8-77cae5913cbe","ios":"levelo://app?vid=4c1fd80c-e9fb-42bb-9ee8-77cae5913cbe"},"vehicle_type_id":"4","last_reported":1734700575,"current_range_meters":36800,"station_id":"ce4bht12rcd13ifvqi60","pricing_plan_id":"cebpf4jnsgd1na2vs0mg"},{"bike_id":"08ba35e3-491e-4f40-b4f3-6a3ecb410a8c","system_id":"levelo_inurba_marseille","lat":43.29262,"lon":5.38443,"is_reserved":false,"is_disabled":false,"rental_uris":{"android":"levelo://app?vid=08ba35e3-491e-4f40-b4f3-6a3ecb410a8c","ios":"levelo://app?vid=08ba35e3-491e-4f40-b4f3-6a3ecb410a8c"},"vehicle_type_id":"4","last_reported":1734700575,"current_range_meters":38800,"station_id":"ce4bh692rcd13ifvqea0","pricing_plan_id":"cebpf4jnsgd1na2vs0mg"},{"bike_id":"5ccf4016-43de-40ec-b7cb-18f36b051f59","system_id":"levelo_inurba_marseille","lat":43.28159,"lon":5.42645,"is_reserved":false,"is_disabled":true,"rental_uris":{"android":"levelo://app?vid=5ccf4016-43de-40ec-b7cb-18f36b051f59","ios":"levelo://app?vid=5ccf4016-43de-40ec-b7cb-18f36b051f59"},"vehicle_type_id":"4","last_reported":1734700575,"current_range_meters":2000,"station_id":"ce4bhnh2rcd13ifvqgug","pricing_plan_id":"cebpf4jnsgd1na2vs0mg"},{"bike_id":"04d95286-b583-4f90-af85-648699039062","system_id":"levelo_inurba_marseille","lat":43.28154,"lon":5.42639,"is_reserved":false,"is_disabled":false,"rental_uris":{"android":"levelo://app?vid=04d95286-b583-4f90-af85-648699039062","ios":"levelo://app?vid=04d95286-b583-4f90-af85-648699039062"},"vehicle_type_id":"4","last_reported":1734700575,"current_range_meters":19200,"station_id":"ce4bhnh2rcd13ifvqgug","pricing_plan_id":"cebpf4jnsgd1na2vs0mg"},{"bike_id":"c1179c2d-1a97-43bd-9ddf-b9aa95f9906a","system_id":"levelo_inurba_marseille","lat":43.32548,"lon":5.41435,"is_reserved":false,"is_disabled":false,"rental_uris":{"android":"levelo://app?vid=c1179c2d-1a97-43bd-9ddf-b9aa95f9906a","ios":"levelo://app?vid=c1179c2d-1a97-43bd-9ddf-b9aa95f9906a"},"vehicle_type_id":"4","last_reported":1734700575,"current_range_meters":27600,"station_id":"ce4bhq12rcd13ifvqhhg","pricing_plan_id":"cebpf4jnsgd1na2vs0mg"},{"bike_id":"c5448d7c-ce1b-4976-a816-9c8571bd467a","system_id":"levelo_inurba_marseille","lat":43.29524,"lon":5.37501,"is_reserved":false,"is_disabled":false,"rental_uris":{"android":"levelo://app?vid=c5448d7c-ce1b-4976-a816-9c8571bd467a","ios":"levelo://app?vid=c5448d7c-ce1b-4976-a816-9c8571bd467a"},"vehicle_type_id":"4","last_reported":1734700575,"current_range_meters":27200,"station_id":"ce4bgkp2rcd13ifvqbmg","pricing_plan_id":"cebpf4jnsgd1na2vs0mg"},{"bike_id":"82d04b50-e48e-48de-9086-622bd99590fe","system_id":"levelo_inurba_marseille","lat":43.31686,"lon":5.40483,"is_reserved":false,"is_disabled":false,"rental_uris":{"android":"levelo://app?vid=82d04b50-e48e-48de-9086-622bd99590fe","ios":"levelo://app?vid=82d04b50-e48e-48de-9086-622bd99590fe"},"vehicle_type_id":"4","last_reported":1734700575,"current_range_meters":38800,"station_id":"ce4bh012rcd13ifvqd00","pricing_plan_id":"cebpf4jnsgd1na2vs0mg"},{"bike_id":"88d0fca1-50cd-440e-a583-785fe0c07914","system_id":"levelo_inurba_marseille","lat":43.32979,"lon":5.39193,"is_reserved":false,"is_disabled":false,"rental_uris":{"android":"levelo://app?vid=88d0fca1-50cd-440e-a583-785fe0c07914","ios":"levelo://app?vid=88d0fca1-50cd-440e-a583-785fe0c07914"},"vehicle_type_id":"4","last_reported":1734700575,"current_range_meters":4000,"station_id":"","pricing_plan_id":"cebpf4jnsgd1na2vs0mg"},{"bike_id":"584b817f-1a7d-4e53-8e6b-a260280bc97e","system_id":"levelo_inurba_marseille","lat":43.27804,"lon":5.40708,"is_reserved":false,"is_disabled":false,"rental_uris":{"android":"levelo://app?vid=584b817f-1a7d-4e53-8e6b-a260280bc97e","ios":"levelo://app?vid=584b817f-1a7d-4e53-8e6b-a260280bc97e"},"vehicle_type_id":"4","last_reported":1734700575,"current_range_meters":22000,"station_id":"ce4bhnh2rcd13ifvqgtg","pricing_plan_id":"cebpf4jnsgd1na2vs0mg"},{"bike_id":"77dd45bd-8318-4b15-b271-d6ad3042584d","system_id":"levelo_inurba_marseille","lat":43.286132,"lon":5.370606,"is_reserved":false,"is_disabled":false,"rental_uris":{"android":"levelo://app?vid=77dd45bd-8318-4b15-b271-d6ad3042584d","ios":"levelo://app?vid=77dd45bd-8318-4b15-b271-d6ad3042584d"},"vehicle_type_id":"4","last_reported":1734700575,"current_range_meters":36400,"station_id":"ce4bht12rcd13ifvqi60","pricing_plan_id":"cebpf4jnsgd1na2vs0mg"},{"bike_id":"62159b96-70de-4225-a341-fe8203f1c374","system_id":"levelo_inurba_marseille","lat":43.2891,"lon":5.39647,"is_reserved":false,"is_disabled":true,"rental_uris":{"android":"levelo://app?vid=62159b96-70de-4225-a341-fe8203f1c374","ios":"levelo://app?vid=62159b96-70de-4225-a341-fe8203f1c374"},"vehicle_type_id":"4","last_reported":1734700575,"current_range_meters":28800,"station_id":"ce4bh3h2rcd13ifvqdn0","pricing_plan_id":"cebpf4jnsgd1na2vs0mg"},{"bike_id":"9d8d96cd-f44d-496d-9144-a510e102939b","system_id":"levelo_inurba_marseille","lat":43.27319,"lon":5.39079,"is_reserved":false,"is_disabled":false,"rental_uris":{"android":"levelo://app?vid=9d8d96cd-f44d-496d-9144-a510e102939b","ios":"levelo://app?vid=9d8d96cd-f44d-496d-9144-a510e102939b"},"vehicle_type_id":"4","last_reported":1734700575,"current_range_meters":32800,"station_id":"ce4bhgp2rcd13ifvqfe0","pricing_plan_id":"cebpf4jnsgd1na2vs0mg"},{"bike_id":"c2c29e3a-2649-4563-8e0e-f743460afd50","system_id":"levelo_inurba_marseille","lat":43.29033,"lon":5.39973,"is_reserved":false,"is_disabled":false,"rental_uris":{"android":"levelo://app?vid=c2c29e3a-2649-4563-8e0e-f743460afd50","ios":"levelo://app?vid=c2c29e3a-2649-4563-8e0e-f743460afd50"},"vehicle_type_id":"4","last_reported":1734700575,"current_range_meters":38800,"station_id":"ce4bh392rcd13ifvqdm0","pricing_plan_id":"cebpf4jnsgd1na2vs0mg"},{"bike_id":"24c6acbe-30a3-417e-9808-9fa123117a76","system_id":"levelo_inurba_marseille","lat":43.29967,"lon":5.38501,"is_reserved":false,"is_disabled":false,"rental_uris":{"android":"levelo://app?vid=24c6acbe-30a3-417e-9808-9fa123117a76","ios":"levelo://app?vid=24c6acbe-30a3-417e-9808-9fa123117a76"},"vehicle_type_id":"4","last_reported":1734700575,"current_range_meters":19200,"station_id":"ce4bgj92rcd13ifvqbd0","pricing_plan_id":"cebpf4jnsgd1na2vs0mg"},{"bike_id":"0c9a1202-8e72-4c9a-bd45-c006f8854121","system_id":"levelo_inurba_marseille","lat":43.301523,"lon":5.380817,"is_reserved":false,"is_disabled":false,"rental_uris":{"android":"levelo://app?vid=0c9a1202-8e72-4c9a-bd45-c006f8854121","ios":"levelo://app?vid=0c9a1202-8e72-4c9a-bd45-c006f8854121"},"vehicle_type_id":"4","last_reported":1734700575,"current_range_meters":20000,"station_id":"ce4bgjp2rcd13ifvqbh0","pricing_plan_id":"cebpf4jnsgd1na2vs0mg"},{"bike_id":"cc5cc33a-170c-4c9d-8b38-4163e1ce4670","system_id":"levelo_inurba_marseille","lat":43.27901,"lon":5.37986,"is_reserved":false,"is_disabled":false,"rental_uris":{"android":"levelo://app?vid=cc5cc33a-170c-4c9d-8b38-4163e1ce4670","ios":"levelo://app?vid=cc5cc33a-170c-4c9d-8b38-4163e1ce4670"},"vehicle_type_id":"4","last_reported":1734700575,"current_range_meters":38400,"station_id":"ce4bhf92rcd13ifvqf50","pricing_plan_id":"cebpf4jnsgd1na2vs0mg"},{"bike_id":"eeb165cd-0850-4135-b307-a7a2de607d7b","system_id":"levelo_inurba_marseille","lat":43.28611,"lon":5.37061,"is_reserved":false,"is_disabled":false,"rental_uris":{"android":"levelo://app?vid=eeb165cd-0850-4135-b307-a7a2de607d7b","ios":"levelo://app?vid=eeb165cd-0850-4135-b307-a7a2de607d7b"},"vehicle_type_id":"4","last_reported":1734700575,"current_range_meters":38800,"station_id":"ce4bht12rcd13ifvqi60","pricing_plan_id":"cebpf4jnsgd1na2vs0mg"},{"bike_id":"f390ce75-9004-41a9-b255-fe8dab0d3b94","system_id":"levelo_inurba_marseille","lat":43.30353,"lon":5.4188,"is_reserved":false,"is_disabled":false,"rental_uris":{"android":"levelo://app?vid=f390ce75-9004-41a9-b255-fe8dab0d3b94","ios":"levelo://app?vid=f390ce75-9004-41a9-b255-fe8dab0d3b94"},"vehicle_type_id":"4","last_reported":1734700575,"current_range_meters":38800,"station_id":"ce4bhop2rcd13ifvqh7g","pricing_plan_id":"cebpf4jnsgd1na2vs0mg"},{"bike_id":"6e8a83fd-773b-41f4-aad3-93d792b685d7","system_id":"levelo_inurba_marseille","lat":43.26677,"lon":5.38269,"is_reserved":false,"is_disabled":false,"rental_uris":{"android":"levelo://app?vid=6e8a83fd-773b-41f4-aad3-93d792b685d7","ios":"levelo://app?vid=6e8a83fd-773b-41f4-aad3-93d792b685d7"},"vehicle_type_id":"4","last_reported":1734700575,"current_range_meters":5600,"station_id":"ce4bhg92rcd13ifvqf90","pricing_plan_id":"cebpf4jnsgd1na2vs0mg"},{"bike_id":"bde16004-2a0c-4fc8-acdd-f812d033bf70","system_id":"levelo_inurba_marseille","lat":43.26065,"lon":5.39388,"is_reserved":false,"is_disabled":false,"rental_uris":{"android":"levelo://app?vid=bde16004-2a0c-4fc8-acdd-f812d033bf70","ios":"levelo://app?vid=bde16004-2a0c-4fc8-acdd-f812d033bf70"},"vehicle_type_id":"4","last_reported":1734700575,"current_range_meters":8000,"station_id":"ce4bhh92rcd13ifvqfj0","pricing_plan_id":"cebpf4jnsgd1na2vs0mg"},{"bike_id":"df227d23-afec-4906-8b5a-7364725bbe5b","system_id":"levelo_inurba_marseille","lat":43.26495,"lon":5.39567,"is_reserved":false,"is_disabled":false,"rental_uris":{"android":"levelo://app?vid=df227d23-afec-4906-8b5a-7364725bbe5b","ios":"levelo://app?vid=df227d23-afec-4906-8b5a-7364725bbe5b"},"vehicle_type_id":"4","last_reported":1734700575,"current_range_meters":25600,"station_id":"ce4bhi12rcd13ifvqfq0","pricing_plan_id":"cebpf4jnsgd1na2vs0mg"},{"bike_id":"9f50244a-d38a-491a-9f70-c23a46404b46","system_id":"levelo_inurba_marseille","lat":43.28603,"lon":5.37075,"is_reserved":false,"is_disabled":false,"rental_uris":{"android":"levelo://app?vid=9f50244a-d38a-491a-9f70-c23a46404b46","ios":"levelo://app?vid=9f50244a-d38a-491a-9f70-c23a46404b46"},"vehicle_type_id":"4","last_reported":1734700575,"current_range_meters":38800,"station_id":"ce4bht12rcd13ifvqi60","pricing_plan_id":"cebpf4jnsgd1na2vs0mg"},{"bike_id":"d49e9901-0be3-493d-8b2e-09dfce392707","system_id":"levelo_inurba_marseille","lat":43.27372,"lon":5.36261,"is_reserved":false,"is_disabled":false,"rental_uris":{"android":"levelo://app?vid=d49e9901-0be3-493d-8b2e-09dfce392707","ios":"levelo://app?vid=d49e9901-0be3-493d-8b2e-09dfce392707"},"vehicle_type_id":"4","last_reported":1734700575,"current_range_meters":39200,"station_id":"ce4bhbh2rcd13ifvqeo0","pricing_plan_id":"cebpf4jnsgd1na2vs0mg"},{"bike_id":"6920e3c1-9639-4cb1-82dc-2bb0f5ebeef8","system_id":"levelo_inurba_marseille","lat":43.27997,"lon":5.4003,"is_reserved":false,"is_disabled":false,"rental_uris":{"android":"levelo://app?vid=6920e3c1-9639-4cb1-82dc-2bb0f5ebeef8","ios":"levelo://app?vid=6920e3c1-9639-4cb1-82dc-2bb0f5ebeef8"},"vehicle_type_id":"4","last_reported":1734700575,"current_range_meters":35600,"station_id":"ce4bho92rcd13ifvqh4g","pricing_plan_id":"cebpf4jnsgd1na2vs0mg"},{"bike_id":"fdf39e5a-2938-40c7-adf0-aa570bdbf689","system_id":"levelo_inurba_marseille","lat":43.29572,"lon":5.38079,"is_reserved":false,"is_disabled":false,"rental_uris":{"android":"levelo://app?vid=fdf39e5a-2938-40c7-adf0-aa570bdbf689","ios":"levelo://app?vid=fdf39e5a-2938-40c7-adf0-aa570bdbf689"},"vehicle_type_id":"4","last_reported":1734700575,"current_range_meters":22800,"station_id":"ce4bgl12rcd13ifvqbo0","pricing_plan_id":"cebpf4jnsgd1na2vs0mg"},{"bike_id":"8f6798f2-4f69-4fa3-8218-4b173e6d6bad","system_id":"levelo_inurba_marseille","lat":43.27961,"lon":5.38718,"is_reserved":false,"is_disabled":false,"rental_uris":{"android":"levelo://app?vid=8f6798f2-4f69-4fa3-8218-4b173e6d6bad","ios":"levelo://app?vid=8f6798f2-4f69-4fa3-8218-4b173e6d6bad"},"vehicle_type_id":"4","last_reported":1734700575,"current_range_meters":30400,"station_id":"ce4bhg12rcd13ifvqf80","pricing_plan_id":"cebpf4jnsgd1na2vs0mg"},{"bike_id":"c7f3790f-1be1-459d-8fd5-eb3dc47d8f4c","system_id":"levelo_inurba_marseille","lat":43.29836,"lon":5.36266,"is_reserved":false,"is_disabled":false,"rental_uris":{"android":"levelo://app?vid=c7f3790f-1be1-459d-8fd5-eb3dc47d8f4c","ios":"levelo://app?vid=c7f3790f-1be1-459d-8fd5-eb3dc47d8f4c"},"vehicle_type_id":"4","last_reported":1734700575,"current_range_meters":38800,"station_id":"ce4bgpp2rcd13ifvqc3g","pricing_plan_id":"cebpf4jnsgd1na2vs0mg"},{"bike_id":"fdedeb22-25f3-437c-93c3-0cffa7be6e4d","system_id":"levelo_inurba_marseille","lat":43.28459,"lon":5.35883,"is_reserved":false,"is_disabled":false,"rental_uris":{"android":"levelo://app?vid=fdedeb22-25f3-437c-93c3-0cffa7be6e4d","ios":"levelo://app?vid=fdedeb22-25f3-437c-93c3-0cffa7be6e4d"},"vehicle_type_id":"4","last_reported":1734700575,"current_range_meters":39200,"station_id":"ce4bhah2rcd13ifvqei0","pricing_plan_id":"cebpf4jnsgd1na2vs0mg"},{"bike_id":"c8b30424-050c-4dd3-9931-fa2ff9468c28","system_id":"levelo_inurba_marseille","lat":43.30257,"lon":5.3774,"is_reserved":false,"is_disabled":false,"rental_uris":{"android":"levelo://app?vid=c8b30424-050c-4dd3-9931-fa2ff9468c28","ios":"levelo://app?vid=c8b30424-050c-4dd3-9931-fa2ff9468c28"},"vehicle_type_id":"4","last_reported":1734700575,"current_range_meters":39200,"station_id":"ce4bguh2rcd13ifvqcj0","pricing_plan_id":"cebpf4jnsgd1na2vs0mg"},{"bike_id":"493a14c8-b982-489f-b32e-1a2fc7efb632","system_id":"levelo_inurba_marseille","lat":43.25973,"lon":5.3943,"is_reserved":false,"is_disabled":false,"rental_uris":{"android":"levelo://app?vid=493a14c8-b982-489f-b32e-1a2fc7efb632","ios":"levelo://app?vid=493a14c8-b982-489f-b32e-1a2fc7efb632"},"vehicle_type_id":"4","last_reported":1734700575,"current_range_meters":38800,"station_id":"ce4bhh92rcd13ifvqfj0","pricing_plan_id":"cebpf4jnsgd1na2vs0mg"},{"bike_id":"a7053f8c-b657-4929-95e3-080c0ef9f617","system_id":"levelo_inurba_marseille","lat":43.27942,"lon":5.41057,"is_reserved":false,"is_disabled":false,"rental_uris":{"android":"levelo://app?vid=a7053f8c-b657-4929-95e3-080c0ef9f617","ios":"levelo://app?vid=a7053f8c-b657-4929-95e3-080c0ef9f617"},"vehicle_type_id":"4","last_reported":1734700575,"current_range_meters":24000,"station_id":"ce4bhnp2rcd13ifvqh0g","pricing_plan_id":"cebpf4jnsgd1na2vs0mg"},{"bike_id":"8fb1bad3-a121-4eb1-a55f-687f99cf68d1","system_id":"levelo_inurba_marseille","lat":43.25502,"lon":5.37643,"is_reserved":false,"is_disabled":false,"rental_uris":{"android":"levelo://app?vid=8fb1bad3-a121-4eb1-a55f-687f99cf68d1","ios":"levelo://app?vid=8fb1bad3-a121-4eb1-a55f-687f99cf68d1"},"vehicle_type_id":"4","last_reported":1734700575,"current_range_meters":38800,"station_id":"ce4bhh12rcd13ifvqff0","pricing_plan_id":"cebpf4jnsgd1na2vs0mg"},{"bike_id":"8417b700-ae98-45dd-8f9e-a85d1d752cc3","system_id":"levelo_inurba_marseille","lat":43.26054,"lon":5.39374,"is_reserved":false,"is_disabled":true,"rental_uris":{"android":"levelo://app?vid=8417b700-ae98-45dd-8f9e-a85d1d752cc3","ios":"levelo://app?vid=8417b700-ae98-45dd-8f9e-a85d1d752cc3"},"vehicle_type_id":"4","last_reported":1734700575,"current_range_meters":38800,"station_id":"ce4bhh92rcd13ifvqfj0","pricing_plan_id":"cebpf4jnsgd1na2vs0mg"},{"bike_id":"09bec947-4c4d-46e1-81b7-d95e087b0d9f","system_id":"levelo_inurba_marseille","lat":43.25492,"lon":5.37651,"is_reserved":false,"is_disabled":false,"rental_uris":{"android":"levelo://app?vid=09bec947-4c4d-46e1-81b7-d95e087b0d9f","ios":"levelo://app?vid=09bec947-4c4d-46e1-81b7-d95e087b0d9f"},"vehicle_type_id":"4","last_reported":1734700575,"current_range_meters":38800,"station_id":"ce4bhh12rcd13ifvqff0","pricing_plan_id":"cebpf4jnsgd1na2vs0mg"},{"bike_id":"5336d7a6-42c9-4b0e-bd88-48bd00b22755","system_id":"levelo_inurba_marseille","lat":43.25498,"lon":5.37652,"is_reserved":false,"is_disabled":false,"rental_uris":{"android":"levelo://app?vid=5336d7a6-42c9-4b0e-bd88-48bd00b22755","ios":"levelo://app?vid=5336d7a6-42c9-4b0e-bd88-48bd00b22755"},"vehicle_type_id":"4","last_reported":1734700575,"current_range_meters":16800,"station_id":"ce4bhh12rcd13ifvqff0","pricing_plan_id":"cebpf4jnsgd1na2vs0mg"},{"bike_id":"6b9cb4b7-081a-4688-aa4c-fe83ccb2d64e","system_id":"levelo_inurba_marseille","lat":43.30596,"lon":5.37232,"is_reserved":false,"is_disabled":false,"rental_uris":{"android":"levelo://app?vid=6b9cb4b7-081a-4688-aa4c-fe83ccb2d64e","ios":"levelo://app?vid=6b9cb4b7-081a-4688-aa4c-fe83ccb2d64e"},"vehicle_type_id":"4","last_reported":1734700575,"current_range_meters":22800,"station_id":"ce4bgqh2rcd13ifvqc4g","pricing_plan_id":"cebpf4jnsgd1na2vs0mg"},{"bike_id":"70819d6c-3617-4e48-a1ff-45276a1c2e22","system_id":"levelo_inurba_marseille","lat":43.269353,"lon":5.4026,"is_reserved":false,"is_disabled":false,"rental_uris":{"android":"levelo://app?vid=70819d6c-3617-4e48-a1ff-45276a1c2e22","ios":"levelo://app?vid=70819d6c-3617-4e48-a1ff-45276a1c2e22"},"vehicle_type_id":"4","last_reported":1734700575,"current_range_meters":37600,"station_id":"cjm6bp8fraef2m0cb0m0","pricing_plan_id":"cebpf4jnsgd1na2vs0mg"},{"bike_id":"fc4ff347-ef4d-4a4d-ae09-babf618fedb6","system_id":"levelo_inurba_marseille","lat":43.24169,"lon":5.36403,"is_reserved":false,"is_disabled":false,"rental_uris":{"android":"levelo://app?vid=fc4ff347-ef4d-4a4d-ae09-babf618fedb6","ios":"levelo://app?vid=fc4ff347-ef4d-4a4d-ae09-babf618fedb6"},"vehicle_type_id":"4","last_reported":1734700575,"current_range_meters":38800,"station_id":"cpo36qri1sfpv3e86is0","pricing_plan_id":"cebpf4jnsgd1na2vs0mg"},{"bike_id":"4e1c702f-4fec-4a09-a45d-af1848f5ba3b","system_id":"levelo_inurba_marseille","lat":43.25577,"lon":5.38239,"is_reserved":false,"is_disabled":false,"rental_uris":{"android":"levelo://app?vid=4e1c702f-4fec-4a09-a45d-af1848f5ba3b","ios":"levelo://app?vid=4e1c702f-4fec-4a09-a45d-af1848f5ba3b"},"vehicle_type_id":"4","last_reported":1734700575,"current_range_meters":38800,"station_id":"ce4bhih2rcd13ifvqfs0","pricing_plan_id":"cebpf4jnsgd1na2vs0mg"},{"bike_id":"f0598eeb-6636-4202-bc3a-c35fdb37b2a3","system_id":"levelo_inurba_marseille","lat":43.30147,"lon":5.38094,"is_reserved":false,"is_disabled":false,"rental_uris":{"android":"levelo://app?vid=f0598eeb-6636-4202-bc3a-c35fdb37b2a3","ios":"levelo://app?vid=f0598eeb-6636-4202-bc3a-c35fdb37b2a3"},"vehicle_type_id":"4","last_reported":1734700575,"current_range_meters":23200,"station_id":"ce4bgjp2rcd13ifvqbh0","pricing_plan_id":"cebpf4jnsgd1na2vs0mg"},{"bike_id":"10cebee1-8e53-4504-8dc6-92f59059f295","system_id":"levelo_inurba_marseille","lat":43.27807,"lon":5.40715,"is_reserved":false,"is_disabled":false,"rental_uris":{"android":"levelo://app?vid=10cebee1-8e53-4504-8dc6-92f59059f295","ios":"levelo://app?vid=10cebee1-8e53-4504-8dc6-92f59059f295"},"vehicle_type_id":"4","last_reported":1734700575,"current_range_meters":36800,"station_id":"ce4bhnh2rcd13ifvqgtg","pricing_plan_id":"cebpf4jnsgd1na2vs0mg"},{"bike_id":"fbe2bf62-e6f0-4040-8e46-4a937bf89229","system_id":"levelo_inurba_marseille","lat":43.28344,"lon":5.38107,"is_reserved":false,"is_disabled":false,"rental_uris":{"android":"levelo://app?vid=fbe2bf62-e6f0-4040-8e46-4a937bf89229","ios":"levelo://app?vid=fbe2bf62-e6f0-4040-8e46-4a937bf89229"},"vehicle_type_id":"4","last_reported":1734700575,"current_range_meters":39200,"station_id":"ce4bh412rcd13ifvqdr0","pricing_plan_id":"cebpf4jnsgd1na2vs0mg"},{"bike_id":"4695cff2-e8a9-4cfc-a059-a1678fa39cf5","system_id":"levelo_inurba_marseille","lat":43.27805,"lon":5.40709,"is_reserved":false,"is_disabled":false,"rental_uris":{"android":"levelo://app?vid=4695cff2-e8a9-4cfc-a059-a1678fa39cf5","ios":"levelo://app?vid=4695cff2-e8a9-4cfc-a059-a1678fa39cf5"},"vehicle_type_id":"4","last_reported":1734700575,"current_range_meters":32000,"station_id":"ce4bhnh2rcd13ifvqgtg","pricing_plan_id":"cebpf4jnsgd1na2vs0mg"},{"bike_id":"47b0ab5e-d500-4c65-8aaa-676c147017a7","system_id":"levelo_inurba_marseille","lat":43.31529,"lon":5.38029,"is_reserved":false,"is_disabled":false,"rental_uris":{"android":"levelo://app?vid=47b0ab5e-d500-4c65-8aaa-676c147017a7","ios":"levelo://app?vid=47b0ab5e-d500-4c65-8aaa-676c147017a7"},"vehicle_type_id":"4","last_reported":1734700575,"current_range_meters":39200,"station_id":"ce4bhsp2rcd13ifvqi50","pricing_plan_id":"cebpf4jnsgd1na2vs0mg"},{"bike_id":"05929ef6-9ef2-4752-a127-101b7fed8eb1","system_id":"levelo_inurba_marseille","lat":43.29567,"lon":5.37511,"is_reserved":false,"is_disabled":false,"rental_uris":{"android":"levelo://app?vid=05929ef6-9ef2-4752-a127-101b7fed8eb1","ios":"levelo://app?vid=05929ef6-9ef2-4752-a127-101b7fed8eb1"},"vehicle_type_id":"4","last_reported":1734700575,"current_range_meters":35200,"station_id":"ce4bgh92rcd13ifvqb50","pricing_plan_id":"cebpf4jnsgd1na2vs0mg"},{"bike_id":"6b311879-2bde-4ef4-b466-fe69eb768b43","system_id":"levelo_inurba_marseille","lat":43.26679,"lon":5.38276,"is_reserved":false,"is_disabled":false,"rental_uris":{"android":"levelo://app?vid=6b311879-2bde-4ef4-b466-fe69eb768b43","ios":"levelo://app?vid=6b311879-2bde-4ef4-b466-fe69eb768b43"},"vehicle_type_id":"4","last_reported":1734700575,"current_range_meters":38800,"station_id":"ce4bhg92rcd13ifvqf90","pricing_plan_id":"cebpf4jnsgd1na2vs0mg"},{"bike_id":"4d7a228f-4e0b-48fe-a576-0bd3e50315a1","system_id":"levelo_inurba_marseille","lat":43.28412,"lon":5.34997,"is_reserved":false,"is_disabled":false,"rental_uris":{"android":"levelo://app?vid=4d7a228f-4e0b-48fe-a576-0bd3e50315a1","ios":"levelo://app?vid=4d7a228f-4e0b-48fe-a576-0bd3e50315a1"},"vehicle_type_id":"4","last_reported":1734700575,"current_range_meters":21600,"station_id":"ce4bhbh2rcd13ifvqepg","pricing_plan_id":"cebpf4jnsgd1na2vs0mg"},{"bike_id":"85e91224-2cdf-4dc3-8116-4e02ec0e4982","system_id":"levelo_inurba_marseille","lat":43.29859,"lon":5.39743,"is_reserved":false,"is_disabled":false,"rental_uris":{"android":"levelo://app?vid=85e91224-2cdf-4dc3-8116-4e02ec0e4982","ios":"levelo://app?vid=85e91224-2cdf-4dc3-8116-4e02ec0e4982"},"vehicle_type_id":"4","last_reported":1734700575,"current_range_meters":36800,"station_id":"ce4bh0h2rcd13ifvqd50","pricing_plan_id":"cebpf4jnsgd1na2vs0mg"},{"bike_id":"98fc733f-5d91-435e-ad0c-b71f46f528b9","system_id":"levelo_inurba_marseille","lat":43.29628,"lon":5.37732,"is_reserved":false,"is_disabled":false,"rental_uris":{"android":"levelo://app?vid=98fc733f-5d91-435e-ad0c-b71f46f528b9","ios":"levelo://app?vid=98fc733f-5d91-435e-ad0c-b71f46f528b9"},"vehicle_type_id":"4","last_reported":1734700575,"current_range_meters":9600,"station_id":"ce4bgi92rcd13ifvqb90","pricing_plan_id":"cebpf4jnsgd1na2vs0mg"},{"bike_id":"04251412-591f-4936-bca7-1dc4aa87eeae","system_id":"levelo_inurba_marseille","lat":43.29836,"lon":5.36268,"is_reserved":false,"is_disabled":false,"rental_uris":{"android":"levelo://app?vid=04251412-591f-4936-bca7-1dc4aa87eeae","ios":"levelo://app?vid=04251412-591f-4936-bca7-1dc4aa87eeae"},"vehicle_type_id":"4","last_reported":1734700575,"current_range_meters":38000,"station_id":"ce4bgpp2rcd13ifvqc3g","pricing_plan_id":"cebpf4jnsgd1na2vs0mg"},{"bike_id":"46d9bce4-7cd3-4cd2-8a82-ea387b2db957","system_id":"levelo_inurba_marseille","lat":43.28714,"lon":5.37941,"is_reserved":false,"is_disabled":false,"rental_uris":{"android":"levelo://app?vid=46d9bce4-7cd3-4cd2-8a82-ea387b2db957","ios":"levelo://app?vid=46d9bce4-7cd3-4cd2-8a82-ea387b2db957"},"vehicle_type_id":"4","last_reported":1734700575,"current_range_meters":14000,"station_id":"ce4bh9p2rcd13ifvqec0","pricing_plan_id":"cebpf4jnsgd1na2vs0mg"},{"bike_id":"8e59743e-ef5e-4b41-839a-bf01d6f13692","system_id":"levelo_inurba_marseille","lat":43.32546,"lon":5.41439,"is_reserved":false,"is_disabled":false,"rental_uris":{"android":"levelo://app?vid=8e59743e-ef5e-4b41-839a-bf01d6f13692","ios":"levelo://app?vid=8e59743e-ef5e-4b41-839a-bf01d6f13692"},"vehicle_type_id":"4","last_reported":1734700575,"current_range_meters":16800,"station_id":"ce4bhq12rcd13ifvqhhg","pricing_plan_id":"cebpf4jnsgd1na2vs0mg"},{"bike_id":"ebdab804-34af-42e1-bc63-c568a323e71b","system_id":"levelo_inurba_marseille","lat":43.30268,"lon":5.37726,"is_reserved":false,"is_disabled":false,"rental_uris":{"android":"levelo://app?vid=ebdab804-34af-42e1-bc63-c568a323e71b","ios":"levelo://app?vid=ebdab804-34af-42e1-bc63-c568a323e71b"},"vehicle_type_id":"4","last_reported":1734700575,"current_range_meters":36400,"station_id":"ce4bguh2rcd13ifvqcj0","pricing_plan_id":"cebpf4jnsgd1na2vs0mg"},{"bike_id":"b6566dc7-8f34-49e8-ad9b-8ac04fe415f2","system_id":"levelo_inurba_marseille","lat":43.28936,"lon":5.39639,"is_reserved":false,"is_disabled":false,"rental_uris":{"android":"levelo://app?vid=b6566dc7-8f34-49e8-ad9b-8ac04fe415f2","ios":"levelo://app?vid=b6566dc7-8f34-49e8-ad9b-8ac04fe415f2"},"vehicle_type_id":"4","last_reported":1734700575,"current_range_meters":24800,"station_id":"ce4bh3h2rcd13ifvqdn0","pricing_plan_id":"cebpf4jnsgd1na2vs0mg"},{"bike_id":"2a12bde8-ca1e-4ca8-8cbb-8dbf9a638106","system_id":"levelo_inurba_marseille","lat":43.23187,"lon":5.35555,"is_reserved":false,"is_disabled":false,"rental_uris":{"android":"levelo://app?vid=2a12bde8-ca1e-4ca8-8cbb-8dbf9a638106","ios":"levelo://app?vid=2a12bde8-ca1e-4ca8-8cbb-8dbf9a638106"},"vehicle_type_id":"4","last_reported":1734700575,"current_range_meters":25600,"station_id":"ce4bhu92rcd13ifvqi70","pricing_plan_id":"cebpf4jnsgd1na2vs0mg"},{"bike_id":"82b98b08-cf84-40f3-a0a4-1136038c5b5f","system_id":"levelo_inurba_marseille","lat":43.28851,"lon":5.358553,"is_reserved":false,"is_disabled":false,"rental_uris":{"android":"levelo://app?vid=82b98b08-cf84-40f3-a0a4-1136038c5b5f","ios":"levelo://app?vid=82b98b08-cf84-40f3-a0a4-1136038c5b5f"},"vehicle_type_id":"4","last_reported":1734700575,"current_range_meters":35200,"station_id":"ce4bhb12rcd13ifvqem0","pricing_plan_id":"cebpf4jnsgd1na2vs0mg"},{"bike_id":"434fc0df-6295-4be1-949d-a77a16929ec8","system_id":"levelo_inurba_marseille","lat":43.262026,"lon":5.379336,"is_reserved":false,"is_disabled":false,"rental_uris":{"android":"levelo://app?vid=434fc0df-6295-4be1-949d-a77a16929ec8","ios":"levelo://app?vid=434fc0df-6295-4be1-949d-a77a16929ec8"},"vehicle_type_id":"4","last_reported":1734700575,"current_range_meters":39200,"station_id":"ce4bhjp2rcd13ifvqg90","pricing_plan_id":"cebpf4jnsgd1na2vs0mg"},{"bike_id":"bcb432a6-3e50-45e4-a7ac-70d5313718b0","system_id":"levelo_inurba_marseille","lat":43.27918,"lon":5.39592,"is_reserved":false,"is_disabled":false,"rental_uris":{"android":"levelo://app?vid=bcb432a6-3e50-45e4-a7ac-70d5313718b0","ios":"levelo://app?vid=bcb432a6-3e50-45e4-a7ac-70d5313718b0"},"vehicle_type_id":"4","last_reported":1734700575,"current_range_meters":20800,"station_id":"ce4bhf92rcd13ifvqf40","pricing_plan_id":"cebpf4jnsgd1na2vs0mg"},{"bike_id":"f0bcbb45-555d-4c5b-8534-084b0fafc4e9","system_id":"levelo_inurba_marseille","lat":43.29165,"lon":5.37146,"is_reserved":false,"is_disabled":true,"rental_uris":{"android":"levelo://app?vid=f0bcbb45-555d-4c5b-8534-084b0fafc4e9","ios":"levelo://app?vid=f0bcbb45-555d-4c5b-8534-084b0fafc4e9"},"vehicle_type_id":"4","last_reported":1734700575,"current_range_meters":12000,"station_id":"ce4bha92rcd13ifvqeh0","pricing_plan_id":"cebpf4jnsgd1na2vs0mg"},{"bike_id":"b002d028-e42c-46e2-93ce-a18a7a90546e","system_id":"levelo_inurba_marseille","lat":43.322871,"lon":5.382867,"is_reserved":false,"is_disabled":false,"rental_uris":{"android":"levelo://app?vid=b002d028-e42c-46e2-93ce-a18a7a90546e","ios":"levelo://app?vid=b002d028-e42c-46e2-93ce-a18a7a90546e"},"vehicle_type_id":"4","last_reported":1734700575,"current_range_meters":17200,"station_id":"ce4bhr12rcd13ifvqhqg","pricing_plan_id":"cebpf4jnsgd1na2vs0mg"},{"bike_id":"3501d90e-eae1-4d8f-b35b-e6f7b62a0e74","system_id":"levelo_inurba_marseille","lat":43.337444,"lon":5.374475,"is_reserved":false,"is_disabled":false,"rental_uris":{"android":"levelo://app?vid=3501d90e-eae1-4d8f-b35b-e6f7b62a0e74","ios":"levelo://app?vid=3501d90e-eae1-4d8f-b35b-e6f7b62a0e74"},"vehicle_type_id":"4","last_reported":1734700575,"current_range_meters":37600,"station_id":"","pricing_plan_id":"cebpf4jnsgd1na2vs0mg"},{"bike_id":"2b0ada48-6876-42bd-81fc-86ee940c751b","system_id":"levelo_inurba_marseille","lat":43.30211,"lon":5.39465,"is_reserved":false,"is_disabled":false,"rental_uris":{"android":"levelo://app?vid=2b0ada48-6876-42bd-81fc-86ee940c751b","ios":"levelo://app?vid=2b0ada48-6876-42bd-81fc-86ee940c751b"},"vehicle_type_id":"4","last_reported":1734700575,"current_range_meters":30800,"station_id":"ce4bh0p2rcd13ifvqd70","pricing_plan_id":"cebpf4jnsgd1na2vs0mg"},{"bike_id":"0ed51200-dec1-4eb7-a14b-d709c10df8fb","system_id":"levelo_inurba_marseille","lat":43.27204,"lon":5.39187,"is_reserved":false,"is_disabled":false,"rental_uris":{"android":"levelo://app?vid=0ed51200-dec1-4eb7-a14b-d709c10df8fb","ios":"levelo://app?vid=0ed51200-dec1-4eb7-a14b-d709c10df8fb"},"vehicle_type_id":"4","last_reported":1734700575,"current_range_meters":27200,"station_id":"ce4bhhp2rcd13ifvqfm0","pricing_plan_id":"cebpf4jnsgd1na2vs0mg"},{"bike_id":"4094ac40-fe97-4483-91f4-bc4b6a97b4f3","system_id":"levelo_inurba_marseille","lat":43.25827,"lon":5.3943,"is_reserved":false,"is_disabled":false,"rental_uris":{"android":"levelo://app?vid=4094ac40-fe97-4483-91f4-bc4b6a97b4f3","ios":"levelo://app?vid=4094ac40-fe97-4483-91f4-bc4b6a97b4f3"},"vehicle_type_id":"4","last_reported":1734700575,"current_range_meters":9600,"station_id":"ce4bhip2rcd13ifvqft0","pricing_plan_id":"cebpf4jnsgd1na2vs0mg"},{"bike_id":"b44f9236-c33f-43b3-ab7e-0f32e9951c9e","system_id":"levelo_inurba_marseille","lat":43.2319,"lon":5.35562,"is_reserved":false,"is_disabled":false,"rental_uris":{"android":"levelo://app?vid=b44f9236-c33f-43b3-ab7e-0f32e9951c9e","ios":"levelo://app?vid=b44f9236-c33f-43b3-ab7e-0f32e9951c9e"},"vehicle_type_id":"4","last_reported":1734700575,"current_range_meters":7200,"station_id":"ce4bhu92rcd13ifvqi70","pricing_plan_id":"cebpf4jnsgd1na2vs0mg"},{"bike_id":"4620dcd9-c3a6-4871-8162-c4a28f6d33ca","system_id":"levelo_inurba_marseille","lat":43.31888,"lon":5.40729,"is_reserved":false,"is_disabled":false,"rental_uris":{"android":"levelo://app?vid=4620dcd9-c3a6-4871-8162-c4a28f6d33ca","ios":"levelo://app?vid=4620dcd9-c3a6-4871-8162-c4a28f6d33ca"},"vehicle_type_id":"4","last_reported":1734700575,"current_range_meters":39200,"station_id":"ce4bhq12rcd13ifvqhig","pricing_plan_id":"cebpf4jnsgd1na2vs0mg"},{"bike_id":"7cdaab41-d6a9-411c-91af-08e1cd111a45","system_id":"levelo_inurba_marseille","lat":43.3077,"lon":5.40262,"is_reserved":false,"is_disabled":false,"rental_uris":{"android":"levelo://app?vid=7cdaab41-d6a9-411c-91af-08e1cd111a45","ios":"levelo://app?vid=7cdaab41-d6a9-411c-91af-08e1cd111a45"},"vehicle_type_id":"4","last_reported":1734700575,"current_range_meters":11600,"station_id":"","pricing_plan_id":"cebpf4jnsgd1na2vs0mg"},{"bike_id":"276c9499-43db-409c-811c-1972563b5f62","system_id":"levelo_inurba_marseille","lat":43.27673,"lon":5.38886,"is_reserved":false,"is_disabled":false,"rental_uris":{"android":"levelo://app?vid=276c9499-43db-409c-811c-1972563b5f62","ios":"levelo://app?vid=276c9499-43db-409c-811c-1972563b5f62"},"vehicle_type_id":"4","last_reported":1734700575,"current_range_meters":28000,"station_id":"ce4bhi12rcd13ifvqfo0","pricing_plan_id":"cebpf4jnsgd1na2vs0mg"},{"bike_id":"bc957a83-7285-4dfc-8fd2-fd6117410c51","system_id":"levelo_inurba_marseille","lat":43.27424,"lon":5.3942,"is_reserved":false,"is_disabled":false,"rental_uris":{"android":"levelo://app?vid=bc957a83-7285-4dfc-8fd2-fd6117410c51","ios":"levelo://app?vid=bc957a83-7285-4dfc-8fd2-fd6117410c51"},"vehicle_type_id":"4","last_reported":1734700575,"current_range_meters":31200,"station_id":"ce4bhdp2rcd13ifvqf20","pricing_plan_id":"cebpf4jnsgd1na2vs0mg"},{"bike_id":"b152beff-460f-416e-9e7c-554e402210ef","system_id":"levelo_inurba_marseille","lat":43.24672,"lon":5.38189,"is_reserved":false,"is_disabled":false,"rental_uris":{"android":"levelo://app?vid=b152beff-460f-416e-9e7c-554e402210ef","ios":"levelo://app?vid=b152beff-460f-416e-9e7c-554e402210ef"},"vehicle_type_id":"4","last_reported":1734700575,"current_range_meters":38800,"station_id":"ce4bhih2rcd13ifvqfr0","pricing_plan_id":"cebpf4jnsgd1na2vs0mg"},{"bike_id":"a75b08f1-37cc-41c5-95db-2b9ed81dc942","system_id":"levelo_inurba_marseille","lat":43.29725,"lon":5.37693,"is_reserved":false,"is_disabled":false,"rental_uris":{"android":"levelo://app?vid=a75b08f1-37cc-41c5-95db-2b9ed81dc942","ios":"levelo://app?vid=a75b08f1-37cc-41c5-95db-2b9ed81dc942"},"vehicle_type_id":"4","last_reported":1734700575,"current_range_meters":24400,"station_id":"ce4bgkh2rcd13ifvqbl0","pricing_plan_id":"cebpf4jnsgd1na2vs0mg"},{"bike_id":"7f26a9f5-a8ad-47b3-9fb1-698bff1dae74","system_id":"levelo_inurba_marseille","lat":43.30268,"lon":5.37715,"is_reserved":false,"is_disabled":false,"rental_uris":{"android":"levelo://app?vid=7f26a9f5-a8ad-47b3-9fb1-698bff1dae74","ios":"levelo://app?vid=7f26a9f5-a8ad-47b3-9fb1-698bff1dae74"},"vehicle_type_id":"4","last_reported":1734700575,"current_range_meters":38800,"station_id":"ce4bguh2rcd13ifvqcj0","pricing_plan_id":"cebpf4jnsgd1na2vs0mg"},{"bike_id":"64229b70-221f-4057-87fe-de5b125293ff","system_id":"levelo_inurba_marseille","lat":43.30186,"lon":5.36611,"is_reserved":false,"is_disabled":false,"rental_uris":{"android":"levelo://app?vid=64229b70-221f-4057-87fe-de5b125293ff","ios":"levelo://app?vid=64229b70-221f-4057-87fe-de5b125293ff"},"vehicle_type_id":"4","last_reported":1734700575,"current_range_meters":38800,"station_id":"ce4bgrh2rcd13ifvqc8g","pricing_plan_id":"cebpf4jnsgd1na2vs0mg"},{"bike_id":"9bb85159-9b97-48c7-8b70-a5ba1a6e19c5","system_id":"levelo_inurba_marseille","lat":43.32473,"lon":5.36558,"is_reserved":false,"is_disabled":false,"rental_uris":{"android":"levelo://app?vid=9bb85159-9b97-48c7-8b70-a5ba1a6e19c5","ios":"levelo://app?vid=9bb85159-9b97-48c7-8b70-a5ba1a6e19c5"},"vehicle_type_id":"4","last_reported":1734700575,"current_range_meters":24000,"station_id":"ce4bhs12rcd13ifvqhvg","pricing_plan_id":"cebpf4jnsgd1na2vs0mg"},{"bike_id":"59edd089-7379-4180-ab91-a07c47a59c06","system_id":"levelo_inurba_marseille","lat":43.31084,"lon":5.42432,"is_reserved":false,"is_disabled":false,"rental_uris":{"android":"levelo://app?vid=59edd089-7379-4180-ab91-a07c47a59c06","ios":"levelo://app?vid=59edd089-7379-4180-ab91-a07c47a59c06"},"vehicle_type_id":"4","last_reported":1734700575,"current_range_meters":26000,"station_id":"ce4bhp92rcd13ifvqhag","pricing_plan_id":"cebpf4jnsgd1na2vs0mg"},{"bike_id":"61d6996d-3290-4ff0-9ef3-387b57fcacbb","system_id":"levelo_inurba_marseille","lat":43.30141,"lon":5.37412,"is_reserved":false,"is_disabled":false,"rental_uris":{"android":"levelo://app?vid=61d6996d-3290-4ff0-9ef3-387b57fcacbb","ios":"levelo://app?vid=61d6996d-3290-4ff0-9ef3-387b57fcacbb"},"vehicle_type_id":"4","last_reported":1734700575,"current_range_meters":33600,"station_id":"ce4bgs92rcd13ifvqcc0","pricing_plan_id":"cebpf4jnsgd1na2vs0mg"},{"bike_id":"cf7ee5da-8f20-4e0c-9be2-887033ef8c21","system_id":"levelo_inurba_marseille","lat":43.29929,"lon":5.36566,"is_reserved":false,"is_disabled":false,"rental_uris":{"android":"levelo://app?vid=cf7ee5da-8f20-4e0c-9be2-887033ef8c21","ios":"levelo://app?vid=cf7ee5da-8f20-4e0c-9be2-887033ef8c21"},"vehicle_type_id":"4","last_reported":1734700575,"current_range_meters":28800,"station_id":"ce4bgm92rcd13ifvqbr0","pricing_plan_id":"cebpf4jnsgd1na2vs0mg"},{"bike_id":"758af6d3-edf0-406a-bc10-190e811c81d4","system_id":"levelo_inurba_marseille","lat":43.26214,"lon":5.37445,"is_reserved":false,"is_disabled":false,"rental_uris":{"android":"levelo://app?vid=758af6d3-edf0-406a-bc10-190e811c81d4","ios":"levelo://app?vid=758af6d3-edf0-406a-bc10-190e811c81d4"},"vehicle_type_id":"4","last_reported":1734700575,"current_range_meters":38000,"station_id":"ce4bhgp2rcd13ifvqfc0","pricing_plan_id":"cebpf4jnsgd1na2vs0mg"},{"bike_id":"b179d739-dd2d-40f1-abeb-7e96a65f6e4f","system_id":"levelo_inurba_marseille","lat":43.26956,"lon":5.38637,"is_reserved":false,"is_disabled":false,"rental_uris":{"android":"levelo://app?vid=b179d739-dd2d-40f1-abeb-7e96a65f6e4f","ios":"levelo://app?vid=b179d739-dd2d-40f1-abeb-7e96a65f6e4f"},"vehicle_type_id":"4","last_reported":1734700575,"current_range_meters":38000,"station_id":"ce4bhh92rcd13ifvqfh0","pricing_plan_id":"cebpf4jnsgd1na2vs0mg"},{"bike_id":"145b4131-68e1-411d-ba4a-4016be63f7bf","system_id":"levelo_inurba_marseille","lat":43.26562,"lon":5.37285,"is_reserved":false,"is_disabled":false,"rental_uris":{"android":"levelo://app?vid=145b4131-68e1-411d-ba4a-4016be63f7bf","ios":"levelo://app?vid=145b4131-68e1-411d-ba4a-4016be63f7bf"},"vehicle_type_id":"4","last_reported":1734700575,"current_range_meters":36000,"station_id":"ce4bhg12rcd13ifvqf70","pricing_plan_id":"cebpf4jnsgd1na2vs0mg"},{"bike_id":"95c32498-e914-4842-847d-4132323b77d4","system_id":"levelo_inurba_marseille","lat":43.29803,"lon":5.38089,"is_reserved":false,"is_disabled":false,"rental_uris":{"android":"levelo://app?vid=95c32498-e914-4842-847d-4132323b77d4","ios":"levelo://app?vid=95c32498-e914-4842-847d-4132323b77d4"},"vehicle_type_id":"4","last_reported":1734700575,"current_range_meters":38400,"station_id":"ce4bgip2rcd13ifvqbb0","pricing_plan_id":"cebpf4jnsgd1na2vs0mg"},{"bike_id":"a9a8602a-1485-4cc0-a1ec-83af02453f84","system_id":"levelo_inurba_marseille","lat":43.30275,"lon":5.37703,"is_reserved":false,"is_disabled":false,"rental_uris":{"android":"levelo://app?vid=a9a8602a-1485-4cc0-a1ec-83af02453f84","ios":"levelo://app?vid=a9a8602a-1485-4cc0-a1ec-83af02453f84"},"vehicle_type_id":"4","last_reported":1734700575,"current_range_meters":37600,"station_id":"ce4bguh2rcd13ifvqcj0","pricing_plan_id":"cebpf4jnsgd1na2vs0mg"},{"bike_id":"522ebddf-020e-4164-a0fa-4e6f6d68e6b9","system_id":"levelo_inurba_marseille","lat":43.27813,"lon":5.40714,"is_reserved":false,"is_disabled":false,"rental_uris":{"android":"levelo://app?vid=522ebddf-020e-4164-a0fa-4e6f6d68e6b9","ios":"levelo://app?vid=522ebddf-020e-4164-a0fa-4e6f6d68e6b9"},"vehicle_type_id":"4","last_reported":1734700575,"current_range_meters":22400,"station_id":"ce4bhnh2rcd13ifvqgtg","pricing_plan_id":"cebpf4jnsgd1na2vs0mg"},{"bike_id":"d7a9a039-2919-4498-94bc-85df69bbf9b4","system_id":"levelo_inurba_marseille","lat":43.25085,"lon":5.39521,"is_reserved":false,"is_disabled":false,"rental_uris":{"android":"levelo://app?vid=d7a9a039-2919-4498-94bc-85df69bbf9b4","ios":"levelo://app?vid=d7a9a039-2919-4498-94bc-85df69bbf9b4"},"vehicle_type_id":"4","last_reported":1734700575,"current_range_meters":6400,"station_id":"ce4bhm12rcd13ifvqgkg","pricing_plan_id":"cebpf4jnsgd1na2vs0mg"},{"bike_id":"2e0a4273-9b64-4eb1-8d1b-b8e55991eb0a","system_id":"levelo_inurba_marseille","lat":43.272661,"lon":5.400776,"is_reserved":false,"is_disabled":true,"rental_uris":{"android":"levelo://app?vid=2e0a4273-9b64-4eb1-8d1b-b8e55991eb0a","ios":"levelo://app?vid=2e0a4273-9b64-4eb1-8d1b-b8e55991eb0a"},"vehicle_type_id":"4","last_reported":1734700575,"current_range_meters":0,"station_id":"","pricing_plan_id":"cebpf4jnsgd1na2vs0mg"},{"bike_id":"f957ffa3-7b76-4b18-bb62-81627d313cf8","system_id":"levelo_inurba_marseille","lat":43.23193,"lon":5.35557,"is_reserved":false,"is_disabled":false,"rental_uris":{"android":"levelo://app?vid=f957ffa3-7b76-4b18-bb62-81627d313cf8","ios":"levelo://app?vid=f957ffa3-7b76-4b18-bb62-81627d313cf8"},"vehicle_type_id":"4","last_reported":1734700575,"current_range_meters":29600,"station_id":"ce4bhu92rcd13ifvqi70","pricing_plan_id":"cebpf4jnsgd1na2vs0mg"},{"bike_id":"e6ae1557-b010-4eef-b7ca-0871638416dc","system_id":"levelo_inurba_marseille","lat":43.28661,"lon":5.36362,"is_reserved":false,"is_disabled":false,"rental_uris":{"android":"levelo://app?vid=e6ae1557-b010-4eef-b7ca-0871638416dc","ios":"levelo://app?vid=e6ae1557-b010-4eef-b7ca-0871638416dc"},"vehicle_type_id":"4","last_reported":1734700575,"current_range_meters":21600,"station_id":"ce4bhah2rcd13ifvqej0","pricing_plan_id":"cebpf4jnsgd1na2vs0mg"},{"bike_id":"5dd95ec7-a282-40a6-a0fe-4e2e61de4064","system_id":"levelo_inurba_marseille","lat":43.26355,"lon":5.40141,"is_reserved":false,"is_disabled":true,"rental_uris":{"android":"levelo://app?vid=5dd95ec7-a282-40a6-a0fe-4e2e61de4064","ios":"levelo://app?vid=5dd95ec7-a282-40a6-a0fe-4e2e61de4064"},"vehicle_type_id":"4","last_reported":1734700575,"current_range_meters":8000,"station_id":"","pricing_plan_id":"cebpf4jnsgd1na2vs0mg"},{"bike_id":"3c94d355-d0e2-4b3a-a173-d8a478747fca","system_id":"levelo_inurba_marseille","lat":43.29632,"lon":5.3716,"is_reserved":false,"is_disabled":false,"rental_uris":{"android":"levelo://app?vid=3c94d355-d0e2-4b3a-a173-d8a478747fca","ios":"levelo://app?vid=3c94d355-d0e2-4b3a-a173-d8a478747fca"},"vehicle_type_id":"4","last_reported":1734700575,"current_range_meters":36800,"station_id":"ce4bgnh2rcd13ifvqc0g","pricing_plan_id":"cebpf4jnsgd1na2vs0mg"},{"bike_id":"a86ec51d-9767-48f5-9411-073a7de5a6cb","system_id":"levelo_inurba_marseille","lat":43.29842,"lon":5.36277,"is_reserved":false,"is_disabled":false,"rental_uris":{"android":"levelo://app?vid=a86ec51d-9767-48f5-9411-073a7de5a6cb","ios":"levelo://app?vid=a86ec51d-9767-48f5-9411-073a7de5a6cb"},"vehicle_type_id":"4","last_reported":1734700575,"current_range_meters":10800,"station_id":"ce4bgpp2rcd13ifvqc3g","pricing_plan_id":"cebpf4jnsgd1na2vs0mg"},{"bike_id":"3c1b48d9-0ee0-4fb8-a73a-93122fd465f2","system_id":"levelo_inurba_marseille","lat":43.27945,"lon":5.41047,"is_reserved":false,"is_disabled":false,"rental_uris":{"android":"levelo://app?vid=3c1b48d9-0ee0-4fb8-a73a-93122fd465f2","ios":"levelo://app?vid=3c1b48d9-0ee0-4fb8-a73a-93122fd465f2"},"vehicle_type_id":"4","last_reported":1734700575,"current_range_meters":19200,"station_id":"ce4bhnp2rcd13ifvqh0g","pricing_plan_id":"cebpf4jnsgd1na2vs0mg"},{"bike_id":"56fd960d-6abf-4fb2-b39b-42c74ef93da3","system_id":"levelo_inurba_marseille","lat":43.27965,"lon":5.38723,"is_reserved":false,"is_disabled":false,"rental_uris":{"android":"levelo://app?vid=56fd960d-6abf-4fb2-b39b-42c74ef93da3","ios":"levelo://app?vid=56fd960d-6abf-4fb2-b39b-42c74ef93da3"},"vehicle_type_id":"4","last_reported":1734700575,"current_range_meters":29600,"station_id":"ce4bhg12rcd13ifvqf80","pricing_plan_id":"cebpf4jnsgd1na2vs0mg"},{"bike_id":"2256e953-e04c-4a1a-96b7-b03d74e4d2b6","system_id":"levelo_inurba_marseille","lat":43.24796,"lon":5.37458,"is_reserved":false,"is_disabled":false,"rental_uris":{"android":"levelo://app?vid=2256e953-e04c-4a1a-96b7-b03d74e4d2b6","ios":"levelo://app?vid=2256e953-e04c-4a1a-96b7-b03d74e4d2b6"},"vehicle_type_id":"4","last_reported":1734700575,"current_range_meters":38800,"station_id":"ce4bhgh2rcd13ifvqfb0","pricing_plan_id":"cebpf4jnsgd1na2vs0mg"},{"bike_id":"260171d1-5388-4de2-8f1f-acb7e571567f","system_id":"levelo_inurba_marseille","lat":43.29716,"lon":5.37694,"is_reserved":false,"is_disabled":false,"rental_uris":{"android":"levelo://app?vid=260171d1-5388-4de2-8f1f-acb7e571567f","ios":"levelo://app?vid=260171d1-5388-4de2-8f1f-acb7e571567f"},"vehicle_type_id":"4","last_reported":1734700575,"current_range_meters":16800,"station_id":"ce4bgkh2rcd13ifvqbl0","pricing_plan_id":"cebpf4jnsgd1na2vs0mg"},{"bike_id":"8a991dac-d902-418c-9912-2f70af4b681e","system_id":"levelo_inurba_marseille","lat":43.24994,"lon":5.38938,"is_reserved":false,"is_disabled":false,"rental_uris":{"android":"levelo://app?vid=8a991dac-d902-418c-9912-2f70af4b681e","ios":"levelo://app?vid=8a991dac-d902-418c-9912-2f70af4b681e"},"vehicle_type_id":"4","last_reported":1734700575,"current_range_meters":33600,"station_id":"ce4bhgp2rcd13ifvqfd0","pricing_plan_id":"cebpf4jnsgd1na2vs0mg"},{"bike_id":"2fdc3292-7478-4713-ad1d-204237e84084","system_id":"levelo_inurba_marseille","lat":43.31368,"lon":5.38363,"is_reserved":false,"is_disabled":false,"rental_uris":{"android":"levelo://app?vid=2fdc3292-7478-4713-ad1d-204237e84084","ios":"levelo://app?vid=2fdc3292-7478-4713-ad1d-204237e84084"},"vehicle_type_id":"4","last_reported":1734700575,"current_range_meters":36800,"station_id":"","pricing_plan_id":"cebpf4jnsgd1na2vs0mg"},{"bike_id":"19f34006-1dba-4c03-b59a-0511830589aa","system_id":"levelo_inurba_marseille","lat":43.24797,"lon":5.37489,"is_reserved":false,"is_disabled":false,"rental_uris":{"android":"levelo://app?vid=19f34006-1dba-4c03-b59a-0511830589aa","ios":"levelo://app?vid=19f34006-1dba-4c03-b59a-0511830589aa"},"vehicle_type_id":"4","last_reported":1734700575,"current_range_meters":25600,"station_id":"ce4bhgh2rcd13ifvqfb0","pricing_plan_id":"cebpf4jnsgd1na2vs0mg"},{"bike_id":"5a81334d-3e2b-4322-919f-5369e046a084","system_id":"levelo_inurba_marseille","lat":43.3054,"lon":5.36729,"is_reserved":false,"is_disabled":false,"rental_uris":{"android":"levelo://app?vid=5a81334d-3e2b-4322-919f-5369e046a084","ios":"levelo://app?vid=5a81334d-3e2b-4322-919f-5369e046a084"},"vehicle_type_id":"4","last_reported":1734700575,"current_range_meters":12400,"station_id":"ce4bgrp2rcd13ifvqc9g","pricing_plan_id":"cebpf4jnsgd1na2vs0mg"},{"bike_id":"9d6b51ab-fd14-4c6b-aa24-de45376f78a1","system_id":"levelo_inurba_marseille","lat":43.29903,"lon":5.38136,"is_reserved":false,"is_disabled":false,"rental_uris":{"android":"levelo://app?vid=9d6b51ab-fd14-4c6b-aa24-de45376f78a1","ios":"levelo://app?vid=9d6b51ab-fd14-4c6b-aa24-de45376f78a1"},"vehicle_type_id":"4","last_reported":1734700575,"current_range_meters":38800,"station_id":"ce4bgj12rcd13ifvqbc0","pricing_plan_id":"cebpf4jnsgd1na2vs0mg"},{"bike_id":"89940423-94c8-42c1-8093-1209a09dea4c","system_id":"levelo_inurba_marseille","lat":43.30137,"lon":5.38791,"is_reserved":false,"is_disabled":false,"rental_uris":{"android":"levelo://app?vid=89940423-94c8-42c1-8093-1209a09dea4c","ios":"levelo://app?vid=89940423-94c8-42c1-8093-1209a09dea4c"},"vehicle_type_id":"4","last_reported":1734700575,"current_range_meters":26000,"station_id":"ce4bghh2rcd13ifvqb60","pricing_plan_id":"cebpf4jnsgd1na2vs0mg"},{"bike_id":"f8fdf67c-4a0a-4a59-acd1-778c7e85267e","system_id":"levelo_inurba_marseille","lat":43.24549,"lon":5.39526,"is_reserved":false,"is_disabled":false,"rental_uris":{"android":"levelo://app?vid=f8fdf67c-4a0a-4a59-acd1-778c7e85267e","ios":"levelo://app?vid=f8fdf67c-4a0a-4a59-acd1-778c7e85267e"},"vehicle_type_id":"4","last_reported":1734700575,"current_range_meters":28800,"station_id":"ce4bhlp2rcd13ifvqgjg","pricing_plan_id":"cebpf4jnsgd1na2vs0mg"},{"bike_id":"3d546a14-bb16-4573-a43d-113737372c1f","system_id":"levelo_inurba_marseille","lat":43.29001,"lon":5.38119,"is_reserved":false,"is_disabled":false,"rental_uris":{"android":"levelo://app?vid=3d546a14-bb16-4573-a43d-113737372c1f","ios":"levelo://app?vid=3d546a14-bb16-4573-a43d-113737372c1f"},"vehicle_type_id":"4","last_reported":1734700575,"current_range_meters":31200,"station_id":"ce4bh4p2rcd13ifvqe1g","pricing_plan_id":"cebpf4jnsgd1na2vs0mg"},{"bike_id":"73089af4-8bef-4c4e-9573-8a8f768947b4","system_id":"levelo_inurba_marseille","lat":43.31082,"lon":5.42433,"is_reserved":false,"is_disabled":false,"rental_uris":{"android":"levelo://app?vid=73089af4-8bef-4c4e-9573-8a8f768947b4","ios":"levelo://app?vid=73089af4-8bef-4c4e-9573-8a8f768947b4"},"vehicle_type_id":"4","last_reported":1734700575,"current_range_meters":38800,"station_id":"ce4bhp92rcd13ifvqhag","pricing_plan_id":"cebpf4jnsgd1na2vs0mg"},{"bike_id":"01135f23-8f24-40dc-bcec-b4a361df26eb","system_id":"levelo_inurba_marseille","lat":43.301287,"lon":5.38784,"is_reserved":false,"is_disabled":true,"rental_uris":{"android":"levelo://app?vid=01135f23-8f24-40dc-bcec-b4a361df26eb","ios":"levelo://app?vid=01135f23-8f24-40dc-bcec-b4a361df26eb"},"vehicle_type_id":"4","last_reported":1734700575,"current_range_meters":0,"station_id":"ce4bghh2rcd13ifvqb60","pricing_plan_id":"cebpf4jnsgd1na2vs0mg"},{"bike_id":"f2f6aaf7-105d-4d04-83f7-012739cdfa7e","system_id":"levelo_inurba_marseille","lat":43.30758,"lon":5.36829,"is_reserved":false,"is_disabled":false,"rental_uris":{"android":"levelo://app?vid=f2f6aaf7-105d-4d04-83f7-012739cdfa7e","ios":"levelo://app?vid=f2f6aaf7-105d-4d04-83f7-012739cdfa7e"},"vehicle_type_id":"4","last_reported":1734700575,"current_range_meters":11600,"station_id":"","pricing_plan_id":"cebpf4jnsgd1na2vs0mg"},{"bike_id":"81e87b17-4f6d-46b6-9307-4437b0486ac2","system_id":"levelo_inurba_marseille","lat":43.31492,"lon":5.37304,"is_reserved":false,"is_disabled":false,"rental_uris":{"android":"levelo://app?vid=81e87b17-4f6d-46b6-9307-4437b0486ac2","ios":"levelo://app?vid=81e87b17-4f6d-46b6-9307-4437b0486ac2"},"vehicle_type_id":"4","last_reported":1734700575,"current_range_meters":30000,"station_id":"ce4bgt12rcd13ifvqcd0","pricing_plan_id":"cebpf4jnsgd1na2vs0mg"},{"bike_id":"295bc5a4-9bb4-43b3-8558-b6c1bff8698d","system_id":"levelo_inurba_marseille","lat":43.30328,"lon":5.40421,"is_reserved":false,"is_disabled":false,"rental_uris":{"android":"levelo://app?vid=295bc5a4-9bb4-43b3-8558-b6c1bff8698d","ios":"levelo://app?vid=295bc5a4-9bb4-43b3-8558-b6c1bff8698d"},"vehicle_type_id":"4","last_reported":1734700575,"current_range_meters":28800,"station_id":"ce4bh012rcd13ifvqd10","pricing_plan_id":"cebpf4jnsgd1na2vs0mg"},{"bike_id":"98826be6-41c7-4012-bec4-96f22c786380","system_id":"levelo_inurba_marseille","lat":43.29257,"lon":5.40908,"is_reserved":false,"is_disabled":false,"rental_uris":{"android":"levelo://app?vid=98826be6-41c7-4012-bec4-96f22c786380","ios":"levelo://app?vid=98826be6-41c7-4012-bec4-96f22c786380"},"vehicle_type_id":"4","last_reported":1734700575,"current_range_meters":21600,"station_id":"ce4bh192rcd13ifvqdc0","pricing_plan_id":"cebpf4jnsgd1na2vs0mg"},{"bike_id":"cc414c34-265e-4dca-beaa-6c84c5588df6","system_id":"levelo_inurba_marseille","lat":43.2868,"lon":5.38668,"is_reserved":false,"is_disabled":false,"rental_uris":{"android":"levelo://app?vid=cc414c34-265e-4dca-beaa-6c84c5588df6","ios":"levelo://app?vid=cc414c34-265e-4dca-beaa-6c84c5588df6"},"vehicle_type_id":"4","last_reported":1734700575,"current_range_meters":36800,"station_id":"ce4bh492rcd13ifvqdug","pricing_plan_id":"cebpf4jnsgd1na2vs0mg"},{"bike_id":"cc91e18c-31a1-4d61-8bec-2d478014f9b7","system_id":"levelo_inurba_marseille","lat":43.27379,"lon":5.36258,"is_reserved":false,"is_disabled":false,"rental_uris":{"android":"levelo://app?vid=cc91e18c-31a1-4d61-8bec-2d478014f9b7","ios":"levelo://app?vid=cc91e18c-31a1-4d61-8bec-2d478014f9b7"},"vehicle_type_id":"4","last_reported":1734700575,"current_range_meters":28800,"station_id":"ce4bhbh2rcd13ifvqeo0","pricing_plan_id":"cebpf4jnsgd1na2vs0mg"},{"bike_id":"395883ea-9dbb-4542-8bcb-a601afb051be","system_id":"levelo_inurba_marseille","lat":43.27702,"lon":5.38879,"is_reserved":false,"is_disabled":false,"rental_uris":{"android":"levelo://app?vid=395883ea-9dbb-4542-8bcb-a601afb051be","ios":"levelo://app?vid=395883ea-9dbb-4542-8bcb-a601afb051be"},"vehicle_type_id":"4","last_reported":1734700575,"current_range_meters":37600,"station_id":"ce4bhi12rcd13ifvqfo0","pricing_plan_id":"cebpf4jnsgd1na2vs0mg"},{"bike_id":"fdfb3580-1002-4881-8a39-36cd06d2a7b8","system_id":"levelo_inurba_marseille","lat":43.28283,"lon":5.35072,"is_reserved":false,"is_disabled":false,"rental_uris":{"android":"levelo://app?vid=fdfb3580-1002-4881-8a39-36cd06d2a7b8","ios":"levelo://app?vid=fdfb3580-1002-4881-8a39-36cd06d2a7b8"},"vehicle_type_id":"4","last_reported":1734700575,"current_range_meters":34000,"station_id":"ce4bhbp2rcd13ifvqerg","pricing_plan_id":"cebpf4jnsgd1na2vs0mg"},{"bike_id":"494c8398-822e-42ee-a7f1-dfd664d1fba7","system_id":"levelo_inurba_marseille","lat":43.23194,"lon":5.35553,"is_reserved":false,"is_disabled":false,"rental_uris":{"android":"levelo://app?vid=494c8398-822e-42ee-a7f1-dfd664d1fba7","ios":"levelo://app?vid=494c8398-822e-42ee-a7f1-dfd664d1fba7"},"vehicle_type_id":"4","last_reported":1734700575,"current_range_meters":35200,"station_id":"ce4bhu92rcd13ifvqi70","pricing_plan_id":"cebpf4jnsgd1na2vs0mg"},{"bike_id":"6ba83114-d278-4508-9a93-f6c6309d425c","system_id":"levelo_inurba_marseille","lat":43.29292,"lon":5.37462,"is_reserved":false,"is_disabled":false,"rental_uris":{"android":"levelo://app?vid=6ba83114-d278-4508-9a93-f6c6309d425c","ios":"levelo://app?vid=6ba83114-d278-4508-9a93-f6c6309d425c"},"vehicle_type_id":"4","last_reported":1734700575,"current_range_meters":38000,"station_id":"ce4bgi12rcd13ifvqb70","pricing_plan_id":"cebpf4jnsgd1na2vs0mg"},{"bike_id":"c782be4b-818b-4cb4-830c-89e6e8de2966","system_id":"levelo_inurba_marseille","lat":43.27818,"lon":5.4071,"is_reserved":false,"is_disabled":false,"rental_uris":{"android":"levelo://app?vid=c782be4b-818b-4cb4-830c-89e6e8de2966","ios":"levelo://app?vid=c782be4b-818b-4cb4-830c-89e6e8de2966"},"vehicle_type_id":"4","last_reported":1734700575,"current_range_meters":33200,"station_id":"ce4bhnh2rcd13ifvqgtg","pricing_plan_id":"cebpf4jnsgd1na2vs0mg"},{"bike_id":"ec4263eb-a4a1-4fca-b81e-a2d47c91fbcd","system_id":"levelo_inurba_marseille","lat":43.30152,"lon":5.38095,"is_reserved":false,"is_disabled":false,"rental_uris":{"android":"levelo://app?vid=ec4263eb-a4a1-4fca-b81e-a2d47c91fbcd","ios":"levelo://app?vid=ec4263eb-a4a1-4fca-b81e-a2d47c91fbcd"},"vehicle_type_id":"4","last_reported":1734700575,"current_range_meters":28400,"station_id":"ce4bgjp2rcd13ifvqbh0","pricing_plan_id":"cebpf4jnsgd1na2vs0mg"},{"bike_id":"55fa967f-e3e3-42c4-9dd1-2bcbb5fc2d4d","system_id":"levelo_inurba_marseille","lat":43.27395,"lon":5.39125,"is_reserved":false,"is_disabled":false,"rental_uris":{"android":"levelo://app?vid=55fa967f-e3e3-42c4-9dd1-2bcbb5fc2d4d","ios":"levelo://app?vid=55fa967f-e3e3-42c4-9dd1-2bcbb5fc2d4d"},"vehicle_type_id":"4","last_reported":1734700575,"current_range_meters":24000,"station_id":"","pricing_plan_id":"cebpf4jnsgd1na2vs0mg"},{"bike_id":"88ffa229-d8b6-4242-ab01-887270997353","system_id":"levelo_inurba_marseille","lat":43.27312,"lon":5.39083,"is_reserved":false,"is_disabled":true,"rental_uris":{"android":"levelo://app?vid=88ffa229-d8b6-4242-ab01-887270997353","ios":"levelo://app?vid=88ffa229-d8b6-4242-ab01-887270997353"},"vehicle_type_id":"4","last_reported":1734700575,"current_range_meters":38800,"station_id":"ce4bhgp2rcd13ifvqfe0","pricing_plan_id":"cebpf4jnsgd1na2vs0mg"},{"bike_id":"93a82e60-314a-4cb0-a5cf-a19515d4fc75","system_id":"levelo_inurba_marseille","lat":43.29591,"lon":5.37515,"is_reserved":false,"is_disabled":false,"rental_uris":{"android":"levelo://app?vid=93a82e60-314a-4cb0-a5cf-a19515d4fc75","ios":"levelo://app?vid=93a82e60-314a-4cb0-a5cf-a19515d4fc75"},"vehicle_type_id":"4","last_reported":1734700575,"current_range_meters":25200,"station_id":"ce4bgh92rcd13ifvqb50","pricing_plan_id":"cebpf4jnsgd1na2vs0mg"},{"bike_id":"d55cea26-6c22-4916-8f43-6a2d11f2fbdf","system_id":"levelo_inurba_marseille","lat":43.29013,"lon":5.38154,"is_reserved":false,"is_disabled":false,"rental_uris":{"android":"levelo://app?vid=d55cea26-6c22-4916-8f43-6a2d11f2fbdf","ios":"levelo://app?vid=d55cea26-6c22-4916-8f43-6a2d11f2fbdf"},"vehicle_type_id":"4","last_reported":1734700575,"current_range_meters":39200,"station_id":"ce4bh4p2rcd13ifvqe1g","pricing_plan_id":"cebpf4jnsgd1na2vs0mg"},{"bike_id":"7235cb80-987b-4c84-a49f-87190eb10f76","system_id":"levelo_inurba_marseille","lat":43.28479,"lon":5.38414,"is_reserved":false,"is_disabled":false,"rental_uris":{"android":"levelo://app?vid=7235cb80-987b-4c84-a49f-87190eb10f76","ios":"levelo://app?vid=7235cb80-987b-4c84-a49f-87190eb10f76"},"vehicle_type_id":"4","last_reported":1734700575,"current_range_meters":38800,"station_id":"ce4bh512rcd13ifvqe3g","pricing_plan_id":"cebpf4jnsgd1na2vs0mg"},{"bike_id":"a2eba22b-b0ee-4005-9bf3-576bb458d391","system_id":"levelo_inurba_marseille","lat":43.279651,"lon":5.387544,"is_reserved":false,"is_disabled":true,"rental_uris":{"android":"levelo://app?vid=a2eba22b-b0ee-4005-9bf3-576bb458d391","ios":"levelo://app?vid=a2eba22b-b0ee-4005-9bf3-576bb458d391"},"vehicle_type_id":"4","last_reported":1734700575,"current_range_meters":0,"station_id":"","pricing_plan_id":"cebpf4jnsgd1na2vs0mg"},{"bike_id":"a831f63f-54e4-483b-b7e3-c00e270282f2","system_id":"levelo_inurba_marseille","lat":43.29176,"lon":5.37139,"is_reserved":false,"is_disabled":false,"rental_uris":{"android":"levelo://app?vid=a831f63f-54e4-483b-b7e3-c00e270282f2","ios":"levelo://app?vid=a831f63f-54e4-483b-b7e3-c00e270282f2"},"vehicle_type_id":"4","last_reported":1734700575,"current_range_meters":32800,"station_id":"ce4bha92rcd13ifvqeh0","pricing_plan_id":"cebpf4jnsgd1na2vs0mg"},{"bike_id":"fcf6f42c-9492-49dd-a9e6-322a50636e12","system_id":"levelo_inurba_marseille","lat":43.31775,"lon":5.37705,"is_reserved":false,"is_disabled":false,"rental_uris":{"android":"levelo://app?vid=fcf6f42c-9492-49dd-a9e6-322a50636e12","ios":"levelo://app?vid=fcf6f42c-9492-49dd-a9e6-322a50636e12"},"vehicle_type_id":"4","last_reported":1734700575,"current_range_meters":10800,"station_id":"","pricing_plan_id":"cebpf4jnsgd1na2vs0mg"},{"bike_id":"cdb0ffa1-9f73-4375-8092-52b0b875c1e2","system_id":"levelo_inurba_marseille","lat":43.29899,"lon":5.38137,"is_reserved":false,"is_disabled":false,"rental_uris":{"android":"levelo://app?vid=cdb0ffa1-9f73-4375-8092-52b0b875c1e2","ios":"levelo://app?vid=cdb0ffa1-9f73-4375-8092-52b0b875c1e2"},