{"last_updated":1690758372,"ttl":30,"version":"2.2","data":{"bikes":[{"bike_id":"e526d4e2-849c-44ae-a0d7-5572a62df909","system_id":"levelo_inurba_marseille","lat":43.31219,"lon":5.36865,"is_reserved":false,"is_disabled":false,"rental_uris":{"android":"levelo://app?vid=e526d4e2-849c-44ae-a0d7-5572a62df909","ios":"levelo://app?vid=e526d4e2-849c-44ae-a0d7-5572a62df909"},"vehicle_type_id":"4","last_reported":1690758372,"current_range_meters":21600,"station_id":"ce4bgl92rcd13ifvqbq0","pricing_plan_id":"free"},{"bike_id":"fbfa9279-1581-4aed-9eb3-9c9beee28725","system_id":"levelo_inurba_marseille","lat":43.314811,"lon":5.373103,"is_reserved":false,"is_disabled":false,"rental_uris":{"android":"levelo://app?vid=fbfa9279-1581-4aed-9eb3-9c9beee28725","ios":"levelo://app?vid=fbfa9279-1581-4aed-9eb3-9c9beee28725"},"vehicle_type_id":"4","last_reported":1690758372,"current_range_meters":29200,"station_id":"ce4bgt12rcd13ifvqcd0","pricing_plan_id":"free"},{"bike_id":"b7e6ee9a-edf7-42a6-8f68-e3a835fc96ac","system_id":"levelo_inurba_marseille","lat":43.305368,"lon":5.367343,"is_reserved":false,"is_disabled":false,"rental_uris":{"android":"levelo://app?vid=b7e6ee9a-edf7-42a6-8f68-e3a835fc96ac","ios":"levelo://app?vid=b7e6ee9a-edf7-42a6-8f68-e3a835fc96ac"},"vehicle_type_id":"4","last_reported":1690758372,"current_range_meters":16800,"station_id":"ce4bgrp2rcd13ifvqc9g","pricing_plan_id":"free"},{"bike_id":"432fb11c-a079-4cc7-ba24-3b149e859428","system_id":"levelo_inurba_marseille","lat":43.305989,"lon":5.37225,"is_reserved":false,"is_disabled":false,"rental_uris":{"android":"levelo://app?vid=432fb11c-a079-4cc7-ba24-3b149e859428","ios":"levelo://app?vid=432fb11c-a079-4cc7-ba24-3b149e859428"},"vehicle_type_id":"4","last_reported":1690758372,"current_range_meters":24800,"station_id":"ce4bgqh2rcd13ifvqc4g","pricing_plan_id":"free"},{"bike_id":"a12840c2-3ecf-475b-84a2-72e21fbe28ec","system_id":"levelo_inurba_marseille","lat":43.305989,"lon":5.37225,"is_reserved":false,"is_disabled":false,"rental_uris":{"android":"levelo://app?vid=a12840c2-3ecf-475b-84a2-72e21fbe28ec","ios":"levelo://app?vid=a12840c2-3ecf-475b-84a2-72e21fbe28ec"},"vehicle_type_id":"4","last_reported":1690758372,"current_range_meters":6800,"station_id":"ce4bgqh2rcd13ifvqc4g","pricing_plan_id":"free"},{"bike_id":"f20ea888-8740-440b-bfeb-8eb2a7c1f652","system_id":"levelo_inurba_marseille","lat":43.305989,"lon":5.37225,"is_reserved":false,"is_disabled":false,"rental_uris":{"android":"levelo://app?vid=f20ea888-8740-440b-bfeb-8eb2a7c1f652","ios":"levelo://app?vid=f20ea888-8740-440b-bfeb-8eb2a7c1f652"},"vehicle_type_id":"4","last_reported":1690758372,"current_range_meters":23200,"station_id":"ce4bgqh2rcd13ifvqc4g","pricing_plan_id":"free"},{"bike_id":"b5533d00-034d-4425-b7c9-9877112bb678","system_id":"levelo_inurba_marseille","lat":43.305989,"lon":5.37225,"is_reserved":false,"is_disabled":false,"rental_uris":{"android":"levelo://app?vid=b5533d00-034d-4425-b7c9-9877112bb678","ios":"levelo://app?vid=b5533d00-034d-4425-b7c9-9877112bb678"},"vehicle_type_id":"4","last_reported":1690758372,"current_range_meters":1200,"station_id":"ce4bgqh2rcd13ifvqc4g","pricing_plan_id":"free"},{"bike_id":"80aa5abc-83cc-46d1-bf92-21a059b4f7de","system_id":"levelo_inurba_marseille","lat":43.311125,"lon":5.377624,"is_reserved":false,"is_disabled":false,"rental_uris":{"android":"levelo://app?vid=80aa5abc-83cc-46d1-bf92-21a059b4f7de","ios":"levelo://app?vid=80aa5abc-83cc-46d1-bf92-21a059b4f7de"},"vehicle_type_id":"4","last_reported":1690758372,"current_range_meters":20400,"station_id":"ce4bgt92rcd13ifvqcg0","pricing_plan_id":"free"},{"bike_id":"b8a4bc0c-0d2c-4601-beb3-b4439aeb3f3a","system_id":"levelo_inurba_marseille","lat":43.311125,"lon":5.377624,"is_reserved":false,"is_disabled":false,"rental_uris":{"android":"levelo://app?vid=b8a4bc0c-0d2c-4601-beb3-b4439aeb3f3a","ios":"levelo://app?vid=b8a4bc0c-0d2c-4601-beb3-b4439aeb3f3a"},"vehicle_type_id":"4","last_reported":1690758372,"current_range_meters":31200,"station_id":"ce4bgt92rcd13ifvqcg0","pricing_plan_id":"free"},{"bike_id":"37abc771-f294-4699-9aa8-b42275b80648","system_id":"levelo_inurba_marseille","lat":43.311125,"lon":5.377624,"is_reserved":false,"is_disabled":false,"rental_uris":{"android":"levelo://app?vid=37abc771-f294-4699-9aa8-b42275b80648","ios":"levelo://app?vid=37abc771-f294-4699-9aa8-b42275b80648"},"vehicle_type_id":"4","last_reported":1690758372,"current_range_meters":7200,"station_id":"ce4bgt92rcd13ifvqcg0","pricing_plan_id":"free"},{"bike_id":"6924d9c9-fbe5-448f-a9dd-ca9a079756ee","system_id":"levelo_inurba_marseille","lat":43.311125,"lon":5.377624,"is_reserved":false,"is_disabled":false,"rental_uris":{"android":"levelo://app?vid=6924d9c9-fbe5-448f-a9dd-ca9a079756ee","ios":"levelo://app?vid=6924d9c9-fbe5-448f-a9dd-ca9a079756ee"},"vehicle_type_id":"4","last_reported":1690758372,"current_range_meters":13200,"station_id":"ce4bgt92rcd13ifvqcg0","pricing_plan_id":"free"},{"bike_id":"898750d6-391f-48cf-aca6-0f022ef16bec","system_id":"levelo_inurba_marseille","lat":43.311131,"lon":5.377651,"is_reserved":false,"is_disabled":false,"rental_uris":{"android":"levelo://app?vid=898750d6-391f-48cf-aca6-0f022ef16bec","ios":"levelo://app?vid=898750d6-391f-48cf-aca6-0f022ef16bec"},"vehicle_type_id":"4","last_reported":1690758372,"current_range_meters":12000,"station_id":"ce4bgt92rcd13ifvqcg0","pricing_plan_id":"free"},{"bike_id":"c4a28b91-d55d-4294-815d-feec2d04f018","system_id":"levelo_inurba_marseille","lat":43.311131,"lon":5.377651,"is_reserved":false,"is_disabled":false,"rental_uris":{"android":"levelo://app?vid=c4a28b91-d55d-4294-815d-feec2d04f018","ios":"levelo://app?vid=c4a28b91-d55d-4294-815d-feec2d04f018"},"vehicle_type_id":"4","last_reported":1690758372,"current_range_meters":25600,"station_id":"ce4bgt92rcd13ifvqcg0","pricing_plan_id":"free"},{"bike_id":"73ee6a20-5359-4cda-b737-42146f11a701","system_id":"levelo_inurba_marseille","lat":43.311125,"lon":5.377624,"is_reserved":false,"is_disabled":false,"rental_uris":{"android":"levelo://app?vid=73ee6a20-5359-4cda-b737-42146f11a701","ios":"levelo://app?vid=73ee6a20-5359-4cda-b737-42146f11a701"},"vehicle_type_id":"4","last_reported":1690758372,"current_range_meters":30800,"station_id":"ce4bgt92rcd13ifvqcg0","pricing_plan_id":"free"},{"bike_id":"24e76233-c2dd-4d60-bf7b-07765ddba55e","system_id":"levelo_inurba_marseille","lat":43.307945,"lon":5.376487,"is_reserved":false,"is_disabled":false,"rental_uris":{"android":"levelo://app?vid=24e76233-c2dd-4d60-bf7b-07765ddba55e","ios":"levelo://app?vid=24e76233-c2dd-4d60-bf7b-07765ddba55e"},"vehicle_type_id":"4","last_reported":1690758372,"current_range_meters":30800,"station_id":"ce4bgv92rcd13ifvqcq0","pricing_plan_id":"free"},{"bike_id":"5d093696-a0ac-4195-941c-d592dcd38df4","system_id":"levelo_inurba_marseille","lat":43.31684,"lon":5.37741,"is_reserved":false,"is_disabled":false,"rental_uris":{"android":"levelo://app?vid=5d093696-a0ac-4195-941c-d592dcd38df4","ios":"levelo://app?vid=5d093696-a0ac-4195-941c-d592dcd38df4"},"vehicle_type_id":"4","last_reported":1690758372,"current_range_meters":12400,"station_id":"ce4bgth2rcd13ifvqch0","pricing_plan_id":"free"},{"bike_id":"6b1737f3-fc1a-4d2c-8537-684ff1b601f6","system_id":"levelo_inurba_marseille","lat":43.31701,"lon":5.37742,"is_reserved":false,"is_disabled":false,"rental_uris":{"android":"levelo://app?vid=6b1737f3-fc1a-4d2c-8537-684ff1b601f6","ios":"levelo://app?vid=6b1737f3-fc1a-4d2c-8537-684ff1b601f6"},"vehicle_type_id":"4","last_reported":1690758372,"current_range_meters":7200,"station_id":"ce4bgth2rcd13ifvqch0","pricing_plan_id":"free"},{"bike_id":"853e7613-8302-4aca-a554-492cf60aa406","system_id":"levelo_inurba_marseille","lat":43.317075,"lon":5.377367,"is_reserved":false,"is_disabled":false,"rental_uris":{"android":"levelo://app?vid=853e7613-8302-4aca-a554-492cf60aa406","ios":"levelo://app?vid=853e7613-8302-4aca-a554-492cf60aa406"},"vehicle_type_id":"4","last_reported":1690758372,"current_range_meters":30400,"station_id":"ce4bgth2rcd13ifvqch0","pricing_plan_id":"free"},{"bike_id":"3e544239-39fa-47d2-82ae-0553c6a4f3dd","system_id":"levelo_inurba_marseille","lat":43.30304,"lon":5.368987,"is_reserved":false,"is_disabled":false,"rental_uris":{"android":"levelo://app?vid=3e544239-39fa-47d2-82ae-0553c6a4f3dd","ios":"levelo://app?vid=3e544239-39fa-47d2-82ae-0553c6a4f3dd"},"vehicle_type_id":"4","last_reported":1690758372,"current_range_meters":13200,"station_id":"ce4bgqh2rcd13ifvqc5g","pricing_plan_id":"free"},{"bike_id":"9c1a6130-32ab-4254-82e7-e05de6b38888","system_id":"levelo_inurba_marseille","lat":43.315293,"lon":5.380349,"is_reserved":false,"is_disabled":false,"rental_uris":{"android":"levelo://app?vid=9c1a6130-32ab-4254-82e7-e05de6b38888","ios":"levelo://app?vid=9c1a6130-32ab-4254-82e7-e05de6b38888"},"vehicle_type_id":"4","last_reported":1690758372,"current_range_meters":23200,"station_id":"ce4bhsp2rcd13ifvqi50","pricing_plan_id":"free"},{"bike_id":"bad94f12-a815-4f4a-b152-7f4e6dfdc1dc","system_id":"levelo_inurba_marseille","lat":43.315306,"lon":5.380358,"is_reserved":false,"is_disabled":false,"rental_uris":{"android":"levelo://app?vid=bad94f12-a815-4f4a-b152-7f4e6dfdc1dc","ios":"levelo://app?vid=bad94f12-a815-4f4a-b152-7f4e6dfdc1dc"},"vehicle_type_id":"4","last_reported":1690758372,"current_range_meters":10800,"station_id":"ce4bhsp2rcd13ifvqi50","pricing_plan_id":"free"},{"bike_id":"f7a3c8af-87b6-47ef-a978-d6ec79153a73","system_id":"levelo_inurba_marseille","lat":43.31531,"lon":5.38038,"is_reserved":false,"is_disabled":false,"rental_uris":{"android":"levelo://app?vid=f7a3c8af-87b6-47ef-a978-d6ec79153a73","ios":"levelo://app?vid=f7a3c8af-87b6-47ef-a978-d6ec79153a73"},"vehicle_type_id":"4","last_reported":1690758372,"current_range_meters":4800,"station_id":"ce4bhsp2rcd13ifvqi50","pricing_plan_id":"free"},{"bike_id":"50684f68-5002-4c8e-ab0d-8075d447d04e","system_id":"levelo_inurba_marseille","lat":43.301939,"lon":5.366286,"is_reserved":false,"is_disabled":false,"rental_uris":{"android":"levelo://app?vid=50684f68-5002-4c8e-ab0d-8075d447d04e","ios":"levelo://app?vid=50684f68-5002-4c8e-ab0d-8075d447d04e"},"vehicle_type_id":"4","last_reported":1690758372,"current_range_meters":9200,"station_id":"ce4bgrh2rcd13ifvqc8g","pricing_plan_id":"free"},{"bike_id":"c4276f36-4d6d-4005-82a0-30f11cf29e1c","system_id":"levelo_inurba_marseille","lat":43.308027,"lon":5.381468,"is_reserved":false,"is_disabled":false,"rental_uris":{"android":"levelo://app?vid=c4276f36-4d6d-4005-82a0-30f11cf29e1c","ios":"levelo://app?vid=c4276f36-4d6d-4005-82a0-30f11cf29e1c"},"vehicle_type_id":"4","last_reported":1690758372,"current_range_meters":24400,"station_id":"","pricing_plan_id":"free"},{"bike_id":"aae37da7-f8a3-4566-bc08-ae27ef65e455","system_id":"levelo_inurba_marseille","lat":43.30144,"lon":5.37416,"is_reserved":false,"is_disabled":false,"rental_uris":{"android":"levelo://app?vid=aae37da7-f8a3-4566-bc08-ae27ef65e455","ios":"levelo://app?vid=aae37da7-f8a3-4566-bc08-ae27ef65e455"},"vehicle_type_id":"4","last_reported":1690758372,"current_range_meters":10400,"station_id":"ce4bgs92rcd13ifvqcc0","pricing_plan_id":"free"},{"bike_id":"ac61c6a9-61ab-4e1c-b572-4c2bfa031a23","system_id":"levelo_inurba_marseille","lat":43.30137,"lon":5.37418,"is_reserved":false,"is_disabled":false,"rental_uris":{"android":"levelo://app?vid=ac61c6a9-61ab-4e1c-b572-4c2bfa031a23","ios":"levelo://app?vid=ac61c6a9-61ab-4e1c-b572-4c2bfa031a23"},"vehicle_type_id":"4","last_reported":1690758372,"current_range_meters":800,"station_id":"ce4bgs92rcd13ifvqcc0","pricing_plan_id":"free"},{"bike_id":"941ee9cb-d06b-4cb4-9196-9357d0edd36a","system_id":"levelo_inurba_marseille","lat":43.319935,"lon":5.381699,"is_reserved":false,"is_disabled":false,"rental_uris":{"android":"levelo://app?vid=941ee9cb-d06b-4cb4-9196-9357d0edd36a","ios":"levelo://app?vid=941ee9cb-d06b-4cb4-9196-9357d0edd36a"},"vehicle_type_id":"4","last_reported":1690758372,"current_range_meters":6000,"station_id":"ce4bhr12rcd13ifvqhpg","pricing_plan_id":"free"},{"bike_id":"4f35c9e7-a8ce-4817-83d1-7dae8f34fee3","system_id":"levelo_inurba_marseille","lat":43.31994,"lon":5.38151,"is_reserved":false,"is_disabled":false,"rental_uris":{"android":"levelo://app?vid=4f35c9e7-a8ce-4817-83d1-7dae8f34fee3","ios":"levelo://app?vid=4f35c9e7-a8ce-4817-83d1-7dae8f34fee3"},"vehicle_type_id":"4","last_reported":1690758372,"current_range_meters":4000,"station_id":"ce4bhr12rcd13ifvqhpg","pricing_plan_id":"free"},{"bike_id":"e79a6720-2929-4790-abe9-3f1042e45293","system_id":"levelo_inurba_marseille","lat":43.319935,"lon":5.381699,"is_reserved":false,"is_disabled":false,"rental_uris":{"android":"levelo://app?vid=e79a6720-2929-4790-abe9-3f1042e45293","ios":"levelo://app?vid=e79a6720-2929-4790-abe9-3f1042e45293"},"vehicle_type_id":"4","last_reported":1690758372,"current_range_meters":23200,"station_id":"ce4bhr12rcd13ifvqhpg","pricing_plan_id":"free"},{"bike_id":"280e31a3-5b3a-4273-85fe-7bb230e05d6d","system_id":"levelo_inurba_marseille","lat":43.313571,"lon":5.384829,"is_reserved":false,"is_disabled":false,"rental_uris":{"android":"levelo://app?vid=280e31a3-5b3a-4273-85fe-7bb230e05d6d","ios":"levelo://app?vid=280e31a3-5b3a-4273-85fe-7bb230e05d6d"},"vehicle_type_id":"4","last_reported":1690758372,"current_range_meters":30400,"station_id":"ce4bgt92rcd13ifvqcf0","pricing_plan_id":"free"},{"bike_id":"78b45ef6-dde2-47f3-9e9f-ee25f42b2f0c","system_id":"levelo_inurba_marseille","lat":43.313571,"lon":5.384829,"is_reserved":false,"is_disabled":false,"rental_uris":{"android":"levelo://app?vid=78b45ef6-dde2-47f3-9e9f-ee25f42b2f0c","ios":"levelo://app?vid=78b45ef6-dde2-47f3-9e9f-ee25f42b2f0c"},"vehicle_type_id":"4","last_reported":1690758372,"current_range_meters":31600,"station_id":"ce4bgt92rcd13ifvqcf0","pricing_plan_id":"free"},{"bike_id":"3f63c2e2-90ce-4c91-815c-9befe0958c81","system_id":"levelo_inurba_marseille","lat":43.313571,"lon":5.384829,"is_reserved":false,"is_disabled":false,"rental_uris":{"android":"levelo://app?vid=3f63c2e2-90ce-4c91-815c-9befe0958c81","ios":"levelo://app?vid=3f63c2e2-90ce-4c91-815c-9befe0958c81"},"vehicle_type_id":"4","last_reported":1690758372,"current_range_meters":23200,"station_id":"ce4bgt92rcd13ifvqcf0","pricing_plan_id":"free"},{"bike_id":"37cd8de6-cf15-4a74-bd04-c743a2ff837e","system_id":"levelo_inurba_marseille","lat":43.313571,"lon":5.384829,"is_reserved":false,"is_disabled":false,"rental_uris":{"android":"levelo://app?vid=37cd8de6-cf15-4a74-bd04-c743a2ff837e","ios":"levelo://app?vid=37cd8de6-cf15-4a74-bd04-c743a2ff837e"},"vehicle_type_id":"4","last_reported":1690758372,"current_range_meters":30000,"station_id":"ce4bgt92rcd13ifvqcf0","pricing_plan_id":"free"},{"bike_id":"37989ff0-891c-4b94-8792-0f452b952828","system_id":"levelo_inurba_marseille","lat":43.313571,"lon":5.384829,"is_reserved":false,"is_disabled":false,"rental_uris":{"android":"levelo://app?vid=37989ff0-891c-4b94-8792-0f452b952828","ios":"levelo://app?vid=37989ff0-891c-4b94-8792-0f452b952828"},"vehicle_type_id":"4","last_reported":1690758372,"current_range_meters":12000,"station_id":"ce4bgt92rcd13ifvqcf0","pricing_plan_id":"free"},{"bike_id":"3e08a488-0a3f-41ef-9e34-5a469ec2b075","system_id":"levelo_inurba_marseille","lat":43.29981,"lon":5.37189,"is_reserved":false,"is_disabled":false,"rental_uris":{"android":"levelo://app?vid=3e08a488-0a3f-41ef-9e34-5a469ec2b075","ios":"levelo://app?vid=3e08a488-0a3f-41ef-9e34-5a469ec2b075"},"vehicle_type_id":"4","last_reported":1690758372,"current_range_meters":16000,"station_id":"ce4bgr92rcd13ifvqc7g","pricing_plan_id":"free"},{"bike_id":"8d8a50aa-2333-4d70-9e32-d267923a542f","system_id":"levelo_inurba_marseille","lat":43.299724,"lon":5.371829,"is_reserved":false,"is_disabled":false,"rental_uris":{"android":"levelo://app?vid=8d8a50aa-2333-4d70-9e32-d267923a542f","ios":"levelo://app?vid=8d8a50aa-2333-4d70-9e32-d267923a542f"},"vehicle_type_id":"4","last_reported":1690758372,"current_range_meters":7600,"station_id":"ce4bgr92rcd13ifvqc7g","pricing_plan_id":"free"},{"bike_id":"86588db7-ed32-47f5-929e-d575f6d3d9c9","system_id":"levelo_inurba_marseille","lat":43.3055,"lon":5.38418,"is_reserved":false,"is_disabled":false,"rental_uris":{"android":"levelo://app?vid=86588db7-ed32-47f5-929e-d575f6d3d9c9","ios":"levelo://app?vid=86588db7-ed32-47f5-929e-d575f6d3d9c9"},"vehicle_type_id":"4","last_reported":1690758372,"current_range_meters":22400,"station_id":"ce4bgg92rcd13ifvqb30","pricing_plan_id":"free"},{"bike_id":"1abb0902-4293-473d-ba36-f34857a81bd3","system_id":"levelo_inurba_marseille","lat":43.30531,"lon":5.38404,"is_reserved":false,"is_disabled":false,"rental_uris":{"android":"levelo://app?vid=1abb0902-4293-473d-ba36-f34857a81bd3","ios":"levelo://app?vid=1abb0902-4293-473d-ba36-f34857a81bd3"},"vehicle_type_id":"4","last_reported":1690758372,"current_range_meters":13600,"station_id":"ce4bgg92rcd13ifvqb30","pricing_plan_id":"free"},{"bike_id":"0cf7bb88-7363-49d8-b8f5-a8505698963c","system_id":"levelo_inurba_marseille","lat":43.305364,"lon":5.384119,"is_reserved":false,"is_disabled":false,"rental_uris":{"android":"levelo://app?vid=0cf7bb88-7363-49d8-b8f5-a8505698963c","ios":"levelo://app?vid=0cf7bb88-7363-49d8-b8f5-a8505698963c"},"vehicle_type_id":"4","last_reported":1690758372,"current_range_meters":5600,"station_id":"ce4bgg92rcd13ifvqb30","pricing_plan_id":"free"},{"bike_id":"544c1732-1966-4e8b-bb2a-97a7c6350b9e","system_id":"levelo_inurba_marseille","lat":43.30545,"lon":5.38427,"is_reserved":false,"is_disabled":false,"rental_uris":{"android":"levelo://app?vid=544c1732-1966-4e8b-bb2a-97a7c6350b9e","ios":"levelo://app?vid=544c1732-1966-4e8b-bb2a-97a7c6350b9e"},"vehicle_type_id":"4","last_reported":1690758372,"current_range_meters":22800,"station_id":"ce4bgg92rcd13ifvqb30","pricing_plan_id":"free"},{"bike_id":"945e632a-1ba9-4576-b158-e425d9b42e4b","system_id":"levelo_inurba_marseille","lat":43.30541,"lon":5.38426,"is_reserved":false,"is_disabled":false,"rental_uris":{"android":"levelo://app?vid=945e632a-1ba9-4576-b158-e425d9b42e4b","ios":"levelo://app?vid=945e632a-1ba9-4576-b158-e425d9b42e4b"},"vehicle_type_id":"4","last_reported":1690758372,"current_range_meters":4000,"station_id":"ce4bgg92rcd13ifvqb30","pricing_plan_id":"free"},{"bike_id":"30537d43-af02-4a10-b928-7b9b8cf633d2","system_id":"levelo_inurba_marseille","lat":43.305364,"lon":5.384119,"is_reserved":false,"is_disabled":false,"rental_uris":{"android":"levelo://app?vid=30537d43-af02-4a10-b928-7b9b8cf633d2","ios":"levelo://app?vid=30537d43-af02-4a10-b928-7b9b8cf633d2"},"vehicle_type_id":"4","last_reported":1690758372,"current_range_meters":29200,"station_id":"ce4bgg92rcd13ifvqb30","pricing_plan_id":"free"},{"bike_id":"5a05bf15-36f3-4cee-a8ca-5f7a0edf4034","system_id":"levelo_inurba_marseille","lat":43.30541,"lon":5.38431,"is_reserved":false,"is_disabled":false,"rental_uris":{"android":"levelo://app?vid=5a05bf15-36f3-4cee-a8ca-5f7a0edf4034","ios":"levelo://app?vid=5a05bf15-36f3-4cee-a8ca-5f7a0edf4034"},"vehicle_type_id":"4","last_reported":1690758372,"current_range_meters":7600,"station_id":"ce4bgg92rcd13ifvqb30","pricing_plan_id":"free"},{"bike_id":"1a995332-ecfc-4c10-9cac-3de6038451e2","system_id":"levelo_inurba_marseille","lat":43.305364,"lon":5.384119,"is_reserved":false,"is_disabled":false,"rental_uris":{"android":"levelo://app?vid=1a995332-ecfc-4c10-9cac-3de6038451e2","ios":"levelo://app?vid=1a995332-ecfc-4c10-9cac-3de6038451e2"},"vehicle_type_id":"4","last_reported":1690758372,"current_range_meters":31200,"station_id":"ce4bgg92rcd13ifvqb30","pricing_plan_id":"free"},{"bike_id":"1ebb9c25-aaf6-4601-8a0d-45f0f5044534","system_id":"levelo_inurba_marseille","lat":43.30541,"lon":5.38443,"is_reserved":false,"is_disabled":false,"rental_uris":{"android":"levelo://app?vid=1ebb9c25-aaf6-4601-8a0d-45f0f5044534","ios":"levelo://app?vid=1ebb9c25-aaf6-4601-8a0d-45f0f5044534"},"vehicle_type_id":"4","last_reported":1690758372,"current_range_meters":28800,"station_id":"ce4bgg92rcd13ifvqb30","pricing_plan_id":"free"},{"bike_id":"b902fb9c-26b9-4a54-a781-e7d3746b8b14","system_id":"levelo_inurba_marseille","lat":43.311722,"lon":5.387247,"is_reserved":false,"is_disabled":false,"rental_uris":{"android":"levelo://app?vid=b902fb9c-26b9-4a54-a781-e7d3746b8b14","ios":"levelo://app?vid=b902fb9c-26b9-4a54-a781-e7d3746b8b14"},"vehicle_type_id":"4","last_reported":1690758372,"current_range_meters":13600,"station_id":"ce4bgv12rcd13ifvqcp0","pricing_plan_id":"free"},{"bike_id":"d490a686-216e-4c50-91d3-967358808bc6","system_id":"levelo_inurba_marseille","lat":43.311722,"lon":5.387247,"is_reserved":false,"is_disabled":false,"rental_uris":{"android":"levelo://app?vid=d490a686-216e-4c50-91d3-967358808bc6","ios":"levelo://app?vid=d490a686-216e-4c50-91d3-967358808bc6"},"vehicle_type_id":"4","last_reported":1690758372,"current_range_meters":12800,"station_id":"ce4bgv12rcd13ifvqcp0","pricing_plan_id":"free"},{"bike_id":"a1e9d596-9e60-4345-9f54-51b92223409b","system_id":"levelo_inurba_marseille","lat":43.311722,"lon":5.387247,"is_reserved":false,"is_disabled":false,"rental_uris":{"android":"levelo://app?vid=a1e9d596-9e60-4345-9f54-51b92223409b","ios":"levelo://app?vid=a1e9d596-9e60-4345-9f54-51b92223409b"},"vehicle_type_id":"4","last_reported":1690758372,"current_range_meters":27600,"station_id":"ce4bgv12rcd13ifvqcp0","pricing_plan_id":"free"},{"bike_id":"6d5f3fdc-d264-472a-8679-263f982d0162","system_id":"levelo_inurba_marseille","lat":43.311722,"lon":5.387247,"is_reserved":false,"is_disabled":false,"rental_uris":{"android":"levelo://app?vid=6d5f3fdc-d264-472a-8679-263f982d0162","ios":"levelo://app?vid=6d5f3fdc-d264-472a-8679-263f982d0162"},"vehicle_type_id":"4","last_reported":1690758372,"current_range_meters":28800,"station_id":"ce4bgv12rcd13ifvqcp0","pricing_plan_id":"free"},{"bike_id":"0697fda6-a027-4f08-a4b7-53bca15ff14f","system_id":"levelo_inurba_marseille","lat":43.311722,"lon":5.387247,"is_reserved":false,"is_disabled":false,"rental_uris":{"android":"levelo://app?vid=0697fda6-a027-4f08-a4b7-53bca15ff14f","ios":"levelo://app?vid=0697fda6-a027-4f08-a4b7-53bca15ff14f"},"vehicle_type_id":"4","last_reported":1690758372,"current_range_meters":31200,"station_id":"ce4bgv12rcd13ifvqcp0","pricing_plan_id":"free"},{"bike_id":"6eb46597-d4aa-45d1-9ec0-2ab09842f2bf","system_id":"levelo_inurba_marseille","lat":43.297774,"lon":5.370875,"is_reserved":false,"is_disabled":false,"rental_uris":{"android":"levelo://app?vid=6eb46597-d4aa-45d1-9ec0-2ab09842f2bf","ios":"levelo://app?vid=6eb46597-d4aa-45d1-9ec0-2ab09842f2bf"},"vehicle_type_id":"4","last_reported":1690758372,"current_range_meters":12400,"station_id":"ce4bgop2rcd13ifvqc1g","pricing_plan_id":"free"},{"bike_id":"8ef53289-0ac0-47af-a956-748be1577b5e","system_id":"levelo_inurba_marseille","lat":43.297794,"lon":5.370888,"is_reserved":false,"is_disabled":false,"rental_uris":{"android":"levelo://app?vid=8ef53289-0ac0-47af-a956-748be1577b5e","ios":"levelo://app?vid=8ef53289-0ac0-47af-a956-748be1577b5e"},"vehicle_type_id":"4","last_reported":1690758372,"current_range_meters":30400,"station_id":"ce4bgop2rcd13ifvqc1g","pricing_plan_id":"free"},{"bike_id":"82f1e03d-e4c3-4aac-b6f0-c9fc3950fe62","system_id":"levelo_inurba_marseille","lat":43.322919,"lon":5.382674,"is_reserved":false,"is_disabled":false,"rental_uris":{"android":"levelo://app?vid=82f1e03d-e4c3-4aac-b6f0-c9fc3950fe62","ios":"levelo://app?vid=82f1e03d-e4c3-4aac-b6f0-c9fc3950fe62"},"vehicle_type_id":"4","last_reported":1690758372,"current_range_meters":19200,"station_id":"","pricing_plan_id":"free"},{"bike_id":"a196dbb0-0ca2-44b0-8b03-b7d3a734d20c","system_id":"levelo_inurba_marseille","lat":43.322872,"lon":5.382756,"is_reserved":false,"is_disabled":false,"rental_uris":{"android":"levelo://app?vid=a196dbb0-0ca2-44b0-8b03-b7d3a734d20c","ios":"levelo://app?vid=a196dbb0-0ca2-44b0-8b03-b7d3a734d20c"},"vehicle_type_id":"4","last_reported":1690758372,"current_range_meters":22800,"station_id":"ce4bhr12rcd13ifvqhqg","pricing_plan_id":"free"},{"bike_id":"79bf6da4-5f08-488b-96b1-6e23f74ec5ec","system_id":"levelo_inurba_marseille","lat":43.322872,"lon":5.382756,"is_reserved":false,"is_disabled":false,"rental_uris":{"android":"levelo://app?vid=79bf6da4-5f08-488b-96b1-6e23f74ec5ec","ios":"levelo://app?vid=79bf6da4-5f08-488b-96b1-6e23f74ec5ec"},"vehicle_type_id":"4","last_reported":1690758372,"current_range_meters":30800,"station_id":"ce4bhr12rcd13ifvqhqg","pricing_plan_id":"free"},{"bike_id":"aff0017d-8d19-4b8c-8490-dfc322af04d7","system_id":"levelo_inurba_marseille","lat":43.32298,"lon":5.38277,"is_reserved":false,"is_disabled":false,"rental_uris":{"android":"levelo://app?vid=aff0017d-8d19-4b8c-8490-dfc322af04d7","ios":"levelo://app?vid=aff0017d-8d19-4b8c-8490-dfc322af04d7"},"vehicle_type_id":"4","last_reported":1690758372,"current_range_meters":30800,"station_id":"ce4bhr12rcd13ifvqhqg","pricing_plan_id":"free"},{"bike_id":"a87c3d89-8ecc-4c20-a387-7842b25267e1","system_id":"levelo_inurba_marseille","lat":43.32296,"lon":5.38284,"is_reserved":false,"is_disabled":false,"rental_uris":{"android":"levelo://app?vid=a87c3d89-8ecc-4c20-a387-7842b25267e1","ios":"levelo://app?vid=a87c3d89-8ecc-4c20-a387-7842b25267e1"},"vehicle_type_id":"4","last_reported":1690758372,"current_range_meters":27200,"station_id":"ce4bhr12rcd13ifvqhqg","pricing_plan_id":"free"},{"bike_id":"9f568c27-0fce-491f-b020-40b12f0f1259","system_id":"levelo_inurba_marseille","lat":43.328371,"lon":5.366909,"is_reserved":false,"is_disabled":false,"rental_uris":{"android":"levelo://app?vid=9f568c27-0fce-491f-b020-40b12f0f1259","ios":"levelo://app?vid=9f568c27-0fce-491f-b020-40b12f0f1259"},"vehicle_type_id":"4","last_reported":1690758372,"current_range_meters":22000,"station_id":"ce4bhs92rcd13ifvqi0g","pricing_plan_id":"free"},{"bike_id":"f63f851a-28d8-4285-b78e-d8e4c3ca7766","system_id":"levelo_inurba_marseille","lat":43.328371,"lon":5.366909,"is_reserved":false,"is_disabled":false,"rental_uris":{"android":"levelo://app?vid=f63f851a-28d8-4285-b78e-d8e4c3ca7766","ios":"levelo://app?vid=f63f851a-28d8-4285-b78e-d8e4c3ca7766"},"vehicle_type_id":"4","last_reported":1690758372,"current_range_meters":27200,"station_id":"ce4bhs92rcd13ifvqi0g","pricing_plan_id":"free"},{"bike_id":"7a3debfb-a4c2-4cbf-a70c-be28fe4f20ea","system_id":"levelo_inurba_marseille","lat":43.32829,"lon":5.36677,"is_reserved":false,"is_disabled":false,"rental_uris":{"android":"levelo://app?vid=7a3debfb-a4c2-4cbf-a70c-be28fe4f20ea","ios":"levelo://app?vid=7a3debfb-a4c2-4cbf-a70c-be28fe4f20ea"},"vehicle_type_id":"4","last_reported":1690758372,"current_range_meters":12800,"station_id":"ce4bhs92rcd13ifvqi0g","pricing_plan_id":"free"},{"bike_id":"dd789220-e7b5-42c1-b9dc-dc4243148021","system_id":"levelo_inurba_marseille","lat":43.297163,"lon":5.365866,"is_reserved":false,"is_disabled":false,"rental_uris":{"android":"levelo://app?vid=dd789220-e7b5-42c1-b9dc-dc4243148021","ios":"levelo://app?vid=dd789220-e7b5-42c1-b9dc-dc4243148021"},"vehicle_type_id":"4","last_reported":1690758372,"current_range_meters":31200,"station_id":"ce4bgn12rcd13ifvqbt0","pricing_plan_id":"free"},{"bike_id":"f0b1921d-8fc5-42f6-8214-26455e772ce5","system_id":"levelo_inurba_marseille","lat":43.30952,"lon":5.39055,"is_reserved":false,"is_disabled":false,"rental_uris":{"android":"levelo://app?vid=f0b1921d-8fc5-42f6-8214-26455e772ce5","ios":"levelo://app?vid=f0b1921d-8fc5-42f6-8214-26455e772ce5"},"vehicle_type_id":"4","last_reported":1690758372,"current_range_meters":27200,"station_id":"ce4bgup2rcd13ifvqco0","pricing_plan_id":"free"},{"bike_id":"cec16097-2f93-4fae-a576-dac723131263","system_id":"levelo_inurba_marseille","lat":43.317557,"lon":5.390173,"is_reserved":false,"is_disabled":false,"rental_uris":{"android":"levelo://app?vid=cec16097-2f93-4fae-a576-dac723131263","ios":"levelo://app?vid=cec16097-2f93-4fae-a576-dac723131263"},"vehicle_type_id":"4","last_reported":1690758372,"current_range_meters":12800,"station_id":"ce4bhqp2rcd13ifvqhng","pricing_plan_id":"free"},{"bike_id":"2a85fa0d-d1a4-4d47-a23b-74f56dcbb659","system_id":"levelo_inurba_marseille","lat":43.317557,"lon":5.390173,"is_reserved":false,"is_disabled":false,"rental_uris":{"android":"levelo://app?vid=2a85fa0d-d1a4-4d47-a23b-74f56dcbb659","ios":"levelo://app?vid=2a85fa0d-d1a4-4d47-a23b-74f56dcbb659"},"vehicle_type_id":"4","last_reported":1690758372,"current_range_meters":26400,"station_id":"ce4bhqp2rcd13ifvqhng","pricing_plan_id":"free"},{"bike_id":"e70a84d1-9f76-4cef-9458-59628982dbc8","system_id":"levelo_inurba_marseille","lat":43.29973,"lon":5.38491,"is_reserved":false,"is_disabled":false,"rental_uris":{"android":"levelo://app?vid=e70a84d1-9f76-4cef-9458-59628982dbc8","ios":"levelo://app?vid=e70a84d1-9f76-4cef-9458-59628982dbc8"},"vehicle_type_id":"4","last_reported":1690758372,"current_range_meters":14000,"station_id":"ce4bgj92rcd13ifvqbd0","pricing_plan_id":"free"},{"bike_id":"2ff30944-a229-4619-86f0-b3131d30e008","system_id":"levelo_inurba_marseille","lat":43.299717,"lon":5.384845,"is_reserved":false,"is_disabled":false,"rental_uris":{"android":"levelo://app?vid=2ff30944-a229-4619-86f0-b3131d30e008","ios":"levelo://app?vid=2ff30944-a229-4619-86f0-b3131d30e008"},"vehicle_type_id":"4","last_reported":1690758372,"current_range_meters":12800,"station_id":"ce4bgj92rcd13ifvqbd0","pricing_plan_id":"free"},{"bike_id":"b3aa4b7c-691e-4f9e-a608-d6f8e44bb4e4","system_id":"levelo_inurba_marseille","lat":43.299717,"lon":5.384845,"is_reserved":false,"is_disabled":false,"rental_uris":{"android":"levelo://app?vid=b3aa4b7c-691e-4f9e-a608-d6f8e44bb4e4","ios":"levelo://app?vid=b3aa4b7c-691e-4f9e-a608-d6f8e44bb4e4"},"vehicle_type_id":"4","last_reported":1690758372,"current_range_meters":21200,"station_id":"ce4bgj92rcd13ifvqbd0","pricing_plan_id":"free"},{"bike_id":"c372ec2b-dbfa-42f2-bca1-f0324122476d","system_id":"levelo_inurba_marseille","lat":43.32366,"lon":5.38873,"is_reserved":false,"is_disabled":false,"rental_uris":{"android":"levelo://app?vid=c372ec2b-dbfa-42f2-bca1-f0324122476d","ios":"levelo://app?vid=c372ec2b-dbfa-42f2-bca1-f0324122476d"},"vehicle_type_id":"4","last_reported":1690758372,"current_range_meters":16800,"station_id":"ce4bhqp2rcd13ifvqhog","pricing_plan_id":"free"},{"bike_id":"eeb263b1-85bf-45c1-9ae9-d4f39665097c","system_id":"levelo_inurba_marseille","lat":43.32366,"lon":5.38882,"is_reserved":false,"is_disabled":false,"rental_uris":{"android":"levelo://app?vid=eeb263b1-85bf-45c1-9ae9-d4f39665097c","ios":"levelo://app?vid=eeb263b1-85bf-45c1-9ae9-d4f39665097c"},"vehicle_type_id":"4","last_reported":1690758372,"current_range_meters":20400,"station_id":"ce4bhqp2rcd13ifvqhog","pricing_plan_id":"free"},{"bike_id":"990182e3-9fe4-4888-a376-5753d00fce0f","system_id":"levelo_inurba_marseille","lat":43.29573,"lon":5.367355,"is_reserved":false,"is_disabled":false,"rental_uris":{"android":"levelo://app?vid=990182e3-9fe4-4888-a376-5753d00fce0f","ios":"levelo://app?vid=990182e3-9fe4-4888-a376-5753d00fce0f"},"vehicle_type_id":"4","last_reported":1690758372,"current_range_meters":28800,"station_id":"ce4bgph2rcd13ifvqc2g","pricing_plan_id":"free"},{"bike_id":"e99ba87b-8704-4f3b-b102-418cb96ea4a6","system_id":"levelo_inurba_marseille","lat":43.305994,"lon":5.393687,"is_reserved":false,"is_disabled":false,"rental_uris":{"android":"levelo://app?vid=e99ba87b-8704-4f3b-b102-418cb96ea4a6","ios":"levelo://app?vid=e99ba87b-8704-4f3b-b102-418cb96ea4a6"},"vehicle_type_id":"4","last_reported":1690758372,"current_range_meters":16000,"station_id":"ce4bh0p2rcd13ifvqd80","pricing_plan_id":"free"},{"bike_id":"b4651225-10b8-4ca7-af28-73876b110786","system_id":"levelo_inurba_marseille","lat":43.300852,"lon":5.390859,"is_reserved":false,"is_disabled":false,"rental_uris":{"android":"levelo://app?vid=b4651225-10b8-4ca7-af28-73876b110786","ios":"levelo://app?vid=b4651225-10b8-4ca7-af28-73876b110786"},"vehicle_type_id":"4","last_reported":1690758372,"current_range_meters":31200,"station_id":"ce4bh192rcd13ifvqdb0","pricing_plan_id":"free"},{"bike_id":"99ac539c-2f2f-4f8c-8241-70b9dd11d070","system_id":"levelo_inurba_marseille","lat":43.300852,"lon":5.390859,"is_reserved":false,"is_disabled":false,"rental_uris":{"android":"levelo://app?vid=99ac539c-2f2f-4f8c-8241-70b9dd11d070","ios":"levelo://app?vid=99ac539c-2f2f-4f8c-8241-70b9dd11d070"},"vehicle_type_id":"4","last_reported":1690758372,"current_range_meters":30400,"station_id":"ce4bh192rcd13ifvqdb0","pricing_plan_id":"free"},{"bike_id":"f51df660-b83b-408c-becb-5278e3899b63","system_id":"levelo_inurba_marseille","lat":43.300852,"lon":5.390859,"is_reserved":false,"is_disabled":false,"rental_uris":{"android":"levelo://app?vid=f51df660-b83b-408c-becb-5278e3899b63","ios":"levelo://app?vid=f51df660-b83b-408c-becb-5278e3899b63"},"vehicle_type_id":"4","last_reported":1690758372,"current_range_meters":1600,"station_id":"ce4bh192rcd13ifvqdb0","pricing_plan_id":"free"},{"bike_id":"d04f22c6-8eba-4ff6-80b8-7348ae4dcaf0","system_id":"levelo_inurba_marseille","lat":43.29871,"lon":5.38899,"is_reserved":false,"is_disabled":false,"rental_uris":{"android":"levelo://app?vid=d04f22c6-8eba-4ff6-80b8-7348ae4dcaf0","ios":"levelo://app?vid=d04f22c6-8eba-4ff6-80b8-7348ae4dcaf0"},"vehicle_type_id":"4","last_reported":1690758372,"current_range_meters":30000,"station_id":"","pricing_plan_id":"free"},{"bike_id":"2161bfe4-4ca5-4403-923f-0c06a1b352ea","system_id":"levelo_inurba_marseille","lat":43.309371,"lon":5.401449,"is_reserved":false,"is_disabled":false,"rental_uris":{"android":"levelo://app?vid=2161bfe4-4ca5-4403-923f-0c06a1b352ea","ios":"levelo://app?vid=2161bfe4-4ca5-4403-923f-0c06a1b352ea"},"vehicle_type_id":"4","last_reported":1690758372,"current_range_meters":11200,"station_id":"ce4bgvp2rcd13ifvqct0","pricing_plan_id":"free"},{"bike_id":"cdd4abad-d01a-472d-a1db-dc818205da5b","system_id":"levelo_inurba_marseille","lat":43.292,"lon":5.358,"is_reserved":false,"is_disabled":false,"rental_uris":{"android":"levelo://app?vid=cdd4abad-d01a-472d-a1db-dc818205da5b","ios":"levelo://app?vid=cdd4abad-d01a-472d-a1db-dc818205da5b"},"vehicle_type_id":"4","last_reported":1690758372,"current_range_meters":6000,"station_id":"ce4bhb12rcd13ifvqel0","pricing_plan_id":"free"},{"bike_id":"09312b58-c2f7-42fe-a016-d729dcb02b55","system_id":"levelo_inurba_marseille","lat":43.30884,"lon":5.39638,"is_reserved":false,"is_disabled":false,"rental_uris":{"android":"levelo://app?vid=09312b58-c2f7-42fe-a016-d729dcb02b55","ios":"levelo://app?vid=09312b58-c2f7-42fe-a016-d729dcb02b55"},"vehicle_type_id":"4","last_reported":1690758372,"current_range_meters":1600,"station_id":"ce4bh012rcd13ifvqcv0","pricing_plan_id":"free"},{"bike_id":"6bc82a0c-ac67-48a6-94cc-676ad336ceb6","system_id":"levelo_inurba_marseille","lat":43.309038,"lon":5.396546,"is_reserved":false,"is_disabled":false,"rental_uris":{"android":"levelo://app?vid=6bc82a0c-ac67-48a6-94cc-676ad336ceb6","ios":"levelo://app?vid=6bc82a0c-ac67-48a6-94cc-676ad336ceb6"},"vehicle_type_id":"4","last_reported":1690758372,"current_range_meters":22800,"station_id":"ce4bh012rcd13ifvqcv0","pricing_plan_id":"free"},{"bike_id":"e973cebb-c373-48a0-8a34-1a211e1e6650","system_id":"levelo_inurba_marseille","lat":43.309038,"lon":5.396546,"is_reserved":false,"is_disabled":false,"rental_uris":{"android":"levelo://app?vid=e973cebb-c373-48a0-8a34-1a211e1e6650","ios":"levelo://app?vid=e973cebb-c373-48a0-8a34-1a211e1e6650"},"vehicle_type_id":"4","last_reported":1690758372,"current_range_meters":23200,"station_id":"ce4bh012rcd13ifvqcv0","pricing_plan_id":"free"},{"bike_id":"927da5f4-06f5-4dcd-a63b-2acdbac78dad","system_id":"levelo_inurba_marseille","lat":43.30894,"lon":5.39647,"is_reserved":false,"is_disabled":false,"rental_uris":{"android":"levelo://app?vid=927da5f4-06f5-4dcd-a63b-2acdbac78dad","ios":"levelo://app?vid=927da5f4-06f5-4dcd-a63b-2acdbac78dad"},"vehicle_type_id":"4","last_reported":1690758372,"current_range_meters":14800,"station_id":"ce4bh012rcd13ifvqcv0","pricing_plan_id":"free"},{"bike_id":"731fd6f7-d77b-4e25-bf29-38de707a7a09","system_id":"levelo_inurba_marseille","lat":43.3088,"lon":5.39644,"is_reserved":false,"is_disabled":false,"rental_uris":{"android":"levelo://app?vid=731fd6f7-d77b-4e25-bf29-38de707a7a09","ios":"levelo://app?vid=731fd6f7-d77b-4e25-bf29-38de707a7a09"},"vehicle_type_id":"4","last_reported":1690758372,"current_range_meters":0,"station_id":"ce4bh012rcd13ifvqcv0","pricing_plan_id":"free"},{"bike_id":"5f5536bb-105d-4aaf-9e63-6089bccbd196","system_id":"levelo_inurba_marseille","lat":43.31333,"lon":5.39693,"is_reserved":false,"is_disabled":false,"rental_uris":{"android":"levelo://app?vid=5f5536bb-105d-4aaf-9e63-6089bccbd196","ios":"levelo://app?vid=5f5536bb-105d-4aaf-9e63-6089bccbd196"},"vehicle_type_id":"4","last_reported":1690758372,"current_range_meters":24000,"station_id":"ce4bgvp2rcd13ifvqcu0","pricing_plan_id":"free"},{"bike_id":"5ddea216-ff59-495a-b62b-8d33fefc59fa","system_id":"levelo_inurba_marseille","lat":43.30883,"lon":5.39647,"is_reserved":false,"is_disabled":false,"rental_uris":{"android":"levelo://app?vid=5ddea216-ff59-495a-b62b-8d33fefc59fa","ios":"levelo://app?vid=5ddea216-ff59-495a-b62b-8d33fefc59fa"},"vehicle_type_id":"4","last_reported":1690758372,"current_range_meters":6400,"station_id":"ce4bh012rcd13ifvqcv0","pricing_plan_id":"free"},{"bike_id":"f79330fe-9845-4c5e-a633-5f4ee6a211a8","system_id":"levelo_inurba_marseille","lat":43.30886,"lon":5.39654,"is_reserved":false,"is_disabled":false,"rental_uris":{"android":"levelo://app?vid=f79330fe-9845-4c5e-a633-5f4ee6a211a8","ios":"levelo://app?vid=f79330fe-9845-4c5e-a633-5f4ee6a211a8"},"vehicle_type_id":"4","last_reported":1690758372,"current_range_meters":21200,"station_id":"ce4bh012rcd13ifvqcv0","pricing_plan_id":"free"},{"bike_id":"a20c8507-39b5-479b-a9ae-fbfe4680c5fe","system_id":"levelo_inurba_marseille","lat":43.30879,"lon":5.39653,"is_reserved":false,"is_disabled":false,"rental_uris":{"android":"levelo://app?vid=a20c8507-39b5-479b-a9ae-fbfe4680c5fe","ios":"levelo://app?vid=a20c8507-39b5-479b-a9ae-fbfe4680c5fe"},"vehicle_type_id":"4","last_reported":1690758372,"current_range_meters":19600,"station_id":"ce4bh012rcd13ifvqcv0","pricing_plan_id":"free"},{"bike_id":"accd0b20-b85e-42ef-ba0c-caa3a6cdc5d4","system_id":"levelo_inurba_marseille","lat":43.3088,"lon":5.39654,"is_reserved":false,"is_disabled":false,"rental_uris":{"android":"levelo://app?vid=accd0b20-b85e-42ef-ba0c-caa3a6cdc5d4","ios":"levelo://app?vid=accd0b20-b85e-42ef-ba0c-caa3a6cdc5d4"},"vehicle_type_id":"4","last_reported":1690758372,"current_range_meters":10400,"station_id":"ce4bh012rcd13ifvqcv0","pricing_plan_id":"free"},{"bike_id":"8f5f129c-1ec5-4adb-b510-4de8f91f1273","system_id":"levelo_inurba_marseille","lat":43.3089,"lon":5.39658,"is_reserved":false,"is_disabled":false,"rental_uris":{"android":"levelo://app?vid=8f5f129c-1ec5-4adb-b510-4de8f91f1273","ios":"levelo://app?vid=8f5f129c-1ec5-4adb-b510-4de8f91f1273"},"vehicle_type_id":"4","last_reported":1690758372,"current_range_meters":0,"station_id":"ce4bh012rcd13ifvqcv0","pricing_plan_id":"free"},{"bike_id":"77fb560b-dd4d-4fb1-b47d-c1ede5346c71","system_id":"levelo_inurba_marseille","lat":43.313291,"lon":5.396838,"is_reserved":false,"is_disabled":false,"rental_uris":{"android":"levelo://app?vid=77fb560b-dd4d-4fb1-b47d-c1ede5346c71","ios":"levelo://app?vid=77fb560b-dd4d-4fb1-b47d-c1ede5346c71"},"vehicle_type_id":"4","last_reported":1690758372,"current_range_meters":18400,"station_id":"ce4bgvp2rcd13ifvqcu0","pricing_plan_id":"free"},{"bike_id":"6cd4347e-9613-41ea-a766-6015a01ec82f","system_id":"levelo_inurba_marseille","lat":43.29529,"lon":5.385581,"is_reserved":false,"is_disabled":false,"rental_uris":{"android":"levelo://app?vid=6cd4347e-9613-41ea-a766-6015a01ec82f","ios":"levelo://app?vid=6cd4347e-9613-41ea-a766-6015a01ec82f"},"vehicle_type_id":"4","last_reported":1690758372,"current_range_meters":18000,"station_id":"ce4bgih2rcd13ifvqba0","pricing_plan_id":"free"},{"bike_id":"bf903d8d-b76e-4a62-bed7-2892c6e9730a","system_id":"levelo_inurba_marseille","lat":43.302008,"lon":5.394694,"is_reserved":false,"is_disabled":false,"rental_uris":{"android":"levelo://app?vid=bf903d8d-b76e-4a62-bed7-2892c6e9730a","ios":"levelo://app?vid=bf903d8d-b76e-4a62-bed7-2892c6e9730a"},"vehicle_type_id":"4","last_reported":1690758372,"current_range_meters":30800,"station_id":"ce4bh0p2rcd13ifvqd70","pricing_plan_id":"free"},{"bike_id":"14a5628d-c767-4772-8816-b5692c55dec8","system_id":"levelo_inurba_marseille","lat":43.302008,"lon":5.394694,"is_reserved":false,"is_disabled":false,"rental_uris":{"android":"levelo://app?vid=14a5628d-c767-4772-8816-b5692c55dec8","ios":"levelo://app?vid=14a5628d-c767-4772-8816-b5692c55dec8"},"vehicle_type_id":"4","last_reported":1690758372,"current_range_meters":0,"station_id":"ce4bh0p2rcd13ifvqd70","pricing_plan_id":"free"},{"bike_id":"85f978fa-f8a1-4708-8551-70766cfd7997","system_id":"levelo_inurba_marseille","lat":43.302008,"lon":5.394694,"is_reserved":false,"is_disabled":false,"rental_uris":{"android":"levelo://app?vid=85f978fa-f8a1-4708-8551-70766cfd7997","ios":"levelo://app?vid=85f978fa-f8a1-4708-8551-70766cfd7997"},"vehicle_type_id":"4","last_reported":1690758372,"current_range_meters":31200,"station_id":"ce4bh0p2rcd13ifvqd70","pricing_plan_id":"free"},{"bike_id":"bddf507d-3afa-43c2-8231-857ded983886","system_id":"levelo_inurba_marseille","lat":43.302008,"lon":5.394694,"is_reserved":false,"is_disabled":false,"rental_uris":{"android":"levelo://app?vid=bddf507d-3afa-43c2-8231-857ded983886","ios":"levelo://app?vid=bddf507d-3afa-43c2-8231-857ded983886"},"vehicle_type_id":"4","last_reported":1690758372,"current_range_meters":14000,"station_id":"ce4bh0p2rcd13ifvqd70","pricing_plan_id":"free"},{"bike_id":"821f10be-56d1-4f9a-b8fe-d2881ec56ab9","system_id":"levelo_inurba_marseille","lat":43.294162,"lon":5.386292,"is_reserved":false,"is_disabled":false,"rental_uris":{"android":"levelo://app?vid=821f10be-56d1-4f9a-b8fe-d2881ec56ab9","ios":"levelo://app?vid=821f10be-56d1-4f9a-b8fe-d2881ec56ab9"},"vehicle_type_id":"4","last_reported":1690758372,"current_range_meters":13600,"station_id":"ce4bh2h2rcd13ifvqdh0","pricing_plan_id":"free"},{"bike_id":"4347483b-782e-494e-8acf-6c7e97a65f8a","system_id":"levelo_inurba_marseille","lat":43.292642,"lon":5.384254,"is_reserved":false,"is_disabled":false,"rental_uris":{"android":"levelo://app?vid=4347483b-782e-494e-8acf-6c7e97a65f8a","ios":"levelo://app?vid=4347483b-782e-494e-8acf-6c7e97a65f8a"},"vehicle_type_id":"4","last_reported":1690758372,"current_range_meters":4000,"station_id":"ce4bh692rcd13ifvqea0","pricing_plan_id":"free"},{"bike_id":"c0ed4763-641e-4873-ac65-964a80e61f2e","system_id":"levelo_inurba_marseille","lat":43.304296,"lon":5.397513,"is_reserved":false,"is_disabled":false,"rental_uris":{"android":"levelo://app?vid=c0ed4763-641e-4873-ac65-964a80e61f2e","ios":"levelo://app?vid=c0ed4763-641e-4873-ac65-964a80e61f2e"},"vehicle_type_id":"4","last_reported":1690758372,"current_range_meters":24400,"station_id":"ce4bh092rcd13ifvqd20","pricing_plan_id":"free"},{"bike_id":"7e4df477-4efe-4925-a9e5-5a40dd380caf","system_id":"levelo_inurba_marseille","lat":43.29009,"lon":5.35608,"is_reserved":false,"is_disabled":false,"rental_uris":{"android":"levelo://app?vid=7e4df477-4efe-4925-a9e5-5a40dd380caf","ios":"levelo://app?vid=7e4df477-4efe-4925-a9e5-5a40dd380caf"},"vehicle_type_id":"4","last_reported":1690758372,"current_range_meters":19200,"station_id":"ce4bhb92rcd13ifvqen0","pricing_plan_id":"free"},{"bike_id":"134ef223-0af9-48f2-bbd1-4d84dd8cb35c","system_id":"levelo_inurba_marseille","lat":43.290104,"lon":5.356111,"is_reserved":false,"is_disabled":false,"rental_uris":{"android":"levelo://app?vid=134ef223-0af9-48f2-bbd1-4d84dd8cb35c","ios":"levelo://app?vid=134ef223-0af9-48f2-bbd1-4d84dd8cb35c"},"vehicle_type_id":"4","last_reported":1690758372,"current_range_meters":31200,"station_id":"ce4bhb92rcd13ifvqen0","pricing_plan_id":"free"},{"bike_id":"05bf2cc0-c80b-4d3b-9303-5cea93148e89","system_id":"levelo_inurba_marseille","lat":43.290995,"lon":5.381361,"is_reserved":false,"is_disabled":false,"rental_uris":{"android":"levelo://app?vid=05bf2cc0-c80b-4d3b-9303-5cea93148e89","ios":"levelo://app?vid=05bf2cc0-c80b-4d3b-9303-5cea93148e89"},"vehicle_type_id":"4","last_reported":1690758372,"current_range_meters":31200,"station_id":"ce4bh512rcd13ifvqe2g","pricing_plan_id":"free"},{"bike_id":"10bfb3b6-a271-4ccd-878a-d009de18f840","system_id":"levelo_inurba_marseille","lat":43.297815,"lon":5.393548,"is_reserved":false,"is_disabled":false,"rental_uris":{"android":"levelo://app?vid=10bfb3b6-a271-4ccd-878a-d009de18f840","ios":"levelo://app?vid=10bfb3b6-a271-4ccd-878a-d009de18f840"},"vehicle_type_id":"4","last_reported":1690758372,"current_range_meters":16800,"station_id":"chh1huq6cuj3fo74tm60","pricing_plan_id":"free"},{"bike_id":"a942cf92-22cd-4df3-830b-0379ed8f4259","system_id":"levelo_inurba_marseille","lat":43.29796,"lon":5.39347,"is_reserved":false,"is_disabled":false,"rental_uris":{"android":"levelo://app?vid=a942cf92-22cd-4df3-830b-0379ed8f4259","ios":"levelo://app?vid=a942cf92-22cd-4df3-830b-0379ed8f4259"},"vehicle_type_id":"4","last_reported":1690758372,"current_range_meters":11200,"station_id":"chh1huq6cuj3fo74tm60","pricing_plan_id":"free"},{"bike_id":"cd0f291f-b660-4ae6-94a2-ebe763222cc0","system_id":"levelo_inurba_marseille","lat":43.29793,"lon":5.39352,"is_reserved":false,"is_disabled":false,"rental_uris":{"android":"levelo://app?vid=cd0f291f-b660-4ae6-94a2-ebe763222cc0","ios":"levelo://app?vid=cd0f291f-b660-4ae6-94a2-ebe763222cc0"},"vehicle_type_id":"4","last_reported":1690758372,"current_range_meters":30800,"station_id":"chh1huq6cuj3fo74tm60","pricing_plan_id":"free"},{"bike_id":"dfe40fb0-a31b-4849-a1a6-6cfa7729638b","system_id":"levelo_inurba_marseille","lat":43.29793,"lon":5.39353,"is_reserved":false,"is_disabled":false,"rental_uris":{"android":"levelo://app?vid=dfe40fb0-a31b-4849-a1a6-6cfa7729638b","ios":"levelo://app?vid=dfe40fb0-a31b-4849-a1a6-6cfa7729638b"},"vehicle_type_id":"4","last_reported":1690758372,"current_range_meters":31200,"station_id":"chh1huq6cuj3fo74tm60","pricing_plan_id":"free"},{"bike_id":"c3cc76aa-3935-4776-b8db-66051570bca2","system_id":"levelo_inurba_marseille","lat":43.295169,"lon":5.390426,"is_reserved":false,"is_disabled":false,"rental_uris":{"android":"levelo://app?vid=c3cc76aa-3935-4776-b8db-66051570bca2","ios":"levelo://app?vid=c3cc76aa-3935-4776-b8db-66051570bca2"},"vehicle_type_id":"4","last_reported":1690758372,"current_range_meters":11600,"station_id":"ce4bh3p2rcd13ifvqdp0","pricing_plan_id":"free"},{"bike_id":"67c99f1f-ee27-4571-9010-d5da113e8b81","system_id":"levelo_inurba_marseille","lat":43.295169,"lon":5.390426,"is_reserved":false,"is_disabled":false,"rental_uris":{"android":"levelo://app?vid=67c99f1f-ee27-4571-9010-d5da113e8b81","ios":"levelo://app?vid=67c99f1f-ee27-4571-9010-d5da113e8b81"},"vehicle_type_id":"4","last_reported":1690758372,"current_range_meters":30800,"station_id":"ce4bh3p2rcd13ifvqdp0","pricing_plan_id":"free"},{"bike_id":"3d01b93e-3206-4753-814e-fae352f65668","system_id":"levelo_inurba_marseille","lat":43.295169,"lon":5.390426,"is_reserved":false,"is_disabled":false,"rental_uris":{"android":"levelo://app?vid=3d01b93e-3206-4753-814e-fae352f65668","ios":"levelo://app?vid=3d01b93e-3206-4753-814e-fae352f65668"},"vehicle_type_id":"4","last_reported":1690758372,"current_range_meters":20800,"station_id":"ce4bh3p2rcd13ifvqdp0","pricing_plan_id":"free"},{"bike_id":"6d8b26a9-8341-4220-aab3-d7722cb8abee","system_id":"levelo_inurba_marseille","lat":43.295169,"lon":5.390426,"is_reserved":false,"is_disabled":false,"rental_uris":{"android":"levelo://app?vid=6d8b26a9-8341-4220-aab3-d7722cb8abee","ios":"levelo://app?vid=6d8b26a9-8341-4220-aab3-d7722cb8abee"},"vehicle_type_id":"4","last_reported":1690758372,"current_range_meters":31600,"station_id":"ce4bh3p2rcd13ifvqdp0","pricing_plan_id":"free"},{"bike_id":"93bef249-7fdc-408c-81e0-929ae7293663","system_id":"levelo_inurba_marseille","lat":43.31287,"lon":5.40172,"is_reserved":false,"is_disabled":false,"rental_uris":{"android":"levelo://app?vid=93bef249-7fdc-408c-81e0-929ae7293663","ios":"levelo://app?vid=93bef249-7fdc-408c-81e0-929ae7293663"},"vehicle_type_id":"4","last_reported":1690758372,"current_range_meters":2800,"station_id":"ce4bh092rcd13ifvqd30","pricing_plan_id":"free"},{"bike_id":"599f980f-78ee-48ec-a5b1-3810b92d1f40","system_id":"levelo_inurba_marseille","lat":43.30925,"lon":5.4014,"is_reserved":false,"is_disabled":false,"rental_uris":{"android":"levelo://app?vid=599f980f-78ee-48ec-a5b1-3810b92d1f40","ios":"levelo://app?vid=599f980f-78ee-48ec-a5b1-3810b92d1f40"},"vehicle_type_id":"4","last_reported":1690758372,"current_range_meters":11200,"station_id":"ce4bgvp2rcd13ifvqct0","pricing_plan_id":"free"},{"bike_id":"b0e2e419-23ff-4534-9928-8a4cc6dffb63","system_id":"levelo_inurba_marseille","lat":43.31274,"lon":5.40175,"is_reserved":false,"is_disabled":false,"rental_uris":{"android":"levelo://app?vid=b0e2e419-23ff-4534-9928-8a4cc6dffb63","ios":"levelo://app?vid=b0e2e419-23ff-4534-9928-8a4cc6dffb63"},"vehicle_type_id":"4","last_reported":1690758372,"current_range_meters":20400,"station_id":"ce4bh092rcd13ifvqd30","pricing_plan_id":"free"},{"bike_id":"f5fdb543-1080-4047-8fdb-19dd3e662cee","system_id":"levelo_inurba_marseille","lat":43.31274,"lon":5.40177,"is_reserved":false,"is_disabled":false,"rental_uris":{"android":"levelo://app?vid=f5fdb543-1080-4047-8fdb-19dd3e662cee","ios":"levelo://app?vid=f5fdb543-1080-4047-8fdb-19dd3e662cee"},"vehicle_type_id":"4","last_reported":1690758372,"current_range_meters":11200,"station_id":"ce4bh092rcd13ifvqd30","pricing_plan_id":"free"},{"bike_id":"35cbe4e1-ac2b-48ce-b460-98984a3e45ac","system_id":"levelo_inurba_marseille","lat":43.309371,"lon":5.401449,"is_reserved":false,"is_disabled":false,"rental_uris":{"android":"levelo://app?vid=35cbe4e1-ac2b-48ce-b460-98984a3e45ac","ios":"levelo://app?vid=35cbe4e1-ac2b-48ce-b460-98984a3e45ac"},"vehicle_type_id":"4","last_reported":1690758372,"current_range_meters":400,"station_id":"ce4bgvp2rcd13ifvqct0","pricing_plan_id":"free"},{"bike_id":"468e0a17-132c-4561-acfd-1c7a3d0e69b1","system_id":"levelo_inurba_marseille","lat":43.30641,"lon":5.40076,"is_reserved":false,"is_disabled":false,"rental_uris":{"android":"levelo://app?vid=468e0a17-132c-4561-acfd-1c7a3d0e69b1","ios":"levelo://app?vid=468e0a17-132c-4561-acfd-1c7a3d0e69b1"},"vehicle_type_id":"4","last_reported":1690758372,"current_range_meters":23600,"station_id":"ce4bh112rcd13ifvqda0","pricing_plan_id":"free"},{"bike_id":"d7e02011-2e3a-4f50-a5b3-833d1202db1c","system_id":"levelo_inurba_marseille","lat":43.30647,"lon":5.4008,"is_reserved":false,"is_disabled":false,"rental_uris":{"android":"levelo://app?vid=d7e02011-2e3a-4f50-a5b3-833d1202db1c","ios":"levelo://app?vid=d7e02011-2e3a-4f50-a5b3-833d1202db1c"},"vehicle_type_id":"4","last_reported":1690758372,"current_range_meters":10800,"station_id":"ce4bh112rcd13ifvqda0","pricing_plan_id":"free"},{"bike_id":"07090354-ae8f-42b9-9edf-b87f4b69c668","system_id":"levelo_inurba_marseille","lat":43.30647,"lon":5.40101,"is_reserved":false,"is_disabled":false,"rental_uris":{"android":"levelo://app?vid=07090354-ae8f-42b9-9edf-b87f4b69c668","ios":"levelo://app?vid=07090354-ae8f-42b9-9edf-b87f4b69c668"},"vehicle_type_id":"4","last_reported":1690758372,"current_range_meters":6000,"station_id":"ce4bh112rcd13ifvqda0","pricing_plan_id":"free"},{"bike_id":"f8207a46-1e22-47b9-b030-b72649cd396c","system_id":"levelo_inurba_marseille","lat":43.301117,"lon":5.398795,"is_reserved":false,"is_disabled":false,"rental_uris":{"android":"levelo://app?vid=f8207a46-1e22-47b9-b030-b72649cd396c","ios":"levelo://app?vid=f8207a46-1e22-47b9-b030-b72649cd396c"},"vehicle_type_id":"4","last_reported":1690758372,"current_range_meters":30800,"station_id":"ce4bh0h2rcd13ifvqd40","pricing_plan_id":"free"},{"bike_id":"82b5972f-4a1f-4f72-9242-59a4097754a0","system_id":"levelo_inurba_marseille","lat":43.301117,"lon":5.398795,"is_reserved":false,"is_disabled":false,"rental_uris":{"android":"levelo://app?vid=82b5972f-4a1f-4f72-9242-59a4097754a0","ios":"levelo://app?vid=82b5972f-4a1f-4f72-9242-59a4097754a0"},"vehicle_type_id":"4","last_reported":1690758372,"current_range_meters":5600,"station_id":"ce4bh0h2rcd13ifvqd40","pricing_plan_id":"free"},{"bike_id":"e962a6c7-8016-4861-932c-b2631fe8e9fe","system_id":"levelo_inurba_marseille","lat":43.301117,"lon":5.398795,"is_reserved":false,"is_disabled":false,"rental_uris":{"android":"levelo://app?vid=e962a6c7-8016-4861-932c-b2631fe8e9fe","ios":"levelo://app?vid=e962a6c7-8016-4861-932c-b2631fe8e9fe"},"vehicle_type_id":"4","last_reported":1690758372,"current_range_meters":14400,"station_id":"ce4bh0h2rcd13ifvqd40","pricing_plan_id":"free"},{"bike_id":"0326cea2-5261-443d-885f-3f2e20970415","system_id":"levelo_inurba_marseille","lat":43.30144,"lon":5.39863,"is_reserved":false,"is_disabled":false,"rental_uris":{"android":"levelo://app?vid=0326cea2-5261-443d-885f-3f2e20970415","ios":"levelo://app?vid=0326cea2-5261-443d-885f-3f2e20970415"},"vehicle_type_id":"4","last_reported":1690758372,"current_range_meters":30400,"station_id":"","pricing_plan_id":"free"},{"bike_id":"8d2af8b0-2e07-47ef-9e9b-989c8bf2e89c","system_id":"levelo_inurba_marseille","lat":43.298681,"lon":5.397225,"is_reserved":false,"is_disabled":false,"rental_uris":{"android":"levelo://app?vid=8d2af8b0-2e07-47ef-9e9b-989c8bf2e89c","ios":"levelo://app?vid=8d2af8b0-2e07-47ef-9e9b-989c8bf2e89c"},"vehicle_type_id":"4","last_reported":1690758372,"current_range_meters":12400,"station_id":"ce4bh0h2rcd13ifvqd50","pricing_plan_id":"free"},{"bike_id":"72b307da-6ba0-4964-9442-2c002f54da44","system_id":"levelo_inurba_marseille","lat":43.28708,"lon":5.37389,"is_reserved":false,"is_disabled":false,"rental_uris":{"android":"levelo://app?vid=72b307da-6ba0-4964-9442-2c002f54da44","ios":"levelo://app?vid=72b307da-6ba0-4964-9442-2c002f54da44"},"vehicle_type_id":"4","last_reported":1690758372,"current_range_meters":6000,"station_id":"ce4bh3p2rcd13ifvqdq0","pricing_plan_id":"free"},{"bike_id":"16a34cdf-b50d-4ec2-9504-b61a0329e38a","system_id":"levelo_inurba_marseille","lat":43.286591,"lon":5.363346,"is_reserved":false,"is_disabled":false,"rental_uris":{"android":"levelo://app?vid=16a34cdf-b50d-4ec2-9504-b61a0329e38a","ios":"levelo://app?vid=16a34cdf-b50d-4ec2-9504-b61a0329e38a"},"vehicle_type_id":"4","last_reported":1690758372,"current_range_meters":5200,"station_id":"ce4bhah2rcd13ifvqej0","pricing_plan_id":"free"},{"bike_id":"c219bd9e-8768-49fd-a600-b24e8ec4ca61","system_id":"levelo_inurba_marseille","lat":43.298681,"lon":5.397225,"is_reserved":false,"is_disabled":false,"rental_uris":{"android":"levelo://app?vid=c219bd9e-8768-49fd-a600-b24e8ec4ca61","ios":"levelo://app?vid=c219bd9e-8768-49fd-a600-b24e8ec4ca61"},"vehicle_type_id":"4","last_reported":1690758372,"current_range_meters":13600,"station_id":"ce4bh0h2rcd13ifvqd50","pricing_plan_id":"free"},{"bike_id":"75199276-b705-4ad7-b6a9-49aeaa84628a","system_id":"levelo_inurba_marseille","lat":43.286593,"lon":5.363346,"is_reserved":false,"is_disabled":false,"rental_uris":{"android":"levelo://app?vid=75199276-b705-4ad7-b6a9-49aeaa84628a","ios":"levelo://app?vid=75199276-b705-4ad7-b6a9-49aeaa84628a"},"vehicle_type_id":"4","last_reported":1690758372,"current_range_meters":31200,"station_id":"ce4bhah2rcd13ifvqej0","pricing_plan_id":"free"},{"bike_id":"eac770e5-cbe2-43c8-b38f-c823d4fc3755","system_id":"levelo_inurba_marseille","lat":43.298681,"lon":5.397225,"is_reserved":false,"is_disabled":false,"rental_uris":{"android":"levelo://app?vid=eac770e5-cbe2-43c8-b38f-c823d4fc3755","ios":"levelo://app?vid=eac770e5-cbe2-43c8-b38f-c823d4fc3755"},"vehicle_type_id":"4","last_reported":1690758372,"current_range_meters":27200,"station_id":"ce4bh0h2rcd13ifvqd50","pricing_plan_id":"free"},{"bike_id":"206c5077-4bdc-48d7-aad5-096b667f701f","system_id":"levelo_inurba_marseille","lat":43.298681,"lon":5.397225,"is_reserved":false,"is_disabled":false,"rental_uris":{"android":"levelo://app?vid=206c5077-4bdc-48d7-aad5-096b667f701f","ios":"levelo://app?vid=206c5077-4bdc-48d7-aad5-096b667f701f"},"vehicle_type_id":"4","last_reported":1690758372,"current_range_meters":9200,"station_id":"ce4bh0h2rcd13ifvqd50","pricing_plan_id":"free"},{"bike_id":"268ec8e7-ecf0-4b8a-b764-c16af2f69dd8","system_id":"levelo_inurba_marseille","lat":43.298681,"lon":5.397225,"is_reserved":false,"is_disabled":false,"rental_uris":{"android":"levelo://app?vid=268ec8e7-ecf0-4b8a-b764-c16af2f69dd8","ios":"levelo://app?vid=268ec8e7-ecf0-4b8a-b764-c16af2f69dd8"},"vehicle_type_id":"4","last_reported":1690758372,"current_range_meters":18000,"station_id":"ce4bh0h2rcd13ifvqd50","pricing_plan_id":"free"},{"bike_id":"200091db-5208-446c-a1bb-b0491c2a4fc6","system_id":"levelo_inurba_marseille","lat":43.286961,"lon":5.373785,"is_reserved":false,"is_disabled":false,"rental_uris":{"android":"levelo://app?vid=200091db-5208-446c-a1bb-b0491c2a4fc6","ios":"levelo://app?vid=200091db-5208-446c-a1bb-b0491c2a4fc6"},"vehicle_type_id":"4","last_reported":1690758372,"current_range_meters":5200,"station_id":"ce4bh3p2rcd13ifvqdq0","pricing_plan_id":"free"},{"bike_id":"920900cf-5f17-4170-bddb-cda4da678cb7","system_id":"levelo_inurba_marseille","lat":43.295196,"lon":5.39397,"is_reserved":false,"is_disabled":false,"rental_uris":{"android":"levelo://app?vid=920900cf-5f17-4170-bddb-cda4da678cb7","ios":"levelo://app?vid=920900cf-5f17-4170-bddb-cda4da678cb7"},"vehicle_type_id":"4","last_reported":1690758372,"current_range_meters":31200,"station_id":"ce4bh292rcd13ifvqdf0","pricing_plan_id":"free"},{"bike_id":"343ee8af-da3f-4570-a84e-5296dae9b05e","system_id":"levelo_inurba_marseille","lat":43.295196,"lon":5.39397,"is_reserved":false,"is_disabled":false,"rental_uris":{"android":"levelo://app?vid=343ee8af-da3f-4570-a84e-5296dae9b05e","ios":"levelo://app?vid=343ee8af-da3f-4570-a84e-5296dae9b05e"},"vehicle_type_id":"4","last_reported":1690758372,"current_range_meters":20800,"station_id":"ce4bh292rcd13ifvqdf0","pricing_plan_id":"free"},{"bike_id":"aa6f6b4f-eca4-48ae-bae6-2c2616996e6c","system_id":"levelo_inurba_marseille","lat":43.29514,"lon":5.39402,"is_reserved":false,"is_disabled":false,"rental_uris":{"android":"levelo://app?vid=aa6f6b4f-eca4-48ae-bae6-2c2616996e6c","ios":"levelo://app?vid=aa6f6b4f-eca4-48ae-bae6-2c2616996e6c"},"vehicle_type_id":"4","last_reported":1690758372,"current_range_meters":31200,"station_id":"ce4bh292rcd13ifvqdf0","pricing_plan_id":"free"},{"bike_id":"241000a6-9c71-4a08-8b44-1c6d3c8aa3cd","system_id":"levelo_inurba_marseille","lat":43.2952,"lon":5.39412,"is_reserved":false,"is_disabled":false,"rental_uris":{"android":"levelo://app?vid=241000a6-9c71-4a08-8b44-1c6d3c8aa3cd","ios":"levelo://app?vid=241000a6-9c71-4a08-8b44-1c6d3c8aa3cd"},"vehicle_type_id":"4","last_reported":1690758372,"current_range_meters":31200,"station_id":"ce4bh292rcd13ifvqdf0","pricing_plan_id":"free"},{"bike_id":"74d84c2b-d285-41ee-a905-581851073b93","system_id":"levelo_inurba_marseille","lat":43.295196,"lon":5.39397,"is_reserved":false,"is_disabled":false,"rental_uris":{"android":"levelo://app?vid=74d84c2b-d285-41ee-a905-581851073b93","ios":"levelo://app?vid=74d84c2b-d285-41ee-a905-581851073b93"},"vehicle_type_id":"4","last_reported":1690758372,"current_range_meters":32000,"station_id":"ce4bh292rcd13ifvqdf0","pricing_plan_id":"free"},{"bike_id":"49c1e979-86d3-49e8-9fee-19719a1d50d3","system_id":"levelo_inurba_marseille","lat":43.302759,"lon":5.400793,"is_reserved":false,"is_disabled":false,"rental_uris":{"android":"levelo://app?vid=49c1e979-86d3-49e8-9fee-19719a1d50d3","ios":"levelo://app?vid=49c1e979-86d3-49e8-9fee-19719a1d50d3"},"vehicle_type_id":"4","last_reported":1690758372,"current_range_meters":12400,"station_id":"ce4bgvh2rcd13ifvqcs0","pricing_plan_id":"free"},{"bike_id":"e12e4f58-2719-457c-ab34-142fc24c4ee0","system_id":"levelo_inurba_marseille","lat":43.290336,"lon":5.386425,"is_reserved":false,"is_disabled":false,"rental_uris":{"android":"levelo://app?vid=e12e4f58-2719-457c-ab34-142fc24c4ee0","ios":"levelo://app?vid=e12e4f58-2719-457c-ab34-142fc24c4ee0"},"vehicle_type_id":"4","last_reported":1690758372,"current_range_meters":400,"station_id":"ce4bh4p2rcd13ifvqe0g","pricing_plan_id":"free"},{"bike_id":"564f45e2-eac4-465a-adb8-edef612ec1c4","system_id":"levelo_inurba_marseille","lat":43.290336,"lon":5.386425,"is_reserved":false,"is_disabled":false,"rental_uris":{"android":"levelo://app?vid=564f45e2-eac4-465a-adb8-edef612ec1c4","ios":"levelo://app?vid=564f45e2-eac4-465a-adb8-edef612ec1c4"},"vehicle_type_id":"4","last_reported":1690758372,"current_range_meters":22000,"station_id":"ce4bh4p2rcd13ifvqe0g","pricing_plan_id":"free"},{"bike_id":"6611a67c-d1fa-43ef-a785-58995ecbb9b3","system_id":"levelo_inurba_marseille","lat":43.290336,"lon":5.386425,"is_reserved":false,"is_disabled":false,"rental_uris":{"android":"levelo://app?vid=6611a67c-d1fa-43ef-a785-58995ecbb9b3","ios":"levelo://app?vid=6611a67c-d1fa-43ef-a785-58995ecbb9b3"},"vehicle_type_id":"4","last_reported":1690758372,"current_range_meters":29600,"station_id":"ce4bh4p2rcd13ifvqe0g","pricing_plan_id":"free"},{"bike_id":"b414d81a-2b35-4343-bec1-6617283177f7","system_id":"levelo_inurba_marseille","lat":43.302759,"lon":5.400793,"is_reserved":false,"is_disabled":false,"rental_uris":{"android":"levelo://app?vid=b414d81a-2b35-4343-bec1-6617283177f7","ios":"levelo://app?vid=b414d81a-2b35-4343-bec1-6617283177f7"},"vehicle_type_id":"4","last_reported":1690758372,"current_range_meters":28400,"station_id":"ce4bgvh2rcd13ifvqcs0","pricing_plan_id":"free"},{"bike_id":"5ad27097-846d-487c-bd0d-0f2208b893fa","system_id":"levelo_inurba_marseille","lat":43.302759,"lon":5.400793,"is_reserved":false,"is_disabled":false,"rental_uris":{"android":"levelo://app?vid=5ad27097-846d-487c-bd0d-0f2208b893fa","ios":"levelo://app?vid=5ad27097-846d-487c-bd0d-0f2208b893fa"},"vehicle_type_id":"4","last_reported":1690758372,"current_range_meters":3200,"station_id":"ce4bgvh2rcd13ifvqcs0","pricing_plan_id":"free"},{"bike_id":"f74b73da-a93d-4fe4-a4e7-79aaf66dd831","system_id":"levelo_inurba_marseille","lat":43.290336,"lon":5.386425,"is_reserved":false,"is_disabled":false,"rental_uris":{"android":"levelo://app?vid=f74b73da-a93d-4fe4-a4e7-79aaf66dd831","ios":"levelo://app?vid=f74b73da-a93d-4fe4-a4e7-79aaf66dd831"},"vehicle_type_id":"4","last_reported":1690758372,"current_range_meters":6800,"station_id":"ce4bh4p2rcd13ifvqe0g","pricing_plan_id":"free"},{"bike_id":"758bf9d2-73a0-467d-971a-8655f4cfc877","system_id":"levelo_inurba_marseille","lat":43.302759,"lon":5.400793,"is_reserved":false,"is_disabled":false,"rental_uris":{"android":"levelo://app?vid=758bf9d2-73a0-467d-971a-8655f4cfc877","ios":"levelo://app?vid=758bf9d2-73a0-467d-971a-8655f4cfc877"},"vehicle_type_id":"4","last_reported":1690758372,"current_range_meters":32000,"station_id":"ce4bgvh2rcd13ifvqcs0","pricing_plan_id":"free"},{"bike_id":"70652407-0906-4c69-9bdf-dea75e89d77b","system_id":"levelo_inurba_marseille","lat":43.287184,"lon":5.37937,"is_reserved":false,"is_disabled":false,"rental_uris":{"android":"levelo://app?vid=70652407-0906-4c69-9bdf-dea75e89d77b","ios":"levelo://app?vid=70652407-0906-4c69-9bdf-dea75e89d77b"},"vehicle_type_id":"4","last_reported":1690758372,"current_range_meters":28000,"station_id":"ce4bh9p2rcd13ifvqec0","pricing_plan_id":"free"},{"bike_id":"3734f612-7fa1-4d44-aa1a-78551ea0511e","system_id":"levelo_inurba_marseille","lat":43.287184,"lon":5.37937,"is_reserved":false,"is_disabled":false,"rental_uris":{"android":"levelo://app?vid=3734f612-7fa1-4d44-aa1a-78551ea0511e","ios":"levelo://app?vid=3734f612-7fa1-4d44-aa1a-78551ea0511e"},"vehicle_type_id":"4","last_reported":1690758372,"current_range_meters":16800,"station_id":"ce4bh9p2rcd13ifvqec0","pricing_plan_id":"free"},{"bike_id":"e160b77f-ef74-4ae4-a06e-3c6f5e60a57b","system_id":"levelo_inurba_marseille","lat":43.287184,"lon":5.37937,"is_reserved":false,"is_disabled":false,"rental_uris":{"android":"levelo://app?vid=e160b77f-ef74-4ae4-a06e-3c6f5e60a57b","ios":"levelo://app?vid=e160b77f-ef74-4ae4-a06e-3c6f5e60a57b"},"vehicle_type_id":"4","last_reported":1690758372,"current_range_meters":22000,"station_id":"ce4bh9p2rcd13ifvqec0","pricing_plan_id":"free"},{"bike_id":"4502a9bd-8061-4914-a40e-df73648d9def","system_id":"levelo_inurba_marseille","lat":43.287185,"lon":5.379373,"is_reserved":false,"is_disabled":false,"rental_uris":{"android":"levelo://app?vid=4502a9bd-8061-4914-a40e-df73648d9def","ios":"levelo://app?vid=4502a9bd-8061-4914-a40e-df73648d9def"},"vehicle_type_id":"4","last_reported":1690758372,"current_range_meters":9600,"station_id":"ce4bh9p2rcd13ifvqec0","pricing_plan_id":"free"},{"bike_id":"e8cf2bb1-b9de-408f-acda-37a0a1afe543","system_id":"levelo_inurba_marseille","lat":43.287185,"lon":5.379373,"is_reserved":false,"is_disabled":false,"rental_uris":{"android":"levelo://app?vid=e8cf2bb1-b9de-408f-acda-37a0a1afe543","ios":"levelo://app?vid=e8cf2bb1-b9de-408f-acda-37a0a1afe543"},"vehicle_type_id":"4","last_reported":1690758372,"current_range_meters":8400,"station_id":"ce4bh9p2rcd13ifvqec0","pricing_plan_id":"free"},{"bike_id":"74db9097-bb72-40a1-a043-aa8849d1526d","system_id":"levelo_inurba_marseille","lat":43.287185,"lon":5.379373,"is_reserved":false,"is_disabled":false,"rental_uris":{"android":"levelo://app?vid=74db9097-bb72-40a1-a043-aa8849d1526d","ios":"levelo://app?vid=74db9097-bb72-40a1-a043-aa8849d1526d"},"vehicle_type_id":"4","last_reported":1690758372,"current_range_meters":14400,"station_id":"ce4bh9p2rcd13ifvqec0","pricing_plan_id":"free"},{"bike_id":"eca4b550-439b-46d3-8f5b-9c8d2e5c5c7e","system_id":"levelo_inurba_marseille","lat":43.287185,"lon":5.379373,"is_reserved":false,"is_disabled":false,"rental_uris":{"android":"levelo://app?vid=eca4b550-439b-46d3-8f5b-9c8d2e5c5c7e","ios":"levelo://app?vid=eca4b550-439b-46d3-8f5b-9c8d2e5c5c7e"},"vehicle_type_id":"4","last_reported":1690758372,"current_range_meters":31200,"station_id":"ce4bh9p2rcd13ifvqec0","pricing_plan_id":"free"},{"bike_id":"37ba8230-432d-490c-b80d-7c81b006f516","system_id":"levelo_inurba_marseille","lat":43.287184,"lon":5.37937,"is_reserved":false,"is_disabled":false,"rental_uris":{"android":"levelo://app?vid=37ba8230-432d-490c-b80d-7c81b006f516","ios":"levelo://app?vid=37ba8230-432d-490c-b80d-7c81b006f516"},"vehicle_type_id":"4","last_reported":1690758372,"current_range_meters":15600,"station_id":"ce4bh9p2rcd13ifvqec0","pricing_plan_id":"free"},{"bike_id":"fcc30dab-1e0c-482e-b26a-49546ad8766c","system_id":"levelo_inurba_marseille","lat":43.314811,"lon":5.373103,"is_reserved":false,"is_disabled":false,"rental_uris":{"android":"levelo://app?vid=fcc30dab-1e0c-482e-b26a-49546ad8766c","ios":"levelo://app?vid=fcc30dab-1e0c-482e-b26a-49546ad8766c"},"vehicle_type_id":"4","last_reported":1690758372,"current_range_meters":24800,"station_id":"ce4bgt12rcd13ifvqcd0","pricing_plan_id":"free"},{"bike_id":"d78ad56a-9f61-40d6-8f06-4d3a7295745b","system_id":"levelo_inurba_marseille","lat":43.31645,"lon":5.4044,"is_reserved":false,"is_disabled":false,"rental_uris":{"android":"levelo://app?vid=d78ad56a-9f61-40d6-8f06-4d3a7295745b","ios":"levelo://app?vid=d78ad56a-9f61-40d6-8f06-4d3a7295745b"},"vehicle_type_id":"4","last_reported":1690758372,"current_range_meters":5600,"station_id":"ce4bh012rcd13ifvqd00","pricing_plan_id":"free"},{"bike_id":"99c50597-4800-4e25-bd3e-243b23cee58b","system_id":"levelo_inurba_marseille","lat":43.29212,"lon":5.39327,"is_reserved":false,"is_disabled":false,"rental_uris":{"android":"levelo://app?vid=99c50597-4800-4e25-bd3e-243b23cee58b","ios":"levelo://app?vid=99c50597-4800-4e25-bd3e-243b23cee58b"},"vehicle_type_id":"4","last_reported":1690758372,"current_range_meters":0,"station_id":"ce4bh192rcd13ifvqdd0","pricing_plan_id":"free"},{"bike_id":"2528c007-63e4-44c8-88d5-41263f3c03d7","system_id":"levelo_inurba_marseille","lat":43.291994,"lon":5.392907,"is_reserved":false,"is_disabled":false,"rental_uris":{"android":"levelo://app?vid=2528c007-63e4-44c8-88d5-41263f3c03d7","ios":"levelo://app?vid=2528c007-63e4-44c8-88d5-41263f3c03d7"},"vehicle_type_id":"4","last_reported":1690758372,"current_range_meters":0,"station_id":"ce4bh192rcd13ifvqdd0","pricing_plan_id":"free"},{"bike_id":"18a07c77-f1c1-4d25-b4ba-6d8892d7c3fe","system_id":"levelo_inurba_marseille","lat":43.291994,"lon":5.392907,"is_reserved":false,"is_disabled":false,"rental_uris":{"android":"levelo://app?vid=18a07c77-f1c1-4d25-b4ba-6d8892d7c3fe","ios":"levelo://app?vid=18a07c77-f1c1-4d25-b4ba-6d8892d7c3fe"},"vehicle_type_id":"4","last_reported":1690758372,"current_range_meters":2400,"station_id":"ce4bh192rcd13ifvqdd0","pricing_plan_id":"free"},{"bike_id":"3adb0f05-804c-4847-b6f4-93ad5c33bd3d","system_id":"levelo_inurba_marseille","lat":43.291994,"lon":5.392907,"is_reserved":false,"is_disabled":false,"rental_uris":{"android":"levelo://app?vid=3adb0f05-804c-4847-b6f4-93ad5c33bd3d","ios":"levelo://app?vid=3adb0f05-804c-4847-b6f4-93ad5c33bd3d"},"vehicle_type_id":"4","last_reported":1690758372,"current_range_meters":22800,"station_id":"ce4bh192rcd13ifvqdd0","pricing_plan_id":"free"},{"bike_id":"6692445a-4117-4d85-ab4b-f698758530c8","system_id":"levelo_inurba_marseille","lat":43.291994,"lon":5.392907,"is_reserved":false,"is_disabled":false,"rental_uris":{"android":"levelo://app?vid=6692445a-4117-4d85-ab4b-f698758530c8","ios":"levelo://app?vid=6692445a-4117-4d85-ab4b-f698758530c8"},"vehicle_type_id":"4","last_reported":1690758372,"current_range_meters":18800,"station_id":"ce4bh192rcd13ifvqdd0","pricing_plan_id":"free"},{"bike_id":"2031df79-00a3-4673-925c-7cd529afbfb3","system_id":"levelo_inurba_marseille","lat":43.291994,"lon":5.392907,"is_reserved":false,"is_disabled":false,"rental_uris":{"android":"levelo://app?vid=2031df79-00a3-4673-925c-7cd529afbfb3","ios":"levelo://app?vid=2031df79-00a3-4673-925c-7cd529afbfb3"},"vehicle_type_id":"4","last_reported":1690758372,"current_range_meters":25200,"station_id":"ce4bh192rcd13ifvqdd0","pricing_plan_id":"free"},{"bike_id":"0c2563a9-a8ff-44b0-91c3-52c9c13e56b7","system_id":"levelo_inurba_marseille","lat":43.291994,"lon":5.392907,"is_reserved":false,"is_disabled":false,"rental_uris":{"android":"levelo://app?vid=0c2563a9-a8ff-44b0-91c3-52c9c13e56b7","ios":"levelo://app?vid=0c2563a9-a8ff-44b0-91c3-52c9c13e56b7"},"vehicle_type_id":"4","last_reported":1690758372,"current_range_meters":17200,"station_id":"ce4bh192rcd13ifvqdd0","pricing_plan_id":"free"},{"bike_id":"1f4cc0af-54d1-41c0-9200-8f463311f03e","system_id":"levelo_inurba_marseille","lat":43.291994,"lon":5.392907,"is_reserved":false,"is_disabled":false,"rental_uris":{"android":"levelo://app?vid=1f4cc0af-54d1-41c0-9200-8f463311f03e","ios":"levelo://app?vid=1f4cc0af-54d1-41c0-9200-8f463311f03e"},"vehicle_type_id":"4","last_reported":1690758372,"current_range_meters":27200,"station_id":"ce4bh192rcd13ifvqdd0","pricing_plan_id":"free"},{"bike_id":"44f1382b-dd81-4d72-8701-6af0dbe87b23","system_id":"levelo_inurba_marseille","lat":43.291994,"lon":5.392907,"is_reserved":false,"is_disabled":false,"rental_uris":{"android":"levelo://app?vid=44f1382b-dd81-4d72-8701-6af0dbe87b23","ios":"levelo://app?vid=44f1382b-dd81-4d72-8701-6af0dbe87b23"},"vehicle_type_id":"4","last_reported":1690758372,"current_range_meters":1600,"station_id":"ce4bh192rcd13ifvqdd0","pricing_plan_id":"free"},{"bike_id":"ec3564f4-fe91-446e-a5fb-3325ae3a547b","system_id":"levelo_inurba_marseille","lat":43.291994,"lon":5.392907,"is_reserved":false,"is_disabled":false,"rental_uris":{"android":"levelo://app?vid=ec3564f4-fe91-446e-a5fb-3325ae3a547b","ios":"levelo://app?vid=ec3564f4-fe91-446e-a5fb-3325ae3a547b"},"vehicle_type_id":"4","last_reported":1690758372,"current_range_meters":4800,"station_id":"ce4bh192rcd13ifvqdd0","pricing_plan_id":"free"},{"bike_id":"cc7a2d41-1db0-4aee-826a-b0c32f616a36","system_id":"levelo_inurba_marseille","lat":43.284538,"lon":5.358657,"is_reserved":false,"is_disabled":false,"rental_uris":{"android":"levelo://app?vid=cc7a2d41-1db0-4aee-826a-b0c32f616a36","ios":"levelo://app?vid=cc7a2d41-1db0-4aee-826a-b0c32f616a36"},"vehicle_type_id":"4","last_reported":1690758372,"current_range_meters":26400,"station_id":"ce4bhah2rcd13ifvqei0","pricing_plan_id":"free"},{"bike_id":"f56860e2-f82d-4e5c-9b55-f8ae9d2af462","system_id":"levelo_inurba_marseille","lat":43.294314,"lon":5.397498,"is_reserved":false,"is_disabled":false,"rental_uris":{"android":"levelo://app?vid=f56860e2-f82d-4e5c-9b55-f8ae9d2af462","ios":"levelo://app?vid=f56860e2-f82d-4e5c-9b55-f8ae9d2af462"},"vehicle_type_id":"4","last_reported":1690758372,"current_range_meters":31200,"station_id":"ce4bh3h2rcd13ifvqdo0","pricing_plan_id":"free"},{"bike_id":"8f4719b0-a5a1-4b6c-96e7-1fbd327f0843","system_id":"levelo_inurba_marseille","lat":43.29448,"lon":5.3975,"is_reserved":false,"is_disabled":false,"rental_uris":{"android":"levelo://app?vid=8f4719b0-a5a1-4b6c-96e7-1fbd327f0843","ios":"levelo://app?vid=8f4719b0-a5a1-4b6c-96e7-1fbd327f0843"},"vehicle_type_id":"4","last_reported":1690758372,"current_range_meters":28800,"station_id":"ce4bh3h2rcd13ifvqdo0","pricing_plan_id":"free"},{"bike_id":"4fd0c06e-580c-465f-addc-a7d3f18fedc1","system_id":"levelo_inurba_marseille","lat":43.294314,"lon":5.397498,"is_reserved":false,"is_disabled":false,"rental_uris":{"android":"levelo://app?vid=4fd0c06e-580c-465f-addc-a7d3f18fedc1","ios":"levelo://app?vid=4fd0c06e-580c-465f-addc-a7d3f18fedc1"},"vehicle_type_id":"4","last_reported":1690758372,"current_range_meters":22400,"station_id":"ce4bh3h2rcd13ifvqdo0","pricing_plan_id":"free"},{"bike_id":"e5a3c789-f259-47e9-bbc6-2c0dd809354c","system_id":"levelo_inurba_marseille","lat":43.2945,"lon":5.39755,"is_reserved":false,"is_disabled":false,"rental_uris":{"android":"levelo://app?vid=e5a3c789-f259-47e9-bbc6-2c0dd809354c","ios":"levelo://app?vid=e5a3c789-f259-47e9-bbc6-2c0dd809354c"},"vehicle_type_id":"4","last_reported":1690758372,"current_range_meters":26400,"station_id":"ce4bh3h2rcd13ifvqdo0","pricing_plan_id":"free"},{"bike_id":"879c059f-e1b8-4860-8f7a-7e4e30c0a664","system_id":"levelo_inurba_marseille","lat":43.29449,"lon":5.39756,"is_reserved":false,"is_disabled":false,"rental_uris":{"android":"levelo://app?vid=879c059f-e1b8-4860-8f7a-7e4e30c0a664","ios":"levelo://app?vid=879c059f-e1b8-4860-8f7a-7e4e30c0a664"},"vehicle_type_id":"4","last_reported":1690758372,"current_range_meters":9600,"station_id":"ce4bh3h2rcd13ifvqdo0","pricing_plan_id":"free"},{"bike_id":"6dd9128d-9f1b-4f07-8769-edc1e0d6a04e","system_id":"levelo_inurba_marseille","lat":43.294314,"lon":5.397498,"is_reserved":false,"is_disabled":false,"rental_uris":{"android":"levelo://app?vid=6dd9128d-9f1b-4f07-8769-edc1e0d6a04e","ios":"levelo://app?vid=6dd9128d-9f1b-4f07-8769-edc1e0d6a04e"},"vehicle_type_id":"4","last_reported":1690758372,"current_range_meters":27200,"station_id":"ce4bh3h2rcd13ifvqdo0","pricing_plan_id":"free"},{"bike_id":"791a3f93-4f82-4202-adbb-90b70d9e2f51","system_id":"levelo_inurba_marseille","lat":43.28616,"lon":5.35102,"is_reserved":false,"is_disabled":false,"rental_uris":{"android":"levelo://app?vid=791a3f93-4f82-4202-adbb-90b70d9e2f51","ios":"levelo://app?vid=791a3f93-4f82-4202-adbb-90b70d9e2f51"},"vehicle_type_id":"4","last_reported":1690758372,"current_range_meters":20800,"station_id":"ce4bhch2rcd13ifvqeug","pricing_plan_id":"free"},{"bike_id":"5b112069-dd75-4a1c-a0d8-84fb8f414b25","system_id":"levelo_inurba_marseille","lat":43.285856,"lon":5.350771,"is_reserved":false,"is_disabled":false,"rental_uris":{"android":"levelo://app?vid=5b112069-dd75-4a1c-a0d8-84fb8f414b25","ios":"levelo://app?vid=5b112069-dd75-4a1c-a0d8-84fb8f414b25"},"vehicle_type_id":"4","last_reported":1690758372,"current_range_meters":23600,"station_id":"ce4bhch2rcd13ifvqeug","pricing_plan_id":"free"},{"bike_id":"43e9f41e-239b-4edf-b9ed-bb02790f6d33","system_id":"levelo_inurba_marseille","lat":43.283998,"lon":5.375062,"is_reserved":false,"is_disabled":false,"rental_uris":{"android":"levelo://app?vid=43e9f41e-239b-4edf-b9ed-bb02790f6d33","ios":"levelo://app?vid=43e9f41e-239b-4edf-b9ed-bb02790f6d33"},"vehicle_type_id":"4","last_reported":1690758372,"current_range_meters":31200,"station_id":"ce4bh412rcd13ifvqds0","pricing_plan_id":"free"},{"bike_id":"bf50fd93-2c1a-4100-a2ff-403cbd28560b","system_id":"levelo_inurba_marseille","lat":43.283998,"lon":5.375062,"is_reserved":false,"is_disabled":false,"rental_uris":{"android":"levelo://app?vid=bf50fd93-2c1a-4100-a2ff-403cbd28560b","ios":"levelo://app?vid=bf50fd93-2c1a-4100-a2ff-403cbd28560b"},"vehicle_type_id":"4","last_reported":1690758372,"current_range_meters":19200,"station_id":"ce4bh412rcd13ifvqds0","pricing_plan_id":"free"},{"bike_id":"8be36985-470e-452c-bc24-29e3c3a6b0e5","system_id":"levelo_inurba_marseille","lat":43.319179,"lon":5.407725,"is_reserved":false,"is_disabled":false,"rental_uris":{"android":"levelo://app?vid=8be36985-470e-452c-bc24-29e3c3a6b0e5","ios":"levelo://app?vid=8be36985-470e-452c-bc24-29e3c3a6b0e5"},"vehicle_type_id":"4","last_reported":1690758372,"current_range_meters":31200,"station_id":"ce4bhq12rcd13ifvqhig","pricing_plan_id":"free"},{"bike_id":"38b87d8c-0867-4b6a-b50c-6cd8ba709f9b","system_id":"levelo_inurba_marseille","lat":43.316523,"lon":5.404367,"is_reserved":false,"is_disabled":false,"rental_uris":{"android":"levelo://app?vid=38b87d8c-0867-4b6a-b50c-6cd8ba709f9b","ios":"levelo://app?vid=38b87d8c-0867-4b6a-b50c-6cd8ba709f9b"},"vehicle_type_id":"4","last_reported":1690758372,"current_range_meters":5600,"station_id":"ce4bh012rcd13ifvqd00","pricing_plan_id":"free"},{"bike_id":"986e9432-98ec-4836-965c-9126cd442bcd","system_id":"levelo_inurba_marseille","lat":43.319069,"lon":5.407645,"is_reserved":false,"is_disabled":false,"rental_uris":{"android":"levelo://app?vid=986e9432-98ec-4836-965c-9126cd442bcd","ios":"levelo://app?vid=986e9432-98ec-4836-965c-9126cd442bcd"},"vehicle_type_id":"4","last_reported":1690758372,"current_range_meters":20800,"station_id":"ce4bh092rcd13ifvqd30","pricing_plan_id":"free"},{"bike_id":"1cd10330-8c82-4645-9e31-791aa547d0aa","system_id":"levelo_inurba_marseille","lat":43.33719,"lon":5.39183,"is_reserved":false,"is_disabled":false,"rental_uris":{"android":"levelo://app?vid=1cd10330-8c82-4645-9e31-791aa547d0aa","ios":"levelo://app?vid=1cd10330-8c82-4645-9e31-791aa547d0aa"},"vehicle_type_id":"4","last_reported":1690758372,"current_range_meters":24400,"station_id":"ce4bhr92rcd13ifvqhsg","pricing_plan_id":"free"},{"bike_id":"b35b35ac-779a-433f-a286-0b05a9e80c7f","system_id":"levelo_inurba_marseille","lat":43.33717,"lon":5.391857,"is_reserved":false,"is_disabled":false,"rental_uris":{"android":"levelo://app?vid=b35b35ac-779a-433f-a286-0b05a9e80c7f","ios":"levelo://app?vid=b35b35ac-779a-433f-a286-0b05a9e80c7f"},"vehicle_type_id":"4","last_reported":1690758372,"current_range_meters":23600,"station_id":"ce4bhr92rcd13ifvqhsg","pricing_plan_id":"free"},{"bike_id":"e78794ab-1147-4e07-9747-4f03804e7014","system_id":"levelo_inurba_marseille","lat":43.33724,"lon":5.3919,"is_reserved":false,"is_disabled":false,"rental_uris":{"android":"levelo://app?vid=e78794ab-1147-4e07-9747-4f03804e7014","ios":"levelo://app?vid=e78794ab-1147-4e07-9747-4f03804e7014"},"vehicle_type_id":"4","last_reported":1690758372,"current_range_meters":23200,"station_id":"ce4bhr92rcd13ifvqhsg","pricing_plan_id":"free"},{"bike_id":"c214d605-66d3-4e2d-8d08-d523874da159","system_id":"levelo_inurba_marseille","lat":43.33727,"lon":5.3919,"is_reserved":false,"is_disabled":false,"rental_uris":{"android":"levelo://app?vid=c214d605-66d3-4e2d-8d08-d523874da159","ios":"levelo://app?vid=c214d605-66d3-4e2d-8d08-d523874da159"},"vehicle_type_id":"4","last_reported":1690758372,"current_range_meters":19200,"station_id":"ce4bhr92rcd13ifvqhsg","pricing_plan_id":"free"},{"bike_id":"db9f1e9d-fa2e-4ef5-a5ae-91308d412f1f","system_id":"levelo_inurba_marseille","lat":43.32345,"lon":5.40623,"is_reserved":false,"is_disabled":false,"rental_uris":{"android":"levelo://app?vid=db9f1e9d-fa2e-4ef5-a5ae-91308d412f1f","ios":"levelo://app?vid=db9f1e9d-fa2e-4ef5-a5ae-91308d412f1f"},"vehicle_type_id":"4","last_reported":1690758372,"current_range_meters":14800,"station_id":"ce4bhq92rcd13ifvqhjg","pricing_plan_id":"free"},{"bike_id":"75a5ef6a-cf0c-428b-a209-f7db5aacfd22","system_id":"levelo_inurba_marseille","lat":43.2849,"lon":5.38432,"is_reserved":false,"is_disabled":false,"rental_uris":{"android":"levelo://app?vid=75a5ef6a-cf0c-428b-a209-f7db5aacfd22","ios":"levelo://app?vid=75a5ef6a-cf0c-428b-a209-f7db5aacfd22"},"vehicle_type_id":"4","last_reported":1690758372,"current_range_meters":30400,"station_id":"ce4bh512rcd13ifvqe3g","pricing_plan_id":"free"},{"bike_id":"5beb1b33-2283-4e57-94a0-0ef3a0d1c76e","system_id":"levelo_inurba_marseille","lat":43.2849,"lon":5.38438,"is_reserved":false,"is_disabled":false,"rental_uris":{"android":"levelo://app?vid=5beb1b33-2283-4e57-94a0-0ef3a0d1c76e","ios":"levelo://app?vid=5beb1b33-2283-4e57-94a0-0ef3a0d1c76e"},"vehicle_type_id":"4","last_reported":1690758372,"current_range_meters":31200,"station_id":"ce4bh512rcd13ifvqe3g","pricing_plan_id":"free"},{"bike_id":"b3c3e538-0642-4217-b9b0-cfe248929962","system_id":"levelo_inurba_marseille","lat":43.28487,"lon":5.38433,"is_reserved":false,"is_disabled":false,"rental_uris":{"android":"levelo://app?vid=b3c3e538-0642-4217-b9b0-cfe248929962","ios":"levelo://app?vid=b3c3e538-0642-4217-b9b0-cfe248929962"},"vehicle_type_id":"4","last_reported":1690758372,"current_range_meters":4000,"station_id":"ce4bh512rcd13ifvqe3g","pricing_plan_id":"free"},{"bike_id":"cd387294-71ba-4986-a97b-22e9709e3e10","system_id":"levelo_inurba_marseille","lat":43.284787,"lon":5.384116,"is_reserved":false,"is_disabled":false,"rental_uris":{"android":"levelo://app?vid=cd387294-71ba-4986-a97b-22e9709e3e10","ios":"levelo://app?vid=cd387294-71ba-4986-a97b-22e9709e3e10"},"vehicle_type_id":"4","last_reported":1690758372,"current_range_meters":2400,"station_id":"ce4bh512rcd13ifvqe3g","pricing_plan_id":"free"},{"bike_id":"dc399c37-82f8-4f6e-835e-5fb100725856","system_id":"levelo_inurba_marseille","lat":43.29799,"lon":5.40404,"is_reserved":false,"is_disabled":false,"rental_uris":{"android":"levelo://app?vid=dc399c37-82f8-4f6e-835e-5fb100725856","ios":"levelo://app?vid=dc399c37-82f8-4f6e-835e-5fb100725856"},"vehicle_type_id":"4","last_reported":1690758372,"current_range_meters":31200,"station_id":"","pricing_plan_id":"free"},{"bike_id":"9f29a7c8-f1ce-42a5-8575-fca64e0afbe9","system_id":"levelo_inurba_marseille","lat":43.288501,"lon":5.393087,"is_reserved":false,"is_disabled":false,"rental_uris":{"android":"levelo://app?vid=9f29a7c8-f1ce-42a5-8575-fca64e0afbe9","ios":"levelo://app?vid=9f29a7c8-f1ce-42a5-8575-fca64e0afbe9"},"vehicle_type_id":"4","last_reported":1690758372,"current_range_meters":13600,"station_id":"ce4bh2p2rcd13ifvqdi0","pricing_plan_id":"free"},{"bike_id":"b4519f5a-c6db-4d2c-b39d-fbc4d6306bf6","system_id":"levelo_inurba_marseille","lat":43.29788,"lon":5.40398,"is_reserved":false,"is_disabled":false,"rental_uris":{"android":"levelo://app?vid=b4519f5a-c6db-4d2c-b39d-fbc4d6306bf6","ios":"levelo://app?vid=b4519f5a-c6db-4d2c-b39d-fbc4d6306bf6"},"vehicle_type_id":"4","last_reported":1690758372,"current_range_meters":18400,"station_id":"","pricing_plan_id":"free"},{"bike_id":"08703322-e8fb-4726-a39b-a1d0dff14611","system_id":"levelo_inurba_marseille","lat":43.288497,"lon":5.393089,"is_reserved":false,"is_disabled":false,"rental_uris":{"android":"levelo://app?vid=08703322-e8fb-4726-a39b-a1d0dff14611","ios":"levelo://app?vid=08703322-e8fb-4726-a39b-a1d0dff14611"},"vehicle_type_id":"4","last_reported":1690758372,"current_range_meters":8400,"station_id":"ce4bh2p2rcd13ifvqdi0","pricing_plan_id":"free"},{"bike_id":"d002668d-6e3c-45f3-b3f6-125d3fc8a05b","system_id":"levelo_inurba_marseille","lat":43.288501,"lon":5.393087,"is_reserved":false,"is_disabled":false,"rental_uris":{"android":"levelo://app?vid=d002668d-6e3c-45f3-b3f6-125d3fc8a05b","ios":"levelo://app?vid=d002668d-6e3c-45f3-b3f6-125d3fc8a05b"},"vehicle_type_id":"4","last_reported":1690758372,"current_range_meters":3200,"station_id":"ce4bh2p2rcd13ifvqdi0","pricing_plan_id":"free"},{"bike_id":"dcf4b80e-962e-48c4-b99a-ad3838d79dc5","system_id":"levelo_inurba_marseille","lat":43.288501,"lon":5.393087,"is_reserved":false,"is_disabled":false,"rental_uris":{"android":"levelo://app?vid=dcf4b80e-962e-48c4-b99a-ad3838d79dc5","ios":"levelo://app?vid=dcf4b80e-962e-48c4-b99a-ad3838d79dc5"},"vehicle_type_id":"4","last_reported":1690758372,"current_range_meters":6800,"station_id":"ce4bh2p2rcd13ifvqdi0","pricing_plan_id":"free"},{"bike_id":"3108bdf1-12a1-43a9-ab86-3e7457f82e12","system_id":"levelo_inurba_marseille","lat":43.288497,"lon":5.393089,"is_reserved":false,"is_disabled":false,"rental_uris":{"android":"levelo://app?vid=3108bdf1-12a1-43a9-ab86-3e7457f82e12","ios":"levelo://app?vid=3108bdf1-12a1-43a9-ab86-3e7457f82e12"},"vehicle_type_id":"4","last_reported":1690758372,"current_range_meters":10800,"station_id":"ce4bh2p2rcd13ifvqdi0","pricing_plan_id":"free"},{"bike_id":"fc31ed91-4f34-4ab0-a43a-79794aaa5523","system_id":"levelo_inurba_marseille","lat":43.288501,"lon":5.393087,"is_reserved":false,"is_disabled":false,"rental_uris":{"android":"levelo://app?vid=fc31ed91-4f34-4ab0-a43a-79794aaa5523","ios":"levelo://app?vid=fc31ed91-4f34-4ab0-a43a-79794aaa5523"},"vehicle_type_id":"4","last_reported":1690758372,"current_range_meters":0,"station_id":"ce4bh2p2rcd13ifvqdi0","pricing_plan_id":"free"},{"bike_id":"b0eac037-3f8a-49f6-8ce5-67c985c5f9d4","system_id":"levelo_inurba_marseille","lat":43.288501,"lon":5.393087,"is_reserved":false,"is_disabled":false,"rental_uris":{"android":"levelo://app?vid=b0eac037-3f8a-49f6-8ce5-67c985c5f9d4","ios":"levelo://app?vid=b0eac037-3f8a-49f6-8ce5-67c985c5f9d4"},"vehicle_type_id":"4","last_reported":1690758372,"current_range_meters":20000,"station_id":"ce4bh2p2rcd13ifvqdi0","pricing_plan_id":"free"},{"bike_id":"5dad3a80-cbf4-4b6b-9429-949686fcac77","system_id":"levelo_inurba_marseille","lat":43.283494,"lon":5.380945,"is_reserved":false,"is_disabled":false,"rental_uris":{"android":"levelo://app?vid=5dad3a80-cbf4-4b6b-9429-949686fcac77","ios":"levelo://app?vid=5dad3a80-cbf4-4b6b-9429-949686fcac77"},"vehicle_type_id":"4","last_reported":1690758372,"current_range_meters":24000,"station_id":"ce4bh412rcd13ifvqdr0","pricing_plan_id":"free"},{"bike_id":"2a5de10d-e8bd-489a-8277-fe3c451e2b09","system_id":"levelo_inurba_marseille","lat":43.283494,"lon":5.380945,"is_reserved":false,"is_disabled":false,"rental_uris":{"android":"levelo://app?vid=2a5de10d-e8bd-489a-8277-fe3c451e2b09","ios":"levelo://app?vid=2a5de10d-e8bd-489a-8277-fe3c451e2b09"},"vehicle_type_id":"4","last_reported":1690758372,"current_range_meters":20400,"station_id":"ce4bh412rcd13ifvqdr0","pricing_plan_id":"free"},{"bike_id":"c55f02b9-6be9-418f-94f6-346d4e3ed12e","system_id":"levelo_inurba_marseille","lat":43.283494,"lon":5.380945,"is_reserved":false,"is_disabled":false,"rental_uris":{"android":"levelo://app?vid=c55f02b9-6be9-418f-94f6-346d4e3ed12e","ios":"levelo://app?vid=c55f02b9-6be9-418f-94f6-346d4e3ed12e"},"vehicle_type_id":"4","last_reported":1690758372,"current_range_meters":29600,"station_id":"ce4bh412rcd13ifvqdr0","pricing_plan_id":"free"},{"bike_id":"4f14fc10-9244-4a80-adcd-5a2b3dcde3e5","system_id":"levelo_inurba_marseille","lat":43.28347,"lon":5.38109,"is_reserved":false,"is_disabled":false,"rental_uris":{"android":"levelo://app?vid=4f14fc10-9244-4a80-adcd-5a2b3dcde3e5","ios":"levelo://app?vid=4f14fc10-9244-4a80-adcd-5a2b3dcde3e5"},"vehicle_type_id":"4","last_reported":1690758372,"current_range_meters":13600,"station_id":"ce4bh412rcd13ifvqdr0","pricing_plan_id":"free"},{"bike_id":"edb26cb6-242d-4ac5-ba6e-f37ff60e3a33","system_id":"levelo_inurba_marseille","lat":43.289363,"lon":5.396322,"is_reserved":false,"is_disabled":false,"rental_uris":{"android":"levelo://app?vid=edb26cb6-242d-4ac5-ba6e-f37ff60e3a33","ios":"levelo://app?vid=edb26cb6-242d-4ac5-ba6e-f37ff60e3a33"},"vehicle_type_id":"4","last_reported":1690758372,"current_range_meters":18800,"station_id":"ce4bh3h2rcd13ifvqdn0","pricing_plan_id":"free"},{"bike_id":"f98c244a-9348-4646-bb55-fbffddefc91e","system_id":"levelo_inurba_marseille","lat":43.32483,"lon":5.40733,"is_reserved":false,"is_disabled":false,"rental_uris":{"android":"levelo://app?vid=f98c244a-9348-4646-bb55-fbffddefc91e","ios":"levelo://app?vid=f98c244a-9348-4646-bb55-fbffddefc91e"},"vehicle_type_id":"4","last_reported":1690758372,"current_range_meters":3600,"station_id":"","pricing_plan_id":"free"},{"bike_id":"d6e31cba-31b3-4792-b4bf-6db4436a8131","system_id":"levelo_inurba_marseille","lat":43.292724,"lon":5.401131,"is_reserved":false,"is_disabled":false,"rental_uris":{"android":"levelo://app?vid=d6e31cba-31b3-4792-b4bf-6db4436a8131","ios":"levelo://app?vid=d6e31cba-31b3-4792-b4bf-6db4436a8131"},"vehicle_type_id":"4","last_reported":1690758372,"current_range_meters":8800,"station_id":"ce4bh312rcd13ifvqdk0","pricing_plan_id":"free"},{"bike_id":"cc9e0f43-4d4b-4113-9872-b8cac9b0ec14","system_id":"levelo_inurba_marseille","lat":43.29282,"lon":5.40135,"is_reserved":false,"is_disabled":false,"rental_uris":{"android":"levelo://app?vid=cc9e0f43-4d4b-4113-9872-b8cac9b0ec14","ios":"levelo://app?vid=cc9e0f43-4d4b-4113-9872-b8cac9b0ec14"},"vehicle_type_id":"4","last_reported":1690758372,"current_range_meters":31200,"station_id":"ce4bh312rcd13ifvqdk0","pricing_plan_id":"free"},{"bike_id":"c3c125bc-acad-4218-b6d9-82efda93ff20","system_id":"levelo_inurba_marseille","lat":43.292724,"lon":5.401131,"is_reserved":false,"is_disabled":false,"rental_uris":{"android":"levelo://app?vid=c3c125bc-acad-4218-b6d9-82efda93ff20","ios":"levelo://app?vid=c3c125bc-acad-4218-b6d9-82efda93ff20"},"vehicle_type_id":"4","last_reported":1690758372,"current_range_meters":31200,"station_id":"ce4bh312rcd13ifvqdk0","pricing_plan_id":"free"},{"bike_id":"c7823e09-c4bf-4dd9-acf7-da824d0bcf7a","system_id":"levelo_inurba_marseille","lat":43.292724,"lon":5.401131,"is_reserved":false,"is_disabled":false,"rental_uris":{"android":"levelo://app?vid=c7823e09-c4bf-4dd9-acf7-da824d0bcf7a","ios":"levelo://app?vid=c7823e09-c4bf-4dd9-acf7-da824d0bcf7a"},"vehicle_type_id":"4","last_reported":1690758372,"current_range_meters":31200,"station_id":"ce4bh312rcd13ifvqdk0","pricing_plan_id":"free"},{"bike_id":"8eca5768-f244-40e1-9448-c9b5e66c3031","system_id":"levelo_inurba_marseille","lat":43.29278,"lon":5.40142,"is_reserved":false,"is_disabled":false,"rental_uris":{"android":"levelo://app?vid=8eca5768-f244-40e1-9448-c9b5e66c3031","ios":"levelo://app?vid=8eca5768-f244-40e1-9448-c9b5e66c3031"},"vehicle_type_id":"4","last_reported":1690758372,"current_range_meters":28000,"station_id":"ce4bh312rcd13ifvqdk0","pricing_plan_id":"free"},{"bike_id":"df715d97-7f81-4f21-9c7d-0f51ee95cdb7","system_id":"levelo_inurba_marseille","lat":43.29266,"lon":5.40136,"is_reserved":false,"is_disabled":false,"rental_uris":{"android":"levelo://app?vid=df715d97-7f81-4f21-9c7d-0f51ee95cdb7","ios":"levelo://app?vid=df715d97-7f81-4f21-9c7d-0f51ee95cdb7"},"vehicle_type_id":"4","last_reported":1690758372,"current_range_meters":31200,"station_id":"ce4bh312rcd13ifvqdk0","pricing_plan_id":"free"},{"bike_id":"02c15cef-4ed1-4d9e-aaca-c71ef3733193","system_id":"levelo_inurba_marseille","lat":43.283502,"lon":5.386471,"is_reserved":false,"is_disabled":false,"rental_uris":{"android":"levelo://app?vid=02c15cef-4ed1-4d9e-aaca-c71ef3733193","ios":"levelo://app?vid=02c15cef-4ed1-4d9e-aaca-c71ef3733193"},"vehicle_type_id":"4","last_reported":1690758372,"current_range_meters":29600,"station_id":"ce4bh492rcd13ifvqdvg","pricing_plan_id":"free"},{"bike_id":"310116e4-c066-4845-b90e-d028b7280339","system_id":"levelo_inurba_marseille","lat":43.282754,"lon":5.350519,"is_reserved":false,"is_disabled":false,"rental_uris":{"android":"levelo://app?vid=310116e4-c066-4845-b90e-d028b7280339","ios":"levelo://app?vid=310116e4-c066-4845-b90e-d028b7280339"},"vehicle_type_id":"4","last_reported":1690758372,"current_range_meters":31200,"station_id":"ce4bhbp2rcd13ifvqerg","pricing_plan_id":"free"},{"bike_id":"61e85ed2-5f3f-4fda-9a21-b154b72f80c9","system_id":"levelo_inurba_marseille","lat":43.283502,"lon":5.386471,"is_reserved":false,"is_disabled":false,"rental_uris":{"android":"levelo://app?vid=61e85ed2-5f3f-4fda-9a21-b154b72f80c9","ios":"levelo://app?vid=61e85ed2-5f3f-4fda-9a21-b154b72f80c9"},"vehicle_type_id":"4","last_reported":1690758372,"current_range_meters":27600,"station_id":"ce4bh492rcd13ifvqdvg","pricing_plan_id":"free"},{"bike_id":"7d31e9ab-d60b-4e54-8436-89cab0cce1f6","system_id":"levelo_inurba_marseille","lat":43.292724,"lon":5.401131,"is_reserved":false,"is_disabled":false,"rental_uris":{"android":"levelo://app?vid=7d31e9ab-d60b-4e54-8436-89cab0cce1f6","ios":"levelo://app?vid=7d31e9ab-d60b-4e54-8436-89cab0cce1f6"},"vehicle_type_id":"4","last_reported":1690758372,"current_range_meters":30400,"station_id":"ce4bh312rcd13ifvqdk0","pricing_plan_id":"free"},{"bike_id":"109e1849-18c7-421d-8741-e98ceb7b419a","system_id":"levelo_inurba_marseille","lat":43.283502,"lon":5.386471,"is_reserved":false,"is_disabled":false,"rental_uris":{"android":"levelo://app?vid=109e1849-18c7-421d-8741-e98ceb7b419a","ios":"levelo://app?vid=109e1849-18c7-421d-8741-e98ceb7b419a"},"vehicle_type_id":"4","last_reported":1690758372,"current_range_meters":27600,"station_id":"ce4bh492rcd13ifvqdvg","pricing_plan_id":"free"},{"bike_id":"6d9931d3-9325-48b5-9a8f-55f7e00c0b81","system_id":"levelo_inurba_marseille","lat":43.28039,"lon":5.369297,"is_reserved":false,"is_disabled":false,"rental_uris":{"android":"levelo://app?vid=6d9931d3-9325-48b5-9a8f-55f7e00c0b81","ios":"levelo://app?vid=6d9931d3-9325-48b5-9a8f-55f7e00c0b81"},"vehicle_type_id":"4","last_reported":1690758372,"current_range_meters":22000,"station_id":"ce4bha12rcd13ifvqef0","pricing_plan_id":"free"},{"bike_id":"04ca89f4-5643-4221-b6cf-e95ba18677b7","system_id":"levelo_inurba_marseille","lat":43.28039,"lon":5.369297,"is_reserved":false,"is_disabled":false,"rental_uris":{"android":"levelo://app?vid=04ca89f4-5643-4221-b6cf-e95ba18677b7","ios":"levelo://app?vid=04ca89f4-5643-4221-b6cf-e95ba18677b7"},"vehicle_type_id":"4","last_reported":1690758372,"current_range_meters":6000,"station_id":"ce4bha12rcd13ifvqef0","pricing_plan_id":"free"},{"bike_id":"c67fd003-011a-42e2-85f2-2714de5997e4","system_id":"levelo_inurba_marseille","lat":43.3252,"lon":5.4081,"is_reserved":false,"is_disabled":false,"rental_uris":{"android":"levelo://app?vid=c67fd003-011a-42e2-85f2-2714de5997e4","ios":"levelo://app?vid=c67fd003-011a-42e2-85f2-2714de5997e4"},"vehicle_type_id":"4","last_reported":1690758372,"current_range_meters":1600,"station_id":"","pricing_plan_id":"free"},{"bike_id":"98cbfa1a-f647-4c8d-b6df-efa6ca3d670b","system_id":"levelo_inurba_marseille","lat":43.290412,"lon":5.399633,"is_reserved":false,"is_disabled":false,"rental_uris":{"android":"levelo://app?vid=98cbfa1a-f647-4c8d-b6df-efa6ca3d670b","ios":"levelo://app?vid=98cbfa1a-f647-4c8d-b6df-efa6ca3d670b"},"vehicle_type_id":"4","last_reported":1690758372,"current_range_meters":30800,"station_id":"ce4bh392rcd13ifvqdm0","pricing_plan_id":"free"},{"bike_id":"29567aef-feb0-4790-a955-fb1c0c223335","system_id":"levelo_inurba_marseille","lat":43.28114,"lon":5.37849,"is_reserved":false,"is_disabled":false,"rental_uris":{"android":"levelo://app?vid=29567aef-feb0-4790-a955-fb1c0c223335","ios":"levelo://app?vid=29567aef-feb0-4790-a955-fb1c0c223335"},"vehicle_type_id":"4","last_reported":1690758372,"current_range_meters":18400,"station_id":"ce4bha12rcd13ifvqee0","pricing_plan_id":"free"},{"bike_id":"42ecf8ad-f273-487d-85d4-5d3674e081bd","system_id":"levelo_inurba_marseille","lat":43.29041,"lon":5.399634,"is_reserved":false,"is_disabled":false,"rental_uris":{"android":"levelo://app?vid=42ecf8ad-f273-487d-85d4-5d3674e081bd","ios":"levelo://app?vid=42ecf8ad-f273-487d-85d4-5d3674e081bd"},"vehicle_type_id":"4","last_reported":1690758372,"current_range_meters":30400,"station_id":"ce4bh392rcd13ifvqdm0","pricing_plan_id":"free"},{"bike_id":"59c1cadb-3522-4bc5-90b8-f225a4e4b877","system_id":"levelo_inurba_marseille","lat":43.29017,"lon":5.39956,"is_reserved":false,"is_disabled":false,"rental_uris":{"android":"levelo://app?vid=59c1cadb-3522-4bc5-90b8-f225a4e4b877","ios":"levelo://app?vid=59c1cadb-3522-4bc5-90b8-f225a4e4b877"},"vehicle_type_id":"4","last_reported":1690758372,"current_range_meters":30000,"station_id":"ce4bh392rcd13ifvqdm0","pricing_plan_id":"free"},{"bike_id":"322b5ca9-4076-49f8-9d31-c0c5d0180dca","system_id":"levelo_inurba_marseille","lat":43.296263,"lon":5.40601,"is_reserved":false,"is_disabled":false,"rental_uris":{"android":"levelo://app?vid=322b5ca9-4076-49f8-9d31-c0c5d0180dca","ios":"levelo://app?vid=322b5ca9-4076-49f8-9d31-c0c5d0180dca"},"vehicle_type_id":"4","last_reported":1690758372,"current_range_meters":30000,"station_id":"ce4bh0h2rcd13ifvqd60","pricing_plan_id":"free"},{"bike_id":"0d655aba-659a-4500-965e-a709702c7ef2","system_id":"levelo_inurba_marseille","lat":43.296263,"lon":5.40601,"is_reserved":false,"is_disabled":false,"rental_uris":{"android":"levelo://app?vid=0d655aba-659a-4500-965e-a709702c7ef2","ios":"levelo://app?vid=0d655aba-659a-4500-965e-a709702c7ef2"},"vehicle_type_id":"4","last_reported":1690758372,"current_range_meters":23600,"station_id":"ce4bh0h2rcd13ifvqd60","pricing_plan_id":"free"},{"bike_id":"c215c6a3-9beb-43d9-abd8-537971734b9f","system_id":"levelo_inurba_marseille","lat":43.296263,"lon":5.40601,"is_reserved":false,"is_disabled":false,"rental_uris":{"android":"levelo://app?vid=c215c6a3-9beb-43d9-abd8-537971734b9f","ios":"levelo://app?vid=c215c6a3-9beb-43d9-abd8-537971734b9f"},"vehicle_type_id":"4","last_reported":1690758372,"current_range_meters":4400,"station_id":"ce4bh0h2rcd13ifvqd60","pricing_plan_id":"free"},{"bike_id":"a88958c7-afd4-46e7-a91d-2bc941d63823","system_id":"levelo_inurba_marseille","lat":43.284462,"lon":5.392121,"is_reserved":false,"is_disabled":false,"rental_uris":{"android":"levelo://app?vid=a88958c7-afd4-46e7-a91d-2bc941d63823","ios":"levelo://app?vid=a88958c7-afd4-46e7-a91d-2bc941d63823"},"vehicle_type_id":"4","last_reported":1690758372,"current_range_meters":24800,"station_id":"ce4bhoh2rcd13ifvqh5g","pricing_plan_id":"free"},{"bike_id":"4fcc9571-7eab-4fbb-8aa7-7a0ab660c814","system_id":"levelo_inurba_marseille","lat":43.284462,"lon":5.392121,"is_reserved":false,"is_disabled":false,"rental_uris":{"android":"levelo://app?vid=4fcc9571-7eab-4fbb-8aa7-7a0ab660c814","ios":"levelo://app?vid=4fcc9571-7eab-4fbb-8aa7-7a0ab660c814"},"vehicle_type_id":"4","last_reported":1690758372,"current_range_meters":9600,"station_id":"ce4bhoh2rcd13ifvqh5g","pricing_plan_id":"free"},{"bike_id":"b4657a1c-c805-4fb4-9ce6-48b8a704e46f","system_id":"levelo_inurba_marseille","lat":43.284462,"lon":5.392121,"is_reserved":false,"is_disabled":false,"rental_uris":{"android":"levelo://app?vid=b4657a1c-c805-4fb4-9ce6-48b8a704e46f","ios":"levelo://app?vid=b4657a1c-c805-4fb4-9ce6-48b8a704e46f"},"vehicle_type_id":"4","last_reported":1690758372,"current_range_meters":28400,"station_id":"ce4bhoh2rcd13ifvqh5g","pricing_plan_id":"free"},{"bike_id":"8748da52-52ce-41fc-a6c2-0a9465b46711","system_id":"levelo_inurba_marseille","lat":43.285742,"lon":5.395004,"is_reserved":false,"is_disabled":false,"rental_uris":{"android":"levelo://app?vid=8748da52-52ce-41fc-a6c2-0a9465b46711","ios":"levelo://app?vid=8748da52-52ce-41fc-a6c2-0a9465b46711"},"vehicle_type_id":"4","last_reported":1690758372,"current_range_meters":17600,"station_id":"ce4bh292rcd13ifvqdg0","pricing_plan_id":"free"},{"bike_id":"8a96de4f-f478-4c2d-a6a3-feabf1234ffb","system_id":"levelo_inurba_marseille","lat":43.28573,"lon":5.394992,"is_reserved":false,"is_disabled":false,"rental_uris":{"android":"levelo://app?vid=8a96de4f-f478-4c2d-a6a3-feabf1234ffb","ios":"levelo://app?vid=8a96de4f-f478-4c2d-a6a3-feabf1234ffb"},"vehicle_type_id":"4","last_reported":1690758372,"current_range_meters":800,"station_id":"ce4bh292rcd13ifvqdg0","pricing_plan_id":"free"},