{"last_updated":1691086085,"ttl":30,"version":"2.2","data":{"bikes":[{"bike_id":"6f213c47-3e94-4ee7-8790-25a4045cba99","system_id":"levelo_inurba_marseille","lat":43.307945,"lon":5.376487,"is_reserved":false,"is_disabled":false,"rental_uris":{"android":"levelo://app?vid=6f213c47-3e94-4ee7-8790-25a4045cba99","ios":"levelo://app?vid=6f213c47-3e94-4ee7-8790-25a4045cba99"},"vehicle_type_id":"4","last_reported":1691086086,"current_range_meters":22800,"station_id":"ce4bgv92rcd13ifvqcq0","pricing_plan_id":"free"},{"bike_id":"2e1d2072-076a-4921-9d68-191717896d78","system_id":"levelo_inurba_marseille","lat":43.31226,"lon":5.36858,"is_reserved":false,"is_disabled":false,"rental_uris":{"android":"levelo://app?vid=2e1d2072-076a-4921-9d68-191717896d78","ios":"levelo://app?vid=2e1d2072-076a-4921-9d68-191717896d78"},"vehicle_type_id":"4","last_reported":1691086086,"current_range_meters":21200,"station_id":"ce4bgl92rcd13ifvqbq0","pricing_plan_id":"free"},{"bike_id":"d578f645-1838-401d-ae53-d8a5a2e48daf","system_id":"levelo_inurba_marseille","lat":43.312362,"lon":5.368807,"is_reserved":false,"is_disabled":false,"rental_uris":{"android":"levelo://app?vid=d578f645-1838-401d-ae53-d8a5a2e48daf","ios":"levelo://app?vid=d578f645-1838-401d-ae53-d8a5a2e48daf"},"vehicle_type_id":"4","last_reported":1691086086,"current_range_meters":18400,"station_id":"ce4bgl92rcd13ifvqbq0","pricing_plan_id":"free"},{"bike_id":"3df24d64-f518-4ea1-b51a-276fbc73a69c","system_id":"levelo_inurba_marseille","lat":43.309076,"lon":5.368465,"is_reserved":false,"is_disabled":false,"rental_uris":{"android":"levelo://app?vid=3df24d64-f518-4ea1-b51a-276fbc73a69c","ios":"levelo://app?vid=3df24d64-f518-4ea1-b51a-276fbc73a69c"},"vehicle_type_id":"4","last_reported":1691086086,"current_range_meters":29200,"station_id":"ce4bgn92rcd13ifvqbvg","pricing_plan_id":"free"},{"bike_id":"bbf288ed-cb6a-40c5-b941-ac5e2fd98c2b","system_id":"levelo_inurba_marseille","lat":43.309076,"lon":5.368465,"is_reserved":false,"is_disabled":false,"rental_uris":{"android":"levelo://app?vid=bbf288ed-cb6a-40c5-b941-ac5e2fd98c2b","ios":"levelo://app?vid=bbf288ed-cb6a-40c5-b941-ac5e2fd98c2b"},"vehicle_type_id":"4","last_reported":1691086086,"current_range_meters":30400,"station_id":"ce4bgn92rcd13ifvqbvg","pricing_plan_id":"free"},{"bike_id":"7cfb81a3-fd7f-41d1-987d-c1037b7c6b4a","system_id":"levelo_inurba_marseille","lat":43.31441,"lon":5.37568,"is_reserved":false,"is_disabled":false,"rental_uris":{"android":"levelo://app?vid=7cfb81a3-fd7f-41d1-987d-c1037b7c6b4a","ios":"levelo://app?vid=7cfb81a3-fd7f-41d1-987d-c1037b7c6b4a"},"vehicle_type_id":"4","last_reported":1691086086,"current_range_meters":21200,"station_id":"","pricing_plan_id":"free"},{"bike_id":"462e10b2-3ab7-4fbc-ac03-f9190666558e","system_id":"levelo_inurba_marseille","lat":43.305989,"lon":5.37225,"is_reserved":false,"is_disabled":false,"rental_uris":{"android":"levelo://app?vid=462e10b2-3ab7-4fbc-ac03-f9190666558e","ios":"levelo://app?vid=462e10b2-3ab7-4fbc-ac03-f9190666558e"},"vehicle_type_id":"4","last_reported":1691086086,"current_range_meters":12400,"station_id":"ce4bgqh2rcd13ifvqc4g","pricing_plan_id":"free"},{"bike_id":"272b8031-866b-4796-9d5a-49c2d328adb7","system_id":"levelo_inurba_marseille","lat":43.305989,"lon":5.37225,"is_reserved":false,"is_disabled":false,"rental_uris":{"android":"levelo://app?vid=272b8031-866b-4796-9d5a-49c2d328adb7","ios":"levelo://app?vid=272b8031-866b-4796-9d5a-49c2d328adb7"},"vehicle_type_id":"4","last_reported":1691086086,"current_range_meters":22800,"station_id":"ce4bgqh2rcd13ifvqc4g","pricing_plan_id":"free"},{"bike_id":"be96a4d7-bf75-4570-99fa-c4c7960dbbe9","system_id":"levelo_inurba_marseille","lat":43.305989,"lon":5.37225,"is_reserved":false,"is_disabled":false,"rental_uris":{"android":"levelo://app?vid=be96a4d7-bf75-4570-99fa-c4c7960dbbe9","ios":"levelo://app?vid=be96a4d7-bf75-4570-99fa-c4c7960dbbe9"},"vehicle_type_id":"4","last_reported":1691086086,"current_range_meters":2800,"station_id":"ce4bgqh2rcd13ifvqc4g","pricing_plan_id":"free"},{"bike_id":"d854ef27-5dbd-4bab-9429-1c329b7ad794","system_id":"levelo_inurba_marseille","lat":43.305989,"lon":5.37225,"is_reserved":false,"is_disabled":false,"rental_uris":{"android":"levelo://app?vid=d854ef27-5dbd-4bab-9429-1c329b7ad794","ios":"levelo://app?vid=d854ef27-5dbd-4bab-9429-1c329b7ad794"},"vehicle_type_id":"4","last_reported":1691086086,"current_range_meters":30400,"station_id":"ce4bgqh2rcd13ifvqc4g","pricing_plan_id":"free"},{"bike_id":"f20ea888-8740-440b-bfeb-8eb2a7c1f652","system_id":"levelo_inurba_marseille","lat":43.305989,"lon":5.37225,"is_reserved":false,"is_disabled":false,"rental_uris":{"android":"levelo://app?vid=f20ea888-8740-440b-bfeb-8eb2a7c1f652","ios":"levelo://app?vid=f20ea888-8740-440b-bfeb-8eb2a7c1f652"},"vehicle_type_id":"4","last_reported":1691086086,"current_range_meters":31200,"station_id":"ce4bgqh2rcd13ifvqc4g","pricing_plan_id":"free"},{"bike_id":"6ec4bb7e-8606-49b4-a556-2cb681532bba","system_id":"levelo_inurba_marseille","lat":43.317075,"lon":5.377367,"is_reserved":false,"is_disabled":false,"rental_uris":{"android":"levelo://app?vid=6ec4bb7e-8606-49b4-a556-2cb681532bba","ios":"levelo://app?vid=6ec4bb7e-8606-49b4-a556-2cb681532bba"},"vehicle_type_id":"4","last_reported":1691086086,"current_range_meters":31200,"station_id":"ce4bgth2rcd13ifvqch0","pricing_plan_id":"free"},{"bike_id":"0f2902ef-403c-458f-92a9-dfbe4b28e1b1","system_id":"levelo_inurba_marseille","lat":43.317075,"lon":5.377367,"is_reserved":false,"is_disabled":false,"rental_uris":{"android":"levelo://app?vid=0f2902ef-403c-458f-92a9-dfbe4b28e1b1","ios":"levelo://app?vid=0f2902ef-403c-458f-92a9-dfbe4b28e1b1"},"vehicle_type_id":"4","last_reported":1691086086,"current_range_meters":9200,"station_id":"ce4bgth2rcd13ifvqch0","pricing_plan_id":"free"},{"bike_id":"16bd4a33-fcbb-48b6-9d96-72c5199069b5","system_id":"levelo_inurba_marseille","lat":43.303046,"lon":5.368981,"is_reserved":false,"is_disabled":false,"rental_uris":{"android":"levelo://app?vid=16bd4a33-fcbb-48b6-9d96-72c5199069b5","ios":"levelo://app?vid=16bd4a33-fcbb-48b6-9d96-72c5199069b5"},"vehicle_type_id":"4","last_reported":1691086086,"current_range_meters":4800,"station_id":"ce4bgqh2rcd13ifvqc5g","pricing_plan_id":"free"},{"bike_id":"cf144abe-402a-4e78-b410-79c6d13361fb","system_id":"levelo_inurba_marseille","lat":43.315293,"lon":5.380349,"is_reserved":false,"is_disabled":false,"rental_uris":{"android":"levelo://app?vid=cf144abe-402a-4e78-b410-79c6d13361fb","ios":"levelo://app?vid=cf144abe-402a-4e78-b410-79c6d13361fb"},"vehicle_type_id":"4","last_reported":1691086086,"current_range_meters":16800,"station_id":"ce4bhsp2rcd13ifvqi50","pricing_plan_id":"free"},{"bike_id":"94ac2495-de9a-4dce-b659-87801da2b2d7","system_id":"levelo_inurba_marseille","lat":43.31536,"lon":5.38012,"is_reserved":false,"is_disabled":false,"rental_uris":{"android":"levelo://app?vid=94ac2495-de9a-4dce-b659-87801da2b2d7","ios":"levelo://app?vid=94ac2495-de9a-4dce-b659-87801da2b2d7"},"vehicle_type_id":"4","last_reported":1691086086,"current_range_meters":17200,"station_id":"ce4bhsp2rcd13ifvqi50","pricing_plan_id":"free"},{"bike_id":"9e30f506-d708-4689-ad39-0e086dd94e41","system_id":"levelo_inurba_marseille","lat":43.31533,"lon":5.38024,"is_reserved":false,"is_disabled":false,"rental_uris":{"android":"levelo://app?vid=9e30f506-d708-4689-ad39-0e086dd94e41","ios":"levelo://app?vid=9e30f506-d708-4689-ad39-0e086dd94e41"},"vehicle_type_id":"4","last_reported":1691086086,"current_range_meters":4400,"station_id":"ce4bhsp2rcd13ifvqi50","pricing_plan_id":"free"},{"bike_id":"00892e19-ff2f-49f5-94f5-0dc2f6ff1faf","system_id":"levelo_inurba_marseille","lat":43.315293,"lon":5.380349,"is_reserved":false,"is_disabled":false,"rental_uris":{"android":"levelo://app?vid=00892e19-ff2f-49f5-94f5-0dc2f6ff1faf","ios":"levelo://app?vid=00892e19-ff2f-49f5-94f5-0dc2f6ff1faf"},"vehicle_type_id":"4","last_reported":1691086086,"current_range_meters":26000,"station_id":"ce4bhsp2rcd13ifvqi50","pricing_plan_id":"free"},{"bike_id":"6858639a-0196-4d7c-bb4c-a88403e739ad","system_id":"levelo_inurba_marseille","lat":43.315293,"lon":5.380349,"is_reserved":false,"is_disabled":false,"rental_uris":{"android":"levelo://app?vid=6858639a-0196-4d7c-bb4c-a88403e739ad","ios":"levelo://app?vid=6858639a-0196-4d7c-bb4c-a88403e739ad"},"vehicle_type_id":"4","last_reported":1691086086,"current_range_meters":5600,"station_id":"ce4bhsp2rcd13ifvqi50","pricing_plan_id":"free"},{"bike_id":"45933e37-4b11-4ffa-8a44-34e51cabbc4b","system_id":"levelo_inurba_marseille","lat":43.31521,"lon":5.38033,"is_reserved":false,"is_disabled":false,"rental_uris":{"android":"levelo://app?vid=45933e37-4b11-4ffa-8a44-34e51cabbc4b","ios":"levelo://app?vid=45933e37-4b11-4ffa-8a44-34e51cabbc4b"},"vehicle_type_id":"4","last_reported":1691086086,"current_range_meters":24800,"station_id":"ce4bhsp2rcd13ifvqi50","pricing_plan_id":"free"},{"bike_id":"f46c28c3-543d-47b0-9f30-688f606b254f","system_id":"levelo_inurba_marseille","lat":43.31525,"lon":5.38033,"is_reserved":false,"is_disabled":false,"rental_uris":{"android":"levelo://app?vid=f46c28c3-543d-47b0-9f30-688f606b254f","ios":"levelo://app?vid=f46c28c3-543d-47b0-9f30-688f606b254f"},"vehicle_type_id":"4","last_reported":1691086086,"current_range_meters":3200,"station_id":"ce4bhsp2rcd13ifvqi50","pricing_plan_id":"free"},{"bike_id":"ca03c504-734e-402b-8597-fb77a9549039","system_id":"levelo_inurba_marseille","lat":43.31538,"lon":5.38033,"is_reserved":false,"is_disabled":false,"rental_uris":{"android":"levelo://app?vid=ca03c504-734e-402b-8597-fb77a9549039","ios":"levelo://app?vid=ca03c504-734e-402b-8597-fb77a9549039"},"vehicle_type_id":"4","last_reported":1691086086,"current_range_meters":30800,"station_id":"ce4bhsp2rcd13ifvqi50","pricing_plan_id":"free"},{"bike_id":"28209308-466e-44d0-a0c1-76c46b9da81e","system_id":"levelo_inurba_marseille","lat":43.30189,"lon":5.36621,"is_reserved":false,"is_disabled":false,"rental_uris":{"android":"levelo://app?vid=28209308-466e-44d0-a0c1-76c46b9da81e","ios":"levelo://app?vid=28209308-466e-44d0-a0c1-76c46b9da81e"},"vehicle_type_id":"4","last_reported":1691086086,"current_range_meters":2800,"station_id":"ce4bgrh2rcd13ifvqc8g","pricing_plan_id":"free"},{"bike_id":"69efd253-fbbb-4a73-9ba0-16d8244fa080","system_id":"levelo_inurba_marseille","lat":43.30458,"lon":5.37901,"is_reserved":false,"is_disabled":false,"rental_uris":{"android":"levelo://app?vid=69efd253-fbbb-4a73-9ba0-16d8244fa080","ios":"levelo://app?vid=69efd253-fbbb-4a73-9ba0-16d8244fa080"},"vehicle_type_id":"4","last_reported":1691086086,"current_range_meters":31200,"station_id":"ce4bgup2rcd13ifvqcn0","pricing_plan_id":"free"},{"bike_id":"9a192bae-3599-45e0-b983-84335d3731a3","system_id":"levelo_inurba_marseille","lat":43.30272,"lon":5.37694,"is_reserved":false,"is_disabled":false,"rental_uris":{"android":"levelo://app?vid=9a192bae-3599-45e0-b983-84335d3731a3","ios":"levelo://app?vid=9a192bae-3599-45e0-b983-84335d3731a3"},"vehicle_type_id":"4","last_reported":1691086086,"current_range_meters":17600,"station_id":"ce4bguh2rcd13ifvqcj0","pricing_plan_id":"free"},{"bike_id":"791aecf0-48e6-4775-bc04-3b9f8a573be3","system_id":"levelo_inurba_marseille","lat":43.319935,"lon":5.381699,"is_reserved":false,"is_disabled":false,"rental_uris":{"android":"levelo://app?vid=791aecf0-48e6-4775-bc04-3b9f8a573be3","ios":"levelo://app?vid=791aecf0-48e6-4775-bc04-3b9f8a573be3"},"vehicle_type_id":"4","last_reported":1691086086,"current_range_meters":10800,"station_id":"ce4bhr12rcd13ifvqhpg","pricing_plan_id":"free"},{"bike_id":"3097454c-215b-480d-9356-8d3755cad264","system_id":"levelo_inurba_marseille","lat":43.313571,"lon":5.384829,"is_reserved":false,"is_disabled":false,"rental_uris":{"android":"levelo://app?vid=3097454c-215b-480d-9356-8d3755cad264","ios":"levelo://app?vid=3097454c-215b-480d-9356-8d3755cad264"},"vehicle_type_id":"4","last_reported":1691086086,"current_range_meters":13600,"station_id":"ce4bgt92rcd13ifvqcf0","pricing_plan_id":"free"},{"bike_id":"d92e79c6-8caa-430c-90be-6141442e45a4","system_id":"levelo_inurba_marseille","lat":43.31366,"lon":5.38488,"is_reserved":false,"is_disabled":false,"rental_uris":{"android":"levelo://app?vid=d92e79c6-8caa-430c-90be-6141442e45a4","ios":"levelo://app?vid=d92e79c6-8caa-430c-90be-6141442e45a4"},"vehicle_type_id":"4","last_reported":1691086086,"current_range_meters":16000,"station_id":"ce4bgt92rcd13ifvqcf0","pricing_plan_id":"free"},{"bike_id":"b4441d81-c11b-457c-bb45-72c4a5e07e06","system_id":"levelo_inurba_marseille","lat":43.32584,"lon":5.36752,"is_reserved":false,"is_disabled":false,"rental_uris":{"android":"levelo://app?vid=b4441d81-c11b-457c-bb45-72c4a5e07e06","ios":"levelo://app?vid=b4441d81-c11b-457c-bb45-72c4a5e07e06"},"vehicle_type_id":"4","last_reported":1691086086,"current_range_meters":2400,"station_id":"","pricing_plan_id":"free"},{"bike_id":"3cb7fd70-121e-4eb5-9a01-ecc8718aa1bb","system_id":"levelo_inurba_marseille","lat":43.29944,"lon":5.36535,"is_reserved":false,"is_disabled":false,"rental_uris":{"android":"levelo://app?vid=3cb7fd70-121e-4eb5-9a01-ecc8718aa1bb","ios":"levelo://app?vid=3cb7fd70-121e-4eb5-9a01-ecc8718aa1bb"},"vehicle_type_id":"4","last_reported":1691086086,"current_range_meters":31200,"station_id":"ce4bgm92rcd13ifvqbr0","pricing_plan_id":"free"},{"bike_id":"157429c4-2db1-4818-abc8-1613220762bc","system_id":"levelo_inurba_marseille","lat":43.299684,"lon":5.371876,"is_reserved":false,"is_disabled":false,"rental_uris":{"android":"levelo://app?vid=157429c4-2db1-4818-abc8-1613220762bc","ios":"levelo://app?vid=157429c4-2db1-4818-abc8-1613220762bc"},"vehicle_type_id":"4","last_reported":1691086086,"current_range_meters":10400,"station_id":"ce4bgr92rcd13ifvqc7g","pricing_plan_id":"free"},{"bike_id":"0e95f6e9-176b-43f1-8724-6cf933787671","system_id":"levelo_inurba_marseille","lat":43.299724,"lon":5.371829,"is_reserved":false,"is_disabled":false,"rental_uris":{"android":"levelo://app?vid=0e95f6e9-176b-43f1-8724-6cf933787671","ios":"levelo://app?vid=0e95f6e9-176b-43f1-8724-6cf933787671"},"vehicle_type_id":"4","last_reported":1691086086,"current_range_meters":6400,"station_id":"ce4bgr92rcd13ifvqc7g","pricing_plan_id":"free"},{"bike_id":"30537d43-af02-4a10-b928-7b9b8cf633d2","system_id":"levelo_inurba_marseille","lat":43.305364,"lon":5.384119,"is_reserved":false,"is_disabled":false,"rental_uris":{"android":"levelo://app?vid=30537d43-af02-4a10-b928-7b9b8cf633d2","ios":"levelo://app?vid=30537d43-af02-4a10-b928-7b9b8cf633d2"},"vehicle_type_id":"4","last_reported":1691086086,"current_range_meters":28800,"station_id":"ce4bgg92rcd13ifvqb30","pricing_plan_id":"free"},{"bike_id":"6eb6ead0-d563-434e-9d56-3823b1758e32","system_id":"levelo_inurba_marseille","lat":43.311722,"lon":5.387247,"is_reserved":false,"is_disabled":false,"rental_uris":{"android":"levelo://app?vid=6eb6ead0-d563-434e-9d56-3823b1758e32","ios":"levelo://app?vid=6eb6ead0-d563-434e-9d56-3823b1758e32"},"vehicle_type_id":"4","last_reported":1691086086,"current_range_meters":18800,"station_id":"ce4bgv12rcd13ifvqcp0","pricing_plan_id":"free"},{"bike_id":"b18279c5-4d28-4f77-8075-48befb8a025f","system_id":"levelo_inurba_marseille","lat":43.31172,"lon":5.3872,"is_reserved":false,"is_disabled":false,"rental_uris":{"android":"levelo://app?vid=b18279c5-4d28-4f77-8075-48befb8a025f","ios":"levelo://app?vid=b18279c5-4d28-4f77-8075-48befb8a025f"},"vehicle_type_id":"4","last_reported":1691086086,"current_range_meters":9200,"station_id":"ce4bgv12rcd13ifvqcp0","pricing_plan_id":"free"},{"bike_id":"7cf1aab8-38a1-47db-af16-2123c0ca6e97","system_id":"levelo_inurba_marseille","lat":43.322872,"lon":5.382756,"is_reserved":false,"is_disabled":false,"rental_uris":{"android":"levelo://app?vid=7cf1aab8-38a1-47db-af16-2123c0ca6e97","ios":"levelo://app?vid=7cf1aab8-38a1-47db-af16-2123c0ca6e97"},"vehicle_type_id":"4","last_reported":1691086086,"current_range_meters":20000,"station_id":"ce4bhr12rcd13ifvqhqg","pricing_plan_id":"free"},{"bike_id":"197dad72-34dc-4120-93fc-280ae3841866","system_id":"levelo_inurba_marseille","lat":43.32826,"lon":5.36685,"is_reserved":false,"is_disabled":false,"rental_uris":{"android":"levelo://app?vid=197dad72-34dc-4120-93fc-280ae3841866","ios":"levelo://app?vid=197dad72-34dc-4120-93fc-280ae3841866"},"vehicle_type_id":"4","last_reported":1691086086,"current_range_meters":20800,"station_id":"ce4bhs92rcd13ifvqi0g","pricing_plan_id":"free"},{"bike_id":"dddbedc8-6a42-40c6-936f-790bd1069b29","system_id":"levelo_inurba_marseille","lat":43.32828,"lon":5.36686,"is_reserved":false,"is_disabled":false,"rental_uris":{"android":"levelo://app?vid=dddbedc8-6a42-40c6-936f-790bd1069b29","ios":"levelo://app?vid=dddbedc8-6a42-40c6-936f-790bd1069b29"},"vehicle_type_id":"4","last_reported":1691086086,"current_range_meters":12800,"station_id":"ce4bhs92rcd13ifvqi0g","pricing_plan_id":"free"},{"bike_id":"5f2588c6-29cb-40b7-bb84-1680e358265e","system_id":"levelo_inurba_marseille","lat":43.32829,"lon":5.36688,"is_reserved":false,"is_disabled":false,"rental_uris":{"android":"levelo://app?vid=5f2588c6-29cb-40b7-bb84-1680e358265e","ios":"levelo://app?vid=5f2588c6-29cb-40b7-bb84-1680e358265e"},"vehicle_type_id":"4","last_reported":1691086086,"current_range_meters":13600,"station_id":"ce4bhs92rcd13ifvqi0g","pricing_plan_id":"free"},{"bike_id":"dd789220-e7b5-42c1-b9dc-dc4243148021","system_id":"levelo_inurba_marseille","lat":43.297163,"lon":5.365866,"is_reserved":false,"is_disabled":false,"rental_uris":{"android":"levelo://app?vid=dd789220-e7b5-42c1-b9dc-dc4243148021","ios":"levelo://app?vid=dd789220-e7b5-42c1-b9dc-dc4243148021"},"vehicle_type_id":"4","last_reported":1691086086,"current_range_meters":31200,"station_id":"ce4bgn12rcd13ifvqbt0","pricing_plan_id":"free"},{"bike_id":"bb224614-7241-44f8-8205-8a0c7f36065f","system_id":"levelo_inurba_marseille","lat":43.32835,"lon":5.36682,"is_reserved":false,"is_disabled":false,"rental_uris":{"android":"levelo://app?vid=bb224614-7241-44f8-8205-8a0c7f36065f","ios":"levelo://app?vid=bb224614-7241-44f8-8205-8a0c7f36065f"},"vehicle_type_id":"4","last_reported":1691086086,"current_range_meters":12400,"station_id":"ce4bhs92rcd13ifvqi0g","pricing_plan_id":"free"},{"bike_id":"ec585bc7-872a-4156-9ab6-1e665924d896","system_id":"levelo_inurba_marseille","lat":43.29672,"lon":5.3728,"is_reserved":false,"is_disabled":false,"rental_uris":{"android":"levelo://app?vid=ec585bc7-872a-4156-9ab6-1e665924d896","ios":"levelo://app?vid=ec585bc7-872a-4156-9ab6-1e665924d896"},"vehicle_type_id":"4","last_reported":1691086086,"current_range_meters":4400,"station_id":"","pricing_plan_id":"free"},{"bike_id":"78fd48ba-abd8-4a15-ba1b-14a4f873a0dd","system_id":"levelo_inurba_marseille","lat":43.309491,"lon":5.390273,"is_reserved":false,"is_disabled":false,"rental_uris":{"android":"levelo://app?vid=78fd48ba-abd8-4a15-ba1b-14a4f873a0dd","ios":"levelo://app?vid=78fd48ba-abd8-4a15-ba1b-14a4f873a0dd"},"vehicle_type_id":"4","last_reported":1691086086,"current_range_meters":7600,"station_id":"","pricing_plan_id":"free"},{"bike_id":"649ea98c-2159-4f23-a9a8-5a1eb8957c08","system_id":"levelo_inurba_marseille","lat":43.299028,"lon":5.381509,"is_reserved":false,"is_disabled":false,"rental_uris":{"android":"levelo://app?vid=649ea98c-2159-4f23-a9a8-5a1eb8957c08","ios":"levelo://app?vid=649ea98c-2159-4f23-a9a8-5a1eb8957c08"},"vehicle_type_id":"4","last_reported":1691086086,"current_range_meters":12400,"station_id":"ce4bgj12rcd13ifvqbc0","pricing_plan_id":"free"},{"bike_id":"f0b1921d-8fc5-42f6-8214-26455e772ce5","system_id":"levelo_inurba_marseille","lat":43.309589,"lon":5.390258,"is_reserved":false,"is_disabled":false,"rental_uris":{"android":"levelo://app?vid=f0b1921d-8fc5-42f6-8214-26455e772ce5","ios":"levelo://app?vid=f0b1921d-8fc5-42f6-8214-26455e772ce5"},"vehicle_type_id":"4","last_reported":1691086086,"current_range_meters":26400,"station_id":"ce4bgup2rcd13ifvqco0","pricing_plan_id":"free"},{"bike_id":"8ec72eae-a285-4aa7-b946-82ce281afabc","system_id":"levelo_inurba_marseille","lat":43.299028,"lon":5.381509,"is_reserved":false,"is_disabled":false,"rental_uris":{"android":"levelo://app?vid=8ec72eae-a285-4aa7-b946-82ce281afabc","ios":"levelo://app?vid=8ec72eae-a285-4aa7-b946-82ce281afabc"},"vehicle_type_id":"4","last_reported":1691086086,"current_range_meters":28800,"station_id":"ce4bgj12rcd13ifvqbc0","pricing_plan_id":"free"},{"bike_id":"33e2c390-800e-493e-b560-bc238e79e704","system_id":"levelo_inurba_marseille","lat":43.317557,"lon":5.390173,"is_reserved":false,"is_disabled":false,"rental_uris":{"android":"levelo://app?vid=33e2c390-800e-493e-b560-bc238e79e704","ios":"levelo://app?vid=33e2c390-800e-493e-b560-bc238e79e704"},"vehicle_type_id":"4","last_reported":1691086086,"current_range_meters":6000,"station_id":"ce4bhqp2rcd13ifvqhng","pricing_plan_id":"free"},{"bike_id":"71d66042-7b4f-43a5-b8f7-a804822b5d5c","system_id":"levelo_inurba_marseille","lat":43.298037,"lon":5.381066,"is_reserved":false,"is_disabled":false,"rental_uris":{"android":"levelo://app?vid=71d66042-7b4f-43a5-b8f7-a804822b5d5c","ios":"levelo://app?vid=71d66042-7b4f-43a5-b8f7-a804822b5d5c"},"vehicle_type_id":"4","last_reported":1691086086,"current_range_meters":0,"station_id":"ce4bgip2rcd13ifvqbb0","pricing_plan_id":"free"},{"bike_id":"e6a19ff5-6f1c-4de7-871b-1777389f7dda","system_id":"levelo_inurba_marseille","lat":43.30434,"lon":5.38889,"is_reserved":false,"is_disabled":false,"rental_uris":{"android":"levelo://app?vid=e6a19ff5-6f1c-4de7-871b-1777389f7dda","ios":"levelo://app?vid=e6a19ff5-6f1c-4de7-871b-1777389f7dda"},"vehicle_type_id":"4","last_reported":1691086086,"current_range_meters":26000,"station_id":"ce4bgk12rcd13ifvqbi0","pricing_plan_id":"free"},{"bike_id":"0fafbf82-2876-4c2e-b72a-ae3330f91e82","system_id":"levelo_inurba_marseille","lat":43.296263,"lon":5.377094,"is_reserved":false,"is_disabled":false,"rental_uris":{"android":"levelo://app?vid=0fafbf82-2876-4c2e-b72a-ae3330f91e82","ios":"levelo://app?vid=0fafbf82-2876-4c2e-b72a-ae3330f91e82"},"vehicle_type_id":"4","last_reported":1691086086,"current_range_meters":19200,"station_id":"ce4bgi92rcd13ifvqb90","pricing_plan_id":"free"},{"bike_id":"0b677232-3dca-441a-a171-2a52e05ac698","system_id":"levelo_inurba_marseille","lat":43.296263,"lon":5.377094,"is_reserved":false,"is_disabled":false,"rental_uris":{"android":"levelo://app?vid=0b677232-3dca-441a-a171-2a52e05ac698","ios":"levelo://app?vid=0b677232-3dca-441a-a171-2a52e05ac698"},"vehicle_type_id":"4","last_reported":1691086086,"current_range_meters":0,"station_id":"ce4bgi92rcd13ifvqb90","pricing_plan_id":"free"},{"bike_id":"99c92a7d-d148-4347-9f51-3e98572bbf41","system_id":"levelo_inurba_marseille","lat":43.296263,"lon":5.377094,"is_reserved":false,"is_disabled":false,"rental_uris":{"android":"levelo://app?vid=99c92a7d-d148-4347-9f51-3e98572bbf41","ios":"levelo://app?vid=99c92a7d-d148-4347-9f51-3e98572bbf41"},"vehicle_type_id":"4","last_reported":1691086086,"current_range_meters":0,"station_id":"ce4bgi92rcd13ifvqb90","pricing_plan_id":"free"},{"bike_id":"59c640e4-1a10-4b78-ab87-84bbfcd07fcb","system_id":"levelo_inurba_marseille","lat":43.299707,"lon":5.384859,"is_reserved":false,"is_disabled":false,"rental_uris":{"android":"levelo://app?vid=59c640e4-1a10-4b78-ab87-84bbfcd07fcb","ios":"levelo://app?vid=59c640e4-1a10-4b78-ab87-84bbfcd07fcb"},"vehicle_type_id":"4","last_reported":1691086086,"current_range_meters":24400,"station_id":"ce4bgj92rcd13ifvqbd0","pricing_plan_id":"free"},{"bike_id":"f87ac942-0671-41a8-bd8c-c10a4e0d5f11","system_id":"levelo_inurba_marseille","lat":43.299717,"lon":5.384845,"is_reserved":false,"is_disabled":false,"rental_uris":{"android":"levelo://app?vid=f87ac942-0671-41a8-bd8c-c10a4e0d5f11","ios":"levelo://app?vid=f87ac942-0671-41a8-bd8c-c10a4e0d5f11"},"vehicle_type_id":"4","last_reported":1691086086,"current_range_meters":4400,"station_id":"ce4bgj92rcd13ifvqbd0","pricing_plan_id":"free"},{"bike_id":"6be534a9-96c6-4989-b3bb-e9dea76376c4","system_id":"levelo_inurba_marseille","lat":43.32372,"lon":5.38875,"is_reserved":false,"is_disabled":false,"rental_uris":{"android":"levelo://app?vid=6be534a9-96c6-4989-b3bb-e9dea76376c4","ios":"levelo://app?vid=6be534a9-96c6-4989-b3bb-e9dea76376c4"},"vehicle_type_id":"4","last_reported":1691086086,"current_range_meters":15600,"station_id":"ce4bhqp2rcd13ifvqhog","pricing_plan_id":"free"},{"bike_id":"189890d8-8efa-453b-b28a-9fdbd98ee26c","system_id":"levelo_inurba_marseille","lat":43.32367,"lon":5.388836,"is_reserved":false,"is_disabled":false,"rental_uris":{"android":"levelo://app?vid=189890d8-8efa-453b-b28a-9fdbd98ee26c","ios":"levelo://app?vid=189890d8-8efa-453b-b28a-9fdbd98ee26c"},"vehicle_type_id":"4","last_reported":1691086086,"current_range_meters":27200,"station_id":"ce4bhqp2rcd13ifvqhog","pricing_plan_id":"free"},{"bike_id":"83e40035-5ae5-4bb2-89ae-adf2ef147026","system_id":"levelo_inurba_marseille","lat":43.323676,"lon":5.388816,"is_reserved":false,"is_disabled":false,"rental_uris":{"android":"levelo://app?vid=83e40035-5ae5-4bb2-89ae-adf2ef147026","ios":"levelo://app?vid=83e40035-5ae5-4bb2-89ae-adf2ef147026"},"vehicle_type_id":"4","last_reported":1691086086,"current_range_meters":14400,"station_id":"","pricing_plan_id":"free"},{"bike_id":"660de016-7b00-4735-9d75-3ae99d5de62d","system_id":"levelo_inurba_marseille","lat":43.32369,"lon":5.38881,"is_reserved":false,"is_disabled":false,"rental_uris":{"android":"levelo://app?vid=660de016-7b00-4735-9d75-3ae99d5de62d","ios":"levelo://app?vid=660de016-7b00-4735-9d75-3ae99d5de62d"},"vehicle_type_id":"4","last_reported":1691086086,"current_range_meters":30400,"station_id":"ce4bhqp2rcd13ifvqhog","pricing_plan_id":"free"},{"bike_id":"7154d3ad-ad6b-4944-bfc7-6e5928c37915","system_id":"levelo_inurba_marseille","lat":43.29601,"lon":5.381084,"is_reserved":false,"is_disabled":false,"rental_uris":{"android":"levelo://app?vid=7154d3ad-ad6b-4944-bfc7-6e5928c37915","ios":"levelo://app?vid=7154d3ad-ad6b-4944-bfc7-6e5928c37915"},"vehicle_type_id":"4","last_reported":1691086086,"current_range_meters":3600,"station_id":"ce4bgl12rcd13ifvqbo0","pricing_plan_id":"free"},{"bike_id":"dedef24d-e63e-4527-bc89-3ae0e6953e76","system_id":"levelo_inurba_marseille","lat":43.293249,"lon":5.371578,"is_reserved":false,"is_disabled":false,"rental_uris":{"android":"levelo://app?vid=dedef24d-e63e-4527-bc89-3ae0e6953e76","ios":"levelo://app?vid=dedef24d-e63e-4527-bc89-3ae0e6953e76"},"vehicle_type_id":"4","last_reported":1691086086,"current_range_meters":26800,"station_id":"ce4bgh92rcd13ifvqb40","pricing_plan_id":"free"},{"bike_id":"5df38b53-8926-48fb-abc8-c7db1567f153","system_id":"levelo_inurba_marseille","lat":43.292749,"lon":5.368398,"is_reserved":false,"is_disabled":false,"rental_uris":{"android":"levelo://app?vid=5df38b53-8926-48fb-abc8-c7db1567f153","ios":"levelo://app?vid=5df38b53-8926-48fb-abc8-c7db1567f153"},"vehicle_type_id":"4","last_reported":1691086086,"current_range_meters":20000,"station_id":"ce4bhbp2rcd13ifvqesg","pricing_plan_id":"free"},{"bike_id":"98288bec-fb60-4997-ad65-c1c2848ced51","system_id":"levelo_inurba_marseille","lat":43.292749,"lon":5.368398,"is_reserved":false,"is_disabled":false,"rental_uris":{"android":"levelo://app?vid=98288bec-fb60-4997-ad65-c1c2848ced51","ios":"levelo://app?vid=98288bec-fb60-4997-ad65-c1c2848ced51"},"vehicle_type_id":"4","last_reported":1691086086,"current_range_meters":6400,"station_id":"ce4bhbp2rcd13ifvqesg","pricing_plan_id":"free"},{"bike_id":"1b6b5217-f8c7-4652-abde-471c88c5c8bc","system_id":"levelo_inurba_marseille","lat":43.293249,"lon":5.371578,"is_reserved":false,"is_disabled":false,"rental_uris":{"android":"levelo://app?vid=1b6b5217-f8c7-4652-abde-471c88c5c8bc","ios":"levelo://app?vid=1b6b5217-f8c7-4652-abde-471c88c5c8bc"},"vehicle_type_id":"4","last_reported":1691086086,"current_range_meters":0,"station_id":"ce4bgh92rcd13ifvqb40","pricing_plan_id":"free"},{"bike_id":"e7e83115-98ca-4e2d-b8bb-41f625b01d6c","system_id":"levelo_inurba_marseille","lat":43.29303,"lon":5.37176,"is_reserved":false,"is_disabled":false,"rental_uris":{"android":"levelo://app?vid=e7e83115-98ca-4e2d-b8bb-41f625b01d6c","ios":"levelo://app?vid=e7e83115-98ca-4e2d-b8bb-41f625b01d6c"},"vehicle_type_id":"4","last_reported":1691086086,"current_range_meters":4400,"station_id":"ce4bgh92rcd13ifvqb40","pricing_plan_id":"free"},{"bike_id":"54d3fa06-d662-44b9-b7ae-c8e14f684c78","system_id":"levelo_inurba_marseille","lat":43.292749,"lon":5.368402,"is_reserved":false,"is_disabled":false,"rental_uris":{"android":"levelo://app?vid=54d3fa06-d662-44b9-b7ae-c8e14f684c78","ios":"levelo://app?vid=54d3fa06-d662-44b9-b7ae-c8e14f684c78"},"vehicle_type_id":"4","last_reported":1691086086,"current_range_meters":22000,"station_id":"ce4bhbp2rcd13ifvqesg","pricing_plan_id":"free"},{"bike_id":"8ce7f223-05b0-47e0-a9ce-be1687dad5c9","system_id":"levelo_inurba_marseille","lat":43.292749,"lon":5.368402,"is_reserved":false,"is_disabled":false,"rental_uris":{"android":"levelo://app?vid=8ce7f223-05b0-47e0-a9ce-be1687dad5c9","ios":"levelo://app?vid=8ce7f223-05b0-47e0-a9ce-be1687dad5c9"},"vehicle_type_id":"4","last_reported":1691086086,"current_range_meters":7600,"station_id":"ce4bhbp2rcd13ifvqesg","pricing_plan_id":"free"},{"bike_id":"94277217-1ded-4dac-b904-180678f3398c","system_id":"levelo_inurba_marseille","lat":43.292749,"lon":5.368402,"is_reserved":false,"is_disabled":false,"rental_uris":{"android":"levelo://app?vid=94277217-1ded-4dac-b904-180678f3398c","ios":"levelo://app?vid=94277217-1ded-4dac-b904-180678f3398c"},"vehicle_type_id":"4","last_reported":1691086086,"current_range_meters":0,"station_id":"ce4bhbp2rcd13ifvqesg","pricing_plan_id":"free"},{"bike_id":"fd23527a-57bc-4180-a612-e94b6a1844be","system_id":"levelo_inurba_marseille","lat":43.29298,"lon":5.37173,"is_reserved":false,"is_disabled":false,"rental_uris":{"android":"levelo://app?vid=fd23527a-57bc-4180-a612-e94b6a1844be","ios":"levelo://app?vid=fd23527a-57bc-4180-a612-e94b6a1844be"},"vehicle_type_id":"4","last_reported":1691086086,"current_range_meters":14000,"station_id":"ce4bgh92rcd13ifvqb40","pricing_plan_id":"free"},{"bike_id":"9d11b554-bfa6-4b2a-8864-dca73bb302de","system_id":"levelo_inurba_marseille","lat":43.293009,"lon":5.374584,"is_reserved":false,"is_disabled":false,"rental_uris":{"android":"levelo://app?vid=9d11b554-bfa6-4b2a-8864-dca73bb302de","ios":"levelo://app?vid=9d11b554-bfa6-4b2a-8864-dca73bb302de"},"vehicle_type_id":"4","last_reported":1691086086,"current_range_meters":22400,"station_id":"ce4bgi12rcd13ifvqb70","pricing_plan_id":"free"},{"bike_id":"bc0a19d9-2524-45a8-b594-bb01b46f7c08","system_id":"levelo_inurba_marseille","lat":43.293009,"lon":5.374584,"is_reserved":false,"is_disabled":false,"rental_uris":{"android":"levelo://app?vid=bc0a19d9-2524-45a8-b594-bb01b46f7c08","ios":"levelo://app?vid=bc0a19d9-2524-45a8-b594-bb01b46f7c08"},"vehicle_type_id":"4","last_reported":1691086086,"current_range_meters":12000,"station_id":"ce4bgi12rcd13ifvqb70","pricing_plan_id":"free"},{"bike_id":"dee31022-c3c5-4650-8f1f-ba5768431f96","system_id":"levelo_inurba_marseille","lat":43.293009,"lon":5.374584,"is_reserved":false,"is_disabled":false,"rental_uris":{"android":"levelo://app?vid=dee31022-c3c5-4650-8f1f-ba5768431f96","ios":"levelo://app?vid=dee31022-c3c5-4650-8f1f-ba5768431f96"},"vehicle_type_id":"4","last_reported":1691086086,"current_range_meters":26000,"station_id":"ce4bgi12rcd13ifvqb70","pricing_plan_id":"free"},{"bike_id":"27ddadc9-2245-41a3-81dc-34d2d4e16ded","system_id":"levelo_inurba_marseille","lat":43.305994,"lon":5.393687,"is_reserved":false,"is_disabled":false,"rental_uris":{"android":"levelo://app?vid=27ddadc9-2245-41a3-81dc-34d2d4e16ded","ios":"levelo://app?vid=27ddadc9-2245-41a3-81dc-34d2d4e16ded"},"vehicle_type_id":"4","last_reported":1691086086,"current_range_meters":1600,"station_id":"ce4bh0p2rcd13ifvqd80","pricing_plan_id":"free"},{"bike_id":"356164bd-659d-45d3-903a-7a17f247cea3","system_id":"levelo_inurba_marseille","lat":43.303,"lon":5.39206,"is_reserved":false,"is_disabled":false,"rental_uris":{"android":"levelo://app?vid=356164bd-659d-45d3-903a-7a17f247cea3","ios":"levelo://app?vid=356164bd-659d-45d3-903a-7a17f247cea3"},"vehicle_type_id":"4","last_reported":1691086086,"current_range_meters":400,"station_id":"ce4bgkh2rcd13ifvqbk0","pricing_plan_id":"free"},{"bike_id":"63306864-707a-4db8-86ab-477d25d357c4","system_id":"levelo_inurba_marseille","lat":43.30299,"lon":5.39209,"is_reserved":false,"is_disabled":false,"rental_uris":{"android":"levelo://app?vid=63306864-707a-4db8-86ab-477d25d357c4","ios":"levelo://app?vid=63306864-707a-4db8-86ab-477d25d357c4"},"vehicle_type_id":"4","last_reported":1691086086,"current_range_meters":22400,"station_id":"ce4bgkh2rcd13ifvqbk0","pricing_plan_id":"free"},{"bike_id":"e2170111-3e16-4a51-b5a4-aa6a468f1362","system_id":"levelo_inurba_marseille","lat":43.2936,"lon":5.37835,"is_reserved":false,"is_disabled":false,"rental_uris":{"android":"levelo://app?vid=e2170111-3e16-4a51-b5a4-aa6a468f1362","ios":"levelo://app?vid=e2170111-3e16-4a51-b5a4-aa6a468f1362"},"vehicle_type_id":"4","last_reported":1691086086,"current_range_meters":22000,"station_id":"ce4bgjh2rcd13ifvqbf0","pricing_plan_id":"free"},{"bike_id":"450a3f73-3a85-4778-9b37-0662d751cc81","system_id":"levelo_inurba_marseille","lat":43.292311,"lon":5.360731,"is_reserved":false,"is_disabled":false,"rental_uris":{"android":"levelo://app?vid=450a3f73-3a85-4778-9b37-0662d751cc81","ios":"levelo://app?vid=450a3f73-3a85-4778-9b37-0662d751cc81"},"vehicle_type_id":"4","last_reported":1691086086,"current_range_meters":12000,"station_id":"ce4bhbh2rcd13ifvqeqg","pricing_plan_id":"free"},{"bike_id":"008aa7eb-ba61-44ed-9736-15259fd04f05","system_id":"levelo_inurba_marseille","lat":43.292311,"lon":5.360731,"is_reserved":false,"is_disabled":false,"rental_uris":{"android":"levelo://app?vid=008aa7eb-ba61-44ed-9736-15259fd04f05","ios":"levelo://app?vid=008aa7eb-ba61-44ed-9736-15259fd04f05"},"vehicle_type_id":"4","last_reported":1691086086,"current_range_meters":23600,"station_id":"ce4bhbh2rcd13ifvqeqg","pricing_plan_id":"free"},{"bike_id":"c434af0f-0f85-4754-b095-390be876f2b8","system_id":"levelo_inurba_marseille","lat":43.300852,"lon":5.390859,"is_reserved":false,"is_disabled":false,"rental_uris":{"android":"levelo://app?vid=c434af0f-0f85-4754-b095-390be876f2b8","ios":"levelo://app?vid=c434af0f-0f85-4754-b095-390be876f2b8"},"vehicle_type_id":"4","last_reported":1691086086,"current_range_meters":22000,"station_id":"ce4bh192rcd13ifvqdb0","pricing_plan_id":"free"},{"bike_id":"fdf33086-b990-4c9a-b611-9d82ddb585a8","system_id":"levelo_inurba_marseille","lat":43.292311,"lon":5.360731,"is_reserved":false,"is_disabled":false,"rental_uris":{"android":"levelo://app?vid=fdf33086-b990-4c9a-b611-9d82ddb585a8","ios":"levelo://app?vid=fdf33086-b990-4c9a-b611-9d82ddb585a8"},"vehicle_type_id":"4","last_reported":1691086086,"current_range_meters":1200,"station_id":"ce4bhbh2rcd13ifvqeqg","pricing_plan_id":"free"},{"bike_id":"aee6b602-d3a3-4721-abb0-9f7b72330a80","system_id":"levelo_inurba_marseille","lat":43.291671,"lon":5.371575,"is_reserved":false,"is_disabled":false,"rental_uris":{"android":"levelo://app?vid=aee6b602-d3a3-4721-abb0-9f7b72330a80","ios":"levelo://app?vid=aee6b602-d3a3-4721-abb0-9f7b72330a80"},"vehicle_type_id":"4","last_reported":1691086086,"current_range_meters":7200,"station_id":"ce4bha92rcd13ifvqeh0","pricing_plan_id":"free"},{"bike_id":"5e101bd9-e8e6-48ab-9677-fc003774cbe4","system_id":"levelo_inurba_marseille","lat":43.291675,"lon":5.371583,"is_reserved":false,"is_disabled":false,"rental_uris":{"android":"levelo://app?vid=5e101bd9-e8e6-48ab-9677-fc003774cbe4","ios":"levelo://app?vid=5e101bd9-e8e6-48ab-9677-fc003774cbe4"},"vehicle_type_id":"4","last_reported":1691086086,"current_range_meters":28800,"station_id":"ce4bha92rcd13ifvqeh0","pricing_plan_id":"free"},{"bike_id":"e12914bc-d32e-46ea-b82a-85f4d0beec9d","system_id":"levelo_inurba_marseille","lat":43.29195,"lon":5.35805,"is_reserved":false,"is_disabled":false,"rental_uris":{"android":"levelo://app?vid=e12914bc-d32e-46ea-b82a-85f4d0beec9d","ios":"levelo://app?vid=e12914bc-d32e-46ea-b82a-85f4d0beec9d"},"vehicle_type_id":"4","last_reported":1691086086,"current_range_meters":19200,"station_id":"ce4bhb12rcd13ifvqel0","pricing_plan_id":"free"},{"bike_id":"d2d3efb0-f8cd-42db-8e9b-aff7c4588096","system_id":"levelo_inurba_marseille","lat":43.29191,"lon":5.35802,"is_reserved":false,"is_disabled":false,"rental_uris":{"android":"levelo://app?vid=d2d3efb0-f8cd-42db-8e9b-aff7c4588096","ios":"levelo://app?vid=d2d3efb0-f8cd-42db-8e9b-aff7c4588096"},"vehicle_type_id":"4","last_reported":1691086086,"current_range_meters":5200,"station_id":"ce4bhb12rcd13ifvqel0","pricing_plan_id":"free"},{"bike_id":"01111059-7289-417f-afc8-d7a3aff5cb16","system_id":"levelo_inurba_marseille","lat":43.29187,"lon":5.35796,"is_reserved":false,"is_disabled":false,"rental_uris":{"android":"levelo://app?vid=01111059-7289-417f-afc8-d7a3aff5cb16","ios":"levelo://app?vid=01111059-7289-417f-afc8-d7a3aff5cb16"},"vehicle_type_id":"4","last_reported":1691086086,"current_range_meters":21600,"station_id":"ce4bhb12rcd13ifvqel0","pricing_plan_id":"free"},{"bike_id":"a0bea851-2c36-4bbc-907f-071100d84dd8","system_id":"levelo_inurba_marseille","lat":43.29186,"lon":5.35789,"is_reserved":false,"is_disabled":false,"rental_uris":{"android":"levelo://app?vid=a0bea851-2c36-4bbc-907f-071100d84dd8","ios":"levelo://app?vid=a0bea851-2c36-4bbc-907f-071100d84dd8"},"vehicle_type_id":"4","last_reported":1691086086,"current_range_meters":18000,"station_id":"ce4bhb12rcd13ifvqel0","pricing_plan_id":"free"},{"bike_id":"6d622c54-2b5c-4444-9919-773a018027d2","system_id":"levelo_inurba_marseille","lat":43.309038,"lon":5.396546,"is_reserved":false,"is_disabled":false,"rental_uris":{"android":"levelo://app?vid=6d622c54-2b5c-4444-9919-773a018027d2","ios":"levelo://app?vid=6d622c54-2b5c-4444-9919-773a018027d2"},"vehicle_type_id":"4","last_reported":1691086086,"current_range_meters":8400,"station_id":"ce4bh012rcd13ifvqcv0","pricing_plan_id":"free"},{"bike_id":"313530bc-186f-4fda-acb6-b8e1bd539f49","system_id":"levelo_inurba_marseille","lat":43.30889,"lon":5.39663,"is_reserved":false,"is_disabled":false,"rental_uris":{"android":"levelo://app?vid=313530bc-186f-4fda-acb6-b8e1bd539f49","ios":"levelo://app?vid=313530bc-186f-4fda-acb6-b8e1bd539f49"},"vehicle_type_id":"4","last_reported":1691086086,"current_range_meters":0,"station_id":"ce4bh012rcd13ifvqcv0","pricing_plan_id":"free"},{"bike_id":"1c141d3a-c2e3-4623-a1ca-17654eea3385","system_id":"levelo_inurba_marseille","lat":43.29529,"lon":5.385581,"is_reserved":false,"is_disabled":false,"rental_uris":{"android":"levelo://app?vid=1c141d3a-c2e3-4623-a1ca-17654eea3385","ios":"levelo://app?vid=1c141d3a-c2e3-4623-a1ca-17654eea3385"},"vehicle_type_id":"4","last_reported":1691086086,"current_range_meters":19600,"station_id":"ce4bgih2rcd13ifvqba0","pricing_plan_id":"free"},{"bike_id":"74283971-371e-4925-91e3-0dcf8316883b","system_id":"levelo_inurba_marseille","lat":43.29529,"lon":5.385581,"is_reserved":false,"is_disabled":false,"rental_uris":{"android":"levelo://app?vid=74283971-371e-4925-91e3-0dcf8316883b","ios":"levelo://app?vid=74283971-371e-4925-91e3-0dcf8316883b"},"vehicle_type_id":"4","last_reported":1691086086,"current_range_meters":29600,"station_id":"ce4bgih2rcd13ifvqba0","pricing_plan_id":"free"},{"bike_id":"b2fa99d5-f154-4d3c-bee5-af3e6f8f664f","system_id":"levelo_inurba_marseille","lat":43.302008,"lon":5.394694,"is_reserved":false,"is_disabled":false,"rental_uris":{"android":"levelo://app?vid=b2fa99d5-f154-4d3c-bee5-af3e6f8f664f","ios":"levelo://app?vid=b2fa99d5-f154-4d3c-bee5-af3e6f8f664f"},"vehicle_type_id":"4","last_reported":1691086086,"current_range_meters":12800,"station_id":"ce4bh0p2rcd13ifvqd70","pricing_plan_id":"free"},{"bike_id":"053376ec-a0bc-4485-8815-598b76d04d23","system_id":"levelo_inurba_marseille","lat":43.290327,"lon":5.375711,"is_reserved":false,"is_disabled":false,"rental_uris":{"android":"levelo://app?vid=053376ec-a0bc-4485-8815-598b76d04d23","ios":"levelo://app?vid=053376ec-a0bc-4485-8815-598b76d04d23"},"vehicle_type_id":"4","last_reported":1691086086,"current_range_meters":0,"station_id":"ce4bh692rcd13ifvqe90","pricing_plan_id":"free"},{"bike_id":"dcb5103a-169c-42d1-a6b9-73277159cd3a","system_id":"levelo_inurba_marseille","lat":43.28944,"lon":5.36646,"is_reserved":false,"is_disabled":false,"rental_uris":{"android":"levelo://app?vid=dcb5103a-169c-42d1-a6b9-73277159cd3a","ios":"levelo://app?vid=dcb5103a-169c-42d1-a6b9-73277159cd3a"},"vehicle_type_id":"4","last_reported":1691086086,"current_range_meters":4800,"station_id":"ce4bhap2rcd13ifvqek0","pricing_plan_id":"free"},{"bike_id":"4e0cd7d1-dfa9-4549-9fcd-16bbb2d90db0","system_id":"levelo_inurba_marseille","lat":43.290327,"lon":5.375711,"is_reserved":false,"is_disabled":false,"rental_uris":{"android":"levelo://app?vid=4e0cd7d1-dfa9-4549-9fcd-16bbb2d90db0","ios":"levelo://app?vid=4e0cd7d1-dfa9-4549-9fcd-16bbb2d90db0"},"vehicle_type_id":"4","last_reported":1691086086,"current_range_meters":3200,"station_id":"ce4bh692rcd13ifvqe90","pricing_plan_id":"free"},{"bike_id":"d517aeb0-a40f-41cd-98c7-7bf9231c5315","system_id":"levelo_inurba_marseille","lat":43.2894,"lon":5.36626,"is_reserved":false,"is_disabled":false,"rental_uris":{"android":"levelo://app?vid=d517aeb0-a40f-41cd-98c7-7bf9231c5315","ios":"levelo://app?vid=d517aeb0-a40f-41cd-98c7-7bf9231c5315"},"vehicle_type_id":"4","last_reported":1691086086,"current_range_meters":31200,"station_id":"ce4bhap2rcd13ifvqek0","pricing_plan_id":"free"},{"bike_id":"fe81016e-e13a-4794-9512-b5cb39f0e6b9","system_id":"levelo_inurba_marseille","lat":43.28938,"lon":5.36628,"is_reserved":false,"is_disabled":false,"rental_uris":{"android":"levelo://app?vid=fe81016e-e13a-4794-9512-b5cb39f0e6b9","ios":"levelo://app?vid=fe81016e-e13a-4794-9512-b5cb39f0e6b9"},"vehicle_type_id":"4","last_reported":1691086086,"current_range_meters":31200,"station_id":"ce4bhap2rcd13ifvqek0","pricing_plan_id":"free"},{"bike_id":"e0ac4ef2-8a49-4897-9ddf-8ee23c37014e","system_id":"levelo_inurba_marseille","lat":43.28937,"lon":5.36636,"is_reserved":false,"is_disabled":false,"rental_uris":{"android":"levelo://app?vid=e0ac4ef2-8a49-4897-9ddf-8ee23c37014e","ios":"levelo://app?vid=e0ac4ef2-8a49-4897-9ddf-8ee23c37014e"},"vehicle_type_id":"4","last_reported":1691086086,"current_range_meters":0,"station_id":"","pricing_plan_id":"free"},{"bike_id":"60eb4eee-7b42-4ac8-acf4-d476abd33762","system_id":"levelo_inurba_marseille","lat":43.289184,"lon":5.366408,"is_reserved":false,"is_disabled":false,"rental_uris":{"android":"levelo://app?vid=60eb4eee-7b42-4ac8-acf4-d476abd33762","ios":"levelo://app?vid=60eb4eee-7b42-4ac8-acf4-d476abd33762"},"vehicle_type_id":"4","last_reported":1691086086,"current_range_meters":28000,"station_id":"ce4bhap2rcd13ifvqek0","pricing_plan_id":"free"},{"bike_id":"03a36d72-7793-4ac2-8d1e-63b25b3fd42e","system_id":"levelo_inurba_marseille","lat":43.289184,"lon":5.366408,"is_reserved":false,"is_disabled":false,"rental_uris":{"android":"levelo://app?vid=03a36d72-7793-4ac2-8d1e-63b25b3fd42e","ios":"levelo://app?vid=03a36d72-7793-4ac2-8d1e-63b25b3fd42e"},"vehicle_type_id":"4","last_reported":1691086086,"current_range_meters":6000,"station_id":"ce4bhap2rcd13ifvqek0","pricing_plan_id":"free"},{"bike_id":"83af983d-2e8b-45cc-b747-03baf1833e35","system_id":"levelo_inurba_marseille","lat":43.289184,"lon":5.366408,"is_reserved":false,"is_disabled":false,"rental_uris":{"android":"levelo://app?vid=83af983d-2e8b-45cc-b747-03baf1833e35","ios":"levelo://app?vid=83af983d-2e8b-45cc-b747-03baf1833e35"},"vehicle_type_id":"4","last_reported":1691086086,"current_range_meters":27600,"station_id":"ce4bhap2rcd13ifvqek0","pricing_plan_id":"free"},{"bike_id":"f8984aaf-c41a-4b06-b173-51d1950446b3","system_id":"levelo_inurba_marseille","lat":43.289468,"lon":5.363719,"is_reserved":false,"is_disabled":false,"rental_uris":{"android":"levelo://app?vid=f8984aaf-c41a-4b06-b173-51d1950446b3","ios":"levelo://app?vid=f8984aaf-c41a-4b06-b173-51d1950446b3"},"vehicle_type_id":"4","last_reported":1691086086,"current_range_meters":24000,"station_id":"ce4bhc92rcd13ifvqetg","pricing_plan_id":"free"},{"bike_id":"afb9ad20-54ce-47aa-b696-725d28502e40","system_id":"levelo_inurba_marseille","lat":43.304296,"lon":5.397513,"is_reserved":false,"is_disabled":false,"rental_uris":{"android":"levelo://app?vid=afb9ad20-54ce-47aa-b696-725d28502e40","ios":"levelo://app?vid=afb9ad20-54ce-47aa-b696-725d28502e40"},"vehicle_type_id":"4","last_reported":1691086086,"current_range_meters":21600,"station_id":"ce4bh092rcd13ifvqd20","pricing_plan_id":"free"},{"bike_id":"1222c2a3-6946-4e10-b69b-328e01e52993","system_id":"levelo_inurba_marseille","lat":43.304274,"lon":5.397513,"is_reserved":false,"is_disabled":false,"rental_uris":{"android":"levelo://app?vid=1222c2a3-6946-4e10-b69b-328e01e52993","ios":"levelo://app?vid=1222c2a3-6946-4e10-b69b-328e01e52993"},"vehicle_type_id":"4","last_reported":1691086086,"current_range_meters":22000,"station_id":"ce4bh092rcd13ifvqd20","pricing_plan_id":"free"},{"bike_id":"f67edc25-bcc7-41fb-8431-1add679b0933","system_id":"levelo_inurba_marseille","lat":43.33043,"lon":5.38914,"is_reserved":false,"is_disabled":false,"rental_uris":{"android":"levelo://app?vid=f67edc25-bcc7-41fb-8431-1add679b0933","ios":"levelo://app?vid=f67edc25-bcc7-41fb-8431-1add679b0933"},"vehicle_type_id":"4","last_reported":1691086086,"current_range_meters":24000,"station_id":"ce4bhr92rcd13ifvqhrg","pricing_plan_id":"free"},{"bike_id":"00b2dcdc-2882-40a1-9132-89c3ec15cf18","system_id":"levelo_inurba_marseille","lat":43.33047,"lon":5.38909,"is_reserved":false,"is_disabled":false,"rental_uris":{"android":"levelo://app?vid=00b2dcdc-2882-40a1-9132-89c3ec15cf18","ios":"levelo://app?vid=00b2dcdc-2882-40a1-9132-89c3ec15cf18"},"vehicle_type_id":"4","last_reported":1691086086,"current_range_meters":23200,"station_id":"ce4bhr92rcd13ifvqhrg","pricing_plan_id":"free"},{"bike_id":"2f2d42a2-8de0-405f-9429-d3eae654394c","system_id":"levelo_inurba_marseille","lat":43.33047,"lon":5.3891,"is_reserved":false,"is_disabled":false,"rental_uris":{"android":"levelo://app?vid=2f2d42a2-8de0-405f-9429-d3eae654394c","ios":"levelo://app?vid=2f2d42a2-8de0-405f-9429-d3eae654394c"},"vehicle_type_id":"4","last_reported":1691086086,"current_range_meters":25600,"station_id":"ce4bhr92rcd13ifvqhrg","pricing_plan_id":"free"},{"bike_id":"6345c1a8-c269-413e-9532-35e13af5b7e7","system_id":"levelo_inurba_marseille","lat":43.33045,"lon":5.38914,"is_reserved":false,"is_disabled":false,"rental_uris":{"android":"levelo://app?vid=6345c1a8-c269-413e-9532-35e13af5b7e7","ios":"levelo://app?vid=6345c1a8-c269-413e-9532-35e13af5b7e7"},"vehicle_type_id":"4","last_reported":1691086086,"current_range_meters":16400,"station_id":"ce4bhr92rcd13ifvqhrg","pricing_plan_id":"free"},{"bike_id":"976f718a-bfdb-4480-a757-e5b9a5d1a5d6","system_id":"levelo_inurba_marseille","lat":43.33045,"lon":5.38915,"is_reserved":false,"is_disabled":false,"rental_uris":{"android":"levelo://app?vid=976f718a-bfdb-4480-a757-e5b9a5d1a5d6","ios":"levelo://app?vid=976f718a-bfdb-4480-a757-e5b9a5d1a5d6"},"vehicle_type_id":"4","last_reported":1691086086,"current_range_meters":17600,"station_id":"ce4bhr92rcd13ifvqhrg","pricing_plan_id":"free"},{"bike_id":"6d7a21c0-d011-4b3a-b833-368a53f4f104","system_id":"levelo_inurba_marseille","lat":43.2901,"lon":5.35603,"is_reserved":false,"is_disabled":false,"rental_uris":{"android":"levelo://app?vid=6d7a21c0-d011-4b3a-b833-368a53f4f104","ios":"levelo://app?vid=6d7a21c0-d011-4b3a-b833-368a53f4f104"},"vehicle_type_id":"4","last_reported":1691086086,"current_range_meters":20400,"station_id":"ce4bhb92rcd13ifvqen0","pricing_plan_id":"free"},{"bike_id":"20cf3f6d-acf4-4653-bf24-baa04253f77a","system_id":"levelo_inurba_marseille","lat":43.33043,"lon":5.3892,"is_reserved":false,"is_disabled":false,"rental_uris":{"android":"levelo://app?vid=20cf3f6d-acf4-4653-bf24-baa04253f77a","ios":"levelo://app?vid=20cf3f6d-acf4-4653-bf24-baa04253f77a"},"vehicle_type_id":"4","last_reported":1691086086,"current_range_meters":22800,"station_id":"ce4bhr92rcd13ifvqhrg","pricing_plan_id":"free"},{"bike_id":"42e3f4b6-0b4d-448e-ab0d-2841a6cc7a99","system_id":"levelo_inurba_marseille","lat":43.290046,"lon":5.356108,"is_reserved":false,"is_disabled":false,"rental_uris":{"android":"levelo://app?vid=42e3f4b6-0b4d-448e-ab0d-2841a6cc7a99","ios":"levelo://app?vid=42e3f4b6-0b4d-448e-ab0d-2841a6cc7a99"},"vehicle_type_id":"4","last_reported":1691086086,"current_range_meters":2000,"station_id":"ce4bhb92rcd13ifvqen0","pricing_plan_id":"free"},{"bike_id":"97de7859-3c8c-46c1-9c74-2d74f83dd300","system_id":"levelo_inurba_marseille","lat":43.290026,"lon":5.356109,"is_reserved":false,"is_disabled":false,"rental_uris":{"android":"levelo://app?vid=97de7859-3c8c-46c1-9c74-2d74f83dd300","ios":"levelo://app?vid=97de7859-3c8c-46c1-9c74-2d74f83dd300"},"vehicle_type_id":"4","last_reported":1691086086,"current_range_meters":11600,"station_id":"","pricing_plan_id":"free"},{"bike_id":"153d7c49-98ac-441c-aec3-eb8f5070d3c0","system_id":"levelo_inurba_marseille","lat":43.29003,"lon":5.35603,"is_reserved":false,"is_disabled":false,"rental_uris":{"android":"levelo://app?vid=153d7c49-98ac-441c-aec3-eb8f5070d3c0","ios":"levelo://app?vid=153d7c49-98ac-441c-aec3-eb8f5070d3c0"},"vehicle_type_id":"4","last_reported":1691086086,"current_range_meters":13600,"station_id":"ce4bhb92rcd13ifvqen0","pricing_plan_id":"free"},{"bike_id":"37fa422d-921e-4578-ba0a-ec93fb2f7329","system_id":"levelo_inurba_marseille","lat":43.290995,"lon":5.381361,"is_reserved":false,"is_disabled":false,"rental_uris":{"android":"levelo://app?vid=37fa422d-921e-4578-ba0a-ec93fb2f7329","ios":"levelo://app?vid=37fa422d-921e-4578-ba0a-ec93fb2f7329"},"vehicle_type_id":"4","last_reported":1691086086,"current_range_meters":2000,"station_id":"ce4bh512rcd13ifvqe2g","pricing_plan_id":"free"},{"bike_id":"05bf2cc0-c80b-4d3b-9303-5cea93148e89","system_id":"levelo_inurba_marseille","lat":43.290995,"lon":5.381361,"is_reserved":false,"is_disabled":false,"rental_uris":{"android":"levelo://app?vid=05bf2cc0-c80b-4d3b-9303-5cea93148e89","ios":"levelo://app?vid=05bf2cc0-c80b-4d3b-9303-5cea93148e89"},"vehicle_type_id":"4","last_reported":1691086086,"current_range_meters":31200,"station_id":"ce4bh512rcd13ifvqe2g","pricing_plan_id":"free"},{"bike_id":"0749a617-1da6-473e-8e4f-c2341aab87a1","system_id":"levelo_inurba_marseille","lat":43.290995,"lon":5.381361,"is_reserved":false,"is_disabled":false,"rental_uris":{"android":"levelo://app?vid=0749a617-1da6-473e-8e4f-c2341aab87a1","ios":"levelo://app?vid=0749a617-1da6-473e-8e4f-c2341aab87a1"},"vehicle_type_id":"4","last_reported":1691086086,"current_range_meters":13600,"station_id":"ce4bh512rcd13ifvqe2g","pricing_plan_id":"free"},{"bike_id":"315ef358-c53e-43e1-8bf4-7e2e12036c41","system_id":"levelo_inurba_marseille","lat":43.295169,"lon":5.390426,"is_reserved":false,"is_disabled":false,"rental_uris":{"android":"levelo://app?vid=315ef358-c53e-43e1-8bf4-7e2e12036c41","ios":"levelo://app?vid=315ef358-c53e-43e1-8bf4-7e2e12036c41"},"vehicle_type_id":"4","last_reported":1691086086,"current_range_meters":5600,"station_id":"ce4bh3p2rcd13ifvqdp0","pricing_plan_id":"free"},{"bike_id":"72c76f4d-551e-4119-81b7-f2af69082cc6","system_id":"levelo_inurba_marseille","lat":43.295169,"lon":5.390426,"is_reserved":false,"is_disabled":false,"rental_uris":{"android":"levelo://app?vid=72c76f4d-551e-4119-81b7-f2af69082cc6","ios":"levelo://app?vid=72c76f4d-551e-4119-81b7-f2af69082cc6"},"vehicle_type_id":"4","last_reported":1691086086,"current_range_meters":30400,"station_id":"ce4bh3p2rcd13ifvqdp0","pricing_plan_id":"free"},{"bike_id":"3f2911fc-87c7-44ff-9919-1126f71d74c9","system_id":"levelo_inurba_marseille","lat":43.28856,"lon":5.358371,"is_reserved":false,"is_disabled":false,"rental_uris":{"android":"levelo://app?vid=3f2911fc-87c7-44ff-9919-1126f71d74c9","ios":"levelo://app?vid=3f2911fc-87c7-44ff-9919-1126f71d74c9"},"vehicle_type_id":"4","last_reported":1691086086,"current_range_meters":31200,"station_id":"ce4bhb12rcd13ifvqem0","pricing_plan_id":"free"},{"bike_id":"2a87a613-06c1-4649-99b0-7c4745c77deb","system_id":"levelo_inurba_marseille","lat":43.28856,"lon":5.358371,"is_reserved":false,"is_disabled":false,"rental_uris":{"android":"levelo://app?vid=2a87a613-06c1-4649-99b0-7c4745c77deb","ios":"levelo://app?vid=2a87a613-06c1-4649-99b0-7c4745c77deb"},"vehicle_type_id":"4","last_reported":1691086086,"current_range_meters":0,"station_id":"ce4bhb12rcd13ifvqem0","pricing_plan_id":"free"},{"bike_id":"322ed6b8-4230-4587-8ba5-5c05356ee443","system_id":"levelo_inurba_marseille","lat":43.28856,"lon":5.358371,"is_reserved":false,"is_disabled":false,"rental_uris":{"android":"levelo://app?vid=322ed6b8-4230-4587-8ba5-5c05356ee443","ios":"levelo://app?vid=322ed6b8-4230-4587-8ba5-5c05356ee443"},"vehicle_type_id":"4","last_reported":1691086086,"current_range_meters":28400,"station_id":"ce4bhb12rcd13ifvqem0","pricing_plan_id":"free"},{"bike_id":"9c99dd70-7ac1-46b8-aa41-e8323ba61f9c","system_id":"levelo_inurba_marseille","lat":43.31284,"lon":5.4017,"is_reserved":false,"is_disabled":false,"rental_uris":{"android":"levelo://app?vid=9c99dd70-7ac1-46b8-aa41-e8323ba61f9c","ios":"levelo://app?vid=9c99dd70-7ac1-46b8-aa41-e8323ba61f9c"},"vehicle_type_id":"4","last_reported":1691086086,"current_range_meters":30800,"station_id":"ce4bh092rcd13ifvqd30","pricing_plan_id":"free"},{"bike_id":"8438d24b-da67-48f5-828a-b6775c2d6dd9","system_id":"levelo_inurba_marseille","lat":43.290345,"lon":5.38646,"is_reserved":false,"is_disabled":false,"rental_uris":{"android":"levelo://app?vid=8438d24b-da67-48f5-828a-b6775c2d6dd9","ios":"levelo://app?vid=8438d24b-da67-48f5-828a-b6775c2d6dd9"},"vehicle_type_id":"4","last_reported":1691086086,"current_range_meters":10400,"station_id":"ce4bh4p2rcd13ifvqe0g","pricing_plan_id":"free"},{"bike_id":"1e195414-e278-488d-99b5-3f87f91acd85","system_id":"levelo_inurba_marseille","lat":43.30641,"lon":5.40067,"is_reserved":false,"is_disabled":false,"rental_uris":{"android":"levelo://app?vid=1e195414-e278-488d-99b5-3f87f91acd85","ios":"levelo://app?vid=1e195414-e278-488d-99b5-3f87f91acd85"},"vehicle_type_id":"4","last_reported":1691086086,"current_range_meters":4800,"station_id":"ce4bh112rcd13ifvqda0","pricing_plan_id":"free"},{"bike_id":"52c80305-6095-4d42-ab27-1eb5f32245b0","system_id":"levelo_inurba_marseille","lat":43.30648,"lon":5.40074,"is_reserved":false,"is_disabled":false,"rental_uris":{"android":"levelo://app?vid=52c80305-6095-4d42-ab27-1eb5f32245b0","ios":"levelo://app?vid=52c80305-6095-4d42-ab27-1eb5f32245b0"},"vehicle_type_id":"4","last_reported":1691086086,"current_range_meters":14400,"station_id":"ce4bh112rcd13ifvqda0","pricing_plan_id":"free"},{"bike_id":"f93ccc5b-20a6-4fdb-af97-4cd24d1176fe","system_id":"levelo_inurba_marseille","lat":43.312752,"lon":5.401844,"is_reserved":false,"is_disabled":false,"rental_uris":{"android":"levelo://app?vid=f93ccc5b-20a6-4fdb-af97-4cd24d1176fe","ios":"levelo://app?vid=f93ccc5b-20a6-4fdb-af97-4cd24d1176fe"},"vehicle_type_id":"4","last_reported":1691086086,"current_range_meters":31200,"station_id":"ce4bh092rcd13ifvqd30","pricing_plan_id":"free"},{"bike_id":"c362f180-c83b-4db0-a71e-a921d98d45a3","system_id":"levelo_inurba_marseille","lat":43.33758,"lon":5.37487,"is_reserved":false,"is_disabled":false,"rental_uris":{"android":"levelo://app?vid=c362f180-c83b-4db0-a71e-a921d98d45a3","ios":"levelo://app?vid=c362f180-c83b-4db0-a71e-a921d98d45a3"},"vehicle_type_id":"4","last_reported":1691086086,"current_range_meters":27600,"station_id":"","pricing_plan_id":"free"},{"bike_id":"c30a4dd6-5a39-4140-a041-8c09c2e708f4","system_id":"levelo_inurba_marseille","lat":43.311364,"lon":5.40226,"is_reserved":false,"is_disabled":false,"rental_uris":{"android":"levelo://app?vid=c30a4dd6-5a39-4140-a041-8c09c2e708f4","ios":"levelo://app?vid=c30a4dd6-5a39-4140-a041-8c09c2e708f4"},"vehicle_type_id":"4","last_reported":1691086086,"current_range_meters":7200,"station_id":"","pricing_plan_id":"free"},{"bike_id":"75199276-b705-4ad7-b6a9-49aeaa84628a","system_id":"levelo_inurba_marseille","lat":43.286591,"lon":5.363346,"is_reserved":false,"is_disabled":false,"rental_uris":{"android":"levelo://app?vid=75199276-b705-4ad7-b6a9-49aeaa84628a","ios":"levelo://app?vid=75199276-b705-4ad7-b6a9-49aeaa84628a"},"vehicle_type_id":"4","last_reported":1691086086,"current_range_meters":31200,"station_id":"ce4bhah2rcd13ifvqej0","pricing_plan_id":"free"},{"bike_id":"f09c4dcc-db04-4636-a291-1f280c5ab2c3","system_id":"levelo_inurba_marseille","lat":43.286961,"lon":5.373785,"is_reserved":false,"is_disabled":false,"rental_uris":{"android":"levelo://app?vid=f09c4dcc-db04-4636-a291-1f280c5ab2c3","ios":"levelo://app?vid=f09c4dcc-db04-4636-a291-1f280c5ab2c3"},"vehicle_type_id":"4","last_reported":1691086086,"current_range_meters":24800,"station_id":"ce4bh3p2rcd13ifvqdq0","pricing_plan_id":"free"},{"bike_id":"5f09d22e-696d-479c-a258-50293c9e8215","system_id":"levelo_inurba_marseille","lat":43.28665,"lon":5.36357,"is_reserved":false,"is_disabled":false,"rental_uris":{"android":"levelo://app?vid=5f09d22e-696d-479c-a258-50293c9e8215","ios":"levelo://app?vid=5f09d22e-696d-479c-a258-50293c9e8215"},"vehicle_type_id":"4","last_reported":1691086086,"current_range_meters":16400,"station_id":"ce4bhah2rcd13ifvqej0","pricing_plan_id":"free"},{"bike_id":"109088f9-bafb-4246-9747-fb69fb15e7d0","system_id":"levelo_inurba_marseille","lat":43.286961,"lon":5.373785,"is_reserved":false,"is_disabled":false,"rental_uris":{"android":"levelo://app?vid=109088f9-bafb-4246-9747-fb69fb15e7d0","ios":"levelo://app?vid=109088f9-bafb-4246-9747-fb69fb15e7d0"},"vehicle_type_id":"4","last_reported":1691086086,"current_range_meters":22000,"station_id":"ce4bh3p2rcd13ifvqdq0","pricing_plan_id":"free"},{"bike_id":"2d911d47-a9b7-4025-b874-8c336537c1f8","system_id":"levelo_inurba_marseille","lat":43.28663,"lon":5.36345,"is_reserved":false,"is_disabled":false,"rental_uris":{"android":"levelo://app?vid=2d911d47-a9b7-4025-b874-8c336537c1f8","ios":"levelo://app?vid=2d911d47-a9b7-4025-b874-8c336537c1f8"},"vehicle_type_id":"4","last_reported":1691086086,"current_range_meters":15200,"station_id":"ce4bhah2rcd13ifvqej0","pricing_plan_id":"free"},{"bike_id":"ed2753c6-8e2c-42ac-8b1d-99fdc9ebce59","system_id":"levelo_inurba_marseille","lat":43.28661,"lon":5.36344,"is_reserved":false,"is_disabled":false,"rental_uris":{"android":"levelo://app?vid=ed2753c6-8e2c-42ac-8b1d-99fdc9ebce59","ios":"levelo://app?vid=ed2753c6-8e2c-42ac-8b1d-99fdc9ebce59"},"vehicle_type_id":"4","last_reported":1691086086,"current_range_meters":26800,"station_id":"ce4bhah2rcd13ifvqej0","pricing_plan_id":"free"},{"bike_id":"7385bc46-b9f7-4e0f-8315-92f0fbf35b2f","system_id":"levelo_inurba_marseille","lat":43.28661,"lon":5.36344,"is_reserved":false,"is_disabled":false,"rental_uris":{"android":"levelo://app?vid=7385bc46-b9f7-4e0f-8315-92f0fbf35b2f","ios":"levelo://app?vid=7385bc46-b9f7-4e0f-8315-92f0fbf35b2f"},"vehicle_type_id":"4","last_reported":1691086086,"current_range_meters":2800,"station_id":"ce4bhah2rcd13ifvqej0","pricing_plan_id":"free"},{"bike_id":"9d31994e-1e6d-47e8-9f16-b41dfe4551d8","system_id":"levelo_inurba_marseille","lat":43.286593,"lon":5.363346,"is_reserved":false,"is_disabled":false,"rental_uris":{"android":"levelo://app?vid=9d31994e-1e6d-47e8-9f16-b41dfe4551d8","ios":"levelo://app?vid=9d31994e-1e6d-47e8-9f16-b41dfe4551d8"},"vehicle_type_id":"4","last_reported":1691086086,"current_range_meters":31200,"station_id":"ce4bhah2rcd13ifvqej0","pricing_plan_id":"free"},{"bike_id":"e512daf6-ca25-4c1d-b741-f785bb3d4f90","system_id":"levelo_inurba_marseille","lat":43.286961,"lon":5.373785,"is_reserved":false,"is_disabled":false,"rental_uris":{"android":"levelo://app?vid=e512daf6-ca25-4c1d-b741-f785bb3d4f90","ios":"levelo://app?vid=e512daf6-ca25-4c1d-b741-f785bb3d4f90"},"vehicle_type_id":"4","last_reported":1691086086,"current_range_meters":13200,"station_id":"ce4bh3p2rcd13ifvqdq0","pricing_plan_id":"free"},{"bike_id":"7ba0a3cf-c304-4ff8-8c30-d7cd209be969","system_id":"levelo_inurba_marseille","lat":43.295125,"lon":5.393999,"is_reserved":false,"is_disabled":false,"rental_uris":{"android":"levelo://app?vid=7ba0a3cf-c304-4ff8-8c30-d7cd209be969","ios":"levelo://app?vid=7ba0a3cf-c304-4ff8-8c30-d7cd209be969"},"vehicle_type_id":"4","last_reported":1691086086,"current_range_meters":3200,"station_id":"ce4bh292rcd13ifvqdf0","pricing_plan_id":"free"},{"bike_id":"7b9e2d57-7c2f-4652-8ec0-ee4d147afe24","system_id":"levelo_inurba_marseille","lat":43.302548,"lon":5.400568,"is_reserved":false,"is_disabled":false,"rental_uris":{"android":"levelo://app?vid=7b9e2d57-7c2f-4652-8ec0-ee4d147afe24","ios":"levelo://app?vid=7b9e2d57-7c2f-4652-8ec0-ee4d147afe24"},"vehicle_type_id":"4","last_reported":1691086086,"current_range_meters":17600,"station_id":"","pricing_plan_id":"free"},{"bike_id":"27c793e4-ecbe-4c3e-aa3d-62a25260d99b","system_id":"levelo_inurba_marseille","lat":43.30241,"lon":5.40062,"is_reserved":false,"is_disabled":false,"rental_uris":{"android":"levelo://app?vid=27c793e4-ecbe-4c3e-aa3d-62a25260d99b","ios":"levelo://app?vid=27c793e4-ecbe-4c3e-aa3d-62a25260d99b"},"vehicle_type_id":"4","last_reported":1691086086,"current_range_meters":19200,"station_id":"ce4bgvh2rcd13ifvqcs0","pricing_plan_id":"free"},{"bike_id":"6e170837-50a1-4bbd-9dd8-bc4441441bc4","system_id":"levelo_inurba_marseille","lat":43.286039,"lon":5.370679,"is_reserved":false,"is_disabled":false,"rental_uris":{"android":"levelo://app?vid=6e170837-50a1-4bbd-9dd8-bc4441441bc4","ios":"levelo://app?vid=6e170837-50a1-4bbd-9dd8-bc4441441bc4"},"vehicle_type_id":"4","last_reported":1691086086,"current_range_meters":24400,"station_id":"ce4bht12rcd13ifvqi60","pricing_plan_id":"free"},{"bike_id":"f208948b-073c-49f3-8bbf-87464f0db531","system_id":"levelo_inurba_marseille","lat":43.286039,"lon":5.370681,"is_reserved":false,"is_disabled":false,"rental_uris":{"android":"levelo://app?vid=f208948b-073c-49f3-8bbf-87464f0db531","ios":"levelo://app?vid=f208948b-073c-49f3-8bbf-87464f0db531"},"vehicle_type_id":"4","last_reported":1691086086,"current_range_meters":31200,"station_id":"ce4bht12rcd13ifvqi60","pricing_plan_id":"free"},{"bike_id":"e66a7464-b0a1-4d1e-bb4a-b4d329dffac4","system_id":"levelo_inurba_marseille","lat":43.286039,"lon":5.370681,"is_reserved":false,"is_disabled":false,"rental_uris":{"android":"levelo://app?vid=e66a7464-b0a1-4d1e-bb4a-b4d329dffac4","ios":"levelo://app?vid=e66a7464-b0a1-4d1e-bb4a-b4d329dffac4"},"vehicle_type_id":"4","last_reported":1691086086,"current_range_meters":2000,"station_id":"ce4bht12rcd13ifvqi60","pricing_plan_id":"free"},{"bike_id":"30ba5ac3-3ed2-42e5-8633-06bef007636a","system_id":"levelo_inurba_marseille","lat":43.286039,"lon":5.370681,"is_reserved":false,"is_disabled":false,"rental_uris":{"android":"levelo://app?vid=30ba5ac3-3ed2-42e5-8633-06bef007636a","ios":"levelo://app?vid=30ba5ac3-3ed2-42e5-8633-06bef007636a"},"vehicle_type_id":"4","last_reported":1691086086,"current_range_meters":31200,"station_id":"ce4bht12rcd13ifvqi60","pricing_plan_id":"free"},{"bike_id":"7fbc7daf-926d-4f81-b0c1-1ccaea78f90a","system_id":"levelo_inurba_marseille","lat":43.286039,"lon":5.370681,"is_reserved":false,"is_disabled":false,"rental_uris":{"android":"levelo://app?vid=7fbc7daf-926d-4f81-b0c1-1ccaea78f90a","ios":"levelo://app?vid=7fbc7daf-926d-4f81-b0c1-1ccaea78f90a"},"vehicle_type_id":"4","last_reported":1691086086,"current_range_meters":31200,"station_id":"ce4bht12rcd13ifvqi60","pricing_plan_id":"free"},{"bike_id":"9dad3f26-18f2-423e-9327-4a7baec7c1c9","system_id":"levelo_inurba_marseille","lat":43.287185,"lon":5.379373,"is_reserved":false,"is_disabled":false,"rental_uris":{"android":"levelo://app?vid=9dad3f26-18f2-423e-9327-4a7baec7c1c9","ios":"levelo://app?vid=9dad3f26-18f2-423e-9327-4a7baec7c1c9"},"vehicle_type_id":"4","last_reported":1691086086,"current_range_meters":10400,"station_id":"ce4bh9p2rcd13ifvqec0","pricing_plan_id":"free"},{"bike_id":"505579c6-72ba-4c58-83d0-fb23fcb3bfdd","system_id":"levelo_inurba_marseille","lat":43.31646,"lon":5.40443,"is_reserved":false,"is_disabled":false,"rental_uris":{"android":"levelo://app?vid=505579c6-72ba-4c58-83d0-fb23fcb3bfdd","ios":"levelo://app?vid=505579c6-72ba-4c58-83d0-fb23fcb3bfdd"},"vehicle_type_id":"4","last_reported":1691086086,"current_range_meters":27200,"station_id":"ce4bh012rcd13ifvqd00","pricing_plan_id":"free"},{"bike_id":"99ef77c8-5f24-48f8-b499-d5f3fc911ee4","system_id":"levelo_inurba_marseille","lat":43.2924,"lon":5.39417,"is_reserved":false,"is_disabled":false,"rental_uris":{"android":"levelo://app?vid=99ef77c8-5f24-48f8-b499-d5f3fc911ee4","ios":"levelo://app?vid=99ef77c8-5f24-48f8-b499-d5f3fc911ee4"},"vehicle_type_id":"4","last_reported":1691086086,"current_range_meters":18400,"station_id":"","pricing_plan_id":"free"},{"bike_id":"0fad56f5-1e54-4911-bffb-4fd9d9294521","system_id":"levelo_inurba_marseille","lat":43.29195,"lon":5.3939,"is_reserved":false,"is_disabled":false,"rental_uris":{"android":"levelo://app?vid=0fad56f5-1e54-4911-bffb-4fd9d9294521","ios":"levelo://app?vid=0fad56f5-1e54-4911-bffb-4fd9d9294521"},"vehicle_type_id":"4","last_reported":1691086086,"current_range_meters":6800,"station_id":"","pricing_plan_id":"free"},{"bike_id":"95629721-1a46-4439-beed-f65a3fdc378d","system_id":"levelo_inurba_marseille","lat":43.294314,"lon":5.397498,"is_reserved":false,"is_disabled":false,"rental_uris":{"android":"levelo://app?vid=95629721-1a46-4439-beed-f65a3fdc378d","ios":"levelo://app?vid=95629721-1a46-4439-beed-f65a3fdc378d"},"vehicle_type_id":"4","last_reported":1691086086,"current_range_meters":27600,"station_id":"ce4bh3h2rcd13ifvqdo0","pricing_plan_id":"free"},{"bike_id":"68085f5d-4394-48ff-bf85-57ca23717242","system_id":"levelo_inurba_marseille","lat":43.294314,"lon":5.397498,"is_reserved":false,"is_disabled":false,"rental_uris":{"android":"levelo://app?vid=68085f5d-4394-48ff-bf85-57ca23717242","ios":"levelo://app?vid=68085f5d-4394-48ff-bf85-57ca23717242"},"vehicle_type_id":"4","last_reported":1691086086,"current_range_meters":21200,"station_id":"ce4bh3h2rcd13ifvqdo0","pricing_plan_id":"free"},{"bike_id":"96cd88aa-9b46-4603-88c4-125e837eff5a","system_id":"levelo_inurba_marseille","lat":43.294314,"lon":5.397498,"is_reserved":false,"is_disabled":false,"rental_uris":{"android":"levelo://app?vid=96cd88aa-9b46-4603-88c4-125e837eff5a","ios":"levelo://app?vid=96cd88aa-9b46-4603-88c4-125e837eff5a"},"vehicle_type_id":"4","last_reported":1691086086,"current_range_meters":16000,"station_id":"ce4bh3h2rcd13ifvqdo0","pricing_plan_id":"free"},{"bike_id":"aea62c68-a825-41c5-8df1-1b4a68f2c1bd","system_id":"levelo_inurba_marseille","lat":43.283998,"lon":5.375062,"is_reserved":false,"is_disabled":false,"rental_uris":{"android":"levelo://app?vid=aea62c68-a825-41c5-8df1-1b4a68f2c1bd","ios":"levelo://app?vid=aea62c68-a825-41c5-8df1-1b4a68f2c1bd"},"vehicle_type_id":"4","last_reported":1691086086,"current_range_meters":0,"station_id":"ce4bh412rcd13ifvqds0","pricing_plan_id":"free"},{"bike_id":"808634aa-6961-4773-920f-a845b434aeb0","system_id":"levelo_inurba_marseille","lat":43.283998,"lon":5.375062,"is_reserved":false,"is_disabled":false,"rental_uris":{"android":"levelo://app?vid=808634aa-6961-4773-920f-a845b434aeb0","ios":"levelo://app?vid=808634aa-6961-4773-920f-a845b434aeb0"},"vehicle_type_id":"4","last_reported":1691086086,"current_range_meters":7600,"station_id":"ce4bh412rcd13ifvqds0","pricing_plan_id":"free"},{"bike_id":"7fe6e651-7e81-4055-b0b6-9413a9984986","system_id":"levelo_inurba_marseille","lat":43.295713,"lon":5.399639,"is_reserved":false,"is_disabled":false,"rental_uris":{"android":"levelo://app?vid=7fe6e651-7e81-4055-b0b6-9413a9984986","ios":"levelo://app?vid=7fe6e651-7e81-4055-b0b6-9413a9984986"},"vehicle_type_id":"4","last_reported":1691086086,"current_range_meters":13600,"station_id":"ce4bh312rcd13ifvqdj0","pricing_plan_id":"free"},{"bike_id":"8acdbe64-3306-4539-9227-595f7abfea40","system_id":"levelo_inurba_marseille","lat":43.2857,"lon":5.35068,"is_reserved":false,"is_disabled":false,"rental_uris":{"android":"levelo://app?vid=8acdbe64-3306-4539-9227-595f7abfea40","ios":"levelo://app?vid=8acdbe64-3306-4539-9227-595f7abfea40"},"vehicle_type_id":"4","last_reported":1691086086,"current_range_meters":6800,"station_id":"","pricing_plan_id":"free"},{"bike_id":"112c9275-c655-4981-964d-4bdb32d5a114","system_id":"levelo_inurba_marseille","lat":43.286595,"lon":5.386795,"is_reserved":false,"is_disabled":false,"rental_uris":{"android":"levelo://app?vid=112c9275-c655-4981-964d-4bdb32d5a114","ios":"levelo://app?vid=112c9275-c655-4981-964d-4bdb32d5a114"},"vehicle_type_id":"4","last_reported":1691086086,"current_range_meters":25600,"station_id":"ce4bh492rcd13ifvqdug","pricing_plan_id":"free"},{"bike_id":"43fe5810-d554-4c3e-9505-cf338e7be67c","system_id":"levelo_inurba_marseille","lat":43.286595,"lon":5.386795,"is_reserved":false,"is_disabled":false,"rental_uris":{"android":"levelo://app?vid=43fe5810-d554-4c3e-9505-cf338e7be67c","ios":"levelo://app?vid=43fe5810-d554-4c3e-9505-cf338e7be67c"},"vehicle_type_id":"4","last_reported":1691086086,"current_range_meters":10000,"station_id":"ce4bh492rcd13ifvqdug","pricing_plan_id":"free"},{"bike_id":"3e563380-a985-451c-801d-2783d7714294","system_id":"levelo_inurba_marseille","lat":43.33717,"lon":5.391857,"is_reserved":false,"is_disabled":false,"rental_uris":{"android":"levelo://app?vid=3e563380-a985-451c-801d-2783d7714294","ios":"levelo://app?vid=3e563380-a985-451c-801d-2783d7714294"},"vehicle_type_id":"4","last_reported":1691086086,"current_range_meters":20000,"station_id":"ce4bhr92rcd13ifvqhsg","pricing_plan_id":"free"},{"bike_id":"1f5722b0-5667-43f6-9dad-3a3b818c5a69","system_id":"levelo_inurba_marseille","lat":43.337168,"lon":5.391825,"is_reserved":false,"is_disabled":false,"rental_uris":{"android":"levelo://app?vid=1f5722b0-5667-43f6-9dad-3a3b818c5a69","ios":"levelo://app?vid=1f5722b0-5667-43f6-9dad-3a3b818c5a69"},"vehicle_type_id":"4","last_reported":1691086086,"current_range_meters":7200,"station_id":"ce4bhr92rcd13ifvqhsg","pricing_plan_id":"free"},{"bike_id":"9d8dc018-8295-487e-aae9-79ce0f469cdf","system_id":"levelo_inurba_marseille","lat":43.33727,"lon":5.39181,"is_reserved":false,"is_disabled":false,"rental_uris":{"android":"levelo://app?vid=9d8dc018-8295-487e-aae9-79ce0f469cdf","ios":"levelo://app?vid=9d8dc018-8295-487e-aae9-79ce0f469cdf"},"vehicle_type_id":"4","last_reported":1691086086,"current_range_meters":29600,"station_id":"ce4bhr92rcd13ifvqhsg","pricing_plan_id":"free"},{"bike_id":"939edbe6-adcc-4f97-ad69-99748df4073d","system_id":"levelo_inurba_marseille","lat":43.337168,"lon":5.391825,"is_reserved":false,"is_disabled":false,"rental_uris":{"android":"levelo://app?vid=939edbe6-adcc-4f97-ad69-99748df4073d","ios":"levelo://app?vid=939edbe6-adcc-4f97-ad69-99748df4073d"},"vehicle_type_id":"4","last_reported":1691086086,"current_range_meters":30000,"station_id":"ce4bhr92rcd13ifvqhsg","pricing_plan_id":"free"},{"bike_id":"9ed5c8cd-5716-467d-9a0b-e5002dcb5a2c","system_id":"levelo_inurba_marseille","lat":43.33726,"lon":5.39191,"is_reserved":false,"is_disabled":false,"rental_uris":{"android":"levelo://app?vid=9ed5c8cd-5716-467d-9a0b-e5002dcb5a2c","ios":"levelo://app?vid=9ed5c8cd-5716-467d-9a0b-e5002dcb5a2c"},"vehicle_type_id":"4","last_reported":1691086086,"current_range_meters":5200,"station_id":"ce4bhr92rcd13ifvqhsg","pricing_plan_id":"free"},{"bike_id":"65e7209e-43de-4472-85bf-edccad84c81f","system_id":"levelo_inurba_marseille","lat":43.33728,"lon":5.39188,"is_reserved":false,"is_disabled":false,"rental_uris":{"android":"levelo://app?vid=65e7209e-43de-4472-85bf-edccad84c81f","ios":"levelo://app?vid=65e7209e-43de-4472-85bf-edccad84c81f"},"vehicle_type_id":"4","last_reported":1691086086,"current_range_meters":30400,"station_id":"ce4bhr92rcd13ifvqhsg","pricing_plan_id":"free"},{"bike_id":"9ca2485d-34aa-410e-bcf7-b0785f43fd67","system_id":"levelo_inurba_marseille","lat":43.33734,"lon":5.39187,"is_reserved":false,"is_disabled":false,"rental_uris":{"android":"levelo://app?vid=9ca2485d-34aa-410e-bcf7-b0785f43fd67","ios":"levelo://app?vid=9ca2485d-34aa-410e-bcf7-b0785f43fd67"},"vehicle_type_id":"4","last_reported":1691086086,"current_range_meters":22000,"station_id":"ce4bhr92rcd13ifvqhsg","pricing_plan_id":"free"},{"bike_id":"a0b08380-a32d-448c-9cd8-5740b8432244","system_id":"levelo_inurba_marseille","lat":43.284793,"lon":5.384113,"is_reserved":false,"is_disabled":false,"rental_uris":{"android":"levelo://app?vid=a0b08380-a32d-448c-9cd8-5740b8432244","ios":"levelo://app?vid=a0b08380-a32d-448c-9cd8-5740b8432244"},"vehicle_type_id":"4","last_reported":1691086086,"current_range_meters":9200,"station_id":"ce4bh512rcd13ifvqe3g","pricing_plan_id":"free"},{"bike_id":"5fd6a347-0a02-4efa-ab4a-06802493ed56","system_id":"levelo_inurba_marseille","lat":43.33735,"lon":5.39187,"is_reserved":false,"is_disabled":false,"rental_uris":{"android":"levelo://app?vid=5fd6a347-0a02-4efa-ab4a-06802493ed56","ios":"levelo://app?vid=5fd6a347-0a02-4efa-ab4a-06802493ed56"},"vehicle_type_id":"4","last_reported":1691086086,"current_range_meters":20000,"station_id":"ce4bhr92rcd13ifvqhsg","pricing_plan_id":"free"},{"bike_id":"df82d2f9-f688-4670-ac84-3e543122cedb","system_id":"levelo_inurba_marseille","lat":43.337168,"lon":5.391825,"is_reserved":false,"is_disabled":false,"rental_uris":{"android":"levelo://app?vid=df82d2f9-f688-4670-ac84-3e543122cedb","ios":"levelo://app?vid=df82d2f9-f688-4670-ac84-3e543122cedb"},"vehicle_type_id":"4","last_reported":1691086086,"current_range_meters":18400,"station_id":"ce4bhr92rcd13ifvqhsg","pricing_plan_id":"free"},{"bike_id":"5e3f47d3-7aa7-4e6e-a5e8-eb5350efbdc6","system_id":"levelo_inurba_marseille","lat":43.284793,"lon":5.384113,"is_reserved":false,"is_disabled":false,"rental_uris":{"android":"levelo://app?vid=5e3f47d3-7aa7-4e6e-a5e8-eb5350efbdc6","ios":"levelo://app?vid=5e3f47d3-7aa7-4e6e-a5e8-eb5350efbdc6"},"vehicle_type_id":"4","last_reported":1691086086,"current_range_meters":0,"station_id":"ce4bh512rcd13ifvqe3g","pricing_plan_id":"free"},{"bike_id":"8c979f8a-fd03-4396-987e-18752a3aa3ce","system_id":"levelo_inurba_marseille","lat":43.284787,"lon":5.384116,"is_reserved":false,"is_disabled":false,"rental_uris":{"android":"levelo://app?vid=8c979f8a-fd03-4396-987e-18752a3aa3ce","ios":"levelo://app?vid=8c979f8a-fd03-4396-987e-18752a3aa3ce"},"vehicle_type_id":"4","last_reported":1691086086,"current_range_meters":26000,"station_id":"ce4bh512rcd13ifvqe3g","pricing_plan_id":"free"},{"bike_id":"dbada9f9-e33c-4a7d-ab43-1cac4e571e70","system_id":"levelo_inurba_marseille","lat":43.284793,"lon":5.384119,"is_reserved":false,"is_disabled":false,"rental_uris":{"android":"levelo://app?vid=dbada9f9-e33c-4a7d-ab43-1cac4e571e70","ios":"levelo://app?vid=dbada9f9-e33c-4a7d-ab43-1cac4e571e70"},"vehicle_type_id":"4","last_reported":1691086086,"current_range_meters":30000,"station_id":"ce4bh512rcd13ifvqe3g","pricing_plan_id":"free"},{"bike_id":"cfb09c71-7c5e-4a31-a2b4-ac938cd3394d","system_id":"levelo_inurba_marseille","lat":43.283498,"lon":5.380948,"is_reserved":false,"is_disabled":false,"rental_uris":{"android":"levelo://app?vid=cfb09c71-7c5e-4a31-a2b4-ac938cd3394d","ios":"levelo://app?vid=cfb09c71-7c5e-4a31-a2b4-ac938cd3394d"},"vehicle_type_id":"4","last_reported":1691086086,"current_range_meters":22400,"station_id":"ce4bh412rcd13ifvqdr0","pricing_plan_id":"free"},{"bike_id":"0b87bede-8a80-430b-8ac7-98de5eedfecc","system_id":"levelo_inurba_marseille","lat":43.283498,"lon":5.380948,"is_reserved":false,"is_disabled":false,"rental_uris":{"android":"levelo://app?vid=0b87bede-8a80-430b-8ac7-98de5eedfecc","ios":"levelo://app?vid=0b87bede-8a80-430b-8ac7-98de5eedfecc"},"vehicle_type_id":"4","last_reported":1691086086,"current_range_meters":18000,"station_id":"ce4bh412rcd13ifvqdr0","pricing_plan_id":"free"},{"bike_id":"03749689-9138-432e-9535-fbf8c8005a50","system_id":"levelo_inurba_marseille","lat":43.284219,"lon":5.3497,"is_reserved":false,"is_disabled":false,"rental_uris":{"android":"levelo://app?vid=03749689-9138-432e-9535-fbf8c8005a50","ios":"levelo://app?vid=03749689-9138-432e-9535-fbf8c8005a50"},"vehicle_type_id":"4","last_reported":1691086086,"current_range_meters":24800,"station_id":"ce4bhbh2rcd13ifvqepg","pricing_plan_id":"free"},{"bike_id":"0c9ddb8a-2ee6-460c-904c-746f40b31da2","system_id":"levelo_inurba_marseille","lat":43.29281,"lon":5.40001,"is_reserved":false,"is_disabled":false,"rental_uris":{"android":"levelo://app?vid=0c9ddb8a-2ee6-460c-904c-746f40b31da2","ios":"levelo://app?vid=0c9ddb8a-2ee6-460c-904c-746f40b31da2"},"vehicle_type_id":"4","last_reported":1691086086,"current_range_meters":0,"station_id":"","pricing_plan_id":"free"},{"bike_id":"f7f5768e-b80f-4da0-8864-86696a8877fb","system_id":"levelo_inurba_marseille","lat":43.32456,"lon":5.40727,"is_reserved":false,"is_disabled":false,"rental_uris":{"android":"levelo://app?vid=f7f5768e-b80f-4da0-8864-86696a8877fb","ios":"levelo://app?vid=f7f5768e-b80f-4da0-8864-86696a8877fb"},"vehicle_type_id":"4","last_reported":1691086086,"current_range_meters":0,"station_id":"","pricing_plan_id":"free"},{"bike_id":"f0bc34df-1b45-4c60-9f85-52532cd514ff","system_id":"levelo_inurba_marseille","lat":43.292724,"lon":5.401131,"is_reserved":false,"is_disabled":false,"rental_uris":{"android":"levelo://app?vid=f0bc34df-1b45-4c60-9f85-52532cd514ff","ios":"levelo://app?vid=f0bc34df-1b45-4c60-9f85-52532cd514ff"},"vehicle_type_id":"4","last_reported":1691086086,"current_range_meters":12800,"station_id":"ce4bh312rcd13ifvqdk0","pricing_plan_id":"free"},{"bike_id":"6a6ecdcb-bfd2-4ca4-a638-98ce114fb2d7","system_id":"levelo_inurba_marseille","lat":43.283502,"lon":5.386471,"is_reserved":false,"is_disabled":false,"rental_uris":{"android":"levelo://app?vid=6a6ecdcb-bfd2-4ca4-a638-98ce114fb2d7","ios":"levelo://app?vid=6a6ecdcb-bfd2-4ca4-a638-98ce114fb2d7"},"vehicle_type_id":"4","last_reported":1691086086,"current_range_meters":2800,"station_id":"ce4bh492rcd13ifvqdvg","pricing_plan_id":"free"},{"bike_id":"0336b151-3f2b-4894-b843-3eca3d2f7347","system_id":"levelo_inurba_marseille","lat":43.283502,"lon":5.386471,"is_reserved":false,"is_disabled":false,"rental_uris":{"android":"levelo://app?vid=0336b151-3f2b-4894-b843-3eca3d2f7347","ios":"levelo://app?vid=0336b151-3f2b-4894-b843-3eca3d2f7347"},"vehicle_type_id":"4","last_reported":1691086086,"current_range_meters":14000,"station_id":"ce4bh492rcd13ifvqdvg","pricing_plan_id":"free"},{"bike_id":"31022f32-f1a5-4bc9-a493-363ce5bf7499","system_id":"levelo_inurba_marseille","lat":43.28104,"lon":5.37832,"is_reserved":false,"is_disabled":false,"rental_uris":{"android":"levelo://app?vid=31022f32-f1a5-4bc9-a493-363ce5bf7499","ios":"levelo://app?vid=31022f32-f1a5-4bc9-a493-363ce5bf7499"},"vehicle_type_id":"4","last_reported":1691086086,"current_range_meters":2000,"station_id":"ce4bha12rcd13ifvqee0","pricing_plan_id":"free"},{"bike_id":"8345f3d3-43b7-4a1a-a48c-dca0fb477067","system_id":"levelo_inurba_marseille","lat":43.28103,"lon":5.37842,"is_reserved":false,"is_disabled":false,"rental_uris":{"android":"levelo://app?vid=8345f3d3-43b7-4a1a-a48c-dca0fb477067","ios":"levelo://app?vid=8345f3d3-43b7-4a1a-a48c-dca0fb477067"},"vehicle_type_id":"4","last_reported":1691086086,"current_range_meters":5600,"station_id":"ce4bha12rcd13ifvqee0","pricing_plan_id":"free"},{"bike_id":"67bcfc1a-0d65-472e-9f8e-ef593315b187","system_id":"levelo_inurba_marseille","lat":43.296263,"lon":5.40601,"is_reserved":false,"is_disabled":false,"rental_uris":{"android":"levelo://app?vid=67bcfc1a-0d65-472e-9f8e-ef593315b187","ios":"levelo://app?vid=67bcfc1a-0d65-472e-9f8e-ef593315b187"},"vehicle_type_id":"4","last_reported":1691086086,"current_range_meters":6000,"station_id":"ce4bh0h2rcd13ifvqd60","pricing_plan_id":"free"},{"bike_id":"d424f618-b952-456a-ac2c-af4ecefa3f2c","system_id":"levelo_inurba_marseille","lat":43.28101,"lon":5.37845,"is_reserved":false,"is_disabled":false,"rental_uris":{"android":"levelo://app?vid=d424f618-b952-456a-ac2c-af4ecefa3f2c","ios":"levelo://app?vid=d424f618-b952-456a-ac2c-af4ecefa3f2c"},"vehicle_type_id":"4","last_reported":1691086086,"current_range_meters":10400,"station_id":"ce4bha12rcd13ifvqee0","pricing_plan_id":"free"},{"bike_id":"f5572fbd-8e3e-4eef-9131-02c4b9f871ba","system_id":"levelo_inurba_marseille","lat":43.28097,"lon":5.37836,"is_reserved":false,"is_disabled":false,"rental_uris":{"android":"levelo://app?vid=f5572fbd-8e3e-4eef-9131-02c4b9f871ba","ios":"levelo://app?vid=f5572fbd-8e3e-4eef-9131-02c4b9f871ba"},"vehicle_type_id":"4","last_reported":1691086086,"current_range_meters":4000,"station_id":"ce4bha12rcd13ifvqee0","pricing_plan_id":"free"},{"bike_id":"fae05c8f-cf34-44a4-9d60-efbd30673eee","system_id":"levelo_inurba_marseille","lat":43.284462,"lon":5.392121,"is_reserved":false,"is_disabled":false,"rental_uris":{"android":"levelo://app?vid=fae05c8f-cf34-44a4-9d60-efbd30673eee","ios":"levelo://app?vid=fae05c8f-cf34-44a4-9d60-efbd30673eee"},"vehicle_type_id":"4","last_reported":1691086086,"current_range_meters":3200,"station_id":"ce4bhoh2rcd13ifvqh5g","pricing_plan_id":"free"},{"bike_id":"8cf5cea5-dc4a-421b-a557-bbc0961e09a4","system_id":"levelo_inurba_marseille","lat":43.284462,"lon":5.392121,"is_reserved":false,"is_disabled":false,"rental_uris":{"android":"levelo://app?vid=8cf5cea5-dc4a-421b-a557-bbc0961e09a4","ios":"levelo://app?vid=8cf5cea5-dc4a-421b-a557-bbc0961e09a4"},"vehicle_type_id":"4","last_reported":1691086086,"current_range_meters":18000,"station_id":"ce4bhoh2rcd13ifvqh5g","pricing_plan_id":"free"},{"bike_id":"81e14894-e8d9-4663-9669-c3c133203d1f","system_id":"levelo_inurba_marseille","lat":43.28572,"lon":5.39496,"is_reserved":false,"is_disabled":false,"rental_uris":{"android":"levelo://app?vid=81e14894-e8d9-4663-9669-c3c133203d1f","ios":"levelo://app?vid=81e14894-e8d9-4663-9669-c3c133203d1f"},"vehicle_type_id":"4","last_reported":1691086086,"current_range_meters":18800,"station_id":"","pricing_plan_id":"free"},{"bike_id":"ccc2fb95-f50c-4162-bd4f-a3a8fffb6649","system_id":"levelo_inurba_marseille","lat":43.285742,"lon":5.395004,"is_reserved":false,"is_disabled":false,"rental_uris":{"android":"levelo://app?vid=ccc2fb95-f50c-4162-bd4f-a3a8fffb6649","ios":"levelo://app?vid=ccc2fb95-f50c-4162-bd4f-a3a8fffb6649"},"vehicle_type_id":"4","last_reported":1691086086,"current_range_meters":27600,"station_id":"ce4bh292rcd13ifvqdg0","pricing_plan_id":"free"},{"bike_id":"bea9524d-02ec-4526-b922-f8f292ac8394","system_id":"levelo_inurba_marseille","lat":43.32661,"lon":5.40982,"is_reserved":false,"is_disabled":false,"rental_uris":{"android":"levelo://app?vid=bea9524d-02ec-4526-b922-f8f292ac8394","ios":"levelo://app?vid=bea9524d-02ec-4526-b922-f8f292ac8394"},"vehicle_type_id":"4","last_reported":1691086086,"current_range_meters":22000,"station_id":"ce4bhpp2rcd13ifvqhgg","pricing_plan_id":"free"},{"bike_id":"94aea6b3-292e-4179-b9df-b84dcc10f405","system_id":"levelo_inurba_marseille","lat":43.32657,"lon":5.4099,"is_reserved":false,"is_disabled":false,"rental_uris":{"android":"levelo://app?vid=94aea6b3-292e-4179-b9df-b84dcc10f405","ios":"levelo://app?vid=94aea6b3-292e-4179-b9df-b84dcc10f405"},"vehicle_type_id":"4","last_reported":1691086086,"current_range_meters":19200,"station_id":"ce4bhpp2rcd13ifvqhgg","pricing_plan_id":"free"},{"bike_id":"4bea7dbd-1e1e-49f6-94c2-1b0edc11fda3","system_id":"levelo_inurba_marseille","lat":43.32657,"lon":5.40993,"is_reserved":false,"is_disabled":false,"rental_uris":{"android":"levelo://app?vid=4bea7dbd-1e1e-49f6-94c2-1b0edc11fda3","ios":"levelo://app?vid=4bea7dbd-1e1e-49f6-94c2-1b0edc11fda3"},"vehicle_type_id":"4","last_reported":1691086086,"current_range_meters":25200,"station_id":"ce4bhpp2rcd13ifvqhgg","pricing_plan_id":"free"},{"bike_id":"2f59f8a8-e44b-4322-840d-56d7b1881fbb","system_id":"levelo_inurba_marseille","lat":43.3266,"lon":5.40993,"is_reserved":false,"is_disabled":false,"rental_uris":{"android":"levelo://app?vid=2f59f8a8-e44b-4322-840d-56d7b1881fbb","ios":"levelo://app?vid=2f59f8a8-e44b-4322-840d-56d7b1881fbb"},"vehicle_type_id":"4","last_reported":1691086086,"current_range_meters":24800,"station_id":"ce4bhpp2rcd13ifvqhgg","pricing_plan_id":"free"},{"bike_id":"483bb16b-3292-4482-9f52-c4ce9fb5e5aa","system_id":"levelo_inurba_marseille","lat":43.32653,"lon":5.40998,"is_reserved":false,"is_disabled":false,"rental_uris":{"android":"levelo://app?vid=483bb16b-3292-4482-9f52-c4ce9fb5e5aa","ios":"levelo://app?vid=483bb16b-3292-4482-9f52-c4ce9fb5e5aa"},"vehicle_type_id":"4","last_reported":1691086086,"current_range_meters":18800,"station_id":"ce4bhpp2rcd13ifvqhgg","pricing_plan_id":"free"},{"bike_id":"c4ff6eea-c693-4218-9bae-3820f7f4611f","system_id":"levelo_inurba_marseille","lat":43.32658,"lon":5.40996,"is_reserved":false,"is_disabled":false,"rental_uris":{"android":"levelo://app?vid=c4ff6eea-c693-4218-9bae-3820f7f4611f","ios":"levelo://app?vid=c4ff6eea-c693-4218-9bae-3820f7f4611f"},"vehicle_type_id":"4","last_reported":1691086086,"current_range_meters":18800,"station_id":"ce4bhpp2rcd13ifvqhgg","pricing_plan_id":"free"},{"bike_id":"0a48304e-1f32-471a-acdd-6905649b1430","system_id":"levelo_inurba_marseille","lat":43.295511,"lon":5.422926,"is_reserved":false,"is_disabled":false,"rental_uris":{"android":"levelo://app?vid=0a48304e-1f32-471a-acdd-6905649b1430","ios":"levelo://app?vid=0a48304e-1f32-471a-acdd-6905649b1430"},"vehicle_type_id":"4","last_reported":1691086086,"current_range_meters":0,"station_id":"ce4bhph2rcd13ifvqhdg","pricing_plan_id":"free"},{"bike_id":"0f3197a6-e20c-47c0-aeb1-290c7a6d6d45","system_id":"levelo_inurba_marseille","lat":43.317104,"lon":5.436818,"is_reserved":false,"is_disabled":false,"rental_uris":{"android":"levelo://app?vid=0f3197a6-e20c-47c0-aeb1-290c7a6d6d45","ios":"levelo://app?vid=0f3197a6-e20c-47c0-aeb1-290c7a6d6d45"},"vehicle_type_id":"4","last_reported":1691086086,"current_range_meters":0,"station_id":"ce4bhp92rcd13ifvqhcg","pricing_plan_id":"free"},{"bike_id":"da74851f-183f-4ed8-bc32-44e1d656b516","system_id":"levelo_inurba_marseille","lat":43.32095,"lon":5.41512,"is_reserved":false,"is_disabled":false,"rental_uris":{"android":"levelo://app?vid=da74851f-183f-4ed8-bc32-44e1d656b516","ios":"levelo://app?vid=da74851f-183f-4ed8-bc32-44e1d656b516"},"vehicle_type_id":"4","last_reported":1691086086,"current_range_meters":2400,"station_id":"","pricing_plan_id":"free"},{"bike_id":"e9fbe7f4-c376-4a74-9a01-c2dfa71d30c2","system_id":"levelo_inurba_marseille","lat":43.3209,"lon":5.41514,"is_reserved":false,"is_disabled":false,"rental_uris":{"android":"levelo://app?vid=e9fbe7f4-c376-4a74-9a01-c2dfa71d30c2","ios":"levelo://app?vid=e9fbe7f4-c376-4a74-9a01-c2dfa71d30c2"},"vehicle_type_id":"4","last_reported":1691086086,"current_range_meters":0,"station_id":"","pricing_plan_id":"free"},{"bike_id":"5b732054-8cce-4a5e-a524-b2078ef6aebf","system_id":"levelo_inurba_marseille","lat":43.299579,"lon":5.413255,"is_reserved":false,"is_disabled":false,"rental_uris":{"android":"levelo://app?vid=5b732054-8cce-4a5e-a524-b2078ef6aebf","ios":"levelo://app?vid=5b732054-8cce-4a5e-a524-b2078ef6aebf"},"vehicle_type_id":"4","last_reported":1691086086,"current_range_meters":10800,"station_id":"ce4bhp12rcd13ifvqh9g","pricing_plan_id":"free"},{"bike_id":"c327718a-8fe6-4791-a349-aba0f8f94e82","system_id":"levelo_inurba_marseille","lat":43.27972,"lon":5.38752,"is_reserved":false,"is_disabled":false,"rental_uris":{"android":"levelo://app?vid=c327718a-8fe6-4791-a349-aba0f8f94e82","ios":"levelo://app?vid=c327718a-8fe6-4791-a349-aba0f8f94e82"},"vehicle_type_id":"4","last_reported":1691086086,"current_range_meters":31200,"station_id":"ce4bhg12rcd13ifvqf80","pricing_plan_id":"free"},{"bike_id":"2f8d2340-8708-4d08-9c4b-f4b11bda5ff1","system_id":"levelo_inurba_marseille","lat":43.325233,"lon":5.414318,"is_reserved":false,"is_disabled":false,"rental_uris":{"android":"levelo://app?vid=2f8d2340-8708-4d08-9c4b-f4b11bda5ff1","ios":"levelo://app?vid=2f8d2340-8708-4d08-9c4b-f4b11bda5ff1"},"vehicle_type_id":"4","last_reported":1691086086,"current_range_meters":30800,"station_id":"ce4bhq12rcd13ifvqhhg","pricing_plan_id":"free"},{"bike_id":"53fa3584-3641-42da-95a4-eceeb0ac0c65","system_id":"levelo_inurba_marseille","lat":43.292571,"lon":5.409107,"is_reserved":false,"is_disabled":false,"rental_uris":{"android":"levelo://app?vid=53fa3584-3641-42da-95a4-eceeb0ac0c65","ios":"levelo://app?vid=53fa3584-3641-42da-95a4-eceeb0ac0c65"},"vehicle_type_id":"4","last_reported":1691086086,"current_range_meters":31200,"station_id":"ce4bh192rcd13ifvqdc0","pricing_plan_id":"free"},{"bike_id":"d1a87387-5267-40a0-802a-a0c87cc18745","system_id":"levelo_inurba_marseille","lat":43.325233,"lon":5.414318,"is_reserved":false,"is_disabled":false,"rental_uris":{"android":"levelo://app?vid=d1a87387-5267-40a0-802a-a0c87cc18745","ios":"levelo://app?vid=d1a87387-5267-40a0-802a-a0c87cc18745"},"vehicle_type_id":"4","last_reported":1691086086,"current_range_meters":14400,"station_id":"ce4bhq12rcd13ifvqhhg","pricing_plan_id":"free"},{"bike_id":"386ed8e3-b71e-4f68-86af-202c5b76503e","system_id":"levelo_inurba_marseille","lat":43.27618,"lon":5.361009,"is_reserved":false,"is_disabled":false,"rental_uris":{"android":"levelo://app?vid=386ed8e3-b71e-4f68-86af-202c5b76503e","ios":"levelo://app?vid=386ed8e3-b71e-4f68-86af-202c5b76503e"},"vehicle_type_id":"4","last_reported":1691086086,"current_range_meters":20800,"station_id":"ce4bgj92rcd13ifvqbe0","pricing_plan_id":"free"},{"bike_id":"0b03462d-9898-46f1-a653-1a8743904a43","system_id":"levelo_inurba_marseille","lat":43.280784,"lon":5.396622,"is_reserved":false,"is_disabled":false,"rental_uris":{"android":"levelo://app?vid=0b03462d-9898-46f1-a653-1a8743904a43","ios":"levelo://app?vid=0b03462d-9898-46f1-a653-1a8743904a43"},"vehicle_type_id":"4","last_reported":1691086086,"current_range_meters":6800,"station_id":"ce4bho12rcd13ifvqh2g","pricing_plan_id":"free"},{"bike_id":"66947d81-4bfb-464b-9dbe-96c78e19aa65","system_id":"levelo_inurba_marseille","lat":43.280784,"lon":5.396622,"is_reserved":false,"is_disabled":false,"rental_uris":{"android":"levelo://app?vid=66947d81-4bfb-464b-9dbe-96c78e19aa65","ios":"levelo://app?vid=66947d81-4bfb-464b-9dbe-96c78e19aa65"},"vehicle_type_id":"4","last_reported":1691086086,"current_range_meters":15600,"station_id":"ce4bho12rcd13ifvqh2g","pricing_plan_id":"free"},{"bike_id":"05c45c5c-487f-4c36-85cb-cf4607186775","system_id":"levelo_inurba_marseille","lat":43.28646,"lon":5.40615,"is_reserved":false,"is_disabled":false,"rental_uris":{"android":"levelo://app?vid=05c45c5c-487f-4c36-85cb-cf4607186775","ios":"levelo://app?vid=05c45c5c-487f-4c36-85cb-cf4607186775"},"vehicle_type_id":"4","last_reported":1691086086,"current_range_meters":21600,"station_id":"","pricing_plan_id":"free"},{"bike_id":"31530e76-e0f2-47f4-b98f-d18f4f51b5ef","system_id":"levelo_inurba_marseille","lat":43.303837,"lon":5.418724,"is_reserved":false,"is_disabled":false,"rental_uris":{"android":"levelo://app?vid=31530e76-e0f2-47f4-b98f-d18f4f51b5ef","ios":"levelo://app?vid=31530e76-e0f2-47f4-b98f-d18f4f51b5ef"},"vehicle_type_id":"4","last_reported":1691086086,"current_range_meters":11200,"station_id":"ce4bhop2rcd13ifvqh7g","pricing_plan_id":"free"},{"bike_id":"6ced05d8-2185-4d43-837f-e4c8ba1b4e27","system_id":"levelo_inurba_marseille","lat":43.278401,"lon":5.392152,"is_reserved":false,"is_disabled":false,"rental_uris":{"android":"levelo://app?vid=6ced05d8-2185-4d43-837f-e4c8ba1b4e27","ios":"levelo://app?vid=6ced05d8-2185-4d43-837f-e4c8ba1b4e27"},"vehicle_type_id":"4","last_reported":1691086086,"current_range_meters":25200,"station_id":"ce4bhjp2rcd13ifvqga0","pricing_plan_id":"free"},{"bike_id":"3f9d620b-e1f9-4890-9b68-a1d21f8d5617","system_id":"levelo_inurba_marseille","lat":43.33612,"lon":5.410321,"is_reserved":false,"is_disabled":false,"rental_uris":{"android":"levelo://app?vid=3f9d620b-e1f9-4890-9b68-a1d21f8d5617","ios":"levelo://app?vid=3f9d620b-e1f9-4890-9b68-a1d21f8d5617"},"vehicle_type_id":"4","last_reported":1691086086,"current_range_meters":13600,"station_id":"ce4bhqh2rcd13ifvqhmg","pricing_plan_id":"free"},{"bike_id":"dfd8400d-fd7c-4180-ba6a-04a9b15560e6","system_id":"levelo_inurba_marseille","lat":43.278399,"lon":5.392139,"is_reserved":false,"is_disabled":false,"rental_uris":{"android":"levelo://app?vid=dfd8400d-fd7c-4180-ba6a-04a9b15560e6","ios":"levelo://app?vid=dfd8400d-fd7c-4180-ba6a-04a9b15560e6"},"vehicle_type_id":"4","last_reported":1691086086,"current_range_meters":2800,"station_id":"ce4bhjp2rcd13ifvqga0","pricing_plan_id":"free"},{"bike_id":"1611d1a8-c4e8-47e1-bb57-8bc78447cd2a","system_id":"levelo_inurba_marseille","lat":43.33612,"lon":5.410321,"is_reserved":false,"is_disabled":false,"rental_uris":{"android":"levelo://app?vid=1611d1a8-c4e8-47e1-bb57-8bc78447cd2a","ios":"levelo://app?vid=1611d1a8-c4e8-47e1-bb57-8bc78447cd2a"},"vehicle_type_id":"4","last_reported":1691086086,"current_range_meters":31200,"station_id":"ce4bhqh2rcd13ifvqhmg","pricing_plan_id":"free"},{"bike_id":"e7d88ed0-219a-479f-8c83-6ae9490bbf54","system_id":"levelo_inurba_marseille","lat":43.336134,"lon":5.410341,"is_reserved":false,"is_disabled":false,"rental_uris":{"android":"levelo://app?vid=e7d88ed0-219a-479f-8c83-6ae9490bbf54","ios":"levelo://app?vid=e7d88ed0-219a-479f-8c83-6ae9490bbf54"},"vehicle_type_id":"4","last_reported":1691086086,"current_range_meters":31200,"station_id":"ce4bhqh2rcd13ifvqhmg","pricing_plan_id":"free"},{"bike_id":"54552482-82fc-46fa-a360-5af7733fa5db","system_id":"levelo_inurba_marseille","lat":43.336134,"lon":5.410341,"is_reserved":false,"is_disabled":false,"rental_uris":{"android":"levelo://app?vid=54552482-82fc-46fa-a360-5af7733fa5db","ios":"levelo://app?vid=54552482-82fc-46fa-a360-5af7733fa5db"},"vehicle_type_id":"4","last_reported":1691086086,"current_range_meters":31200,"station_id":"ce4bhqh2rcd13ifvqhmg","pricing_plan_id":"free"},{"bike_id":"beb9047c-0953-4f75-9c72-304e8b863d54","system_id":"levelo_inurba_marseille","lat":43.336134,"lon":5.410341,"is_reserved":false,"is_disabled":false,"rental_uris":{"android":"levelo://app?vid=beb9047c-0953-4f75-9c72-304e8b863d54","ios":"levelo://app?vid=beb9047c-0953-4f75-9c72-304e8b863d54"},"vehicle_type_id":"4","last_reported":1691086086,"current_range_meters":6400,"station_id":"ce4bhqh2rcd13ifvqhmg","pricing_plan_id":"free"},{"bike_id":"ed6115df-2ff9-4e1c-a064-6d8d6d16ee31","system_id":"levelo_inurba_marseille","lat":43.336134,"lon":5.410341,"is_reserved":false,"is_disabled":false,"rental_uris":{"android":"levelo://app?vid=ed6115df-2ff9-4e1c-a064-6d8d6d16ee31","ios":"levelo://app?vid=ed6115df-2ff9-4e1c-a064-6d8d6d16ee31"},"vehicle_type_id":"4","last_reported":1691086086,"current_range_meters":12400,"station_id":"ce4bhqh2rcd13ifvqhmg","pricing_plan_id":"free"},{"bike_id":"ddfad5e9-ac53-478e-b65d-c10380782d72","system_id":"levelo_inurba_marseille","lat":43.310785,"lon":5.424305,"is_reserved":false,"is_disabled":false,"rental_uris":{"android":"levelo://app?vid=ddfad5e9-ac53-478e-b65d-c10380782d72","ios":"levelo://app?vid=ddfad5e9-ac53-478e-b65d-c10380782d72"},"vehicle_type_id":"4","last_reported":1691086086,"current_range_meters":28800,"station_id":"ce4bhp92rcd13ifvqhag","pricing_plan_id":"free"},{"bike_id":"1ea898b8-e524-420e-9318-6e6665613980","system_id":"levelo_inurba_marseille","lat":43.3414,"lon":5.40897,"is_reserved":false,"is_disabled":false,"rental_uris":{"android":"levelo://app?vid=1ea898b8-e524-420e-9318-6e6665613980","ios":"levelo://app?vid=1ea898b8-e524-420e-9318-6e6665613980"},"vehicle_type_id":"4","last_reported":1691086086,"current_range_meters":19200,"station_id":"ce4bhqh2rcd13ifvqhlg","pricing_plan_id":"free"},{"bike_id":"f5f08941-357d-47b9-9e98-7e8ec3bdf11a","system_id":"levelo_inurba_marseille","lat":43.340804,"lon":5.410219,"is_reserved":false,"is_disabled":false,"rental_uris":{"android":"levelo://app?vid=f5f08941-357d-47b9-9e98-7e8ec3bdf11a","ios":"levelo://app?vid=f5f08941-357d-47b9-9e98-7e8ec3bdf11a"},"vehicle_type_id":"4","last_reported":1691086086,"current_range_meters":11200,"station_id":"ce4bhqh2rcd13ifvqhlg","pricing_plan_id":"free"},{"bike_id":"f0992da8-eb4c-4383-8c2d-f1da78aa9664","system_id":"levelo_inurba_marseille","lat":43.34142,"lon":5.40897,"is_reserved":false,"is_disabled":false,"rental_uris":{"android":"levelo://app?vid=f0992da8-eb4c-4383-8c2d-f1da78aa9664","ios":"levelo://app?vid=f0992da8-eb4c-4383-8c2d-f1da78aa9664"},"vehicle_type_id":"4","last_reported":1691086086,"current_range_meters":22000,"station_id":"ce4bhqh2rcd13ifvqhlg","pricing_plan_id":"free"},{"bike_id":"bd1f44dd-de3f-4502-844b-657a65815e1c","system_id":"levelo_inurba_marseille","lat":43.340804,"lon":5.410219,"is_reserved":false,"is_disabled":false,"rental_uris":{"android":"levelo://app?vid=bd1f44dd-de3f-4502-844b-657a65815e1c","ios":"levelo://app?vid=bd1f44dd-de3f-4502-844b-657a65815e1c"},"vehicle_type_id":"4","last_reported":1691086086,"current_range_meters":16000,"station_id":"ce4bhqh2rcd13ifvqhlg","pricing_plan_id":"free"},{"bike_id":"87034355-a2bc-48d7-b7e9-7dafc7c7d147","system_id":"levelo_inurba_marseille","lat":43.34145,"lon":5.40901,"is_reserved":false,"is_disabled":false,"rental_uris":{"android":"levelo://app?vid=87034355-a2bc-48d7-b7e9-7dafc7c7d147","ios":"levelo://app?vid=87034355-a2bc-48d7-b7e9-7dafc7c7d147"},"vehicle_type_id":"4","last_reported":1691086086,"current_range_meters":400,"station_id":"ce4bhqh2rcd13ifvqhlg","pricing_plan_id":"free"},{"bike_id":"4eb1c21a-7c62-4a68-9ada-c2575cb8f9a3","system_id":"levelo_inurba_marseille","lat":43.340804,"lon":5.410219,"is_reserved":false,"is_disabled":false,"rental_uris":{"android":"levelo://app?vid=4eb1c21a-7c62-4a68-9ada-c2575cb8f9a3","ios":"levelo://app?vid=4eb1c21a-7c62-4a68-9ada-c2575cb8f9a3"},"vehicle_type_id":"4","last_reported":1691086086,"current_range_meters":4800,"station_id":"ce4bhqh2rcd13ifvqhlg","pricing_plan_id":"free"},{"bike_id":"712354c5-f8ef-4524-bca6-b123428de151","system_id":"levelo_inurba_marseille","lat":43.274103,"lon":5.394016,"is_reserved":false,"is_disabled":false,"rental_uris":{"android":"levelo://app?vid=712354c5-f8ef-4524-bca6-b123428de151","ios":"levelo://app?vid=712354c5-f8ef-4524-bca6-b123428de151"},"vehicle_type_id":"4","last_reported":1691086086,"current_range_meters":800,"station_id":"ce4bhdp2rcd13ifvqf20","pricing_plan_id":"free"},{"bike_id":"b663a514-efc1-4c5c-bb4c-67bc6aca7c76","system_id":"levelo_inurba_marseille","lat":43.30414,"lon":5.42538,"is_reserved":false,"is_disabled":false,"rental_uris":{"android":"levelo://app?vid=b663a514-efc1-4c5c-bb4c-67bc6aca7c76","ios":"levelo://app?vid=b663a514-efc1-4c5c-bb4c-67bc6aca7c76"},"vehicle_type_id":"4","last_reported":1691086086,"current_range_meters":8000,"station_id":"ce4bhoh2rcd13ifvqh6g","pricing_plan_id":"free"},{"bike_id":"da9f1790-1a6e-4444-94ca-d87e34580352","system_id":"levelo_inurba_marseille","lat":43.304176,"lon":5.425415,"is_reserved":false,"is_disabled":false,"rental_uris":{"android":"levelo://app?vid=da9f1790-1a6e-4444-94ca-d87e34580352","ios":"levelo://app?vid=da9f1790-1a6e-4444-94ca-d87e34580352"},"vehicle_type_id":"4","last_reported":1691086086,"current_range_meters":10800,"station_id":"","pricing_plan_id":"free"},{"bike_id":"eb8461fb-e042-4e1a-8141-0efef5d23f7c","system_id":"levelo_inurba_marseille","lat":43.28171,"lon":5.4111,"is_reserved":false,"is_disabled":false,"rental_uris":{"android":"levelo://app?vid=eb8461fb-e042-4e1a-8141-0efef5d23f7c","ios":"levelo://app?vid=eb8461fb-e042-4e1a-8141-0efef5d23f7c"},"vehicle_type_id":"4","last_reported":1691086086,"current_range_meters":12800,"station_id":"","pricing_plan_id":"free"},{"bike_id":"83c74fd2-8dce-45fa-9335-3677b3b8a961","system_id":"levelo_inurba_marseille","lat":43.278128,"lon":5.407195,"is_reserved":false,"is_disabled":false,"rental_uris":{"android":"levelo://app?vid=83c74fd2-8dce-45fa-9335-3677b3b8a961","ios":"levelo://app?vid=83c74fd2-8dce-45fa-9335-3677b3b8a961"},"vehicle_type_id":"4","last_reported":1691086086,"current_range_meters":14000,"station_id":"ce4bhnh2rcd13ifvqgtg","pricing_plan_id":"free"},