{"last_updated":1737907792,"ttl":60,"version":"2.2","data":{"bikes":[{"bike_id":"27d0cc93-2e9c-4534-9db3-c1fc5c72f003","system_id":"levelo_inurba_marseille","lat":43.29005,"lon":5.35618,"is_reserved":false,"is_disabled":false,"rental_uris":{"android":"levelo://app?vid=27d0cc93-2e9c-4534-9db3-c1fc5c72f003","ios":"levelo://app?vid=27d0cc93-2e9c-4534-9db3-c1fc5c72f003"},"vehicle_type_id":"4","last_reported":1737907792,"current_range_meters":38800,"station_id":"ce4bhb92rcd13ifvqen0","pricing_plan_id":"cebpf4jnsgd1na2vs0mg"},{"bike_id":"ff9bce2c-aa12-4c02-a055-4446f6289aa4","system_id":"levelo_inurba_marseille","lat":43.26198,"lon":5.37936,"is_reserved":false,"is_disabled":false,"rental_uris":{"android":"levelo://app?vid=ff9bce2c-aa12-4c02-a055-4446f6289aa4","ios":"levelo://app?vid=ff9bce2c-aa12-4c02-a055-4446f6289aa4"},"vehicle_type_id":"4","last_reported":1737907792,"current_range_meters":35200,"station_id":"ce4bhjp2rcd13ifvqg90","pricing_plan_id":"cebpf4jnsgd1na2vs0mg"},{"bike_id":"e99cc94d-9d9b-4398-920e-3d92ecbab1be","system_id":"levelo_inurba_marseille","lat":43.29017,"lon":5.38143,"is_reserved":false,"is_disabled":false,"rental_uris":{"android":"levelo://app?vid=e99cc94d-9d9b-4398-920e-3d92ecbab1be","ios":"levelo://app?vid=e99cc94d-9d9b-4398-920e-3d92ecbab1be"},"vehicle_type_id":"4","last_reported":1737907792,"current_range_meters":20000,"station_id":"ce4bh4p2rcd13ifvqe1g","pricing_plan_id":"cebpf4jnsgd1na2vs0mg"},{"bike_id":"22fdda07-29f7-4097-aa7c-457566d3caba","system_id":"levelo_inurba_marseille","lat":43.25082,"lon":5.39546,"is_reserved":false,"is_disabled":false,"rental_uris":{"android":"levelo://app?vid=22fdda07-29f7-4097-aa7c-457566d3caba","ios":"levelo://app?vid=22fdda07-29f7-4097-aa7c-457566d3caba"},"vehicle_type_id":"4","last_reported":1737907792,"current_range_meters":25200,"station_id":"ce4bhm12rcd13ifvqgkg","pricing_plan_id":"cebpf4jnsgd1na2vs0mg"},{"bike_id":"6903bd93-3831-44af-9688-793a949e365f","system_id":"levelo_inurba_marseille","lat":43.27934,"lon":5.41044,"is_reserved":false,"is_disabled":false,"rental_uris":{"android":"levelo://app?vid=6903bd93-3831-44af-9688-793a949e365f","ios":"levelo://app?vid=6903bd93-3831-44af-9688-793a949e365f"},"vehicle_type_id":"4","last_reported":1737907792,"current_range_meters":38800,"station_id":"ce4bhnp2rcd13ifvqh0g","pricing_plan_id":"cebpf4jnsgd1na2vs0mg"},{"bike_id":"4857b4cf-decd-41a9-ade3-4c571462c146","system_id":"levelo_inurba_marseille","lat":43.25389,"lon":5.419,"is_reserved":false,"is_disabled":true,"rental_uris":{"android":"levelo://app?vid=4857b4cf-decd-41a9-ade3-4c571462c146","ios":"levelo://app?vid=4857b4cf-decd-41a9-ade3-4c571462c146"},"vehicle_type_id":"4","last_reported":1737907792,"current_range_meters":0,"station_id":"","pricing_plan_id":"cebpf4jnsgd1na2vs0mg"},{"bike_id":"58d9e3df-28a3-4560-b2cd-4d33fefbd544","system_id":"levelo_inurba_marseille","lat":43.2834,"lon":5.38122,"is_reserved":false,"is_disabled":true,"rental_uris":{"android":"levelo://app?vid=58d9e3df-28a3-4560-b2cd-4d33fefbd544","ios":"levelo://app?vid=58d9e3df-28a3-4560-b2cd-4d33fefbd544"},"vehicle_type_id":"4","last_reported":1737907792,"current_range_meters":16400,"station_id":"ce4bh412rcd13ifvqdr0","pricing_plan_id":"cebpf4jnsgd1na2vs0mg"},{"bike_id":"fa5cc696-fa74-45d7-9894-bb340f9342a9","system_id":"levelo_inurba_marseille","lat":43.28656,"lon":5.36328,"is_reserved":false,"is_disabled":true,"rental_uris":{"android":"levelo://app?vid=fa5cc696-fa74-45d7-9894-bb340f9342a9","ios":"levelo://app?vid=fa5cc696-fa74-45d7-9894-bb340f9342a9"},"vehicle_type_id":"4","last_reported":1737907792,"current_range_meters":0,"station_id":"ce4bhah2rcd13ifvqej0","pricing_plan_id":"cebpf4jnsgd1na2vs0mg"},{"bike_id":"984f7c78-4e5e-495f-9ca7-c8bc0d84b6d5","system_id":"levelo_inurba_marseille","lat":43.32293,"lon":5.38271,"is_reserved":false,"is_disabled":false,"rental_uris":{"android":"levelo://app?vid=984f7c78-4e5e-495f-9ca7-c8bc0d84b6d5","ios":"levelo://app?vid=984f7c78-4e5e-495f-9ca7-c8bc0d84b6d5"},"vehicle_type_id":"4","last_reported":1737907792,"current_range_meters":34800,"station_id":"ce4bhr12rcd13ifvqhqg","pricing_plan_id":"cebpf4jnsgd1na2vs0mg"},{"bike_id":"ef02b642-a6c8-4ff7-a65b-ce3b5db3801d","system_id":"levelo_inurba_marseille","lat":43.29277,"lon":5.36858,"is_reserved":false,"is_disabled":false,"rental_uris":{"android":"levelo://app?vid=ef02b642-a6c8-4ff7-a65b-ce3b5db3801d","ios":"levelo://app?vid=ef02b642-a6c8-4ff7-a65b-ce3b5db3801d"},"vehicle_type_id":"4","last_reported":1737907792,"current_range_meters":6000,"station_id":"ce4bhbp2rcd13ifvqesg","pricing_plan_id":"cebpf4jnsgd1na2vs0mg"},{"bike_id":"09435a84-9a6b-483c-9f6b-f935a32844dc","system_id":"levelo_inurba_marseille","lat":43.29002,"lon":5.3561,"is_reserved":false,"is_disabled":false,"rental_uris":{"android":"levelo://app?vid=09435a84-9a6b-483c-9f6b-f935a32844dc","ios":"levelo://app?vid=09435a84-9a6b-483c-9f6b-f935a32844dc"},"vehicle_type_id":"4","last_reported":1737907792,"current_range_meters":14000,"station_id":"ce4bhb92rcd13ifvqen0","pricing_plan_id":"cebpf4jnsgd1na2vs0mg"},{"bike_id":"22fe6381-bfa8-481c-9415-4e6666169356","system_id":"levelo_inurba_marseille","lat":43.26546,"lon":5.3901,"is_reserved":false,"is_disabled":false,"rental_uris":{"android":"levelo://app?vid=22fe6381-bfa8-481c-9415-4e6666169356","ios":"levelo://app?vid=22fe6381-bfa8-481c-9415-4e6666169356"},"vehicle_type_id":"4","last_reported":1737907792,"current_range_meters":32400,"station_id":"ce4bhe12rcd13ifvqf30","pricing_plan_id":"cebpf4jnsgd1na2vs0mg"},{"bike_id":"6715958a-e260-4e59-8d5b-cc21194b7dca","system_id":"levelo_inurba_marseille","lat":43.26179,"lon":5.38162,"is_reserved":false,"is_disabled":false,"rental_uris":{"android":"levelo://app?vid=6715958a-e260-4e59-8d5b-cc21194b7dca","ios":"levelo://app?vid=6715958a-e260-4e59-8d5b-cc21194b7dca"},"vehicle_type_id":"4","last_reported":1737907792,"current_range_meters":38800,"station_id":"ce4bhjp2rcd13ifvqg90","pricing_plan_id":"cebpf4jnsgd1na2vs0mg"},{"bike_id":"457dbd0e-8f95-45e9-8ae6-40b39a5ca596","system_id":"levelo_inurba_marseille","lat":43.23179,"lon":5.35466,"is_reserved":false,"is_disabled":false,"rental_uris":{"android":"levelo://app?vid=457dbd0e-8f95-45e9-8ae6-40b39a5ca596","ios":"levelo://app?vid=457dbd0e-8f95-45e9-8ae6-40b39a5ca596"},"vehicle_type_id":"4","last_reported":1737907792,"current_range_meters":35600,"station_id":"ce4bhu92rcd13ifvqi70","pricing_plan_id":"cebpf4jnsgd1na2vs0mg"},{"bike_id":"d77db00f-908b-4381-ac06-dc3e91b69008","system_id":"levelo_inurba_marseille","lat":43.25577,"lon":5.38235,"is_reserved":false,"is_disabled":false,"rental_uris":{"android":"levelo://app?vid=d77db00f-908b-4381-ac06-dc3e91b69008","ios":"levelo://app?vid=d77db00f-908b-4381-ac06-dc3e91b69008"},"vehicle_type_id":"4","last_reported":1737907792,"current_range_meters":38800,"station_id":"ce4bhih2rcd13ifvqfs0","pricing_plan_id":"cebpf4jnsgd1na2vs0mg"},{"bike_id":"681c8a1a-5cdc-4c55-968c-f709ece7b557","system_id":"levelo_inurba_marseille","lat":43.26226,"lon":5.4046,"is_reserved":false,"is_disabled":false,"rental_uris":{"android":"levelo://app?vid=681c8a1a-5cdc-4c55-968c-f709ece7b557","ios":"levelo://app?vid=681c8a1a-5cdc-4c55-968c-f709ece7b557"},"vehicle_type_id":"4","last_reported":1737907792,"current_range_meters":26800,"station_id":"","pricing_plan_id":"cebpf4jnsgd1na2vs0mg"},{"bike_id":"d249027f-c553-4ff1-9f7c-498d6709f69a","system_id":"levelo_inurba_marseille","lat":43.28417,"lon":5.349949,"is_reserved":false,"is_disabled":false,"rental_uris":{"android":"levelo://app?vid=d249027f-c553-4ff1-9f7c-498d6709f69a","ios":"levelo://app?vid=d249027f-c553-4ff1-9f7c-498d6709f69a"},"vehicle_type_id":"4","last_reported":1737907792,"current_range_meters":34000,"station_id":"","pricing_plan_id":"cebpf4jnsgd1na2vs0mg"},{"bike_id":"4e4a5c41-6ed2-435b-9c6a-dbaeecb8e0b1","system_id":"levelo_inurba_marseille","lat":43.29919,"lon":5.43629,"is_reserved":false,"is_disabled":false,"rental_uris":{"android":"levelo://app?vid=4e4a5c41-6ed2-435b-9c6a-dbaeecb8e0b1","ios":"levelo://app?vid=4e4a5c41-6ed2-435b-9c6a-dbaeecb8e0b1"},"vehicle_type_id":"4","last_reported":1737907792,"current_range_meters":15200,"station_id":"ce4bhpp2rcd13ifvqhfg","pricing_plan_id":"cebpf4jnsgd1na2vs0mg"},{"bike_id":"5b958f92-bbf7-4543-90fc-bcc0224ede7f","system_id":"levelo_inurba_marseille","lat":43.32027,"lon":5.41527,"is_reserved":false,"is_disabled":false,"rental_uris":{"android":"levelo://app?vid=5b958f92-bbf7-4543-90fc-bcc0224ede7f","ios":"levelo://app?vid=5b958f92-bbf7-4543-90fc-bcc0224ede7f"},"vehicle_type_id":"4","last_reported":1737907792,"current_range_meters":39200,"station_id":"ce4bhq92rcd13ifvqhkg","pricing_plan_id":"cebpf4jnsgd1na2vs0mg"},{"bike_id":"d4e45fc8-da92-4d12-9d68-cc717e02e5d0","system_id":"levelo_inurba_marseille","lat":43.28162,"lon":5.4264,"is_reserved":false,"is_disabled":false,"rental_uris":{"android":"levelo://app?vid=d4e45fc8-da92-4d12-9d68-cc717e02e5d0","ios":"levelo://app?vid=d4e45fc8-da92-4d12-9d68-cc717e02e5d0"},"vehicle_type_id":"4","last_reported":1737907792,"current_range_meters":16000,"station_id":"ce4bhnh2rcd13ifvqgug","pricing_plan_id":"cebpf4jnsgd1na2vs0mg"},{"bike_id":"669d1798-695e-4022-b377-164b67987bcf","system_id":"levelo_inurba_marseille","lat":43.3031,"lon":5.39211,"is_reserved":false,"is_disabled":false,"rental_uris":{"android":"levelo://app?vid=669d1798-695e-4022-b377-164b67987bcf","ios":"levelo://app?vid=669d1798-695e-4022-b377-164b67987bcf"},"vehicle_type_id":"4","last_reported":1737907792,"current_range_meters":6800,"station_id":"ce4bgkh2rcd13ifvqbk0","pricing_plan_id":"cebpf4jnsgd1na2vs0mg"},{"bike_id":"e05b826e-7ecd-4d63-bf30-527254ee854c","system_id":"levelo_inurba_marseille","lat":43.3097,"lon":5.3901,"is_reserved":false,"is_disabled":true,"rental_uris":{"android":"levelo://app?vid=e05b826e-7ecd-4d63-bf30-527254ee854c","ios":"levelo://app?vid=e05b826e-7ecd-4d63-bf30-527254ee854c"},"vehicle_type_id":"4","last_reported":1737907792,"current_range_meters":0,"station_id":"ce4bgup2rcd13ifvqco0","pricing_plan_id":"cebpf4jnsgd1na2vs0mg"},{"bike_id":"cdd3ee8c-8a3d-434f-bbab-69b040fa03ea","system_id":"levelo_inurba_marseille","lat":43.31992,"lon":5.38164,"is_reserved":false,"is_disabled":false,"rental_uris":{"android":"levelo://app?vid=cdd3ee8c-8a3d-434f-bbab-69b040fa03ea","ios":"levelo://app?vid=cdd3ee8c-8a3d-434f-bbab-69b040fa03ea"},"vehicle_type_id":"4","last_reported":1737907792,"current_range_meters":36000,"station_id":"ce4bhr12rcd13ifvqhpg","pricing_plan_id":"cebpf4jnsgd1na2vs0mg"},{"bike_id":"e9b18d33-2c32-4c0b-bac5-aee7380b5154","system_id":"levelo_inurba_marseille","lat":43.25077,"lon":5.39512,"is_reserved":false,"is_disabled":false,"rental_uris":{"android":"levelo://app?vid=e9b18d33-2c32-4c0b-bac5-aee7380b5154","ios":"levelo://app?vid=e9b18d33-2c32-4c0b-bac5-aee7380b5154"},"vehicle_type_id":"4","last_reported":1737907792,"current_range_meters":38800,"station_id":"ce4bhm12rcd13ifvqgkg","pricing_plan_id":"cebpf4jnsgd1na2vs0mg"},{"bike_id":"bb9df935-971d-48fe-841d-0dade0ac91aa","system_id":"levelo_inurba_marseille","lat":43.29527,"lon":5.38546,"is_reserved":false,"is_disabled":true,"rental_uris":{"android":"levelo://app?vid=bb9df935-971d-48fe-841d-0dade0ac91aa","ios":"levelo://app?vid=bb9df935-971d-48fe-841d-0dade0ac91aa"},"vehicle_type_id":"4","last_reported":1737907792,"current_range_meters":30000,"station_id":"ce4bgih2rcd13ifvqba0","pricing_plan_id":"cebpf4jnsgd1na2vs0mg"},{"bike_id":"fafdc84b-b0d1-4753-a620-3104ec8efba7","system_id":"levelo_inurba_marseille","lat":43.29424,"lon":5.38625,"is_reserved":false,"is_disabled":false,"rental_uris":{"android":"levelo://app?vid=fafdc84b-b0d1-4753-a620-3104ec8efba7","ios":"levelo://app?vid=fafdc84b-b0d1-4753-a620-3104ec8efba7"},"vehicle_type_id":"4","last_reported":1737907792,"current_range_meters":7200,"station_id":"ce4bh2h2rcd13ifvqdh0","pricing_plan_id":"cebpf4jnsgd1na2vs0mg"},{"bike_id":"90e237f0-93b1-4db3-9e98-47d2a0d9dced","system_id":"levelo_inurba_marseille","lat":43.24999,"lon":5.38952,"is_reserved":false,"is_disabled":false,"rental_uris":{"android":"levelo://app?vid=90e237f0-93b1-4db3-9e98-47d2a0d9dced","ios":"levelo://app?vid=90e237f0-93b1-4db3-9e98-47d2a0d9dced"},"vehicle_type_id":"4","last_reported":1737907792,"current_range_meters":25200,"station_id":"ce4bhgp2rcd13ifvqfd0","pricing_plan_id":"cebpf4jnsgd1na2vs0mg"},{"bike_id":"468a3a31-a37d-4efe-b85c-3c19ea7f16d7","system_id":"levelo_inurba_marseille","lat":43.28475,"lon":5.38427,"is_reserved":false,"is_disabled":false,"rental_uris":{"android":"levelo://app?vid=468a3a31-a37d-4efe-b85c-3c19ea7f16d7","ios":"levelo://app?vid=468a3a31-a37d-4efe-b85c-3c19ea7f16d7"},"vehicle_type_id":"4","last_reported":1737907792,"current_range_meters":11600,"station_id":"ce4bh512rcd13ifvqe3g","pricing_plan_id":"cebpf4jnsgd1na2vs0mg"},{"bike_id":"917f80c4-9a48-4fca-8b61-6ef097ec9fd0","system_id":"levelo_inurba_marseille","lat":43.298417,"lon":5.36252,"is_reserved":false,"is_disabled":false,"rental_uris":{"android":"levelo://app?vid=917f80c4-9a48-4fca-8b61-6ef097ec9fd0","ios":"levelo://app?vid=917f80c4-9a48-4fca-8b61-6ef097ec9fd0"},"vehicle_type_id":"4","last_reported":1737907792,"current_range_meters":29600,"station_id":"ce4bgpp2rcd13ifvqc3g","pricing_plan_id":"cebpf4jnsgd1na2vs0mg"},{"bike_id":"2990ac0a-d6ce-48cf-8c2e-15129d853cd2","system_id":"levelo_inurba_marseille","lat":43.29546,"lon":5.38537,"is_reserved":false,"is_disabled":true,"rental_uris":{"android":"levelo://app?vid=2990ac0a-d6ce-48cf-8c2e-15129d853cd2","ios":"levelo://app?vid=2990ac0a-d6ce-48cf-8c2e-15129d853cd2"},"vehicle_type_id":"4","last_reported":1737907792,"current_range_meters":37600,"station_id":"ce4bgih2rcd13ifvqba0","pricing_plan_id":"cebpf4jnsgd1na2vs0mg"},{"bike_id":"db9ff4d6-03c8-4ab8-8178-be1ed6b4d1d6","system_id":"levelo_inurba_marseille","lat":43.29881,"lon":5.40053,"is_reserved":false,"is_disabled":false,"rental_uris":{"android":"levelo://app?vid=db9ff4d6-03c8-4ab8-8178-be1ed6b4d1d6","ios":"levelo://app?vid=db9ff4d6-03c8-4ab8-8178-be1ed6b4d1d6"},"vehicle_type_id":"4","last_reported":1737907792,"current_range_meters":32400,"station_id":"ce4bh012rcd13ifvqd10","pricing_plan_id":"cebpf4jnsgd1na2vs0mg"},{"bike_id":"26e3b0f2-7000-4acf-9b2f-448277ae8189","system_id":"levelo_inurba_marseille","lat":43.27655,"lon":5.38076,"is_reserved":false,"is_disabled":false,"rental_uris":{"android":"levelo://app?vid=26e3b0f2-7000-4acf-9b2f-448277ae8189","ios":"levelo://app?vid=26e3b0f2-7000-4acf-9b2f-448277ae8189"},"vehicle_type_id":"4","last_reported":1737907792,"current_range_meters":5600,"station_id":"ce4bhg12rcd13ifvqf80","pricing_plan_id":"cebpf4jnsgd1na2vs0mg"},{"bike_id":"7b764a37-86ae-4506-bf6b-9f8ff35451d3","system_id":"levelo_inurba_marseille","lat":43.23196,"lon":5.35561,"is_reserved":false,"is_disabled":false,"rental_uris":{"android":"levelo://app?vid=7b764a37-86ae-4506-bf6b-9f8ff35451d3","ios":"levelo://app?vid=7b764a37-86ae-4506-bf6b-9f8ff35451d3"},"vehicle_type_id":"4","last_reported":1737907792,"current_range_meters":12000,"station_id":"ce4bhu92rcd13ifvqi70","pricing_plan_id":"cebpf4jnsgd1na2vs0mg"},{"bike_id":"707291c0-801f-4378-b622-04349833c400","system_id":"levelo_inurba_marseille","lat":43.28944,"lon":5.36631,"is_reserved":false,"is_disabled":true,"rental_uris":{"android":"levelo://app?vid=707291c0-801f-4378-b622-04349833c400","ios":"levelo://app?vid=707291c0-801f-4378-b622-04349833c400"},"vehicle_type_id":"4","last_reported":1737907792,"current_range_meters":34800,"station_id":"ce4bhap2rcd13ifvqek0","pricing_plan_id":"cebpf4jnsgd1na2vs0mg"},{"bike_id":"c998a431-fe7c-4694-a808-6e4ab347c702","system_id":"levelo_inurba_marseille","lat":43.24647,"lon":5.38895,"is_reserved":false,"is_disabled":false,"rental_uris":{"android":"levelo://app?vid=c998a431-fe7c-4694-a808-6e4ab347c702","ios":"levelo://app?vid=c998a431-fe7c-4694-a808-6e4ab347c702"},"vehicle_type_id":"4","last_reported":1737907792,"current_range_meters":39200,"station_id":"ce4bhg12rcd13ifvqf60","pricing_plan_id":"cebpf4jnsgd1na2vs0mg"},{"bike_id":"58c3af30-d7ad-4303-be68-d0aba4c74fef","system_id":"levelo_inurba_marseille","lat":43.29519,"lon":5.3856,"is_reserved":false,"is_disabled":false,"rental_uris":{"android":"levelo://app?vid=58c3af30-d7ad-4303-be68-d0aba4c74fef","ios":"levelo://app?vid=58c3af30-d7ad-4303-be68-d0aba4c74fef"},"vehicle_type_id":"4","last_reported":1737907792,"current_range_meters":39200,"station_id":"ce4bgih2rcd13ifvqba0","pricing_plan_id":"cebpf4jnsgd1na2vs0mg"},{"bike_id":"a6bb6ed3-5b96-48f4-8d49-5c7aaee9b17a","system_id":"levelo_inurba_marseille","lat":43.27063,"lon":5.42276,"is_reserved":false,"is_disabled":true,"rental_uris":{"android":"levelo://app?vid=a6bb6ed3-5b96-48f4-8d49-5c7aaee9b17a","ios":"levelo://app?vid=a6bb6ed3-5b96-48f4-8d49-5c7aaee9b17a"},"vehicle_type_id":"4","last_reported":1737907792,"current_range_meters":0,"station_id":"ce4bhk92rcd13ifvqgb0","pricing_plan_id":"cebpf4jnsgd1na2vs0mg"},{"bike_id":"12295d51-a133-4b32-94bd-0de988c6c0cc","system_id":"levelo_inurba_marseille","lat":43.29807,"lon":5.38081,"is_reserved":false,"is_disabled":false,"rental_uris":{"android":"levelo://app?vid=12295d51-a133-4b32-94bd-0de988c6c0cc","ios":"levelo://app?vid=12295d51-a133-4b32-94bd-0de988c6c0cc"},"vehicle_type_id":"4","last_reported":1737907792,"current_range_meters":36400,"station_id":"ce4bgip2rcd13ifvqbb0","pricing_plan_id":"cebpf4jnsgd1na2vs0mg"},{"bike_id":"a920f8d7-8018-4bb4-b71f-f908f29f99fb","system_id":"levelo_inurba_marseille","lat":43.24802,"lon":5.37458,"is_reserved":false,"is_disabled":false,"rental_uris":{"android":"levelo://app?vid=a920f8d7-8018-4bb4-b71f-f908f29f99fb","ios":"levelo://app?vid=a920f8d7-8018-4bb4-b71f-f908f29f99fb"},"vehicle_type_id":"4","last_reported":1737907792,"current_range_meters":22800,"station_id":"ce4bhgh2rcd13ifvqfb0","pricing_plan_id":"cebpf4jnsgd1na2vs0mg"},{"bike_id":"f81400cb-f7cb-4b96-bc1a-2bb79860c30a","system_id":"levelo_inurba_marseille","lat":43.27828,"lon":5.40704,"is_reserved":false,"is_disabled":false,"rental_uris":{"android":"levelo://app?vid=f81400cb-f7cb-4b96-bc1a-2bb79860c30a","ios":"levelo://app?vid=f81400cb-f7cb-4b96-bc1a-2bb79860c30a"},"vehicle_type_id":"4","last_reported":1737907792,"current_range_meters":39200,"station_id":"ce4bhnh2rcd13ifvqgtg","pricing_plan_id":"cebpf4jnsgd1na2vs0mg"},{"bike_id":"8f1a65f8-8aa2-4960-b4b1-899591d000c3","system_id":"levelo_inurba_marseille","lat":43.26494,"lon":5.39546,"is_reserved":false,"is_disabled":false,"rental_uris":{"android":"levelo://app?vid=8f1a65f8-8aa2-4960-b4b1-899591d000c3","ios":"levelo://app?vid=8f1a65f8-8aa2-4960-b4b1-899591d000c3"},"vehicle_type_id":"4","last_reported":1737907792,"current_range_meters":32800,"station_id":"ce4bhi12rcd13ifvqfq0","pricing_plan_id":"cebpf4jnsgd1na2vs0mg"},{"bike_id":"5a504fe4-0ab6-4eed-b9ef-e27131441d67","system_id":"levelo_inurba_marseille","lat":43.30323,"lon":5.37872,"is_reserved":false,"is_disabled":false,"rental_uris":{"android":"levelo://app?vid=5a504fe4-0ab6-4eed-b9ef-e27131441d67","ios":"levelo://app?vid=5a504fe4-0ab6-4eed-b9ef-e27131441d67"},"vehicle_type_id":"4","last_reported":1737907792,"current_range_meters":28000,"station_id":"","pricing_plan_id":"cebpf4jnsgd1na2vs0mg"},{"bike_id":"cbab42e5-232d-4054-90ae-e30c7d6c0e5c","system_id":"levelo_inurba_marseille","lat":43.30295,"lon":5.39217,"is_reserved":false,"is_disabled":false,"rental_uris":{"android":"levelo://app?vid=cbab42e5-232d-4054-90ae-e30c7d6c0e5c","ios":"levelo://app?vid=cbab42e5-232d-4054-90ae-e30c7d6c0e5c"},"vehicle_type_id":"4","last_reported":1737907792,"current_range_meters":6800,"station_id":"ce4bgkh2rcd13ifvqbk0","pricing_plan_id":"cebpf4jnsgd1na2vs0mg"},{"bike_id":"2dda2b7b-1b16-4099-8d68-00c6dc76d2f7","system_id":"levelo_inurba_marseille","lat":43.28695,"lon":5.39983,"is_reserved":false,"is_disabled":false,"rental_uris":{"android":"levelo://app?vid=2dda2b7b-1b16-4099-8d68-00c6dc76d2f7","ios":"levelo://app?vid=2dda2b7b-1b16-4099-8d68-00c6dc76d2f7"},"vehicle_type_id":"4","last_reported":1737907792,"current_range_meters":19600,"station_id":"ce4bho92rcd13ifvqh3g","pricing_plan_id":"cebpf4jnsgd1na2vs0mg"},{"bike_id":"29537b6d-60f6-4053-b601-105bf13a2e3a","system_id":"levelo_inurba_marseille","lat":43.28478,"lon":5.38454,"is_reserved":false,"is_disabled":true,"rental_uris":{"android":"levelo://app?vid=29537b6d-60f6-4053-b601-105bf13a2e3a","ios":"levelo://app?vid=29537b6d-60f6-4053-b601-105bf13a2e3a"},"vehicle_type_id":"4","last_reported":1737907792,"current_range_meters":1600,"station_id":"ce4bh512rcd13ifvqe3g","pricing_plan_id":"cebpf4jnsgd1na2vs0mg"},{"bike_id":"b5a217cf-755e-449d-9de4-9c9870d79a8f","system_id":"levelo_inurba_marseille","lat":43.24385,"lon":5.37057,"is_reserved":false,"is_disabled":false,"rental_uris":{"android":"levelo://app?vid=b5a217cf-755e-449d-9de4-9c9870d79a8f","ios":"levelo://app?vid=b5a217cf-755e-449d-9de4-9c9870d79a8f"},"vehicle_type_id":"4","last_reported":1737907792,"current_range_meters":2800,"station_id":"ce4bhhh2rcd13ifvqfk0","pricing_plan_id":"cebpf4jnsgd1na2vs0mg"},{"bike_id":"04d93edb-c188-48e8-89db-4bed43c906bb","system_id":"levelo_inurba_marseille","lat":43.26027,"lon":5.37552,"is_reserved":false,"is_disabled":false,"rental_uris":{"android":"levelo://app?vid=04d93edb-c188-48e8-89db-4bed43c906bb","ios":"levelo://app?vid=04d93edb-c188-48e8-89db-4bed43c906bb"},"vehicle_type_id":"4","last_reported":1737907792,"current_range_meters":12800,"station_id":"ce4bhgh2rcd13ifvqfa0","pricing_plan_id":"cebpf4jnsgd1na2vs0mg"},{"bike_id":"ba44d13f-c376-4a94-afe6-106bda8c85ce","system_id":"levelo_inurba_marseille","lat":43.28038,"lon":5.36945,"is_reserved":false,"is_disabled":false,"rental_uris":{"android":"levelo://app?vid=ba44d13f-c376-4a94-afe6-106bda8c85ce","ios":"levelo://app?vid=ba44d13f-c376-4a94-afe6-106bda8c85ce"},"vehicle_type_id":"4","last_reported":1737907792,"current_range_meters":8000,"station_id":"ce4bha12rcd13ifvqef0","pricing_plan_id":"cebpf4jnsgd1na2vs0mg"},{"bike_id":"c54f5b2e-f783-418a-8119-a38c5ea2c0aa","system_id":"levelo_inurba_marseille","lat":43.28967,"lon":5.35648,"is_reserved":false,"is_disabled":true,"rental_uris":{"android":"levelo://app?vid=c54f5b2e-f783-418a-8119-a38c5ea2c0aa","ios":"levelo://app?vid=c54f5b2e-f783-418a-8119-a38c5ea2c0aa"},"vehicle_type_id":"4","last_reported":1737907792,"current_range_meters":4800,"station_id":"ce4bhb92rcd13ifvqen0","pricing_plan_id":"cebpf4jnsgd1na2vs0mg"},{"bike_id":"9838cc78-2b53-49d3-ae13-82df62c4fd64","system_id":"levelo_inurba_marseille","lat":43.284116,"lon":5.409364,"is_reserved":false,"is_disabled":true,"rental_uris":{"android":"levelo://app?vid=9838cc78-2b53-49d3-ae13-82df62c4fd64","ios":"levelo://app?vid=9838cc78-2b53-49d3-ae13-82df62c4fd64"},"vehicle_type_id":"4","last_reported":1737907792,"current_range_meters":0,"station_id":"","pricing_plan_id":"cebpf4jnsgd1na2vs0mg"},{"bike_id":"bee6535d-4697-4984-8a84-7f12fad40f3e","system_id":"levelo_inurba_marseille","lat":43.27377,"lon":5.36256,"is_reserved":false,"is_disabled":true,"rental_uris":{"android":"levelo://app?vid=bee6535d-4697-4984-8a84-7f12fad40f3e","ios":"levelo://app?vid=bee6535d-4697-4984-8a84-7f12fad40f3e"},"vehicle_type_id":"4","last_reported":1737907792,"current_range_meters":1200,"station_id":"ce4bhbh2rcd13ifvqeo0","pricing_plan_id":"cebpf4jnsgd1na2vs0mg"},{"bike_id":"05879178-1acc-40d9-bf93-f77eb370bf02","system_id":"levelo_inurba_marseille","lat":43.29625,"lon":5.40604,"is_reserved":false,"is_disabled":true,"rental_uris":{"android":"levelo://app?vid=05879178-1acc-40d9-bf93-f77eb370bf02","ios":"levelo://app?vid=05879178-1acc-40d9-bf93-f77eb370bf02"},"vehicle_type_id":"4","last_reported":1737907792,"current_range_meters":400,"station_id":"ce4bh0h2rcd13ifvqd60","pricing_plan_id":"cebpf4jnsgd1na2vs0mg"},{"bike_id":"1a12ccc4-119d-4583-9cd0-f3b08fa41a49","system_id":"levelo_inurba_marseille","lat":43.24073,"lon":5.37758,"is_reserved":false,"is_disabled":false,"rental_uris":{"android":"levelo://app?vid=1a12ccc4-119d-4583-9cd0-f3b08fa41a49","ios":"levelo://app?vid=1a12ccc4-119d-4583-9cd0-f3b08fa41a49"},"vehicle_type_id":"4","last_reported":1737907792,"current_range_meters":38000,"station_id":"ce4bhnp2rcd13ifvqgvg","pricing_plan_id":"cebpf4jnsgd1na2vs0mg"},{"bike_id":"c4a421c4-fa0f-4ba6-8525-fb0935c8b20f","system_id":"levelo_inurba_marseille","lat":43.3266,"lon":5.40993,"is_reserved":false,"is_disabled":false,"rental_uris":{"android":"levelo://app?vid=c4a421c4-fa0f-4ba6-8525-fb0935c8b20f","ios":"levelo://app?vid=c4a421c4-fa0f-4ba6-8525-fb0935c8b20f"},"vehicle_type_id":"4","last_reported":1737907792,"current_range_meters":38800,"station_id":"ce4bhpp2rcd13ifvqhgg","pricing_plan_id":"cebpf4jnsgd1na2vs0mg"},{"bike_id":"bf096a89-ee72-4f37-85bd-7b3cf9f0cb41","system_id":"levelo_inurba_marseille","lat":43.33739,"lon":5.39185,"is_reserved":false,"is_disabled":false,"rental_uris":{"android":"levelo://app?vid=bf096a89-ee72-4f37-85bd-7b3cf9f0cb41","ios":"levelo://app?vid=bf096a89-ee72-4f37-85bd-7b3cf9f0cb41"},"vehicle_type_id":"4","last_reported":1737907792,"current_range_meters":27600,"station_id":"ce4bhr92rcd13ifvqhsg","pricing_plan_id":"cebpf4jnsgd1na2vs0mg"},{"bike_id":"5310f7e3-8e77-4d91-a00f-e11a801e0b57","system_id":"levelo_inurba_marseille","lat":43.28555,"lon":5.39483,"is_reserved":false,"is_disabled":false,"rental_uris":{"android":"levelo://app?vid=5310f7e3-8e77-4d91-a00f-e11a801e0b57","ios":"levelo://app?vid=5310f7e3-8e77-4d91-a00f-e11a801e0b57"},"vehicle_type_id":"4","last_reported":1737907792,"current_range_meters":31200,"station_id":"ce4bh292rcd13ifvqdg0","pricing_plan_id":"cebpf4jnsgd1na2vs0mg"},{"bike_id":"c2378bb1-796c-4edf-bf87-198266dfa5e8","system_id":"levelo_inurba_marseille","lat":43.2321,"lon":5.35544,"is_reserved":false,"is_disabled":false,"rental_uris":{"android":"levelo://app?vid=c2378bb1-796c-4edf-bf87-198266dfa5e8","ios":"levelo://app?vid=c2378bb1-796c-4edf-bf87-198266dfa5e8"},"vehicle_type_id":"4","last_reported":1737907792,"current_range_meters":38000,"station_id":"ce4bhu92rcd13ifvqi70","pricing_plan_id":"cebpf4jnsgd1na2vs0mg"},{"bike_id":"45f22221-2497-4221-89d9-ad45725e7110","system_id":"levelo_inurba_marseille","lat":43.24072,"lon":5.37762,"is_reserved":false,"is_disabled":false,"rental_uris":{"android":"levelo://app?vid=45f22221-2497-4221-89d9-ad45725e7110","ios":"levelo://app?vid=45f22221-2497-4221-89d9-ad45725e7110"},"vehicle_type_id":"4","last_reported":1737907792,"current_range_meters":6400,"station_id":"ce4bhnp2rcd13ifvqgvg","pricing_plan_id":"cebpf4jnsgd1na2vs0mg"},{"bike_id":"d69cf1fa-59ad-4f44-a9fb-82fbbe1b6b05","system_id":"levelo_inurba_marseille","lat":43.30788,"lon":5.43518,"is_reserved":false,"is_disabled":false,"rental_uris":{"android":"levelo://app?vid=d69cf1fa-59ad-4f44-a9fb-82fbbe1b6b05","ios":"levelo://app?vid=d69cf1fa-59ad-4f44-a9fb-82fbbe1b6b05"},"vehicle_type_id":"4","last_reported":1737907792,"current_range_meters":24400,"station_id":"ce4bhph2rcd13ifvqheg","pricing_plan_id":"cebpf4jnsgd1na2vs0mg"},{"bike_id":"fbe73d30-78a7-4049-991e-5de7e74309e3","system_id":"levelo_inurba_marseille","lat":43.26549,"lon":5.37295,"is_reserved":false,"is_disabled":false,"rental_uris":{"android":"levelo://app?vid=fbe73d30-78a7-4049-991e-5de7e74309e3","ios":"levelo://app?vid=fbe73d30-78a7-4049-991e-5de7e74309e3"},"vehicle_type_id":"4","last_reported":1737907792,"current_range_meters":28000,"station_id":"ce4bhg12rcd13ifvqf70","pricing_plan_id":"cebpf4jnsgd1na2vs0mg"},{"bike_id":"2e0a8b86-b457-48a0-8577-213b01080398","system_id":"levelo_inurba_marseille","lat":43.231991,"lon":5.355491,"is_reserved":false,"is_disabled":false,"rental_uris":{"android":"levelo://app?vid=2e0a8b86-b457-48a0-8577-213b01080398","ios":"levelo://app?vid=2e0a8b86-b457-48a0-8577-213b01080398"},"vehicle_type_id":"4","last_reported":1737907792,"current_range_meters":38800,"station_id":"ce4bhu92rcd13ifvqi70","pricing_plan_id":"cebpf4jnsgd1na2vs0mg"},{"bike_id":"a7cf4467-440c-4bb8-a849-e8f193507576","system_id":"levelo_inurba_marseille","lat":43.29744,"lon":5.3764,"is_reserved":false,"is_disabled":false,"rental_uris":{"android":"levelo://app?vid=a7cf4467-440c-4bb8-a849-e8f193507576","ios":"levelo://app?vid=a7cf4467-440c-4bb8-a849-e8f193507576"},"vehicle_type_id":"4","last_reported":1737907792,"current_range_meters":28000,"station_id":"ce4bgkh2rcd13ifvqbl0","pricing_plan_id":"cebpf4jnsgd1na2vs0mg"},{"bike_id":"d979d8d2-ec65-47af-9229-e4270aab279a","system_id":"levelo_inurba_marseille","lat":43.23094,"lon":5.35491,"is_reserved":false,"is_disabled":false,"rental_uris":{"android":"levelo://app?vid=d979d8d2-ec65-47af-9229-e4270aab279a","ios":"levelo://app?vid=d979d8d2-ec65-47af-9229-e4270aab279a"},"vehicle_type_id":"4","last_reported":1737907792,"current_range_meters":30800,"station_id":"cpo3342slgdg3j2ifvpg","pricing_plan_id":"cebpf4jnsgd1na2vs0mg"},{"bike_id":"8fd4eb87-e8ad-4fdd-ba04-7394e73ac704","system_id":"levelo_inurba_marseille","lat":43.29032,"lon":5.3592,"is_reserved":false,"is_disabled":false,"rental_uris":{"android":"levelo://app?vid=8fd4eb87-e8ad-4fdd-ba04-7394e73ac704","ios":"levelo://app?vid=8fd4eb87-e8ad-4fdd-ba04-7394e73ac704"},"vehicle_type_id":"4","last_reported":1737907792,"current_range_meters":34000,"station_id":"ce4bha92rcd13ifvqeg0","pricing_plan_id":"cebpf4jnsgd1na2vs0mg"},{"bike_id":"4e267303-d854-4716-9767-75bdf7f3f8d0","system_id":"levelo_inurba_marseille","lat":43.26951,"lon":5.38636,"is_reserved":false,"is_disabled":false,"rental_uris":{"android":"levelo://app?vid=4e267303-d854-4716-9767-75bdf7f3f8d0","ios":"levelo://app?vid=4e267303-d854-4716-9767-75bdf7f3f8d0"},"vehicle_type_id":"4","last_reported":1737907792,"current_range_meters":2800,"station_id":"ce4bhh92rcd13ifvqfh0","pricing_plan_id":"cebpf4jnsgd1na2vs0mg"},{"bike_id":"87a5bed0-aef1-423b-bd85-fe44fdeeb863","system_id":"levelo_inurba_marseille","lat":43.3374,"lon":5.39192,"is_reserved":false,"is_disabled":false,"rental_uris":{"android":"levelo://app?vid=87a5bed0-aef1-423b-bd85-fe44fdeeb863","ios":"levelo://app?vid=87a5bed0-aef1-423b-bd85-fe44fdeeb863"},"vehicle_type_id":"4","last_reported":1737907792,"current_range_meters":34000,"station_id":"ce4bhr92rcd13ifvqhsg","pricing_plan_id":"cebpf4jnsgd1na2vs0mg"},{"bike_id":"770988d0-47fd-4d12-8823-5c1dca0d5dcb","system_id":"levelo_inurba_marseille","lat":43.27368,"lon":5.36256,"is_reserved":false,"is_disabled":false,"rental_uris":{"android":"levelo://app?vid=770988d0-47fd-4d12-8823-5c1dca0d5dcb","ios":"levelo://app?vid=770988d0-47fd-4d12-8823-5c1dca0d5dcb"},"vehicle_type_id":"4","last_reported":1737907792,"current_range_meters":36800,"station_id":"ce4bhbh2rcd13ifvqeo0","pricing_plan_id":"cebpf4jnsgd1na2vs0mg"},{"bike_id":"fc8701b1-a9a1-49ef-b38a-01e5962d98c0","system_id":"levelo_inurba_marseille","lat":43.32584,"lon":5.42206,"is_reserved":false,"is_disabled":false,"rental_uris":{"android":"levelo://app?vid=fc8701b1-a9a1-49ef-b38a-01e5962d98c0","ios":"levelo://app?vid=fc8701b1-a9a1-49ef-b38a-01e5962d98c0"},"vehicle_type_id":"4","last_reported":1737907792,"current_range_meters":28400,"station_id":"","pricing_plan_id":"cebpf4jnsgd1na2vs0mg"},{"bike_id":"6e734e15-2ab8-4eec-82a8-7534605f2aec","system_id":"levelo_inurba_marseille","lat":43.29533,"lon":5.39042,"is_reserved":false,"is_disabled":true,"rental_uris":{"android":"levelo://app?vid=6e734e15-2ab8-4eec-82a8-7534605f2aec","ios":"levelo://app?vid=6e734e15-2ab8-4eec-82a8-7534605f2aec"},"vehicle_type_id":"4","last_reported":1737907792,"current_range_meters":19600,"station_id":"ce4bh3p2rcd13ifvqdp0","pricing_plan_id":"cebpf4jnsgd1na2vs0mg"},{"bike_id":"521d942e-819b-4e72-a661-13cf9795186e","system_id":"levelo_inurba_marseille","lat":43.265552,"lon":5.372953,"is_reserved":false,"is_disabled":false,"rental_uris":{"android":"levelo://app?vid=521d942e-819b-4e72-a661-13cf9795186e","ios":"levelo://app?vid=521d942e-819b-4e72-a661-13cf9795186e"},"vehicle_type_id":"4","last_reported":1737907792,"current_range_meters":38800,"station_id":"ce4bhg12rcd13ifvqf70","pricing_plan_id":"cebpf4jnsgd1na2vs0mg"},{"bike_id":"a466f83a-57a5-4cca-a7af-dc17d6c05cfd","system_id":"levelo_inurba_marseille","lat":43.28411,"lon":5.3501,"is_reserved":false,"is_disabled":false,"rental_uris":{"android":"levelo://app?vid=a466f83a-57a5-4cca-a7af-dc17d6c05cfd","ios":"levelo://app?vid=a466f83a-57a5-4cca-a7af-dc17d6c05cfd"},"vehicle_type_id":"4","last_reported":1737907792,"current_range_meters":36000,"station_id":"ce4bhbh2rcd13ifvqepg","pricing_plan_id":"cebpf4jnsgd1na2vs0mg"},{"bike_id":"b2a6f4ce-e5e6-4b95-91b9-5cf515000dc6","system_id":"levelo_inurba_marseille","lat":43.31259,"lon":5.40167,"is_reserved":false,"is_disabled":true,"rental_uris":{"android":"levelo://app?vid=b2a6f4ce-e5e6-4b95-91b9-5cf515000dc6","ios":"levelo://app?vid=b2a6f4ce-e5e6-4b95-91b9-5cf515000dc6"},"vehicle_type_id":"4","last_reported":1737907792,"current_range_meters":22400,"station_id":"ce4bh092rcd13ifvqd30","pricing_plan_id":"cebpf4jnsgd1na2vs0mg"},{"bike_id":"bf1a07ea-0fc5-4696-a1db-1309679a15aa","system_id":"levelo_inurba_marseille","lat":43.337263,"lon":5.391834,"is_reserved":false,"is_disabled":false,"rental_uris":{"android":"levelo://app?vid=bf1a07ea-0fc5-4696-a1db-1309679a15aa","ios":"levelo://app?vid=bf1a07ea-0fc5-4696-a1db-1309679a15aa"},"vehicle_type_id":"4","last_reported":1737907792,"current_range_meters":38800,"station_id":"ce4bhr92rcd13ifvqhsg","pricing_plan_id":"cebpf4jnsgd1na2vs0mg"},{"bike_id":"08703751-eaac-4fa5-b5d4-62a96f99295d","system_id":"levelo_inurba_marseille","lat":43.29016,"lon":5.38135,"is_reserved":false,"is_disabled":false,"rental_uris":{"android":"levelo://app?vid=08703751-eaac-4fa5-b5d4-62a96f99295d","ios":"levelo://app?vid=08703751-eaac-4fa5-b5d4-62a96f99295d"},"vehicle_type_id":"4","last_reported":1737907792,"current_range_meters":4000,"station_id":"ce4bh4p2rcd13ifvqe1g","pricing_plan_id":"cebpf4jnsgd1na2vs0mg"},{"bike_id":"892230f3-5780-4161-b516-93422b4640f6","system_id":"levelo_inurba_marseille","lat":43.32659,"lon":5.40991,"is_reserved":false,"is_disabled":false,"rental_uris":{"android":"levelo://app?vid=892230f3-5780-4161-b516-93422b4640f6","ios":"levelo://app?vid=892230f3-5780-4161-b516-93422b4640f6"},"vehicle_type_id":"4","last_reported":1737907792,"current_range_meters":39200,"station_id":"ce4bhpp2rcd13ifvqhgg","pricing_plan_id":"cebpf4jnsgd1na2vs0mg"},{"bike_id":"6917a016-fa2f-4726-952b-ffe1167166a3","system_id":"levelo_inurba_marseille","lat":43.26063,"lon":5.39389,"is_reserved":false,"is_disabled":true,"rental_uris":{"android":"levelo://app?vid=6917a016-fa2f-4726-952b-ffe1167166a3","ios":"levelo://app?vid=6917a016-fa2f-4726-952b-ffe1167166a3"},"vehicle_type_id":"4","last_reported":1737907792,"current_range_meters":0,"station_id":"ce4bhh92rcd13ifvqfj0","pricing_plan_id":"cebpf4jnsgd1na2vs0mg"},{"bike_id":"331eb9c9-4e87-4b06-a415-eab68370a3cd","system_id":"levelo_inurba_marseille","lat":43.26201,"lon":5.37457,"is_reserved":false,"is_disabled":true,"rental_uris":{"android":"levelo://app?vid=331eb9c9-4e87-4b06-a415-eab68370a3cd","ios":"levelo://app?vid=331eb9c9-4e87-4b06-a415-eab68370a3cd"},"vehicle_type_id":"4","last_reported":1737907792,"current_range_meters":0,"station_id":"ce4bhgp2rcd13ifvqfc0","pricing_plan_id":"cebpf4jnsgd1na2vs0mg"},{"bike_id":"3fdd7e70-3e83-43bd-b13e-16385dfa32fb","system_id":"levelo_inurba_marseille","lat":43.24533,"lon":5.39544,"is_reserved":false,"is_disabled":false,"rental_uris":{"android":"levelo://app?vid=3fdd7e70-3e83-43bd-b13e-16385dfa32fb","ios":"levelo://app?vid=3fdd7e70-3e83-43bd-b13e-16385dfa32fb"},"vehicle_type_id":"4","last_reported":1737907792,"current_range_meters":18800,"station_id":"ce4bhlp2rcd13ifvqgjg","pricing_plan_id":"cebpf4jnsgd1na2vs0mg"},{"bike_id":"acf4cec9-04b2-432c-83ba-19cc7ebac443","system_id":"levelo_inurba_marseille","lat":43.29022,"lon":5.38111,"is_reserved":false,"is_disabled":true,"rental_uris":{"android":"levelo://app?vid=acf4cec9-04b2-432c-83ba-19cc7ebac443","ios":"levelo://app?vid=acf4cec9-04b2-432c-83ba-19cc7ebac443"},"vehicle_type_id":"4","last_reported":1737907792,"current_range_meters":26800,"station_id":"ce4bh4p2rcd13ifvqe1g","pricing_plan_id":"cebpf4jnsgd1na2vs0mg"},{"bike_id":"c4e2c490-cf40-402e-bebc-1ab39352cd5f","system_id":"levelo_inurba_marseille","lat":43.27818,"lon":5.40701,"is_reserved":false,"is_disabled":false,"rental_uris":{"android":"levelo://app?vid=c4e2c490-cf40-402e-bebc-1ab39352cd5f","ios":"levelo://app?vid=c4e2c490-cf40-402e-bebc-1ab39352cd5f"},"vehicle_type_id":"4","last_reported":1737907792,"current_range_meters":34800,"station_id":"ce4bhnh2rcd13ifvqgtg","pricing_plan_id":"cebpf4jnsgd1na2vs0mg"},{"bike_id":"8a4fd9c1-126f-44bd-8919-7cf37f162b5e","system_id":"levelo_inurba_marseille","lat":43.28156,"lon":5.4263,"is_reserved":false,"is_disabled":false,"rental_uris":{"android":"levelo://app?vid=8a4fd9c1-126f-44bd-8919-7cf37f162b5e","ios":"levelo://app?vid=8a4fd9c1-126f-44bd-8919-7cf37f162b5e"},"vehicle_type_id":"4","last_reported":1737907792,"current_range_meters":34800,"station_id":"ce4bhnh2rcd13ifvqgug","pricing_plan_id":"cebpf4jnsgd1na2vs0mg"},{"bike_id":"a03a3317-f012-43d1-afb4-abcd0371b21e","system_id":"levelo_inurba_marseille","lat":43.32649,"lon":5.40989,"is_reserved":false,"is_disabled":false,"rental_uris":{"android":"levelo://app?vid=a03a3317-f012-43d1-afb4-abcd0371b21e","ios":"levelo://app?vid=a03a3317-f012-43d1-afb4-abcd0371b21e"},"vehicle_type_id":"4","last_reported":1737907792,"current_range_meters":38400,"station_id":"ce4bhpp2rcd13ifvqhgg","pricing_plan_id":"cebpf4jnsgd1na2vs0mg"},{"bike_id":"02a65308-936d-4187-b4db-c0afc2d3e10c","system_id":"levelo_inurba_marseille","lat":43.25938,"lon":5.40903,"is_reserved":false,"is_disabled":true,"rental_uris":{"android":"levelo://app?vid=02a65308-936d-4187-b4db-c0afc2d3e10c","ios":"levelo://app?vid=02a65308-936d-4187-b4db-c0afc2d3e10c"},"vehicle_type_id":"4","last_reported":1737907792,"current_range_meters":1600,"station_id":"ce4bhm92rcd13ifvqglg","pricing_plan_id":"cebpf4jnsgd1na2vs0mg"},{"bike_id":"dcf9d711-ba99-4755-b27f-9c85313f69fe","system_id":"levelo_inurba_marseille","lat":43.28412,"lon":5.34989,"is_reserved":false,"is_disabled":false,"rental_uris":{"android":"levelo://app?vid=dcf9d711-ba99-4755-b27f-9c85313f69fe","ios":"levelo://app?vid=dcf9d711-ba99-4755-b27f-9c85313f69fe"},"vehicle_type_id":"4","last_reported":1737907792,"current_range_meters":30400,"station_id":"ce4bhbh2rcd13ifvqepg","pricing_plan_id":"cebpf4jnsgd1na2vs0mg"},{"bike_id":"a8ebf96a-72c6-49a1-9891-ec74b107e794","system_id":"levelo_inurba_marseille","lat":43.23192,"lon":5.35544,"is_reserved":false,"is_disabled":false,"rental_uris":{"android":"levelo://app?vid=a8ebf96a-72c6-49a1-9891-ec74b107e794","ios":"levelo://app?vid=a8ebf96a-72c6-49a1-9891-ec74b107e794"},"vehicle_type_id":"4","last_reported":1737907792,"current_range_meters":16000,"station_id":"ce4bhu92rcd13ifvqi70","pricing_plan_id":"cebpf4jnsgd1na2vs0mg"},{"bike_id":"66df6f2f-7ff8-420e-a7d4-8c3d24cffd6d","system_id":"levelo_inurba_marseille","lat":43.26673,"lon":5.3827,"is_reserved":false,"is_disabled":false,"rental_uris":{"android":"levelo://app?vid=66df6f2f-7ff8-420e-a7d4-8c3d24cffd6d","ios":"levelo://app?vid=66df6f2f-7ff8-420e-a7d4-8c3d24cffd6d"},"vehicle_type_id":"4","last_reported":1737907792,"current_range_meters":10000,"station_id":"ce4bhg92rcd13ifvqf90","pricing_plan_id":"cebpf4jnsgd1na2vs0mg"},{"bike_id":"3f9e2645-a5a7-42d1-9df1-d0087da33468","system_id":"levelo_inurba_marseille","lat":43.29506,"lon":5.37507,"is_reserved":false,"is_disabled":false,"rental_uris":{"android":"levelo://app?vid=3f9e2645-a5a7-42d1-9df1-d0087da33468","ios":"levelo://app?vid=3f9e2645-a5a7-42d1-9df1-d0087da33468"},"vehicle_type_id":"4","last_reported":1737907792,"current_range_meters":34000,"station_id":"ce4bgkp2rcd13ifvqbmg","pricing_plan_id":"cebpf4jnsgd1na2vs0mg"},{"bike_id":"e9bc701b-86ce-45d6-bb9e-c295f6ce732c","system_id":"levelo_inurba_marseille","lat":43.30698,"lon":5.399275,"is_reserved":false,"is_disabled":true,"rental_uris":{"android":"levelo://app?vid=e9bc701b-86ce-45d6-bb9e-c295f6ce732c","ios":"levelo://app?vid=e9bc701b-86ce-45d6-bb9e-c295f6ce732c"},"vehicle_type_id":"4","last_reported":1737907792,"current_range_meters":34800,"station_id":"","pricing_plan_id":"cebpf4jnsgd1na2vs0mg"},{"bike_id":"ebbb6dd1-ea2a-4b9e-a0fd-f2fc38df1042","system_id":"levelo_inurba_marseille","lat":43.24994,"lon":5.38906,"is_reserved":false,"is_disabled":true,"rental_uris":{"android":"levelo://app?vid=ebbb6dd1-ea2a-4b9e-a0fd-f2fc38df1042","ios":"levelo://app?vid=ebbb6dd1-ea2a-4b9e-a0fd-f2fc38df1042"},"vehicle_type_id":"4","last_reported":1737907792,"current_range_meters":38800,"station_id":"ce4bhgp2rcd13ifvqfd0","pricing_plan_id":"cebpf4jnsgd1na2vs0mg"},{"bike_id":"4aa7106c-b8f2-4762-8af2-d1b612bb5451","system_id":"levelo_inurba_marseille","lat":43.28474,"lon":5.38408,"is_reserved":false,"is_disabled":false,"rental_uris":{"android":"levelo://app?vid=4aa7106c-b8f2-4762-8af2-d1b612bb5451","ios":"levelo://app?vid=4aa7106c-b8f2-4762-8af2-d1b612bb5451"},"vehicle_type_id":"4","last_reported":1737907792,"current_range_meters":21600,"station_id":"ce4bh512rcd13ifvqe3g","pricing_plan_id":"cebpf4jnsgd1na2vs0mg"},{"bike_id":"197755f9-f19f-4eec-87dd-a2fdcea56174","system_id":"levelo_inurba_marseille","lat":43.28763,"lon":5.35235,"is_reserved":false,"is_disabled":false,"rental_uris":{"android":"levelo://app?vid=197755f9-f19f-4eec-87dd-a2fdcea56174","ios":"levelo://app?vid=197755f9-f19f-4eec-87dd-a2fdcea56174"},"vehicle_type_id":"4","last_reported":1737907792,"current_range_meters":13600,"station_id":"ce4bh5p2rcd13ifvqe4g","pricing_plan_id":"cebpf4jnsgd1na2vs0mg"},{"bike_id":"31b69c83-24e9-4751-b317-fd08e86ee26d","system_id":"levelo_inurba_marseille","lat":43.29932,"lon":5.36546,"is_reserved":false,"is_disabled":false,"rental_uris":{"android":"levelo://app?vid=31b69c83-24e9-4751-b317-fd08e86ee26d","ios":"levelo://app?vid=31b69c83-24e9-4751-b317-fd08e86ee26d"},"vehicle_type_id":"4","last_reported":1737907792,"current_range_meters":33200,"station_id":"ce4bgm92rcd13ifvqbr0","pricing_plan_id":"cebpf4jnsgd1na2vs0mg"},{"bike_id":"8aa1a742-b93e-41fb-b26b-a5ea17a00a42","system_id":"levelo_inurba_marseille","lat":43.28925,"lon":5.38382,"is_reserved":false,"is_disabled":false,"rental_uris":{"android":"levelo://app?vid=8aa1a742-b93e-41fb-b26b-a5ea17a00a42","ios":"levelo://app?vid=8aa1a742-b93e-41fb-b26b-a5ea17a00a42"},"vehicle_type_id":"4","last_reported":1737907792,"current_range_meters":38800,"station_id":"ce4bh612rcd13ifvqe6g","pricing_plan_id":"cebpf4jnsgd1na2vs0mg"},{"bike_id":"742b075e-5a66-4e2f-9ba1-2d871f2cf5f7","system_id":"levelo_inurba_marseille","lat":43.298078,"lon":5.381084,"is_reserved":false,"is_disabled":true,"rental_uris":{"android":"levelo://app?vid=742b075e-5a66-4e2f-9ba1-2d871f2cf5f7","ios":"levelo://app?vid=742b075e-5a66-4e2f-9ba1-2d871f2cf5f7"},"vehicle_type_id":"4","last_reported":1737907792,"current_range_meters":3200,"station_id":"ce4bgip2rcd13ifvqbb0","pricing_plan_id":"cebpf4jnsgd1na2vs0mg"},{"bike_id":"6f20f9a6-b786-4af4-81af-ba59be1217ef","system_id":"levelo_inurba_marseille","lat":43.31993,"lon":5.3814,"is_reserved":false,"is_disabled":false,"rental_uris":{"android":"levelo://app?vid=6f20f9a6-b786-4af4-81af-ba59be1217ef","ios":"levelo://app?vid=6f20f9a6-b786-4af4-81af-ba59be1217ef"},"vehicle_type_id":"4","last_reported":1737907792,"current_range_meters":37600,"station_id":"ce4bhr12rcd13ifvqhpg","pricing_plan_id":"cebpf4jnsgd1na2vs0mg"},{"bike_id":"6ca29583-4124-4fc7-979f-64f2a444567d","system_id":"levelo_inurba_marseille","lat":43.288439,"lon":5.393258,"is_reserved":false,"is_disabled":false,"rental_uris":{"android":"levelo://app?vid=6ca29583-4124-4fc7-979f-64f2a444567d","ios":"levelo://app?vid=6ca29583-4124-4fc7-979f-64f2a444567d"},"vehicle_type_id":"4","last_reported":1737907792,"current_range_meters":8800,"station_id":"ce4bh2p2rcd13ifvqdi0","pricing_plan_id":"cebpf4jnsgd1na2vs0mg"},{"bike_id":"a3a6fa22-9b71-4e4d-a4fb-6eb8e6097881","system_id":"levelo_inurba_marseille","lat":43.23193,"lon":5.35546,"is_reserved":false,"is_disabled":false,"rental_uris":{"android":"levelo://app?vid=a3a6fa22-9b71-4e4d-a4fb-6eb8e6097881","ios":"levelo://app?vid=a3a6fa22-9b71-4e4d-a4fb-6eb8e6097881"},"vehicle_type_id":"4","last_reported":1737907792,"current_range_meters":24400,"station_id":"ce4bhu92rcd13ifvqi70","pricing_plan_id":"cebpf4jnsgd1na2vs0mg"},{"bike_id":"ba8a7a9c-20fe-4fc0-8152-251edf6fdf16","system_id":"levelo_inurba_marseille","lat":43.31206,"lon":5.36892,"is_reserved":false,"is_disabled":false,"rental_uris":{"android":"levelo://app?vid=ba8a7a9c-20fe-4fc0-8152-251edf6fdf16","ios":"levelo://app?vid=ba8a7a9c-20fe-4fc0-8152-251edf6fdf16"},"vehicle_type_id":"4","last_reported":1737907792,"current_range_meters":19600,"station_id":"ce4bgl92rcd13ifvqbq0","pricing_plan_id":"cebpf4jnsgd1na2vs0mg"},{"bike_id":"d54e7416-9133-47cb-bc55-3d590b1f98b8","system_id":"levelo_inurba_marseille","lat":43.28664,"lon":5.36358,"is_reserved":false,"is_disabled":true,"rental_uris":{"android":"levelo://app?vid=d54e7416-9133-47cb-bc55-3d590b1f98b8","ios":"levelo://app?vid=d54e7416-9133-47cb-bc55-3d590b1f98b8"},"vehicle_type_id":"4","last_reported":1737907792,"current_range_meters":0,"station_id":"ce4bhah2rcd13ifvqej0","pricing_plan_id":"cebpf4jnsgd1na2vs0mg"},{"bike_id":"f50c99f6-d9ef-4353-96c0-f0ed3401e807","system_id":"levelo_inurba_marseille","lat":43.25122,"lon":5.388102,"is_reserved":false,"is_disabled":false,"rental_uris":{"android":"levelo://app?vid=f50c99f6-d9ef-4353-96c0-f0ed3401e807","ios":"levelo://app?vid=f50c99f6-d9ef-4353-96c0-f0ed3401e807"},"vehicle_type_id":"4","last_reported":1737907792,"current_range_meters":22800,"station_id":"ce4bhg12rcd13ifvqf60","pricing_plan_id":"cebpf4jnsgd1na2vs0mg"},{"bike_id":"ae50538b-f428-4bb1-96ae-0cbd65c3e36d","system_id":"levelo_inurba_marseille","lat":43.28265,"lon":5.35066,"is_reserved":false,"is_disabled":true,"rental_uris":{"android":"levelo://app?vid=ae50538b-f428-4bb1-96ae-0cbd65c3e36d","ios":"levelo://app?vid=ae50538b-f428-4bb1-96ae-0cbd65c3e36d"},"vehicle_type_id":"4","last_reported":1737907792,"current_range_meters":1600,"station_id":"ce4bhbp2rcd13ifvqerg","pricing_plan_id":"cebpf4jnsgd1na2vs0mg"},{"bike_id":"e7b5364d-47e7-45d1-bfb6-e29107864918","system_id":"levelo_inurba_marseille","lat":43.29901,"lon":5.43683,"is_reserved":false,"is_disabled":false,"rental_uris":{"android":"levelo://app?vid=e7b5364d-47e7-45d1-bfb6-e29107864918","ios":"levelo://app?vid=e7b5364d-47e7-45d1-bfb6-e29107864918"},"vehicle_type_id":"4","last_reported":1737907792,"current_range_meters":8400,"station_id":"ce4bhpp2rcd13ifvqhfg","pricing_plan_id":"cebpf4jnsgd1na2vs0mg"},{"bike_id":"d3d7fdd5-e8ab-4079-a57f-52fbae4a9d26","system_id":"levelo_inurba_marseille","lat":43.28437,"lon":5.39186,"is_reserved":false,"is_disabled":false,"rental_uris":{"android":"levelo://app?vid=d3d7fdd5-e8ab-4079-a57f-52fbae4a9d26","ios":"levelo://app?vid=d3d7fdd5-e8ab-4079-a57f-52fbae4a9d26"},"vehicle_type_id":"4","last_reported":1737907792,"current_range_meters":6000,"station_id":"ce4bhoh2rcd13ifvqh5g","pricing_plan_id":"cebpf4jnsgd1na2vs0mg"},{"bike_id":"742320c3-5b68-4a0d-85b1-4fef96f5616f","system_id":"levelo_inurba_marseille","lat":43.29869,"lon":5.36263,"is_reserved":false,"is_disabled":false,"rental_uris":{"android":"levelo://app?vid=742320c3-5b68-4a0d-85b1-4fef96f5616f","ios":"levelo://app?vid=742320c3-5b68-4a0d-85b1-4fef96f5616f"},"vehicle_type_id":"4","last_reported":1737907792,"current_range_meters":18800,"station_id":"ce4bgpp2rcd13ifvqc3g","pricing_plan_id":"cebpf4jnsgd1na2vs0mg"},{"bike_id":"1c35c755-8b1c-439e-8798-f1a001a3969d","system_id":"levelo_inurba_marseille","lat":43.28111,"lon":5.37838,"is_reserved":false,"is_disabled":true,"rental_uris":{"android":"levelo://app?vid=1c35c755-8b1c-439e-8798-f1a001a3969d","ios":"levelo://app?vid=1c35c755-8b1c-439e-8798-f1a001a3969d"},"vehicle_type_id":"4","last_reported":1737907792,"current_range_meters":0,"station_id":"ce4bha12rcd13ifvqee0","pricing_plan_id":"cebpf4jnsgd1na2vs0mg"},{"bike_id":"ebf2c39b-c3e6-486e-b3c3-ddf109993279","system_id":"levelo_inurba_marseille","lat":43.25585,"lon":5.38238,"is_reserved":false,"is_disabled":false,"rental_uris":{"android":"levelo://app?vid=ebf2c39b-c3e6-486e-b3c3-ddf109993279","ios":"levelo://app?vid=ebf2c39b-c3e6-486e-b3c3-ddf109993279"},"vehicle_type_id":"4","last_reported":1737907792,"current_range_meters":10800,"station_id":"ce4bhih2rcd13ifvqfs0","pricing_plan_id":"cebpf4jnsgd1na2vs0mg"},{"bike_id":"884f4337-debb-4f4e-9ffb-854d7bf11416","system_id":"levelo_inurba_marseille","lat":43.31542,"lon":5.38937,"is_reserved":false,"is_disabled":false,"rental_uris":{"android":"levelo://app?vid=884f4337-debb-4f4e-9ffb-854d7bf11416","ios":"levelo://app?vid=884f4337-debb-4f4e-9ffb-854d7bf11416"},"vehicle_type_id":"4","last_reported":1737907792,"current_range_meters":38000,"station_id":"","pricing_plan_id":"cebpf4jnsgd1na2vs0mg"},{"bike_id":"2bc7c06c-da0a-43cd-8cf6-b3ad84450313","system_id":"levelo_inurba_marseille","lat":43.28835,"lon":5.3585,"is_reserved":false,"is_disabled":false,"rental_uris":{"android":"levelo://app?vid=2bc7c06c-da0a-43cd-8cf6-b3ad84450313","ios":"levelo://app?vid=2bc7c06c-da0a-43cd-8cf6-b3ad84450313"},"vehicle_type_id":"4","last_reported":1737907792,"current_range_meters":14400,"station_id":"ce4bhb12rcd13ifvqem0","pricing_plan_id":"cebpf4jnsgd1na2vs0mg"},{"bike_id":"1d60b272-21f5-4d72-9b31-1621654ceab4","system_id":"levelo_inurba_marseille","lat":43.29192,"lon":5.35791,"is_reserved":false,"is_disabled":false,"rental_uris":{"android":"levelo://app?vid=1d60b272-21f5-4d72-9b31-1621654ceab4","ios":"levelo://app?vid=1d60b272-21f5-4d72-9b31-1621654ceab4"},"vehicle_type_id":"4","last_reported":1737907792,"current_range_meters":38800,"station_id":"ce4bhb12rcd13ifvqel0","pricing_plan_id":"cebpf4jnsgd1na2vs0mg"},{"bike_id":"b96c22ba-a4c6-4ca8-b881-a2a2972e9bc2","system_id":"levelo_inurba_marseille","lat":43.260243,"lon":5.375586,"is_reserved":false,"is_disabled":true,"rental_uris":{"android":"levelo://app?vid=b96c22ba-a4c6-4ca8-b881-a2a2972e9bc2","ios":"levelo://app?vid=b96c22ba-a4c6-4ca8-b881-a2a2972e9bc2"},"vehicle_type_id":"4","last_reported":1737907792,"current_range_meters":31200,"station_id":"ce4bhgh2rcd13ifvqfa0","pricing_plan_id":"cebpf4jnsgd1na2vs0mg"},{"bike_id":"4a93dd47-7485-4810-828a-2d4f657110e3","system_id":"levelo_inurba_marseille","lat":43.26031,"lon":5.3755,"is_reserved":false,"is_disabled":false,"rental_uris":{"android":"levelo://app?vid=4a93dd47-7485-4810-828a-2d4f657110e3","ios":"levelo://app?vid=4a93dd47-7485-4810-828a-2d4f657110e3"},"vehicle_type_id":"4","last_reported":1737907792,"current_range_meters":8800,"station_id":"ce4bhgh2rcd13ifvqfa0","pricing_plan_id":"cebpf4jnsgd1na2vs0mg"},{"bike_id":"27e9ed6a-8bc6-4409-a393-30f180d9892b","system_id":"levelo_inurba_marseille","lat":43.25716,"lon":5.41114,"is_reserved":false,"is_disabled":false,"rental_uris":{"android":"levelo://app?vid=27e9ed6a-8bc6-4409-a393-30f180d9892b","ios":"levelo://app?vid=27e9ed6a-8bc6-4409-a393-30f180d9892b"},"vehicle_type_id":"4","last_reported":1737907792,"current_range_meters":10000,"station_id":"ce4bhkp2rcd13ifvqgd0","pricing_plan_id":"cebpf4jnsgd1na2vs0mg"},{"bike_id":"3eabb8f0-c79d-46a8-a428-102c59dbf471","system_id":"levelo_inurba_marseille","lat":43.28476,"lon":5.38421,"is_reserved":false,"is_disabled":true,"rental_uris":{"android":"levelo://app?vid=3eabb8f0-c79d-46a8-a428-102c59dbf471","ios":"levelo://app?vid=3eabb8f0-c79d-46a8-a428-102c59dbf471"},"vehicle_type_id":"4","last_reported":1737907792,"current_range_meters":0,"station_id":"ce4bh512rcd13ifvqe3g","pricing_plan_id":"cebpf4jnsgd1na2vs0mg"},{"bike_id":"dcb50635-0e5e-4da9-b4df-329e73a63f8f","system_id":"levelo_inurba_marseille","lat":43.24177,"lon":5.3973,"is_reserved":false,"is_disabled":false,"rental_uris":{"android":"levelo://app?vid=dcb50635-0e5e-4da9-b4df-329e73a63f8f","ios":"levelo://app?vid=dcb50635-0e5e-4da9-b4df-329e73a63f8f"},"vehicle_type_id":"4","last_reported":1737907792,"current_range_meters":27200,"station_id":"ce4bhn12rcd13ifvqgpg","pricing_plan_id":"cebpf4jnsgd1na2vs0mg"},{"bike_id":"98a2cb10-0f11-4a3f-b5c2-fb63add72da7","system_id":"levelo_inurba_marseille","lat":43.2319,"lon":5.35538,"is_reserved":false,"is_disabled":false,"rental_uris":{"android":"levelo://app?vid=98a2cb10-0f11-4a3f-b5c2-fb63add72da7","ios":"levelo://app?vid=98a2cb10-0f11-4a3f-b5c2-fb63add72da7"},"vehicle_type_id":"4","last_reported":1737907792,"current_range_meters":28800,"station_id":"ce4bhu92rcd13ifvqi70","pricing_plan_id":"cebpf4jnsgd1na2vs0mg"},{"bike_id":"1346ff93-9ddb-4093-aa5d-b6cb09dfef3c","system_id":"levelo_inurba_marseille","lat":43.28466,"lon":5.36789,"is_reserved":false,"is_disabled":true,"rental_uris":{"android":"levelo://app?vid=1346ff93-9ddb-4093-aa5d-b6cb09dfef3c","ios":"levelo://app?vid=1346ff93-9ddb-4093-aa5d-b6cb09dfef3c"},"vehicle_type_id":"4","last_reported":1737907792,"current_range_meters":0,"station_id":"","pricing_plan_id":"cebpf4jnsgd1na2vs0mg"},{"bike_id":"0fcb0dfe-020f-4d69-b9e8-a50cc1024e6b","system_id":"levelo_inurba_marseille","lat":43.32677,"lon":5.40964,"is_reserved":false,"is_disabled":false,"rental_uris":{"android":"levelo://app?vid=0fcb0dfe-020f-4d69-b9e8-a50cc1024e6b","ios":"levelo://app?vid=0fcb0dfe-020f-4d69-b9e8-a50cc1024e6b"},"vehicle_type_id":"4","last_reported":1737907792,"current_range_meters":36000,"station_id":"ce4bhpp2rcd13ifvqhgg","pricing_plan_id":"cebpf4jnsgd1na2vs0mg"},{"bike_id":"9c8a558a-4890-4164-8693-1c9a087dc42c","system_id":"levelo_inurba_marseille","lat":43.25012,"lon":5.3892,"is_reserved":false,"is_disabled":false,"rental_uris":{"android":"levelo://app?vid=9c8a558a-4890-4164-8693-1c9a087dc42c","ios":"levelo://app?vid=9c8a558a-4890-4164-8693-1c9a087dc42c"},"vehicle_type_id":"4","last_reported":1737907792,"current_range_meters":35600,"station_id":"ce4bhgp2rcd13ifvqfd0","pricing_plan_id":"cebpf4jnsgd1na2vs0mg"},{"bike_id":"42f6fcde-4d69-4d6c-a301-9f8fd4ed7392","system_id":"levelo_inurba_marseille","lat":43.30545,"lon":5.38421,"is_reserved":false,"is_disabled":false,"rental_uris":{"android":"levelo://app?vid=42f6fcde-4d69-4d6c-a301-9f8fd4ed7392","ios":"levelo://app?vid=42f6fcde-4d69-4d6c-a301-9f8fd4ed7392"},"vehicle_type_id":"4","last_reported":1737907792,"current_range_meters":10000,"station_id":"ce4bgg92rcd13ifvqb30","pricing_plan_id":"cebpf4jnsgd1na2vs0mg"},{"bike_id":"7c3a1add-fa1a-44e9-b210-58865ab9c863","system_id":"levelo_inurba_marseille","lat":43.32108,"lon":5.36777,"is_reserved":false,"is_disabled":false,"rental_uris":{"android":"levelo://app?vid=7c3a1add-fa1a-44e9-b210-58865ab9c863","ios":"levelo://app?vid=7c3a1add-fa1a-44e9-b210-58865ab9c863"},"vehicle_type_id":"4","last_reported":1737907792,"current_range_meters":28400,"station_id":"ce4bhrh2rcd13ifvqhug","pricing_plan_id":"cebpf4jnsgd1na2vs0mg"},{"bike_id":"5658bf19-5e40-4edf-ac7a-3999a5207afd","system_id":"levelo_inurba_marseille","lat":43.232002,"lon":5.355501,"is_reserved":false,"is_disabled":false,"rental_uris":{"android":"levelo://app?vid=5658bf19-5e40-4edf-ac7a-3999a5207afd","ios":"levelo://app?vid=5658bf19-5e40-4edf-ac7a-3999a5207afd"},"vehicle_type_id":"4","last_reported":1737907792,"current_range_meters":38800,"station_id":"ce4bhu92rcd13ifvqi70","pricing_plan_id":"cebpf4jnsgd1na2vs0mg"},{"bike_id":"b01b0706-3a3a-4ff1-ac0d-6b17e48eff7a","system_id":"levelo_inurba_marseille","lat":43.23184,"lon":5.35554,"is_reserved":false,"is_disabled":false,"rental_uris":{"android":"levelo://app?vid=b01b0706-3a3a-4ff1-ac0d-6b17e48eff7a","ios":"levelo://app?vid=b01b0706-3a3a-4ff1-ac0d-6b17e48eff7a"},"vehicle_type_id":"4","last_reported":1737907792,"current_range_meters":38800,"station_id":"ce4bhu92rcd13ifvqi70","pricing_plan_id":"cebpf4jnsgd1na2vs0mg"},{"bike_id":"2e9675bc-b3c5-450e-bbcd-22297f838cd4","system_id":"levelo_inurba_marseille","lat":43.29075,"lon":5.37161,"is_reserved":false,"is_disabled":false,"rental_uris":{"android":"levelo://app?vid=2e9675bc-b3c5-450e-bbcd-22297f838cd4","ios":"levelo://app?vid=2e9675bc-b3c5-450e-bbcd-22297f838cd4"},"vehicle_type_id":"4","last_reported":1737907792,"current_range_meters":31200,"station_id":"ce4bh5p2rcd13ifvqe4g","pricing_plan_id":"cebpf4jnsgd1na2vs0mg"},{"bike_id":"40615d5f-069c-484d-a585-8932cff572ef","system_id":"levelo_inurba_marseille","lat":43.25491,"lon":5.37653,"is_reserved":false,"is_disabled":false,"rental_uris":{"android":"levelo://app?vid=40615d5f-069c-484d-a585-8932cff572ef","ios":"levelo://app?vid=40615d5f-069c-484d-a585-8932cff572ef"},"vehicle_type_id":"4","last_reported":1737907792,"current_range_meters":38800,"station_id":"ce4bhh12rcd13ifvqff0","pricing_plan_id":"cebpf4jnsgd1na2vs0mg"},{"bike_id":"66743e23-0594-4715-a08c-22434e1ddfd8","system_id":"levelo_inurba_marseille","lat":43.28011,"lon":5.41213,"is_reserved":false,"is_disabled":false,"rental_uris":{"android":"levelo://app?vid=66743e23-0594-4715-a08c-22434e1ddfd8","ios":"levelo://app?vid=66743e23-0594-4715-a08c-22434e1ddfd8"},"vehicle_type_id":"4","last_reported":1737907792,"current_range_meters":30400,"station_id":"","pricing_plan_id":"cebpf4jnsgd1na2vs0mg"},{"bike_id":"82268c69-bcd8-49fb-91ea-6277b4711aa7","system_id":"levelo_inurba_marseille","lat":43.255496,"lon":5.397852,"is_reserved":false,"is_disabled":false,"rental_uris":{"android":"levelo://app?vid=82268c69-bcd8-49fb-91ea-6277b4711aa7","ios":"levelo://app?vid=82268c69-bcd8-49fb-91ea-6277b4711aa7"},"vehicle_type_id":"4","last_reported":1737907792,"current_range_meters":28800,"station_id":"","pricing_plan_id":"cebpf4jnsgd1na2vs0mg"},{"bike_id":"bc6cabd1-d142-4cbd-8b11-e7b9d11bbd0f","system_id":"levelo_inurba_marseille","lat":43.2972,"lon":5.37693,"is_reserved":false,"is_disabled":false,"rental_uris":{"android":"levelo://app?vid=bc6cabd1-d142-4cbd-8b11-e7b9d11bbd0f","ios":"levelo://app?vid=bc6cabd1-d142-4cbd-8b11-e7b9d11bbd0f"},"vehicle_type_id":"4","last_reported":1737907792,"current_range_meters":11200,"station_id":"ce4bgkh2rcd13ifvqbl0","pricing_plan_id":"cebpf4jnsgd1na2vs0mg"},{"bike_id":"437ca8f3-df7a-423b-adf1-c2751505c69f","system_id":"levelo_inurba_marseille","lat":43.26191,"lon":5.37458,"is_reserved":false,"is_disabled":false,"rental_uris":{"android":"levelo://app?vid=437ca8f3-df7a-423b-adf1-c2751505c69f","ios":"levelo://app?vid=437ca8f3-df7a-423b-adf1-c2751505c69f"},"vehicle_type_id":"4","last_reported":1737907792,"current_range_meters":9200,"station_id":"ce4bhgp2rcd13ifvqfc0","pricing_plan_id":"cebpf4jnsgd1na2vs0mg"},{"bike_id":"79bc66a4-aeed-4eda-a560-099c58d7dbf9","system_id":"levelo_inurba_marseille","lat":43.31503,"lon":5.37296,"is_reserved":false,"is_disabled":true,"rental_uris":{"android":"levelo://app?vid=79bc66a4-aeed-4eda-a560-099c58d7dbf9","ios":"levelo://app?vid=79bc66a4-aeed-4eda-a560-099c58d7dbf9"},"vehicle_type_id":"4","last_reported":1737907792,"current_range_meters":13600,"station_id":"ce4bgt12rcd13ifvqcd0","pricing_plan_id":"cebpf4jnsgd1na2vs0mg"},{"bike_id":"10b1a047-be93-49dc-bba5-67085f222023","system_id":"levelo_inurba_marseille","lat":43.25579,"lon":5.3823,"is_reserved":false,"is_disabled":false,"rental_uris":{"android":"levelo://app?vid=10b1a047-be93-49dc-bba5-67085f222023","ios":"levelo://app?vid=10b1a047-be93-49dc-bba5-67085f222023"},"vehicle_type_id":"4","last_reported":1737907792,"current_range_meters":16400,"station_id":"ce4bhih2rcd13ifvqfs0","pricing_plan_id":"cebpf4jnsgd1na2vs0mg"},{"bike_id":"1cdc8618-e6a7-47cf-9699-441583927032","system_id":"levelo_inurba_marseille","lat":43.28471,"lon":5.38424,"is_reserved":false,"is_disabled":false,"rental_uris":{"android":"levelo://app?vid=1cdc8618-e6a7-47cf-9699-441583927032","ios":"levelo://app?vid=1cdc8618-e6a7-47cf-9699-441583927032"},"vehicle_type_id":"4","last_reported":1737907792,"current_range_meters":22000,"station_id":"ce4bh512rcd13ifvqe3g","pricing_plan_id":"cebpf4jnsgd1na2vs0mg"},{"bike_id":"14549f3c-9b93-4dce-b64e-10da7e275aeb","system_id":"levelo_inurba_marseille","lat":43.31634,"lon":5.37633,"is_reserved":false,"is_disabled":false,"rental_uris":{"android":"levelo://app?vid=14549f3c-9b93-4dce-b64e-10da7e275aeb","ios":"levelo://app?vid=14549f3c-9b93-4dce-b64e-10da7e275aeb"},"vehicle_type_id":"4","last_reported":1737907792,"current_range_meters":32400,"station_id":"","pricing_plan_id":"cebpf4jnsgd1na2vs0mg"},{"bike_id":"e84ea28d-d6c1-4a23-bfa5-fecf89bc2a9f","system_id":"levelo_inurba_marseille","lat":43.324577,"lon":5.365723,"is_reserved":false,"is_disabled":false,"rental_uris":{"android":"levelo://app?vid=e84ea28d-d6c1-4a23-bfa5-fecf89bc2a9f","ios":"levelo://app?vid=e84ea28d-d6c1-4a23-bfa5-fecf89bc2a9f"},"vehicle_type_id":"4","last_reported":1737907792,"current_range_meters":30400,"station_id":"ce4bhs12rcd13ifvqhvg","pricing_plan_id":"cebpf4jnsgd1na2vs0mg"},{"bike_id":"872d6532-d9ab-4af1-9b23-35219dc99559","system_id":"levelo_inurba_marseille","lat":43.24168,"lon":5.36392,"is_reserved":false,"is_disabled":false,"rental_uris":{"android":"levelo://app?vid=872d6532-d9ab-4af1-9b23-35219dc99559","ios":"levelo://app?vid=872d6532-d9ab-4af1-9b23-35219dc99559"},"vehicle_type_id":"4","last_reported":1737907792,"current_range_meters":27200,"station_id":"cpo36qri1sfpv3e86is0","pricing_plan_id":"cebpf4jnsgd1na2vs0mg"},{"bike_id":"57823e25-308b-4f11-a2b6-a7f52902c1c5","system_id":"levelo_inurba_marseille","lat":43.308023,"lon":5.381582,"is_reserved":false,"is_disabled":true,"rental_uris":{"android":"levelo://app?vid=57823e25-308b-4f11-a2b6-a7f52902c1c5","ios":"levelo://app?vid=57823e25-308b-4f11-a2b6-a7f52902c1c5"},"vehicle_type_id":"4","last_reported":1737907792,"current_range_meters":18000,"station_id":"ce4bgt12rcd13ifvqce0","pricing_plan_id":"cebpf4jnsgd1na2vs0mg"},{"bike_id":"ff68af14-5554-4f8d-a3de-4549d987f602","system_id":"levelo_inurba_marseille","lat":43.29908,"lon":5.43652,"is_reserved":false,"is_disabled":false,"rental_uris":{"android":"levelo://app?vid=ff68af14-5554-4f8d-a3de-4549d987f602","ios":"levelo://app?vid=ff68af14-5554-4f8d-a3de-4549d987f602"},"vehicle_type_id":"4","last_reported":1737907792,"current_range_meters":8000,"station_id":"ce4bhpp2rcd13ifvqhfg","pricing_plan_id":"cebpf4jnsgd1na2vs0mg"},{"bike_id":"efd46f06-9e47-465d-a432-96ad49998984","system_id":"levelo_inurba_marseille","lat":43.26779,"lon":5.39416,"is_reserved":false,"is_disabled":false,"rental_uris":{"android":"levelo://app?vid=efd46f06-9e47-465d-a432-96ad49998984","ios":"levelo://app?vid=efd46f06-9e47-465d-a432-96ad49998984"},"vehicle_type_id":"4","last_reported":1737907792,"current_range_meters":22800,"station_id":"ce4bhh12rcd13ifvqfg0","pricing_plan_id":"cebpf4jnsgd1na2vs0mg"},{"bike_id":"9e6c0a37-b08d-448a-b4e6-6562977bc136","system_id":"levelo_inurba_marseille","lat":43.28272,"lon":5.35069,"is_reserved":false,"is_disabled":false,"rental_uris":{"android":"levelo://app?vid=9e6c0a37-b08d-448a-b4e6-6562977bc136","ios":"levelo://app?vid=9e6c0a37-b08d-448a-b4e6-6562977bc136"},"vehicle_type_id":"4","last_reported":1737907792,"current_range_meters":3200,"station_id":"ce4bhbp2rcd13ifvqerg","pricing_plan_id":"cebpf4jnsgd1na2vs0mg"},{"bike_id":"1e328aaf-06e5-4767-a395-a9b21576497f","system_id":"levelo_inurba_marseille","lat":43.29763,"lon":5.37104,"is_reserved":false,"is_disabled":true,"rental_uris":{"android":"levelo://app?vid=1e328aaf-06e5-4767-a395-a9b21576497f","ios":"levelo://app?vid=1e328aaf-06e5-4767-a395-a9b21576497f"},"vehicle_type_id":"4","last_reported":1737907792,"current_range_meters":17600,"station_id":"ce4bgop2rcd13ifvqc1g","pricing_plan_id":"cebpf4jnsgd1na2vs0mg"},{"bike_id":"3e82bfeb-e8ea-4f12-882f-856835017be8","system_id":"levelo_inurba_marseille","lat":43.28405,"lon":5.37504,"is_reserved":false,"is_disabled":false,"rental_uris":{"android":"levelo://app?vid=3e82bfeb-e8ea-4f12-882f-856835017be8","ios":"levelo://app?vid=3e82bfeb-e8ea-4f12-882f-856835017be8"},"vehicle_type_id":"4","last_reported":1737907792,"current_range_meters":25600,"station_id":"ce4bh412rcd13ifvqds0","pricing_plan_id":"cebpf4jnsgd1na2vs0mg"},{"bike_id":"7facede7-71a3-4129-a1f3-f8692190d63d","system_id":"levelo_inurba_marseille","lat":43.3247,"lon":5.36577,"is_reserved":false,"is_disabled":false,"rental_uris":{"android":"levelo://app?vid=7facede7-71a3-4129-a1f3-f8692190d63d","ios":"levelo://app?vid=7facede7-71a3-4129-a1f3-f8692190d63d"},"vehicle_type_id":"4","last_reported":1737907792,"current_range_meters":18000,"station_id":"ce4bhs12rcd13ifvqhvg","pricing_plan_id":"cebpf4jnsgd1na2vs0mg"},{"bike_id":"86b498e3-784c-4315-9910-77930c320efa","system_id":"levelo_inurba_marseille","lat":43.2861,"lon":5.37074,"is_reserved":false,"is_disabled":false,"rental_uris":{"android":"levelo://app?vid=86b498e3-784c-4315-9910-77930c320efa","ios":"levelo://app?vid=86b498e3-784c-4315-9910-77930c320efa"},"vehicle_type_id":"4","last_reported":1737907792,"current_range_meters":6800,"station_id":"ce4bht12rcd13ifvqi60","pricing_plan_id":"cebpf4jnsgd1na2vs0mg"},{"bike_id":"1cd9e910-b0c8-4c41-b2b2-0ef6e5d19cf4","system_id":"levelo_inurba_marseille","lat":43.2848,"lon":5.3842,"is_reserved":false,"is_disabled":false,"rental_uris":{"android":"levelo://app?vid=1cd9e910-b0c8-4c41-b2b2-0ef6e5d19cf4","ios":"levelo://app?vid=1cd9e910-b0c8-4c41-b2b2-0ef6e5d19cf4"},"vehicle_type_id":"4","last_reported":1737907792,"current_range_meters":22400,"station_id":"ce4bh512rcd13ifvqe3g","pricing_plan_id":"cebpf4jnsgd1na2vs0mg"},{"bike_id":"3ff2b0dc-5e73-494c-8ad7-3202b9ad42ed","system_id":"levelo_inurba_marseille","lat":43.30138,"lon":5.39862,"is_reserved":false,"is_disabled":false,"rental_uris":{"android":"levelo://app?vid=3ff2b0dc-5e73-494c-8ad7-3202b9ad42ed","ios":"levelo://app?vid=3ff2b0dc-5e73-494c-8ad7-3202b9ad42ed"},"vehicle_type_id":"4","last_reported":1737907792,"current_range_meters":18800,"station_id":"ce4bh0h2rcd13ifvqd40","pricing_plan_id":"cebpf4jnsgd1na2vs0mg"},{"bike_id":"6fc00353-6857-4111-8b14-419a08678daf","system_id":"levelo_inurba_marseille","lat":43.28481,"lon":5.38569,"is_reserved":false,"is_disabled":false,"rental_uris":{"android":"levelo://app?vid=6fc00353-6857-4111-8b14-419a08678daf","ios":"levelo://app?vid=6fc00353-6857-4111-8b14-419a08678daf"},"vehicle_type_id":"4","last_reported":1737907792,"current_range_meters":9600,"station_id":"ce4bh8p2rcd13ifvqeb0","pricing_plan_id":"cebpf4jnsgd1na2vs0mg"},{"bike_id":"a7fcc53e-6f14-41c5-8b6d-25ab86bedc5f","system_id":"levelo_inurba_marseille","lat":43.29029,"lon":5.38661,"is_reserved":false,"is_disabled":true,"rental_uris":{"android":"levelo://app?vid=a7fcc53e-6f14-41c5-8b6d-25ab86bedc5f","ios":"levelo://app?vid=a7fcc53e-6f14-41c5-8b6d-25ab86bedc5f"},"vehicle_type_id":"4","last_reported":1737907792,"current_range_meters":30800,"station_id":"ce4bh4p2rcd13ifvqe0g","pricing_plan_id":"cebpf4jnsgd1na2vs0mg"},{"bike_id":"7feb50cc-9a67-4ccb-9fef-07ede77689cd","system_id":"levelo_inurba_marseille","lat":43.24394,"lon":5.37055,"is_reserved":false,"is_disabled":false,"rental_uris":{"android":"levelo://app?vid=7feb50cc-9a67-4ccb-9fef-07ede77689cd","ios":"levelo://app?vid=7feb50cc-9a67-4ccb-9fef-07ede77689cd"},"vehicle_type_id":"4","last_reported":1737907792,"current_range_meters":12000,"station_id":"ce4bhhh2rcd13ifvqfk0","pricing_plan_id":"cebpf4jnsgd1na2vs0mg"},{"bike_id":"63f5407c-91ae-4355-8543-ce7d8a4f734e","system_id":"levelo_inurba_marseille","lat":43.30648,"lon":5.4006,"is_reserved":false,"is_disabled":false,"rental_uris":{"android":"levelo://app?vid=63f5407c-91ae-4355-8543-ce7d8a4f734e","ios":"levelo://app?vid=63f5407c-91ae-4355-8543-ce7d8a4f734e"},"vehicle_type_id":"4","last_reported":1737907792,"current_range_meters":33200,"station_id":"ce4bh112rcd13ifvqda0","pricing_plan_id":"cebpf4jnsgd1na2vs0mg"},{"bike_id":"3425a9da-9050-486b-8a40-dcc7844ea3ff","system_id":"levelo_inurba_marseille","lat":43.29797,"lon":5.40417,"is_reserved":false,"is_disabled":false,"rental_uris":{"android":"levelo://app?vid=3425a9da-9050-486b-8a40-dcc7844ea3ff","ios":"levelo://app?vid=3425a9da-9050-486b-8a40-dcc7844ea3ff"},"vehicle_type_id":"4","last_reported":1737907792,"current_range_meters":37600,"station_id":"ce4bh112rcd13ifvqd90","pricing_plan_id":"cebpf4jnsgd1na2vs0mg"},{"bike_id":"7a377b65-b943-4dae-a712-d21241d220f1","system_id":"levelo_inurba_marseille","lat":43.26207,"lon":5.37448,"is_reserved":false,"is_disabled":false,"rental_uris":{"android":"levelo://app?vid=7a377b65-b943-4dae-a712-d21241d220f1","ios":"levelo://app?vid=7a377b65-b943-4dae-a712-d21241d220f1"},"vehicle_type_id":"4","last_reported":1737907792,"current_range_meters":35200,"station_id":"ce4bhgp2rcd13ifvqfc0","pricing_plan_id":"cebpf4jnsgd1na2vs0mg"},{"bike_id":"cb11c4e4-37a9-44f4-9ccd-767b3b519e30","system_id":"levelo_inurba_marseille","lat":43.284904,"lon":5.384338,"is_reserved":false,"is_disabled":true,"rental_uris":{"android":"levelo://app?vid=cb11c4e4-37a9-44f4-9ccd-767b3b519e30","ios":"levelo://app?vid=cb11c4e4-37a9-44f4-9ccd-767b3b519e30"},"vehicle_type_id":"4","last_reported":1737907792,"current_range_meters":15200,"station_id":"ce4bh512rcd13ifvqe3g","pricing_plan_id":"cebpf4jnsgd1na2vs0mg"},{"bike_id":"c87976b9-21aa-475c-87c8-f9aed3c10237","system_id":"levelo_inurba_marseille","lat":43.26194,"lon":5.37913,"is_reserved":false,"is_disabled":false,"rental_uris":{"android":"levelo://app?vid=c87976b9-21aa-475c-87c8-f9aed3c10237","ios":"levelo://app?vid=c87976b9-21aa-475c-87c8-f9aed3c10237"},"vehicle_type_id":"4","last_reported":1737907792,"current_range_meters":12000,"station_id":"ce4bhjp2rcd13ifvqg90","pricing_plan_id":"cebpf4jnsgd1na2vs0mg"},{"bike_id":"a9397b70-a385-4291-9897-8f0d82cd91b3","system_id":"levelo_inurba_marseille","lat":43.28605,"lon":5.37061,"is_reserved":false,"is_disabled":false,"rental_uris":{"android":"levelo://app?vid=a9397b70-a385-4291-9897-8f0d82cd91b3","ios":"levelo://app?vid=a9397b70-a385-4291-9897-8f0d82cd91b3"},"vehicle_type_id":"4","last_reported":1737907792,"current_range_meters":4800,"station_id":"ce4bht12rcd13ifvqi60","pricing_plan_id":"cebpf4jnsgd1na2vs0mg"},{"bike_id":"15ebe2fb-b9aa-4651-bd2c-79f50d0fd941","system_id":"levelo_inurba_marseille","lat":43.31073,"lon":5.38361,"is_reserved":false,"is_disabled":false,"rental_uris":{"android":"levelo://app?vid=15ebe2fb-b9aa-4651-bd2c-79f50d0fd941","ios":"levelo://app?vid=15ebe2fb-b9aa-4651-bd2c-79f50d0fd941"},"vehicle_type_id":"4","last_reported":1737907792,"current_range_meters":36800,"station_id":"ce4bgv92rcd13ifvqcr0","pricing_plan_id":"cebpf4jnsgd1na2vs0mg"},{"bike_id":"944ecfa4-1deb-441b-a89a-e1bce60c6518","system_id":"levelo_inurba_marseille","lat":43.27077,"lon":5.42279,"is_reserved":false,"is_disabled":false,"rental_uris":{"android":"levelo://app?vid=944ecfa4-1deb-441b-a89a-e1bce60c6518","ios":"levelo://app?vid=944ecfa4-1deb-441b-a89a-e1bce60c6518"},"vehicle_type_id":"4","last_reported":1737907792,"current_range_meters":38800,"station_id":"ce4bhk92rcd13ifvqgb0","pricing_plan_id":"cebpf4jnsgd1na2vs0mg"},{"bike_id":"b634609d-e34e-4cf4-8ad3-e70e093d77d6","system_id":"levelo_inurba_marseille","lat":43.33019,"lon":5.39029,"is_reserved":false,"is_disabled":false,"rental_uris":{"android":"levelo://app?vid=b634609d-e34e-4cf4-8ad3-e70e093d77d6","ios":"levelo://app?vid=b634609d-e34e-4cf4-8ad3-e70e093d77d6"},"vehicle_type_id":"4","last_reported":1737907792,"current_range_meters":37600,"station_id":"ce4bhr92rcd13ifvqhrg","pricing_plan_id":"cebpf4jnsgd1na2vs0mg"},{"bike_id":"50b77bb6-29cc-46c7-ae70-303f950b096f","system_id":"levelo_inurba_marseille","lat":43.271695,"lon":5.409835,"is_reserved":false,"is_disabled":false,"rental_uris":{"android":"levelo://app?vid=50b77bb6-29cc-46c7-ae70-303f950b096f","ios":"levelo://app?vid=50b77bb6-29cc-46c7-ae70-303f950b096f"},"vehicle_type_id":"4","last_reported":1737907792,"current_range_meters":23200,"station_id":"ce4bhl12rcd13ifvqgf0","pricing_plan_id":"cebpf4jnsgd1na2vs0mg"},{"bike_id":"406f3a4e-22c7-4501-a7fe-e475a9f714e4","system_id":"levelo_inurba_marseille","lat":43.23195,"lon":5.3555,"is_reserved":false,"is_disabled":false,"rental_uris":{"android":"levelo://app?vid=406f3a4e-22c7-4501-a7fe-e475a9f714e4","ios":"levelo://app?vid=406f3a4e-22c7-4501-a7fe-e475a9f714e4"},"vehicle_type_id":"4","last_reported":1737907792,"current_range_meters":18800,"station_id":"ce4bhu92rcd13ifvqi70","pricing_plan_id":"cebpf4jnsgd1na2vs0mg"},{"bike_id":"e7965682-cb07-492d-a8dc-957cdc5a4b6e","system_id":"levelo_inurba_marseille","lat":43.29973,"lon":5.3849,"is_reserved":false,"is_disabled":true,"rental_uris":{"android":"levelo://app?vid=e7965682-cb07-492d-a8dc-957cdc5a4b6e","ios":"levelo://app?vid=e7965682-cb07-492d-a8dc-957cdc5a4b6e"},"vehicle_type_id":"4","last_reported":1737907792,"current_range_meters":8400,"station_id":"ce4bgj92rcd13ifvqbd0","pricing_plan_id":"cebpf4jnsgd1na2vs0mg"},{"bike_id":"77b9c37f-f2b4-470a-a80d-37e9c364ff90","system_id":"levelo_inurba_marseille","lat":43.2863,"lon":5.3638,"is_reserved":false,"is_disabled":false,"rental_uris":{"android":"levelo://app?vid=77b9c37f-f2b4-470a-a80d-37e9c364ff90","ios":"levelo://app?vid=77b9c37f-f2b4-470a-a80d-37e9c364ff90"},"vehicle_type_id":"4","last_reported":1737907792,"current_range_meters":31200,"station_id":"ce4bhah2rcd13ifvqej0","pricing_plan_id":"cebpf4jnsgd1na2vs0mg"},{"bike_id":"3ffda31f-eb70-4608-a97b-b4425f520dda","system_id":"levelo_inurba_marseille","lat":43.25869,"lon":5.39908,"is_reserved":false,"is_disabled":false,"rental_uris":{"android":"levelo://app?vid=3ffda31f-eb70-4608-a97b-b4425f520dda","ios":"levelo://app?vid=3ffda31f-eb70-4608-a97b-b4425f520dda"},"vehicle_type_id":"4","last_reported":1737907792,"current_range_meters":10800,"station_id":"ce4bhl92rcd13ifvqghg","pricing_plan_id":"cebpf4jnsgd1na2vs0mg"},{"bike_id":"e3e26aee-15e1-425c-a48f-db58aa520742","system_id":"levelo_inurba_marseille","lat":43.23067,"lon":5.35481,"is_reserved":false,"is_disabled":false,"rental_uris":{"android":"levelo://app?vid=e3e26aee-15e1-425c-a48f-db58aa520742","ios":"levelo://app?vid=e3e26aee-15e1-425c-a48f-db58aa520742"},"vehicle_type_id":"4","last_reported":1737907792,"current_range_meters":7200,"station_id":"cpo3342slgdg3j2ifvpg","pricing_plan_id":"cebpf4jnsgd1na2vs0mg"},{"bike_id":"26d3de6a-b7db-4cd7-885c-9cb71bb28aa5","system_id":"levelo_inurba_marseille","lat":43.27371,"lon":5.36249,"is_reserved":false,"is_disabled":false,"rental_uris":{"android":"levelo://app?vid=26d3de6a-b7db-4cd7-885c-9cb71bb28aa5","ios":"levelo://app?vid=26d3de6a-b7db-4cd7-885c-9cb71bb28aa5"},"vehicle_type_id":"4","last_reported":1737907792,"current_range_meters":36000,"station_id":"ce4bhbh2rcd13ifvqeo0","pricing_plan_id":"cebpf4jnsgd1na2vs0mg"},{"bike_id":"07162cf2-9520-4954-8d12-669f863694e1","system_id":"levelo_inurba_marseille","lat":43.25577,"lon":5.38236,"is_reserved":false,"is_disabled":false,"rental_uris":{"android":"levelo://app?vid=07162cf2-9520-4954-8d12-669f863694e1","ios":"levelo://app?vid=07162cf2-9520-4954-8d12-669f863694e1"},"vehicle_type_id":"4","last_reported":1737907792,"current_range_meters":36000,"station_id":"ce4bhih2rcd13ifvqfs0","pricing_plan_id":"cebpf4jnsgd1na2vs0mg"},{"bike_id":"7c78a755-c7f5-4f07-a96b-621451d47948","system_id":"levelo_inurba_marseille","lat":43.299,"lon":5.43667,"is_reserved":false,"is_disabled":false,"rental_uris":{"android":"levelo://app?vid=7c78a755-c7f5-4f07-a96b-621451d47948","ios":"levelo://app?vid=7c78a755-c7f5-4f07-a96b-621451d47948"},"vehicle_type_id":"4","last_reported":1737907792,"current_range_meters":30800,"station_id":"ce4bhpp2rcd13ifvqhfg","pricing_plan_id":"cebpf4jnsgd1na2vs0mg"},{"bike_id":"93bf4fc3-a7cf-44a8-857b-ee99868a5864","system_id":"levelo_inurba_marseille","lat":43.2797,"lon":5.38733,"is_reserved":false,"is_disabled":false,"rental_uris":{"android":"levelo://app?vid=93bf4fc3-a7cf-44a8-857b-ee99868a5864","ios":"levelo://app?vid=93bf4fc3-a7cf-44a8-857b-ee99868a5864"},"vehicle_type_id":"4","last_reported":1737907792,"current_range_meters":38800,"station_id":"ce4bhg12rcd13ifvqf80","pricing_plan_id":"cebpf4jnsgd1na2vs0mg"},{"bike_id":"929b92b9-9ab1-49fc-ac12-02d73b698e09","system_id":"levelo_inurba_marseille","lat":43.28411,"lon":5.34997,"is_reserved":false,"is_disabled":false,"rental_uris":{"android":"levelo://app?vid=929b92b9-9ab1-49fc-ac12-02d73b698e09","ios":"levelo://app?vid=929b92b9-9ab1-49fc-ac12-02d73b698e09"},"vehicle_type_id":"4","last_reported":1737907792,"current_range_meters":38800,"station_id":"ce4bhbh2rcd13ifvqepg","pricing_plan_id":"cebpf4jnsgd1na2vs0mg"},{"bike_id":"a3f32f89-e6e8-4fbf-b11e-7fbea76b62a2","system_id":"levelo_inurba_marseille","lat":43.29946,"lon":5.37191,"is_reserved":false,"is_disabled":true,"rental_uris":{"android":"levelo://app?vid=a3f32f89-e6e8-4fbf-b11e-7fbea76b62a2","ios":"levelo://app?vid=a3f32f89-e6e8-4fbf-b11e-7fbea76b62a2"},"vehicle_type_id":"4","last_reported":1737907792,"current_range_meters":38000,"station_id":"ce4bgr92rcd13ifvqc7g","pricing_plan_id":"cebpf4jnsgd1na2vs0mg"},{"bike_id":"5b819dc4-0eed-42bf-ba47-c8cac92c315d","system_id":"levelo_inurba_marseille","lat":43.27308,"lon":5.391,"is_reserved":false,"is_disabled":false,"rental_uris":{"android":"levelo://app?vid=5b819dc4-0eed-42bf-ba47-c8cac92c315d","ios":"levelo://app?vid=5b819dc4-0eed-42bf-ba47-c8cac92c315d"},"vehicle_type_id":"4","last_reported":1737907792,"current_range_meters":3600,"station_id":"ce4bhgp2rcd13ifvqfe0","pricing_plan_id":"cebpf4jnsgd1na2vs0mg"},{"bike_id":"684ea44b-b4bc-456a-be59-2cf6bb158b0d","system_id":"levelo_inurba_marseille","lat":43.33737,"lon":5.39177,"is_reserved":false,"is_disabled":false,"rental_uris":{"android":"levelo://app?vid=684ea44b-b4bc-456a-be59-2cf6bb158b0d","ios":"levelo://app?vid=684ea44b-b4bc-456a-be59-2cf6bb158b0d"},"vehicle_type_id":"4","last_reported":1737907792,"current_range_meters":38400,"station_id":"ce4bhr92rcd13ifvqhsg","pricing_plan_id":"cebpf4jnsgd1na2vs0mg"},{"bike_id":"b4a2d5ff-875a-4549-a875-5836eb2922f0","system_id":"levelo_inurba_marseille","lat":43.29859,"lon":5.36294,"is_reserved":false,"is_disabled":false,"rental_uris":{"android":"levelo://app?vid=b4a2d5ff-875a-4549-a875-5836eb2922f0","ios":"levelo://app?vid=b4a2d5ff-875a-4549-a875-5836eb2922f0"},"vehicle_type_id":"4","last_reported":1737907792,"current_range_meters":38800,"station_id":"ce4bgpp2rcd13ifvqc3g","pricing_plan_id":"cebpf4jnsgd1na2vs0mg"},{"bike_id":"a48a4fa8-387b-4ecc-bc7a-c3f07822bf47","system_id":"levelo_inurba_marseille","lat":43.27072,"lon":5.39224,"is_reserved":false,"is_disabled":true,"rental_uris":{"android":"levelo://app?vid=a48a4fa8-387b-4ecc-bc7a-c3f07822bf47","ios":"levelo://app?vid=a48a4fa8-387b-4ecc-bc7a-c3f07822bf47"},"vehicle_type_id":"4","last_reported":1737907792,"current_range_meters":0,"station_id":"","pricing_plan_id":"cebpf4jnsgd1na2vs0mg"},{"bike_id":"fd38b4b0-f42b-4d68-b90d-cf0284d0f76e","system_id":"levelo_inurba_marseille","lat":43.240749,"lon":5.377534,"is_reserved":false,"is_disabled":false,"rental_uris":{"android":"levelo://app?vid=fd38b4b0-f42b-4d68-b90d-cf0284d0f76e","ios":"levelo://app?vid=fd38b4b0-f42b-4d68-b90d-cf0284d0f76e"},"vehicle_type_id":"4","last_reported":1737907792,"current_range_meters":6400,"station_id":"ce4bhnp2rcd13ifvqgvg","pricing_plan_id":"cebpf4jnsgd1na2vs0mg"},{"bike_id":"4a203e76-dcee-4e49-9593-7732edab3396","system_id":"levelo_inurba_marseille","lat":43.25833,"lon":5.39434,"is_reserved":false,"is_disabled":false,"rental_uris":{"android":"levelo://app?vid=4a203e76-dcee-4e49-9593-7732edab3396","ios":"levelo://app?vid=4a203e76-dcee-4e49-9593-7732edab3396"},"vehicle_type_id":"4","last_reported":1737907792,"current_range_meters":18000,"station_id":"ce4bhip2rcd13ifvqft0","pricing_plan_id":"cebpf4jnsgd1na2vs0mg"},{"bike_id":"0f3391f6-1cc5-4f67-bfc4-03d95f0ec1d4","system_id":"levelo_inurba_marseille","lat":43.27203,"lon":5.39195,"is_reserved":false,"is_disabled":false,"rental_uris":{"android":"levelo://app?vid=0f3391f6-1cc5-4f67-bfc4-03d95f0ec1d4","ios":"levelo://app?vid=0f3391f6-1cc5-4f67-bfc4-03d95f0ec1d4"},"vehicle_type_id":"4","last_reported":1737907792,"current_range_meters":36400,"station_id":"ce4bhhp2rcd13ifvqfm0","pricing_plan_id":"cebpf4jnsgd1na2vs0mg"},{"bike_id":"8fd0082a-8558-471d-bd5c-8f2bb03de120","system_id":"levelo_inurba_marseille","lat":43.28725,"lon":5.39991,"is_reserved":false,"is_disabled":true,"rental_uris":{"android":"levelo://app?vid=8fd0082a-8558-471d-bd5c-8f2bb03de120","ios":"levelo://app?vid=8fd0082a-8558-471d-bd5c-8f2bb03de120"},"vehicle_type_id":"4","last_reported":1737907792,"current_range_meters":26000,"station_id":"ce4bho92rcd13ifvqh3g","pricing_plan_id":"cebpf4jnsgd1na2vs0mg"},{"bike_id":"6589d8e4-fbd4-4197-898f-5819258ee7b5","system_id":"levelo_inurba_marseille","lat":43.24385,"lon":5.37054,"is_reserved":false,"is_disabled":false,"rental_uris":{"android":"levelo://app?vid=6589d8e4-fbd4-4197-898f-5819258ee7b5","ios":"levelo://app?vid=6589d8e4-fbd4-4197-898f-5819258ee7b5"},"vehicle_type_id":"4","last_reported":1737907792,"current_range_meters":38800,"station_id":"ce4bhhh2rcd13ifvqfk0","pricing_plan_id":"cebpf4jnsgd1na2vs0mg"},{"bike_id":"9c09af66-30f1-488d-910d-a8a905d02871","system_id":"levelo_inurba_marseille","lat":43.29401,"lon":5.37917,"is_reserved":false,"is_disabled":true,"rental_uris":{"android":"levelo://app?vid=9c09af66-30f1-488d-910d-a8a905d02871","ios":"levelo://app?vid=9c09af66-30f1-488d-910d-a8a905d02871"},"vehicle_type_id":"4","last_reported":1737907792,"current_range_meters":0,"station_id":"","pricing_plan_id":"cebpf4jnsgd1na2vs0mg"},{"bike_id":"efb3d3ef-12bb-4e41-9755-709d7f228313","system_id":"levelo_inurba_marseille","lat":43.26224,"lon":5.37915,"is_reserved":false,"is_disabled":false,"rental_uris":{"android":"levelo://app?vid=efb3d3ef-12bb-4e41-9755-709d7f228313","ios":"levelo://app?vid=efb3d3ef-12bb-4e41-9755-709d7f228313"},"vehicle_type_id":"4","last_reported":1737907792,"current_range_meters":36800,"station_id":"ce4bhjp2rcd13ifvqg90","pricing_plan_id":"cebpf4jnsgd1na2vs0mg"},{"bike_id":"4599ffa0-22a6-4b49-a508-677d9aecdcbc","system_id":"levelo_inurba_marseille","lat":43.28666,"lon":5.36354,"is_reserved":false,"is_disabled":true,"rental_uris":{"android":"levelo://app?vid=4599ffa0-22a6-4b49-a508-677d9aecdcbc","ios":"levelo://app?vid=4599ffa0-22a6-4b49-a508-677d9aecdcbc"},"vehicle_type_id":"4","last_reported":1737907792,"current_range_meters":0,"station_id":"ce4bhah2rcd13ifvqej0","pricing_plan_id":"cebpf4jnsgd1na2vs0mg"},{"bike_id":"77a5b333-08dc-4132-9128-0b12157734da","system_id":"levelo_inurba_marseille","lat":43.31753,"lon":5.39017,"is_reserved":false,"is_disabled":false,"rental_uris":{"android":"levelo://app?vid=77a5b333-08dc-4132-9128-0b12157734da","ios":"levelo://app?vid=77a5b333-08dc-4132-9128-0b12157734da"},"vehicle_type_id":"4","last_reported":1737907792,"current_range_meters":32000,"station_id":"ce4bhqp2rcd13ifvqhng","pricing_plan_id":"cebpf4jnsgd1na2vs0mg"},{"bike_id":"1e897563-ca39-46e9-8946-885c85d6a1f0","system_id":"levelo_inurba_marseille","lat":43.31324,"lon":5.39696,"is_reserved":false,"is_disabled":false,"rental_uris":{"android":"levelo://app?vid=1e897563-ca39-46e9-8946-885c85d6a1f0","ios":"levelo://app?vid=1e897563-ca39-46e9-8946-885c85d6a1f0"},"vehicle_type_id":"4","last_reported":1737907792,"current_range_meters":11200,"station_id":"ce4bgvp2rcd13ifvqcu0","pricing_plan_id":"cebpf4jnsgd1na2vs0mg"},{"bike_id":"c438c788-2c8f-4eda-8233-a8485c23c4af","system_id":"levelo_inurba_marseille","lat":43.304107,"lon":5.41278,"is_reserved":false,"is_disabled":true,"rental_uris":{"android":"levelo://app?vid=c438c788-2c8f-4eda-8233-a8485c23c4af","ios":"levelo://app?vid=c438c788-2c8f-4eda-8233-a8485c23c4af"},"vehicle_type_id":"4","last_reported":1737907792,"current_range_meters":0,"station_id":"ce4bhop2rcd13ifvqh8g","pricing_plan_id":"cebpf4jnsgd1na2vs0mg"},{"bike_id":"7ec45f0c-2214-4554-b851-625a90196318","system_id":"levelo_inurba_marseille","lat":43.30805,"lon":5.4352,"is_reserved":false,"is_disabled":false,"rental_uris":{"android":"levelo://app?vid=7ec45f0c-2214-4554-b851-625a90196318","ios":"levelo://app?vid=7ec45f0c-2214-4554-b851-625a90196318"},"vehicle_type_id":"4","last_reported":1737907792,"current_range_meters":27200,"station_id":"ce4bhph2rcd13ifvqheg","pricing_plan_id":"cebpf4jnsgd1na2vs0mg"},{"bike_id":"0605cbb9-453d-4efb-9fcb-4bf823886daf","system_id":"levelo_inurba_marseille","lat":43.255674,"lon":5.38246,"is_reserved":false,"is_disabled":false,"rental_uris":{"android":"levelo://app?vid=0605cbb9-453d-4efb-9fcb-4bf823886daf","ios":"levelo://app?vid=0605cbb9-453d-4efb-9fcb-4bf823886daf"},"vehicle_type_id":"4","last_reported":1737907792,"current_range_meters":38000,"station_id":"ce4bhih2rcd13ifvqfs0","pricing_plan_id":"cebpf4jnsgd1na2vs0mg"},{"bike_id":"72175b5b-4d04-4c0e-83cc-359c766e7dd9","system_id":"levelo_inurba_marseille","lat":43.26075,"lon":5.39368,"is_reserved":false,"is_disabled":false,"rental_uris":{"android":"levelo://app?vid=72175b5b-4d04-4c0e-83cc-359c766e7dd9","ios":"levelo://app?vid=72175b5b-4d04-4c0e-83cc-359c766e7dd9"},"vehicle_type_id":"4","last_reported":1737907792,"current_range_meters":38800,"station_id":"ce4bhh92rcd13ifvqfj0","pricing_plan_id":"cebpf4jnsgd1na2vs0mg"},{"bike_id":"8ec72965-5ccc-4f08-a147-ecc9da80f9c5","system_id":"levelo_inurba_marseille","lat":43.28484,"lon":5.38424,"is_reserved":false,"is_disabled":true,"rental_uris":{"android":"levelo://app?vid=8ec72965-5ccc-4f08-a147-ecc9da80f9c5","ios":"levelo://app?vid=8ec72965-5ccc-4f08-a147-ecc9da80f9c5"},"vehicle_type_id":"4","last_reported":1737907792,"current_range_meters":2000,"station_id":"ce4bh512rcd13ifvqe3g","pricing_plan_id":"cebpf4jnsgd1na2vs0mg"},{"bike_id":"a8b1c687-6bce-4d4d-8d1d-13b7264a409a","system_id":"levelo_inurba_marseille","lat":43.26682,"lon":5.38271,"is_reserved":false,"is_disabled":false,"rental_uris":{"android":"levelo://app?vid=a8b1c687-6bce-4d4d-8d1d-13b7264a409a","ios":"levelo://app?vid=a8b1c687-6bce-4d4d-8d1d-13b7264a409a"},"vehicle_type_id":"4","last_reported":1737907792,"current_range_meters":9200,"station_id":"ce4bhg92rcd13ifvqf90","pricing_plan_id":"cebpf4jnsgd1na2vs0mg"},{"bike_id":"3d98c6ce-e80d-46e8-b577-648cd8c28632","system_id":"levelo_inurba_marseille","lat":43.34991,"lon":5.34973,"is_reserved":false,"is_disabled":true,"rental_uris":{"android":"levelo://app?vid=3d98c6ce-e80d-46e8-b577-648cd8c28632","ios":"levelo://app?vid=3d98c6ce-e80d-46e8-b577-648cd8c28632"},"vehicle_type_id":"4","last_reported":1737907792,"current_range_meters":0,"station_id":"","pricing_plan_id":"cebpf4jnsgd1na2vs0mg"},{"bike_id":"f13404b2-fb3e-4db4-bc17-139ef572528a","system_id":"levelo_inurba_marseille","lat":43.27547,"lon":5.35982,"is_reserved":false,"is_disabled":false,"rental_uris":{"android":"levelo://app?vid=f13404b2-fb3e-4db4-bc17-139ef572528a","ios":"levelo://app?vid=f13404b2-fb3e-4db4-bc17-139ef572528a"},"vehicle_type_id":"4","last_reported":1737907792,"current_range_meters":8800,"station_id":"ce4bgj92rcd13ifvqbe0","pricing_plan_id":"cebpf4jnsgd1na2vs0mg"},{"bike_id":"86167669-87ec-46d8-942a-1b0cb002dce8","system_id":"levelo_inurba_marseille","lat":43.29389,"lon":5.40107,"is_reserved":false,"is_disabled":true,"rental_uris":{"android":"levelo://app?vid=86167669-87ec-46d8-942a-1b0cb002dce8","ios":"levelo://app?vid=86167669-87ec-46d8-942a-1b0cb002dce8"},"vehicle_type_id":"4","last_reported":1737907792,"current_range_meters":25600,"station_id":"","pricing_plan_id":"cebpf4jnsgd1na2vs0mg"},{"bike_id":"6975cfd6-2081-4544-8ad1-47f93123d5f7","system_id":"levelo_inurba_marseille","lat":43.28708,"lon":5.40018,"is_reserved":false,"is_disabled":true,"rental_uris":{"android":"levelo://app?vid=6975cfd6-2081-4544-8ad1-47f93123d5f7","ios":"levelo://app?vid=6975cfd6-2081-4544-8ad1-47f93123d5f7"},"vehicle_type_id":"4","last_reported":1737907792,"current_range_meters":3600,"station_id":"ce4bho92rcd13ifvqh3g","pricing_plan_id":"cebpf4jnsgd1na2vs0mg"},{"bike_id":"16cba4e1-cb10-44ef-b1a1-eca95385335f","system_id":"levelo_inurba_marseille","lat":43.28429,"lon":5.34982,"is_reserved":false,"is_disabled":true,"rental_uris":{"android":"levelo://app?vid=16cba4e1-cb10-44ef-b1a1-eca95385335f","ios":"levelo://app?vid=16cba4e1-cb10-44ef-b1a1-eca95385335f"},"vehicle_type_id":"4","last_reported":1737907792,"current_range_meters":0,"station_id":"ce4bhbh2rcd13ifvqepg","pricing_plan_id":"cebpf4jnsgd1na2vs0mg"},{"bike_id":"9c6c808c-2344-4484-b654-8a68fb115aa6","system_id":"levelo_inurba_marseille","lat":43.31147,"lon":5.37049,"is_reserved":false,"is_disabled":false,"rental_uris":{"android":"levelo://app?vid=9c6c808c-2344-4484-b654-8a68fb115aa6","ios":"levelo://app?vid=9c6c808c-2344-4484-b654-8a68fb115aa6"},"vehicle_type_id":"4","last_reported":1737907792,"current_range_meters":36000,"station_id":"","pricing_plan_id":"cebpf4jnsgd1na2vs0mg"},{"bike_id":"b77efc8b-41fe-4709-b58e-05026c2b2ca6","system_id":"levelo_inurba_marseille","lat":43.30814,"lon":5.43521,"is_reserved":false,"is_disabled":false,"rental_uris":{"android":"levelo://app?vid=b77efc8b-41fe-4709-b58e-05026c2b2ca6","ios":"levelo://app?vid=b77efc8b-41fe-4709-b58e-05026c2b2ca6"},"vehicle_type_id":"4","last_reported":1737907792,"current_range_meters":16000,"station_id":"ce4bhph2rcd13ifvqheg","pricing_plan_id":"cebpf4jnsgd1na2vs0mg"},{"bike_id":"92ddff88-573f-4595-a49a-773dff778f86","system_id":"levelo_inurba_marseille","lat":43.27764,"lon":5.3801,"is_reserved":false,"is_disabled":false,"rental_uris":{"android":"levelo://app?vid=92ddff88-573f-4595-a49a-773dff778f86","ios":"levelo://app?vid=92ddff88-573f-4595-a49a-773dff778f86"},"vehicle_type_id":"4","last_reported":1737907792,"current_range_meters":18800,"station_id":"","pricing_plan_id":"cebpf4jnsgd1na2vs0mg"},{"bike_id":"8fc5f132-29ed-47c1-bff0-bf17728d82ae","system_id":"levelo_inurba_marseille","lat":43.293624,"lon":5.378684,"is_reserved":false,"is_disabled":true,"rental_uris":{"android":"levelo://app?vid=8fc5f132-29ed-47c1-bff0-bf17728d82ae","ios":"levelo://app?vid=8fc5f132-29ed-47c1-bff0-bf17728d82ae"},"vehicle_type_id":"4","last_reported":1737907792,"current_range_meters":33600,"station_id":"ce4bgjh2rcd13ifvqbf0","pricing_plan_id":"cebpf4jnsgd1na2vs0mg"},{"bike_id":"0409c418-1a87-452b-be7c-84da8e4aa35a","system_id":"levelo_inurba_marseille","lat":43.31997,"lon":5.38148,"is_reserved":false,"is_disabled":true,"rental_uris":{"android":"levelo://app?vid=0409c418-1a87-452b-be7c-84da8e4aa35a","ios":"levelo://app?vid=0409c418-1a87-452b-be7c-84da8e4aa35a"},"vehicle_type_id":"4","last_reported":1737907792,"current_range_meters":0,"station_id":"ce4bhr12rcd13ifvqhpg","pricing_plan_id":"cebpf4jnsgd1na2vs0mg"},{"bike_id":"91d66d54-aabf-44b7-ac3a-355a4b9e5628","system_id":"levelo_inurba_marseille","lat":43.240671,"lon":5.377571,"is_reserved":false,"is_disabled":true,"rental_uris":{"android":"levelo://app?vid=91d66d54-aabf-44b7-ac3a-355a4b9e5628","ios":"levelo://app?vid=91d66d54-aabf-44b7-ac3a-355a4b9e5628"},"vehicle_type_id":"4","last_reported":1737907792,"current_range_meters":38800,"station_id":"ce4bhnp2rcd13ifvqgvg","pricing_plan_id":"cebpf4jnsgd1na2vs0mg"},{"bike_id":"0d7322e6-262f-48f7-8eaa-5823a3ad1063","system_id":"levelo_inurba_marseille","lat":43.28415,"lon":5.37524,"is_reserved":false,"is_disabled":true,"rental_uris":{"android":"levelo://app?vid=0d7322e6-262f-48f7-8eaa-5823a3ad1063","ios":"levelo://app?vid=0d7322e6-262f-48f7-8eaa-5823a3ad1063"},"vehicle_type_id":"4","last_reported":1737907792,"current_range_meters":800,"station_id":"ce4bh412rcd13ifvqds0","pricing_plan_id":"cebpf4jnsgd1na2vs0mg"},{"bike_id":"1a65e631-b539-49fd-bb44-881541398077","system_id":"levelo_inurba_marseille","lat":43.2668,"lon":5.38266,"is_reserved":false,"is_disabled":false,"rental_uris":{"android":"levelo://app?vid=1a65e631-b539-49fd-bb44-881541398077","ios":"levelo://app?vid=1a65e631-b539-49fd-bb44-881541398077"},"vehicle_type_id":"4","last_reported":1737907792,"current_range_meters":30800,"station_id":"ce4bhg92rcd13ifvqf90","pricing_plan_id":"cebpf4jnsgd1na2vs0mg"},{"bike_id":"8cb4e965-f52d-47c7-bd43-b37f278c15c7","system_id":"levelo_inurba_marseille","lat":43.27214,"lon":5.39183,"is_reserved":false,"is_disabled":false,"rental_uris":{"android":"levelo://app?vid=8cb4e965-f52d-47c7-bd43-b37f278c15c7","ios":"levelo://app?vid=8cb4e965-f52d-47c7-bd43-b37f278c15c7"},"vehicle_type_id":"4","last_reported":1737907792,"current_range_meters":4000,"station_id":"ce4bhhp2rcd13ifvqfm0","pricing_plan_id":"cebpf4jnsgd1na2vs0mg"},{"bike_id":"1034d541-3c0d-4d8f-a939-7b844cd7a6ec","system_id":"levelo_inurba_marseille","lat":43.27992,"lon":5.41662,"is_reserved":false,"is_disabled":true,"rental_uris":{"android":"levelo://app?vid=1034d541-3c0d-4d8f-a939-7b844cd7a6ec","ios":"levelo://app?vid=1034d541-3c0d-4d8f-a939-7b844cd7a6ec"},"vehicle_type_id":"4","last_reported":1737907792,"current_range_meters":0,"station_id":"ce4bho12rcd13ifvqh1g","pricing_plan_id":"cebpf4jnsgd1na2vs0mg"},{"bike_id":"f4a67fd7-7ba0-462e-b321-724410a83bc3","system_id":"levelo_inurba_marseille","lat":43.28602,"lon":5.35113,"is_reserved":false,"is_disabled":true,"rental_uris":{"android":"levelo://app?vid=f4a67fd7-7ba0-462e-b321-724410a83bc3","ios":"levelo://app?vid=f4a67fd7-7ba0-462e-b321-724410a83bc3"},"vehicle_type_id":"4","last_reported":1737907792,"current_range_meters":0,"station_id":"ce4bhch2rcd13ifvqeug","pricing_plan_id":"cebpf4jnsgd1na2vs0mg"},{"bike_id":"d1e24b63-5f3b-42be-a266-7a5f03dd9434","system_id":"levelo_inurba_marseille","lat":43.241841,"lon":5.397224,"is_reserved":false,"is_disabled":false,"rental_uris":{"android":"levelo://app?vid=d1e24b63-5f3b-42be-a266-7a5f03dd9434","ios":"levelo://app?vid=d1e24b63-5f3b-42be-a266-7a5f03dd9434"},"vehicle_type_id":"4","last_reported":1737907792,"current_range_meters":25600,"station_id":"ce4bhn12rcd13ifvqgpg","pricing_plan_id":"cebpf4jnsgd1na2vs0mg"},{"bike_id":"9c2ddd4b-87d7-4225-a82b-630bde1c7fa2","system_id":"levelo_inurba_marseille","lat":43.29784,"lon":5.38112,"is_reserved":false,"is_disabled":false,"rental_uris":{"android":"levelo://app?vid=9c2ddd4b-87d7-4225-a82b-630bde1c7fa2","ios":"levelo://app?vid=9c2ddd4b-87d7-4225-a82b-630bde1c7fa2"},"vehicle_type_id":"4","last_reported":1737907792,"current_range_meters":30800,"station_id":"ce4bgip2rcd13ifvqbb0","pricing_plan_id":"cebpf4jnsgd1na2vs0mg"},{"bike_id":"4008c5d4-accb-4981-8933-9e85f4cde128","system_id":"levelo_inurba_marseille","lat":43.23197,"lon":5.35546,"is_reserved":false,"is_disabled":false,"rental_uris":{"android":"levelo://app?vid=4008c5d4-accb-4981-8933-9e85f4cde128","ios":"levelo://app?vid=4008c5d4-accb-4981-8933-9e85f4cde128"},"vehicle_type_id":"4","last_reported":1737907792,"current_range_meters":22000,"station_id":"ce4bhu92rcd13ifvqi70","pricing_plan_id":"cebpf4jnsgd1na2vs0mg"},{"bike_id":"a0a7eaaa-48bd-4be7-a329-3c746288a46b","system_id":"levelo_inurba_marseille","lat":43.29449,"lon":5.39753,"is_reserved":false,"is_disabled":true,"rental_uris":{"android":"levelo://app?vid=a0a7eaaa-48bd-4be7-a329-3c746288a46b","ios":"levelo://app?vid=a0a7eaaa-48bd-4be7-a329-3c746288a46b"},"vehicle_type_id":"4","last_reported":1737907792,"current_range_meters":24400,"station_id":"ce4bh3h2rcd13ifvqdo0","pricing_plan_id":"cebpf4jnsgd1na2vs0mg"},{"bike_id":"93fda149-f175-40ff-85e1-7f1ae18af800","system_id":"levelo_inurba_marseille","lat":43.29594,"lon":5.38108,"is_reserved":false,"is_disabled":false,"rental_uris":{"android":"levelo://app?vid=93fda149-f175-40ff-85e1-7f1ae18af800","ios":"levelo://app?vid=93fda149-f175-40ff-85e1-7f1ae18af800"},"vehicle_type_id":"4","last_reported":1737907792,"current_range_meters":16000,"station_id":"ce4bgl12rcd13ifvqbo0","pricing_plan_id":"cebpf4jnsgd1na2vs0mg"},{"bike_id":"5c995afd-2cd1-49c1-8bf9-110c6b679d80","system_id":"levelo_inurba_marseille","lat":43.24081,"lon":5.37735,"is_reserved":false,"is_disabled":false,"rental_uris":{"android":"levelo://app?vid=5c995afd-2cd1-49c1-8bf9-110c6b679d80","ios":"levelo://app?vid=5c995afd-2cd1-49c1-8bf9-110c6b679d80"},"vehicle_type_id":"4","last_reported":1737907792,"current_range_meters":38800,"station_id":"ce4bhnp2rcd13ifvqgvg","pricing_plan_id":"cebpf4jnsgd1na2vs0mg"},{"bike_id":"fb25eb5d-60a4-43cf-82ab-4f3f4616d6fe","system_id":"levelo_inurba_marseille","lat":43.3152,"lon":5.38039,"is_reserved":false,"is_disabled":false,"rental_uris":{"android":"levelo://app?vid=fb25eb5d-60a4-43cf-82ab-4f3f4616d6fe","ios":"levelo://app?vid=fb25eb5d-60a4-43cf-82ab-4f3f4616d6fe"},"vehicle_type_id":"4","last_reported":1737907792,"current_range_meters":38400,"station_id":"ce4bhsp2rcd13ifvqi50","pricing_plan_id":"cebpf4jnsgd1na2vs0mg"},{"bike_id":"9bbe485d-8cb1-434a-b80b-62558cc0dbf6","system_id":"levelo_inurba_marseille","lat":43.30177,"lon":5.36611,"is_reserved":false,"is_disabled":false,"rental_uris":{"android":"levelo://app?vid=9bbe485d-8cb1-434a-b80b-62558cc0dbf6","ios":"levelo://app?vid=9bbe485d-8cb1-434a-b80b-62558cc0dbf6"},"vehicle_type_id":"4","last_reported":1737907792,"current_range_meters":38800,"station_id":"ce4bgrh2rcd13ifvqc8g","pricing_plan_id":"cebpf4jnsgd1na2vs0mg"},{"bike_id":"b64d880e-4583-44f0-8c16-3495e23cf3e5","system_id":"levelo_inurba_marseille","lat":43.29901,"lon":5.43663,"is_reserved":false,"is_disabled":false,"rental_uris":{"android":"levelo://app?vid=b64d880e-4583-44f0-8c16-3495e23cf3e5","ios":"levelo://app?vid=b64d880e-4583-44f0-8c16-3495e23cf3e5"},"vehicle_type_id":"4","last_reported":1737907792,"current_range_meters":18800,"station_id":"ce4bhpp2rcd13ifvqhfg","pricing_plan_id":"cebpf4jnsgd1na2vs0mg"},{"bike_id":"d34327a1-f0de-4d8f-be65-c892bdcf6fdd","system_id":"levelo_inurba_marseille","lat":43.32489,"lon":5.36571,"is_reserved":false,"is_disabled":false,"rental_uris":{"android":"levelo://app?vid=d34327a1-f0de-4d8f-be65-c892bdcf6fdd","ios":"levelo://app?vid=d34327a1-f0de-4d8f-be65-c892bdcf6fdd"},"vehicle_type_id":"4","last_reported":1737907792,"current_range_meters":37600,"station_id":"ce4bhs12rcd13ifvqhvg","pricing_plan_id":"cebpf4jnsgd1na2vs0mg"},{"bike_id":"0a8382a9-7b50-4a76-831b-f40bdebd3204","system_id":"levelo_inurba_marseille","lat":43.32457,"lon":5.36547,"is_reserved":false,"is_disabled":false,"rental_uris":{"android":"levelo://app?vid=0a8382a9-7b50-4a76-831b-f40bdebd3204","ios":"levelo://app?vid=0a8382a9-7b50-4a76-831b-f40bdebd3204"},"vehicle_type_id":"4","last_reported":1737907792,"current_range_meters":27600,"station_id":"ce4bhs12rcd13ifvqhvg","pricing_plan_id":"cebpf4jnsgd1na2vs0mg"},{"bike_id":"6d321950-f646-468e-a1d0-4490daf2a0a1","system_id":"levelo_inurba_marseille","lat":43.30138,"lon":5.37419,"is_reserved":false,"is_disabled":false,"rental_uris":{"android":"levelo://app?vid=6d321950-f646-468e-a1d0-4490daf2a0a1","ios":"levelo://app?vid=6d321950-f646-468e-a1d0-4490daf2a0a1"},"vehicle_type_id":"4","last_reported":1737907792,"current_range_meters":16400,"station_id":"ce4bgs92rcd13ifvqcc0","pricing_plan_id":"cebpf4jnsgd1na2vs0mg"},{"bike_id":"09301b7e-3f32-4bc4-a0fe-67890821f723","system_id":"levelo_inurba_marseille","lat":43.2719,"lon":5.39231,"is_reserved":false,"is_disabled":true,"rental_uris":{"android":"levelo://app?vid=09301b7e-3f32-4bc4-a0fe-67890821f723","ios":"levelo://app?vid=09301b7e-3f32-4bc4-a0fe-67890821f723"},"vehicle_type_id":"4","last_reported":1737907792,"current_range_meters":400,"station_id":"ce4bhhp2rcd13ifvqfm0","pricing_plan_id":"cebpf4jnsgd1na2vs0mg"},{"bike_id":"10392589-8940-4b2b-8a78-61525a7b7423","system_id":"levelo_inurba_marseille","lat":43.29852,"lon":5.36285,"is_reserved":false,"is_disabled":false,"rental_uris":{"android":"levelo://app?vid=10392589-8940-4b2b-8a78-61525a7b7423","ios":"levelo://app?vid=10392589-8940-4b2b-8a78-61525a7b7423"},"vehicle_type_id":"4","last_reported":1737907792,"current_range_meters":38800,"station_id":"ce4bgpp2rcd13ifvqc3g","pricing_plan_id":"cebpf4jnsgd1na2vs0mg"},{"bike_id":"f80d01d0-a712-409a-8ab3-b8a044fec525","system_id":"levelo_inurba_marseille","lat":43.2586,"lon":5.39907,"is_reserved":false,"is_disabled":true,"rental_uris":{"android":"levelo://app?vid=f80d01d0-a712-409a-8ab3-b8a044fec525","ios":"levelo://app?vid=f80d01d0-a712-409a-8ab3-b8a044fec525"},"vehicle_type_id":"4","last_reported":1737907792,"current_range_meters":35600,"station_id":"ce4bhl92rcd13ifvqghg","pricing_plan_id":"cebpf4jnsgd1na2vs0mg"},{"bike_id":"d2798bd5-a098-4efa-ae7d-8b5f5fd0fc19","system_id":"levelo_inurba_marseille","lat":43.29305,"lon":5.37443,"is_reserved":false,"is_disabled":true,"rental_uris":{"android":"levelo://app?vid=d2798bd5-a098-4efa-ae7d-8b5f5fd0fc19","ios":"levelo://app?vid=d2798bd5-a098-4efa-ae7d-8b5f5fd0fc19"},