{"last_updated":1721596008,"ttl":30,"version":"2.2","data":{"bikes":[{"bike_id":"f10b617d-6ce5-41a2-8d62-ba22149f74d7","system_id":"levelo_inurba_marseille","lat":43.313391,"lon":5.36706,"is_reserved":false,"is_disabled":false,"rental_uris":{"android":"levelo://app?vid=f10b617d-6ce5-41a2-8d62-ba22149f74d7","ios":"levelo://app?vid=f10b617d-6ce5-41a2-8d62-ba22149f74d7"},"vehicle_type_id":"4","last_reported":1721596008,"current_range_meters":0,"station_id":"ce4bgr92rcd13ifvqc6g","pricing_plan_id":"cebpf4jnsgd1na2vs0mg"},{"bike_id":"8ba6ac11-8a03-431b-b4d0-d5ed9ea5aa2c","system_id":"levelo_inurba_marseille","lat":43.31219,"lon":5.36859,"is_reserved":false,"is_disabled":false,"rental_uris":{"android":"levelo://app?vid=8ba6ac11-8a03-431b-b4d0-d5ed9ea5aa2c","ios":"levelo://app?vid=8ba6ac11-8a03-431b-b4d0-d5ed9ea5aa2c"},"vehicle_type_id":"4","last_reported":1721596008,"current_range_meters":4800,"station_id":"ce4bgl92rcd13ifvqbq0","pricing_plan_id":"cebpf4jnsgd1na2vs0mg"},{"bike_id":"886eba04-15ff-456e-98bb-56b0e93e2bcf","system_id":"levelo_inurba_marseille","lat":43.31258,"lon":5.3689,"is_reserved":false,"is_disabled":false,"rental_uris":{"android":"levelo://app?vid=886eba04-15ff-456e-98bb-56b0e93e2bcf","ios":"levelo://app?vid=886eba04-15ff-456e-98bb-56b0e93e2bcf"},"vehicle_type_id":"4","last_reported":1721596008,"current_range_meters":12400,"station_id":"ce4bgl92rcd13ifvqbq0","pricing_plan_id":"cebpf4jnsgd1na2vs0mg"},{"bike_id":"435c81db-dbe8-44d3-adc0-98b2bc6deb1f","system_id":"levelo_inurba_marseille","lat":43.309076,"lon":5.368465,"is_reserved":false,"is_disabled":false,"rental_uris":{"android":"levelo://app?vid=435c81db-dbe8-44d3-adc0-98b2bc6deb1f","ios":"levelo://app?vid=435c81db-dbe8-44d3-adc0-98b2bc6deb1f"},"vehicle_type_id":"4","last_reported":1721596008,"current_range_meters":12000,"station_id":"ce4bgn92rcd13ifvqbvg","pricing_plan_id":"cebpf4jnsgd1na2vs0mg"},{"bike_id":"5eab3ffd-18f6-4119-928a-2b7576c7c551","system_id":"levelo_inurba_marseille","lat":43.309076,"lon":5.368465,"is_reserved":false,"is_disabled":false,"rental_uris":{"android":"levelo://app?vid=5eab3ffd-18f6-4119-928a-2b7576c7c551","ios":"levelo://app?vid=5eab3ffd-18f6-4119-928a-2b7576c7c551"},"vehicle_type_id":"4","last_reported":1721596008,"current_range_meters":13200,"station_id":"ce4bgn92rcd13ifvqbvg","pricing_plan_id":"cebpf4jnsgd1na2vs0mg"},{"bike_id":"b78df70e-9fe7-4280-aa6c-13bd0be4a253","system_id":"levelo_inurba_marseille","lat":43.309076,"lon":5.368465,"is_reserved":false,"is_disabled":false,"rental_uris":{"android":"levelo://app?vid=b78df70e-9fe7-4280-aa6c-13bd0be4a253","ios":"levelo://app?vid=b78df70e-9fe7-4280-aa6c-13bd0be4a253"},"vehicle_type_id":"4","last_reported":1721596008,"current_range_meters":24800,"station_id":"ce4bgn92rcd13ifvqbvg","pricing_plan_id":"cebpf4jnsgd1na2vs0mg"},{"bike_id":"e1da4770-1773-4b03-8ab7-9af805d0aab5","system_id":"levelo_inurba_marseille","lat":43.314811,"lon":5.373103,"is_reserved":false,"is_disabled":false,"rental_uris":{"android":"levelo://app?vid=e1da4770-1773-4b03-8ab7-9af805d0aab5","ios":"levelo://app?vid=e1da4770-1773-4b03-8ab7-9af805d0aab5"},"vehicle_type_id":"4","last_reported":1721596008,"current_range_meters":24000,"station_id":"ce4bgt12rcd13ifvqcd0","pricing_plan_id":"cebpf4jnsgd1na2vs0mg"},{"bike_id":"b5c67538-48a5-40ac-8c21-717566b8219c","system_id":"levelo_inurba_marseille","lat":43.309039,"lon":5.371797,"is_reserved":false,"is_disabled":false,"rental_uris":{"android":"levelo://app?vid=b5c67538-48a5-40ac-8c21-717566b8219c","ios":"levelo://app?vid=b5c67538-48a5-40ac-8c21-717566b8219c"},"vehicle_type_id":"4","last_reported":1721596008,"current_range_meters":30800,"station_id":"ce4bguh2rcd13ifvqckg","pricing_plan_id":"cebpf4jnsgd1na2vs0mg"},{"bike_id":"f3ce0a98-43d1-4b2e-a0b4-6ec53b169f1e","system_id":"levelo_inurba_marseille","lat":43.309039,"lon":5.371797,"is_reserved":false,"is_disabled":false,"rental_uris":{"android":"levelo://app?vid=f3ce0a98-43d1-4b2e-a0b4-6ec53b169f1e","ios":"levelo://app?vid=f3ce0a98-43d1-4b2e-a0b4-6ec53b169f1e"},"vehicle_type_id":"4","last_reported":1721596008,"current_range_meters":5200,"station_id":"ce4bguh2rcd13ifvqckg","pricing_plan_id":"cebpf4jnsgd1na2vs0mg"},{"bike_id":"9e904c6c-cde3-4b6d-870f-73b04435adf8","system_id":"levelo_inurba_marseille","lat":43.309034,"lon":5.371783,"is_reserved":false,"is_disabled":false,"rental_uris":{"android":"levelo://app?vid=9e904c6c-cde3-4b6d-870f-73b04435adf8","ios":"levelo://app?vid=9e904c6c-cde3-4b6d-870f-73b04435adf8"},"vehicle_type_id":"4","last_reported":1721596008,"current_range_meters":18000,"station_id":"ce4bguh2rcd13ifvqckg","pricing_plan_id":"cebpf4jnsgd1na2vs0mg"},{"bike_id":"7fb93600-9047-486f-80dd-62d2739abfde","system_id":"levelo_inurba_marseille","lat":43.307422,"lon":5.371387,"is_reserved":false,"is_disabled":false,"rental_uris":{"android":"levelo://app?vid=7fb93600-9047-486f-80dd-62d2739abfde","ios":"levelo://app?vid=7fb93600-9047-486f-80dd-62d2739abfde"},"vehicle_type_id":"4","last_reported":1721596008,"current_range_meters":12400,"station_id":"","pricing_plan_id":"cebpf4jnsgd1na2vs0mg"},{"bike_id":"32bf86fb-39c7-4520-b12e-60e8f91c25e9","system_id":"levelo_inurba_marseille","lat":43.30643,"lon":5.36802,"is_reserved":false,"is_disabled":false,"rental_uris":{"android":"levelo://app?vid=32bf86fb-39c7-4520-b12e-60e8f91c25e9","ios":"levelo://app?vid=32bf86fb-39c7-4520-b12e-60e8f91c25e9"},"vehicle_type_id":"4","last_reported":1721596008,"current_range_meters":26800,"station_id":"","pricing_plan_id":"cebpf4jnsgd1na2vs0mg"},{"bike_id":"16ca95ef-aead-47f1-8312-677cace80a91","system_id":"levelo_inurba_marseille","lat":43.305714,"lon":5.365633,"is_reserved":false,"is_disabled":false,"rental_uris":{"android":"levelo://app?vid=16ca95ef-aead-47f1-8312-677cace80a91","ios":"levelo://app?vid=16ca95ef-aead-47f1-8312-677cace80a91"},"vehicle_type_id":"4","last_reported":1721596008,"current_range_meters":19200,"station_id":"ce4bgs12rcd13ifvqcag","pricing_plan_id":"cebpf4jnsgd1na2vs0mg"},{"bike_id":"0dfba967-6aeb-41e6-a644-ed92a892d539","system_id":"levelo_inurba_marseille","lat":43.30543,"lon":5.36707,"is_reserved":false,"is_disabled":false,"rental_uris":{"android":"levelo://app?vid=0dfba967-6aeb-41e6-a644-ed92a892d539","ios":"levelo://app?vid=0dfba967-6aeb-41e6-a644-ed92a892d539"},"vehicle_type_id":"4","last_reported":1721596008,"current_range_meters":0,"station_id":"ce4bgrp2rcd13ifvqc9g","pricing_plan_id":"cebpf4jnsgd1na2vs0mg"},{"bike_id":"25485881-7aa9-417a-8395-603b5655efe9","system_id":"levelo_inurba_marseille","lat":43.305712,"lon":5.365641,"is_reserved":false,"is_disabled":false,"rental_uris":{"android":"levelo://app?vid=25485881-7aa9-417a-8395-603b5655efe9","ios":"levelo://app?vid=25485881-7aa9-417a-8395-603b5655efe9"},"vehicle_type_id":"4","last_reported":1721596008,"current_range_meters":3600,"station_id":"ce4bgs12rcd13ifvqcag","pricing_plan_id":"cebpf4jnsgd1na2vs0mg"},{"bike_id":"3b248849-7a90-4adc-88e8-de84ce175aaf","system_id":"levelo_inurba_marseille","lat":43.30537,"lon":5.367345,"is_reserved":false,"is_disabled":false,"rental_uris":{"android":"levelo://app?vid=3b248849-7a90-4adc-88e8-de84ce175aaf","ios":"levelo://app?vid=3b248849-7a90-4adc-88e8-de84ce175aaf"},"vehicle_type_id":"4","last_reported":1721596008,"current_range_meters":0,"station_id":"ce4bgrp2rcd13ifvqc9g","pricing_plan_id":"cebpf4jnsgd1na2vs0mg"},{"bike_id":"66d4dcdd-abe3-4407-aa35-a2a6fbe802f6","system_id":"levelo_inurba_marseille","lat":43.30537,"lon":5.367345,"is_reserved":false,"is_disabled":false,"rental_uris":{"android":"levelo://app?vid=66d4dcdd-abe3-4407-aa35-a2a6fbe802f6","ios":"levelo://app?vid=66d4dcdd-abe3-4407-aa35-a2a6fbe802f6"},"vehicle_type_id":"4","last_reported":1721596008,"current_range_meters":20800,"station_id":"ce4bgrp2rcd13ifvqc9g","pricing_plan_id":"cebpf4jnsgd1na2vs0mg"},{"bike_id":"a29dd255-24e0-428e-9ece-4ced2aacd08a","system_id":"levelo_inurba_marseille","lat":43.305989,"lon":5.37225,"is_reserved":false,"is_disabled":false,"rental_uris":{"android":"levelo://app?vid=a29dd255-24e0-428e-9ece-4ced2aacd08a","ios":"levelo://app?vid=a29dd255-24e0-428e-9ece-4ced2aacd08a"},"vehicle_type_id":"4","last_reported":1721596008,"current_range_meters":8800,"station_id":"ce4bgqh2rcd13ifvqc4g","pricing_plan_id":"cebpf4jnsgd1na2vs0mg"},{"bike_id":"cf88389b-e679-4be8-9007-25550bb9061b","system_id":"levelo_inurba_marseille","lat":43.311125,"lon":5.377624,"is_reserved":false,"is_disabled":false,"rental_uris":{"android":"levelo://app?vid=cf88389b-e679-4be8-9007-25550bb9061b","ios":"levelo://app?vid=cf88389b-e679-4be8-9007-25550bb9061b"},"vehicle_type_id":"4","last_reported":1721596008,"current_range_meters":6000,"station_id":"ce4bgt92rcd13ifvqcg0","pricing_plan_id":"cebpf4jnsgd1na2vs0mg"},{"bike_id":"6b707f6e-9ca1-4e9f-b928-ac4b18fa98c0","system_id":"levelo_inurba_marseille","lat":43.311125,"lon":5.377624,"is_reserved":false,"is_disabled":false,"rental_uris":{"android":"levelo://app?vid=6b707f6e-9ca1-4e9f-b928-ac4b18fa98c0","ios":"levelo://app?vid=6b707f6e-9ca1-4e9f-b928-ac4b18fa98c0"},"vehicle_type_id":"4","last_reported":1721596008,"current_range_meters":13200,"station_id":"ce4bgt92rcd13ifvqcg0","pricing_plan_id":"cebpf4jnsgd1na2vs0mg"},{"bike_id":"d2dcc2f2-a3ed-4f2e-b2f9-9f39f2086233","system_id":"levelo_inurba_marseille","lat":43.311125,"lon":5.377624,"is_reserved":false,"is_disabled":false,"rental_uris":{"android":"levelo://app?vid=d2dcc2f2-a3ed-4f2e-b2f9-9f39f2086233","ios":"levelo://app?vid=d2dcc2f2-a3ed-4f2e-b2f9-9f39f2086233"},"vehicle_type_id":"4","last_reported":1721596008,"current_range_meters":23600,"station_id":"ce4bgt92rcd13ifvqcg0","pricing_plan_id":"cebpf4jnsgd1na2vs0mg"},{"bike_id":"8eaf276a-c939-408b-bf84-fc1dbd8bf77e","system_id":"levelo_inurba_marseille","lat":43.311125,"lon":5.377624,"is_reserved":false,"is_disabled":false,"rental_uris":{"android":"levelo://app?vid=8eaf276a-c939-408b-bf84-fc1dbd8bf77e","ios":"levelo://app?vid=8eaf276a-c939-408b-bf84-fc1dbd8bf77e"},"vehicle_type_id":"4","last_reported":1721596008,"current_range_meters":8800,"station_id":"ce4bgt92rcd13ifvqcg0","pricing_plan_id":"cebpf4jnsgd1na2vs0mg"},{"bike_id":"260d8f53-6667-45b4-bd98-f1d8f73a6475","system_id":"levelo_inurba_marseille","lat":43.311125,"lon":5.377624,"is_reserved":false,"is_disabled":false,"rental_uris":{"android":"levelo://app?vid=260d8f53-6667-45b4-bd98-f1d8f73a6475","ios":"levelo://app?vid=260d8f53-6667-45b4-bd98-f1d8f73a6475"},"vehicle_type_id":"4","last_reported":1721596008,"current_range_meters":8000,"station_id":"ce4bgt92rcd13ifvqcg0","pricing_plan_id":"cebpf4jnsgd1na2vs0mg"},{"bike_id":"6bcee99f-9d61-41d3-882f-a894e2b486a1","system_id":"levelo_inurba_marseille","lat":43.307945,"lon":5.376487,"is_reserved":false,"is_disabled":false,"rental_uris":{"android":"levelo://app?vid=6bcee99f-9d61-41d3-882f-a894e2b486a1","ios":"levelo://app?vid=6bcee99f-9d61-41d3-882f-a894e2b486a1"},"vehicle_type_id":"4","last_reported":1721596008,"current_range_meters":14800,"station_id":"ce4bgv92rcd13ifvqcq0","pricing_plan_id":"cebpf4jnsgd1na2vs0mg"},{"bike_id":"e237949d-8cc4-4d40-8c3d-b9523412a874","system_id":"levelo_inurba_marseille","lat":43.307945,"lon":5.376487,"is_reserved":false,"is_disabled":false,"rental_uris":{"android":"levelo://app?vid=e237949d-8cc4-4d40-8c3d-b9523412a874","ios":"levelo://app?vid=e237949d-8cc4-4d40-8c3d-b9523412a874"},"vehicle_type_id":"4","last_reported":1721596008,"current_range_meters":4400,"station_id":"ce4bgv92rcd13ifvqcq0","pricing_plan_id":"cebpf4jnsgd1na2vs0mg"},{"bike_id":"a5f48090-d720-4d94-acb3-046af94e7358","system_id":"levelo_inurba_marseille","lat":43.307945,"lon":5.376487,"is_reserved":false,"is_disabled":false,"rental_uris":{"android":"levelo://app?vid=a5f48090-d720-4d94-acb3-046af94e7358","ios":"levelo://app?vid=a5f48090-d720-4d94-acb3-046af94e7358"},"vehicle_type_id":"4","last_reported":1721596008,"current_range_meters":28800,"station_id":"ce4bgv92rcd13ifvqcq0","pricing_plan_id":"cebpf4jnsgd1na2vs0mg"},{"bike_id":"cb377609-3751-4b40-bffc-7915d3e2cd1e","system_id":"levelo_inurba_marseille","lat":43.307945,"lon":5.376487,"is_reserved":false,"is_disabled":false,"rental_uris":{"android":"levelo://app?vid=cb377609-3751-4b40-bffc-7915d3e2cd1e","ios":"levelo://app?vid=cb377609-3751-4b40-bffc-7915d3e2cd1e"},"vehicle_type_id":"4","last_reported":1721596008,"current_range_meters":22800,"station_id":"ce4bgv92rcd13ifvqcq0","pricing_plan_id":"cebpf4jnsgd1na2vs0mg"},{"bike_id":"e8935ad7-6e1c-43df-97b1-deeba8f9217b","system_id":"levelo_inurba_marseille","lat":43.30395,"lon":5.36479,"is_reserved":false,"is_disabled":false,"rental_uris":{"android":"levelo://app?vid=e8935ad7-6e1c-43df-97b1-deeba8f9217b","ios":"levelo://app?vid=e8935ad7-6e1c-43df-97b1-deeba8f9217b"},"vehicle_type_id":"4","last_reported":1721596008,"current_range_meters":8800,"station_id":"","pricing_plan_id":"cebpf4jnsgd1na2vs0mg"},{"bike_id":"f06103dd-13b1-4286-bd6b-c563ee6b6520","system_id":"levelo_inurba_marseille","lat":43.310057,"lon":5.37942,"is_reserved":false,"is_disabled":false,"rental_uris":{"android":"levelo://app?vid=f06103dd-13b1-4286-bd6b-c563ee6b6520","ios":"levelo://app?vid=f06103dd-13b1-4286-bd6b-c563ee6b6520"},"vehicle_type_id":"4","last_reported":1721596008,"current_range_meters":29600,"station_id":"","pricing_plan_id":"cebpf4jnsgd1na2vs0mg"},{"bike_id":"5ddc9495-41b3-4223-8b60-6a534d0bbcc9","system_id":"levelo_inurba_marseille","lat":43.303046,"lon":5.368981,"is_reserved":false,"is_disabled":false,"rental_uris":{"android":"levelo://app?vid=5ddc9495-41b3-4223-8b60-6a534d0bbcc9","ios":"levelo://app?vid=5ddc9495-41b3-4223-8b60-6a534d0bbcc9"},"vehicle_type_id":"4","last_reported":1721596008,"current_range_meters":4000,"station_id":"ce4bgqh2rcd13ifvqc5g","pricing_plan_id":"cebpf4jnsgd1na2vs0mg"},{"bike_id":"672228af-74ee-49cc-b884-7a516a219cc7","system_id":"levelo_inurba_marseille","lat":43.303046,"lon":5.368981,"is_reserved":false,"is_disabled":false,"rental_uris":{"android":"levelo://app?vid=672228af-74ee-49cc-b884-7a516a219cc7","ios":"levelo://app?vid=672228af-74ee-49cc-b884-7a516a219cc7"},"vehicle_type_id":"4","last_reported":1721596008,"current_range_meters":0,"station_id":"ce4bgqh2rcd13ifvqc5g","pricing_plan_id":"cebpf4jnsgd1na2vs0mg"},{"bike_id":"c69a672c-5893-4c6f-a4bc-398c0b76974c","system_id":"levelo_inurba_marseille","lat":43.315345,"lon":5.380183,"is_reserved":false,"is_disabled":false,"rental_uris":{"android":"levelo://app?vid=c69a672c-5893-4c6f-a4bc-398c0b76974c","ios":"levelo://app?vid=c69a672c-5893-4c6f-a4bc-398c0b76974c"},"vehicle_type_id":"4","last_reported":1721596008,"current_range_meters":4400,"station_id":"ce4bhsp2rcd13ifvqi50","pricing_plan_id":"cebpf4jnsgd1na2vs0mg"},{"bike_id":"cb19d0f4-031c-4acf-b2cd-44d9c0551b8c","system_id":"levelo_inurba_marseille","lat":43.31523,"lon":5.38029,"is_reserved":false,"is_disabled":false,"rental_uris":{"android":"levelo://app?vid=cb19d0f4-031c-4acf-b2cd-44d9c0551b8c","ios":"levelo://app?vid=cb19d0f4-031c-4acf-b2cd-44d9c0551b8c"},"vehicle_type_id":"4","last_reported":1721596008,"current_range_meters":800,"station_id":"ce4bhsp2rcd13ifvqi50","pricing_plan_id":"cebpf4jnsgd1na2vs0mg"},{"bike_id":"65cb89c0-fb58-402c-883d-1fab50216312","system_id":"levelo_inurba_marseille","lat":43.3153,"lon":5.38033,"is_reserved":false,"is_disabled":false,"rental_uris":{"android":"levelo://app?vid=65cb89c0-fb58-402c-883d-1fab50216312","ios":"levelo://app?vid=65cb89c0-fb58-402c-883d-1fab50216312"},"vehicle_type_id":"4","last_reported":1721596008,"current_range_meters":24000,"station_id":"ce4bhsp2rcd13ifvqi50","pricing_plan_id":"cebpf4jnsgd1na2vs0mg"},{"bike_id":"5fe12f7c-8221-4b9d-961e-5fac11952a28","system_id":"levelo_inurba_marseille","lat":43.315289,"lon":5.380349,"is_reserved":false,"is_disabled":false,"rental_uris":{"android":"levelo://app?vid=5fe12f7c-8221-4b9d-961e-5fac11952a28","ios":"levelo://app?vid=5fe12f7c-8221-4b9d-961e-5fac11952a28"},"vehicle_type_id":"4","last_reported":1721596008,"current_range_meters":28400,"station_id":"ce4bhsp2rcd13ifvqi50","pricing_plan_id":"cebpf4jnsgd1na2vs0mg"},{"bike_id":"a7c83eb6-e08c-4bc1-a548-2e476ea4ae7f","system_id":"levelo_inurba_marseille","lat":43.315293,"lon":5.380349,"is_reserved":false,"is_disabled":false,"rental_uris":{"android":"levelo://app?vid=a7c83eb6-e08c-4bc1-a548-2e476ea4ae7f","ios":"levelo://app?vid=a7c83eb6-e08c-4bc1-a548-2e476ea4ae7f"},"vehicle_type_id":"4","last_reported":1721596008,"current_range_meters":24400,"station_id":"ce4bhsp2rcd13ifvqi50","pricing_plan_id":"cebpf4jnsgd1na2vs0mg"},{"bike_id":"841f25e7-cb8c-43bd-bad1-6338f393a33f","system_id":"levelo_inurba_marseille","lat":43.301939,"lon":5.366286,"is_reserved":false,"is_disabled":false,"rental_uris":{"android":"levelo://app?vid=841f25e7-cb8c-43bd-bad1-6338f393a33f","ios":"levelo://app?vid=841f25e7-cb8c-43bd-bad1-6338f393a33f"},"vehicle_type_id":"4","last_reported":1721596008,"current_range_meters":22000,"station_id":"ce4bgrh2rcd13ifvqc8g","pricing_plan_id":"cebpf4jnsgd1na2vs0mg"},{"bike_id":"c5a2ace4-3685-4bdd-a3ef-f8fd649afff8","system_id":"levelo_inurba_marseille","lat":43.310804,"lon":5.38359,"is_reserved":false,"is_disabled":false,"rental_uris":{"android":"levelo://app?vid=c5a2ace4-3685-4bdd-a3ef-f8fd649afff8","ios":"levelo://app?vid=c5a2ace4-3685-4bdd-a3ef-f8fd649afff8"},"vehicle_type_id":"4","last_reported":1721596008,"current_range_meters":14000,"station_id":"ce4bgv92rcd13ifvqcr0","pricing_plan_id":"cebpf4jnsgd1na2vs0mg"},{"bike_id":"349cbfe0-2b19-4476-b4db-abd100b985cf","system_id":"levelo_inurba_marseille","lat":43.308012,"lon":5.381511,"is_reserved":false,"is_disabled":false,"rental_uris":{"android":"levelo://app?vid=349cbfe0-2b19-4476-b4db-abd100b985cf","ios":"levelo://app?vid=349cbfe0-2b19-4476-b4db-abd100b985cf"},"vehicle_type_id":"4","last_reported":1721596008,"current_range_meters":24400,"station_id":"ce4bgt12rcd13ifvqce0","pricing_plan_id":"cebpf4jnsgd1na2vs0mg"},{"bike_id":"f02bfdb1-2cb6-4181-8fff-26897e92aa5d","system_id":"levelo_inurba_marseille","lat":43.308012,"lon":5.381511,"is_reserved":false,"is_disabled":false,"rental_uris":{"android":"levelo://app?vid=f02bfdb1-2cb6-4181-8fff-26897e92aa5d","ios":"levelo://app?vid=f02bfdb1-2cb6-4181-8fff-26897e92aa5d"},"vehicle_type_id":"4","last_reported":1721596008,"current_range_meters":8000,"station_id":"ce4bgt12rcd13ifvqce0","pricing_plan_id":"cebpf4jnsgd1na2vs0mg"},{"bike_id":"8aa85b80-7a61-4e4e-b046-9f7f29039e40","system_id":"levelo_inurba_marseille","lat":43.324771,"lon":5.36557,"is_reserved":false,"is_disabled":false,"rental_uris":{"android":"levelo://app?vid=8aa85b80-7a61-4e4e-b046-9f7f29039e40","ios":"levelo://app?vid=8aa85b80-7a61-4e4e-b046-9f7f29039e40"},"vehicle_type_id":"4","last_reported":1721596008,"current_range_meters":2800,"station_id":"ce4bhs12rcd13ifvqhvg","pricing_plan_id":"cebpf4jnsgd1na2vs0mg"},{"bike_id":"daf5eefd-d491-4d64-9e1f-6e5d3262400a","system_id":"levelo_inurba_marseille","lat":43.324771,"lon":5.36557,"is_reserved":false,"is_disabled":false,"rental_uris":{"android":"levelo://app?vid=daf5eefd-d491-4d64-9e1f-6e5d3262400a","ios":"levelo://app?vid=daf5eefd-d491-4d64-9e1f-6e5d3262400a"},"vehicle_type_id":"4","last_reported":1721596008,"current_range_meters":13200,"station_id":"ce4bhs12rcd13ifvqhvg","pricing_plan_id":"cebpf4jnsgd1na2vs0mg"},{"bike_id":"86fc0bc5-c899-4405-9255-59bd2f63cdac","system_id":"levelo_inurba_marseille","lat":43.324771,"lon":5.36557,"is_reserved":false,"is_disabled":false,"rental_uris":{"android":"levelo://app?vid=86fc0bc5-c899-4405-9255-59bd2f63cdac","ios":"levelo://app?vid=86fc0bc5-c899-4405-9255-59bd2f63cdac"},"vehicle_type_id":"4","last_reported":1721596008,"current_range_meters":28400,"station_id":"ce4bhs12rcd13ifvqhvg","pricing_plan_id":"cebpf4jnsgd1na2vs0mg"},{"bike_id":"4696c7f2-e24d-42e7-88ea-376fce7a06f3","system_id":"levelo_inurba_marseille","lat":43.324771,"lon":5.36557,"is_reserved":false,"is_disabled":false,"rental_uris":{"android":"levelo://app?vid=4696c7f2-e24d-42e7-88ea-376fce7a06f3","ios":"levelo://app?vid=4696c7f2-e24d-42e7-88ea-376fce7a06f3"},"vehicle_type_id":"4","last_reported":1721596008,"current_range_meters":15600,"station_id":"ce4bhs12rcd13ifvqhvg","pricing_plan_id":"cebpf4jnsgd1na2vs0mg"},{"bike_id":"0c2d3f90-467c-4852-8803-8f0f4d5f9b21","system_id":"levelo_inurba_marseille","lat":43.324771,"lon":5.36557,"is_reserved":false,"is_disabled":false,"rental_uris":{"android":"levelo://app?vid=0c2d3f90-467c-4852-8803-8f0f4d5f9b21","ios":"levelo://app?vid=0c2d3f90-467c-4852-8803-8f0f4d5f9b21"},"vehicle_type_id":"4","last_reported":1721596008,"current_range_meters":19200,"station_id":"ce4bhs12rcd13ifvqhvg","pricing_plan_id":"cebpf4jnsgd1na2vs0mg"},{"bike_id":"fa796491-9fa9-4d68-8d5e-89c36128f748","system_id":"levelo_inurba_marseille","lat":43.310804,"lon":5.38359,"is_reserved":false,"is_disabled":false,"rental_uris":{"android":"levelo://app?vid=fa796491-9fa9-4d68-8d5e-89c36128f748","ios":"levelo://app?vid=fa796491-9fa9-4d68-8d5e-89c36128f748"},"vehicle_type_id":"4","last_reported":1721596008,"current_range_meters":15600,"station_id":"ce4bgv92rcd13ifvqcr0","pricing_plan_id":"cebpf4jnsgd1na2vs0mg"},{"bike_id":"8ab5d6ff-ab09-49f6-94a0-c5fd13e6dd07","system_id":"levelo_inurba_marseille","lat":43.310804,"lon":5.38359,"is_reserved":false,"is_disabled":false,"rental_uris":{"android":"levelo://app?vid=8ab5d6ff-ab09-49f6-94a0-c5fd13e6dd07","ios":"levelo://app?vid=8ab5d6ff-ab09-49f6-94a0-c5fd13e6dd07"},"vehicle_type_id":"4","last_reported":1721596008,"current_range_meters":2400,"station_id":"ce4bgv92rcd13ifvqcr0","pricing_plan_id":"cebpf4jnsgd1na2vs0mg"},{"bike_id":"4d6c6449-3a1d-48e7-9b66-b750ca14999e","system_id":"levelo_inurba_marseille","lat":43.310804,"lon":5.38359,"is_reserved":false,"is_disabled":false,"rental_uris":{"android":"levelo://app?vid=4d6c6449-3a1d-48e7-9b66-b750ca14999e","ios":"levelo://app?vid=4d6c6449-3a1d-48e7-9b66-b750ca14999e"},"vehicle_type_id":"4","last_reported":1721596008,"current_range_meters":14400,"station_id":"ce4bgv92rcd13ifvqcr0","pricing_plan_id":"cebpf4jnsgd1na2vs0mg"},{"bike_id":"2f530500-a7cf-4b96-958c-d834c5fe7058","system_id":"levelo_inurba_marseille","lat":43.313571,"lon":5.384829,"is_reserved":false,"is_disabled":false,"rental_uris":{"android":"levelo://app?vid=2f530500-a7cf-4b96-958c-d834c5fe7058","ios":"levelo://app?vid=2f530500-a7cf-4b96-958c-d834c5fe7058"},"vehicle_type_id":"4","last_reported":1721596008,"current_range_meters":20800,"station_id":"ce4bgt92rcd13ifvqcf0","pricing_plan_id":"cebpf4jnsgd1na2vs0mg"},{"bike_id":"c7995120-3995-405f-8dd5-7294629cc4d8","system_id":"levelo_inurba_marseille","lat":43.319935,"lon":5.381699,"is_reserved":false,"is_disabled":false,"rental_uris":{"android":"levelo://app?vid=c7995120-3995-405f-8dd5-7294629cc4d8","ios":"levelo://app?vid=c7995120-3995-405f-8dd5-7294629cc4d8"},"vehicle_type_id":"4","last_reported":1721596008,"current_range_meters":27200,"station_id":"ce4bhr12rcd13ifvqhpg","pricing_plan_id":"cebpf4jnsgd1na2vs0mg"},{"bike_id":"5120ceed-542d-4834-9339-2f17d7e01ba3","system_id":"levelo_inurba_marseille","lat":43.319935,"lon":5.381699,"is_reserved":false,"is_disabled":false,"rental_uris":{"android":"levelo://app?vid=5120ceed-542d-4834-9339-2f17d7e01ba3","ios":"levelo://app?vid=5120ceed-542d-4834-9339-2f17d7e01ba3"},"vehicle_type_id":"4","last_reported":1721596008,"current_range_meters":28800,"station_id":"ce4bhr12rcd13ifvqhpg","pricing_plan_id":"cebpf4jnsgd1na2vs0mg"},{"bike_id":"1ef47190-57a2-4750-8810-908ed2edaa8b","system_id":"levelo_inurba_marseille","lat":43.313571,"lon":5.384829,"is_reserved":false,"is_disabled":false,"rental_uris":{"android":"levelo://app?vid=1ef47190-57a2-4750-8810-908ed2edaa8b","ios":"levelo://app?vid=1ef47190-57a2-4750-8810-908ed2edaa8b"},"vehicle_type_id":"4","last_reported":1721596008,"current_range_meters":12000,"station_id":"ce4bgt92rcd13ifvqcf0","pricing_plan_id":"cebpf4jnsgd1na2vs0mg"},{"bike_id":"73ff17ff-00ff-45c9-a67b-2bf87212cdca","system_id":"levelo_inurba_marseille","lat":43.313571,"lon":5.384829,"is_reserved":false,"is_disabled":false,"rental_uris":{"android":"levelo://app?vid=73ff17ff-00ff-45c9-a67b-2bf87212cdca","ios":"levelo://app?vid=73ff17ff-00ff-45c9-a67b-2bf87212cdca"},"vehicle_type_id":"4","last_reported":1721596008,"current_range_meters":25200,"station_id":"ce4bgt92rcd13ifvqcf0","pricing_plan_id":"cebpf4jnsgd1na2vs0mg"},{"bike_id":"b55d728f-5751-49f0-b3e2-00ac87af4c66","system_id":"levelo_inurba_marseille","lat":43.313571,"lon":5.384829,"is_reserved":false,"is_disabled":false,"rental_uris":{"android":"levelo://app?vid=b55d728f-5751-49f0-b3e2-00ac87af4c66","ios":"levelo://app?vid=b55d728f-5751-49f0-b3e2-00ac87af4c66"},"vehicle_type_id":"4","last_reported":1721596008,"current_range_meters":9600,"station_id":"ce4bgt92rcd13ifvqcf0","pricing_plan_id":"cebpf4jnsgd1na2vs0mg"},{"bike_id":"16230274-cf17-48ee-befb-4835b67910ba","system_id":"levelo_inurba_marseille","lat":43.313571,"lon":5.384829,"is_reserved":false,"is_disabled":false,"rental_uris":{"android":"levelo://app?vid=16230274-cf17-48ee-befb-4835b67910ba","ios":"levelo://app?vid=16230274-cf17-48ee-befb-4835b67910ba"},"vehicle_type_id":"4","last_reported":1721596008,"current_range_meters":24800,"station_id":"ce4bgt92rcd13ifvqcf0","pricing_plan_id":"cebpf4jnsgd1na2vs0mg"},{"bike_id":"9721ae41-3dfe-464a-846d-5b7e0b010f6f","system_id":"levelo_inurba_marseille","lat":43.299724,"lon":5.371829,"is_reserved":false,"is_disabled":false,"rental_uris":{"android":"levelo://app?vid=9721ae41-3dfe-464a-846d-5b7e0b010f6f","ios":"levelo://app?vid=9721ae41-3dfe-464a-846d-5b7e0b010f6f"},"vehicle_type_id":"4","last_reported":1721596008,"current_range_meters":28000,"station_id":"ce4bgr92rcd13ifvqc7g","pricing_plan_id":"cebpf4jnsgd1na2vs0mg"},{"bike_id":"7cf1ea2a-3fb5-4f90-b631-93e3887a8a7f","system_id":"levelo_inurba_marseille","lat":43.29901,"lon":5.36369,"is_reserved":false,"is_disabled":false,"rental_uris":{"android":"levelo://app?vid=7cf1ea2a-3fb5-4f90-b631-93e3887a8a7f","ios":"levelo://app?vid=7cf1ea2a-3fb5-4f90-b631-93e3887a8a7f"},"vehicle_type_id":"4","last_reported":1721596008,"current_range_meters":25200,"station_id":"","pricing_plan_id":"cebpf4jnsgd1na2vs0mg"},{"bike_id":"91c34503-24e9-4b9c-b91d-a8140c22a636","system_id":"levelo_inurba_marseille","lat":43.299243,"lon":5.37481,"is_reserved":false,"is_disabled":false,"rental_uris":{"android":"levelo://app?vid=91c34503-24e9-4b9c-b91d-a8140c22a636","ios":"levelo://app?vid=91c34503-24e9-4b9c-b91d-a8140c22a636"},"vehicle_type_id":"4","last_reported":1721596008,"current_range_meters":26400,"station_id":"ce4bgjh2rcd13ifvqbg0","pricing_plan_id":"cebpf4jnsgd1na2vs0mg"},{"bike_id":"e09caaa6-c583-40ad-bfe3-4baedacb7bae","system_id":"levelo_inurba_marseille","lat":43.311722,"lon":5.387247,"is_reserved":false,"is_disabled":false,"rental_uris":{"android":"levelo://app?vid=e09caaa6-c583-40ad-bfe3-4baedacb7bae","ios":"levelo://app?vid=e09caaa6-c583-40ad-bfe3-4baedacb7bae"},"vehicle_type_id":"4","last_reported":1721596008,"current_range_meters":21600,"station_id":"ce4bgv12rcd13ifvqcp0","pricing_plan_id":"cebpf4jnsgd1na2vs0mg"},{"bike_id":"757b8331-5577-496a-ad73-ef3ccd6eeafe","system_id":"levelo_inurba_marseille","lat":43.311722,"lon":5.387247,"is_reserved":false,"is_disabled":false,"rental_uris":{"android":"levelo://app?vid=757b8331-5577-496a-ad73-ef3ccd6eeafe","ios":"levelo://app?vid=757b8331-5577-496a-ad73-ef3ccd6eeafe"},"vehicle_type_id":"4","last_reported":1721596008,"current_range_meters":19200,"station_id":"ce4bgv12rcd13ifvqcp0","pricing_plan_id":"cebpf4jnsgd1na2vs0mg"},{"bike_id":"5e66a98c-7fc3-4cff-a069-20545dff3ed9","system_id":"levelo_inurba_marseille","lat":43.32284,"lon":5.38256,"is_reserved":false,"is_disabled":false,"rental_uris":{"android":"levelo://app?vid=5e66a98c-7fc3-4cff-a069-20545dff3ed9","ios":"levelo://app?vid=5e66a98c-7fc3-4cff-a069-20545dff3ed9"},"vehicle_type_id":"4","last_reported":1721596008,"current_range_meters":12800,"station_id":"ce4bhr12rcd13ifvqhqg","pricing_plan_id":"cebpf4jnsgd1na2vs0mg"},{"bike_id":"77b2323a-b4ee-4a99-ba00-b7410191cbd0","system_id":"levelo_inurba_marseille","lat":43.32286,"lon":5.38265,"is_reserved":false,"is_disabled":false,"rental_uris":{"android":"levelo://app?vid=77b2323a-b4ee-4a99-ba00-b7410191cbd0","ios":"levelo://app?vid=77b2323a-b4ee-4a99-ba00-b7410191cbd0"},"vehicle_type_id":"4","last_reported":1721596008,"current_range_meters":27200,"station_id":"ce4bhr12rcd13ifvqhqg","pricing_plan_id":"cebpf4jnsgd1na2vs0mg"},{"bike_id":"47511488-9e51-407f-95c1-0129806c910f","system_id":"levelo_inurba_marseille","lat":43.32292,"lon":5.38258,"is_reserved":false,"is_disabled":false,"rental_uris":{"android":"levelo://app?vid=47511488-9e51-407f-95c1-0129806c910f","ios":"levelo://app?vid=47511488-9e51-407f-95c1-0129806c910f"},"vehicle_type_id":"4","last_reported":1721596008,"current_range_meters":23200,"station_id":"ce4bhr12rcd13ifvqhqg","pricing_plan_id":"cebpf4jnsgd1na2vs0mg"},{"bike_id":"8117cde1-ddf4-42b1-815f-0e933d18614f","system_id":"levelo_inurba_marseille","lat":43.298724,"lon":5.375288,"is_reserved":false,"is_disabled":false,"rental_uris":{"android":"levelo://app?vid=8117cde1-ddf4-42b1-815f-0e933d18614f","ios":"levelo://app?vid=8117cde1-ddf4-42b1-815f-0e933d18614f"},"vehicle_type_id":"4","last_reported":1721596008,"current_range_meters":16800,"station_id":"","pricing_plan_id":"cebpf4jnsgd1na2vs0mg"},{"bike_id":"8bbb2f7b-401f-4d2b-a904-5ff22178f105","system_id":"levelo_inurba_marseille","lat":43.3229,"lon":5.38269,"is_reserved":false,"is_disabled":false,"rental_uris":{"android":"levelo://app?vid=8bbb2f7b-401f-4d2b-a904-5ff22178f105","ios":"levelo://app?vid=8bbb2f7b-401f-4d2b-a904-5ff22178f105"},"vehicle_type_id":"4","last_reported":1721596008,"current_range_meters":30000,"station_id":"ce4bhr12rcd13ifvqhqg","pricing_plan_id":"cebpf4jnsgd1na2vs0mg"},{"bike_id":"cf301f15-85eb-45ee-a491-23bfeed05b8f","system_id":"levelo_inurba_marseille","lat":43.322895,"lon":5.382754,"is_reserved":false,"is_disabled":false,"rental_uris":{"android":"levelo://app?vid=cf301f15-85eb-45ee-a491-23bfeed05b8f","ios":"levelo://app?vid=cf301f15-85eb-45ee-a491-23bfeed05b8f"},"vehicle_type_id":"4","last_reported":1721596008,"current_range_meters":28800,"station_id":"ce4bhr12rcd13ifvqhqg","pricing_plan_id":"cebpf4jnsgd1na2vs0mg"},{"bike_id":"05f419f0-7d10-4683-a23a-e930531839f5","system_id":"levelo_inurba_marseille","lat":43.322903,"lon":5.38281,"is_reserved":false,"is_disabled":false,"rental_uris":{"android":"levelo://app?vid=05f419f0-7d10-4683-a23a-e930531839f5","ios":"levelo://app?vid=05f419f0-7d10-4683-a23a-e930531839f5"},"vehicle_type_id":"4","last_reported":1721596008,"current_range_meters":30800,"station_id":"ce4bhr12rcd13ifvqhqg","pricing_plan_id":"cebpf4jnsgd1na2vs0mg"},{"bike_id":"07f5ddbc-88b0-4252-b61a-f01ac82fbc03","system_id":"levelo_inurba_marseille","lat":43.297163,"lon":5.365866,"is_reserved":false,"is_disabled":false,"rental_uris":{"android":"levelo://app?vid=07f5ddbc-88b0-4252-b61a-f01ac82fbc03","ios":"levelo://app?vid=07f5ddbc-88b0-4252-b61a-f01ac82fbc03"},"vehicle_type_id":"4","last_reported":1721596008,"current_range_meters":7600,"station_id":"ce4bgn12rcd13ifvqbt0","pricing_plan_id":"cebpf4jnsgd1na2vs0mg"},{"bike_id":"709debf3-bdc2-43ce-b67b-0948652285a1","system_id":"levelo_inurba_marseille","lat":43.307945,"lon":5.376487,"is_reserved":false,"is_disabled":false,"rental_uris":{"android":"levelo://app?vid=709debf3-bdc2-43ce-b67b-0948652285a1","ios":"levelo://app?vid=709debf3-bdc2-43ce-b67b-0948652285a1"},"vehicle_type_id":"4","last_reported":1721596008,"current_range_meters":6000,"station_id":"ce4bgv92rcd13ifvqcq0","pricing_plan_id":"cebpf4jnsgd1na2vs0mg"},{"bike_id":"29889f4b-08c9-4794-a4d2-198e638adf08","system_id":"levelo_inurba_marseille","lat":43.309589,"lon":5.390258,"is_reserved":false,"is_disabled":false,"rental_uris":{"android":"levelo://app?vid=29889f4b-08c9-4794-a4d2-198e638adf08","ios":"levelo://app?vid=29889f4b-08c9-4794-a4d2-198e638adf08"},"vehicle_type_id":"4","last_reported":1721596008,"current_range_meters":0,"station_id":"ce4bgup2rcd13ifvqco0","pricing_plan_id":"cebpf4jnsgd1na2vs0mg"},{"bike_id":"a41c9528-7e04-4f57-a7e4-70dd87cd3511","system_id":"levelo_inurba_marseille","lat":43.317557,"lon":5.390173,"is_reserved":false,"is_disabled":false,"rental_uris":{"android":"levelo://app?vid=a41c9528-7e04-4f57-a7e4-70dd87cd3511","ios":"levelo://app?vid=a41c9528-7e04-4f57-a7e4-70dd87cd3511"},"vehicle_type_id":"4","last_reported":1721596008,"current_range_meters":14800,"station_id":"ce4bhqp2rcd13ifvqhng","pricing_plan_id":"cebpf4jnsgd1na2vs0mg"},{"bike_id":"d2fc4593-0f37-49ae-a3b4-21b4872191ed","system_id":"levelo_inurba_marseille","lat":43.311722,"lon":5.387247,"is_reserved":false,"is_disabled":false,"rental_uris":{"android":"levelo://app?vid=d2fc4593-0f37-49ae-a3b4-21b4872191ed","ios":"levelo://app?vid=d2fc4593-0f37-49ae-a3b4-21b4872191ed"},"vehicle_type_id":"4","last_reported":1721596008,"current_range_meters":17600,"station_id":"ce4bgv12rcd13ifvqcp0","pricing_plan_id":"cebpf4jnsgd1na2vs0mg"},{"bike_id":"0b3c7923-fd1f-479b-ab61-d36513c4f1ca","system_id":"levelo_inurba_marseille","lat":43.296277,"lon":5.377108,"is_reserved":false,"is_disabled":false,"rental_uris":{"android":"levelo://app?vid=0b3c7923-fd1f-479b-ab61-d36513c4f1ca","ios":"levelo://app?vid=0b3c7923-fd1f-479b-ab61-d36513c4f1ca"},"vehicle_type_id":"4","last_reported":1721596008,"current_range_meters":0,"station_id":"ce4bgi92rcd13ifvqb90","pricing_plan_id":"cebpf4jnsgd1na2vs0mg"},{"bike_id":"55d6e103-5408-486c-b110-a546e897f1c5","system_id":"levelo_inurba_marseille","lat":43.29531,"lon":5.37501,"is_reserved":false,"is_disabled":false,"rental_uris":{"android":"levelo://app?vid=55d6e103-5408-486c-b110-a546e897f1c5","ios":"levelo://app?vid=55d6e103-5408-486c-b110-a546e897f1c5"},"vehicle_type_id":"4","last_reported":1721596008,"current_range_meters":31200,"station_id":"ce4bgkp2rcd13ifvqbmg","pricing_plan_id":"cebpf4jnsgd1na2vs0mg"},{"bike_id":"8ddbd767-5908-45db-839a-eb2a0838044e","system_id":"levelo_inurba_marseille","lat":43.29966,"lon":5.38493,"is_reserved":false,"is_disabled":false,"rental_uris":{"android":"levelo://app?vid=8ddbd767-5908-45db-839a-eb2a0838044e","ios":"levelo://app?vid=8ddbd767-5908-45db-839a-eb2a0838044e"},"vehicle_type_id":"4","last_reported":1721596008,"current_range_meters":28400,"station_id":"ce4bgj92rcd13ifvqbd0","pricing_plan_id":"cebpf4jnsgd1na2vs0mg"},{"bike_id":"18491e9b-089a-423d-92a6-2224fb4ac1cb","system_id":"levelo_inurba_marseille","lat":43.30473,"lon":5.39011,"is_reserved":false,"is_disabled":false,"rental_uris":{"android":"levelo://app?vid=18491e9b-089a-423d-92a6-2224fb4ac1cb","ios":"levelo://app?vid=18491e9b-089a-423d-92a6-2224fb4ac1cb"},"vehicle_type_id":"4","last_reported":1721596008,"current_range_meters":0,"station_id":"","pricing_plan_id":"cebpf4jnsgd1na2vs0mg"},{"bike_id":"ae6128af-68a7-4dd7-8748-4cd0f9050c20","system_id":"levelo_inurba_marseille","lat":43.29956,"lon":5.38511,"is_reserved":false,"is_disabled":false,"rental_uris":{"android":"levelo://app?vid=ae6128af-68a7-4dd7-8748-4cd0f9050c20","ios":"levelo://app?vid=ae6128af-68a7-4dd7-8748-4cd0f9050c20"},"vehicle_type_id":"4","last_reported":1721596008,"current_range_meters":12000,"station_id":"","pricing_plan_id":"cebpf4jnsgd1na2vs0mg"},{"bike_id":"57426a44-d9f6-490d-8016-37b4a6b89282","system_id":"levelo_inurba_marseille","lat":43.301396,"lon":5.387812,"is_reserved":false,"is_disabled":false,"rental_uris":{"android":"levelo://app?vid=57426a44-d9f6-490d-8016-37b4a6b89282","ios":"levelo://app?vid=57426a44-d9f6-490d-8016-37b4a6b89282"},"vehicle_type_id":"4","last_reported":1721596008,"current_range_meters":24800,"station_id":"ce4bghh2rcd13ifvqb60","pricing_plan_id":"cebpf4jnsgd1na2vs0mg"},{"bike_id":"44e5be9e-8a46-4b5a-aa4c-70537d143565","system_id":"levelo_inurba_marseille","lat":43.30133,"lon":5.38784,"is_reserved":false,"is_disabled":false,"rental_uris":{"android":"levelo://app?vid=44e5be9e-8a46-4b5a-aa4c-70537d143565","ios":"levelo://app?vid=44e5be9e-8a46-4b5a-aa4c-70537d143565"},"vehicle_type_id":"4","last_reported":1721596008,"current_range_meters":0,"station_id":"","pricing_plan_id":"cebpf4jnsgd1na2vs0mg"},{"bike_id":"d6d1fd01-3c23-4eaa-af70-b941dd9cfecc","system_id":"levelo_inurba_marseille","lat":43.301396,"lon":5.387812,"is_reserved":false,"is_disabled":false,"rental_uris":{"android":"levelo://app?vid=d6d1fd01-3c23-4eaa-af70-b941dd9cfecc","ios":"levelo://app?vid=d6d1fd01-3c23-4eaa-af70-b941dd9cfecc"},"vehicle_type_id":"4","last_reported":1721596008,"current_range_meters":22800,"station_id":"ce4bghh2rcd13ifvqb60","pricing_plan_id":"cebpf4jnsgd1na2vs0mg"},{"bike_id":"405c5694-2acd-42d8-aef3-a745144f4eb7","system_id":"levelo_inurba_marseille","lat":43.32364,"lon":5.38878,"is_reserved":false,"is_disabled":false,"rental_uris":{"android":"levelo://app?vid=405c5694-2acd-42d8-aef3-a745144f4eb7","ios":"levelo://app?vid=405c5694-2acd-42d8-aef3-a745144f4eb7"},"vehicle_type_id":"4","last_reported":1721596008,"current_range_meters":1200,"station_id":"ce4bhqp2rcd13ifvqhog","pricing_plan_id":"cebpf4jnsgd1na2vs0mg"},{"bike_id":"9a72d5e6-1f0f-4b75-9360-92565f1ee587","system_id":"levelo_inurba_marseille","lat":43.32367,"lon":5.388836,"is_reserved":false,"is_disabled":false,"rental_uris":{"android":"levelo://app?vid=9a72d5e6-1f0f-4b75-9360-92565f1ee587","ios":"levelo://app?vid=9a72d5e6-1f0f-4b75-9360-92565f1ee587"},"vehicle_type_id":"4","last_reported":1721596008,"current_range_meters":10400,"station_id":"ce4bhqp2rcd13ifvqhog","pricing_plan_id":"cebpf4jnsgd1na2vs0mg"},{"bike_id":"e0127e93-1bb9-46c7-9799-a754971062d5","system_id":"levelo_inurba_marseille","lat":43.32367,"lon":5.388836,"is_reserved":false,"is_disabled":false,"rental_uris":{"android":"levelo://app?vid=e0127e93-1bb9-46c7-9799-a754971062d5","ios":"levelo://app?vid=e0127e93-1bb9-46c7-9799-a754971062d5"},"vehicle_type_id":"4","last_reported":1721596008,"current_range_meters":12000,"station_id":"ce4bhqp2rcd13ifvqhog","pricing_plan_id":"cebpf4jnsgd1na2vs0mg"},{"bike_id":"6d30443e-24e7-4dbd-bb32-e64c12424472","system_id":"levelo_inurba_marseille","lat":43.32367,"lon":5.388836,"is_reserved":false,"is_disabled":false,"rental_uris":{"android":"levelo://app?vid=6d30443e-24e7-4dbd-bb32-e64c12424472","ios":"levelo://app?vid=6d30443e-24e7-4dbd-bb32-e64c12424472"},"vehicle_type_id":"4","last_reported":1721596008,"current_range_meters":18400,"station_id":"ce4bhqp2rcd13ifvqhog","pricing_plan_id":"cebpf4jnsgd1na2vs0mg"},{"bike_id":"595ef3f3-34d0-40f6-8f73-77ab610864e3","system_id":"levelo_inurba_marseille","lat":43.32367,"lon":5.388836,"is_reserved":false,"is_disabled":false,"rental_uris":{"android":"levelo://app?vid=595ef3f3-34d0-40f6-8f73-77ab610864e3","ios":"levelo://app?vid=595ef3f3-34d0-40f6-8f73-77ab610864e3"},"vehicle_type_id":"4","last_reported":1721596008,"current_range_meters":23200,"station_id":"ce4bhqp2rcd13ifvqhog","pricing_plan_id":"cebpf4jnsgd1na2vs0mg"},{"bike_id":"19fd8238-ada2-4683-8bbb-5c6edbfb274d","system_id":"levelo_inurba_marseille","lat":43.29602,"lon":5.381084,"is_reserved":false,"is_disabled":false,"rental_uris":{"android":"levelo://app?vid=19fd8238-ada2-4683-8bbb-5c6edbfb274d","ios":"levelo://app?vid=19fd8238-ada2-4683-8bbb-5c6edbfb274d"},"vehicle_type_id":"4","last_reported":1721596008,"current_range_meters":0,"station_id":"ce4bgl12rcd13ifvqbo0","pricing_plan_id":"cebpf4jnsgd1na2vs0mg"},{"bike_id":"d1ab797d-eddc-4381-926a-8e43a0ccd968","system_id":"levelo_inurba_marseille","lat":43.29602,"lon":5.381084,"is_reserved":false,"is_disabled":false,"rental_uris":{"android":"levelo://app?vid=d1ab797d-eddc-4381-926a-8e43a0ccd968","ios":"levelo://app?vid=d1ab797d-eddc-4381-926a-8e43a0ccd968"},"vehicle_type_id":"4","last_reported":1721596008,"current_range_meters":16000,"station_id":"ce4bgl12rcd13ifvqbo0","pricing_plan_id":"cebpf4jnsgd1na2vs0mg"},{"bike_id":"a714632d-44c0-4d33-8aa9-55a02a942e0d","system_id":"levelo_inurba_marseille","lat":43.32538,"lon":5.38782,"is_reserved":false,"is_disabled":false,"rental_uris":{"android":"levelo://app?vid=a714632d-44c0-4d33-8aa9-55a02a942e0d","ios":"levelo://app?vid=a714632d-44c0-4d33-8aa9-55a02a942e0d"},"vehicle_type_id":"4","last_reported":1721596008,"current_range_meters":5200,"station_id":"","pricing_plan_id":"cebpf4jnsgd1na2vs0mg"},{"bike_id":"4f071ffb-ae52-429f-bc2e-669cd2ae2229","system_id":"levelo_inurba_marseille","lat":43.29474,"lon":5.37872,"is_reserved":false,"is_disabled":false,"rental_uris":{"android":"levelo://app?vid=4f071ffb-ae52-429f-bc2e-669cd2ae2229","ios":"levelo://app?vid=4f071ffb-ae52-429f-bc2e-669cd2ae2229"},"vehicle_type_id":"4","last_reported":1721596008,"current_range_meters":2800,"station_id":"","pricing_plan_id":"cebpf4jnsgd1na2vs0mg"},{"bike_id":"58790090-ac30-40b2-a45a-9748c81e6705","system_id":"levelo_inurba_marseille","lat":43.292749,"lon":5.368402,"is_reserved":false,"is_disabled":false,"rental_uris":{"android":"levelo://app?vid=58790090-ac30-40b2-a45a-9748c81e6705","ios":"levelo://app?vid=58790090-ac30-40b2-a45a-9748c81e6705"},"vehicle_type_id":"4","last_reported":1721596008,"current_range_meters":19200,"station_id":"ce4bhbp2rcd13ifvqesg","pricing_plan_id":"cebpf4jnsgd1na2vs0mg"},{"bike_id":"112999a2-3a34-4615-8f11-c1bcb91f1a01","system_id":"levelo_inurba_marseille","lat":43.292749,"lon":5.368402,"is_reserved":false,"is_disabled":false,"rental_uris":{"android":"levelo://app?vid=112999a2-3a34-4615-8f11-c1bcb91f1a01","ios":"levelo://app?vid=112999a2-3a34-4615-8f11-c1bcb91f1a01"},"vehicle_type_id":"4","last_reported":1721596008,"current_range_meters":31200,"station_id":"ce4bhbp2rcd13ifvqesg","pricing_plan_id":"cebpf4jnsgd1na2vs0mg"},{"bike_id":"141ac0d0-f866-42db-8a2d-7dafe41a9813","system_id":"levelo_inurba_marseille","lat":43.29578,"lon":5.38154,"is_reserved":false,"is_disabled":false,"rental_uris":{"android":"levelo://app?vid=141ac0d0-f866-42db-8a2d-7dafe41a9813","ios":"levelo://app?vid=141ac0d0-f866-42db-8a2d-7dafe41a9813"},"vehicle_type_id":"4","last_reported":1721596008,"current_range_meters":2000,"station_id":"","pricing_plan_id":"cebpf4jnsgd1na2vs0mg"},{"bike_id":"623c7701-3712-4c45-9b2d-bd55a22b1ad8","system_id":"levelo_inurba_marseille","lat":43.293249,"lon":5.371578,"is_reserved":false,"is_disabled":false,"rental_uris":{"android":"levelo://app?vid=623c7701-3712-4c45-9b2d-bd55a22b1ad8","ios":"levelo://app?vid=623c7701-3712-4c45-9b2d-bd55a22b1ad8"},"vehicle_type_id":"4","last_reported":1721596008,"current_range_meters":0,"station_id":"ce4bgh92rcd13ifvqb40","pricing_plan_id":"cebpf4jnsgd1na2vs0mg"},{"bike_id":"2bb6f90a-bf1e-486b-8751-7df49e5f89de","system_id":"levelo_inurba_marseille","lat":43.33252,"lon":5.3623,"is_reserved":false,"is_disabled":false,"rental_uris":{"android":"levelo://app?vid=2bb6f90a-bf1e-486b-8751-7df49e5f89de","ios":"levelo://app?vid=2bb6f90a-bf1e-486b-8751-7df49e5f89de"},"vehicle_type_id":"4","last_reported":1721596008,"current_range_meters":2000,"station_id":"","pricing_plan_id":"cebpf4jnsgd1na2vs0mg"},{"bike_id":"bcd35c24-7146-4fb7-92fc-8733c4805a54","system_id":"levelo_inurba_marseille","lat":43.292679,"lon":5.368399,"is_reserved":false,"is_disabled":false,"rental_uris":{"android":"levelo://app?vid=bcd35c24-7146-4fb7-92fc-8733c4805a54","ios":"levelo://app?vid=bcd35c24-7146-4fb7-92fc-8733c4805a54"},"vehicle_type_id":"4","last_reported":1721596008,"current_range_meters":17600,"station_id":"ce4bhbp2rcd13ifvqesg","pricing_plan_id":"cebpf4jnsgd1na2vs0mg"},{"bike_id":"4499b716-39dd-4a7b-a5e6-0c16c283a12d","system_id":"levelo_inurba_marseille","lat":43.29234,"lon":5.36472,"is_reserved":false,"is_disabled":false,"rental_uris":{"android":"levelo://app?vid=4499b716-39dd-4a7b-a5e6-0c16c283a12d","ios":"levelo://app?vid=4499b716-39dd-4a7b-a5e6-0c16c283a12d"},"vehicle_type_id":"4","last_reported":1721596008,"current_range_meters":29600,"station_id":"","pricing_plan_id":"cebpf4jnsgd1na2vs0mg"},{"bike_id":"55202576-d12f-4171-8461-f4ce74d7ad21","system_id":"levelo_inurba_marseille","lat":43.293009,"lon":5.374584,"is_reserved":false,"is_disabled":false,"rental_uris":{"android":"levelo://app?vid=55202576-d12f-4171-8461-f4ce74d7ad21","ios":"levelo://app?vid=55202576-d12f-4171-8461-f4ce74d7ad21"},"vehicle_type_id":"4","last_reported":1721596008,"current_range_meters":1200,"station_id":"ce4bgi12rcd13ifvqb70","pricing_plan_id":"cebpf4jnsgd1na2vs0mg"},{"bike_id":"d72709f1-72ae-4cec-94dc-0f28194a9670","system_id":"levelo_inurba_marseille","lat":43.305994,"lon":5.393687,"is_reserved":false,"is_disabled":false,"rental_uris":{"android":"levelo://app?vid=d72709f1-72ae-4cec-94dc-0f28194a9670","ios":"levelo://app?vid=d72709f1-72ae-4cec-94dc-0f28194a9670"},"vehicle_type_id":"4","last_reported":1721596008,"current_range_meters":30800,"station_id":"ce4bh0p2rcd13ifvqd80","pricing_plan_id":"cebpf4jnsgd1na2vs0mg"},{"bike_id":"7e7405ac-8054-424e-aabd-58cc1a6b4be4","system_id":"levelo_inurba_marseille","lat":43.305994,"lon":5.393687,"is_reserved":false,"is_disabled":false,"rental_uris":{"android":"levelo://app?vid=7e7405ac-8054-424e-aabd-58cc1a6b4be4","ios":"levelo://app?vid=7e7405ac-8054-424e-aabd-58cc1a6b4be4"},"vehicle_type_id":"4","last_reported":1721596008,"current_range_meters":9200,"station_id":"ce4bh0p2rcd13ifvqd80","pricing_plan_id":"cebpf4jnsgd1na2vs0mg"},{"bike_id":"94e9ab9f-bb30-4ad8-864c-51c7ef425c31","system_id":"levelo_inurba_marseille","lat":43.303002,"lon":5.392142,"is_reserved":false,"is_disabled":false,"rental_uris":{"android":"levelo://app?vid=94e9ab9f-bb30-4ad8-864c-51c7ef425c31","ios":"levelo://app?vid=94e9ab9f-bb30-4ad8-864c-51c7ef425c31"},"vehicle_type_id":"4","last_reported":1721596008,"current_range_meters":26400,"station_id":"ce4bgkh2rcd13ifvqbk0","pricing_plan_id":"cebpf4jnsgd1na2vs0mg"},{"bike_id":"8f5fafb5-950d-42bd-99f2-0de22fdb5656","system_id":"levelo_inurba_marseille","lat":43.30312,"lon":5.39204,"is_reserved":false,"is_disabled":false,"rental_uris":{"android":"levelo://app?vid=8f5fafb5-950d-42bd-99f2-0de22fdb5656","ios":"levelo://app?vid=8f5fafb5-950d-42bd-99f2-0de22fdb5656"},"vehicle_type_id":"4","last_reported":1721596008,"current_range_meters":24000,"station_id":"ce4bgkh2rcd13ifvqbk0","pricing_plan_id":"cebpf4jnsgd1na2vs0mg"},{"bike_id":"ba93200c-ff06-4127-9b24-d1866b18a91c","system_id":"levelo_inurba_marseille","lat":43.303002,"lon":5.392142,"is_reserved":false,"is_disabled":false,"rental_uris":{"android":"levelo://app?vid=ba93200c-ff06-4127-9b24-d1866b18a91c","ios":"levelo://app?vid=ba93200c-ff06-4127-9b24-d1866b18a91c"},"vehicle_type_id":"4","last_reported":1721596008,"current_range_meters":800,"station_id":"ce4bgkh2rcd13ifvqbk0","pricing_plan_id":"cebpf4jnsgd1na2vs0mg"},{"bike_id":"46d6d539-ea01-43bd-8f41-dc9947b4619b","system_id":"levelo_inurba_marseille","lat":43.2936,"lon":5.37835,"is_reserved":false,"is_disabled":false,"rental_uris":{"android":"levelo://app?vid=46d6d539-ea01-43bd-8f41-dc9947b4619b","ios":"levelo://app?vid=46d6d539-ea01-43bd-8f41-dc9947b4619b"},"vehicle_type_id":"4","last_reported":1721596008,"current_range_meters":4800,"station_id":"ce4bgjh2rcd13ifvqbf0","pricing_plan_id":"cebpf4jnsgd1na2vs0mg"},{"bike_id":"251051a4-d52a-424a-99ad-c26084dcee20","system_id":"levelo_inurba_marseille","lat":43.2936,"lon":5.37835,"is_reserved":false,"is_disabled":false,"rental_uris":{"android":"levelo://app?vid=251051a4-d52a-424a-99ad-c26084dcee20","ios":"levelo://app?vid=251051a4-d52a-424a-99ad-c26084dcee20"},"vehicle_type_id":"4","last_reported":1721596008,"current_range_meters":29200,"station_id":"ce4bgjh2rcd13ifvqbf0","pricing_plan_id":"cebpf4jnsgd1na2vs0mg"},{"bike_id":"1c403656-9529-4043-829c-a103acb5ce4d","system_id":"levelo_inurba_marseille","lat":43.326373,"lon":5.388667,"is_reserved":false,"is_disabled":false,"rental_uris":{"android":"levelo://app?vid=1c403656-9529-4043-829c-a103acb5ce4d","ios":"levelo://app?vid=1c403656-9529-4043-829c-a103acb5ce4d"},"vehicle_type_id":"4","last_reported":1721596008,"current_range_meters":6400,"station_id":"","pricing_plan_id":"cebpf4jnsgd1na2vs0mg"},{"bike_id":"3b66dbb4-4e2b-44e7-9ff9-e424e818925d","system_id":"levelo_inurba_marseille","lat":43.30085,"lon":5.390856,"is_reserved":false,"is_disabled":false,"rental_uris":{"android":"levelo://app?vid=3b66dbb4-4e2b-44e7-9ff9-e424e818925d","ios":"levelo://app?vid=3b66dbb4-4e2b-44e7-9ff9-e424e818925d"},"vehicle_type_id":"4","last_reported":1721596008,"current_range_meters":14400,"station_id":"ce4bh192rcd13ifvqdb0","pricing_plan_id":"cebpf4jnsgd1na2vs0mg"},{"bike_id":"8135f56f-a7e3-4110-b3f8-82cf414bdd46","system_id":"levelo_inurba_marseille","lat":43.30096,"lon":5.39072,"is_reserved":false,"is_disabled":false,"rental_uris":{"android":"levelo://app?vid=8135f56f-a7e3-4110-b3f8-82cf414bdd46","ios":"levelo://app?vid=8135f56f-a7e3-4110-b3f8-82cf414bdd46"},"vehicle_type_id":"4","last_reported":1721596008,"current_range_meters":24800,"station_id":"ce4bh192rcd13ifvqdb0","pricing_plan_id":"cebpf4jnsgd1na2vs0mg"},{"bike_id":"76a26f40-54f8-4953-8b83-f146b325e7fa","system_id":"levelo_inurba_marseille","lat":43.30085,"lon":5.390856,"is_reserved":false,"is_disabled":false,"rental_uris":{"android":"levelo://app?vid=76a26f40-54f8-4953-8b83-f146b325e7fa","ios":"levelo://app?vid=76a26f40-54f8-4953-8b83-f146b325e7fa"},"vehicle_type_id":"4","last_reported":1721596008,"current_range_meters":22800,"station_id":"ce4bh192rcd13ifvqdb0","pricing_plan_id":"cebpf4jnsgd1na2vs0mg"},{"bike_id":"c7a83ad9-f67f-42f6-8775-65e2e8128228","system_id":"levelo_inurba_marseille","lat":43.30085,"lon":5.390856,"is_reserved":false,"is_disabled":false,"rental_uris":{"android":"levelo://app?vid=c7a83ad9-f67f-42f6-8775-65e2e8128228","ios":"levelo://app?vid=c7a83ad9-f67f-42f6-8775-65e2e8128228"},"vehicle_type_id":"4","last_reported":1721596008,"current_range_meters":28800,"station_id":"ce4bh192rcd13ifvqdb0","pricing_plan_id":"cebpf4jnsgd1na2vs0mg"},{"bike_id":"e6a4591f-2ce9-4ca7-a7c9-0d375cf21a17","system_id":"levelo_inurba_marseille","lat":43.292311,"lon":5.360731,"is_reserved":false,"is_disabled":false,"rental_uris":{"android":"levelo://app?vid=e6a4591f-2ce9-4ca7-a7c9-0d375cf21a17","ios":"levelo://app?vid=e6a4591f-2ce9-4ca7-a7c9-0d375cf21a17"},"vehicle_type_id":"4","last_reported":1721596008,"current_range_meters":18000,"station_id":"ce4bhbh2rcd13ifvqeqg","pricing_plan_id":"cebpf4jnsgd1na2vs0mg"},{"bike_id":"ca1290f3-93a3-4731-849e-6f1b39012903","system_id":"levelo_inurba_marseille","lat":43.30085,"lon":5.390856,"is_reserved":false,"is_disabled":false,"rental_uris":{"android":"levelo://app?vid=ca1290f3-93a3-4731-849e-6f1b39012903","ios":"levelo://app?vid=ca1290f3-93a3-4731-849e-6f1b39012903"},"vehicle_type_id":"4","last_reported":1721596008,"current_range_meters":11600,"station_id":"ce4bh192rcd13ifvqdb0","pricing_plan_id":"cebpf4jnsgd1na2vs0mg"},{"bike_id":"3b0b0050-e43c-4c32-9e2e-a8679f89cb77","system_id":"levelo_inurba_marseille","lat":43.30085,"lon":5.390856,"is_reserved":false,"is_disabled":false,"rental_uris":{"android":"levelo://app?vid=3b0b0050-e43c-4c32-9e2e-a8679f89cb77","ios":"levelo://app?vid=3b0b0050-e43c-4c32-9e2e-a8679f89cb77"},"vehicle_type_id":"4","last_reported":1721596008,"current_range_meters":24400,"station_id":"ce4bh192rcd13ifvqdb0","pricing_plan_id":"cebpf4jnsgd1na2vs0mg"},{"bike_id":"2b5b397c-2cda-4913-8763-d66729fae67b","system_id":"levelo_inurba_marseille","lat":43.298764,"lon":5.388973,"is_reserved":false,"is_disabled":false,"rental_uris":{"android":"levelo://app?vid=2b5b397c-2cda-4913-8763-d66729fae67b","ios":"levelo://app?vid=2b5b397c-2cda-4913-8763-d66729fae67b"},"vehicle_type_id":"4","last_reported":1721596008,"current_range_meters":26000,"station_id":"ce4bh392rcd13ifvqdl0","pricing_plan_id":"cebpf4jnsgd1na2vs0mg"},{"bike_id":"0dbd6b8d-9dd3-4ea5-aaa9-adc1e35b9aa7","system_id":"levelo_inurba_marseille","lat":43.298764,"lon":5.388973,"is_reserved":false,"is_disabled":false,"rental_uris":{"android":"levelo://app?vid=0dbd6b8d-9dd3-4ea5-aaa9-adc1e35b9aa7","ios":"levelo://app?vid=0dbd6b8d-9dd3-4ea5-aaa9-adc1e35b9aa7"},"vehicle_type_id":"4","last_reported":1721596008,"current_range_meters":13200,"station_id":"ce4bh392rcd13ifvqdl0","pricing_plan_id":"cebpf4jnsgd1na2vs0mg"},{"bike_id":"3c6c09ed-f0e9-4653-9182-354f3f63c186","system_id":"levelo_inurba_marseille","lat":43.298764,"lon":5.388973,"is_reserved":false,"is_disabled":false,"rental_uris":{"android":"levelo://app?vid=3c6c09ed-f0e9-4653-9182-354f3f63c186","ios":"levelo://app?vid=3c6c09ed-f0e9-4653-9182-354f3f63c186"},"vehicle_type_id":"4","last_reported":1721596008,"current_range_meters":22000,"station_id":"ce4bh392rcd13ifvqdl0","pricing_plan_id":"cebpf4jnsgd1na2vs0mg"},{"bike_id":"880544b0-d438-460a-85bc-d213cb2d2180","system_id":"levelo_inurba_marseille","lat":43.298764,"lon":5.388973,"is_reserved":false,"is_disabled":false,"rental_uris":{"android":"levelo://app?vid=880544b0-d438-460a-85bc-d213cb2d2180","ios":"levelo://app?vid=880544b0-d438-460a-85bc-d213cb2d2180"},"vehicle_type_id":"4","last_reported":1721596008,"current_range_meters":28800,"station_id":"ce4bh392rcd13ifvqdl0","pricing_plan_id":"cebpf4jnsgd1na2vs0mg"},{"bike_id":"5253f9f1-4096-4dc1-9fd9-24bbc032e25d","system_id":"levelo_inurba_marseille","lat":43.298764,"lon":5.388973,"is_reserved":false,"is_disabled":false,"rental_uris":{"android":"levelo://app?vid=5253f9f1-4096-4dc1-9fd9-24bbc032e25d","ios":"levelo://app?vid=5253f9f1-4096-4dc1-9fd9-24bbc032e25d"},"vehicle_type_id":"4","last_reported":1721596008,"current_range_meters":5200,"station_id":"ce4bh392rcd13ifvqdl0","pricing_plan_id":"cebpf4jnsgd1na2vs0mg"},{"bike_id":"eba60174-cba0-4c93-9246-919f6b7de5e8","system_id":"levelo_inurba_marseille","lat":43.292005,"lon":5.357875,"is_reserved":false,"is_disabled":false,"rental_uris":{"android":"levelo://app?vid=eba60174-cba0-4c93-9246-919f6b7de5e8","ios":"levelo://app?vid=eba60174-cba0-4c93-9246-919f6b7de5e8"},"vehicle_type_id":"4","last_reported":1721596008,"current_range_meters":15200,"station_id":"ce4bhb12rcd13ifvqel0","pricing_plan_id":"cebpf4jnsgd1na2vs0mg"},{"bike_id":"fc6840d5-5e2c-4060-8273-6c1bc9723490","system_id":"levelo_inurba_marseille","lat":43.313291,"lon":5.396838,"is_reserved":false,"is_disabled":false,"rental_uris":{"android":"levelo://app?vid=fc6840d5-5e2c-4060-8273-6c1bc9723490","ios":"levelo://app?vid=fc6840d5-5e2c-4060-8273-6c1bc9723490"},"vehicle_type_id":"4","last_reported":1721596008,"current_range_meters":16800,"station_id":"ce4bgvp2rcd13ifvqcu0","pricing_plan_id":"cebpf4jnsgd1na2vs0mg"},{"bike_id":"41008872-17b1-484d-9091-6c9e38fab86b","system_id":"levelo_inurba_marseille","lat":43.313291,"lon":5.396838,"is_reserved":false,"is_disabled":false,"rental_uris":{"android":"levelo://app?vid=41008872-17b1-484d-9091-6c9e38fab86b","ios":"levelo://app?vid=41008872-17b1-484d-9091-6c9e38fab86b"},"vehicle_type_id":"4","last_reported":1721596008,"current_range_meters":25200,"station_id":"ce4bgvp2rcd13ifvqcu0","pricing_plan_id":"cebpf4jnsgd1na2vs0mg"},{"bike_id":"3ea24774-2fc3-4eee-a194-2ceb8cdffe32","system_id":"levelo_inurba_marseille","lat":43.313291,"lon":5.396838,"is_reserved":false,"is_disabled":false,"rental_uris":{"android":"levelo://app?vid=3ea24774-2fc3-4eee-a194-2ceb8cdffe32","ios":"levelo://app?vid=3ea24774-2fc3-4eee-a194-2ceb8cdffe32"},"vehicle_type_id":"4","last_reported":1721596008,"current_range_meters":16400,"station_id":"ce4bgvp2rcd13ifvqcu0","pricing_plan_id":"cebpf4jnsgd1na2vs0mg"},{"bike_id":"6c3cf722-837f-4fc1-b48b-92af54528a8a","system_id":"levelo_inurba_marseille","lat":43.313291,"lon":5.396838,"is_reserved":false,"is_disabled":false,"rental_uris":{"android":"levelo://app?vid=6c3cf722-837f-4fc1-b48b-92af54528a8a","ios":"levelo://app?vid=6c3cf722-837f-4fc1-b48b-92af54528a8a"},"vehicle_type_id":"4","last_reported":1721596008,"current_range_meters":17600,"station_id":"ce4bgvp2rcd13ifvqcu0","pricing_plan_id":"cebpf4jnsgd1na2vs0mg"},{"bike_id":"201463ab-5472-4db0-b91f-d43bfcc342e9","system_id":"levelo_inurba_marseille","lat":43.313291,"lon":5.396838,"is_reserved":false,"is_disabled":false,"rental_uris":{"android":"levelo://app?vid=201463ab-5472-4db0-b91f-d43bfcc342e9","ios":"levelo://app?vid=201463ab-5472-4db0-b91f-d43bfcc342e9"},"vehicle_type_id":"4","last_reported":1721596008,"current_range_meters":11200,"station_id":"ce4bgvp2rcd13ifvqcu0","pricing_plan_id":"cebpf4jnsgd1na2vs0mg"},{"bike_id":"cc984d99-7ce9-418e-af4b-330ff1479e68","system_id":"levelo_inurba_marseille","lat":43.313291,"lon":5.396838,"is_reserved":false,"is_disabled":false,"rental_uris":{"android":"levelo://app?vid=cc984d99-7ce9-418e-af4b-330ff1479e68","ios":"levelo://app?vid=cc984d99-7ce9-418e-af4b-330ff1479e68"},"vehicle_type_id":"4","last_reported":1721596008,"current_range_meters":25200,"station_id":"ce4bgvp2rcd13ifvqcu0","pricing_plan_id":"cebpf4jnsgd1na2vs0mg"},{"bike_id":"834b567a-ebb1-4bbd-b516-27423e9fc794","system_id":"levelo_inurba_marseille","lat":43.309038,"lon":5.396546,"is_reserved":false,"is_disabled":false,"rental_uris":{"android":"levelo://app?vid=834b567a-ebb1-4bbd-b516-27423e9fc794","ios":"levelo://app?vid=834b567a-ebb1-4bbd-b516-27423e9fc794"},"vehicle_type_id":"4","last_reported":1721596008,"current_range_meters":30000,"station_id":"ce4bh012rcd13ifvqcv0","pricing_plan_id":"cebpf4jnsgd1na2vs0mg"},{"bike_id":"043bf9f7-d69a-4495-a481-e672e4b5f3ce","system_id":"levelo_inurba_marseille","lat":43.29529,"lon":5.385581,"is_reserved":false,"is_disabled":false,"rental_uris":{"android":"levelo://app?vid=043bf9f7-d69a-4495-a481-e672e4b5f3ce","ios":"levelo://app?vid=043bf9f7-d69a-4495-a481-e672e4b5f3ce"},"vehicle_type_id":"4","last_reported":1721596008,"current_range_meters":8000,"station_id":"ce4bgih2rcd13ifvqba0","pricing_plan_id":"cebpf4jnsgd1na2vs0mg"},{"bike_id":"5cee3134-c2af-4e40-93b1-c6e53b30ebfe","system_id":"levelo_inurba_marseille","lat":43.29529,"lon":5.385581,"is_reserved":false,"is_disabled":false,"rental_uris":{"android":"levelo://app?vid=5cee3134-c2af-4e40-93b1-c6e53b30ebfe","ios":"levelo://app?vid=5cee3134-c2af-4e40-93b1-c6e53b30ebfe"},"vehicle_type_id":"4","last_reported":1721596008,"current_range_meters":14400,"station_id":"ce4bgih2rcd13ifvqba0","pricing_plan_id":"cebpf4jnsgd1na2vs0mg"},{"bike_id":"3637cc80-356c-461f-9ee7-08f421382f1e","system_id":"levelo_inurba_marseille","lat":43.290779,"lon":5.371482,"is_reserved":false,"is_disabled":false,"rental_uris":{"android":"levelo://app?vid=3637cc80-356c-461f-9ee7-08f421382f1e","ios":"levelo://app?vid=3637cc80-356c-461f-9ee7-08f421382f1e"},"vehicle_type_id":"4","last_reported":1721596008,"current_range_meters":24400,"station_id":"ce4bh5p2rcd13ifvqe4g","pricing_plan_id":"cebpf4jnsgd1na2vs0mg"},{"bike_id":"9ede8299-95fa-4e55-b5f2-eb7b9164ce6d","system_id":"levelo_inurba_marseille","lat":43.29074,"lon":5.3717,"is_reserved":false,"is_disabled":false,"rental_uris":{"android":"levelo://app?vid=9ede8299-95fa-4e55-b5f2-eb7b9164ce6d","ios":"levelo://app?vid=9ede8299-95fa-4e55-b5f2-eb7b9164ce6d"},"vehicle_type_id":"4","last_reported":1721596008,"current_range_meters":0,"station_id":"ce4bh5p2rcd13ifvqe4g","pricing_plan_id":"cebpf4jnsgd1na2vs0mg"},{"bike_id":"0e071900-c061-480f-ae16-3283bd096ae1","system_id":"levelo_inurba_marseille","lat":43.302008,"lon":5.394694,"is_reserved":false,"is_disabled":false,"rental_uris":{"android":"levelo://app?vid=0e071900-c061-480f-ae16-3283bd096ae1","ios":"levelo://app?vid=0e071900-c061-480f-ae16-3283bd096ae1"},"vehicle_type_id":"4","last_reported":1721596008,"current_range_meters":10400,"station_id":"ce4bh0p2rcd13ifvqd70","pricing_plan_id":"cebpf4jnsgd1na2vs0mg"},{"bike_id":"fd842240-5a65-49fb-a1a5-797512b7377e","system_id":"levelo_inurba_marseille","lat":43.302008,"lon":5.394694,"is_reserved":false,"is_disabled":false,"rental_uris":{"android":"levelo://app?vid=fd842240-5a65-49fb-a1a5-797512b7377e","ios":"levelo://app?vid=fd842240-5a65-49fb-a1a5-797512b7377e"},"vehicle_type_id":"4","last_reported":1721596008,"current_range_meters":31200,"station_id":"ce4bh0p2rcd13ifvqd70","pricing_plan_id":"cebpf4jnsgd1na2vs0mg"},{"bike_id":"e1c1bfe0-c486-4506-9863-b43fbcad094e","system_id":"levelo_inurba_marseille","lat":43.290526,"lon":5.359042,"is_reserved":false,"is_disabled":false,"rental_uris":{"android":"levelo://app?vid=e1c1bfe0-c486-4506-9863-b43fbcad094e","ios":"levelo://app?vid=e1c1bfe0-c486-4506-9863-b43fbcad094e"},"vehicle_type_id":"4","last_reported":1721596008,"current_range_meters":17200,"station_id":"ce4bha92rcd13ifvqeg0","pricing_plan_id":"cebpf4jnsgd1na2vs0mg"},{"bike_id":"c8c7f113-40e7-4117-bc97-07217cb2a45c","system_id":"levelo_inurba_marseille","lat":43.290631,"lon":5.359244,"is_reserved":false,"is_disabled":false,"rental_uris":{"android":"levelo://app?vid=c8c7f113-40e7-4117-bc97-07217cb2a45c","ios":"levelo://app?vid=c8c7f113-40e7-4117-bc97-07217cb2a45c"},"vehicle_type_id":"4","last_reported":1721596008,"current_range_meters":12400,"station_id":"ce4bha92rcd13ifvqeg0","pricing_plan_id":"cebpf4jnsgd1na2vs0mg"},{"bike_id":"20cc6894-983a-4470-bad1-75db1c0871ae","system_id":"levelo_inurba_marseille","lat":43.294162,"lon":5.386292,"is_reserved":false,"is_disabled":false,"rental_uris":{"android":"levelo://app?vid=20cc6894-983a-4470-bad1-75db1c0871ae","ios":"levelo://app?vid=20cc6894-983a-4470-bad1-75db1c0871ae"},"vehicle_type_id":"4","last_reported":1721596008,"current_range_meters":25600,"station_id":"ce4bh2h2rcd13ifvqdh0","pricing_plan_id":"cebpf4jnsgd1na2vs0mg"},{"bike_id":"29bf5762-dd7d-4b49-a8b7-70f92ee7f34d","system_id":"levelo_inurba_marseille","lat":43.294153,"lon":5.386305,"is_reserved":false,"is_disabled":false,"rental_uris":{"android":"levelo://app?vid=29bf5762-dd7d-4b49-a8b7-70f92ee7f34d","ios":"levelo://app?vid=29bf5762-dd7d-4b49-a8b7-70f92ee7f34d"},"vehicle_type_id":"4","last_reported":1721596008,"current_range_meters":24000,"station_id":"ce4bh2h2rcd13ifvqdh0","pricing_plan_id":"cebpf4jnsgd1na2vs0mg"},{"bike_id":"ca1cabfa-627e-437b-9fd4-143a0c539a84","system_id":"levelo_inurba_marseille","lat":43.289468,"lon":5.363719,"is_reserved":false,"is_disabled":false,"rental_uris":{"android":"levelo://app?vid=ca1cabfa-627e-437b-9fd4-143a0c539a84","ios":"levelo://app?vid=ca1cabfa-627e-437b-9fd4-143a0c539a84"},"vehicle_type_id":"4","last_reported":1721596008,"current_range_meters":25200,"station_id":"ce4bhc92rcd13ifvqetg","pricing_plan_id":"cebpf4jnsgd1na2vs0mg"},{"bike_id":"02459247-a07d-46af-970b-9ea7e415bacc","system_id":"levelo_inurba_marseille","lat":43.290327,"lon":5.375711,"is_reserved":false,"is_disabled":false,"rental_uris":{"android":"levelo://app?vid=02459247-a07d-46af-970b-9ea7e415bacc","ios":"levelo://app?vid=02459247-a07d-46af-970b-9ea7e415bacc"},"vehicle_type_id":"4","last_reported":1721596008,"current_range_meters":1200,"station_id":"ce4bh692rcd13ifvqe90","pricing_plan_id":"cebpf4jnsgd1na2vs0mg"},{"bike_id":"804c1f90-f3a3-4753-a3e1-d57c003a12df","system_id":"levelo_inurba_marseille","lat":43.294153,"lon":5.386305,"is_reserved":false,"is_disabled":false,"rental_uris":{"android":"levelo://app?vid=804c1f90-f3a3-4753-a3e1-d57c003a12df","ios":"levelo://app?vid=804c1f90-f3a3-4753-a3e1-d57c003a12df"},"vehicle_type_id":"4","last_reported":1721596008,"current_range_meters":24000,"station_id":"ce4bh2h2rcd13ifvqdh0","pricing_plan_id":"cebpf4jnsgd1na2vs0mg"},{"bike_id":"8d0af519-bf6c-4f36-9c13-ec84e3a8fec5","system_id":"levelo_inurba_marseille","lat":43.289468,"lon":5.363719,"is_reserved":false,"is_disabled":false,"rental_uris":{"android":"levelo://app?vid=8d0af519-bf6c-4f36-9c13-ec84e3a8fec5","ios":"levelo://app?vid=8d0af519-bf6c-4f36-9c13-ec84e3a8fec5"},"vehicle_type_id":"4","last_reported":1721596008,"current_range_meters":12000,"station_id":"ce4bhc92rcd13ifvqetg","pricing_plan_id":"cebpf4jnsgd1na2vs0mg"},{"bike_id":"4bc5df14-b4cc-4777-93f1-e1ec8dd92e76","system_id":"levelo_inurba_marseille","lat":43.294162,"lon":5.386292,"is_reserved":false,"is_disabled":false,"rental_uris":{"android":"levelo://app?vid=4bc5df14-b4cc-4777-93f1-e1ec8dd92e76","ios":"levelo://app?vid=4bc5df14-b4cc-4777-93f1-e1ec8dd92e76"},"vehicle_type_id":"4","last_reported":1721596008,"current_range_meters":1200,"station_id":"ce4bh2h2rcd13ifvqdh0","pricing_plan_id":"cebpf4jnsgd1na2vs0mg"},{"bike_id":"db362a7d-eb83-4ec2-811b-8d1fd3717e02","system_id":"levelo_inurba_marseille","lat":43.2894,"lon":5.36647,"is_reserved":false,"is_disabled":false,"rental_uris":{"android":"levelo://app?vid=db362a7d-eb83-4ec2-811b-8d1fd3717e02","ios":"levelo://app?vid=db362a7d-eb83-4ec2-811b-8d1fd3717e02"},"vehicle_type_id":"4","last_reported":1721596008,"current_range_meters":10000,"station_id":"ce4bhap2rcd13ifvqek0","pricing_plan_id":"cebpf4jnsgd1na2vs0mg"},{"bike_id":"1dfacfd8-1edb-4101-8969-038662a8411d","system_id":"levelo_inurba_marseille","lat":43.28939,"lon":5.36634,"is_reserved":false,"is_disabled":false,"rental_uris":{"android":"levelo://app?vid=1dfacfd8-1edb-4101-8969-038662a8411d","ios":"levelo://app?vid=1dfacfd8-1edb-4101-8969-038662a8411d"},"vehicle_type_id":"4","last_reported":1721596008,"current_range_meters":17200,"station_id":"ce4bhap2rcd13ifvqek0","pricing_plan_id":"cebpf4jnsgd1na2vs0mg"},{"bike_id":"5ae4ae4a-4898-4528-8d0e-6bc415813156","system_id":"levelo_inurba_marseille","lat":43.289468,"lon":5.363719,"is_reserved":false,"is_disabled":false,"rental_uris":{"android":"levelo://app?vid=5ae4ae4a-4898-4528-8d0e-6bc415813156","ios":"levelo://app?vid=5ae4ae4a-4898-4528-8d0e-6bc415813156"},"vehicle_type_id":"4","last_reported":1721596008,"current_range_meters":1200,"station_id":"ce4bhc92rcd13ifvqetg","pricing_plan_id":"cebpf4jnsgd1na2vs0mg"},{"bike_id":"58700841-ebde-4db4-b327-a0eabe53863c","system_id":"levelo_inurba_marseille","lat":43.289184,"lon":5.366408,"is_reserved":false,"is_disabled":false,"rental_uris":{"android":"levelo://app?vid=58700841-ebde-4db4-b327-a0eabe53863c","ios":"levelo://app?vid=58700841-ebde-4db4-b327-a0eabe53863c"},"vehicle_type_id":"4","last_reported":1721596008,"current_range_meters":13200,"station_id":"ce4bhap2rcd13ifvqek0","pricing_plan_id":"cebpf4jnsgd1na2vs0mg"},{"bike_id":"1fd63ebd-4532-42b5-a83f-b2adc29f3bf0","system_id":"levelo_inurba_marseille","lat":43.28931,"lon":5.36638,"is_reserved":false,"is_disabled":false,"rental_uris":{"android":"levelo://app?vid=1fd63ebd-4532-42b5-a83f-b2adc29f3bf0","ios":"levelo://app?vid=1fd63ebd-4532-42b5-a83f-b2adc29f3bf0"},"vehicle_type_id":"4","last_reported":1721596008,"current_range_meters":28800,"station_id":"ce4bhap2rcd13ifvqek0","pricing_plan_id":"cebpf4jnsgd1na2vs0mg"},{"bike_id":"8f8ef801-c724-4b67-9586-da84720ee2de","system_id":"levelo_inurba_marseille","lat":43.29338,"lon":5.38528,"is_reserved":false,"is_disabled":false,"rental_uris":{"android":"levelo://app?vid=8f8ef801-c724-4b67-9586-da84720ee2de","ios":"levelo://app?vid=8f8ef801-c724-4b67-9586-da84720ee2de"},"vehicle_type_id":"4","last_reported":1721596008,"current_range_meters":0,"station_id":"","pricing_plan_id":"cebpf4jnsgd1na2vs0mg"},{"bike_id":"cd7015cd-6ae9-4fbc-8ba7-b88f7f351983","system_id":"levelo_inurba_marseille","lat":43.292644,"lon":5.384257,"is_reserved":false,"is_disabled":false,"rental_uris":{"android":"levelo://app?vid=cd7015cd-6ae9-4fbc-8ba7-b88f7f351983","ios":"levelo://app?vid=cd7015cd-6ae9-4fbc-8ba7-b88f7f351983"},"vehicle_type_id":"4","last_reported":1721596008,"current_range_meters":800,"station_id":"ce4bh692rcd13ifvqea0","pricing_plan_id":"cebpf4jnsgd1na2vs0mg"},{"bike_id":"9b0e38a7-c449-4397-85f5-b4f53c3c5492","system_id":"levelo_inurba_marseille","lat":43.292698,"lon":5.384453,"is_reserved":false,"is_disabled":false,"rental_uris":{"android":"levelo://app?vid=9b0e38a7-c449-4397-85f5-b4f53c3c5492","ios":"levelo://app?vid=9b0e38a7-c449-4397-85f5-b4f53c3c5492"},"vehicle_type_id":"4","last_reported":1721596008,"current_range_meters":0,"station_id":"ce4bh692rcd13ifvqea0","pricing_plan_id":"cebpf4jnsgd1na2vs0mg"},{"bike_id":"a13ff8b8-0b7c-4f5e-ba33-e5a1fdaf7ff5","system_id":"levelo_inurba_marseille","lat":43.304296,"lon":5.397513,"is_reserved":false,"is_disabled":false,"rental_uris":{"android":"levelo://app?vid=a13ff8b8-0b7c-4f5e-ba33-e5a1fdaf7ff5","ios":"levelo://app?vid=a13ff8b8-0b7c-4f5e-ba33-e5a1fdaf7ff5"},"vehicle_type_id":"4","last_reported":1721596008,"current_range_meters":10400,"station_id":"ce4bh092rcd13ifvqd20","pricing_plan_id":"cebpf4jnsgd1na2vs0mg"},{"bike_id":"c0b91d31-704e-449f-a74a-d7d0aceee6f1","system_id":"levelo_inurba_marseille","lat":43.290995,"lon":5.381361,"is_reserved":false,"is_disabled":false,"rental_uris":{"android":"levelo://app?vid=c0b91d31-704e-449f-a74a-d7d0aceee6f1","ios":"levelo://app?vid=c0b91d31-704e-449f-a74a-d7d0aceee6f1"},"vehicle_type_id":"4","last_reported":1721596008,"current_range_meters":12800,"station_id":"ce4bh512rcd13ifvqe2g","pricing_plan_id":"cebpf4jnsgd1na2vs0mg"},{"bike_id":"2b4f7b32-09ce-4bd0-8041-6b0533959b54","system_id":"levelo_inurba_marseille","lat":43.29527,"lon":5.39032,"is_reserved":false,"is_disabled":false,"rental_uris":{"android":"levelo://app?vid=2b4f7b32-09ce-4bd0-8041-6b0533959b54","ios":"levelo://app?vid=2b4f7b32-09ce-4bd0-8041-6b0533959b54"},"vehicle_type_id":"4","last_reported":1721596008,"current_range_meters":17200,"station_id":"ce4bh3p2rcd13ifvqdp0","pricing_plan_id":"cebpf4jnsgd1na2vs0mg"},{"bike_id":"6889a12c-5535-4f49-b0ef-36aae8774c09","system_id":"levelo_inurba_marseille","lat":43.295169,"lon":5.390426,"is_reserved":false,"is_disabled":false,"rental_uris":{"android":"levelo://app?vid=6889a12c-5535-4f49-b0ef-36aae8774c09","ios":"levelo://app?vid=6889a12c-5535-4f49-b0ef-36aae8774c09"},"vehicle_type_id":"4","last_reported":1721596008,"current_range_meters":25600,"station_id":"ce4bh3p2rcd13ifvqdp0","pricing_plan_id":"cebpf4jnsgd1na2vs0mg"},{"bike_id":"b27d9927-bfe6-4e02-9ee5-6de2d84dbe54","system_id":"levelo_inurba_marseille","lat":43.330442,"lon":5.389148,"is_reserved":false,"is_disabled":false,"rental_uris":{"android":"levelo://app?vid=b27d9927-bfe6-4e02-9ee5-6de2d84dbe54","ios":"levelo://app?vid=b27d9927-bfe6-4e02-9ee5-6de2d84dbe54"},"vehicle_type_id":"4","last_reported":1721596008,"current_range_meters":26800,"station_id":"ce4bhr92rcd13ifvqhrg","pricing_plan_id":"cebpf4jnsgd1na2vs0mg"},{"bike_id":"91ef2309-bf69-4ae7-8699-40b79b18e70d","system_id":"levelo_inurba_marseille","lat":43.295214,"lon":5.390386,"is_reserved":false,"is_disabled":false,"rental_uris":{"android":"levelo://app?vid=91ef2309-bf69-4ae7-8699-40b79b18e70d","ios":"levelo://app?vid=91ef2309-bf69-4ae7-8699-40b79b18e70d"},"vehicle_type_id":"4","last_reported":1721596008,"current_range_meters":4400,"station_id":"ce4bh3p2rcd13ifvqdp0","pricing_plan_id":"cebpf4jnsgd1na2vs0mg"},{"bike_id":"2226a578-b9ab-434d-aabd-405b1d8b9612","system_id":"levelo_inurba_marseille","lat":43.330442,"lon":5.389148,"is_reserved":false,"is_disabled":false,"rental_uris":{"android":"levelo://app?vid=2226a578-b9ab-434d-aabd-405b1d8b9612","ios":"levelo://app?vid=2226a578-b9ab-434d-aabd-405b1d8b9612"},"vehicle_type_id":"4","last_reported":1721596008,"current_range_meters":28000,"station_id":"ce4bhr92rcd13ifvqhrg","pricing_plan_id":"cebpf4jnsgd1na2vs0mg"},{"bike_id":"7d9a11b7-e265-4127-8bb7-9ca76b0b9b23","system_id":"levelo_inurba_marseille","lat":43.330442,"lon":5.389148,"is_reserved":false,"is_disabled":false,"rental_uris":{"android":"levelo://app?vid=7d9a11b7-e265-4127-8bb7-9ca76b0b9b23","ios":"levelo://app?vid=7d9a11b7-e265-4127-8bb7-9ca76b0b9b23"},"vehicle_type_id":"4","last_reported":1721596008,"current_range_meters":12400,"station_id":"ce4bhr92rcd13ifvqhrg","pricing_plan_id":"cebpf4jnsgd1na2vs0mg"},{"bike_id":"55cba2d0-8063-4c80-93ef-d442e3300ecb","system_id":"levelo_inurba_marseille","lat":43.289741,"lon":5.378306,"is_reserved":false,"is_disabled":false,"rental_uris":{"android":"levelo://app?vid=55cba2d0-8063-4c80-93ef-d442e3300ecb","ios":"levelo://app?vid=55cba2d0-8063-4c80-93ef-d442e3300ecb"},"vehicle_type_id":"4","last_reported":1721596008,"current_range_meters":12800,"station_id":"ce4bh9p2rcd13ifvqed0","pricing_plan_id":"cebpf4jnsgd1na2vs0mg"},{"bike_id":"eb97c547-f280-4c5e-ba86-21613e213eb8","system_id":"levelo_inurba_marseille","lat":43.295169,"lon":5.390426,"is_reserved":false,"is_disabled":false,"rental_uris":{"android":"levelo://app?vid=eb97c547-f280-4c5e-ba86-21613e213eb8","ios":"levelo://app?vid=eb97c547-f280-4c5e-ba86-21613e213eb8"},"vehicle_type_id":"4","last_reported":1721596008,"current_range_meters":6800,"station_id":"ce4bh3p2rcd13ifvqdp0","pricing_plan_id":"cebpf4jnsgd1na2vs0mg"},{"bike_id":"115d6f07-fd26-41ac-bfba-5d07413c3157","system_id":"levelo_inurba_marseille","lat":43.295169,"lon":5.390426,"is_reserved":false,"is_disabled":false,"rental_uris":{"android":"levelo://app?vid=115d6f07-fd26-41ac-bfba-5d07413c3157","ios":"levelo://app?vid=115d6f07-fd26-41ac-bfba-5d07413c3157"},"vehicle_type_id":"4","last_reported":1721596008,"current_range_meters":3200,"station_id":"ce4bh3p2rcd13ifvqdp0","pricing_plan_id":"cebpf4jnsgd1na2vs0mg"},{"bike_id":"1c1e64be-3572-43d7-b016-09c66469baaf","system_id":"levelo_inurba_marseille","lat":43.295169,"lon":5.390426,"is_reserved":false,"is_disabled":false,"rental_uris":{"android":"levelo://app?vid=1c1e64be-3572-43d7-b016-09c66469baaf","ios":"levelo://app?vid=1c1e64be-3572-43d7-b016-09c66469baaf"},"vehicle_type_id":"4","last_reported":1721596008,"current_range_meters":29200,"station_id":"ce4bh3p2rcd13ifvqdp0","pricing_plan_id":"cebpf4jnsgd1na2vs0mg"},{"bike_id":"adbadfa8-8624-433d-8e88-02797a52a200","system_id":"levelo_inurba_marseille","lat":43.310201,"lon":5.400757,"is_reserved":false,"is_disabled":false,"rental_uris":{"android":"levelo://app?vid=adbadfa8-8624-433d-8e88-02797a52a200","ios":"levelo://app?vid=adbadfa8-8624-433d-8e88-02797a52a200"},"vehicle_type_id":"4","last_reported":1721596008,"current_range_meters":28400,"station_id":"","pricing_plan_id":"cebpf4jnsgd1na2vs0mg"},{"bike_id":"38aba0af-6aac-4529-a9af-fc485cd8b5cf","system_id":"levelo_inurba_marseille","lat":43.28856,"lon":5.358371,"is_reserved":false,"is_disabled":false,"rental_uris":{"android":"levelo://app?vid=38aba0af-6aac-4529-a9af-fc485cd8b5cf","ios":"levelo://app?vid=38aba0af-6aac-4529-a9af-fc485cd8b5cf"},"vehicle_type_id":"4","last_reported":1721596008,"current_range_meters":1200,"station_id":"ce4bhb12rcd13ifvqem0","pricing_plan_id":"cebpf4jnsgd1na2vs0mg"},{"bike_id":"2fd905b6-5920-43b0-b1df-e75c5399a093","system_id":"levelo_inurba_marseille","lat":43.29016,"lon":5.38142,"is_reserved":false,"is_disabled":false,"rental_uris":{"android":"levelo://app?vid=2fd905b6-5920-43b0-b1df-e75c5399a093","ios":"levelo://app?vid=2fd905b6-5920-43b0-b1df-e75c5399a093"},"vehicle_type_id":"4","last_reported":1721596008,"current_range_meters":7200,"station_id":"ce4bh4p2rcd13ifvqe1g","pricing_plan_id":"cebpf4jnsgd1na2vs0mg"},{"bike_id":"850739f4-c35c-41d1-8d4f-ff1c72ccce25","system_id":"levelo_inurba_marseille","lat":43.2901,"lon":5.38131,"is_reserved":false,"is_disabled":false,"rental_uris":{"android":"levelo://app?vid=850739f4-c35c-41d1-8d4f-ff1c72ccce25","ios":"levelo://app?vid=850739f4-c35c-41d1-8d4f-ff1c72ccce25"},"vehicle_type_id":"4","last_reported":1721596008,"current_range_meters":22000,"station_id":"ce4bh4p2rcd13ifvqe1g","pricing_plan_id":"cebpf4jnsgd1na2vs0mg"},{"bike_id":"f91dc862-8795-4b0f-95be-721485415acf","system_id":"levelo_inurba_marseille","lat":43.28856,"lon":5.358371,"is_reserved":false,"is_disabled":false,"rental_uris":{"android":"levelo://app?vid=f91dc862-8795-4b0f-95be-721485415acf","ios":"levelo://app?vid=f91dc862-8795-4b0f-95be-721485415acf"},"vehicle_type_id":"4","last_reported":1721596008,"current_range_meters":3600,"station_id":"ce4bhb12rcd13ifvqem0","pricing_plan_id":"cebpf4jnsgd1na2vs0mg"},{"bike_id":"eeef272f-9402-4487-a367-a6436584326f","system_id":"levelo_inurba_marseille","lat":43.289696,"lon":5.38046,"is_reserved":false,"is_disabled":false,"rental_uris":{"android":"levelo://app?vid=eeef272f-9402-4487-a367-a6436584326f","ios":"levelo://app?vid=eeef272f-9402-4487-a367-a6436584326f"},"vehicle_type_id":"4","last_reported":1721596008,"current_range_meters":4000,"station_id":"","pricing_plan_id":"cebpf4jnsgd1na2vs0mg"},{"bike_id":"79370460-4122-41c6-8534-f4aac3deeebc","system_id":"levelo_inurba_marseille","lat":43.312609,"lon":5.401662,"is_reserved":false,"is_disabled":false,"rental_uris":{"android":"levelo://app?vid=79370460-4122-41c6-8534-f4aac3deeebc","ios":"levelo://app?vid=79370460-4122-41c6-8534-f4aac3deeebc"},"vehicle_type_id":"4","last_reported":1721596008,"current_range_meters":16000,"station_id":"ce4bh092rcd13ifvqd30","pricing_plan_id":"cebpf4jnsgd1na2vs0mg"},{"bike_id":"3e36121e-1006-48f0-8148-ba15a28bbaef","system_id":"levelo_inurba_marseille","lat":43.312609,"lon":5.401662,"is_reserved":false,"is_disabled":false,"rental_uris":{"android":"levelo://app?vid=3e36121e-1006-48f0-8148-ba15a28bbaef","ios":"levelo://app?vid=3e36121e-1006-48f0-8148-ba15a28bbaef"},"vehicle_type_id":"4","last_reported":1721596008,"current_range_meters":17600,"station_id":"ce4bh092rcd13ifvqd30","pricing_plan_id":"cebpf4jnsgd1na2vs0mg"},{"bike_id":"679ea295-5458-43ec-af03-2c291a649366","system_id":"levelo_inurba_marseille","lat":43.31275,"lon":5.40164,"is_reserved":false,"is_disabled":false,"rental_uris":{"android":"levelo://app?vid=679ea295-5458-43ec-af03-2c291a649366","ios":"levelo://app?vid=679ea295-5458-43ec-af03-2c291a649366"},"vehicle_type_id":"4","last_reported":1721596008,"current_range_meters":0,"station_id":"ce4bh092rcd13ifvqd30","pricing_plan_id":"cebpf4jnsgd1na2vs0mg"},{"bike_id":"ec9b0e39-0a84-480d-b702-cd5eb42716e5","system_id":"levelo_inurba_marseille","lat":43.309371,"lon":5.401449,"is_reserved":false,"is_disabled":false,"rental_uris":{"android":"levelo://app?vid=ec9b0e39-0a84-480d-b702-cd5eb42716e5","ios":"levelo://app?vid=ec9b0e39-0a84-480d-b702-cd5eb42716e5"},"vehicle_type_id":"4","last_reported":1721596008,"current_range_meters":20800,"station_id":"ce4bgvp2rcd13ifvqct0","pricing_plan_id":"cebpf4jnsgd1na2vs0mg"},{"bike_id":"f652858b-469d-45bd-9569-0d0ced7fd4a9","system_id":"levelo_inurba_marseille","lat":43.306554,"lon":5.400701,"is_reserved":false,"is_disabled":false,"rental_uris":{"android":"levelo://app?vid=f652858b-469d-45bd-9569-0d0ced7fd4a9","ios":"levelo://app?vid=f652858b-469d-45bd-9569-0d0ced7fd4a9"},"vehicle_type_id":"4","last_reported":1721596008,"current_range_meters":3600,"station_id":"ce4bh112rcd13ifvqda0","pricing_plan_id":"cebpf4jnsgd1na2vs0mg"},{"bike_id":"da1ef795-4411-4787-a704-e9710fe27f7e","system_id":"levelo_inurba_marseille","lat":43.337472,"lon":5.374599,"is_reserved":false,"is_disabled":false,"rental_uris":{"android":"levelo://app?vid=da1ef795-4411-4787-a704-e9710fe27f7e","ios":"levelo://app?vid=da1ef795-4411-4787-a704-e9710fe27f7e"},"vehicle_type_id":"4","last_reported":1721596008,"current_range_meters":17600,"station_id":"","pricing_plan_id":"cebpf4jnsgd1na2vs0mg"},{"bike_id":"ebc266a1-f1e6-4982-aeed-2ad57807973f","system_id":"levelo_inurba_marseille","lat":43.309371,"lon":5.401449,"is_reserved":false,"is_disabled":false,"rental_uris":{"android":"levelo://app?vid=ebc266a1-f1e6-4982-aeed-2ad57807973f","ios":"levelo://app?vid=ebc266a1-f1e6-4982-aeed-2ad57807973f"},"vehicle_type_id":"4","last_reported":1721596008,"current_range_meters":21600,"station_id":"ce4bgvp2rcd13ifvqct0","pricing_plan_id":"cebpf4jnsgd1na2vs0mg"},{"bike_id":"2a3441fe-561c-4ae1-ba7a-6a9272b9ec29","system_id":"levelo_inurba_marseille","lat":43.309371,"lon":5.401449,"is_reserved":false,"is_disabled":false,"rental_uris":{"android":"levelo://app?vid=2a3441fe-561c-4ae1-ba7a-6a9272b9ec29","ios":"levelo://app?vid=2a3441fe-561c-4ae1-ba7a-6a9272b9ec29"},"vehicle_type_id":"4","last_reported":1721596008,"current_range_meters":23200,"station_id":"ce4bgvp2rcd13ifvqct0","pricing_plan_id":"cebpf4jnsgd1na2vs0mg"},{"bike_id":"e1474116-7b14-4ab9-b5eb-bbbced288556","system_id":"levelo_inurba_marseille","lat":43.309371,"lon":5.401449,"is_reserved":false,"is_disabled":false,"rental_uris":{"android":"levelo://app?vid=e1474116-7b14-4ab9-b5eb-bbbced288556","ios":"levelo://app?vid=e1474116-7b14-4ab9-b5eb-bbbced288556"},"vehicle_type_id":"4","last_reported":1721596008,"current_range_meters":10400,"station_id":"ce4bgvp2rcd13ifvqct0","pricing_plan_id":"cebpf4jnsgd1na2vs0mg"},{"bike_id":"9458a255-a47a-41f1-849e-755dc4612ffe","system_id":"levelo_inurba_marseille","lat":43.337516,"lon":5.374541,"is_reserved":false,"is_disabled":false,"rental_uris":{"android":"levelo://app?vid=9458a255-a47a-41f1-849e-755dc4612ffe","ios":"levelo://app?vid=9458a255-a47a-41f1-849e-755dc4612ffe"},"vehicle_type_id":"4","last_reported":1721596008,"current_range_meters":18400,"station_id":"","pricing_plan_id":"cebpf4jnsgd1na2vs0mg"},{"bike_id":"c92917fe-83c2-4005-95d6-56cac26a239a","system_id":"levelo_inurba_marseille","lat":43.306412,"lon":5.401035,"is_reserved":false,"is_disabled":false,"rental_uris":{"android":"levelo://app?vid=c92917fe-83c2-4005-95d6-56cac26a239a","ios":"levelo://app?vid=c92917fe-83c2-4005-95d6-56cac26a239a"},"vehicle_type_id":"4","last_reported":1721596008,"current_range_meters":0,"station_id":"ce4bh112rcd13ifvqda0","pricing_plan_id":"cebpf4jnsgd1na2vs0mg"},{"bike_id":"0ad3db73-21e8-41b5-aad3-7f410c37748d","system_id":"levelo_inurba_marseille","lat":43.33754,"lon":5.37454,"is_reserved":false,"is_disabled":false,"rental_uris":{"android":"levelo://app?vid=0ad3db73-21e8-41b5-aad3-7f410c37748d","ios":"levelo://app?vid=0ad3db73-21e8-41b5-aad3-7f410c37748d"},"vehicle_type_id":"4","last_reported":1721596008,"current_range_meters":9200,"station_id":"","pricing_plan_id":"cebpf4jnsgd1na2vs0mg"},{"bike_id":"04d3b3f4-437e-4138-915f-30ff8e238f5d","system_id":"levelo_inurba_marseille","lat":43.306412,"lon":5.401035,"is_reserved":false,"is_disabled":false,"rental_uris":{"android":"levelo://app?vid=04d3b3f4-437e-4138-915f-30ff8e238f5d","ios":"levelo://app?vid=04d3b3f4-437e-4138-915f-30ff8e238f5d"},"vehicle_type_id":"4","last_reported":1721596008,"current_range_meters":7200,"station_id":"ce4bh112rcd13ifvqda0","pricing_plan_id":"cebpf4jnsgd1na2vs0mg"},{"bike_id":"e4f69bf2-d17b-4efb-89c4-2358568562db","system_id":"levelo_inurba_marseille","lat":43.309371,"lon":5.401449,"is_reserved":false,"is_disabled":false,"rental_uris":{"android":"levelo://app?vid=e4f69bf2-d17b-4efb-89c4-2358568562db","ios":"levelo://app?vid=e4f69bf2-d17b-4efb-89c4-2358568562db"},"vehicle_type_id":"4","last_reported":1721596008,"current_range_meters":31200,"station_id":"ce4bgvp2rcd13ifvqct0","pricing_plan_id":"cebpf4jnsgd1na2vs0mg"},{"bike_id":"dbfb5cfa-00ab-4422-a801-26ddfbb14227","system_id":"levelo_inurba_marseille","lat":43.306442,"lon":5.400784,"is_reserved":false,"is_disabled":false,"rental_uris":{"android":"levelo://app?vid=dbfb5cfa-00ab-4422-a801-26ddfbb14227","ios":"levelo://app?vid=dbfb5cfa-00ab-4422-a801-26ddfbb14227"},"vehicle_type_id":"4","last_reported":1721596008,"current_range_meters":0,"station_id":"ce4bh112rcd13ifvqda0","pricing_plan_id":"cebpf4jnsgd1na2vs0mg"},{"bike_id":"9fd23b8b-c7c3-4b5a-b11d-8284b8e4dfa2","system_id":"levelo_inurba_marseille","lat":43.337578,"lon":5.374428,"is_reserved":false,"is_disabled":false,"rental_uris":{"android":"levelo://app?vid=9fd23b8b-c7c3-4b5a-b11d-8284b8e4dfa2","ios":"levelo://app?vid=9fd23b8b-c7c3-4b5a-b11d-8284b8e4dfa2"},"vehicle_type_id":"4","last_reported":1721596008,"current_range_meters":21200,"station_id":"","pricing_plan_id":"cebpf4jnsgd1na2vs0mg"},{"bike_id":"ac377a63-6a02-42fa-8a70-d5bb9b7546c9","system_id":"levelo_inurba_marseille","lat":43.33762,"lon":5.37446,"is_reserved":false,"is_disabled":false,"rental_uris":{"android":"levelo://app?vid=ac377a63-6a02-42fa-8a70-d5bb9b7546c9","ios":"levelo://app?vid=ac377a63-6a02-42fa-8a70-d5bb9b7546c9"},"vehicle_type_id":"4","last_reported":1721596008,"current_range_meters":14800,"station_id":"","pricing_plan_id":"cebpf4jnsgd1na2vs0mg"},{"bike_id":"73c27f42-c536-47dd-9ddc-75c0cce23981","system_id":"levelo_inurba_marseille","lat":43.306412,"lon":5.401035,"is_reserved":false,"is_disabled":false,"rental_uris":{"android":"levelo://app?vid=73c27f42-c536-47dd-9ddc-75c0cce23981","ios":"levelo://app?vid=73c27f42-c536-47dd-9ddc-75c0cce23981"},"vehicle_type_id":"4","last_reported":1721596008,"current_range_meters":31200,"station_id":"ce4bh112rcd13ifvqda0","pricing_plan_id":"cebpf4jnsgd1na2vs0mg"},{"bike_id":"d0723523-f35a-472e-b198-a5153fc33bb6","system_id":"levelo_inurba_marseille","lat":43.33759,"lon":5.37487,"is_reserved":false,"is_disabled":false,"rental_uris":{"android":"levelo://app?vid=d0723523-f35a-472e-b198-a5153fc33bb6","ios":"levelo://app?vid=d0723523-f35a-472e-b198-a5153fc33bb6"},"vehicle_type_id":"4","last_reported":1721596008,"current_range_meters":15600,"station_id":"","pricing_plan_id":"cebpf4jnsgd1na2vs0mg"},{"bike_id":"88cb165e-ce81-4061-b4c3-afeafd53af50","system_id":"levelo_inurba_marseille","lat":43.306412,"lon":5.401035,"is_reserved":false,"is_disabled":false,"rental_uris":{"android":"levelo://app?vid=88cb165e-ce81-4061-b4c3-afeafd53af50","ios":"levelo://app?vid=88cb165e-ce81-4061-b4c3-afeafd53af50"},"vehicle_type_id":"4","last_reported":1721596008,"current_range_meters":23600,"station_id":"ce4bh112rcd13ifvqda0","pricing_plan_id":"cebpf4jnsgd1na2vs0mg"},{"bike_id":"1db7d632-7235-467f-8fed-c5d7c94d641c","system_id":"levelo_inurba_marseille","lat":43.306412,"lon":5.401035,"is_reserved":false,"is_disabled":false,"rental_uris":{"android":"levelo://app?vid=1db7d632-7235-467f-8fed-c5d7c94d641c","ios":"levelo://app?vid=1db7d632-7235-467f-8fed-c5d7c94d641c"},"vehicle_type_id":"4","last_reported":1721596008,"current_range_meters":2000,"station_id":"ce4bh112rcd13ifvqda0","pricing_plan_id":"cebpf4jnsgd1na2vs0mg"},{"bike_id":"a14dcb80-a233-4cb8-860b-0afbca70b83c","system_id":"levelo_inurba_marseille","lat":43.30633,"lon":5.40097,"is_reserved":false,"is_disabled":false,"rental_uris":{"android":"levelo://app?vid=a14dcb80-a233-4cb8-860b-0afbca70b83c","ios":"levelo://app?vid=a14dcb80-a233-4cb8-860b-0afbca70b83c"},"vehicle_type_id":"4","last_reported":1721596008,"current_range_meters":23200,"station_id":"ce4bh112rcd13ifvqda0","pricing_plan_id":"cebpf4jnsgd1na2vs0mg"},{"bike_id":"ea505373-4946-4361-8bdd-951f3d9bad43","system_id":"levelo_inurba_marseille","lat":43.306412,"lon":5.401035,"is_reserved":false,"is_disabled":false,"rental_uris":{"android":"levelo://app?vid=ea505373-4946-4361-8bdd-951f3d9bad43","ios":"levelo://app?vid=ea505373-4946-4361-8bdd-951f3d9bad43"},"vehicle_type_id":"4","last_reported":1721596008,"current_range_meters":12400,"station_id":"ce4bh112rcd13ifvqda0","pricing_plan_id":"cebpf4jnsgd1na2vs0mg"},{"bike_id":"e62bd26e-6d81-422a-9aef-b38920feb465","system_id":"levelo_inurba_marseille","lat":43.306412,"lon":5.401035,"is_reserved":false,"is_disabled":false,"rental_uris":{"android":"levelo://app?vid=e62bd26e-6d81-422a-9aef-b38920feb465","ios":"levelo://app?vid=e62bd26e-6d81-422a-9aef-b38920feb465"},"vehicle_type_id":"4","last_reported":1721596008,"current_range_meters":21200,"station_id":"ce4bh112rcd13ifvqda0","pricing_plan_id":"cebpf4jnsgd1na2vs0mg"},{"bike_id":"6737679f-9b89-419f-8fc6-0b5aa20c73fc","system_id":"levelo_inurba_marseille","lat":43.301117,"lon":5.398795,"is_reserved":false,"is_disabled":false,"rental_uris":{"android":"levelo://app?vid=6737679f-9b89-419f-8fc6-0b5aa20c73fc","ios":"levelo://app?vid=6737679f-9b89-419f-8fc6-0b5aa20c73fc"},"vehicle_type_id":"4","last_reported":1721596008,"current_range_meters":5200,"station_id":"ce4bh0h2rcd13ifvqd40","pricing_plan_id":"cebpf4jnsgd1na2vs0mg"},{"bike_id":"a511d663-a7e8-4856-a403-840a40453ffe","system_id":"levelo_inurba_marseille","lat":43.301117,"lon":5.398795,"is_reserved":false,"is_disabled":false,"rental_uris":{"android":"levelo://app?vid=a511d663-a7e8-4856-a403-840a40453ffe","ios":"levelo://app?vid=a511d663-a7e8-4856-a403-840a40453ffe"},"vehicle_type_id":"4","last_reported":1721596008,"current_range_meters":28000,"station_id":"ce4bh0h2rcd13ifvqd40","pricing_plan_id":"cebpf4jnsgd1na2vs0mg"},{"bike_id":"a9c5ac29-065d-4797-9a0c-d4dde2f72107","system_id":"levelo_inurba_marseille","lat":43.301117,"lon":5.398795,"is_reserved":false,"is_disabled":false,"rental_uris":{"android":"levelo://app?vid=a9c5ac29-065d-4797-9a0c-d4dde2f72107","ios":"levelo://app?vid=a9c5ac29-065d-4797-9a0c-d4dde2f72107"},"vehicle_type_id":"4","last_reported":1721596008,"current_range_meters":31200,"station_id":"ce4bh0h2rcd13ifvqd40","pricing_plan_id":"cebpf4jnsgd1na2vs0mg"},{"bike_id":"5bbbe02f-74a3-480d-a38c-ba1c6819839d","system_id":"levelo_inurba_marseille","lat":43.28727,"lon":5.36078,"is_reserved":false,"is_disabled":false,"rental_uris":{"android":"levelo://app?vid=5bbbe02f-74a3-480d-a38c-ba1c6819839d","ios":"levelo://app?vid=5bbbe02f-74a3-480d-a38c-ba1c6819839d"},"vehicle_type_id":"4","last_reported":1721596008,"current_range_meters":13200,"station_id":"cki0cbj6b192h4jlfktg","pricing_plan_id":"cebpf4jnsgd1na2vs0mg"},{"bike_id":"c82b103e-6124-44be-a0ff-3d04640c2e04","system_id":"levelo_inurba_marseille","lat":43.301117,"lon":5.398795,"is_reserved":false,"is_disabled":false,"rental_uris":{"android":"levelo://app?vid=c82b103e-6124-44be-a0ff-3d04640c2e04","ios":"levelo://app?vid=c82b103e-6124-44be-a0ff-3d04640c2e04"},"vehicle_type_id":"4","last_reported":1721596008,"current_range_meters":13600,"station_id":"ce4bh0h2rcd13ifvqd40","pricing_plan_id":"cebpf4jnsgd1na2vs0mg"},{"bike_id":"24bc38d0-4152-4f77-a89c-24b1fc647061","system_id":"levelo_inurba_marseille","lat":43.28727,"lon":5.36078,"is_reserved":false,"is_disabled":false,"rental_uris":{"android":"levelo://app?vid=24bc38d0-4152-4f77-a89c-24b1fc647061","ios":"levelo://app?vid=24bc38d0-4152-4f77-a89c-24b1fc647061"},"vehicle_type_id":"4","last_reported":1721596008,"current_range_meters":11600,"station_id":"cki0cbj6b192h4jlfktg","pricing_plan_id":"cebpf4jnsgd1na2vs0mg"},{"bike_id":"812f5f8e-688d-4e01-bd21-2c67ec9c181a","system_id":"levelo_inurba_marseille","lat":43.28727,"lon":5.36078,"is_reserved":false,"is_disabled":false,"rental_uris":{"android":"levelo://app?vid=812f5f8e-688d-4e01-bd21-2c67ec9c181a","ios":"levelo://app?vid=812f5f8e-688d-4e01-bd21-2c67ec9c181a"},"vehicle_type_id":"4","last_reported":1721596008,"current_range_meters":2000,"station_id":"cki0cbj6b192h4jlfktg","pricing_plan_id":"cebpf4jnsgd1na2vs0mg"},{"bike_id":"17f97eab-bb46-4ade-9295-2143e7a11dfe","system_id":"levelo_inurba_marseille","lat":43.301117,"lon":5.398795,"is_reserved":false,"is_disabled":false,"rental_uris":{"android":"levelo://app?vid=17f97eab-bb46-4ade-9295-2143e7a11dfe","ios":"levelo://app?vid=17f97eab-bb46-4ade-9295-2143e7a11dfe"},"vehicle_type_id":"4","last_reported":1721596008,"current_range_meters":4800,"station_id":"ce4bh0h2rcd13ifvqd40","pricing_plan_id":"cebpf4jnsgd1na2vs0mg"},{"bike_id":"04b3a5be-988a-4d9e-88cd-d37a9e2c3341","system_id":"levelo_inurba_marseille","lat":43.286961,"lon":5.373785,"is_reserved":false,"is_disabled":false,"rental_uris":{"android":"levelo://app?vid=04b3a5be-988a-4d9e-88cd-d37a9e2c3341","ios":"levelo://app?vid=04b3a5be-988a-4d9e-88cd-d37a9e2c3341"},"vehicle_type_id":"4","last_reported":1721596008,"current_range_meters":1600,"station_id":"ce4bh3p2rcd13ifvqdq0","pricing_plan_id":"cebpf4jnsgd1na2vs0mg"},{"bike_id":"47dff221-f544-4499-83b5-a386b1c84f65","system_id":"levelo_inurba_marseille","lat":43.286591,"lon":5.363346,"is_reserved":false,"is_disabled":false,"rental_uris":{"android":"levelo://app?vid=47dff221-f544-4499-83b5-a386b1c84f65","ios":"levelo://app?vid=47dff221-f544-4499-83b5-a386b1c84f65"},"vehicle_type_id":"4","last_reported":1721596008,"current_range_meters":10400,"station_id":"ce4bhah2rcd13ifvqej0","pricing_plan_id":"cebpf4jnsgd1na2vs0mg"},{"bike_id":"217e3243-13f4-415d-b0fb-98b229d3da27","system_id":"levelo_inurba_marseille","lat":43.286961,"lon":5.373785,"is_reserved":false,"is_disabled":false,"rental_uris":{"android":"levelo://app?vid=217e3243-13f4-415d-b0fb-98b229d3da27","ios":"levelo://app?vid=217e3243-13f4-415d-b0fb-98b229d3da27"},"vehicle_type_id":"4","last_reported":1721596008,"current_range_meters":16800,"station_id":"ce4bh3p2rcd13ifvqdq0","pricing_plan_id":"cebpf4jnsgd1na2vs0mg"},{"bike_id":"db83f59a-69ce-4096-8f3e-c4c832cf4159","system_id":"levelo_inurba_marseille","lat":43.286961,"lon":5.373785,"is_reserved":false,"is_disabled":false,"rental_uris":{"android":"levelo://app?vid=db83f59a-69ce-4096-8f3e-c4c832cf4159","ios":"levelo://app?vid=db83f59a-69ce-4096-8f3e-c4c832cf4159"},"vehicle_type_id":"4","last_reported":1721596008,"current_range_meters":7200,"station_id":"ce4bh3p2rcd13ifvqdq0","pricing_plan_id":"cebpf4jnsgd1na2vs0mg"},{"bike_id":"087d0c81-e940-4078-b723-a2c936091d43","system_id":"levelo_inurba_marseille","lat":43.286961,"lon":5.373785,"is_reserved":false,"is_disabled":false,"rental_uris":{"android":"levelo://app?vid=087d0c81-e940-4078-b723-a2c936091d43","ios":"levelo://app?vid=087d0c81-e940-4078-b723-a2c936091d43"},"vehicle_type_id":"4","last_reported":1721596008,"current_range_meters":18400,"station_id":"ce4bh3p2rcd13ifvqdq0","pricing_plan_id":"cebpf4jnsgd1na2vs0mg"},{"bike_id":"66d88a27-7d2b-4f86-812d-2aca770ae432","system_id":"levelo_inurba_marseille","lat":43.286961,"lon":5.373785,"is_reserved":false,"is_disabled":false,"rental_uris":{"android":"levelo://app?vid=66d88a27-7d2b-4f86-812d-2aca770ae432","ios":"levelo://app?vid=66d88a27-7d2b-4f86-812d-2aca770ae432"},"vehicle_type_id":"4","last_reported":1721596008,"current_range_meters":25600,"station_id":"ce4bh3p2rcd13ifvqdq0","pricing_plan_id":"cebpf4jnsgd1na2vs0mg"},{"bike_id":"eae050cd-d2c2-4ec6-9875-d5441922c545","system_id":"levelo_inurba_marseille","lat":43.286961,"lon":5.373785,"is_reserved":false,"is_disabled":false,"rental_uris":{"android":"levelo://app?vid=eae050cd-d2c2-4ec6-9875-d5441922c545","ios":"levelo://app?vid=eae050cd-d2c2-4ec6-9875-d5441922c545"},"vehicle_type_id":"4","last_reported":1721596008,"current_range_meters":26400,"station_id":"ce4bh3p2rcd13ifvqdq0","pricing_plan_id":"cebpf4jnsgd1na2vs0mg"},{"bike_id":"d70e9346-d9c9-42bc-8612-f0bf96d2d1ee","system_id":"levelo_inurba_marseille","lat":43.286961,"lon":5.373785,"is_reserved":false,"is_disabled":false,"rental_uris":{"android":"levelo://app?vid=d70e9346-d9c9-42bc-8612-f0bf96d2d1ee","ios":"levelo://app?vid=d70e9346-d9c9-42bc-8612-f0bf96d2d1ee"},"vehicle_type_id":"4","last_reported":1721596008,"current_range_meters":20000,"station_id":"ce4bh3p2rcd13ifvqdq0","pricing_plan_id":"cebpf4jnsgd1na2vs0mg"},{"bike_id":"4b8ca118-cc56-4161-8c89-d51d71b5d537","system_id":"levelo_inurba_marseille","lat":43.286961,"lon":5.373785,"is_reserved":false,"is_disabled":false,"rental_uris":{"android":"levelo://app?vid=4b8ca118-cc56-4161-8c89-d51d71b5d537","ios":"levelo://app?vid=4b8ca118-cc56-4161-8c89-d51d71b5d537"},"vehicle_type_id":"4","last_reported":1721596008,"current_range_meters":0,"station_id":"ce4bh3p2rcd13ifvqdq0","pricing_plan_id":"cebpf4jnsgd1na2vs0mg"},{"bike_id":"9d2b3a15-4f4d-4a79-a916-13722e5928fc","system_id":"levelo_inurba_marseille","lat":43.286591,"lon":5.363346,"is_reserved":false,"is_disabled":false,"rental_uris":{"android":"levelo://app?vid=9d2b3a15-4f4d-4a79-a916-13722e5928fc","ios":"levelo://app?vid=9d2b3a15-4f4d-4a79-a916-13722e5928fc"},"vehicle_type_id":"4","last_reported":1721596008,"current_range_meters":26800,"station_id":"ce4bhah2rcd13ifvqej0","pricing_plan_id":"cebpf4jnsgd1na2vs0mg"},{"bike_id":"4a1f3c7c-3038-411d-9738-49d409cc4b52","system_id":"levelo_inurba_marseille","lat":43.286591,"lon":5.363346,"is_reserved":false,"is_disabled":false,"rental_uris":{"android":"levelo://app?vid=4a1f3c7c-3038-411d-9738-49d409cc4b52","ios":"levelo://app?vid=4a1f3c7c-3038-411d-9738-49d409cc4b52"},"vehicle_type_id":"4","last_reported":1721596008,"current_range_meters":18800,"station_id":"ce4bhah2rcd13ifvqej0","pricing_plan_id":"cebpf4jnsgd1na2vs0mg"},{"bike_id":"4d72ff74-4dff-41f3-8382-78f5289bb1bf","system_id":"levelo_inurba_marseille","lat":43.286593,"lon":5.363346,"is_reserved":false,"is_disabled":false,"rental_uris":{"android":"levelo://app?vid=4d72ff74-4dff-41f3-8382-78f5289bb1bf","ios":"levelo://app?vid=4d72ff74-4dff-41f3-8382-78f5289bb1bf"},"vehicle_type_id":"4","last_reported":1721596008,"current_range_meters":31200,"station_id":"ce4bhah2rcd13ifvqej0","pricing_plan_id":"cebpf4jnsgd1na2vs0mg"},{"bike_id":"8016564c-b5d5-4628-af48-17c85431db3c","system_id":"levelo_inurba_marseille","lat":43.286961,"lon":5.373785,"is_reserved":false,"is_disabled":false,"rental_uris":{"android":"levelo://app?vid=8016564c-b5d5-4628-af48-17c85431db3c","ios":"levelo://app?vid=8016564c-b5d5-4628-af48-17c85431db3c"},"vehicle_type_id":"4","last_reported":1721596008,"current_range_meters":15200,"station_id":"ce4bh3p2rcd13ifvqdq0","pricing_plan_id":"cebpf4jnsgd1na2vs0mg"},{"bike_id":"e3337877-c990-4621-8fbd-62fcea267c64","system_id":"levelo_inurba_marseille","lat":43.286961,"lon":5.373785,"is_reserved":false,"is_disabled":false,"rental_uris":{"android":"levelo://app?vid=e3337877-c990-4621-8fbd-62fcea267c64","ios":"levelo://app?vid=e3337877-c990-4621-8fbd-62fcea267c64"},"vehicle_type_id":"4","last_reported":1721596008,"current_range_meters":400,"station_id":"ce4bh3p2rcd13ifvqdq0","pricing_plan_id":"cebpf4jnsgd1na2vs0mg"},{"bike_id":"d35a9cc4-c4da-49f1-80b1-7514b8ef03bb","system_id":"levelo_inurba_marseille","lat":43.298681,"lon":5.397225,"is_reserved":false,"is_disabled":false,"rental_uris":{"android":"levelo://app?vid=d35a9cc4-c4da-49f1-80b1-7514b8ef03bb","ios":"levelo://app?vid=d35a9cc4-c4da-49f1-80b1-7514b8ef03bb"},"vehicle_type_id":"4","last_reported":1721596008,"current_range_meters":2000,"station_id":"ce4bh0h2rcd13ifvqd50","pricing_plan_id":"cebpf4jnsgd1na2vs0mg"},{"bike_id":"6d62201b-144c-4a93-a7c7-f77f0a336e53","system_id":"levelo_inurba_marseille","lat":43.286961,"lon":5.373785,"is_reserved":false,"is_disabled":false,"rental_uris":{"android":"levelo://app?vid=6d62201b-144c-4a93-a7c7-f77f0a336e53","ios":"levelo://app?vid=6d62201b-144c-4a93-a7c7-f77f0a336e53"},"vehicle_type_id":"4","last_reported":1721596008,"current_range_meters":16800,"station_id":"ce4bh3p2rcd13ifvqdq0","pricing_plan_id":"cebpf4jnsgd1na2vs0mg"},{"bike_id":"044fc6f5-eaf4-4dc7-bff5-1872d6742dbc","system_id":"levelo_inurba_marseille","lat":43.286961,"lon":5.373785,"is_reserved":false,"is_disabled":false,"rental_uris":{"android":"levelo://app?vid=044fc6f5-eaf4-4dc7-bff5-1872d6742dbc","ios":"levelo://app?vid=044fc6f5-eaf4-4dc7-bff5-1872d6742dbc"},"vehicle_type_id":"4","last_reported":1721596008,"current_range_meters":14800,"station_id":"ce4bh3p2rcd13ifvqdq0","pricing_plan_id":"cebpf4jnsgd1na2vs0mg"},{"bike_id":"2f9b3637-8919-49f1-bd1c-c27e33af11f3","system_id":"levelo_inurba_marseille","lat":43.286593,"lon":5.363346,"is_reserved":false,"is_disabled":false,"rental_uris":{"android":"levelo://app?vid=2f9b3637-8919-49f1-bd1c-c27e33af11f3","ios":"levelo://app?vid=2f9b3637-8919-49f1-bd1c-c27e33af11f3"},"vehicle_type_id":"4","last_reported":1721596008,"current_range_meters":23600,"station_id":"ce4bhah2rcd13ifvqej0","pricing_plan_id":"cebpf4jnsgd1na2vs0mg"},{"bike_id":"e1b752a2-436a-47e4-9dc6-f57706a26538","system_id":"levelo_inurba_marseille","lat":43.286961,"lon":5.373785,"is_reserved":false,"is_disabled":false,"rental_uris":{"android":"levelo://app?vid=e1b752a2-436a-47e4-9dc6-f57706a26538","ios":"levelo://app?vid=e1b752a2-436a-47e4-9dc6-f57706a26538"},"vehicle_type_id":"4","last_reported":1721596008,"current_range_meters":22400,"station_id":"ce4bh3p2rcd13ifvqdq0","pricing_plan_id":"cebpf4jnsgd1na2vs0mg"},{"bike_id":"b78a37d7-218f-43b5-80e9-c2f7d4ff1103","system_id":"levelo_inurba_marseille","lat":43.286593,"lon":5.363346,"is_reserved":false,"is_disabled":false,"rental_uris":{"android":"levelo://app?vid=b78a37d7-218f-43b5-80e9-c2f7d4ff1103","ios":"levelo://app?vid=b78a37d7-218f-43b5-80e9-c2f7d4ff1103"},"vehicle_type_id":"4","last_reported":1721596008,"current_range_meters":15600,"station_id":"ce4bhah2rcd13ifvqej0","pricing_plan_id":"cebpf4jnsgd1na2vs0mg"},{"bike_id":"0262f7da-bdf5-4799-90e3-41412d857cf2","system_id":"levelo_inurba_marseille","lat":43.290336,"lon":5.386425,"is_reserved":false,"is_disabled":false,"rental_uris":{"android":"levelo://app?vid=0262f7da-bdf5-4799-90e3-41412d857cf2","ios":"levelo://app?vid=0262f7da-bdf5-4799-90e3-41412d857cf2"},"vehicle_type_id":"4","last_reported":1721596008,"current_range_meters":2800,"station_id":"ce4bh4p2rcd13ifvqe0g","pricing_plan_id":"cebpf4jnsgd1na2vs0mg"},