{"last_updated":1722787721,"ttl":30,"version":"2.2","data":{"bikes":[{"bike_id":"0825e142-8d75-49e6-bf5c-d8320a4842b5","system_id":"levelo_inurba_marseille","lat":43.313391,"lon":5.36706,"is_reserved":false,"is_disabled":false,"rental_uris":{"android":"levelo://app?vid=0825e142-8d75-49e6-bf5c-d8320a4842b5","ios":"levelo://app?vid=0825e142-8d75-49e6-bf5c-d8320a4842b5"},"vehicle_type_id":"4","last_reported":1722787721,"current_range_meters":13200,"station_id":"ce4bgr92rcd13ifvqc6g","pricing_plan_id":"cebpf4jnsgd1na2vs0mg"},{"bike_id":"de3f3c79-eac4-4f6f-b78a-15951b072462","system_id":"levelo_inurba_marseille","lat":43.312239,"lon":5.368562,"is_reserved":false,"is_disabled":false,"rental_uris":{"android":"levelo://app?vid=de3f3c79-eac4-4f6f-b78a-15951b072462","ios":"levelo://app?vid=de3f3c79-eac4-4f6f-b78a-15951b072462"},"vehicle_type_id":"4","last_reported":1722787721,"current_range_meters":30400,"station_id":"ce4bgl92rcd13ifvqbq0","pricing_plan_id":"cebpf4jnsgd1na2vs0mg"},{"bike_id":"b09a4347-571e-4cde-bea1-8dfe2a8497f8","system_id":"levelo_inurba_marseille","lat":43.312239,"lon":5.368562,"is_reserved":false,"is_disabled":false,"rental_uris":{"android":"levelo://app?vid=b09a4347-571e-4cde-bea1-8dfe2a8497f8","ios":"levelo://app?vid=b09a4347-571e-4cde-bea1-8dfe2a8497f8"},"vehicle_type_id":"4","last_reported":1722787721,"current_range_meters":16800,"station_id":"ce4bgl92rcd13ifvqbq0","pricing_plan_id":"cebpf4jnsgd1na2vs0mg"},{"bike_id":"48d513d1-196f-486e-a8e8-90cacdf9d214","system_id":"levelo_inurba_marseille","lat":43.309034,"lon":5.371783,"is_reserved":false,"is_disabled":false,"rental_uris":{"android":"levelo://app?vid=48d513d1-196f-486e-a8e8-90cacdf9d214","ios":"levelo://app?vid=48d513d1-196f-486e-a8e8-90cacdf9d214"},"vehicle_type_id":"4","last_reported":1722787721,"current_range_meters":17200,"station_id":"ce4bguh2rcd13ifvqckg","pricing_plan_id":"cebpf4jnsgd1na2vs0mg"},{"bike_id":"beb29842-ed55-4b2d-8381-0e77c72ff93f","system_id":"levelo_inurba_marseille","lat":43.30937,"lon":5.374823,"is_reserved":false,"is_disabled":false,"rental_uris":{"android":"levelo://app?vid=beb29842-ed55-4b2d-8381-0e77c72ff93f","ios":"levelo://app?vid=beb29842-ed55-4b2d-8381-0e77c72ff93f"},"vehicle_type_id":"4","last_reported":1722787721,"current_range_meters":12800,"station_id":"","pricing_plan_id":"cebpf4jnsgd1na2vs0mg"},{"bike_id":"249bff82-259d-4c11-8577-fb30d29ffa86","system_id":"levelo_inurba_marseille","lat":43.30537,"lon":5.367345,"is_reserved":false,"is_disabled":false,"rental_uris":{"android":"levelo://app?vid=249bff82-259d-4c11-8577-fb30d29ffa86","ios":"levelo://app?vid=249bff82-259d-4c11-8577-fb30d29ffa86"},"vehicle_type_id":"4","last_reported":1722787721,"current_range_meters":400,"station_id":"ce4bgrp2rcd13ifvqc9g","pricing_plan_id":"cebpf4jnsgd1na2vs0mg"},{"bike_id":"ba98c8b3-9e56-4363-8502-5db1e5f1a494","system_id":"levelo_inurba_marseille","lat":43.305712,"lon":5.365641,"is_reserved":false,"is_disabled":false,"rental_uris":{"android":"levelo://app?vid=ba98c8b3-9e56-4363-8502-5db1e5f1a494","ios":"levelo://app?vid=ba98c8b3-9e56-4363-8502-5db1e5f1a494"},"vehicle_type_id":"4","last_reported":1722787721,"current_range_meters":1600,"station_id":"ce4bgs12rcd13ifvqcag","pricing_plan_id":"cebpf4jnsgd1na2vs0mg"},{"bike_id":"2b5b60a0-fba5-4d46-8411-bbcd5bdf4240","system_id":"levelo_inurba_marseille","lat":43.31119,"lon":5.37764,"is_reserved":false,"is_disabled":false,"rental_uris":{"android":"levelo://app?vid=2b5b60a0-fba5-4d46-8411-bbcd5bdf4240","ios":"levelo://app?vid=2b5b60a0-fba5-4d46-8411-bbcd5bdf4240"},"vehicle_type_id":"4","last_reported":1722787721,"current_range_meters":23200,"station_id":"","pricing_plan_id":"cebpf4jnsgd1na2vs0mg"},{"bike_id":"52cd507f-91f5-49f5-82eb-2627a5e2aad1","system_id":"levelo_inurba_marseille","lat":43.311125,"lon":5.377624,"is_reserved":false,"is_disabled":false,"rental_uris":{"android":"levelo://app?vid=52cd507f-91f5-49f5-82eb-2627a5e2aad1","ios":"levelo://app?vid=52cd507f-91f5-49f5-82eb-2627a5e2aad1"},"vehicle_type_id":"4","last_reported":1722787721,"current_range_meters":26400,"station_id":"ce4bgt92rcd13ifvqcg0","pricing_plan_id":"cebpf4jnsgd1na2vs0mg"},{"bike_id":"26bb27b3-e6b8-4ac9-8da2-2f70d7e5a451","system_id":"levelo_inurba_marseille","lat":43.311125,"lon":5.377624,"is_reserved":false,"is_disabled":false,"rental_uris":{"android":"levelo://app?vid=26bb27b3-e6b8-4ac9-8da2-2f70d7e5a451","ios":"levelo://app?vid=26bb27b3-e6b8-4ac9-8da2-2f70d7e5a451"},"vehicle_type_id":"4","last_reported":1722787721,"current_range_meters":0,"station_id":"ce4bgt92rcd13ifvqcg0","pricing_plan_id":"cebpf4jnsgd1na2vs0mg"},{"bike_id":"0ce7ce81-4d25-4449-bc34-2d23c5d0b16a","system_id":"levelo_inurba_marseille","lat":43.311125,"lon":5.377624,"is_reserved":false,"is_disabled":false,"rental_uris":{"android":"levelo://app?vid=0ce7ce81-4d25-4449-bc34-2d23c5d0b16a","ios":"levelo://app?vid=0ce7ce81-4d25-4449-bc34-2d23c5d0b16a"},"vehicle_type_id":"4","last_reported":1722787721,"current_range_meters":800,"station_id":"ce4bgt92rcd13ifvqcg0","pricing_plan_id":"cebpf4jnsgd1na2vs0mg"},{"bike_id":"caed33f2-bf88-4266-b624-48be6186022d","system_id":"levelo_inurba_marseille","lat":43.307945,"lon":5.376487,"is_reserved":false,"is_disabled":false,"rental_uris":{"android":"levelo://app?vid=caed33f2-bf88-4266-b624-48be6186022d","ios":"levelo://app?vid=caed33f2-bf88-4266-b624-48be6186022d"},"vehicle_type_id":"4","last_reported":1722787721,"current_range_meters":800,"station_id":"ce4bgv92rcd13ifvqcq0","pricing_plan_id":"cebpf4jnsgd1na2vs0mg"},{"bike_id":"cdd33631-131d-40cb-992a-853914b439ae","system_id":"levelo_inurba_marseille","lat":43.304937,"lon":5.37079,"is_reserved":false,"is_disabled":false,"rental_uris":{"android":"levelo://app?vid=cdd33631-131d-40cb-992a-853914b439ae","ios":"levelo://app?vid=cdd33631-131d-40cb-992a-853914b439ae"},"vehicle_type_id":"4","last_reported":1722787721,"current_range_meters":18000,"station_id":"","pricing_plan_id":"cebpf4jnsgd1na2vs0mg"},{"bike_id":"746cd1d4-ddbc-43ad-bccc-6b9669e9fdd6","system_id":"levelo_inurba_marseille","lat":43.318844,"lon":5.377113,"is_reserved":false,"is_disabled":false,"rental_uris":{"android":"levelo://app?vid=746cd1d4-ddbc-43ad-bccc-6b9669e9fdd6","ios":"levelo://app?vid=746cd1d4-ddbc-43ad-bccc-6b9669e9fdd6"},"vehicle_type_id":"4","last_reported":1722787721,"current_range_meters":7600,"station_id":"","pricing_plan_id":"cebpf4jnsgd1na2vs0mg"},{"bike_id":"937d205e-2e3f-42c5-b744-cd8fb6683f87","system_id":"levelo_inurba_marseille","lat":43.316535,"lon":5.3799,"is_reserved":false,"is_disabled":false,"rental_uris":{"android":"levelo://app?vid=937d205e-2e3f-42c5-b744-cd8fb6683f87","ios":"levelo://app?vid=937d205e-2e3f-42c5-b744-cd8fb6683f87"},"vehicle_type_id":"4","last_reported":1722787721,"current_range_meters":26800,"station_id":"","pricing_plan_id":"cebpf4jnsgd1na2vs0mg"},{"bike_id":"7ddee55b-e140-46be-b3df-94db58723279","system_id":"levelo_inurba_marseille","lat":43.318534,"lon":5.378813,"is_reserved":false,"is_disabled":false,"rental_uris":{"android":"levelo://app?vid=7ddee55b-e140-46be-b3df-94db58723279","ios":"levelo://app?vid=7ddee55b-e140-46be-b3df-94db58723279"},"vehicle_type_id":"4","last_reported":1722787721,"current_range_meters":29600,"station_id":"","pricing_plan_id":"cebpf4jnsgd1na2vs0mg"},{"bike_id":"7d26f442-7c92-4f3d-8240-0ca62ad96ee4","system_id":"levelo_inurba_marseille","lat":43.323421,"lon":5.364875,"is_reserved":false,"is_disabled":false,"rental_uris":{"android":"levelo://app?vid=7d26f442-7c92-4f3d-8240-0ca62ad96ee4","ios":"levelo://app?vid=7d26f442-7c92-4f3d-8240-0ca62ad96ee4"},"vehicle_type_id":"4","last_reported":1722787721,"current_range_meters":21600,"station_id":"","pricing_plan_id":"cebpf4jnsgd1na2vs0mg"},{"bike_id":"0c146acb-68d7-4363-80a0-c75b9cea8d18","system_id":"levelo_inurba_marseille","lat":43.30805,"lon":5.38152,"is_reserved":false,"is_disabled":false,"rental_uris":{"android":"levelo://app?vid=0c146acb-68d7-4363-80a0-c75b9cea8d18","ios":"levelo://app?vid=0c146acb-68d7-4363-80a0-c75b9cea8d18"},"vehicle_type_id":"4","last_reported":1722787721,"current_range_meters":8800,"station_id":"ce4bgt12rcd13ifvqce0","pricing_plan_id":"cebpf4jnsgd1na2vs0mg"},{"bike_id":"2f261e83-d979-4dce-9b8d-711609bfd2af","system_id":"levelo_inurba_marseille","lat":43.304606,"lon":5.379026,"is_reserved":false,"is_disabled":false,"rental_uris":{"android":"levelo://app?vid=2f261e83-d979-4dce-9b8d-711609bfd2af","ios":"levelo://app?vid=2f261e83-d979-4dce-9b8d-711609bfd2af"},"vehicle_type_id":"4","last_reported":1722787721,"current_range_meters":12800,"station_id":"ce4bgup2rcd13ifvqcn0","pricing_plan_id":"cebpf4jnsgd1na2vs0mg"},{"bike_id":"2cb46511-6ca9-412a-b980-ea9d5fb9d760","system_id":"levelo_inurba_marseille","lat":43.308012,"lon":5.381511,"is_reserved":false,"is_disabled":false,"rental_uris":{"android":"levelo://app?vid=2cb46511-6ca9-412a-b980-ea9d5fb9d760","ios":"levelo://app?vid=2cb46511-6ca9-412a-b980-ea9d5fb9d760"},"vehicle_type_id":"4","last_reported":1722787721,"current_range_meters":18400,"station_id":"ce4bgt12rcd13ifvqce0","pricing_plan_id":"cebpf4jnsgd1na2vs0mg"},{"bike_id":"5b602037-b0d2-47eb-8c84-9f89ef4140fd","system_id":"levelo_inurba_marseille","lat":43.30458,"lon":5.37907,"is_reserved":false,"is_disabled":false,"rental_uris":{"android":"levelo://app?vid=5b602037-b0d2-47eb-8c84-9f89ef4140fd","ios":"levelo://app?vid=5b602037-b0d2-47eb-8c84-9f89ef4140fd"},"vehicle_type_id":"4","last_reported":1722787721,"current_range_meters":0,"station_id":"ce4bgup2rcd13ifvqcn0","pricing_plan_id":"cebpf4jnsgd1na2vs0mg"},{"bike_id":"acea373c-012a-49ac-8063-595537d5579d","system_id":"levelo_inurba_marseille","lat":43.324771,"lon":5.36557,"is_reserved":false,"is_disabled":false,"rental_uris":{"android":"levelo://app?vid=acea373c-012a-49ac-8063-595537d5579d","ios":"levelo://app?vid=acea373c-012a-49ac-8063-595537d5579d"},"vehicle_type_id":"4","last_reported":1722787721,"current_range_meters":1200,"station_id":"ce4bhs12rcd13ifvqhvg","pricing_plan_id":"cebpf4jnsgd1na2vs0mg"},{"bike_id":"cfbb5f88-214f-4b9d-a4eb-4496dbd9322a","system_id":"levelo_inurba_marseille","lat":43.324771,"lon":5.36557,"is_reserved":false,"is_disabled":false,"rental_uris":{"android":"levelo://app?vid=cfbb5f88-214f-4b9d-a4eb-4496dbd9322a","ios":"levelo://app?vid=cfbb5f88-214f-4b9d-a4eb-4496dbd9322a"},"vehicle_type_id":"4","last_reported":1722787721,"current_range_meters":32000,"station_id":"ce4bhs12rcd13ifvqhvg","pricing_plan_id":"cebpf4jnsgd1na2vs0mg"},{"bike_id":"b72dc0aa-93fe-43bc-be00-318d213110aa","system_id":"levelo_inurba_marseille","lat":43.324771,"lon":5.36557,"is_reserved":false,"is_disabled":false,"rental_uris":{"android":"levelo://app?vid=b72dc0aa-93fe-43bc-be00-318d213110aa","ios":"levelo://app?vid=b72dc0aa-93fe-43bc-be00-318d213110aa"},"vehicle_type_id":"4","last_reported":1722787721,"current_range_meters":31200,"station_id":"ce4bhs12rcd13ifvqhvg","pricing_plan_id":"cebpf4jnsgd1na2vs0mg"},{"bike_id":"c5eafbde-38cc-415e-bdbe-642750cf2fc4","system_id":"levelo_inurba_marseille","lat":43.324771,"lon":5.36557,"is_reserved":false,"is_disabled":false,"rental_uris":{"android":"levelo://app?vid=c5eafbde-38cc-415e-bdbe-642750cf2fc4","ios":"levelo://app?vid=c5eafbde-38cc-415e-bdbe-642750cf2fc4"},"vehicle_type_id":"4","last_reported":1722787721,"current_range_meters":31200,"station_id":"ce4bhs12rcd13ifvqhvg","pricing_plan_id":"cebpf4jnsgd1na2vs0mg"},{"bike_id":"41980ad8-51a2-43e4-bb99-3124a61598b8","system_id":"levelo_inurba_marseille","lat":43.324771,"lon":5.36557,"is_reserved":false,"is_disabled":false,"rental_uris":{"android":"levelo://app?vid=41980ad8-51a2-43e4-bb99-3124a61598b8","ios":"levelo://app?vid=41980ad8-51a2-43e4-bb99-3124a61598b8"},"vehicle_type_id":"4","last_reported":1722787721,"current_range_meters":18800,"station_id":"ce4bhs12rcd13ifvqhvg","pricing_plan_id":"cebpf4jnsgd1na2vs0mg"},{"bike_id":"0e389952-39a6-46ae-8a23-def9798bbc98","system_id":"levelo_inurba_marseille","lat":43.324771,"lon":5.36557,"is_reserved":false,"is_disabled":false,"rental_uris":{"android":"levelo://app?vid=0e389952-39a6-46ae-8a23-def9798bbc98","ios":"levelo://app?vid=0e389952-39a6-46ae-8a23-def9798bbc98"},"vehicle_type_id":"4","last_reported":1722787721,"current_range_meters":6800,"station_id":"ce4bhs12rcd13ifvqhvg","pricing_plan_id":"cebpf4jnsgd1na2vs0mg"},{"bike_id":"aa6c3caa-a399-40fe-9908-325748fc4085","system_id":"levelo_inurba_marseille","lat":43.324771,"lon":5.36557,"is_reserved":false,"is_disabled":false,"rental_uris":{"android":"levelo://app?vid=aa6c3caa-a399-40fe-9908-325748fc4085","ios":"levelo://app?vid=aa6c3caa-a399-40fe-9908-325748fc4085"},"vehicle_type_id":"4","last_reported":1722787721,"current_range_meters":31200,"station_id":"ce4bhs12rcd13ifvqhvg","pricing_plan_id":"cebpf4jnsgd1na2vs0mg"},{"bike_id":"39c3d13d-fef7-48cf-9300-21353a1419e2","system_id":"levelo_inurba_marseille","lat":43.324876,"lon":5.365712,"is_reserved":false,"is_disabled":false,"rental_uris":{"android":"levelo://app?vid=39c3d13d-fef7-48cf-9300-21353a1419e2","ios":"levelo://app?vid=39c3d13d-fef7-48cf-9300-21353a1419e2"},"vehicle_type_id":"4","last_reported":1722787721,"current_range_meters":25200,"station_id":"ce4bhs12rcd13ifvqhvg","pricing_plan_id":"cebpf4jnsgd1na2vs0mg"},{"bike_id":"5c8e5d8f-bdd5-40cd-bd8e-b86adb71824b","system_id":"levelo_inurba_marseille","lat":43.32488,"lon":5.36561,"is_reserved":false,"is_disabled":false,"rental_uris":{"android":"levelo://app?vid=5c8e5d8f-bdd5-40cd-bd8e-b86adb71824b","ios":"levelo://app?vid=5c8e5d8f-bdd5-40cd-bd8e-b86adb71824b"},"vehicle_type_id":"4","last_reported":1722787721,"current_range_meters":0,"station_id":"ce4bhs12rcd13ifvqhvg","pricing_plan_id":"cebpf4jnsgd1na2vs0mg"},{"bike_id":"4744a821-80ef-4ebe-b1f0-8d83a1486210","system_id":"levelo_inurba_marseille","lat":43.304606,"lon":5.379026,"is_reserved":false,"is_disabled":false,"rental_uris":{"android":"levelo://app?vid=4744a821-80ef-4ebe-b1f0-8d83a1486210","ios":"levelo://app?vid=4744a821-80ef-4ebe-b1f0-8d83a1486210"},"vehicle_type_id":"4","last_reported":1722787721,"current_range_meters":27200,"station_id":"ce4bgup2rcd13ifvqcn0","pricing_plan_id":"cebpf4jnsgd1na2vs0mg"},{"bike_id":"c2b9e131-7d22-4399-8e73-ba3b58b1a7e0","system_id":"levelo_inurba_marseille","lat":43.310804,"lon":5.38359,"is_reserved":false,"is_disabled":false,"rental_uris":{"android":"levelo://app?vid=c2b9e131-7d22-4399-8e73-ba3b58b1a7e0","ios":"levelo://app?vid=c2b9e131-7d22-4399-8e73-ba3b58b1a7e0"},"vehicle_type_id":"4","last_reported":1722787721,"current_range_meters":5200,"station_id":"ce4bgv92rcd13ifvqcr0","pricing_plan_id":"cebpf4jnsgd1na2vs0mg"},{"bike_id":"6adcc469-ade8-46b3-94f7-7c12df78c1e1","system_id":"levelo_inurba_marseille","lat":43.30143,"lon":5.37413,"is_reserved":false,"is_disabled":false,"rental_uris":{"android":"levelo://app?vid=6adcc469-ade8-46b3-94f7-7c12df78c1e1","ios":"levelo://app?vid=6adcc469-ade8-46b3-94f7-7c12df78c1e1"},"vehicle_type_id":"4","last_reported":1722787721,"current_range_meters":0,"station_id":"ce4bgs92rcd13ifvqcc0","pricing_plan_id":"cebpf4jnsgd1na2vs0mg"},{"bike_id":"064ad589-e937-48b5-a65e-ee8329e95e92","system_id":"levelo_inurba_marseille","lat":43.31622,"lon":5.38407,"is_reserved":false,"is_disabled":false,"rental_uris":{"android":"levelo://app?vid=064ad589-e937-48b5-a65e-ee8329e95e92","ios":"levelo://app?vid=064ad589-e937-48b5-a65e-ee8329e95e92"},"vehicle_type_id":"4","last_reported":1722787721,"current_range_meters":0,"station_id":"","pricing_plan_id":"cebpf4jnsgd1na2vs0mg"},{"bike_id":"49e74c67-cbc5-4080-8752-5539210db050","system_id":"levelo_inurba_marseille","lat":43.313571,"lon":5.384829,"is_reserved":false,"is_disabled":false,"rental_uris":{"android":"levelo://app?vid=49e74c67-cbc5-4080-8752-5539210db050","ios":"levelo://app?vid=49e74c67-cbc5-4080-8752-5539210db050"},"vehicle_type_id":"4","last_reported":1722787721,"current_range_meters":26000,"station_id":"ce4bgt92rcd13ifvqcf0","pricing_plan_id":"cebpf4jnsgd1na2vs0mg"},{"bike_id":"2611bcf5-7e8a-4f54-9d36-3ff6ad0e3fa1","system_id":"levelo_inurba_marseille","lat":43.313571,"lon":5.384829,"is_reserved":false,"is_disabled":false,"rental_uris":{"android":"levelo://app?vid=2611bcf5-7e8a-4f54-9d36-3ff6ad0e3fa1","ios":"levelo://app?vid=2611bcf5-7e8a-4f54-9d36-3ff6ad0e3fa1"},"vehicle_type_id":"4","last_reported":1722787721,"current_range_meters":12000,"station_id":"ce4bgt92rcd13ifvqcf0","pricing_plan_id":"cebpf4jnsgd1na2vs0mg"},{"bike_id":"cc5ca90a-19e2-4596-be71-e9d11bc26d09","system_id":"levelo_inurba_marseille","lat":43.31363,"lon":5.38494,"is_reserved":false,"is_disabled":false,"rental_uris":{"android":"levelo://app?vid=cc5ca90a-19e2-4596-be71-e9d11bc26d09","ios":"levelo://app?vid=cc5ca90a-19e2-4596-be71-e9d11bc26d09"},"vehicle_type_id":"4","last_reported":1722787721,"current_range_meters":31600,"station_id":"ce4bgt92rcd13ifvqcf0","pricing_plan_id":"cebpf4jnsgd1na2vs0mg"},{"bike_id":"98ca2672-37f6-4949-b79b-05a05bff5049","system_id":"levelo_inurba_marseille","lat":43.313571,"lon":5.384829,"is_reserved":false,"is_disabled":false,"rental_uris":{"android":"levelo://app?vid=98ca2672-37f6-4949-b79b-05a05bff5049","ios":"levelo://app?vid=98ca2672-37f6-4949-b79b-05a05bff5049"},"vehicle_type_id":"4","last_reported":1722787721,"current_range_meters":31200,"station_id":"ce4bgt92rcd13ifvqcf0","pricing_plan_id":"cebpf4jnsgd1na2vs0mg"},{"bike_id":"1856022e-c436-4dde-948b-e363b1c7b030","system_id":"levelo_inurba_marseille","lat":43.313571,"lon":5.384829,"is_reserved":false,"is_disabled":false,"rental_uris":{"android":"levelo://app?vid=1856022e-c436-4dde-948b-e363b1c7b030","ios":"levelo://app?vid=1856022e-c436-4dde-948b-e363b1c7b030"},"vehicle_type_id":"4","last_reported":1722787721,"current_range_meters":0,"station_id":"ce4bgt92rcd13ifvqcf0","pricing_plan_id":"cebpf4jnsgd1na2vs0mg"},{"bike_id":"62f7eccc-72be-4422-ad79-28136867fb5a","system_id":"levelo_inurba_marseille","lat":43.299222,"lon":5.365554,"is_reserved":false,"is_disabled":false,"rental_uris":{"android":"levelo://app?vid=62f7eccc-72be-4422-ad79-28136867fb5a","ios":"levelo://app?vid=62f7eccc-72be-4422-ad79-28136867fb5a"},"vehicle_type_id":"4","last_reported":1722787721,"current_range_meters":7600,"station_id":"ce4bgm92rcd13ifvqbr0","pricing_plan_id":"cebpf4jnsgd1na2vs0mg"},{"bike_id":"02112f7f-7c16-4324-aa52-f9248892533c","system_id":"levelo_inurba_marseille","lat":43.299724,"lon":5.371829,"is_reserved":false,"is_disabled":false,"rental_uris":{"android":"levelo://app?vid=02112f7f-7c16-4324-aa52-f9248892533c","ios":"levelo://app?vid=02112f7f-7c16-4324-aa52-f9248892533c"},"vehicle_type_id":"4","last_reported":1722787721,"current_range_meters":0,"station_id":"ce4bgr92rcd13ifvqc7g","pricing_plan_id":"cebpf4jnsgd1na2vs0mg"},{"bike_id":"836ac8d4-cfa1-4902-b9ad-df41e376c9cc","system_id":"levelo_inurba_marseille","lat":43.299724,"lon":5.371829,"is_reserved":false,"is_disabled":false,"rental_uris":{"android":"levelo://app?vid=836ac8d4-cfa1-4902-b9ad-df41e376c9cc","ios":"levelo://app?vid=836ac8d4-cfa1-4902-b9ad-df41e376c9cc"},"vehicle_type_id":"4","last_reported":1722787721,"current_range_meters":400,"station_id":"ce4bgr92rcd13ifvqc7g","pricing_plan_id":"cebpf4jnsgd1na2vs0mg"},{"bike_id":"4c306cd9-ac09-4afa-b2ea-321bc317bfed","system_id":"levelo_inurba_marseille","lat":43.319935,"lon":5.381699,"is_reserved":false,"is_disabled":false,"rental_uris":{"android":"levelo://app?vid=4c306cd9-ac09-4afa-b2ea-321bc317bfed","ios":"levelo://app?vid=4c306cd9-ac09-4afa-b2ea-321bc317bfed"},"vehicle_type_id":"4","last_reported":1722787721,"current_range_meters":20800,"station_id":"ce4bhr12rcd13ifvqhpg","pricing_plan_id":"cebpf4jnsgd1na2vs0mg"},{"bike_id":"10d318dd-ac80-4888-a3fe-a77d864a2ba2","system_id":"levelo_inurba_marseille","lat":43.314996,"lon":5.386177,"is_reserved":false,"is_disabled":false,"rental_uris":{"android":"levelo://app?vid=10d318dd-ac80-4888-a3fe-a77d864a2ba2","ios":"levelo://app?vid=10d318dd-ac80-4888-a3fe-a77d864a2ba2"},"vehicle_type_id":"4","last_reported":1722787721,"current_range_meters":16800,"station_id":"","pricing_plan_id":"cebpf4jnsgd1na2vs0mg"},{"bike_id":"7c4d046d-dce2-4c9f-997d-b4e82aa10366","system_id":"levelo_inurba_marseille","lat":43.298433,"lon":5.362774,"is_reserved":false,"is_disabled":false,"rental_uris":{"android":"levelo://app?vid=7c4d046d-dce2-4c9f-997d-b4e82aa10366","ios":"levelo://app?vid=7c4d046d-dce2-4c9f-997d-b4e82aa10366"},"vehicle_type_id":"4","last_reported":1722787721,"current_range_meters":18400,"station_id":"ce4bgpp2rcd13ifvqc3g","pricing_plan_id":"cebpf4jnsgd1na2vs0mg"},{"bike_id":"195e0136-009e-426d-aba8-de4a67886f5a","system_id":"levelo_inurba_marseille","lat":43.298433,"lon":5.362774,"is_reserved":false,"is_disabled":false,"rental_uris":{"android":"levelo://app?vid=195e0136-009e-426d-aba8-de4a67886f5a","ios":"levelo://app?vid=195e0136-009e-426d-aba8-de4a67886f5a"},"vehicle_type_id":"4","last_reported":1722787721,"current_range_meters":5200,"station_id":"ce4bgpp2rcd13ifvqc3g","pricing_plan_id":"cebpf4jnsgd1na2vs0mg"},{"bike_id":"3e7d6f89-70ca-4e6d-8754-59e6290bf1dc","system_id":"levelo_inurba_marseille","lat":43.298433,"lon":5.362774,"is_reserved":false,"is_disabled":false,"rental_uris":{"android":"levelo://app?vid=3e7d6f89-70ca-4e6d-8754-59e6290bf1dc","ios":"levelo://app?vid=3e7d6f89-70ca-4e6d-8754-59e6290bf1dc"},"vehicle_type_id":"4","last_reported":1722787721,"current_range_meters":0,"station_id":"ce4bgpp2rcd13ifvqc3g","pricing_plan_id":"cebpf4jnsgd1na2vs0mg"},{"bike_id":"8b7a693d-1d61-4351-8cdb-84e167434883","system_id":"levelo_inurba_marseille","lat":43.298433,"lon":5.362774,"is_reserved":false,"is_disabled":false,"rental_uris":{"android":"levelo://app?vid=8b7a693d-1d61-4351-8cdb-84e167434883","ios":"levelo://app?vid=8b7a693d-1d61-4351-8cdb-84e167434883"},"vehicle_type_id":"4","last_reported":1722787721,"current_range_meters":2400,"station_id":"ce4bgpp2rcd13ifvqc3g","pricing_plan_id":"cebpf4jnsgd1na2vs0mg"},{"bike_id":"ce2dc60b-4460-409e-9cbc-808bd905eab8","system_id":"levelo_inurba_marseille","lat":43.298433,"lon":5.362774,"is_reserved":false,"is_disabled":false,"rental_uris":{"android":"levelo://app?vid=ce2dc60b-4460-409e-9cbc-808bd905eab8","ios":"levelo://app?vid=ce2dc60b-4460-409e-9cbc-808bd905eab8"},"vehicle_type_id":"4","last_reported":1722787721,"current_range_meters":10800,"station_id":"ce4bgpp2rcd13ifvqc3g","pricing_plan_id":"cebpf4jnsgd1na2vs0mg"},{"bike_id":"9911f61a-ab42-4aee-b1e6-fa3fb1a35e5c","system_id":"levelo_inurba_marseille","lat":43.311722,"lon":5.387247,"is_reserved":false,"is_disabled":false,"rental_uris":{"android":"levelo://app?vid=9911f61a-ab42-4aee-b1e6-fa3fb1a35e5c","ios":"levelo://app?vid=9911f61a-ab42-4aee-b1e6-fa3fb1a35e5c"},"vehicle_type_id":"4","last_reported":1722787721,"current_range_meters":16000,"station_id":"ce4bgv12rcd13ifvqcp0","pricing_plan_id":"cebpf4jnsgd1na2vs0mg"},{"bike_id":"47dca764-6a22-43f8-b723-1481383925ab","system_id":"levelo_inurba_marseille","lat":43.2968,"lon":5.37291,"is_reserved":false,"is_disabled":false,"rental_uris":{"android":"levelo://app?vid=47dca764-6a22-43f8-b723-1481383925ab","ios":"levelo://app?vid=47dca764-6a22-43f8-b723-1481383925ab"},"vehicle_type_id":"4","last_reported":1722787721,"current_range_meters":22400,"station_id":"ce4bgk12rcd13ifvqbj0","pricing_plan_id":"cebpf4jnsgd1na2vs0mg"},{"bike_id":"7f04b9b6-3ea4-41f1-a6c8-c5d780535a28","system_id":"levelo_inurba_marseille","lat":43.29819,"lon":5.36372,"is_reserved":false,"is_disabled":false,"rental_uris":{"android":"levelo://app?vid=7f04b9b6-3ea4-41f1-a6c8-c5d780535a28","ios":"levelo://app?vid=7f04b9b6-3ea4-41f1-a6c8-c5d780535a28"},"vehicle_type_id":"4","last_reported":1722787721,"current_range_meters":400,"station_id":"","pricing_plan_id":"cebpf4jnsgd1na2vs0mg"},{"bike_id":"95605836-77bc-457b-82bb-309baa1d5098","system_id":"levelo_inurba_marseille","lat":43.311722,"lon":5.387247,"is_reserved":false,"is_disabled":false,"rental_uris":{"android":"levelo://app?vid=95605836-77bc-457b-82bb-309baa1d5098","ios":"levelo://app?vid=95605836-77bc-457b-82bb-309baa1d5098"},"vehicle_type_id":"4","last_reported":1722787721,"current_range_meters":31200,"station_id":"ce4bgv12rcd13ifvqcp0","pricing_plan_id":"cebpf4jnsgd1na2vs0mg"},{"bike_id":"36152607-a55a-4f3f-ab84-b1ea01771e41","system_id":"levelo_inurba_marseille","lat":43.311722,"lon":5.387247,"is_reserved":false,"is_disabled":false,"rental_uris":{"android":"levelo://app?vid=36152607-a55a-4f3f-ab84-b1ea01771e41","ios":"levelo://app?vid=36152607-a55a-4f3f-ab84-b1ea01771e41"},"vehicle_type_id":"4","last_reported":1722787721,"current_range_meters":28400,"station_id":"ce4bgv12rcd13ifvqcp0","pricing_plan_id":"cebpf4jnsgd1na2vs0mg"},{"bike_id":"a62af7e7-6432-45fe-a7ab-a79eeeabfda1","system_id":"levelo_inurba_marseille","lat":43.311722,"lon":5.387247,"is_reserved":false,"is_disabled":false,"rental_uris":{"android":"levelo://app?vid=a62af7e7-6432-45fe-a7ab-a79eeeabfda1","ios":"levelo://app?vid=a62af7e7-6432-45fe-a7ab-a79eeeabfda1"},"vehicle_type_id":"4","last_reported":1722787721,"current_range_meters":6000,"station_id":"ce4bgv12rcd13ifvqcp0","pricing_plan_id":"cebpf4jnsgd1na2vs0mg"},{"bike_id":"949330c7-8519-44bf-af4f-111769d4ed7f","system_id":"levelo_inurba_marseille","lat":43.30145,"lon":5.38066,"is_reserved":false,"is_disabled":false,"rental_uris":{"android":"levelo://app?vid=949330c7-8519-44bf-af4f-111769d4ed7f","ios":"levelo://app?vid=949330c7-8519-44bf-af4f-111769d4ed7f"},"vehicle_type_id":"4","last_reported":1722787721,"current_range_meters":2000,"station_id":"","pricing_plan_id":"cebpf4jnsgd1na2vs0mg"},{"bike_id":"b0106fee-98d6-49cf-9329-40fb49544671","system_id":"levelo_inurba_marseille","lat":43.297794,"lon":5.370888,"is_reserved":false,"is_disabled":false,"rental_uris":{"android":"levelo://app?vid=b0106fee-98d6-49cf-9329-40fb49544671","ios":"levelo://app?vid=b0106fee-98d6-49cf-9329-40fb49544671"},"vehicle_type_id":"4","last_reported":1722787721,"current_range_meters":21200,"station_id":"ce4bgop2rcd13ifvqc1g","pricing_plan_id":"cebpf4jnsgd1na2vs0mg"},{"bike_id":"1a294f0f-ed1b-4466-9201-6229823600e5","system_id":"levelo_inurba_marseille","lat":43.32286,"lon":5.38257,"is_reserved":false,"is_disabled":false,"rental_uris":{"android":"levelo://app?vid=1a294f0f-ed1b-4466-9201-6229823600e5","ios":"levelo://app?vid=1a294f0f-ed1b-4466-9201-6229823600e5"},"vehicle_type_id":"4","last_reported":1722787721,"current_range_meters":30000,"station_id":"ce4bhr12rcd13ifvqhqg","pricing_plan_id":"cebpf4jnsgd1na2vs0mg"},{"bike_id":"bbb5167f-7ad8-45ff-967e-d2013f1560e4","system_id":"levelo_inurba_marseille","lat":43.3229,"lon":5.38262,"is_reserved":false,"is_disabled":false,"rental_uris":{"android":"levelo://app?vid=bbb5167f-7ad8-45ff-967e-d2013f1560e4","ios":"levelo://app?vid=bbb5167f-7ad8-45ff-967e-d2013f1560e4"},"vehicle_type_id":"4","last_reported":1722787721,"current_range_meters":30800,"station_id":"ce4bhr12rcd13ifvqhqg","pricing_plan_id":"cebpf4jnsgd1na2vs0mg"},{"bike_id":"efa213cf-4320-40ef-925f-9f34b8a9070d","system_id":"levelo_inurba_marseille","lat":43.322872,"lon":5.382756,"is_reserved":false,"is_disabled":false,"rental_uris":{"android":"levelo://app?vid=efa213cf-4320-40ef-925f-9f34b8a9070d","ios":"levelo://app?vid=efa213cf-4320-40ef-925f-9f34b8a9070d"},"vehicle_type_id":"4","last_reported":1722787721,"current_range_meters":6400,"station_id":"ce4bhr12rcd13ifvqhqg","pricing_plan_id":"cebpf4jnsgd1na2vs0mg"},{"bike_id":"ca8a5bd0-77f7-42db-9849-8a963cccbc84","system_id":"levelo_inurba_marseille","lat":43.322872,"lon":5.382756,"is_reserved":false,"is_disabled":false,"rental_uris":{"android":"levelo://app?vid=ca8a5bd0-77f7-42db-9849-8a963cccbc84","ios":"levelo://app?vid=ca8a5bd0-77f7-42db-9849-8a963cccbc84"},"vehicle_type_id":"4","last_reported":1722787721,"current_range_meters":31600,"station_id":"ce4bhr12rcd13ifvqhqg","pricing_plan_id":"cebpf4jnsgd1na2vs0mg"},{"bike_id":"c19f3126-217d-4c33-acdc-88d6f6cd9f69","system_id":"levelo_inurba_marseille","lat":43.322872,"lon":5.382756,"is_reserved":false,"is_disabled":false,"rental_uris":{"android":"levelo://app?vid=c19f3126-217d-4c33-acdc-88d6f6cd9f69","ios":"levelo://app?vid=c19f3126-217d-4c33-acdc-88d6f6cd9f69"},"vehicle_type_id":"4","last_reported":1722787721,"current_range_meters":31600,"station_id":"ce4bhr12rcd13ifvqhqg","pricing_plan_id":"cebpf4jnsgd1na2vs0mg"},{"bike_id":"5c7575b1-0969-495e-8f07-f1830efae18f","system_id":"levelo_inurba_marseille","lat":43.322872,"lon":5.382756,"is_reserved":false,"is_disabled":false,"rental_uris":{"android":"levelo://app?vid=5c7575b1-0969-495e-8f07-f1830efae18f","ios":"levelo://app?vid=5c7575b1-0969-495e-8f07-f1830efae18f"},"vehicle_type_id":"4","last_reported":1722787721,"current_range_meters":27600,"station_id":"ce4bhr12rcd13ifvqhqg","pricing_plan_id":"cebpf4jnsgd1na2vs0mg"},{"bike_id":"c2db2501-d32a-4508-86ad-3a350ef8a7f9","system_id":"levelo_inurba_marseille","lat":43.297163,"lon":5.365866,"is_reserved":false,"is_disabled":false,"rental_uris":{"android":"levelo://app?vid=c2db2501-d32a-4508-86ad-3a350ef8a7f9","ios":"levelo://app?vid=c2db2501-d32a-4508-86ad-3a350ef8a7f9"},"vehicle_type_id":"4","last_reported":1722787721,"current_range_meters":0,"station_id":"ce4bgn12rcd13ifvqbt0","pricing_plan_id":"cebpf4jnsgd1na2vs0mg"},{"bike_id":"70f20d2b-2e19-4887-85e4-e829bcd86b9e","system_id":"levelo_inurba_marseille","lat":43.295279,"lon":5.375048,"is_reserved":false,"is_disabled":false,"rental_uris":{"android":"levelo://app?vid=70f20d2b-2e19-4887-85e4-e829bcd86b9e","ios":"levelo://app?vid=70f20d2b-2e19-4887-85e4-e829bcd86b9e"},"vehicle_type_id":"4","last_reported":1722787721,"current_range_meters":2400,"station_id":"ce4bgkp2rcd13ifvqbmg","pricing_plan_id":"cebpf4jnsgd1na2vs0mg"},{"bike_id":"912a1ba9-c5bc-49f4-973a-6a86a4205c93","system_id":"levelo_inurba_marseille","lat":43.29622,"lon":5.37154,"is_reserved":false,"is_disabled":false,"rental_uris":{"android":"levelo://app?vid=912a1ba9-c5bc-49f4-973a-6a86a4205c93","ios":"levelo://app?vid=912a1ba9-c5bc-49f4-973a-6a86a4205c93"},"vehicle_type_id":"4","last_reported":1722787721,"current_range_meters":3600,"station_id":"ce4bgnh2rcd13ifvqc0g","pricing_plan_id":"cebpf4jnsgd1na2vs0mg"},{"bike_id":"e2373fd2-a7b4-4111-9449-b73f55686e12","system_id":"levelo_inurba_marseille","lat":43.29619,"lon":5.37155,"is_reserved":false,"is_disabled":false,"rental_uris":{"android":"levelo://app?vid=e2373fd2-a7b4-4111-9449-b73f55686e12","ios":"levelo://app?vid=e2373fd2-a7b4-4111-9449-b73f55686e12"},"vehicle_type_id":"4","last_reported":1722787721,"current_range_meters":0,"station_id":"ce4bgnh2rcd13ifvqc0g","pricing_plan_id":"cebpf4jnsgd1na2vs0mg"},{"bike_id":"123d7ec6-aabc-401b-a17e-3487fef4a43f","system_id":"levelo_inurba_marseille","lat":43.299028,"lon":5.381509,"is_reserved":false,"is_disabled":false,"rental_uris":{"android":"levelo://app?vid=123d7ec6-aabc-401b-a17e-3487fef4a43f","ios":"levelo://app?vid=123d7ec6-aabc-401b-a17e-3487fef4a43f"},"vehicle_type_id":"4","last_reported":1722787721,"current_range_meters":800,"station_id":"ce4bgj12rcd13ifvqbc0","pricing_plan_id":"cebpf4jnsgd1na2vs0mg"},{"bike_id":"de688a58-44d0-4c2e-990a-435e38c1c56b","system_id":"levelo_inurba_marseille","lat":43.299028,"lon":5.381509,"is_reserved":false,"is_disabled":false,"rental_uris":{"android":"levelo://app?vid=de688a58-44d0-4c2e-990a-435e38c1c56b","ios":"levelo://app?vid=de688a58-44d0-4c2e-990a-435e38c1c56b"},"vehicle_type_id":"4","last_reported":1722787721,"current_range_meters":0,"station_id":"ce4bgj12rcd13ifvqbc0","pricing_plan_id":"cebpf4jnsgd1na2vs0mg"},{"bike_id":"fa5a4d62-e3b6-4571-9373-91dedf13127a","system_id":"levelo_inurba_marseille","lat":43.309607,"lon":5.39034,"is_reserved":false,"is_disabled":false,"rental_uris":{"android":"levelo://app?vid=fa5a4d62-e3b6-4571-9373-91dedf13127a","ios":"levelo://app?vid=fa5a4d62-e3b6-4571-9373-91dedf13127a"},"vehicle_type_id":"4","last_reported":1722787721,"current_range_meters":0,"station_id":"ce4bgup2rcd13ifvqco0","pricing_plan_id":"cebpf4jnsgd1na2vs0mg"},{"bike_id":"6721eb65-03e1-4d54-99e2-caa007ac94fe","system_id":"levelo_inurba_marseille","lat":43.317557,"lon":5.390173,"is_reserved":false,"is_disabled":false,"rental_uris":{"android":"levelo://app?vid=6721eb65-03e1-4d54-99e2-caa007ac94fe","ios":"levelo://app?vid=6721eb65-03e1-4d54-99e2-caa007ac94fe"},"vehicle_type_id":"4","last_reported":1722787721,"current_range_meters":16400,"station_id":"ce4bhqp2rcd13ifvqhng","pricing_plan_id":"cebpf4jnsgd1na2vs0mg"},{"bike_id":"590ede22-6428-4e1e-98e4-cdffa7411be1","system_id":"levelo_inurba_marseille","lat":43.298037,"lon":5.381066,"is_reserved":false,"is_disabled":false,"rental_uris":{"android":"levelo://app?vid=590ede22-6428-4e1e-98e4-cdffa7411be1","ios":"levelo://app?vid=590ede22-6428-4e1e-98e4-cdffa7411be1"},"vehicle_type_id":"4","last_reported":1722787721,"current_range_meters":0,"station_id":"ce4bgip2rcd13ifvqbb0","pricing_plan_id":"cebpf4jnsgd1na2vs0mg"},{"bike_id":"588fb6e6-a85e-4b76-81a7-a7133ed109fc","system_id":"levelo_inurba_marseille","lat":43.298037,"lon":5.381066,"is_reserved":false,"is_disabled":false,"rental_uris":{"android":"levelo://app?vid=588fb6e6-a85e-4b76-81a7-a7133ed109fc","ios":"levelo://app?vid=588fb6e6-a85e-4b76-81a7-a7133ed109fc"},"vehicle_type_id":"4","last_reported":1722787721,"current_range_meters":1200,"station_id":"ce4bgip2rcd13ifvqbb0","pricing_plan_id":"cebpf4jnsgd1na2vs0mg"},{"bike_id":"e16442c7-c6f3-4bde-b78d-2de63fb71cc8","system_id":"levelo_inurba_marseille","lat":43.29567,"lon":5.37515,"is_reserved":false,"is_disabled":false,"rental_uris":{"android":"levelo://app?vid=e16442c7-c6f3-4bde-b78d-2de63fb71cc8","ios":"levelo://app?vid=e16442c7-c6f3-4bde-b78d-2de63fb71cc8"},"vehicle_type_id":"4","last_reported":1722787721,"current_range_meters":0,"station_id":"ce4bgh92rcd13ifvqb50","pricing_plan_id":"cebpf4jnsgd1na2vs0mg"},{"bike_id":"4c80d29b-df6e-4c28-a0af-89519fecfae0","system_id":"levelo_inurba_marseille","lat":43.295748,"lon":5.37522,"is_reserved":false,"is_disabled":false,"rental_uris":{"android":"levelo://app?vid=4c80d29b-df6e-4c28-a0af-89519fecfae0","ios":"levelo://app?vid=4c80d29b-df6e-4c28-a0af-89519fecfae0"},"vehicle_type_id":"4","last_reported":1722787721,"current_range_meters":0,"station_id":"ce4bgh92rcd13ifvqb50","pricing_plan_id":"cebpf4jnsgd1na2vs0mg"},{"bike_id":"30ddb2fe-0c75-4b4f-8c8c-47e25621c35d","system_id":"levelo_inurba_marseille","lat":43.296263,"lon":5.377094,"is_reserved":false,"is_disabled":false,"rental_uris":{"android":"levelo://app?vid=30ddb2fe-0c75-4b4f-8c8c-47e25621c35d","ios":"levelo://app?vid=30ddb2fe-0c75-4b4f-8c8c-47e25621c35d"},"vehicle_type_id":"4","last_reported":1722787721,"current_range_meters":0,"station_id":"ce4bgi92rcd13ifvqb90","pricing_plan_id":"cebpf4jnsgd1na2vs0mg"},{"bike_id":"7f2c6965-a2e9-4c83-aed2-011b173519a1","system_id":"levelo_inurba_marseille","lat":43.31515,"lon":5.39203,"is_reserved":false,"is_disabled":false,"rental_uris":{"android":"levelo://app?vid=7f2c6965-a2e9-4c83-aed2-011b173519a1","ios":"levelo://app?vid=7f2c6965-a2e9-4c83-aed2-011b173519a1"},"vehicle_type_id":"4","last_reported":1722787721,"current_range_meters":30000,"station_id":"","pricing_plan_id":"cebpf4jnsgd1na2vs0mg"},{"bike_id":"00d46d32-054c-42cb-b4a3-27b0da08a934","system_id":"levelo_inurba_marseille","lat":43.324768,"lon":5.386115,"is_reserved":false,"is_disabled":false,"rental_uris":{"android":"levelo://app?vid=00d46d32-054c-42cb-b4a3-27b0da08a934","ios":"levelo://app?vid=00d46d32-054c-42cb-b4a3-27b0da08a934"},"vehicle_type_id":"4","last_reported":1722787721,"current_range_meters":2400,"station_id":"","pricing_plan_id":"cebpf4jnsgd1na2vs0mg"},{"bike_id":"b4b73852-b41d-439a-a06b-d8d8ccf504b9","system_id":"levelo_inurba_marseille","lat":43.31515,"lon":5.39209,"is_reserved":false,"is_disabled":false,"rental_uris":{"android":"levelo://app?vid=b4b73852-b41d-439a-a06b-d8d8ccf504b9","ios":"levelo://app?vid=b4b73852-b41d-439a-a06b-d8d8ccf504b9"},"vehicle_type_id":"4","last_reported":1722787721,"current_range_meters":24400,"station_id":"","pricing_plan_id":"cebpf4jnsgd1na2vs0mg"},{"bike_id":"6789f3f6-e907-482d-96f6-7aa669336f84","system_id":"levelo_inurba_marseille","lat":43.299039,"lon":5.385338,"is_reserved":false,"is_disabled":false,"rental_uris":{"android":"levelo://app?vid=6789f3f6-e907-482d-96f6-7aa669336f84","ios":"levelo://app?vid=6789f3f6-e907-482d-96f6-7aa669336f84"},"vehicle_type_id":"4","last_reported":1722787721,"current_range_meters":0,"station_id":"","pricing_plan_id":"cebpf4jnsgd1na2vs0mg"},{"bike_id":"2809d2c3-6363-48a6-8be7-0a76422e0f0d","system_id":"levelo_inurba_marseille","lat":43.32367,"lon":5.388836,"is_reserved":false,"is_disabled":false,"rental_uris":{"android":"levelo://app?vid=2809d2c3-6363-48a6-8be7-0a76422e0f0d","ios":"levelo://app?vid=2809d2c3-6363-48a6-8be7-0a76422e0f0d"},"vehicle_type_id":"4","last_reported":1722787721,"current_range_meters":5200,"station_id":"ce4bhqp2rcd13ifvqhog","pricing_plan_id":"cebpf4jnsgd1na2vs0mg"},{"bike_id":"af28cbe5-8ec8-4ac8-939f-513d4e1a5b86","system_id":"levelo_inurba_marseille","lat":43.32367,"lon":5.388836,"is_reserved":false,"is_disabled":false,"rental_uris":{"android":"levelo://app?vid=af28cbe5-8ec8-4ac8-939f-513d4e1a5b86","ios":"levelo://app?vid=af28cbe5-8ec8-4ac8-939f-513d4e1a5b86"},"vehicle_type_id":"4","last_reported":1722787721,"current_range_meters":3600,"station_id":"ce4bhqp2rcd13ifvqhog","pricing_plan_id":"cebpf4jnsgd1na2vs0mg"},{"bike_id":"da288840-89d4-47c8-b6a8-cfe5bf35e9a9","system_id":"levelo_inurba_marseille","lat":43.29607,"lon":5.38109,"is_reserved":false,"is_disabled":false,"rental_uris":{"android":"levelo://app?vid=da288840-89d4-47c8-b6a8-cfe5bf35e9a9","ios":"levelo://app?vid=da288840-89d4-47c8-b6a8-cfe5bf35e9a9"},"vehicle_type_id":"4","last_reported":1722787721,"current_range_meters":7600,"station_id":"ce4bgl12rcd13ifvqbo0","pricing_plan_id":"cebpf4jnsgd1na2vs0mg"},{"bike_id":"46af800e-d756-4f05-b4ac-3aa4399715f6","system_id":"levelo_inurba_marseille","lat":43.29604,"lon":5.38104,"is_reserved":false,"is_disabled":false,"rental_uris":{"android":"levelo://app?vid=46af800e-d756-4f05-b4ac-3aa4399715f6","ios":"levelo://app?vid=46af800e-d756-4f05-b4ac-3aa4399715f6"},"vehicle_type_id":"4","last_reported":1722787721,"current_range_meters":0,"station_id":"ce4bgl12rcd13ifvqbo0","pricing_plan_id":"cebpf4jnsgd1na2vs0mg"},{"bike_id":"b2a1509f-4dcd-4a85-9d72-3bfc24ab48a9","system_id":"levelo_inurba_marseille","lat":43.295998,"lon":5.381015,"is_reserved":false,"is_disabled":false,"rental_uris":{"android":"levelo://app?vid=b2a1509f-4dcd-4a85-9d72-3bfc24ab48a9","ios":"levelo://app?vid=b2a1509f-4dcd-4a85-9d72-3bfc24ab48a9"},"vehicle_type_id":"4","last_reported":1722787721,"current_range_meters":0,"station_id":"ce4bgl12rcd13ifvqbo0","pricing_plan_id":"cebpf4jnsgd1na2vs0mg"},{"bike_id":"0cdcfecb-af7b-45f4-b867-8741037c3dc8","system_id":"levelo_inurba_marseille","lat":43.293249,"lon":5.371578,"is_reserved":false,"is_disabled":false,"rental_uris":{"android":"levelo://app?vid=0cdcfecb-af7b-45f4-b867-8741037c3dc8","ios":"levelo://app?vid=0cdcfecb-af7b-45f4-b867-8741037c3dc8"},"vehicle_type_id":"4","last_reported":1722787721,"current_range_meters":27600,"station_id":"ce4bgh92rcd13ifvqb40","pricing_plan_id":"cebpf4jnsgd1na2vs0mg"},{"bike_id":"ca2c82c2-22ce-4fba-99a3-3e8e663f575d","system_id":"levelo_inurba_marseille","lat":43.293259,"lon":5.371586,"is_reserved":false,"is_disabled":false,"rental_uris":{"android":"levelo://app?vid=ca2c82c2-22ce-4fba-99a3-3e8e663f575d","ios":"levelo://app?vid=ca2c82c2-22ce-4fba-99a3-3e8e663f575d"},"vehicle_type_id":"4","last_reported":1722787721,"current_range_meters":800,"station_id":"ce4bgh92rcd13ifvqb40","pricing_plan_id":"cebpf4jnsgd1na2vs0mg"},{"bike_id":"3b92d493-b86b-4b03-a659-fb10ced3c28d","system_id":"levelo_inurba_marseille","lat":43.293259,"lon":5.371586,"is_reserved":false,"is_disabled":false,"rental_uris":{"android":"levelo://app?vid=3b92d493-b86b-4b03-a659-fb10ced3c28d","ios":"levelo://app?vid=3b92d493-b86b-4b03-a659-fb10ced3c28d"},"vehicle_type_id":"4","last_reported":1722787721,"current_range_meters":22400,"station_id":"ce4bgh92rcd13ifvqb40","pricing_plan_id":"cebpf4jnsgd1na2vs0mg"},{"bike_id":"231f1881-d055-4c89-a835-b56e6e8299e7","system_id":"levelo_inurba_marseille","lat":43.292749,"lon":5.368402,"is_reserved":false,"is_disabled":false,"rental_uris":{"android":"levelo://app?vid=231f1881-d055-4c89-a835-b56e6e8299e7","ios":"levelo://app?vid=231f1881-d055-4c89-a835-b56e6e8299e7"},"vehicle_type_id":"4","last_reported":1722787721,"current_range_meters":0,"station_id":"ce4bhbp2rcd13ifvqesg","pricing_plan_id":"cebpf4jnsgd1na2vs0mg"},{"bike_id":"17193bc7-042a-4781-aea8-8d747d9949bb","system_id":"levelo_inurba_marseille","lat":43.29278,"lon":5.36845,"is_reserved":false,"is_disabled":false,"rental_uris":{"android":"levelo://app?vid=17193bc7-042a-4781-aea8-8d747d9949bb","ios":"levelo://app?vid=17193bc7-042a-4781-aea8-8d747d9949bb"},"vehicle_type_id":"4","last_reported":1722787721,"current_range_meters":0,"station_id":"ce4bhbp2rcd13ifvqesg","pricing_plan_id":"cebpf4jnsgd1na2vs0mg"},{"bike_id":"e3e59e23-ec65-495a-92ff-383b3fc4f3e5","system_id":"levelo_inurba_marseille","lat":43.29278,"lon":5.36846,"is_reserved":false,"is_disabled":false,"rental_uris":{"android":"levelo://app?vid=e3e59e23-ec65-495a-92ff-383b3fc4f3e5","ios":"levelo://app?vid=e3e59e23-ec65-495a-92ff-383b3fc4f3e5"},"vehicle_type_id":"4","last_reported":1722787721,"current_range_meters":0,"station_id":"ce4bhbp2rcd13ifvqesg","pricing_plan_id":"cebpf4jnsgd1na2vs0mg"},{"bike_id":"f0dfb84d-08d2-4ef3-b647-ee50d4496b46","system_id":"levelo_inurba_marseille","lat":43.29277,"lon":5.36846,"is_reserved":false,"is_disabled":false,"rental_uris":{"android":"levelo://app?vid=f0dfb84d-08d2-4ef3-b647-ee50d4496b46","ios":"levelo://app?vid=f0dfb84d-08d2-4ef3-b647-ee50d4496b46"},"vehicle_type_id":"4","last_reported":1722787721,"current_range_meters":20000,"station_id":"ce4bhbp2rcd13ifvqesg","pricing_plan_id":"cebpf4jnsgd1na2vs0mg"},{"bike_id":"157f7158-d8fc-4b6d-aeea-45abfc1e1a4e","system_id":"levelo_inurba_marseille","lat":43.29277,"lon":5.36848,"is_reserved":false,"is_disabled":false,"rental_uris":{"android":"levelo://app?vid=157f7158-d8fc-4b6d-aeea-45abfc1e1a4e","ios":"levelo://app?vid=157f7158-d8fc-4b6d-aeea-45abfc1e1a4e"},"vehicle_type_id":"4","last_reported":1722787721,"current_range_meters":1600,"station_id":"ce4bhbp2rcd13ifvqesg","pricing_plan_id":"cebpf4jnsgd1na2vs0mg"},{"bike_id":"e183efd1-66e1-4741-a8b7-0bff0ff1d379","system_id":"levelo_inurba_marseille","lat":43.292749,"lon":5.368402,"is_reserved":false,"is_disabled":false,"rental_uris":{"android":"levelo://app?vid=e183efd1-66e1-4741-a8b7-0bff0ff1d379","ios":"levelo://app?vid=e183efd1-66e1-4741-a8b7-0bff0ff1d379"},"vehicle_type_id":"4","last_reported":1722787721,"current_range_meters":30000,"station_id":"ce4bhbp2rcd13ifvqesg","pricing_plan_id":"cebpf4jnsgd1na2vs0mg"},{"bike_id":"96071c9d-4f0a-454c-a5cf-6eebbe46a5ad","system_id":"levelo_inurba_marseille","lat":43.29274,"lon":5.36841,"is_reserved":false,"is_disabled":false,"rental_uris":{"android":"levelo://app?vid=96071c9d-4f0a-454c-a5cf-6eebbe46a5ad","ios":"levelo://app?vid=96071c9d-4f0a-454c-a5cf-6eebbe46a5ad"},"vehicle_type_id":"4","last_reported":1722787721,"current_range_meters":0,"station_id":"ce4bhbp2rcd13ifvqesg","pricing_plan_id":"cebpf4jnsgd1na2vs0mg"},{"bike_id":"1c7f7a11-0e71-4f66-b647-6379775dd357","system_id":"levelo_inurba_marseille","lat":43.29303,"lon":5.37461,"is_reserved":false,"is_disabled":false,"rental_uris":{"android":"levelo://app?vid=1c7f7a11-0e71-4f66-b647-6379775dd357","ios":"levelo://app?vid=1c7f7a11-0e71-4f66-b647-6379775dd357"},"vehicle_type_id":"4","last_reported":1722787721,"current_range_meters":2800,"station_id":"ce4bgi12rcd13ifvqb70","pricing_plan_id":"cebpf4jnsgd1na2vs0mg"},{"bike_id":"663e4d20-0977-405d-8be8-c170dee46a4f","system_id":"levelo_inurba_marseille","lat":43.293009,"lon":5.374584,"is_reserved":false,"is_disabled":false,"rental_uris":{"android":"levelo://app?vid=663e4d20-0977-405d-8be8-c170dee46a4f","ios":"levelo://app?vid=663e4d20-0977-405d-8be8-c170dee46a4f"},"vehicle_type_id":"4","last_reported":1722787721,"current_range_meters":1200,"station_id":"ce4bgi12rcd13ifvqb70","pricing_plan_id":"cebpf4jnsgd1na2vs0mg"},{"bike_id":"8d5b5b4a-19f8-4993-973b-ee1119149b48","system_id":"levelo_inurba_marseille","lat":43.300274,"lon":5.389538,"is_reserved":false,"is_disabled":false,"rental_uris":{"android":"levelo://app?vid=8d5b5b4a-19f8-4993-973b-ee1119149b48","ios":"levelo://app?vid=8d5b5b4a-19f8-4993-973b-ee1119149b48"},"vehicle_type_id":"4","last_reported":1722787721,"current_range_meters":400,"station_id":"","pricing_plan_id":"cebpf4jnsgd1na2vs0mg"},{"bike_id":"c14853f6-62cb-480d-b261-fff69b01fcf9","system_id":"levelo_inurba_marseille","lat":43.30303,"lon":5.39207,"is_reserved":false,"is_disabled":false,"rental_uris":{"android":"levelo://app?vid=c14853f6-62cb-480d-b261-fff69b01fcf9","ios":"levelo://app?vid=c14853f6-62cb-480d-b261-fff69b01fcf9"},"vehicle_type_id":"4","last_reported":1722787721,"current_range_meters":0,"station_id":"ce4bgkh2rcd13ifvqbk0","pricing_plan_id":"cebpf4jnsgd1na2vs0mg"},{"bike_id":"f46a88c1-aa20-4b3d-83a5-fce2e6e6f2d2","system_id":"levelo_inurba_marseille","lat":43.293765,"lon":5.37861,"is_reserved":false,"is_disabled":false,"rental_uris":{"android":"levelo://app?vid=f46a88c1-aa20-4b3d-83a5-fce2e6e6f2d2","ios":"levelo://app?vid=f46a88c1-aa20-4b3d-83a5-fce2e6e6f2d2"},"vehicle_type_id":"4","last_reported":1722787721,"current_range_meters":0,"station_id":"ce4bgjh2rcd13ifvqbf0","pricing_plan_id":"cebpf4jnsgd1na2vs0mg"},{"bike_id":"a3b3b646-7f97-412e-8563-b4700c9ef2d9","system_id":"levelo_inurba_marseille","lat":43.292311,"lon":5.360731,"is_reserved":false,"is_disabled":false,"rental_uris":{"android":"levelo://app?vid=a3b3b646-7f97-412e-8563-b4700c9ef2d9","ios":"levelo://app?vid=a3b3b646-7f97-412e-8563-b4700c9ef2d9"},"vehicle_type_id":"4","last_reported":1722787721,"current_range_meters":0,"station_id":"ce4bhbh2rcd13ifvqeqg","pricing_plan_id":"cebpf4jnsgd1na2vs0mg"},{"bike_id":"7ffec9d1-53c7-4332-b4a6-2f89a52b1732","system_id":"levelo_inurba_marseille","lat":43.303807,"lon":5.393063,"is_reserved":false,"is_disabled":false,"rental_uris":{"android":"levelo://app?vid=7ffec9d1-53c7-4332-b4a6-2f89a52b1732","ios":"levelo://app?vid=7ffec9d1-53c7-4332-b4a6-2f89a52b1732"},"vehicle_type_id":"4","last_reported":1722787721,"current_range_meters":0,"station_id":"","pricing_plan_id":"cebpf4jnsgd1na2vs0mg"},{"bike_id":"56aa69af-f979-4874-8e6d-ee2803f103fe","system_id":"levelo_inurba_marseille","lat":43.292005,"lon":5.357875,"is_reserved":false,"is_disabled":false,"rental_uris":{"android":"levelo://app?vid=56aa69af-f979-4874-8e6d-ee2803f103fe","ios":"levelo://app?vid=56aa69af-f979-4874-8e6d-ee2803f103fe"},"vehicle_type_id":"4","last_reported":1722787721,"current_range_meters":2800,"station_id":"ce4bhb12rcd13ifvqel0","pricing_plan_id":"cebpf4jnsgd1na2vs0mg"},{"bike_id":"094de59d-093a-43d0-bbac-35400b45aaa9","system_id":"levelo_inurba_marseille","lat":43.291994,"lon":5.357886,"is_reserved":false,"is_disabled":false,"rental_uris":{"android":"levelo://app?vid=094de59d-093a-43d0-bbac-35400b45aaa9","ios":"levelo://app?vid=094de59d-093a-43d0-bbac-35400b45aaa9"},"vehicle_type_id":"4","last_reported":1722787721,"current_range_meters":26400,"station_id":"ce4bhb12rcd13ifvqel0","pricing_plan_id":"cebpf4jnsgd1na2vs0mg"},{"bike_id":"9c5539c4-8d0e-4431-9f3e-438ec1bdd41b","system_id":"levelo_inurba_marseille","lat":43.29529,"lon":5.385581,"is_reserved":false,"is_disabled":false,"rental_uris":{"android":"levelo://app?vid=9c5539c4-8d0e-4431-9f3e-438ec1bdd41b","ios":"levelo://app?vid=9c5539c4-8d0e-4431-9f3e-438ec1bdd41b"},"vehicle_type_id":"4","last_reported":1722787721,"current_range_meters":1600,"station_id":"ce4bgih2rcd13ifvqba0","pricing_plan_id":"cebpf4jnsgd1na2vs0mg"},{"bike_id":"4519e435-7a7f-44c6-87e0-3fb742c88668","system_id":"levelo_inurba_marseille","lat":43.29529,"lon":5.385581,"is_reserved":false,"is_disabled":false,"rental_uris":{"android":"levelo://app?vid=4519e435-7a7f-44c6-87e0-3fb742c88668","ios":"levelo://app?vid=4519e435-7a7f-44c6-87e0-3fb742c88668"},"vehicle_type_id":"4","last_reported":1722787721,"current_range_meters":0,"station_id":"ce4bgih2rcd13ifvqba0","pricing_plan_id":"cebpf4jnsgd1na2vs0mg"},{"bike_id":"148ab108-4fa9-47e6-b032-1ead8fb3c213","system_id":"levelo_inurba_marseille","lat":43.29529,"lon":5.385581,"is_reserved":false,"is_disabled":false,"rental_uris":{"android":"levelo://app?vid=148ab108-4fa9-47e6-b032-1ead8fb3c213","ios":"levelo://app?vid=148ab108-4fa9-47e6-b032-1ead8fb3c213"},"vehicle_type_id":"4","last_reported":1722787721,"current_range_meters":29600,"station_id":"ce4bgih2rcd13ifvqba0","pricing_plan_id":"cebpf4jnsgd1na2vs0mg"},{"bike_id":"697c84b3-8e75-4fdf-93cd-188270a6907e","system_id":"levelo_inurba_marseille","lat":43.290779,"lon":5.371482,"is_reserved":false,"is_disabled":false,"rental_uris":{"android":"levelo://app?vid=697c84b3-8e75-4fdf-93cd-188270a6907e","ios":"levelo://app?vid=697c84b3-8e75-4fdf-93cd-188270a6907e"},"vehicle_type_id":"4","last_reported":1722787721,"current_range_meters":0,"station_id":"ce4bh5p2rcd13ifvqe4g","pricing_plan_id":"cebpf4jnsgd1na2vs0mg"},{"bike_id":"bf5012b4-0c64-4bcb-9e93-2ee34a9d47e6","system_id":"levelo_inurba_marseille","lat":43.289184,"lon":5.366408,"is_reserved":false,"is_disabled":false,"rental_uris":{"android":"levelo://app?vid=bf5012b4-0c64-4bcb-9e93-2ee34a9d47e6","ios":"levelo://app?vid=bf5012b4-0c64-4bcb-9e93-2ee34a9d47e6"},"vehicle_type_id":"4","last_reported":1722787721,"current_range_meters":4800,"station_id":"ce4bhap2rcd13ifvqek0","pricing_plan_id":"cebpf4jnsgd1na2vs0mg"},{"bike_id":"3b227b07-96cd-4ff8-be1e-74ddb89790f7","system_id":"levelo_inurba_marseille","lat":43.290104,"lon":5.356111,"is_reserved":false,"is_disabled":false,"rental_uris":{"android":"levelo://app?vid=3b227b07-96cd-4ff8-be1e-74ddb89790f7","ios":"levelo://app?vid=3b227b07-96cd-4ff8-be1e-74ddb89790f7"},"vehicle_type_id":"4","last_reported":1722787721,"current_range_meters":24000,"station_id":"ce4bhb92rcd13ifvqen0","pricing_plan_id":"cebpf4jnsgd1na2vs0mg"},{"bike_id":"3f6ae62c-7984-4671-944b-b0a837c6963c","system_id":"levelo_inurba_marseille","lat":43.29007,"lon":5.3561,"is_reserved":false,"is_disabled":false,"rental_uris":{"android":"levelo://app?vid=3f6ae62c-7984-4671-944b-b0a837c6963c","ios":"levelo://app?vid=3f6ae62c-7984-4671-944b-b0a837c6963c"},"vehicle_type_id":"4","last_reported":1722787721,"current_range_meters":0,"station_id":"ce4bhb92rcd13ifvqen0","pricing_plan_id":"cebpf4jnsgd1na2vs0mg"},{"bike_id":"6aa075bc-ff0e-46ad-82d8-bfd6bbf3c547","system_id":"levelo_inurba_marseille","lat":43.29005,"lon":5.35615,"is_reserved":false,"is_disabled":false,"rental_uris":{"android":"levelo://app?vid=6aa075bc-ff0e-46ad-82d8-bfd6bbf3c547","ios":"levelo://app?vid=6aa075bc-ff0e-46ad-82d8-bfd6bbf3c547"},"vehicle_type_id":"4","last_reported":1722787721,"current_range_meters":0,"station_id":"ce4bhb92rcd13ifvqen0","pricing_plan_id":"cebpf4jnsgd1na2vs0mg"},{"bike_id":"b8d41b70-8401-48d8-aa89-3d4f59032789","system_id":"levelo_inurba_marseille","lat":43.290104,"lon":5.356111,"is_reserved":false,"is_disabled":false,"rental_uris":{"android":"levelo://app?vid=b8d41b70-8401-48d8-aa89-3d4f59032789","ios":"levelo://app?vid=b8d41b70-8401-48d8-aa89-3d4f59032789"},"vehicle_type_id":"4","last_reported":1722787721,"current_range_meters":400,"station_id":"ce4bhb92rcd13ifvqen0","pricing_plan_id":"cebpf4jnsgd1na2vs0mg"},{"bike_id":"22a0484c-2f15-4146-b16c-89bd17d4935a","system_id":"levelo_inurba_marseille","lat":43.29023,"lon":5.3552,"is_reserved":false,"is_disabled":false,"rental_uris":{"android":"levelo://app?vid=22a0484c-2f15-4146-b16c-89bd17d4935a","ios":"levelo://app?vid=22a0484c-2f15-4146-b16c-89bd17d4935a"},"vehicle_type_id":"4","last_reported":1722787721,"current_range_meters":16800,"station_id":"","pricing_plan_id":"cebpf4jnsgd1na2vs0mg"},{"bike_id":"275e588e-68b0-4519-9437-c8a09737109c","system_id":"levelo_inurba_marseille","lat":43.290995,"lon":5.381361,"is_reserved":false,"is_disabled":false,"rental_uris":{"android":"levelo://app?vid=275e588e-68b0-4519-9437-c8a09737109c","ios":"levelo://app?vid=275e588e-68b0-4519-9437-c8a09737109c"},"vehicle_type_id":"4","last_reported":1722787721,"current_range_meters":8800,"station_id":"ce4bh512rcd13ifvqe2g","pricing_plan_id":"cebpf4jnsgd1na2vs0mg"},{"bike_id":"3adcc4f4-0352-47e2-8a2d-8daf60d8c7e3","system_id":"levelo_inurba_marseille","lat":43.290995,"lon":5.381361,"is_reserved":false,"is_disabled":false,"rental_uris":{"android":"levelo://app?vid=3adcc4f4-0352-47e2-8a2d-8daf60d8c7e3","ios":"levelo://app?vid=3adcc4f4-0352-47e2-8a2d-8daf60d8c7e3"},"vehicle_type_id":"4","last_reported":1722787721,"current_range_meters":24400,"station_id":"ce4bh512rcd13ifvqe2g","pricing_plan_id":"cebpf4jnsgd1na2vs0mg"},{"bike_id":"401333c1-5e31-45b4-8f78-e56082b87512","system_id":"levelo_inurba_marseille","lat":43.295169,"lon":5.390426,"is_reserved":false,"is_disabled":false,"rental_uris":{"android":"levelo://app?vid=401333c1-5e31-45b4-8f78-e56082b87512","ios":"levelo://app?vid=401333c1-5e31-45b4-8f78-e56082b87512"},"vehicle_type_id":"4","last_reported":1722787721,"current_range_meters":0,"station_id":"ce4bh3p2rcd13ifvqdp0","pricing_plan_id":"cebpf4jnsgd1na2vs0mg"},{"bike_id":"798da1e6-f492-490f-850c-68909ea14bf8","system_id":"levelo_inurba_marseille","lat":43.289741,"lon":5.378306,"is_reserved":false,"is_disabled":false,"rental_uris":{"android":"levelo://app?vid=798da1e6-f492-490f-850c-68909ea14bf8","ios":"levelo://app?vid=798da1e6-f492-490f-850c-68909ea14bf8"},"vehicle_type_id":"4","last_reported":1722787721,"current_range_meters":0,"station_id":"ce4bh9p2rcd13ifvqed0","pricing_plan_id":"cebpf4jnsgd1na2vs0mg"},{"bike_id":"ce577744-4304-4dbe-b046-91c2d7cedc13","system_id":"levelo_inurba_marseille","lat":43.330442,"lon":5.389148,"is_reserved":false,"is_disabled":false,"rental_uris":{"android":"levelo://app?vid=ce577744-4304-4dbe-b046-91c2d7cedc13","ios":"levelo://app?vid=ce577744-4304-4dbe-b046-91c2d7cedc13"},"vehicle_type_id":"4","last_reported":1722787721,"current_range_meters":14400,"station_id":"ce4bhr92rcd13ifvqhrg","pricing_plan_id":"cebpf4jnsgd1na2vs0mg"},{"bike_id":"66fa2af2-cfa7-4df6-a27a-f8034967c7ce","system_id":"levelo_inurba_marseille","lat":43.330442,"lon":5.389148,"is_reserved":false,"is_disabled":false,"rental_uris":{"android":"levelo://app?vid=66fa2af2-cfa7-4df6-a27a-f8034967c7ce","ios":"levelo://app?vid=66fa2af2-cfa7-4df6-a27a-f8034967c7ce"},"vehicle_type_id":"4","last_reported":1722787721,"current_range_meters":18000,"station_id":"ce4bhr92rcd13ifvqhrg","pricing_plan_id":"cebpf4jnsgd1na2vs0mg"},{"bike_id":"8701a7a3-90aa-405d-a88f-714add82bc0c","system_id":"levelo_inurba_marseille","lat":43.33027,"lon":5.39039,"is_reserved":false,"is_disabled":false,"rental_uris":{"android":"levelo://app?vid=8701a7a3-90aa-405d-a88f-714add82bc0c","ios":"levelo://app?vid=8701a7a3-90aa-405d-a88f-714add82bc0c"},"vehicle_type_id":"4","last_reported":1722787721,"current_range_meters":4800,"station_id":"ce4bhr92rcd13ifvqhrg","pricing_plan_id":"cebpf4jnsgd1na2vs0mg"},{"bike_id":"34f23af0-28c8-4e6a-b29f-f6b1ce76c98b","system_id":"levelo_inurba_marseille","lat":43.330442,"lon":5.389148,"is_reserved":false,"is_disabled":false,"rental_uris":{"android":"levelo://app?vid=34f23af0-28c8-4e6a-b29f-f6b1ce76c98b","ios":"levelo://app?vid=34f23af0-28c8-4e6a-b29f-f6b1ce76c98b"},"vehicle_type_id":"4","last_reported":1722787721,"current_range_meters":19200,"station_id":"ce4bhr92rcd13ifvqhrg","pricing_plan_id":"cebpf4jnsgd1na2vs0mg"},{"bike_id":"39d75fb0-b9bc-46b3-9a97-1efe3a73adc5","system_id":"levelo_inurba_marseille","lat":43.295169,"lon":5.390426,"is_reserved":false,"is_disabled":false,"rental_uris":{"android":"levelo://app?vid=39d75fb0-b9bc-46b3-9a97-1efe3a73adc5","ios":"levelo://app?vid=39d75fb0-b9bc-46b3-9a97-1efe3a73adc5"},"vehicle_type_id":"4","last_reported":1722787721,"current_range_meters":0,"station_id":"ce4bh3p2rcd13ifvqdp0","pricing_plan_id":"cebpf4jnsgd1na2vs0mg"},{"bike_id":"5354c2c3-78b1-4b29-acf1-85848b84b1dd","system_id":"levelo_inurba_marseille","lat":43.330315,"lon":5.390368,"is_reserved":false,"is_disabled":false,"rental_uris":{"android":"levelo://app?vid=5354c2c3-78b1-4b29-acf1-85848b84b1dd","ios":"levelo://app?vid=5354c2c3-78b1-4b29-acf1-85848b84b1dd"},"vehicle_type_id":"4","last_reported":1722787721,"current_range_meters":12800,"station_id":"ce4bhr92rcd13ifvqhrg","pricing_plan_id":"cebpf4jnsgd1na2vs0mg"},{"bike_id":"47b56111-9174-4eb6-9e94-0aa7b6a21312","system_id":"levelo_inurba_marseille","lat":43.330442,"lon":5.389148,"is_reserved":false,"is_disabled":false,"rental_uris":{"android":"levelo://app?vid=47b56111-9174-4eb6-9e94-0aa7b6a21312","ios":"levelo://app?vid=47b56111-9174-4eb6-9e94-0aa7b6a21312"},"vehicle_type_id":"4","last_reported":1722787721,"current_range_meters":31200,"station_id":"ce4bhr92rcd13ifvqhrg","pricing_plan_id":"cebpf4jnsgd1na2vs0mg"},{"bike_id":"00ba9ff1-38f6-449e-b44f-c2c7908aecd4","system_id":"levelo_inurba_marseille","lat":43.295169,"lon":5.390426,"is_reserved":false,"is_disabled":false,"rental_uris":{"android":"levelo://app?vid=00ba9ff1-38f6-449e-b44f-c2c7908aecd4","ios":"levelo://app?vid=00ba9ff1-38f6-449e-b44f-c2c7908aecd4"},"vehicle_type_id":"4","last_reported":1722787721,"current_range_meters":26800,"station_id":"ce4bh3p2rcd13ifvqdp0","pricing_plan_id":"cebpf4jnsgd1na2vs0mg"},{"bike_id":"42e6ec2f-67b9-4901-bfa0-f4213229333a","system_id":"levelo_inurba_marseille","lat":43.330442,"lon":5.389148,"is_reserved":false,"is_disabled":false,"rental_uris":{"android":"levelo://app?vid=42e6ec2f-67b9-4901-bfa0-f4213229333a","ios":"levelo://app?vid=42e6ec2f-67b9-4901-bfa0-f4213229333a"},"vehicle_type_id":"4","last_reported":1722787721,"current_range_meters":28400,"station_id":"ce4bhr92rcd13ifvqhrg","pricing_plan_id":"cebpf4jnsgd1na2vs0mg"},{"bike_id":"4cc6fece-7fe0-481f-a40a-942852f3197c","system_id":"levelo_inurba_marseille","lat":43.290231,"lon":5.381357,"is_reserved":false,"is_disabled":false,"rental_uris":{"android":"levelo://app?vid=4cc6fece-7fe0-481f-a40a-942852f3197c","ios":"levelo://app?vid=4cc6fece-7fe0-481f-a40a-942852f3197c"},"vehicle_type_id":"4","last_reported":1722787721,"current_range_meters":0,"station_id":"ce4bh4p2rcd13ifvqe1g","pricing_plan_id":"cebpf4jnsgd1na2vs0mg"},{"bike_id":"f4cdf6f8-59cc-4926-bbd3-bf830cd7e7b6","system_id":"levelo_inurba_marseille","lat":43.290094,"lon":5.381264,"is_reserved":false,"is_disabled":false,"rental_uris":{"android":"levelo://app?vid=f4cdf6f8-59cc-4926-bbd3-bf830cd7e7b6","ios":"levelo://app?vid=f4cdf6f8-59cc-4926-bbd3-bf830cd7e7b6"},"vehicle_type_id":"4","last_reported":1722787721,"current_range_meters":28400,"station_id":"ce4bh4p2rcd13ifvqe1g","pricing_plan_id":"cebpf4jnsgd1na2vs0mg"},{"bike_id":"55050e96-fbfd-4422-8b66-70f90a61c9c8","system_id":"levelo_inurba_marseille","lat":43.28856,"lon":5.358371,"is_reserved":false,"is_disabled":false,"rental_uris":{"android":"levelo://app?vid=55050e96-fbfd-4422-8b66-70f90a61c9c8","ios":"levelo://app?vid=55050e96-fbfd-4422-8b66-70f90a61c9c8"},"vehicle_type_id":"4","last_reported":1722787721,"current_range_meters":19200,"station_id":"ce4bhb12rcd13ifvqem0","pricing_plan_id":"cebpf4jnsgd1na2vs0mg"},{"bike_id":"23c5b3b4-fc18-4d35-836b-32ad40b6f9fe","system_id":"levelo_inurba_marseille","lat":43.3309,"lon":5.3907,"is_reserved":false,"is_disabled":false,"rental_uris":{"android":"levelo://app?vid=23c5b3b4-fc18-4d35-836b-32ad40b6f9fe","ios":"levelo://app?vid=23c5b3b4-fc18-4d35-836b-32ad40b6f9fe"},"vehicle_type_id":"4","last_reported":1722787721,"current_range_meters":14000,"station_id":"","pricing_plan_id":"cebpf4jnsgd1na2vs0mg"},{"bike_id":"93c0146d-2369-49f8-b0b6-33ab2b4e78b6","system_id":"levelo_inurba_marseille","lat":43.312609,"lon":5.401662,"is_reserved":false,"is_disabled":false,"rental_uris":{"android":"levelo://app?vid=93c0146d-2369-49f8-b0b6-33ab2b4e78b6","ios":"levelo://app?vid=93c0146d-2369-49f8-b0b6-33ab2b4e78b6"},"vehicle_type_id":"4","last_reported":1722787721,"current_range_meters":800,"station_id":"ce4bh092rcd13ifvqd30","pricing_plan_id":"cebpf4jnsgd1na2vs0mg"},{"bike_id":"6f044633-3688-4e83-af67-cf3db97c1cc7","system_id":"levelo_inurba_marseille","lat":43.337444,"lon":5.374475,"is_reserved":false,"is_disabled":false,"rental_uris":{"android":"levelo://app?vid=6f044633-3688-4e83-af67-cf3db97c1cc7","ios":"levelo://app?vid=6f044633-3688-4e83-af67-cf3db97c1cc7"},"vehicle_type_id":"3","last_reported":1722787721,"current_range_meters":24800,"station_id":"","pricing_plan_id":"cebpf4jnsgd1na2vs0mg"},{"bike_id":"a7171b32-cb75-4eda-ab91-3a07aabf492b","system_id":"levelo_inurba_marseille","lat":43.30936,"lon":5.40143,"is_reserved":false,"is_disabled":false,"rental_uris":{"android":"levelo://app?vid=a7171b32-cb75-4eda-ab91-3a07aabf492b","ios":"levelo://app?vid=a7171b32-cb75-4eda-ab91-3a07aabf492b"},"vehicle_type_id":"4","last_reported":1722787721,"current_range_meters":4400,"station_id":"ce4bgvp2rcd13ifvqct0","pricing_plan_id":"cebpf4jnsgd1na2vs0mg"},{"bike_id":"988d94ab-8f0d-4436-8506-ec0a37f360a4","system_id":"levelo_inurba_marseille","lat":43.309371,"lon":5.401449,"is_reserved":false,"is_disabled":false,"rental_uris":{"android":"levelo://app?vid=988d94ab-8f0d-4436-8506-ec0a37f360a4","ios":"levelo://app?vid=988d94ab-8f0d-4436-8506-ec0a37f360a4"},"vehicle_type_id":"4","last_reported":1722787721,"current_range_meters":6800,"station_id":"ce4bgvp2rcd13ifvqct0","pricing_plan_id":"cebpf4jnsgd1na2vs0mg"},{"bike_id":"711bbdb7-4aae-43f7-98bc-a00f02c02487","system_id":"levelo_inurba_marseille","lat":43.33752,"lon":5.37454,"is_reserved":false,"is_disabled":false,"rental_uris":{"android":"levelo://app?vid=711bbdb7-4aae-43f7-98bc-a00f02c02487","ios":"levelo://app?vid=711bbdb7-4aae-43f7-98bc-a00f02c02487"},"vehicle_type_id":"4","last_reported":1722787721,"current_range_meters":20000,"station_id":"","pricing_plan_id":"cebpf4jnsgd1na2vs0mg"},{"bike_id":"89031086-ecf3-4d27-8fa5-3132c58cd9d6","system_id":"levelo_inurba_marseille","lat":43.306412,"lon":5.401035,"is_reserved":false,"is_disabled":false,"rental_uris":{"android":"levelo://app?vid=89031086-ecf3-4d27-8fa5-3132c58cd9d6","ios":"levelo://app?vid=89031086-ecf3-4d27-8fa5-3132c58cd9d6"},"vehicle_type_id":"4","last_reported":1722787721,"current_range_meters":5600,"station_id":"ce4bh112rcd13ifvqda0","pricing_plan_id":"cebpf4jnsgd1na2vs0mg"},{"bike_id":"371dd30e-0d88-4546-8d31-aa19c6730a39","system_id":"levelo_inurba_marseille","lat":43.28727,"lon":5.36078,"is_reserved":false,"is_disabled":false,"rental_uris":{"android":"levelo://app?vid=371dd30e-0d88-4546-8d31-aa19c6730a39","ios":"levelo://app?vid=371dd30e-0d88-4546-8d31-aa19c6730a39"},"vehicle_type_id":"4","last_reported":1722787721,"current_range_meters":1200,"station_id":"cki0cbj6b192h4jlfktg","pricing_plan_id":"cebpf4jnsgd1na2vs0mg"},{"bike_id":"05368fb7-3647-4c40-8f46-ca31392c5ed4","system_id":"levelo_inurba_marseille","lat":43.28727,"lon":5.36078,"is_reserved":false,"is_disabled":false,"rental_uris":{"android":"levelo://app?vid=05368fb7-3647-4c40-8f46-ca31392c5ed4","ios":"levelo://app?vid=05368fb7-3647-4c40-8f46-ca31392c5ed4"},"vehicle_type_id":"4","last_reported":1722787721,"current_range_meters":1200,"station_id":"cki0cbj6b192h4jlfktg","pricing_plan_id":"cebpf4jnsgd1na2vs0mg"},{"bike_id":"05a9338c-5344-4a96-b0a5-a3dfbb5a70a8","system_id":"levelo_inurba_marseille","lat":43.301117,"lon":5.398795,"is_reserved":false,"is_disabled":false,"rental_uris":{"android":"levelo://app?vid=05a9338c-5344-4a96-b0a5-a3dfbb5a70a8","ios":"levelo://app?vid=05a9338c-5344-4a96-b0a5-a3dfbb5a70a8"},"vehicle_type_id":"4","last_reported":1722787721,"current_range_meters":1200,"station_id":"ce4bh0h2rcd13ifvqd40","pricing_plan_id":"cebpf4jnsgd1na2vs0mg"},{"bike_id":"c670af5e-6173-4613-8247-1a80348c8635","system_id":"levelo_inurba_marseille","lat":43.28722,"lon":5.36096,"is_reserved":false,"is_disabled":false,"rental_uris":{"android":"levelo://app?vid=c670af5e-6173-4613-8247-1a80348c8635","ios":"levelo://app?vid=c670af5e-6173-4613-8247-1a80348c8635"},"vehicle_type_id":"4","last_reported":1722787721,"current_range_meters":0,"station_id":"cki0cbj6b192h4jlfktg","pricing_plan_id":"cebpf4jnsgd1na2vs0mg"},{"bike_id":"f7cb59c9-fbeb-44e2-9865-6bd93c6d633f","system_id":"levelo_inurba_marseille","lat":43.286961,"lon":5.373785,"is_reserved":false,"is_disabled":false,"rental_uris":{"android":"levelo://app?vid=f7cb59c9-fbeb-44e2-9865-6bd93c6d633f","ios":"levelo://app?vid=f7cb59c9-fbeb-44e2-9865-6bd93c6d633f"},"vehicle_type_id":"4","last_reported":1722787721,"current_range_meters":6000,"station_id":"ce4bh3p2rcd13ifvqdq0","pricing_plan_id":"cebpf4jnsgd1na2vs0mg"},{"bike_id":"c95afabf-f9f9-4fdd-9909-a407cd107388","system_id":"levelo_inurba_marseille","lat":43.286961,"lon":5.373785,"is_reserved":false,"is_disabled":false,"rental_uris":{"android":"levelo://app?vid=c95afabf-f9f9-4fdd-9909-a407cd107388","ios":"levelo://app?vid=c95afabf-f9f9-4fdd-9909-a407cd107388"},"vehicle_type_id":"4","last_reported":1722787721,"current_range_meters":2800,"station_id":"ce4bh3p2rcd13ifvqdq0","pricing_plan_id":"cebpf4jnsgd1na2vs0mg"},{"bike_id":"2f9efa2b-78e4-4483-bc52-3253ccdef578","system_id":"levelo_inurba_marseille","lat":43.31501,"lon":5.402683,"is_reserved":false,"is_disabled":false,"rental_uris":{"android":"levelo://app?vid=2f9efa2b-78e4-4483-bc52-3253ccdef578","ios":"levelo://app?vid=2f9efa2b-78e4-4483-bc52-3253ccdef578"},"vehicle_type_id":"4","last_reported":1722787721,"current_range_meters":20000,"station_id":"","pricing_plan_id":"cebpf4jnsgd1na2vs0mg"},{"bike_id":"6c6c57fa-f7f0-42d4-97e5-bb84c70f2360","system_id":"levelo_inurba_marseille","lat":43.286961,"lon":5.373785,"is_reserved":false,"is_disabled":false,"rental_uris":{"android":"levelo://app?vid=6c6c57fa-f7f0-42d4-97e5-bb84c70f2360","ios":"levelo://app?vid=6c6c57fa-f7f0-42d4-97e5-bb84c70f2360"},"vehicle_type_id":"4","last_reported":1722787721,"current_range_meters":7200,"station_id":"ce4bh3p2rcd13ifvqdq0","pricing_plan_id":"cebpf4jnsgd1na2vs0mg"},{"bike_id":"d79862b1-5fd4-448e-b25a-704fdfeca943","system_id":"levelo_inurba_marseille","lat":43.298681,"lon":5.397225,"is_reserved":false,"is_disabled":false,"rental_uris":{"android":"levelo://app?vid=d79862b1-5fd4-448e-b25a-704fdfeca943","ios":"levelo://app?vid=d79862b1-5fd4-448e-b25a-704fdfeca943"},"vehicle_type_id":"4","last_reported":1722787721,"current_range_meters":16800,"station_id":"ce4bh0h2rcd13ifvqd50","pricing_plan_id":"cebpf4jnsgd1na2vs0mg"},{"bike_id":"a1e565be-14dd-4202-ae6a-b57cd3660721","system_id":"levelo_inurba_marseille","lat":43.286591,"lon":5.363346,"is_reserved":false,"is_disabled":false,"rental_uris":{"android":"levelo://app?vid=a1e565be-14dd-4202-ae6a-b57cd3660721","ios":"levelo://app?vid=a1e565be-14dd-4202-ae6a-b57cd3660721"},"vehicle_type_id":"4","last_reported":1722787721,"current_range_meters":27200,"station_id":"ce4bhah2rcd13ifvqej0","pricing_plan_id":"cebpf4jnsgd1na2vs0mg"},{"bike_id":"7e2a9137-7cd8-4be8-84f7-9a9e8757e68b","system_id":"levelo_inurba_marseille","lat":43.286961,"lon":5.373785,"is_reserved":false,"is_disabled":false,"rental_uris":{"android":"levelo://app?vid=7e2a9137-7cd8-4be8-84f7-9a9e8757e68b","ios":"levelo://app?vid=7e2a9137-7cd8-4be8-84f7-9a9e8757e68b"},"vehicle_type_id":"4","last_reported":1722787721,"current_range_meters":20400,"station_id":"ce4bh3p2rcd13ifvqdq0","pricing_plan_id":"cebpf4jnsgd1na2vs0mg"},{"bike_id":"72e9b735-2bf8-40e7-99cb-7b686bc1ef2f","system_id":"levelo_inurba_marseille","lat":43.286591,"lon":5.363346,"is_reserved":false,"is_disabled":false,"rental_uris":{"android":"levelo://app?vid=72e9b735-2bf8-40e7-99cb-7b686bc1ef2f","ios":"levelo://app?vid=72e9b735-2bf8-40e7-99cb-7b686bc1ef2f"},"vehicle_type_id":"4","last_reported":1722787721,"current_range_meters":12400,"station_id":"ce4bhah2rcd13ifvqej0","pricing_plan_id":"cebpf4jnsgd1na2vs0mg"},{"bike_id":"77ef0f14-7098-4065-8880-0ebc7851b359","system_id":"levelo_inurba_marseille","lat":43.286593,"lon":5.363346,"is_reserved":false,"is_disabled":false,"rental_uris":{"android":"levelo://app?vid=77ef0f14-7098-4065-8880-0ebc7851b359","ios":"levelo://app?vid=77ef0f14-7098-4065-8880-0ebc7851b359"},"vehicle_type_id":"4","last_reported":1722787721,"current_range_meters":12800,"station_id":"ce4bhah2rcd13ifvqej0","pricing_plan_id":"cebpf4jnsgd1na2vs0mg"},{"bike_id":"f49e5008-ed68-40fc-bdff-d012fee12f69","system_id":"levelo_inurba_marseille","lat":43.286961,"lon":5.373785,"is_reserved":false,"is_disabled":false,"rental_uris":{"android":"levelo://app?vid=f49e5008-ed68-40fc-bdff-d012fee12f69","ios":"levelo://app?vid=f49e5008-ed68-40fc-bdff-d012fee12f69"},"vehicle_type_id":"4","last_reported":1722787721,"current_range_meters":24400,"station_id":"ce4bh3p2rcd13ifvqdq0","pricing_plan_id":"cebpf4jnsgd1na2vs0mg"},{"bike_id":"0179765d-9318-4c77-8b6d-adfd51983e77","system_id":"levelo_inurba_marseille","lat":43.286961,"lon":5.373785,"is_reserved":false,"is_disabled":false,"rental_uris":{"android":"levelo://app?vid=0179765d-9318-4c77-8b6d-adfd51983e77","ios":"levelo://app?vid=0179765d-9318-4c77-8b6d-adfd51983e77"},"vehicle_type_id":"4","last_reported":1722787721,"current_range_meters":29600,"station_id":"ce4bh3p2rcd13ifvqdq0","pricing_plan_id":"cebpf4jnsgd1na2vs0mg"},{"bike_id":"1a91a567-c0ab-4516-b639-88192e360457","system_id":"levelo_inurba_marseille","lat":43.28926,"lon":5.38398,"is_reserved":false,"is_disabled":false,"rental_uris":{"android":"levelo://app?vid=1a91a567-c0ab-4516-b639-88192e360457","ios":"levelo://app?vid=1a91a567-c0ab-4516-b639-88192e360457"},"vehicle_type_id":"4","last_reported":1722787721,"current_range_meters":31200,"station_id":"ce4bh612rcd13ifvqe6g","pricing_plan_id":"cebpf4jnsgd1na2vs0mg"},{"bike_id":"fc4bc612-8249-4774-a22c-45452f6cc71f","system_id":"levelo_inurba_marseille","lat":43.289236,"lon":5.383959,"is_reserved":false,"is_disabled":false,"rental_uris":{"android":"levelo://app?vid=fc4bc612-8249-4774-a22c-45452f6cc71f","ios":"levelo://app?vid=fc4bc612-8249-4774-a22c-45452f6cc71f"},"vehicle_type_id":"4","last_reported":1722787721,"current_range_meters":28000,"station_id":"ce4bh612rcd13ifvqe6g","pricing_plan_id":"cebpf4jnsgd1na2vs0mg"},{"bike_id":"b47b9d94-1d0c-407f-b5df-5b5b5b704616","system_id":"levelo_inurba_marseille","lat":43.30255,"lon":5.40071,"is_reserved":false,"is_disabled":false,"rental_uris":{"android":"levelo://app?vid=b47b9d94-1d0c-407f-b5df-5b5b5b704616","ios":"levelo://app?vid=b47b9d94-1d0c-407f-b5df-5b5b5b704616"},"vehicle_type_id":"4","last_reported":1722787721,"current_range_meters":0,"station_id":"ce4bgvh2rcd13ifvqcs0","pricing_plan_id":"cebpf4jnsgd1na2vs0mg"},{"bike_id":"c741ddde-aaae-4a3d-acc7-fe1e855c0331","system_id":"levelo_inurba_marseille","lat":43.286039,"lon":5.370679,"is_reserved":false,"is_disabled":false,"rental_uris":{"android":"levelo://app?vid=c741ddde-aaae-4a3d-acc7-fe1e855c0331","ios":"levelo://app?vid=c741ddde-aaae-4a3d-acc7-fe1e855c0331"},"vehicle_type_id":"4","last_reported":1722787721,"current_range_meters":1600,"station_id":"ce4bht12rcd13ifvqi60","pricing_plan_id":"cebpf4jnsgd1na2vs0mg"},{"bike_id":"bfd836dd-765a-41f9-9f05-a1546dcf9ec1","system_id":"levelo_inurba_marseille","lat":43.287184,"lon":5.37937,"is_reserved":false,"is_disabled":false,"rental_uris":{"android":"levelo://app?vid=bfd836dd-765a-41f9-9f05-a1546dcf9ec1","ios":"levelo://app?vid=bfd836dd-765a-41f9-9f05-a1546dcf9ec1"},"vehicle_type_id":"4","last_reported":1722787721,"current_range_meters":15600,"station_id":"ce4bh9p2rcd13ifvqec0","pricing_plan_id":"cebpf4jnsgd1na2vs0mg"},{"bike_id":"9acd977c-714e-46db-ba2a-7ddae534699d","system_id":"levelo_inurba_marseille","lat":43.287184,"lon":5.37937,"is_reserved":false,"is_disabled":false,"rental_uris":{"android":"levelo://app?vid=9acd977c-714e-46db-ba2a-7ddae534699d","ios":"levelo://app?vid=9acd977c-714e-46db-ba2a-7ddae534699d"},"vehicle_type_id":"4","last_reported":1722787721,"current_range_meters":10400,"station_id":"ce4bh9p2rcd13ifvqec0","pricing_plan_id":"cebpf4jnsgd1na2vs0mg"},{"bike_id":"3279bf1c-76cd-4f4b-baa9-b45e6d84b7fc","system_id":"levelo_inurba_marseille","lat":43.287184,"lon":5.37937,"is_reserved":false,"is_disabled":false,"rental_uris":{"android":"levelo://app?vid=3279bf1c-76cd-4f4b-baa9-b45e6d84b7fc","ios":"levelo://app?vid=3279bf1c-76cd-4f4b-baa9-b45e6d84b7fc"},"vehicle_type_id":"4","last_reported":1722787721,"current_range_meters":6400,"station_id":"ce4bh9p2rcd13ifvqec0","pricing_plan_id":"cebpf4jnsgd1na2vs0mg"},{"bike_id":"01a43590-07eb-4fc1-a1c2-4caffc97b11f","system_id":"levelo_inurba_marseille","lat":43.287184,"lon":5.37937,"is_reserved":false,"is_disabled":false,"rental_uris":{"android":"levelo://app?vid=01a43590-07eb-4fc1-a1c2-4caffc97b11f","ios":"levelo://app?vid=01a43590-07eb-4fc1-a1c2-4caffc97b11f"},"vehicle_type_id":"4","last_reported":1722787721,"current_range_meters":3200,"station_id":"ce4bh9p2rcd13ifvqec0","pricing_plan_id":"cebpf4jnsgd1na2vs0mg"},{"bike_id":"206426ed-06bc-431c-bbbe-8f8ad8a53061","system_id":"levelo_inurba_marseille","lat":43.28716,"lon":5.3795,"is_reserved":false,"is_disabled":false,"rental_uris":{"android":"levelo://app?vid=206426ed-06bc-431c-bbbe-8f8ad8a53061","ios":"levelo://app?vid=206426ed-06bc-431c-bbbe-8f8ad8a53061"},"vehicle_type_id":"4","last_reported":1722787721,"current_range_meters":0,"station_id":"ce4bh9p2rcd13ifvqec0","pricing_plan_id":"cebpf4jnsgd1na2vs0mg"},{"bike_id":"7c66a3a5-9878-4c7b-9d4d-ae9b1ac7d5b8","system_id":"levelo_inurba_marseille","lat":43.286039,"lon":5.370679,"is_reserved":false,"is_disabled":false,"rental_uris":{"android":"levelo://app?vid=7c66a3a5-9878-4c7b-9d4d-ae9b1ac7d5b8","ios":"levelo://app?vid=7c66a3a5-9878-4c7b-9d4d-ae9b1ac7d5b8"},"vehicle_type_id":"4","last_reported":1722787721,"current_range_meters":15200,"station_id":"ce4bht12rcd13ifvqi60","pricing_plan_id":"cebpf4jnsgd1na2vs0mg"},{"bike_id":"d2657a59-67f9-4638-8642-d7f699625b92","system_id":"levelo_inurba_marseille","lat":43.285856,"lon":5.350771,"is_reserved":false,"is_disabled":false,"rental_uris":{"android":"levelo://app?vid=d2657a59-67f9-4638-8642-d7f699625b92","ios":"levelo://app?vid=d2657a59-67f9-4638-8642-d7f699625b92"},"vehicle_type_id":"4","last_reported":1722787721,"current_range_meters":0,"station_id":"ce4bhch2rcd13ifvqeug","pricing_plan_id":"cebpf4jnsgd1na2vs0mg"},{"bike_id":"a5fc563a-9f24-41a0-bd35-a31ebcf7428c","system_id":"levelo_inurba_marseille","lat":43.28619,"lon":5.35111,"is_reserved":false,"is_disabled":false,"rental_uris":{"android":"levelo://app?vid=a5fc563a-9f24-41a0-bd35-a31ebcf7428c","ios":"levelo://app?vid=a5fc563a-9f24-41a0-bd35-a31ebcf7428c"},"vehicle_type_id":"4","last_reported":1722787721,"current_range_meters":400,"station_id":"ce4bhch2rcd13ifvqeug","pricing_plan_id":"cebpf4jnsgd1na2vs0mg"},{"bike_id":"8c410018-3a89-4d57-875f-77fc8d4b9732","system_id":"levelo_inurba_marseille","lat":43.28619,"lon":5.35108,"is_reserved":false,"is_disabled":false,"rental_uris":{"android":"levelo://app?vid=8c410018-3a89-4d57-875f-77fc8d4b9732","ios":"levelo://app?vid=8c410018-3a89-4d57-875f-77fc8d4b9732"},"vehicle_type_id":"4","last_reported":1722787721,"current_range_meters":0,"station_id":"ce4bhch2rcd13ifvqeug","pricing_plan_id":"cebpf4jnsgd1na2vs0mg"},{"bike_id":"e53aef13-1c83-469c-9c6d-36c3d723a34f","system_id":"levelo_inurba_marseille","lat":43.28619,"lon":5.35108,"is_reserved":false,"is_disabled":false,"rental_uris":{"android":"levelo://app?vid=e53aef13-1c83-469c-9c6d-36c3d723a34f","ios":"levelo://app?vid=e53aef13-1c83-469c-9c6d-36c3d723a34f"},"vehicle_type_id":"4","last_reported":1722787721,"current_range_meters":0,"station_id":"ce4bhch2rcd13ifvqeug","pricing_plan_id":"cebpf4jnsgd1na2vs0mg"},{"bike_id":"91bd85fb-b6a1-4800-bf31-3186521ae5ff","system_id":"levelo_inurba_marseille","lat":43.28619,"lon":5.35106,"is_reserved":false,"is_disabled":false,"rental_uris":{"android":"levelo://app?vid=91bd85fb-b6a1-4800-bf31-3186521ae5ff","ios":"levelo://app?vid=91bd85fb-b6a1-4800-bf31-3186521ae5ff"},"vehicle_type_id":"4","last_reported":1722787721,"current_range_meters":0,"station_id":"ce4bhch2rcd13ifvqeug","pricing_plan_id":"cebpf4jnsgd1na2vs0mg"},{"bike_id":"e1ea24d0-c428-4123-9660-8ebf4f4b4db8","system_id":"levelo_inurba_marseille","lat":43.28617,"lon":5.35111,"is_reserved":false,"is_disabled":false,"rental_uris":{"android":"levelo://app?vid=e1ea24d0-c428-4123-9660-8ebf4f4b4db8","ios":"levelo://app?vid=e1ea24d0-c428-4123-9660-8ebf4f4b4db8"},"vehicle_type_id":"4","last_reported":1722787721,"current_range_meters":4000,"station_id":"ce4bhch2rcd13ifvqeug","pricing_plan_id":"cebpf4jnsgd1na2vs0mg"},{"bike_id":"2ebe492e-19ee-4bca-9a5b-e04c0cc5cbc7","system_id":"levelo_inurba_marseille","lat":43.28617,"lon":5.35109,"is_reserved":false,"is_disabled":false,"rental_uris":{"android":"levelo://app?vid=2ebe492e-19ee-4bca-9a5b-e04c0cc5cbc7","ios":"levelo://app?vid=2ebe492e-19ee-4bca-9a5b-e04c0cc5cbc7"},"vehicle_type_id":"4","last_reported":1722787721,"current_range_meters":0,"station_id":"ce4bhch2rcd13ifvqeug","pricing_plan_id":"cebpf4jnsgd1na2vs0mg"},{"bike_id":"48bf1e98-0ef4-478b-8457-530b1f851393","system_id":"levelo_inurba_marseille","lat":43.33208,"lon":5.39656,"is_reserved":false,"is_disabled":false,"rental_uris":{"android":"levelo://app?vid=48bf1e98-0ef4-478b-8457-530b1f851393","ios":"levelo://app?vid=48bf1e98-0ef4-478b-8457-530b1f851393"},"vehicle_type_id":"4","last_reported":1722787721,"current_range_meters":18800,"station_id":"","pricing_plan_id":"cebpf4jnsgd1na2vs0mg"},{"bike_id":"a641596f-d52c-4c0d-9706-20ff4c8bc560","system_id":"levelo_inurba_marseille","lat":43.28618,"lon":5.35104,"is_reserved":false,"is_disabled":false,"rental_uris":{"android":"levelo://app?vid=a641596f-d52c-4c0d-9706-20ff4c8bc560","ios":"levelo://app?vid=a641596f-d52c-4c0d-9706-20ff4c8bc560"},"vehicle_type_id":"4","last_reported":1722787721,"current_range_meters":0,"station_id":"ce4bhch2rcd13ifvqeug","pricing_plan_id":"cebpf4jnsgd1na2vs0mg"},{"bike_id":"ed39e6ea-734d-47d9-bb3a-654a3cc775d9","system_id":"levelo_inurba_marseille","lat":43.28615,"lon":5.35111,"is_reserved":false,"is_disabled":false,"rental_uris":{"android":"levelo://app?vid=ed39e6ea-734d-47d9-bb3a-654a3cc775d9","ios":"levelo://app?vid=ed39e6ea-734d-47d9-bb3a-654a3cc775d9"},"vehicle_type_id":"4","last_reported":1722787721,"current_range_meters":5200,"station_id":"ce4bhch2rcd13ifvqeug","pricing_plan_id":"cebpf4jnsgd1na2vs0mg"},{"bike_id":"021d26bf-e457-4d82-875d-2cdc1fefb6d9","system_id":"levelo_inurba_marseille","lat":43.28615,"lon":5.351058,"is_reserved":false,"is_disabled":false,"rental_uris":{"android":"levelo://app?vid=021d26bf-e457-4d82-875d-2cdc1fefb6d9","ios":"levelo://app?vid=021d26bf-e457-4d82-875d-2cdc1fefb6d9"},"vehicle_type_id":"4","last_reported":1722787721,"current_range_meters":8400,"station_id":"ce4bhch2rcd13ifvqeug","pricing_plan_id":"cebpf4jnsgd1na2vs0mg"},{"bike_id":"0a57afcd-ab74-4fc8-82eb-d5b4c1d9f175","system_id":"levelo_inurba_marseille","lat":43.28614,"lon":5.35106,"is_reserved":false,"is_disabled":false,"rental_uris":{"android":"levelo://app?vid=0a57afcd-ab74-4fc8-82eb-d5b4c1d9f175","ios":"levelo://app?vid=0a57afcd-ab74-4fc8-82eb-d5b4c1d9f175"},"vehicle_type_id":"4","last_reported":1722787721,"current_range_meters":0,"station_id":"ce4bhch2rcd13ifvqeug","pricing_plan_id":"cebpf4jnsgd1na2vs0mg"},{"bike_id":"9fc1bb4f-9552-4689-ae61-d6800c829cd2","system_id":"levelo_inurba_marseille","lat":43.283998,"lon":5.375062,"is_reserved":false,"is_disabled":false,"rental_uris":{"android":"levelo://app?vid=9fc1bb4f-9552-4689-ae61-d6800c829cd2","ios":"levelo://app?vid=9fc1bb4f-9552-4689-ae61-d6800c829cd2"},"vehicle_type_id":"4","last_reported":1722787721,"current_range_meters":0,"station_id":"ce4bh412rcd13ifvqds0","pricing_plan_id":"cebpf4jnsgd1na2vs0mg"},{"bike_id":"bcecd5e3-ef94-426f-9869-01fbf7b56821","system_id":"levelo_inurba_marseille","lat":43.283998,"lon":5.375062,"is_reserved":false,"is_disabled":false,"rental_uris":{"android":"levelo://app?vid=bcecd5e3-ef94-426f-9869-01fbf7b56821","ios":"levelo://app?vid=bcecd5e3-ef94-426f-9869-01fbf7b56821"},"vehicle_type_id":"4","last_reported":1722787721,"current_range_meters":5600,"station_id":"ce4bh412rcd13ifvqds0","pricing_plan_id":"cebpf4jnsgd1na2vs0mg"},{"bike_id":"71003959-ad2b-4eae-8163-9150d654c33f","system_id":"levelo_inurba_marseille","lat":43.283998,"lon":5.375062,"is_reserved":false,"is_disabled":false,"rental_uris":{"android":"levelo://app?vid=71003959-ad2b-4eae-8163-9150d654c33f","ios":"levelo://app?vid=71003959-ad2b-4eae-8163-9150d654c33f"},"vehicle_type_id":"4","last_reported":1722787721,"current_range_meters":0,"station_id":"ce4bh412rcd13ifvqds0","pricing_plan_id":"cebpf4jnsgd1na2vs0mg"},{"bike_id":"530c0030-2a11-442c-b5b5-c4bfbfc05abe","system_id":"levelo_inurba_marseille","lat":43.283998,"lon":5.375062,"is_reserved":false,"is_disabled":false,"rental_uris":{"android":"levelo://app?vid=530c0030-2a11-442c-b5b5-c4bfbfc05abe","ios":"levelo://app?vid=530c0030-2a11-442c-b5b5-c4bfbfc05abe"},"vehicle_type_id":"4","last_reported":1722787721,"current_range_meters":10400,"station_id":"ce4bh412rcd13ifvqds0","pricing_plan_id":"cebpf4jnsgd1na2vs0mg"},{"bike_id":"cfa9bf6a-750e-4b7d-834e-c71441e16fe7","system_id":"levelo_inurba_marseille","lat":43.295713,"lon":5.399639,"is_reserved":false,"is_disabled":false,"rental_uris":{"android":"levelo://app?vid=cfa9bf6a-750e-4b7d-834e-c71441e16fe7","ios":"levelo://app?vid=cfa9bf6a-750e-4b7d-834e-c71441e16fe7"},"vehicle_type_id":"4","last_reported":1722787721,"current_range_meters":7600,"station_id":"ce4bh312rcd13ifvqdj0","pricing_plan_id":"cebpf4jnsgd1na2vs0mg"},{"bike_id":"87534628-aae9-4a1a-9f08-9c59a0fee064","system_id":"levelo_inurba_marseille","lat":43.33717,"lon":5.391857,"is_reserved":false,"is_disabled":false,"rental_uris":{"android":"levelo://app?vid=87534628-aae9-4a1a-9f08-9c59a0fee064","ios":"levelo://app?vid=87534628-aae9-4a1a-9f08-9c59a0fee064"},"vehicle_type_id":"4","last_reported":1722787721,"current_range_meters":29200,"station_id":"ce4bhr92rcd13ifvqhsg","pricing_plan_id":"cebpf4jnsgd1na2vs0mg"},{"bike_id":"2d38b7c3-b3ba-41d8-833e-4a63852a23db","system_id":"levelo_inurba_marseille","lat":43.33717,"lon":5.391857,"is_reserved":false,"is_disabled":false,"rental_uris":{"android":"levelo://app?vid=2d38b7c3-b3ba-41d8-833e-4a63852a23db","ios":"levelo://app?vid=2d38b7c3-b3ba-41d8-833e-4a63852a23db"},"vehicle_type_id":"4","last_reported":1722787721,"current_range_meters":4800,"station_id":"ce4bhr92rcd13ifvqhsg","pricing_plan_id":"cebpf4jnsgd1na2vs0mg"},{"bike_id":"854023fb-a96e-4f74-9cc6-1bc542a21e49","system_id":"levelo_inurba_marseille","lat":43.33717,"lon":5.391857,"is_reserved":false,"is_disabled":false,"rental_uris":{"android":"levelo://app?vid=854023fb-a96e-4f74-9cc6-1bc542a21e49","ios":"levelo://app?vid=854023fb-a96e-4f74-9cc6-1bc542a21e49"},"vehicle_type_id":"4","last_reported":1722787721,"current_range_meters":3200,"station_id":"ce4bhr92rcd13ifvqhsg","pricing_plan_id":"cebpf4jnsgd1na2vs0mg"},{"bike_id":"65c0077d-fe02-4c25-9203-36f83fba9ddf","system_id":"levelo_inurba_marseille","lat":43.33717,"lon":5.391857,"is_reserved":false,"is_disabled":false,"rental_uris":{"android":"levelo://app?vid=65c0077d-fe02-4c25-9203-36f83fba9ddf","ios":"levelo://app?vid=65c0077d-fe02-4c25-9203-36f83fba9ddf"},"vehicle_type_id":"4","last_reported":1722787721,"current_range_meters":22400,"station_id":"ce4bhr92rcd13ifvqhsg","pricing_plan_id":"cebpf4jnsgd1na2vs0mg"},{"bike_id":"fcc95342-2a16-41f7-932f-3a14f9a57fb7","system_id":"levelo_inurba_marseille","lat":43.33717,"lon":5.391857,"is_reserved":false,"is_disabled":false,"rental_uris":{"android":"levelo://app?vid=fcc95342-2a16-41f7-932f-3a14f9a57fb7","ios":"levelo://app?vid=fcc95342-2a16-41f7-932f-3a14f9a57fb7"},"vehicle_type_id":"4","last_reported":1722787721,"current_range_meters":31200,"station_id":"ce4bhr92rcd13ifvqhsg","pricing_plan_id":"cebpf4jnsgd1na2vs0mg"},{"bike_id":"32c25458-5fa7-4f79-b3e6-8d89134cb384","system_id":"levelo_inurba_marseille","lat":43.33717,"lon":5.391857,"is_reserved":false,"is_disabled":false,"rental_uris":{"android":"levelo://app?vid=32c25458-5fa7-4f79-b3e6-8d89134cb384","ios":"levelo://app?vid=32c25458-5fa7-4f79-b3e6-8d89134cb384"},"vehicle_type_id":"4","last_reported":1722787721,"current_range_meters":0,"station_id":"ce4bhr92rcd13ifvqhsg","pricing_plan_id":"cebpf4jnsgd1na2vs0mg"},{"bike_id":"55086447-d8b1-4178-9170-053266dd3cc6","system_id":"levelo_inurba_marseille","lat":43.33717,"lon":5.391857,"is_reserved":false,"is_disabled":false,"rental_uris":{"android":"levelo://app?vid=55086447-d8b1-4178-9170-053266dd3cc6","ios":"levelo://app?vid=55086447-d8b1-4178-9170-053266dd3cc6"},"vehicle_type_id":"4","last_reported":1722787721,"current_range_meters":29600,"station_id":"ce4bhr92rcd13ifvqhsg","pricing_plan_id":"cebpf4jnsgd1na2vs0mg"},{"bike_id":"2d0e72a8-1d50-4da9-bceb-dd25b3848088","system_id":"levelo_inurba_marseille","lat":43.33717,"lon":5.391857,"is_reserved":false,"is_disabled":false,"rental_uris":{"android":"levelo://app?vid=2d0e72a8-1d50-4da9-bceb-dd25b3848088","ios":"levelo://app?vid=2d0e72a8-1d50-4da9-bceb-dd25b3848088"},"vehicle_type_id":"4","last_reported":1722787721,"current_range_meters":5200,"station_id":"ce4bhr92rcd13ifvqhsg","pricing_plan_id":"cebpf4jnsgd1na2vs0mg"},{"bike_id":"a317344f-ddb0-47f2-abd7-ae40e2b3855e","system_id":"levelo_inurba_marseille","lat":43.337168,"lon":5.391825,"is_reserved":false,"is_disabled":false,"rental_uris":{"android":"levelo://app?vid=a317344f-ddb0-47f2-abd7-ae40e2b3855e","ios":"levelo://app?vid=a317344f-ddb0-47f2-abd7-ae40e2b3855e"},"vehicle_type_id":"4","last_reported":1722787721,"current_range_meters":28400,"station_id":"ce4bhr92rcd13ifvqhsg","pricing_plan_id":"cebpf4jnsgd1na2vs0mg"},{"bike_id":"12f46083-add6-4a12-ae1c-bc11339a8f7c","system_id":"levelo_inurba_marseille","lat":43.337168,"lon":5.391825,"is_reserved":false,"is_disabled":false,"rental_uris":{"android":"levelo://app?vid=12f46083-add6-4a12-ae1c-bc11339a8f7c","ios":"levelo://app?vid=12f46083-add6-4a12-ae1c-bc11339a8f7c"},"vehicle_type_id":"4","last_reported":1722787721,"current_range_meters":30400,"station_id":"ce4bhr92rcd13ifvqhsg","pricing_plan_id":"cebpf4jnsgd1na2vs0mg"},{"bike_id":"0ef3ab7f-15ac-4d82-a6df-15363397882b","system_id":"levelo_inurba_marseille","lat":43.284787,"lon":5.384116,"is_reserved":false,"is_disabled":false,"rental_uris":{"android":"levelo://app?vid=0ef3ab7f-15ac-4d82-a6df-15363397882b","ios":"levelo://app?vid=0ef3ab7f-15ac-4d82-a6df-15363397882b"},"vehicle_type_id":"4","last_reported":1722787721,"current_range_meters":800,"station_id":"ce4bh512rcd13ifvqe3g","pricing_plan_id":"cebpf4jnsgd1na2vs0mg"},{"bike_id":"1414de91-dc3b-4d6d-ab62-3ab7465922d0","system_id":"levelo_inurba_marseille","lat":43.284793,"lon":5.384119,"is_reserved":false,"is_disabled":false,"rental_uris":{"android":"levelo://app?vid=1414de91-dc3b-4d6d-ab62-3ab7465922d0","ios":"levelo://app?vid=1414de91-dc3b-4d6d-ab62-3ab7465922d0"},"vehicle_type_id":"4","last_reported":1722787721,"current_range_meters":0,"station_id":"ce4bh512rcd13ifvqe3g","pricing_plan_id":"cebpf4jnsgd1na2vs0mg"},{"bike_id":"24c4e873-107b-42d5-9a6c-d6e43532cba7","system_id":"levelo_inurba_marseille","lat":43.288497,"lon":5.393089,"is_reserved":false,"is_disabled":false,"rental_uris":{"android":"levelo://app?vid=24c4e873-107b-42d5-9a6c-d6e43532cba7","ios":"levelo://app?vid=24c4e873-107b-42d5-9a6c-d6e43532cba7"},"vehicle_type_id":"4","last_reported":1722787721,"current_range_meters":0,"station_id":"ce4bh2p2rcd13ifvqdi0","pricing_plan_id":"cebpf4jnsgd1na2vs0mg"},{"bike_id":"99cf8893-9c29-474f-927f-16c117cb6258","system_id":"levelo_inurba_marseille","lat":43.288501,"lon":5.393087,"is_reserved":false,"is_disabled":false,"rental_uris":{"android":"levelo://app?vid=99cf8893-9c29-474f-927f-16c117cb6258","ios":"levelo://app?vid=99cf8893-9c29-474f-927f-16c117cb6258"},"vehicle_type_id":"4","last_reported":1722787721,"current_range_meters":400,"station_id":"ce4bh2p2rcd13ifvqdi0","pricing_plan_id":"cebpf4jnsgd1na2vs0mg"},{"bike_id":"987054ce-c0e7-41b3-a99d-0500bddd2c96","system_id":"levelo_inurba_marseille","lat":43.284776,"lon":5.385603,"is_reserved":false,"is_disabled":false,"rental_uris":{"android":"levelo://app?vid=987054ce-c0e7-41b3-a99d-0500bddd2c96","ios":"levelo://app?vid=987054ce-c0e7-41b3-a99d-0500bddd2c96"},"vehicle_type_id":"4","last_reported":1722787721,"current_range_meters":0,"station_id":"ce4bh8p2rcd13ifvqeb0","pricing_plan_id":"cebpf4jnsgd1na2vs0mg"},{"bike_id":"6c5e9300-2834-4cff-8964-f32faf060868","system_id":"levelo_inurba_marseille","lat":43.284817,"lon":5.385534,"is_reserved":false,"is_disabled":false,"rental_uris":{"android":"levelo://app?vid=6c5e9300-2834-4cff-8964-f32faf060868","ios":"levelo://app?vid=6c5e9300-2834-4cff-8964-f32faf060868"},"vehicle_type_id":"4","last_reported":1722787721,"current_range_meters":5600,"station_id":"","pricing_plan_id":"cebpf4jnsgd1na2vs0mg"},{"bike_id":"3abc67bb-2a44-4cef-b0db-038ff03b961e","system_id":"levelo_inurba_marseille","lat":43.284219,"lon":5.3497,"is_reserved":false,"is_disabled":false,"rental_uris":{"android":"levelo://app?vid=3abc67bb-2a44-4cef-b0db-038ff03b961e","ios":"levelo://app?vid=3abc67bb-2a44-4cef-b0db-038ff03b961e"},"vehicle_type_id":"4","last_reported":1722787721,"current_range_meters":31200,"station_id":"ce4bhbh2rcd13ifvqepg","pricing_plan_id":"cebpf4jnsgd1na2vs0mg"},{"bike_id":"f2eacef8-8557-4344-99b2-2d8eef503b64","system_id":"levelo_inurba_marseille","lat":43.284219,"lon":5.3497,"is_reserved":false,"is_disabled":false,"rental_uris":{"android":"levelo://app?vid=f2eacef8-8557-4344-99b2-2d8eef503b64","ios":"levelo://app?vid=f2eacef8-8557-4344-99b2-2d8eef503b64"},"vehicle_type_id":"4","last_reported":1722787721,"current_range_meters":31200,"station_id":"ce4bhbh2rcd13ifvqepg","pricing_plan_id":"cebpf4jnsgd1na2vs0mg"},{"bike_id":"720526fc-263d-4d3e-9894-504868d4857c","system_id":"levelo_inurba_marseille","lat":43.282676,"lon":5.356015,"is_reserved":false,"is_disabled":false,"rental_uris":{"android":"levelo://app?vid=720526fc-263d-4d3e-9894-504868d4857c","ios":"levelo://app?vid=720526fc-263d-4d3e-9894-504868d4857c"},"vehicle_type_id":"4","last_reported":1722787721,"current_range_meters":6800,"station_id":"","pricing_plan_id":"cebpf4jnsgd1na2vs0mg"},{"bike_id":"0ead64fc-c7d4-48e6-86d8-b2ac23799292","system_id":"levelo_inurba_marseille","lat":43.284217,"lon":5.349697,"is_reserved":false,"is_disabled":false,"rental_uris":{"android":"levelo://app?vid=0ead64fc-c7d4-48e6-86d8-b2ac23799292","ios":"levelo://app?vid=0ead64fc-c7d4-48e6-86d8-b2ac23799292"},"vehicle_type_id":"4","last_reported":1722787721,"current_range_meters":31200,"station_id":"ce4bhbh2rcd13ifvqepg","pricing_plan_id":"cebpf4jnsgd1na2vs0mg"},{"bike_id":"26f2217e-67d1-4dfb-8836-11220d4f85c4","system_id":"levelo_inurba_marseille","lat":43.33495,"lon":5.39794,"is_reserved":false,"is_disabled":false,"rental_uris":{"android":"levelo://app?vid=26f2217e-67d1-4dfb-8836-11220d4f85c4","ios":"levelo://app?vid=26f2217e-67d1-4dfb-8836-11220d4f85c4"},"vehicle_type_id":"4","last_reported":1722787721,"current_range_meters":12400,"station_id":"","pricing_plan_id":"cebpf4jnsgd1na2vs0mg"},{"bike_id":"c802ec6b-d032-4c35-b9fc-33b6b29fea86","system_id":"levelo_inurba_marseille","lat":43.342616,"lon":5.382403,"is_reserved":false,"is_disabled":false,"rental_uris":{"android":"levelo://app?vid=c802ec6b-d032-4c35-b9fc-33b6b29fea86","ios":"levelo://app?vid=c802ec6b-d032-4c35-b9fc-33b6b29fea86"},"vehicle_type_id":"4","last_reported":1722787721,"current_range_meters":3200,"station_id":"","pricing_plan_id":"cebpf4jnsgd1na2vs0mg"},{"bike_id":"f1ec26fa-4e5c-4af0-867b-24d1fa06aea4","system_id":"levelo_inurba_marseille","lat":43.292724,"lon":5.401131,"is_reserved":false,"is_disabled":false,"rental_uris":{"android":"levelo://app?vid=f1ec26fa-4e5c-4af0-867b-24d1fa06aea4","ios":"levelo://app?vid=f1ec26fa-4e5c-4af0-867b-24d1fa06aea4"},"vehicle_type_id":"4","last_reported":1722787721,"current_range_meters":15200,"station_id":"ce4bh312rcd13ifvqdk0","pricing_plan_id":"cebpf4jnsgd1na2vs0mg"},{"bike_id":"56c38a0b-c6fb-49ac-b974-a47303bd33ce","system_id":"levelo_inurba_marseille","lat":43.28285,"lon":5.35084,"is_reserved":false,"is_disabled":false,"rental_uris":{"android":"levelo://app?vid=56c38a0b-c6fb-49ac-b974-a47303bd33ce","ios":"levelo://app?vid=56c38a0b-c6fb-49ac-b974-a47303bd33ce"},"vehicle_type_id":"4","last_reported":1722787721,"current_range_meters":31200,"station_id":"ce4bhbp2rcd13ifvqerg","pricing_plan_id":"cebpf4jnsgd1na2vs0mg"},{"bike_id":"695fe239-725b-46da-be96-17c5441592e3","system_id":"levelo_inurba_marseille","lat":43.28283,"lon":5.35074,"is_reserved":false,"is_disabled":false,"rental_uris":{"android":"levelo://app?vid=695fe239-725b-46da-be96-17c5441592e3","ios":"levelo://app?vid=695fe239-725b-46da-be96-17c5441592e3"},"vehicle_type_id":"4","last_reported":1722787721,"current_range_meters":27200,"station_id":"ce4bhbp2rcd13ifvqerg","pricing_plan_id":"cebpf4jnsgd1na2vs0mg"},{"bike_id":"05161dc4-e968-456e-8205-e8a8f70776eb","system_id":"levelo_inurba_marseille","lat":43.28279,"lon":5.35086,"is_reserved":false,"is_disabled":false,"rental_uris":{"android":"levelo://app?vid=05161dc4-e968-456e-8205-e8a8f70776eb","ios":"levelo://app?vid=05161dc4-e968-456e-8205-e8a8f70776eb"},"vehicle_type_id":"4","last_reported":1722787721,"current_range_meters":30000,"station_id":"ce4bhbp2rcd13ifvqerg","pricing_plan_id":"cebpf4jnsgd1na2vs0mg"},{"bike_id":"20904b5f-0268-4db7-9436-1845190fc4f4","system_id":"levelo_inurba_marseille","lat":43.28283,"lon":5.35055,"is_reserved":false,"is_disabled":false,"rental_uris":{"android":"levelo://app?vid=20904b5f-0268-4db7-9436-1845190fc4f4","ios":"levelo://app?vid=20904b5f-0268-4db7-9436-1845190fc4f4"},"vehicle_type_id":"4","last_reported":1722787721,"current_range_meters":13200,"station_id":"ce4bhbp2rcd13ifvqerg","pricing_plan_id":"cebpf4jnsgd1na2vs0mg"},{"bike_id":"c76a3e9d-70a6-4702-ab52-b3de711e360c","system_id":"levelo_inurba_marseille","lat":43.28274,"lon":5.35084,"is_reserved":false,"is_disabled":false,"rental_uris":{"android":"levelo://app?vid=c76a3e9d-70a6-4702-ab52-b3de711e360c","ios":"levelo://app?vid=c76a3e9d-70a6-4702-ab52-b3de711e360c"},"vehicle_type_id":"4","last_reported":1722787721,"current_range_meters":31200,"station_id":"ce4bhbp2rcd13ifvqerg","pricing_plan_id":"cebpf4jnsgd1na2vs0mg"},{"bike_id":"0b546db8-0e28-4099-acae-ef6bd98ea598","system_id":"levelo_inurba_marseille","lat":43.28277,"lon":5.35073,"is_reserved":false,"is_disabled":false,"rental_uris":{"android":"levelo://app?vid=0b546db8-0e28-4099-acae-ef6bd98ea598","ios":"levelo://app?vid=0b546db8-0e28-4099-acae-ef6bd98ea598"},"vehicle_type_id":"4","last_reported":1722787721,"current_range_meters":0,"station_id":"ce4bhbp2rcd13ifvqerg","pricing_plan_id":"cebpf4jnsgd1na2vs0mg"},{"bike_id":"414a6779-cac7-48d5-ab27-309935a60a44","system_id":"levelo_inurba_marseille","lat":43.28275,"lon":5.35073,"is_reserved":false,"is_disabled":false,"rental_uris":{"android":"levelo://app?vid=414a6779-cac7-48d5-ab27-309935a60a44","ios":"levelo://app?vid=414a6779-cac7-48d5-ab27-309935a60a44"},"vehicle_type_id":"4","last_reported":1722787721,"current_range_meters":31200,"station_id":"ce4bhbp2rcd13ifvqerg","pricing_plan_id":"cebpf4jnsgd1na2vs0mg"},{"bike_id":"330b0ce1-dfdd-4f59-9bac-949d3d853c22","system_id":"levelo_inurba_marseille","lat":43.28275,"lon":5.35073,"is_reserved":false,"is_disabled":false,"rental_uris":{"android":"levelo://app?vid=330b0ce1-dfdd-4f59-9bac-949d3d853c22","ios":"levelo://app?vid=330b0ce1-dfdd-4f59-9bac-949d3d853c22"},"vehicle_type_id":"4","last_reported":1722787721,"current_range_meters":24800,"station_id":"ce4bhbp2rcd13ifvqerg","pricing_plan_id":"cebpf4jnsgd1na2vs0mg"},{"bike_id":"da4cefc2-c7a7-49e4-8cb5-c814560f802d","system_id":"levelo_inurba_marseille","lat":43.282744,"lon":5.350533,"is_reserved":false,"is_disabled":false,"rental_uris":{"android":"levelo://app?vid=da4cefc2-c7a7-49e4-8cb5-c814560f802d","ios":"levelo://app?vid=da4cefc2-c7a7-49e4-8cb5-c814560f802d"},"vehicle_type_id":"4","last_reported":1722787721,"current_range_meters":0,"station_id":"ce4bhbp2rcd13ifvqerg","pricing_plan_id":"cebpf4jnsgd1na2vs0mg"},{"bike_id":"3f1e6fcb-1b93-4c24-837c-3252105f4c50","system_id":"levelo_inurba_marseille","lat":43.28274,"lon":5.35073,"is_reserved":false,"is_disabled":false,"rental_uris":{"android":"levelo://app?vid=3f1e6fcb-1b93-4c24-837c-3252105f4c50","ios":"levelo://app?vid=3f1e6fcb-1b93-4c24-837c-3252105f4c50"},"vehicle_type_id":"4","last_reported":1722787721,"current_range_meters":0,"station_id":"ce4bhbp2rcd13ifvqerg","pricing_plan_id":"cebpf4jnsgd1na2vs0mg"},{"bike_id":"c3626234-c595-4254-8111-eb5507c645c8","system_id":"levelo_inurba_marseille","lat":43.28276,"lon":5.35066,"is_reserved":false,"is_disabled":false,"rental_uris":{"android":"levelo://app?vid=c3626234-c595-4254-8111-eb5507c645c8","ios":"levelo://app?vid=c3626234-c595-4254-8111-eb5507c645c8"},"vehicle_type_id":"4","last_reported":1722787721,"current_range_meters":0,"station_id":"ce4bhbp2rcd13ifvqerg","pricing_plan_id":"cebpf4jnsgd1na2vs0mg"},{"bike_id":"f1c91332-3d32-46f4-8aac-aca204dd8b3e","system_id":"levelo_inurba_marseille","lat":43.28274,"lon":5.35061,"is_reserved":false,"is_disabled":false,"rental_uris":{"android":"levelo://app?vid=f1c91332-3d32-46f4-8aac-aca204dd8b3e","ios":"levelo://app?vid=f1c91332-3d32-46f4-8aac-aca204dd8b3e"},"vehicle_type_id":"4","last_reported":1722787721,"current_range_meters":18400,"station_id":"ce4bhbp2rcd13ifvqerg","pricing_plan_id":"cebpf4jnsgd1na2vs0mg"},{"bike_id":"28844b66-7cfa-4a2c-8f37-b970ed514363","system_id":"levelo_inurba_marseille","lat":43.2827,"lon":5.35071,"is_reserved":false,"is_disabled":false,"rental_uris":{"android":"levelo://app?vid=28844b66-7cfa-4a2c-8f37-b970ed514363","ios":"levelo://app?vid=28844b66-7cfa-4a2c-8f37-b970ed514363"},"vehicle_type_id":"4","last_reported":1722787721,"current_range_meters":0,"station_id":"ce4bhbp2rcd13ifvqerg","pricing_plan_id":"cebpf4jnsgd1na2vs0mg"},{"bike_id":"7a112408-41b0-4989-9578-0e1cf85960ed","system_id":"levelo_inurba_marseille","lat":43.28268,"lon":5.35075,"is_reserved":false,"is_disabled":false,"rental_uris":{"android":"levelo://app?vid=7a112408-41b0-4989-9578-0e1cf85960ed","ios":"levelo://app?vid=7a112408-41b0-4989-9578-0e1cf85960ed"},"vehicle_type_id":"4","last_reported":1722787721,"current_range_meters":0,"station_id":"ce4bhbp2rcd13ifvqerg","pricing_plan_id":"cebpf4jnsgd1na2vs0mg"},{"bike_id":"9a93f12e-e2ef-425e-9cb9-7f3eaf0efc5c","system_id":"levelo_inurba_marseille","lat":43.28272,"lon":5.3506,"is_reserved":false,"is_disabled":false,"rental_uris":{"android":"levelo://app?vid=9a93f12e-e2ef-425e-9cb9-7f3eaf0efc5c","ios":"levelo://app?vid=9a93f12e-e2ef-425e-9cb9-7f3eaf0efc5c"},"vehicle_type_id":"4","last_reported":1722787721,"current_range_meters":0,"station_id":"ce4bhbp2rcd13ifvqerg","pricing_plan_id":"cebpf4jnsgd1na2vs0mg"},{"bike_id":"12877e4d-78d6-44d2-9192-6bdaea696c5f","system_id":"levelo_inurba_marseille","lat":43.28273,"lon":5.35054,"is_reserved":false,"is_disabled":false,"rental_uris":{"android":"levelo://app?vid=12877e4d-78d6-44d2-9192-6bdaea696c5f","ios":"levelo://app?vid=12877e4d-78d6-44d2-9192-6bdaea696c5f"},"vehicle_type_id":"4","last_reported":1722787721,"current_range_meters":0,"station_id":"ce4bhbp2rcd13ifvqerg","pricing_plan_id":"cebpf4jnsgd1na2vs0mg"},{"bike_id":"3ad344fc-0332-494f-91a5-3053e483c445","system_id":"levelo_inurba_marseille","lat":43.28266,"lon":5.350743,"is_reserved":false,"is_disabled":false,"rental_uris":{"android":"levelo://app?vid=3ad344fc-0332-494f-91a5-3053e483c445","ios":"levelo://app?vid=3ad344fc-0332-494f-91a5-3053e483c445"},"vehicle_type_id":"4","last_reported":1722787721,"current_range_meters":1600,"station_id":"ce4bhbp2rcd13ifvqerg","pricing_plan_id":"cebpf4jnsgd1na2vs0mg"},{"bike_id":"3bbe14e7-2efe-4280-84da-e2d1021b9ec7","system_id":"levelo_inurba_marseille","lat":43.28268,"lon":5.35066,"is_reserved":false,"is_disabled":false,"rental_uris":{"android":"levelo://app?vid=3bbe14e7-2efe-4280-84da-e2d1021b9ec7","ios":"levelo://app?vid=3bbe14e7-2efe-4280-84da-e2d1021b9ec7"},