{"last_updated":1732875054,"ttl":60,"version":"2.2","data":{"bikes":[{"bike_id":"d9d62a26-96dc-4c6c-a7d5-2ff006586fce","system_id":"levelo_inurba_marseille","lat":43.30151,"lon":5.38087,"is_reserved":false,"is_disabled":false,"rental_uris":{"android":"levelo://app?vid=d9d62a26-96dc-4c6c-a7d5-2ff006586fce","ios":"levelo://app?vid=d9d62a26-96dc-4c6c-a7d5-2ff006586fce"},"vehicle_type_id":"4","last_reported":1732875054,"current_range_meters":30000,"station_id":"ce4bgjp2rcd13ifvqbh0","pricing_plan_id":"cebpf4jnsgd1na2vs0mg"},{"bike_id":"b856c8b4-412d-4c25-bdd4-e6b29aed04cb","system_id":"levelo_inurba_marseille","lat":43.22932,"lon":5.35378,"is_reserved":false,"is_disabled":false,"rental_uris":{"android":"levelo://app?vid=b856c8b4-412d-4c25-bdd4-e6b29aed04cb","ios":"levelo://app?vid=b856c8b4-412d-4c25-bdd4-e6b29aed04cb"},"vehicle_type_id":"4","last_reported":1732875054,"current_range_meters":38800,"station_id":"cpo3532slgdg3j2ikp40","pricing_plan_id":"cebpf4jnsgd1na2vs0mg"},{"bike_id":"7109ea62-6d5b-402b-b9dc-fce7231e51b9","system_id":"levelo_inurba_marseille","lat":43.30094,"lon":5.39083,"is_reserved":false,"is_disabled":false,"rental_uris":{"android":"levelo://app?vid=7109ea62-6d5b-402b-b9dc-fce7231e51b9","ios":"levelo://app?vid=7109ea62-6d5b-402b-b9dc-fce7231e51b9"},"vehicle_type_id":"4","last_reported":1732875054,"current_range_meters":33200,"station_id":"ce4bh192rcd13ifvqdb0","pricing_plan_id":"cebpf4jnsgd1na2vs0mg"},{"bike_id":"853d5723-16f0-43d0-ab03-754fcdcf89b9","system_id":"levelo_inurba_marseille","lat":43.23146,"lon":5.43707,"is_reserved":false,"is_disabled":false,"rental_uris":{"android":"levelo://app?vid=853d5723-16f0-43d0-ab03-754fcdcf89b9","ios":"levelo://app?vid=853d5723-16f0-43d0-ab03-754fcdcf89b9"},"vehicle_type_id":"4","last_reported":1732875054,"current_range_meters":21600,"station_id":"ce4bhmp2rcd13ifvqgog","pricing_plan_id":"cebpf4jnsgd1na2vs0mg"},{"bike_id":"bbce82b0-3247-4637-af61-611193fafd85","system_id":"levelo_inurba_marseille","lat":43.29712,"lon":5.37693,"is_reserved":false,"is_disabled":false,"rental_uris":{"android":"levelo://app?vid=bbce82b0-3247-4637-af61-611193fafd85","ios":"levelo://app?vid=bbce82b0-3247-4637-af61-611193fafd85"},"vehicle_type_id":"4","last_reported":1732875054,"current_range_meters":11600,"station_id":"ce4bgkh2rcd13ifvqbl0","pricing_plan_id":"cebpf4jnsgd1na2vs0mg"},{"bike_id":"fac63031-3de9-41dc-941a-a395646bc4e4","system_id":"levelo_inurba_marseille","lat":43.2557,"lon":5.38235,"is_reserved":false,"is_disabled":false,"rental_uris":{"android":"levelo://app?vid=fac63031-3de9-41dc-941a-a395646bc4e4","ios":"levelo://app?vid=fac63031-3de9-41dc-941a-a395646bc4e4"},"vehicle_type_id":"4","last_reported":1732875054,"current_range_meters":6800,"station_id":"ce4bhih2rcd13ifvqfs0","pricing_plan_id":"cebpf4jnsgd1na2vs0mg"},{"bike_id":"3d9237e1-11a2-4f25-99bf-fe83b0a2ddd6","system_id":"levelo_inurba_marseille","lat":43.24065,"lon":5.37771,"is_reserved":false,"is_disabled":false,"rental_uris":{"android":"levelo://app?vid=3d9237e1-11a2-4f25-99bf-fe83b0a2ddd6","ios":"levelo://app?vid=3d9237e1-11a2-4f25-99bf-fe83b0a2ddd6"},"vehicle_type_id":"4","last_reported":1732875054,"current_range_meters":35600,"station_id":"ce4bhnp2rcd13ifvqgvg","pricing_plan_id":"cebpf4jnsgd1na2vs0mg"},{"bike_id":"ae00d0dd-84cf-4cde-8a76-ec855ac54bc8","system_id":"levelo_inurba_marseille","lat":43.28932,"lon":5.36642,"is_reserved":false,"is_disabled":false,"rental_uris":{"android":"levelo://app?vid=ae00d0dd-84cf-4cde-8a76-ec855ac54bc8","ios":"levelo://app?vid=ae00d0dd-84cf-4cde-8a76-ec855ac54bc8"},"vehicle_type_id":"4","last_reported":1732875054,"current_range_meters":20800,"station_id":"ce4bhap2rcd13ifvqek0","pricing_plan_id":"cebpf4jnsgd1na2vs0mg"},{"bike_id":"81f67ff6-f4d9-4554-be8e-c59f82fb8ee1","system_id":"levelo_inurba_marseille","lat":43.2867,"lon":5.38656,"is_reserved":false,"is_disabled":false,"rental_uris":{"android":"levelo://app?vid=81f67ff6-f4d9-4554-be8e-c59f82fb8ee1","ios":"levelo://app?vid=81f67ff6-f4d9-4554-be8e-c59f82fb8ee1"},"vehicle_type_id":"4","last_reported":1732875054,"current_range_meters":36400,"station_id":"ce4bh492rcd13ifvqdug","pricing_plan_id":"cebpf4jnsgd1na2vs0mg"},{"bike_id":"7121f4be-3d3e-48f1-a37e-6346aa40858b","system_id":"levelo_inurba_marseille","lat":43.30526,"lon":5.36532,"is_reserved":false,"is_disabled":false,"rental_uris":{"android":"levelo://app?vid=7121f4be-3d3e-48f1-a37e-6346aa40858b","ios":"levelo://app?vid=7121f4be-3d3e-48f1-a37e-6346aa40858b"},"vehicle_type_id":"4","last_reported":1732875054,"current_range_meters":38800,"station_id":"ce4bgs12rcd13ifvqcag","pricing_plan_id":"cebpf4jnsgd1na2vs0mg"},{"bike_id":"ce15a521-8a1d-47b7-92c8-091ca367d00e","system_id":"levelo_inurba_marseille","lat":43.33749,"lon":5.37439,"is_reserved":false,"is_disabled":false,"rental_uris":{"android":"levelo://app?vid=ce15a521-8a1d-47b7-92c8-091ca367d00e","ios":"levelo://app?vid=ce15a521-8a1d-47b7-92c8-091ca367d00e"},"vehicle_type_id":"4","last_reported":1732875054,"current_range_meters":33600,"station_id":"","pricing_plan_id":"cebpf4jnsgd1na2vs0mg"},{"bike_id":"41a5c9b5-63d5-44d4-93bf-d7d6c45d0c1f","system_id":"levelo_inurba_marseille","lat":43.26557,"lon":5.39017,"is_reserved":false,"is_disabled":false,"rental_uris":{"android":"levelo://app?vid=41a5c9b5-63d5-44d4-93bf-d7d6c45d0c1f","ios":"levelo://app?vid=41a5c9b5-63d5-44d4-93bf-d7d6c45d0c1f"},"vehicle_type_id":"4","last_reported":1732875054,"current_range_meters":29600,"station_id":"ce4bhe12rcd13ifvqf30","pricing_plan_id":"cebpf4jnsgd1na2vs0mg"},{"bike_id":"13a9c207-8dfd-4694-9ec3-31e33bea7860","system_id":"levelo_inurba_marseille","lat":43.32053,"lon":5.41546,"is_reserved":false,"is_disabled":false,"rental_uris":{"android":"levelo://app?vid=13a9c207-8dfd-4694-9ec3-31e33bea7860","ios":"levelo://app?vid=13a9c207-8dfd-4694-9ec3-31e33bea7860"},"vehicle_type_id":"4","last_reported":1732875054,"current_range_meters":38800,"station_id":"ce4bhq92rcd13ifvqhkg","pricing_plan_id":"cebpf4jnsgd1na2vs0mg"},{"bike_id":"db3c106a-5fc0-44ad-bed3-25b68013685f","system_id":"levelo_inurba_marseille","lat":43.27177,"lon":5.41,"is_reserved":false,"is_disabled":false,"rental_uris":{"android":"levelo://app?vid=db3c106a-5fc0-44ad-bed3-25b68013685f","ios":"levelo://app?vid=db3c106a-5fc0-44ad-bed3-25b68013685f"},"vehicle_type_id":"4","last_reported":1732875054,"current_range_meters":22400,"station_id":"ce4bhl12rcd13ifvqgf0","pricing_plan_id":"cebpf4jnsgd1na2vs0mg"},{"bike_id":"c1140098-11c0-451f-bd3e-018f4869cdda","system_id":"levelo_inurba_marseille","lat":43.2586,"lon":5.39896,"is_reserved":false,"is_disabled":false,"rental_uris":{"android":"levelo://app?vid=c1140098-11c0-451f-bd3e-018f4869cdda","ios":"levelo://app?vid=c1140098-11c0-451f-bd3e-018f4869cdda"},"vehicle_type_id":"4","last_reported":1732875054,"current_range_meters":38800,"station_id":"ce4bhl92rcd13ifvqghg","pricing_plan_id":"cebpf4jnsgd1na2vs0mg"},{"bike_id":"ba2d1a62-e632-4169-9a28-b83f6acba689","system_id":"levelo_inurba_marseille","lat":43.26328,"lon":5.40459,"is_reserved":false,"is_disabled":true,"rental_uris":{"android":"levelo://app?vid=ba2d1a62-e632-4169-9a28-b83f6acba689","ios":"levelo://app?vid=ba2d1a62-e632-4169-9a28-b83f6acba689"},"vehicle_type_id":"4","last_reported":1732875054,"current_range_meters":0,"station_id":"","pricing_plan_id":"cebpf4jnsgd1na2vs0mg"},{"bike_id":"12a3bafe-a5a0-4feb-9210-7d280ab4c586","system_id":"levelo_inurba_marseille","lat":43.28932,"lon":5.3664,"is_reserved":false,"is_disabled":false,"rental_uris":{"android":"levelo://app?vid=12a3bafe-a5a0-4feb-9210-7d280ab4c586","ios":"levelo://app?vid=12a3bafe-a5a0-4feb-9210-7d280ab4c586"},"vehicle_type_id":"4","last_reported":1732875054,"current_range_meters":22400,"station_id":"ce4bhap2rcd13ifvqek0","pricing_plan_id":"cebpf4jnsgd1na2vs0mg"},{"bike_id":"41ead4e9-439a-4c85-9c8e-819bad4cc319","system_id":"levelo_inurba_marseille","lat":43.25581,"lon":5.38234,"is_reserved":false,"is_disabled":false,"rental_uris":{"android":"levelo://app?vid=41ead4e9-439a-4c85-9c8e-819bad4cc319","ios":"levelo://app?vid=41ead4e9-439a-4c85-9c8e-819bad4cc319"},"vehicle_type_id":"4","last_reported":1732875054,"current_range_meters":39200,"station_id":"ce4bhih2rcd13ifvqfs0","pricing_plan_id":"cebpf4jnsgd1na2vs0mg"},{"bike_id":"6f7949e1-de87-4a49-8620-fec27e04447f","system_id":"levelo_inurba_marseille","lat":43.33728,"lon":5.39185,"is_reserved":false,"is_disabled":false,"rental_uris":{"android":"levelo://app?vid=6f7949e1-de87-4a49-8620-fec27e04447f","ios":"levelo://app?vid=6f7949e1-de87-4a49-8620-fec27e04447f"},"vehicle_type_id":"4","last_reported":1732875054,"current_range_meters":31200,"station_id":"ce4bhr92rcd13ifvqhsg","pricing_plan_id":"cebpf4jnsgd1na2vs0mg"},{"bike_id":"4a873296-5d15-4559-96cf-ec44632a505c","system_id":"levelo_inurba_marseille","lat":43.23154,"lon":5.43718,"is_reserved":false,"is_disabled":false,"rental_uris":{"android":"levelo://app?vid=4a873296-5d15-4559-96cf-ec44632a505c","ios":"levelo://app?vid=4a873296-5d15-4559-96cf-ec44632a505c"},"vehicle_type_id":"4","last_reported":1732875054,"current_range_meters":6000,"station_id":"ce4bhmp2rcd13ifvqgog","pricing_plan_id":"cebpf4jnsgd1na2vs0mg"},{"bike_id":"d6af473c-317d-44a4-ba58-092abf84584f","system_id":"levelo_inurba_marseille","lat":43.22933,"lon":5.3538,"is_reserved":false,"is_disabled":false,"rental_uris":{"android":"levelo://app?vid=d6af473c-317d-44a4-ba58-092abf84584f","ios":"levelo://app?vid=d6af473c-317d-44a4-ba58-092abf84584f"},"vehicle_type_id":"4","last_reported":1732875054,"current_range_meters":38400,"station_id":"cpo3532slgdg3j2ikp40","pricing_plan_id":"cebpf4jnsgd1na2vs0mg"},{"bike_id":"301ba404-e4ab-4cc6-bbf0-243e67febc55","system_id":"levelo_inurba_marseille","lat":43.26211,"lon":5.37445,"is_reserved":false,"is_disabled":false,"rental_uris":{"android":"levelo://app?vid=301ba404-e4ab-4cc6-bbf0-243e67febc55","ios":"levelo://app?vid=301ba404-e4ab-4cc6-bbf0-243e67febc55"},"vehicle_type_id":"4","last_reported":1732875054,"current_range_meters":38800,"station_id":"ce4bhgp2rcd13ifvqfc0","pricing_plan_id":"cebpf4jnsgd1na2vs0mg"},{"bike_id":"0dce51df-dda1-4b82-a09f-af3670b57517","system_id":"levelo_inurba_marseille","lat":43.28406,"lon":5.34979,"is_reserved":false,"is_disabled":false,"rental_uris":{"android":"levelo://app?vid=0dce51df-dda1-4b82-a09f-af3670b57517","ios":"levelo://app?vid=0dce51df-dda1-4b82-a09f-af3670b57517"},"vehicle_type_id":"4","last_reported":1732875054,"current_range_meters":36800,"station_id":"ce4bhbh2rcd13ifvqepg","pricing_plan_id":"cebpf4jnsgd1na2vs0mg"},{"bike_id":"67601a23-af6f-4db4-8bf4-4b32872685b3","system_id":"levelo_inurba_marseille","lat":43.29908,"lon":5.38154,"is_reserved":false,"is_disabled":false,"rental_uris":{"android":"levelo://app?vid=67601a23-af6f-4db4-8bf4-4b32872685b3","ios":"levelo://app?vid=67601a23-af6f-4db4-8bf4-4b32872685b3"},"vehicle_type_id":"4","last_reported":1732875054,"current_range_meters":26800,"station_id":"ce4bgj12rcd13ifvqbc0","pricing_plan_id":"cebpf4jnsgd1na2vs0mg"},{"bike_id":"52e410fd-1783-461b-a786-bcb12700645d","system_id":"levelo_inurba_marseille","lat":43.31358,"lon":5.36708,"is_reserved":false,"is_disabled":false,"rental_uris":{"android":"levelo://app?vid=52e410fd-1783-461b-a786-bcb12700645d","ios":"levelo://app?vid=52e410fd-1783-461b-a786-bcb12700645d"},"vehicle_type_id":"4","last_reported":1732875054,"current_range_meters":38800,"station_id":"ce4bgr92rcd13ifvqc6g","pricing_plan_id":"cebpf4jnsgd1na2vs0mg"},{"bike_id":"2ee6f158-6e7a-41ca-a9ae-024693b4fa15","system_id":"levelo_inurba_marseille","lat":43.29022,"lon":5.38125,"is_reserved":false,"is_disabled":false,"rental_uris":{"android":"levelo://app?vid=2ee6f158-6e7a-41ca-a9ae-024693b4fa15","ios":"levelo://app?vid=2ee6f158-6e7a-41ca-a9ae-024693b4fa15"},"vehicle_type_id":"4","last_reported":1732875054,"current_range_meters":20000,"station_id":"ce4bh4p2rcd13ifvqe1g","pricing_plan_id":"cebpf4jnsgd1na2vs0mg"},{"bike_id":"a3f13fbb-7cc0-4f6c-ab75-581227db1f92","system_id":"levelo_inurba_marseille","lat":43.30275,"lon":5.37693,"is_reserved":false,"is_disabled":false,"rental_uris":{"android":"levelo://app?vid=a3f13fbb-7cc0-4f6c-ab75-581227db1f92","ios":"levelo://app?vid=a3f13fbb-7cc0-4f6c-ab75-581227db1f92"},"vehicle_type_id":"4","last_reported":1732875054,"current_range_meters":26000,"station_id":"ce4bguh2rcd13ifvqcj0","pricing_plan_id":"cebpf4jnsgd1na2vs0mg"},{"bike_id":"14ef3313-0bbb-4810-8166-60c0504b7ffa","system_id":"levelo_inurba_marseille","lat":43.24073,"lon":5.37752,"is_reserved":false,"is_disabled":false,"rental_uris":{"android":"levelo://app?vid=14ef3313-0bbb-4810-8166-60c0504b7ffa","ios":"levelo://app?vid=14ef3313-0bbb-4810-8166-60c0504b7ffa"},"vehicle_type_id":"4","last_reported":1732875054,"current_range_meters":20400,"station_id":"ce4bhnp2rcd13ifvqgvg","pricing_plan_id":"cebpf4jnsgd1na2vs0mg"},{"bike_id":"8e62cdb3-d1a4-4b35-ac4a-c3ffbc4ba4e7","system_id":"levelo_inurba_marseille","lat":43.30439,"lon":5.38894,"is_reserved":false,"is_disabled":false,"rental_uris":{"android":"levelo://app?vid=8e62cdb3-d1a4-4b35-ac4a-c3ffbc4ba4e7","ios":"levelo://app?vid=8e62cdb3-d1a4-4b35-ac4a-c3ffbc4ba4e7"},"vehicle_type_id":"4","last_reported":1732875054,"current_range_meters":38800,"station_id":"ce4bgk12rcd13ifvqbi0","pricing_plan_id":"cebpf4jnsgd1na2vs0mg"},{"bike_id":"a8d53810-af87-4e56-85da-4c06b779ee0b","system_id":"levelo_inurba_marseille","lat":43.30912,"lon":5.36854,"is_reserved":false,"is_disabled":false,"rental_uris":{"android":"levelo://app?vid=a8d53810-af87-4e56-85da-4c06b779ee0b","ios":"levelo://app?vid=a8d53810-af87-4e56-85da-4c06b779ee0b"},"vehicle_type_id":"4","last_reported":1732875054,"current_range_meters":38800,"station_id":"ce4bgn92rcd13ifvqbvg","pricing_plan_id":"cebpf4jnsgd1na2vs0mg"},{"bike_id":"4709c438-f4af-415a-a919-d27302b75dca","system_id":"levelo_inurba_marseille","lat":43.23194,"lon":5.35553,"is_reserved":false,"is_disabled":false,"rental_uris":{"android":"levelo://app?vid=4709c438-f4af-415a-a919-d27302b75dca","ios":"levelo://app?vid=4709c438-f4af-415a-a919-d27302b75dca"},"vehicle_type_id":"4","last_reported":1732875054,"current_range_meters":38800,"station_id":"ce4bhu92rcd13ifvqi70","pricing_plan_id":"cebpf4jnsgd1na2vs0mg"},{"bike_id":"0526a8ec-d506-41cb-b00f-7a88f090c600","system_id":"levelo_inurba_marseille","lat":43.27367,"lon":5.36252,"is_reserved":false,"is_disabled":true,"rental_uris":{"android":"levelo://app?vid=0526a8ec-d506-41cb-b00f-7a88f090c600","ios":"levelo://app?vid=0526a8ec-d506-41cb-b00f-7a88f090c600"},"vehicle_type_id":"4","last_reported":1732875054,"current_range_meters":37600,"station_id":"ce4bhbh2rcd13ifvqeo0","pricing_plan_id":"cebpf4jnsgd1na2vs0mg"},{"bike_id":"c34ed66a-f76b-46d6-b519-b3726d77f086","system_id":"levelo_inurba_marseille","lat":43.26814,"lon":5.40229,"is_reserved":false,"is_disabled":false,"rental_uris":{"android":"levelo://app?vid=c34ed66a-f76b-46d6-b519-b3726d77f086","ios":"levelo://app?vid=c34ed66a-f76b-46d6-b519-b3726d77f086"},"vehicle_type_id":"4","last_reported":1732875054,"current_range_meters":36800,"station_id":"ce501612rcd8frsf0b60","pricing_plan_id":"cebpf4jnsgd1na2vs0mg"},{"bike_id":"4258e8ae-420a-41e8-8ab6-81ea0fbfde7d","system_id":"levelo_inurba_marseille","lat":43.33601,"lon":5.41011,"is_reserved":false,"is_disabled":false,"rental_uris":{"android":"levelo://app?vid=4258e8ae-420a-41e8-8ab6-81ea0fbfde7d","ios":"levelo://app?vid=4258e8ae-420a-41e8-8ab6-81ea0fbfde7d"},"vehicle_type_id":"4","last_reported":1732875054,"current_range_meters":19600,"station_id":"ce4bhqh2rcd13ifvqhmg","pricing_plan_id":"cebpf4jnsgd1na2vs0mg"},{"bike_id":"e0efb924-d571-45ab-95a4-8ec810fc6836","system_id":"levelo_inurba_marseille","lat":43.24176,"lon":5.39733,"is_reserved":false,"is_disabled":false,"rental_uris":{"android":"levelo://app?vid=e0efb924-d571-45ab-95a4-8ec810fc6836","ios":"levelo://app?vid=e0efb924-d571-45ab-95a4-8ec810fc6836"},"vehicle_type_id":"4","last_reported":1732875054,"current_range_meters":30000,"station_id":"ce4bhn12rcd13ifvqgpg","pricing_plan_id":"cebpf4jnsgd1na2vs0mg"},{"bike_id":"d21ca66c-8ebf-40a8-bc6f-8cae0c8b6834","system_id":"levelo_inurba_marseille","lat":43.26938,"lon":5.38929,"is_reserved":false,"is_disabled":false,"rental_uris":{"android":"levelo://app?vid=d21ca66c-8ebf-40a8-bc6f-8cae0c8b6834","ios":"levelo://app?vid=d21ca66c-8ebf-40a8-bc6f-8cae0c8b6834"},"vehicle_type_id":"4","last_reported":1732875054,"current_range_meters":10800,"station_id":"ce4bhhh2rcd13ifvqfl0","pricing_plan_id":"cebpf4jnsgd1na2vs0mg"},{"bike_id":"2c2dbeed-d8b9-4443-8bc1-facb2c0b2be9","system_id":"levelo_inurba_marseille","lat":43.30432,"lon":5.36888,"is_reserved":false,"is_disabled":false,"rental_uris":{"android":"levelo://app?vid=2c2dbeed-d8b9-4443-8bc1-facb2c0b2be9","ios":"levelo://app?vid=2c2dbeed-d8b9-4443-8bc1-facb2c0b2be9"},"vehicle_type_id":"4","last_reported":1732875054,"current_range_meters":8400,"station_id":"","pricing_plan_id":"cebpf4jnsgd1na2vs0mg"},{"bike_id":"57d6fc38-cc58-49b0-bb2d-280659056b38","system_id":"levelo_inurba_marseille","lat":43.337444,"lon":5.374475,"is_reserved":false,"is_disabled":false,"rental_uris":{"android":"levelo://app?vid=57d6fc38-cc58-49b0-bb2d-280659056b38","ios":"levelo://app?vid=57d6fc38-cc58-49b0-bb2d-280659056b38"},"vehicle_type_id":"4","last_reported":1732875054,"current_range_meters":38800,"station_id":"ce4bgvp2rcd13ifvqct0","pricing_plan_id":"cebpf4jnsgd1na2vs0mg"},{"bike_id":"8c09cd08-684e-4471-956f-e9d8d62c46a9","system_id":"levelo_inurba_marseille","lat":43.2826,"lon":5.35067,"is_reserved":false,"is_disabled":false,"rental_uris":{"android":"levelo://app?vid=8c09cd08-684e-4471-956f-e9d8d62c46a9","ios":"levelo://app?vid=8c09cd08-684e-4471-956f-e9d8d62c46a9"},"vehicle_type_id":"4","last_reported":1732875054,"current_range_meters":24400,"station_id":"ce4bhbp2rcd13ifvqerg","pricing_plan_id":"cebpf4jnsgd1na2vs0mg"},{"bike_id":"6ef17b19-ee95-451a-a9d6-db972d215c74","system_id":"levelo_inurba_marseille","lat":43.24993,"lon":5.3893,"is_reserved":false,"is_disabled":false,"rental_uris":{"android":"levelo://app?vid=6ef17b19-ee95-451a-a9d6-db972d215c74","ios":"levelo://app?vid=6ef17b19-ee95-451a-a9d6-db972d215c74"},"vehicle_type_id":"4","last_reported":1732875054,"current_range_meters":14000,"station_id":"ce4bhgp2rcd13ifvqfd0","pricing_plan_id":"cebpf4jnsgd1na2vs0mg"},{"bike_id":"bca85837-2438-4c43-b262-011ddc8b0e5a","system_id":"levelo_inurba_marseille","lat":43.26194,"lon":5.37447,"is_reserved":false,"is_disabled":false,"rental_uris":{"android":"levelo://app?vid=bca85837-2438-4c43-b262-011ddc8b0e5a","ios":"levelo://app?vid=bca85837-2438-4c43-b262-011ddc8b0e5a"},"vehicle_type_id":"4","last_reported":1732875054,"current_range_meters":36800,"station_id":"ce4bhgp2rcd13ifvqfc0","pricing_plan_id":"cebpf4jnsgd1na2vs0mg"},{"bike_id":"b053b308-df93-40ed-81b7-cc6347a6608e","system_id":"levelo_inurba_marseille","lat":43.28671,"lon":5.36345,"is_reserved":false,"is_disabled":true,"rental_uris":{"android":"levelo://app?vid=b053b308-df93-40ed-81b7-cc6347a6608e","ios":"levelo://app?vid=b053b308-df93-40ed-81b7-cc6347a6608e"},"vehicle_type_id":"4","last_reported":1732875054,"current_range_meters":38800,"station_id":"ce4bhah2rcd13ifvqej0","pricing_plan_id":"cebpf4jnsgd1na2vs0mg"},{"bike_id":"ffa4a609-12c2-4bcb-a232-bff214294d68","system_id":"levelo_inurba_marseille","lat":43.26201,"lon":5.37927,"is_reserved":false,"is_disabled":false,"rental_uris":{"android":"levelo://app?vid=ffa4a609-12c2-4bcb-a232-bff214294d68","ios":"levelo://app?vid=ffa4a609-12c2-4bcb-a232-bff214294d68"},"vehicle_type_id":"4","last_reported":1732875054,"current_range_meters":37600,"station_id":"ce4bhjp2rcd13ifvqg90","pricing_plan_id":"cebpf4jnsgd1na2vs0mg"},{"bike_id":"d43bcf0d-16aa-4132-bee9-932c9bcef8f2","system_id":"levelo_inurba_marseille","lat":43.32359,"lon":5.3889,"is_reserved":false,"is_disabled":false,"rental_uris":{"android":"levelo://app?vid=d43bcf0d-16aa-4132-bee9-932c9bcef8f2","ios":"levelo://app?vid=d43bcf0d-16aa-4132-bee9-932c9bcef8f2"},"vehicle_type_id":"4","last_reported":1732875054,"current_range_meters":38000,"station_id":"ce4bhqp2rcd13ifvqhog","pricing_plan_id":"cebpf4jnsgd1na2vs0mg"},{"bike_id":"151b980d-1edb-48f7-b7d0-145ba5ae7571","system_id":"levelo_inurba_marseille","lat":43.33599,"lon":5.41027,"is_reserved":false,"is_disabled":false,"rental_uris":{"android":"levelo://app?vid=151b980d-1edb-48f7-b7d0-145ba5ae7571","ios":"levelo://app?vid=151b980d-1edb-48f7-b7d0-145ba5ae7571"},"vehicle_type_id":"4","last_reported":1732875054,"current_range_meters":27600,"station_id":"ce4bhqh2rcd13ifvqhmg","pricing_plan_id":"cebpf4jnsgd1na2vs0mg"},{"bike_id":"4035e70a-9b35-49ff-8763-9565717e2e74","system_id":"levelo_inurba_marseille","lat":43.28462,"lon":5.35883,"is_reserved":false,"is_disabled":true,"rental_uris":{"android":"levelo://app?vid=4035e70a-9b35-49ff-8763-9565717e2e74","ios":"levelo://app?vid=4035e70a-9b35-49ff-8763-9565717e2e74"},"vehicle_type_id":"4","last_reported":1732875054,"current_range_meters":10000,"station_id":"ce4bhah2rcd13ifvqei0","pricing_plan_id":"cebpf4jnsgd1na2vs0mg"},{"bike_id":"bc749360-3ce4-4dd6-a0ac-83aa82c323a7","system_id":"levelo_inurba_marseille","lat":43.28154,"lon":5.4264,"is_reserved":false,"is_disabled":true,"rental_uris":{"android":"levelo://app?vid=bc749360-3ce4-4dd6-a0ac-83aa82c323a7","ios":"levelo://app?vid=bc749360-3ce4-4dd6-a0ac-83aa82c323a7"},"vehicle_type_id":"4","last_reported":1732875054,"current_range_meters":38800,"station_id":"ce4bhnh2rcd13ifvqgug","pricing_plan_id":"cebpf4jnsgd1na2vs0mg"},{"bike_id":"0767e829-61a1-41fb-b71a-23fc83027e03","system_id":"levelo_inurba_marseille","lat":43.30137,"lon":5.39874,"is_reserved":false,"is_disabled":false,"rental_uris":{"android":"levelo://app?vid=0767e829-61a1-41fb-b71a-23fc83027e03","ios":"levelo://app?vid=0767e829-61a1-41fb-b71a-23fc83027e03"},"vehicle_type_id":"4","last_reported":1732875054,"current_range_meters":24000,"station_id":"ce4bh0h2rcd13ifvqd40","pricing_plan_id":"cebpf4jnsgd1na2vs0mg"},{"bike_id":"4d4c884f-6933-49c0-8899-f9856d90f44d","system_id":"levelo_inurba_marseille","lat":43.29748,"lon":5.37971,"is_reserved":false,"is_disabled":true,"rental_uris":{"android":"levelo://app?vid=4d4c884f-6933-49c0-8899-f9856d90f44d","ios":"levelo://app?vid=4d4c884f-6933-49c0-8899-f9856d90f44d"},"vehicle_type_id":"4","last_reported":1732875054,"current_range_meters":0,"station_id":"","pricing_plan_id":"cebpf4jnsgd1na2vs0mg"},{"bike_id":"0a6a01b8-ebc9-4549-9bc8-25449ed3a98c","system_id":"levelo_inurba_marseille","lat":43.31991,"lon":5.38146,"is_reserved":false,"is_disabled":false,"rental_uris":{"android":"levelo://app?vid=0a6a01b8-ebc9-4549-9bc8-25449ed3a98c","ios":"levelo://app?vid=0a6a01b8-ebc9-4549-9bc8-25449ed3a98c"},"vehicle_type_id":"4","last_reported":1732875054,"current_range_meters":24000,"station_id":"ce4bhr12rcd13ifvqhpg","pricing_plan_id":"cebpf4jnsgd1na2vs0mg"},{"bike_id":"b6e48330-8212-4476-b4d2-8a1e3bec5ff6","system_id":"levelo_inurba_marseille","lat":43.28671,"lon":5.36348,"is_reserved":false,"is_disabled":false,"rental_uris":{"android":"levelo://app?vid=b6e48330-8212-4476-b4d2-8a1e3bec5ff6","ios":"levelo://app?vid=b6e48330-8212-4476-b4d2-8a1e3bec5ff6"},"vehicle_type_id":"4","last_reported":1732875054,"current_range_meters":8400,"station_id":"ce4bhah2rcd13ifvqej0","pricing_plan_id":"cebpf4jnsgd1na2vs0mg"},{"bike_id":"e92bb962-3744-465d-9416-9fd2fa120b31","system_id":"levelo_inurba_marseille","lat":43.30145,"lon":5.38061,"is_reserved":false,"is_disabled":false,"rental_uris":{"android":"levelo://app?vid=e92bb962-3744-465d-9416-9fd2fa120b31","ios":"levelo://app?vid=e92bb962-3744-465d-9416-9fd2fa120b31"},"vehicle_type_id":"4","last_reported":1732875054,"current_range_meters":10800,"station_id":"ce4bgjp2rcd13ifvqbh0","pricing_plan_id":"cebpf4jnsgd1na2vs0mg"},{"bike_id":"02895370-c40c-4c5d-869e-dbb8ac908e5c","system_id":"levelo_inurba_marseille","lat":43.27179,"lon":5.41,"is_reserved":false,"is_disabled":false,"rental_uris":{"android":"levelo://app?vid=02895370-c40c-4c5d-869e-dbb8ac908e5c","ios":"levelo://app?vid=02895370-c40c-4c5d-869e-dbb8ac908e5c"},"vehicle_type_id":"4","last_reported":1732875054,"current_range_meters":26800,"station_id":"ce4bhl12rcd13ifvqgf0","pricing_plan_id":"cebpf4jnsgd1na2vs0mg"},{"bike_id":"9009be37-c6b1-406b-b0a8-fbab355f715e","system_id":"levelo_inurba_marseille","lat":43.33767,"lon":5.37492,"is_reserved":false,"is_disabled":false,"rental_uris":{"android":"levelo://app?vid=9009be37-c6b1-406b-b0a8-fbab355f715e","ios":"levelo://app?vid=9009be37-c6b1-406b-b0a8-fbab355f715e"},"vehicle_type_id":"4","last_reported":1732875054,"current_range_meters":37600,"station_id":"","pricing_plan_id":"cebpf4jnsgd1na2vs0mg"},{"bike_id":"ad448571-bebb-4a8d-8d20-19092292da85","system_id":"levelo_inurba_marseille","lat":43.29171,"lon":5.37146,"is_reserved":false,"is_disabled":true,"rental_uris":{"android":"levelo://app?vid=ad448571-bebb-4a8d-8d20-19092292da85","ios":"levelo://app?vid=ad448571-bebb-4a8d-8d20-19092292da85"},"vehicle_type_id":"4","last_reported":1732875054,"current_range_meters":24400,"station_id":"ce4bha92rcd13ifvqeh0","pricing_plan_id":"cebpf4jnsgd1na2vs0mg"},{"bike_id":"5f433b1c-0e0f-43b4-a0b0-55b89bfd72f5","system_id":"levelo_inurba_marseille","lat":43.33605,"lon":5.41031,"is_reserved":false,"is_disabled":false,"rental_uris":{"android":"levelo://app?vid=5f433b1c-0e0f-43b4-a0b0-55b89bfd72f5","ios":"levelo://app?vid=5f433b1c-0e0f-43b4-a0b0-55b89bfd72f5"},"vehicle_type_id":"4","last_reported":1732875054,"current_range_meters":20400,"station_id":"ce4bhqh2rcd13ifvqhmg","pricing_plan_id":"cebpf4jnsgd1na2vs0mg"},{"bike_id":"30c67c45-7f58-484b-9db9-3056bcdc8ec9","system_id":"levelo_inurba_marseille","lat":43.30911,"lon":5.36855,"is_reserved":false,"is_disabled":false,"rental_uris":{"android":"levelo://app?vid=30c67c45-7f58-484b-9db9-3056bcdc8ec9","ios":"levelo://app?vid=30c67c45-7f58-484b-9db9-3056bcdc8ec9"},"vehicle_type_id":"4","last_reported":1732875054,"current_range_meters":39200,"station_id":"ce4bgn92rcd13ifvqbvg","pricing_plan_id":"cebpf4jnsgd1na2vs0mg"},{"bike_id":"9589002c-1bab-46c5-9d09-a7efb8d9d194","system_id":"levelo_inurba_marseille","lat":43.28459,"lon":5.34985,"is_reserved":false,"is_disabled":false,"rental_uris":{"android":"levelo://app?vid=9589002c-1bab-46c5-9d09-a7efb8d9d194","ios":"levelo://app?vid=9589002c-1bab-46c5-9d09-a7efb8d9d194"},"vehicle_type_id":"4","last_reported":1732875054,"current_range_meters":24000,"station_id":"ce4bhbh2rcd13ifvqepg","pricing_plan_id":"cebpf4jnsgd1na2vs0mg"},{"bike_id":"de528621-cf46-48b9-9d9a-99c7ded8a302","system_id":"levelo_inurba_marseille","lat":43.24068,"lon":5.37761,"is_reserved":false,"is_disabled":false,"rental_uris":{"android":"levelo://app?vid=de528621-cf46-48b9-9d9a-99c7ded8a302","ios":"levelo://app?vid=de528621-cf46-48b9-9d9a-99c7ded8a302"},"vehicle_type_id":"4","last_reported":1732875054,"current_range_meters":38800,"station_id":"ce4bhnp2rcd13ifvqgvg","pricing_plan_id":"cebpf4jnsgd1na2vs0mg"},{"bike_id":"840c2084-3872-4bb0-aad2-5ab80f87c1f6","system_id":"levelo_inurba_marseille","lat":43.30657,"lon":5.4009,"is_reserved":false,"is_disabled":true,"rental_uris":{"android":"levelo://app?vid=840c2084-3872-4bb0-aad2-5ab80f87c1f6","ios":"levelo://app?vid=840c2084-3872-4bb0-aad2-5ab80f87c1f6"},"vehicle_type_id":"4","last_reported":1732875054,"current_range_meters":38800,"station_id":"ce4bh112rcd13ifvqda0","pricing_plan_id":"cebpf4jnsgd1na2vs0mg"},{"bike_id":"c0e8c0c5-8cf0-4bea-b3b2-c88efdc8014a","system_id":"levelo_inurba_marseille","lat":43.32364,"lon":5.38879,"is_reserved":false,"is_disabled":false,"rental_uris":{"android":"levelo://app?vid=c0e8c0c5-8cf0-4bea-b3b2-c88efdc8014a","ios":"levelo://app?vid=c0e8c0c5-8cf0-4bea-b3b2-c88efdc8014a"},"vehicle_type_id":"4","last_reported":1732875054,"current_range_meters":25200,"station_id":"ce4bhqp2rcd13ifvqhog","pricing_plan_id":"cebpf4jnsgd1na2vs0mg"},{"bike_id":"e7a47070-ab70-4185-9b1c-3806811206dd","system_id":"levelo_inurba_marseille","lat":43.337444,"lon":5.374475,"is_reserved":false,"is_disabled":false,"rental_uris":{"android":"levelo://app?vid=e7a47070-ab70-4185-9b1c-3806811206dd","ios":"levelo://app?vid=e7a47070-ab70-4185-9b1c-3806811206dd"},"vehicle_type_id":"4","last_reported":1732875054,"current_range_meters":13600,"station_id":"","pricing_plan_id":"cebpf4jnsgd1na2vs0mg"},{"bike_id":"4cd79fb1-29e9-4453-8446-eea81ab019c0","system_id":"levelo_inurba_marseille","lat":43.33758,"lon":5.37479,"is_reserved":false,"is_disabled":false,"rental_uris":{"android":"levelo://app?vid=4cd79fb1-29e9-4453-8446-eea81ab019c0","ios":"levelo://app?vid=4cd79fb1-29e9-4453-8446-eea81ab019c0"},"vehicle_type_id":"4","last_reported":1732875054,"current_range_meters":16400,"station_id":"","pricing_plan_id":"cebpf4jnsgd1na2vs0mg"},{"bike_id":"da013d0b-5c65-431f-85fe-c77644e1d023","system_id":"levelo_inurba_marseille","lat":43.30944,"lon":5.39032,"is_reserved":false,"is_disabled":false,"rental_uris":{"android":"levelo://app?vid=da013d0b-5c65-431f-85fe-c77644e1d023","ios":"levelo://app?vid=da013d0b-5c65-431f-85fe-c77644e1d023"},"vehicle_type_id":"4","last_reported":1732875054,"current_range_meters":8400,"station_id":"ce4bgup2rcd13ifvqco0","pricing_plan_id":"cebpf4jnsgd1na2vs0mg"},{"bike_id":"6c9caa72-ea9c-4937-b745-357e728cf598","system_id":"levelo_inurba_marseille","lat":43.27614,"lon":5.36112,"is_reserved":false,"is_disabled":true,"rental_uris":{"android":"levelo://app?vid=6c9caa72-ea9c-4937-b745-357e728cf598","ios":"levelo://app?vid=6c9caa72-ea9c-4937-b745-357e728cf598"},"vehicle_type_id":"4","last_reported":1732875054,"current_range_meters":38800,"station_id":"ce4bgj92rcd13ifvqbe0","pricing_plan_id":"cebpf4jnsgd1na2vs0mg"},{"bike_id":"4d6bb795-38de-4ecd-9f34-96325db38efe","system_id":"levelo_inurba_marseille","lat":43.26568,"lon":5.39008,"is_reserved":false,"is_disabled":false,"rental_uris":{"android":"levelo://app?vid=4d6bb795-38de-4ecd-9f34-96325db38efe","ios":"levelo://app?vid=4d6bb795-38de-4ecd-9f34-96325db38efe"},"vehicle_type_id":"4","last_reported":1732875054,"current_range_meters":38400,"station_id":"ce4bhe12rcd13ifvqf30","pricing_plan_id":"cebpf4jnsgd1na2vs0mg"},{"bike_id":"f62a5fa2-9173-4ac1-b63a-4a63811fbef9","system_id":"levelo_inurba_marseille","lat":43.2593,"lon":5.40914,"is_reserved":false,"is_disabled":false,"rental_uris":{"android":"levelo://app?vid=f62a5fa2-9173-4ac1-b63a-4a63811fbef9","ios":"levelo://app?vid=f62a5fa2-9173-4ac1-b63a-4a63811fbef9"},"vehicle_type_id":"4","last_reported":1732875054,"current_range_meters":19600,"station_id":"ce4bhm92rcd13ifvqglg","pricing_plan_id":"cebpf4jnsgd1na2vs0mg"},{"bike_id":"846114fa-9612-44a5-8823-a49a13001982","system_id":"levelo_inurba_marseille","lat":43.25815,"lon":5.39431,"is_reserved":false,"is_disabled":false,"rental_uris":{"android":"levelo://app?vid=846114fa-9612-44a5-8823-a49a13001982","ios":"levelo://app?vid=846114fa-9612-44a5-8823-a49a13001982"},"vehicle_type_id":"4","last_reported":1732875054,"current_range_meters":38800,"station_id":"ce4bhip2rcd13ifvqft0","pricing_plan_id":"cebpf4jnsgd1na2vs0mg"},{"bike_id":"e8fa7be1-2407-41a7-b843-e7c70f1917ef","system_id":"levelo_inurba_marseille","lat":43.2761,"lon":5.36109,"is_reserved":false,"is_disabled":true,"rental_uris":{"android":"levelo://app?vid=e8fa7be1-2407-41a7-b843-e7c70f1917ef","ios":"levelo://app?vid=e8fa7be1-2407-41a7-b843-e7c70f1917ef"},"vehicle_type_id":"4","last_reported":1732875054,"current_range_meters":0,"station_id":"ce4bgj92rcd13ifvqbe0","pricing_plan_id":"cebpf4jnsgd1na2vs0mg"},{"bike_id":"b995dc75-477c-4733-9c9e-a3a88139de96","system_id":"levelo_inurba_marseille","lat":43.29974,"lon":5.37169,"is_reserved":false,"is_disabled":false,"rental_uris":{"android":"levelo://app?vid=b995dc75-477c-4733-9c9e-a3a88139de96","ios":"levelo://app?vid=b995dc75-477c-4733-9c9e-a3a88139de96"},"vehicle_type_id":"4","last_reported":1732875054,"current_range_meters":24800,"station_id":"ce4bgr92rcd13ifvqc7g","pricing_plan_id":"cebpf4jnsgd1na2vs0mg"},{"bike_id":"322ec04a-c98c-4b4e-b298-69412eba7415","system_id":"levelo_inurba_marseille","lat":43.24775,"lon":5.37456,"is_reserved":false,"is_disabled":false,"rental_uris":{"android":"levelo://app?vid=322ec04a-c98c-4b4e-b298-69412eba7415","ios":"levelo://app?vid=322ec04a-c98c-4b4e-b298-69412eba7415"},"vehicle_type_id":"4","last_reported":1732875054,"current_range_meters":38000,"station_id":"ce4bhgh2rcd13ifvqfb0","pricing_plan_id":"cebpf4jnsgd1na2vs0mg"},{"bike_id":"04151390-4806-4e4e-8288-4bb06cadcb10","system_id":"levelo_inurba_marseille","lat":43.29787,"lon":5.381,"is_reserved":false,"is_disabled":true,"rental_uris":{"android":"levelo://app?vid=04151390-4806-4e4e-8288-4bb06cadcb10","ios":"levelo://app?vid=04151390-4806-4e4e-8288-4bb06cadcb10"},"vehicle_type_id":"4","last_reported":1732875054,"current_range_meters":38800,"station_id":"ce4bgip2rcd13ifvqbb0","pricing_plan_id":"cebpf4jnsgd1na2vs0mg"},{"bike_id":"e63455c5-5f55-4960-8084-8cbaf9be1b50","system_id":"levelo_inurba_marseille","lat":43.25577,"lon":5.38237,"is_reserved":false,"is_disabled":false,"rental_uris":{"android":"levelo://app?vid=e63455c5-5f55-4960-8084-8cbaf9be1b50","ios":"levelo://app?vid=e63455c5-5f55-4960-8084-8cbaf9be1b50"},"vehicle_type_id":"4","last_reported":1732875054,"current_range_meters":33200,"station_id":"ce4bhih2rcd13ifvqfs0","pricing_plan_id":"cebpf4jnsgd1na2vs0mg"},{"bike_id":"3c892415-ea95-41fc-a1a5-9774fb7c441b","system_id":"levelo_inurba_marseille","lat":43.29157,"lon":5.37148,"is_reserved":false,"is_disabled":false,"rental_uris":{"android":"levelo://app?vid=3c892415-ea95-41fc-a1a5-9774fb7c441b","ios":"levelo://app?vid=3c892415-ea95-41fc-a1a5-9774fb7c441b"},"vehicle_type_id":"4","last_reported":1732875054,"current_range_meters":39200,"station_id":"ce4bha92rcd13ifvqeh0","pricing_plan_id":"cebpf4jnsgd1na2vs0mg"},{"bike_id":"e3036b86-4666-4127-9686-691e3c5eab4f","system_id":"levelo_inurba_marseille","lat":43.34149,"lon":5.40905,"is_reserved":false,"is_disabled":false,"rental_uris":{"android":"levelo://app?vid=e3036b86-4666-4127-9686-691e3c5eab4f","ios":"levelo://app?vid=e3036b86-4666-4127-9686-691e3c5eab4f"},"vehicle_type_id":"4","last_reported":1732875054,"current_range_meters":31200,"station_id":"ce4bhqh2rcd13ifvqhlg","pricing_plan_id":"cebpf4jnsgd1na2vs0mg"},{"bike_id":"a4a09f77-02e5-4784-8aa5-39e2e511e685","system_id":"levelo_inurba_marseille","lat":43.26944,"lon":5.38638,"is_reserved":false,"is_disabled":false,"rental_uris":{"android":"levelo://app?vid=a4a09f77-02e5-4784-8aa5-39e2e511e685","ios":"levelo://app?vid=a4a09f77-02e5-4784-8aa5-39e2e511e685"},"vehicle_type_id":"4","last_reported":1732875054,"current_range_meters":29600,"station_id":"ce4bhh92rcd13ifvqfh0","pricing_plan_id":"cebpf4jnsgd1na2vs0mg"},{"bike_id":"3ca8d527-6c31-4160-8bc9-0dbae13780f9","system_id":"levelo_inurba_marseille","lat":43.28468,"lon":5.35878,"is_reserved":false,"is_disabled":true,"rental_uris":{"android":"levelo://app?vid=3ca8d527-6c31-4160-8bc9-0dbae13780f9","ios":"levelo://app?vid=3ca8d527-6c31-4160-8bc9-0dbae13780f9"},"vehicle_type_id":"4","last_reported":1732875054,"current_range_meters":24000,"station_id":"ce4bhah2rcd13ifvqei0","pricing_plan_id":"cebpf4jnsgd1na2vs0mg"},{"bike_id":"325fbcc4-a4bc-43ae-8d64-c177be6e0441","system_id":"levelo_inurba_marseille","lat":43.27991,"lon":5.41656,"is_reserved":false,"is_disabled":false,"rental_uris":{"android":"levelo://app?vid=325fbcc4-a4bc-43ae-8d64-c177be6e0441","ios":"levelo://app?vid=325fbcc4-a4bc-43ae-8d64-c177be6e0441"},"vehicle_type_id":"4","last_reported":1732875054,"current_range_meters":30000,"station_id":"ce4bho12rcd13ifvqh1g","pricing_plan_id":"cebpf4jnsgd1na2vs0mg"},{"bike_id":"f790fe4e-68f3-45cf-b184-d74ee8388636","system_id":"levelo_inurba_marseille","lat":43.27498,"lon":5.42451,"is_reserved":false,"is_disabled":false,"rental_uris":{"android":"levelo://app?vid=f790fe4e-68f3-45cf-b184-d74ee8388636","ios":"levelo://app?vid=f790fe4e-68f3-45cf-b184-d74ee8388636"},"vehicle_type_id":"4","last_reported":1732875054,"current_range_meters":4800,"station_id":"ce4bhn92rcd13ifvqgrg","pricing_plan_id":"cebpf4jnsgd1na2vs0mg"},{"bike_id":"79bfa5ee-aac0-42ca-9821-960a633caa9b","system_id":"levelo_inurba_marseille","lat":43.28415,"lon":5.34976,"is_reserved":false,"is_disabled":false,"rental_uris":{"android":"levelo://app?vid=79bfa5ee-aac0-42ca-9821-960a633caa9b","ios":"levelo://app?vid=79bfa5ee-aac0-42ca-9821-960a633caa9b"},"vehicle_type_id":"4","last_reported":1732875054,"current_range_meters":39200,"station_id":"ce4bhbh2rcd13ifvqepg","pricing_plan_id":"cebpf4jnsgd1na2vs0mg"},{"bike_id":"42a1b6e2-bd74-4504-a0a4-5d00c7b5fb4d","system_id":"levelo_inurba_marseille","lat":43.33605,"lon":5.41017,"is_reserved":false,"is_disabled":false,"rental_uris":{"android":"levelo://app?vid=42a1b6e2-bd74-4504-a0a4-5d00c7b5fb4d","ios":"levelo://app?vid=42a1b6e2-bd74-4504-a0a4-5d00c7b5fb4d"},"vehicle_type_id":"4","last_reported":1732875054,"current_range_meters":14400,"station_id":"ce4bhqh2rcd13ifvqhmg","pricing_plan_id":"cebpf4jnsgd1na2vs0mg"},{"bike_id":"16fb8e17-b179-4d5a-add7-fbd05efe76fb","system_id":"levelo_inurba_marseille","lat":43.25927,"lon":5.40906,"is_reserved":false,"is_disabled":true,"rental_uris":{"android":"levelo://app?vid=16fb8e17-b179-4d5a-add7-fbd05efe76fb","ios":"levelo://app?vid=16fb8e17-b179-4d5a-add7-fbd05efe76fb"},"vehicle_type_id":"4","last_reported":1732875054,"current_range_meters":18000,"station_id":"ce4bhm92rcd13ifvqglg","pricing_plan_id":"cebpf4jnsgd1na2vs0mg"},{"bike_id":"c8a76b5b-0430-4c2a-b2ff-bb1b4406603c","system_id":"levelo_inurba_marseille","lat":43.30423,"lon":5.39747,"is_reserved":false,"is_disabled":false,"rental_uris":{"android":"levelo://app?vid=c8a76b5b-0430-4c2a-b2ff-bb1b4406603c","ios":"levelo://app?vid=c8a76b5b-0430-4c2a-b2ff-bb1b4406603c"},"vehicle_type_id":"4","last_reported":1732875054,"current_range_meters":3600,"station_id":"ce4bh092rcd13ifvqd20","pricing_plan_id":"cebpf4jnsgd1na2vs0mg"},{"bike_id":"f9f279cc-03ce-4144-bdc3-10e6ec0b5486","system_id":"levelo_inurba_marseille","lat":43.2467,"lon":5.38162,"is_reserved":false,"is_disabled":false,"rental_uris":{"android":"levelo://app?vid=f9f279cc-03ce-4144-bdc3-10e6ec0b5486","ios":"levelo://app?vid=f9f279cc-03ce-4144-bdc3-10e6ec0b5486"},"vehicle_type_id":"4","last_reported":1732875054,"current_range_meters":19200,"station_id":"ce4bhih2rcd13ifvqfr0","pricing_plan_id":"cebpf4jnsgd1na2vs0mg"},{"bike_id":"b883220f-ab87-4f0c-8233-cd89467977a7","system_id":"levelo_inurba_marseille","lat":43.25856,"lon":5.39897,"is_reserved":false,"is_disabled":false,"rental_uris":{"android":"levelo://app?vid=b883220f-ab87-4f0c-8233-cd89467977a7","ios":"levelo://app?vid=b883220f-ab87-4f0c-8233-cd89467977a7"},"vehicle_type_id":"4","last_reported":1732875054,"current_range_meters":38400,"station_id":"ce4bhl92rcd13ifvqghg","pricing_plan_id":"cebpf4jnsgd1na2vs0mg"},{"bike_id":"8c199678-58de-40fe-8ff6-9c176228f61c","system_id":"levelo_inurba_marseille","lat":43.24996,"lon":5.38932,"is_reserved":false,"is_disabled":false,"rental_uris":{"android":"levelo://app?vid=8c199678-58de-40fe-8ff6-9c176228f61c","ios":"levelo://app?vid=8c199678-58de-40fe-8ff6-9c176228f61c"},"vehicle_type_id":"4","last_reported":1732875054,"current_range_meters":16400,"station_id":"ce4bhgp2rcd13ifvqfd0","pricing_plan_id":"cebpf4jnsgd1na2vs0mg"},{"bike_id":"87a20c3c-65d4-407c-8eaf-fd2e0980a57a","system_id":"levelo_inurba_marseille","lat":43.33111,"lon":5.38227,"is_reserved":false,"is_disabled":false,"rental_uris":{"android":"levelo://app?vid=87a20c3c-65d4-407c-8eaf-fd2e0980a57a","ios":"levelo://app?vid=87a20c3c-65d4-407c-8eaf-fd2e0980a57a"},"vehicle_type_id":"4","last_reported":1732875054,"current_range_meters":16400,"station_id":"","pricing_plan_id":"cebpf4jnsgd1na2vs0mg"},{"bike_id":"19a9cab9-01f9-444b-adc4-eed2cc9b7010","system_id":"levelo_inurba_marseille","lat":43.29637,"lon":5.40606,"is_reserved":false,"is_disabled":false,"rental_uris":{"android":"levelo://app?vid=19a9cab9-01f9-444b-adc4-eed2cc9b7010","ios":"levelo://app?vid=19a9cab9-01f9-444b-adc4-eed2cc9b7010"},"vehicle_type_id":"4","last_reported":1732875054,"current_range_meters":8800,"station_id":"ce4bh0h2rcd13ifvqd60","pricing_plan_id":"cebpf4jnsgd1na2vs0mg"},{"bike_id":"91475a11-c126-482c-88c0-39201ca2c9ce","system_id":"levelo_inurba_marseille","lat":43.28273,"lon":5.35055,"is_reserved":false,"is_disabled":false,"rental_uris":{"android":"levelo://app?vid=91475a11-c126-482c-88c0-39201ca2c9ce","ios":"levelo://app?vid=91475a11-c126-482c-88c0-39201ca2c9ce"},"vehicle_type_id":"4","last_reported":1732875054,"current_range_meters":38400,"station_id":"ce4bhbp2rcd13ifvqerg","pricing_plan_id":"cebpf4jnsgd1na2vs0mg"},{"bike_id":"5c670c7d-0d60-4102-9a74-1828538b3baa","system_id":"levelo_inurba_marseille","lat":43.30305,"lon":5.36896,"is_reserved":false,"is_disabled":false,"rental_uris":{"android":"levelo://app?vid=5c670c7d-0d60-4102-9a74-1828538b3baa","ios":"levelo://app?vid=5c670c7d-0d60-4102-9a74-1828538b3baa"},"vehicle_type_id":"4","last_reported":1732875054,"current_range_meters":20000,"station_id":"ce4bgqh2rcd13ifvqc5g","pricing_plan_id":"cebpf4jnsgd1na2vs0mg"},{"bike_id":"8ccfdda0-7d32-44f9-9ebe-5173228549d6","system_id":"levelo_inurba_marseille","lat":43.32059,"lon":5.4154,"is_reserved":false,"is_disabled":false,"rental_uris":{"android":"levelo://app?vid=8ccfdda0-7d32-44f9-9ebe-5173228549d6","ios":"levelo://app?vid=8ccfdda0-7d32-44f9-9ebe-5173228549d6"},"vehicle_type_id":"4","last_reported":1732875054,"current_range_meters":35200,"station_id":"ce4bhq92rcd13ifvqhkg","pricing_plan_id":"cebpf4jnsgd1na2vs0mg"},{"bike_id":"6d36c8f0-b76c-4a42-89c1-c82a97920aee","system_id":"levelo_inurba_marseille","lat":43.30317,"lon":5.39202,"is_reserved":false,"is_disabled":false,"rental_uris":{"android":"levelo://app?vid=6d36c8f0-b76c-4a42-89c1-c82a97920aee","ios":"levelo://app?vid=6d36c8f0-b76c-4a42-89c1-c82a97920aee"},"vehicle_type_id":"4","last_reported":1732875054,"current_range_meters":7200,"station_id":"ce4bgkh2rcd13ifvqbk0","pricing_plan_id":"cebpf4jnsgd1na2vs0mg"},{"bike_id":"a77952b3-3b0d-4465-b61c-0f3f802e5b2d","system_id":"levelo_inurba_marseille","lat":43.32553,"lon":5.41478,"is_reserved":false,"is_disabled":false,"rental_uris":{"android":"levelo://app?vid=a77952b3-3b0d-4465-b61c-0f3f802e5b2d","ios":"levelo://app?vid=a77952b3-3b0d-4465-b61c-0f3f802e5b2d"},"vehicle_type_id":"4","last_reported":1732875054,"current_range_meters":8400,"station_id":"ce4bhq12rcd13ifvqhhg","pricing_plan_id":"cebpf4jnsgd1na2vs0mg"},{"bike_id":"37e6b652-b990-4fd3-859f-2eb3ce6c15be","system_id":"levelo_inurba_marseille","lat":43.26956,"lon":5.38637,"is_reserved":false,"is_disabled":false,"rental_uris":{"android":"levelo://app?vid=37e6b652-b990-4fd3-859f-2eb3ce6c15be","ios":"levelo://app?vid=37e6b652-b990-4fd3-859f-2eb3ce6c15be"},"vehicle_type_id":"4","last_reported":1732875054,"current_range_meters":16800,"station_id":"ce4bhh92rcd13ifvqfh0","pricing_plan_id":"cebpf4jnsgd1na2vs0mg"},{"bike_id":"6eaf9167-5116-4163-8b77-e0e9e5b35c42","system_id":"levelo_inurba_marseille","lat":43.2396,"lon":5.36645,"is_reserved":false,"is_disabled":false,"rental_uris":{"android":"levelo://app?vid=6eaf9167-5116-4163-8b77-e0e9e5b35c42","ios":"levelo://app?vid=6eaf9167-5116-4163-8b77-e0e9e5b35c42"},"vehicle_type_id":"4","last_reported":1732875054,"current_range_meters":37600,"station_id":"ce4bhi12rcd13ifvqfp0","pricing_plan_id":"cebpf4jnsgd1na2vs0mg"},{"bike_id":"81d9f7be-c3c6-4233-bf11-948e6f22debc","system_id":"levelo_inurba_marseille","lat":43.32365,"lon":5.38877,"is_reserved":false,"is_disabled":false,"rental_uris":{"android":"levelo://app?vid=81d9f7be-c3c6-4233-bf11-948e6f22debc","ios":"levelo://app?vid=81d9f7be-c3c6-4233-bf11-948e6f22debc"},"vehicle_type_id":"4","last_reported":1732875054,"current_range_meters":37600,"station_id":"ce4bhqp2rcd13ifvqhog","pricing_plan_id":"cebpf4jnsgd1na2vs0mg"},{"bike_id":"7fe8aae4-e2fd-45e8-ad84-418c66f3914f","system_id":"levelo_inurba_marseille","lat":43.28253,"lon":5.35053,"is_reserved":false,"is_disabled":true,"rental_uris":{"android":"levelo://app?vid=7fe8aae4-e2fd-45e8-ad84-418c66f3914f","ios":"levelo://app?vid=7fe8aae4-e2fd-45e8-ad84-418c66f3914f"},"vehicle_type_id":"4","last_reported":1732875054,"current_range_meters":8000,"station_id":"","pricing_plan_id":"cebpf4jnsgd1na2vs0mg"},{"bike_id":"1a1dbf65-b382-4d6a-bb3d-805762a9b907","system_id":"levelo_inurba_marseille","lat":43.26191,"lon":5.37488,"is_reserved":false,"is_disabled":false,"rental_uris":{"android":"levelo://app?vid=1a1dbf65-b382-4d6a-bb3d-805762a9b907","ios":"levelo://app?vid=1a1dbf65-b382-4d6a-bb3d-805762a9b907"},"vehicle_type_id":"4","last_reported":1732875054,"current_range_meters":38000,"station_id":"ce4bhgp2rcd13ifvqfc0","pricing_plan_id":"cebpf4jnsgd1na2vs0mg"},{"bike_id":"94952af0-4d0f-40a0-b02f-d2b1b059440a","system_id":"levelo_inurba_marseille","lat":43.30784,"lon":5.37651,"is_reserved":false,"is_disabled":false,"rental_uris":{"android":"levelo://app?vid=94952af0-4d0f-40a0-b02f-d2b1b059440a","ios":"levelo://app?vid=94952af0-4d0f-40a0-b02f-d2b1b059440a"},"vehicle_type_id":"4","last_reported":1732875054,"current_range_meters":25200,"station_id":"ce4bgv92rcd13ifvqcq0","pricing_plan_id":"cebpf4jnsgd1na2vs0mg"},{"bike_id":"0524318d-c2fc-4081-82d0-1b86d8b57b76","system_id":"levelo_inurba_marseille","lat":43.28003,"lon":5.40013,"is_reserved":false,"is_disabled":false,"rental_uris":{"android":"levelo://app?vid=0524318d-c2fc-4081-82d0-1b86d8b57b76","ios":"levelo://app?vid=0524318d-c2fc-4081-82d0-1b86d8b57b76"},"vehicle_type_id":"4","last_reported":1732875054,"current_range_meters":33600,"station_id":"ce4bho92rcd13ifvqh4g","pricing_plan_id":"cebpf4jnsgd1na2vs0mg"},{"bike_id":"62dd7d8f-a826-42c9-8798-d871fa21b979","system_id":"levelo_inurba_marseille","lat":43.31354,"lon":5.36716,"is_reserved":false,"is_disabled":false,"rental_uris":{"android":"levelo://app?vid=62dd7d8f-a826-42c9-8798-d871fa21b979","ios":"levelo://app?vid=62dd7d8f-a826-42c9-8798-d871fa21b979"},"vehicle_type_id":"4","last_reported":1732875054,"current_range_meters":20000,"station_id":"ce4bgr92rcd13ifvqc6g","pricing_plan_id":"cebpf4jnsgd1na2vs0mg"},{"bike_id":"649a6420-7d73-486f-af75-52c8a4c9f23a","system_id":"levelo_inurba_marseille","lat":43.31355,"lon":5.36724,"is_reserved":false,"is_disabled":false,"rental_uris":{"android":"levelo://app?vid=649a6420-7d73-486f-af75-52c8a4c9f23a","ios":"levelo://app?vid=649a6420-7d73-486f-af75-52c8a4c9f23a"},"vehicle_type_id":"4","last_reported":1732875054,"current_range_meters":36400,"station_id":"ce4bgr92rcd13ifvqc6g","pricing_plan_id":"cebpf4jnsgd1na2vs0mg"},{"bike_id":"29a80c71-9648-4a26-b6c9-5f69092eaa01","system_id":"levelo_inurba_marseille","lat":43.27067,"lon":5.42273,"is_reserved":false,"is_disabled":true,"rental_uris":{"android":"levelo://app?vid=29a80c71-9648-4a26-b6c9-5f69092eaa01","ios":"levelo://app?vid=29a80c71-9648-4a26-b6c9-5f69092eaa01"},"vehicle_type_id":"4","last_reported":1732875054,"current_range_meters":38800,"station_id":"ce4bhk92rcd13ifvqgb0","pricing_plan_id":"cebpf4jnsgd1na2vs0mg"},{"bike_id":"6b5ae9b2-9f78-478e-91ff-69b4270219f1","system_id":"levelo_inurba_marseille","lat":43.28261,"lon":5.35068,"is_reserved":false,"is_disabled":false,"rental_uris":{"android":"levelo://app?vid=6b5ae9b2-9f78-478e-91ff-69b4270219f1","ios":"levelo://app?vid=6b5ae9b2-9f78-478e-91ff-69b4270219f1"},"vehicle_type_id":"4","last_reported":1732875054,"current_range_meters":38800,"station_id":"ce4bhbp2rcd13ifvqerg","pricing_plan_id":"cebpf4jnsgd1na2vs0mg"},{"bike_id":"2a60fd72-9cfa-415f-937e-d89edec4f374","system_id":"levelo_inurba_marseille","lat":43.25005,"lon":5.38914,"is_reserved":false,"is_disabled":false,"rental_uris":{"android":"levelo://app?vid=2a60fd72-9cfa-415f-937e-d89edec4f374","ios":"levelo://app?vid=2a60fd72-9cfa-415f-937e-d89edec4f374"},"vehicle_type_id":"4","last_reported":1732875054,"current_range_meters":28400,"station_id":"ce4bhgp2rcd13ifvqfd0","pricing_plan_id":"cebpf4jnsgd1na2vs0mg"},{"bike_id":"5b6140a7-7f65-4ca3-a3f2-419ab04c93da","system_id":"levelo_inurba_marseille","lat":43.2293,"lon":5.3538,"is_reserved":false,"is_disabled":true,"rental_uris":{"android":"levelo://app?vid=5b6140a7-7f65-4ca3-a3f2-419ab04c93da","ios":"levelo://app?vid=5b6140a7-7f65-4ca3-a3f2-419ab04c93da"},"vehicle_type_id":"4","last_reported":1732875054,"current_range_meters":28400,"station_id":"","pricing_plan_id":"cebpf4jnsgd1na2vs0mg"},{"bike_id":"b9cb58b2-599a-4dbc-9777-78abe8b4a437","system_id":"levelo_inurba_marseille","lat":43.30179,"lon":5.36603,"is_reserved":false,"is_disabled":false,"rental_uris":{"android":"levelo://app?vid=b9cb58b2-599a-4dbc-9777-78abe8b4a437","ios":"levelo://app?vid=b9cb58b2-599a-4dbc-9777-78abe8b4a437"},"vehicle_type_id":"4","last_reported":1732875054,"current_range_meters":16800,"station_id":"ce4bgrh2rcd13ifvqc8g","pricing_plan_id":"cebpf4jnsgd1na2vs0mg"},{"bike_id":"caa68610-0790-44d3-8711-21c8b1e19f5b","system_id":"levelo_inurba_marseille","lat":43.27302,"lon":5.39056,"is_reserved":false,"is_disabled":false,"rental_uris":{"android":"levelo://app?vid=caa68610-0790-44d3-8711-21c8b1e19f5b","ios":"levelo://app?vid=caa68610-0790-44d3-8711-21c8b1e19f5b"},"vehicle_type_id":"4","last_reported":1732875054,"current_range_meters":14800,"station_id":"ce4bhgp2rcd13ifvqfe0","pricing_plan_id":"cebpf4jnsgd1na2vs0mg"},{"bike_id":"414ced6b-9457-41ed-a305-11df89f57c01","system_id":"levelo_inurba_marseille","lat":43.34144,"lon":5.40905,"is_reserved":false,"is_disabled":false,"rental_uris":{"android":"levelo://app?vid=414ced6b-9457-41ed-a305-11df89f57c01","ios":"levelo://app?vid=414ced6b-9457-41ed-a305-11df89f57c01"},"vehicle_type_id":"4","last_reported":1732875054,"current_range_meters":8000,"station_id":"ce4bhqh2rcd13ifvqhlg","pricing_plan_id":"cebpf4jnsgd1na2vs0mg"},{"bike_id":"64b95c1d-3e64-4c2b-9c8d-b6d2e325dedc","system_id":"levelo_inurba_marseille","lat":43.309536,"lon":5.390408,"is_reserved":false,"is_disabled":false,"rental_uris":{"android":"levelo://app?vid=64b95c1d-3e64-4c2b-9c8d-b6d2e325dedc","ios":"levelo://app?vid=64b95c1d-3e64-4c2b-9c8d-b6d2e325dedc"},"vehicle_type_id":"4","last_reported":1732875054,"current_range_meters":38800,"station_id":"ce4bgup2rcd13ifvqco0","pricing_plan_id":"cebpf4jnsgd1na2vs0mg"},{"bike_id":"bdf92731-d085-4aca-9c06-a8bf8cd225dc","system_id":"levelo_inurba_marseille","lat":43.29294,"lon":5.37162,"is_reserved":false,"is_disabled":false,"rental_uris":{"android":"levelo://app?vid=bdf92731-d085-4aca-9c06-a8bf8cd225dc","ios":"levelo://app?vid=bdf92731-d085-4aca-9c06-a8bf8cd225dc"},"vehicle_type_id":"4","last_reported":1732875054,"current_range_meters":35200,"station_id":"ce4bgh92rcd13ifvqb40","pricing_plan_id":"cebpf4jnsgd1na2vs0mg"},{"bike_id":"2b5fa18c-7202-4e5d-b392-56d7bf7de53d","system_id":"levelo_inurba_marseille","lat":43.25937,"lon":5.40909,"is_reserved":false,"is_disabled":false,"rental_uris":{"android":"levelo://app?vid=2b5fa18c-7202-4e5d-b392-56d7bf7de53d","ios":"levelo://app?vid=2b5fa18c-7202-4e5d-b392-56d7bf7de53d"},"vehicle_type_id":"4","last_reported":1732875054,"current_range_meters":36800,"station_id":"ce4bhm92rcd13ifvqglg","pricing_plan_id":"cebpf4jnsgd1na2vs0mg"},{"bike_id":"759518f4-9f32-4b72-97fe-df61c6c7bd05","system_id":"levelo_inurba_marseille","lat":43.30132,"lon":5.38047,"is_reserved":false,"is_disabled":false,"rental_uris":{"android":"levelo://app?vid=759518f4-9f32-4b72-97fe-df61c6c7bd05","ios":"levelo://app?vid=759518f4-9f32-4b72-97fe-df61c6c7bd05"},"vehicle_type_id":"4","last_reported":1732875054,"current_range_meters":14800,"station_id":"","pricing_plan_id":"cebpf4jnsgd1na2vs0mg"},{"bike_id":"ace184fa-05b0-431e-8c32-1713ecdd2b36","system_id":"levelo_inurba_marseille","lat":43.26564,"lon":5.38993,"is_reserved":false,"is_disabled":false,"rental_uris":{"android":"levelo://app?vid=ace184fa-05b0-431e-8c32-1713ecdd2b36","ios":"levelo://app?vid=ace184fa-05b0-431e-8c32-1713ecdd2b36"},"vehicle_type_id":"4","last_reported":1732875054,"current_range_meters":38800,"station_id":"ce4bhe12rcd13ifvqf30","pricing_plan_id":"cebpf4jnsgd1na2vs0mg"},{"bike_id":"0bd8075f-ca45-4776-b01e-09d2a31c3ab0","system_id":"levelo_inurba_marseille","lat":43.31353,"lon":5.38494,"is_reserved":false,"is_disabled":false,"rental_uris":{"android":"levelo://app?vid=0bd8075f-ca45-4776-b01e-09d2a31c3ab0","ios":"levelo://app?vid=0bd8075f-ca45-4776-b01e-09d2a31c3ab0"},"vehicle_type_id":"4","last_reported":1732875054,"current_range_meters":25200,"station_id":"ce4bgt92rcd13ifvqcf0","pricing_plan_id":"cebpf4jnsgd1na2vs0mg"},{"bike_id":"6aa7d263-c9db-4fc0-b9ea-e1517b0dfa32","system_id":"levelo_inurba_marseille","lat":43.28147,"lon":5.42646,"is_reserved":false,"is_disabled":false,"rental_uris":{"android":"levelo://app?vid=6aa7d263-c9db-4fc0-b9ea-e1517b0dfa32","ios":"levelo://app?vid=6aa7d263-c9db-4fc0-b9ea-e1517b0dfa32"},"vehicle_type_id":"4","last_reported":1732875054,"current_range_meters":38800,"station_id":"ce4bhnh2rcd13ifvqgug","pricing_plan_id":"cebpf4jnsgd1na2vs0mg"},{"bike_id":"90e0acb7-ca5a-4511-a87e-f2af5951bdfe","system_id":"levelo_inurba_marseille","lat":43.3088,"lon":5.37203,"is_reserved":false,"is_disabled":false,"rental_uris":{"android":"levelo://app?vid=90e0acb7-ca5a-4511-a87e-f2af5951bdfe","ios":"levelo://app?vid=90e0acb7-ca5a-4511-a87e-f2af5951bdfe"},"vehicle_type_id":"4","last_reported":1732875054,"current_range_meters":18000,"station_id":"ce4bguh2rcd13ifvqckg","pricing_plan_id":"cebpf4jnsgd1na2vs0mg"},{"bike_id":"45ee1737-cd22-42fb-a8ff-9c819e5c2a31","system_id":"levelo_inurba_marseille","lat":43.30913,"lon":5.36852,"is_reserved":false,"is_disabled":false,"rental_uris":{"android":"levelo://app?vid=45ee1737-cd22-42fb-a8ff-9c819e5c2a31","ios":"levelo://app?vid=45ee1737-cd22-42fb-a8ff-9c819e5c2a31"},"vehicle_type_id":"4","last_reported":1732875054,"current_range_meters":39200,"station_id":"ce4bgn92rcd13ifvqbvg","pricing_plan_id":"cebpf4jnsgd1na2vs0mg"},{"bike_id":"d90187ac-9efa-44f4-af46-f9bcc9e2dd3f","system_id":"levelo_inurba_marseille","lat":43.29381,"lon":5.37931,"is_reserved":false,"is_disabled":false,"rental_uris":{"android":"levelo://app?vid=d90187ac-9efa-44f4-af46-f9bcc9e2dd3f","ios":"levelo://app?vid=d90187ac-9efa-44f4-af46-f9bcc9e2dd3f"},"vehicle_type_id":"4","last_reported":1732875054,"current_range_meters":32400,"station_id":"ce4bhf92rcd13ifvqf50","pricing_plan_id":"cebpf4jnsgd1na2vs0mg"},{"bike_id":"2278c589-a3e3-4678-a431-058ef37a5b54","system_id":"levelo_inurba_marseille","lat":43.26957,"lon":5.38611,"is_reserved":false,"is_disabled":false,"rental_uris":{"android":"levelo://app?vid=2278c589-a3e3-4678-a431-058ef37a5b54","ios":"levelo://app?vid=2278c589-a3e3-4678-a431-058ef37a5b54"},"vehicle_type_id":"4","last_reported":1732875054,"current_range_meters":38800,"station_id":"ce4bhh92rcd13ifvqfh0","pricing_plan_id":"cebpf4jnsgd1na2vs0mg"},{"bike_id":"b679c106-b8c2-4448-a34c-59703bb4366b","system_id":"levelo_inurba_marseille","lat":43.29598,"lon":5.38106,"is_reserved":false,"is_disabled":true,"rental_uris":{"android":"levelo://app?vid=b679c106-b8c2-4448-a34c-59703bb4366b","ios":"levelo://app?vid=b679c106-b8c2-4448-a34c-59703bb4366b"},"vehicle_type_id":"4","last_reported":1732875054,"current_range_meters":2000,"station_id":"ce4bgl12rcd13ifvqbo0","pricing_plan_id":"cebpf4jnsgd1na2vs0mg"},{"bike_id":"f232c7f1-c16a-416b-95f5-707af012466e","system_id":"levelo_inurba_marseille","lat":43.32091,"lon":5.41518,"is_reserved":false,"is_disabled":false,"rental_uris":{"android":"levelo://app?vid=f232c7f1-c16a-416b-95f5-707af012466e","ios":"levelo://app?vid=f232c7f1-c16a-416b-95f5-707af012466e"},"vehicle_type_id":"4","last_reported":1732875054,"current_range_meters":36400,"station_id":"","pricing_plan_id":"cebpf4jnsgd1na2vs0mg"},{"bike_id":"c36c9719-f2bb-432e-9c6e-4514ff969e45","system_id":"levelo_inurba_marseille","lat":43.30277,"lon":5.37692,"is_reserved":false,"is_disabled":false,"rental_uris":{"android":"levelo://app?vid=c36c9719-f2bb-432e-9c6e-4514ff969e45","ios":"levelo://app?vid=c36c9719-f2bb-432e-9c6e-4514ff969e45"},"vehicle_type_id":"4","last_reported":1732875054,"current_range_meters":26800,"station_id":"ce4bguh2rcd13ifvqcj0","pricing_plan_id":"cebpf4jnsgd1na2vs0mg"},{"bike_id":"b036063e-a5f2-4d26-b4d4-1ff11e0df402","system_id":"levelo_inurba_marseille","lat":43.33607,"lon":5.41033,"is_reserved":false,"is_disabled":false,"rental_uris":{"android":"levelo://app?vid=b036063e-a5f2-4d26-b4d4-1ff11e0df402","ios":"levelo://app?vid=b036063e-a5f2-4d26-b4d4-1ff11e0df402"},"vehicle_type_id":"4","last_reported":1732875054,"current_range_meters":22400,"station_id":"ce4bhqh2rcd13ifvqhmg","pricing_plan_id":"cebpf4jnsgd1na2vs0mg"},{"bike_id":"bf7f1022-0edf-4cc4-a795-270242306698","system_id":"levelo_inurba_marseille","lat":43.29273,"lon":5.40113,"is_reserved":false,"is_disabled":false,"rental_uris":{"android":"levelo://app?vid=bf7f1022-0edf-4cc4-a795-270242306698","ios":"levelo://app?vid=bf7f1022-0edf-4cc4-a795-270242306698"},"vehicle_type_id":"4","last_reported":1732875054,"current_range_meters":20800,"station_id":"ce4bh312rcd13ifvqdk0","pricing_plan_id":"cebpf4jnsgd1na2vs0mg"},{"bike_id":"3b4f80c2-f82c-40ea-a4d9-a8a60f658127","system_id":"levelo_inurba_marseille","lat":43.28854,"lon":5.358444,"is_reserved":false,"is_disabled":false,"rental_uris":{"android":"levelo://app?vid=3b4f80c2-f82c-40ea-a4d9-a8a60f658127","ios":"levelo://app?vid=3b4f80c2-f82c-40ea-a4d9-a8a60f658127"},"vehicle_type_id":"4","last_reported":1732875054,"current_range_meters":16000,"station_id":"ce4bhb12rcd13ifvqem0","pricing_plan_id":"cebpf4jnsgd1na2vs0mg"},{"bike_id":"14f77994-bb9f-4ef7-a188-04acbf54d1a2","system_id":"levelo_inurba_marseille","lat":43.31489,"lon":5.37294,"is_reserved":false,"is_disabled":false,"rental_uris":{"android":"levelo://app?vid=14f77994-bb9f-4ef7-a188-04acbf54d1a2","ios":"levelo://app?vid=14f77994-bb9f-4ef7-a188-04acbf54d1a2"},"vehicle_type_id":"4","last_reported":1732875054,"current_range_meters":38800,"station_id":"ce4bgt12rcd13ifvqcd0","pricing_plan_id":"cebpf4jnsgd1na2vs0mg"},{"bike_id":"c9539d53-76d7-41f2-9f7b-36113051e9ab","system_id":"levelo_inurba_marseille","lat":43.29277,"lon":5.36855,"is_reserved":false,"is_disabled":false,"rental_uris":{"android":"levelo://app?vid=c9539d53-76d7-41f2-9f7b-36113051e9ab","ios":"levelo://app?vid=c9539d53-76d7-41f2-9f7b-36113051e9ab"},"vehicle_type_id":"4","last_reported":1732875054,"current_range_meters":28400,"station_id":"ce4bhbp2rcd13ifvqesg","pricing_plan_id":"cebpf4jnsgd1na2vs0mg"},{"bike_id":"47da4365-67a9-4042-9bbe-bad77ad24e5f","system_id":"levelo_inurba_marseille","lat":43.29805,"lon":5.38099,"is_reserved":false,"is_disabled":false,"rental_uris":{"android":"levelo://app?vid=47da4365-67a9-4042-9bbe-bad77ad24e5f","ios":"levelo://app?vid=47da4365-67a9-4042-9bbe-bad77ad24e5f"},"vehicle_type_id":"4","last_reported":1732875054,"current_range_meters":35600,"station_id":"ce4bgip2rcd13ifvqbb0","pricing_plan_id":"cebpf4jnsgd1na2vs0mg"},{"bike_id":"0551ec67-94ad-4fcc-a139-50dc5d1a4e00","system_id":"levelo_inurba_marseille","lat":43.31303,"lon":5.36714,"is_reserved":false,"is_disabled":false,"rental_uris":{"android":"levelo://app?vid=0551ec67-94ad-4fcc-a139-50dc5d1a4e00","ios":"levelo://app?vid=0551ec67-94ad-4fcc-a139-50dc5d1a4e00"},"vehicle_type_id":"4","last_reported":1732875054,"current_range_meters":25200,"station_id":"ce4bgr92rcd13ifvqc6g","pricing_plan_id":"cebpf4jnsgd1na2vs0mg"},{"bike_id":"7789e245-92df-43c2-8166-d6f7ccbd033b","system_id":"levelo_inurba_marseille","lat":43.29178,"lon":5.37909,"is_reserved":false,"is_disabled":true,"rental_uris":{"android":"levelo://app?vid=7789e245-92df-43c2-8166-d6f7ccbd033b","ios":"levelo://app?vid=7789e245-92df-43c2-8166-d6f7ccbd033b"},"vehicle_type_id":"4","last_reported":1732875054,"current_range_meters":6800,"station_id":"","pricing_plan_id":"cebpf4jnsgd1na2vs0mg"},{"bike_id":"93bf632f-9c2c-453f-931e-3a26e12fd5f1","system_id":"levelo_inurba_marseille","lat":43.30125,"lon":5.39857,"is_reserved":false,"is_disabled":false,"rental_uris":{"android":"levelo://app?vid=93bf632f-9c2c-453f-931e-3a26e12fd5f1","ios":"levelo://app?vid=93bf632f-9c2c-453f-931e-3a26e12fd5f1"},"vehicle_type_id":"4","last_reported":1732875054,"current_range_meters":38800,"station_id":"ce4bh0h2rcd13ifvqd40","pricing_plan_id":"cebpf4jnsgd1na2vs0mg"},{"bike_id":"f42e38d6-bd43-42ac-a6f7-6b66a2ade6dd","system_id":"levelo_inurba_marseille","lat":43.26953,"lon":5.38618,"is_reserved":false,"is_disabled":false,"rental_uris":{"android":"levelo://app?vid=f42e38d6-bd43-42ac-a6f7-6b66a2ade6dd","ios":"levelo://app?vid=f42e38d6-bd43-42ac-a6f7-6b66a2ade6dd"},"vehicle_type_id":"4","last_reported":1732875054,"current_range_meters":22000,"station_id":"ce4bhh92rcd13ifvqfh0","pricing_plan_id":"cebpf4jnsgd1na2vs0mg"},{"bike_id":"fe1c6c60-0f4f-4b5c-a7ea-9f2ff8347245","system_id":"levelo_inurba_marseille","lat":43.27616,"lon":5.36102,"is_reserved":false,"is_disabled":true,"rental_uris":{"android":"levelo://app?vid=fe1c6c60-0f4f-4b5c-a7ea-9f2ff8347245","ios":"levelo://app?vid=fe1c6c60-0f4f-4b5c-a7ea-9f2ff8347245"},"vehicle_type_id":"4","last_reported":1732875054,"current_range_meters":0,"station_id":"ce4bgj92rcd13ifvqbe0","pricing_plan_id":"cebpf4jnsgd1na2vs0mg"},{"bike_id":"c1273547-3d6b-4a56-8c27-39d198530abf","system_id":"levelo_inurba_marseille","lat":43.30603,"lon":5.3723,"is_reserved":false,"is_disabled":false,"rental_uris":{"android":"levelo://app?vid=c1273547-3d6b-4a56-8c27-39d198530abf","ios":"levelo://app?vid=c1273547-3d6b-4a56-8c27-39d198530abf"},"vehicle_type_id":"4","last_reported":1732875054,"current_range_meters":39200,"station_id":"ce4bgqh2rcd13ifvqc4g","pricing_plan_id":"cebpf4jnsgd1na2vs0mg"},{"bike_id":"839c30dd-94a5-4141-9c4d-65189b8854c9","system_id":"levelo_inurba_marseille","lat":43.2707,"lon":5.42284,"is_reserved":false,"is_disabled":false,"rental_uris":{"android":"levelo://app?vid=839c30dd-94a5-4141-9c4d-65189b8854c9","ios":"levelo://app?vid=839c30dd-94a5-4141-9c4d-65189b8854c9"},"vehicle_type_id":"4","last_reported":1732875054,"current_range_meters":26800,"station_id":"ce4bhk92rcd13ifvqgb0","pricing_plan_id":"cebpf4jnsgd1na2vs0mg"},{"bike_id":"371abac0-5dd0-42bb-a641-ca0cac7a118a","system_id":"levelo_inurba_marseille","lat":43.27666,"lon":5.38903,"is_reserved":false,"is_disabled":true,"rental_uris":{"android":"levelo://app?vid=371abac0-5dd0-42bb-a641-ca0cac7a118a","ios":"levelo://app?vid=371abac0-5dd0-42bb-a641-ca0cac7a118a"},"vehicle_type_id":"4","last_reported":1732875054,"current_range_meters":0,"station_id":"ce4bhi12rcd13ifvqfo0","pricing_plan_id":"cebpf4jnsgd1na2vs0mg"},{"bike_id":"b453e718-367d-44bc-833a-93c6887bd103","system_id":"levelo_inurba_marseille","lat":43.26805,"lon":5.40264,"is_reserved":false,"is_disabled":false,"rental_uris":{"android":"levelo://app?vid=b453e718-367d-44bc-833a-93c6887bd103","ios":"levelo://app?vid=b453e718-367d-44bc-833a-93c6887bd103"},"vehicle_type_id":"4","last_reported":1732875054,"current_range_meters":39200,"station_id":"ce501612rcd8frsf0b60","pricing_plan_id":"cebpf4jnsgd1na2vs0mg"},{"bike_id":"44692518-f307-4d34-bde3-20456f8e1767","system_id":"levelo_inurba_marseille","lat":43.27429,"lon":5.39024,"is_reserved":false,"is_disabled":false,"rental_uris":{"android":"levelo://app?vid=44692518-f307-4d34-bde3-20456f8e1767","ios":"levelo://app?vid=44692518-f307-4d34-bde3-20456f8e1767"},"vehicle_type_id":"4","last_reported":1732875054,"current_range_meters":24800,"station_id":"","pricing_plan_id":"cebpf4jnsgd1na2vs0mg"},{"bike_id":"57883350-7ee0-4b23-9fb4-e091ce37b4c3","system_id":"levelo_inurba_marseille","lat":43.2718,"lon":5.4099,"is_reserved":false,"is_disabled":false,"rental_uris":{"android":"levelo://app?vid=57883350-7ee0-4b23-9fb4-e091ce37b4c3","ios":"levelo://app?vid=57883350-7ee0-4b23-9fb4-e091ce37b4c3"},"vehicle_type_id":"4","last_reported":1732875054,"current_range_meters":30000,"station_id":"ce4bhl12rcd13ifvqgf0","pricing_plan_id":"cebpf4jnsgd1na2vs0mg"},{"bike_id":"db9231d9-d03b-4f2c-bd7b-c9ba898fcedc","system_id":"levelo_inurba_marseille","lat":43.30545,"lon":5.36555,"is_reserved":false,"is_disabled":false,"rental_uris":{"android":"levelo://app?vid=db9231d9-d03b-4f2c-bd7b-c9ba898fcedc","ios":"levelo://app?vid=db9231d9-d03b-4f2c-bd7b-c9ba898fcedc"},"vehicle_type_id":"4","last_reported":1732875054,"current_range_meters":35200,"station_id":"ce4bgs12rcd13ifvqcag","pricing_plan_id":"cebpf4jnsgd1na2vs0mg"},{"bike_id":"179b5b97-0a72-4abe-998c-b37c239cc4f9","system_id":"levelo_inurba_marseille","lat":43.28411,"lon":5.34981,"is_reserved":false,"is_disabled":false,"rental_uris":{"android":"levelo://app?vid=179b5b97-0a72-4abe-998c-b37c239cc4f9","ios":"levelo://app?vid=179b5b97-0a72-4abe-998c-b37c239cc4f9"},"vehicle_type_id":"4","last_reported":1732875054,"current_range_meters":39200,"station_id":"ce4bhbh2rcd13ifvqepg","pricing_plan_id":"cebpf4jnsgd1na2vs0mg"},{"bike_id":"329734a5-27ef-48de-9b10-5f93bafe4836","system_id":"levelo_inurba_marseille","lat":43.26937,"lon":5.40255,"is_reserved":false,"is_disabled":false,"rental_uris":{"android":"levelo://app?vid=329734a5-27ef-48de-9b10-5f93bafe4836","ios":"levelo://app?vid=329734a5-27ef-48de-9b10-5f93bafe4836"},"vehicle_type_id":"4","last_reported":1732875054,"current_range_meters":11600,"station_id":"cjm6bp8fraef2m0cb0m0","pricing_plan_id":"cebpf4jnsgd1na2vs0mg"},{"bike_id":"892e7cf2-826d-454a-bddd-ff8f120f3db1","system_id":"levelo_inurba_marseille","lat":43.2968,"lon":5.37296,"is_reserved":false,"is_disabled":false,"rental_uris":{"android":"levelo://app?vid=892e7cf2-826d-454a-bddd-ff8f120f3db1","ios":"levelo://app?vid=892e7cf2-826d-454a-bddd-ff8f120f3db1"},"vehicle_type_id":"4","last_reported":1732875054,"current_range_meters":30400,"station_id":"ce4bgk12rcd13ifvqbj0","pricing_plan_id":"cebpf4jnsgd1na2vs0mg"},{"bike_id":"83331ee4-5ce1-48e8-8eec-1cbdb46fef0c","system_id":"levelo_inurba_marseille","lat":43.27495,"lon":5.42449,"is_reserved":false,"is_disabled":false,"rental_uris":{"android":"levelo://app?vid=83331ee4-5ce1-48e8-8eec-1cbdb46fef0c","ios":"levelo://app?vid=83331ee4-5ce1-48e8-8eec-1cbdb46fef0c"},"vehicle_type_id":"4","last_reported":1732875054,"current_range_meters":33600,"station_id":"ce4bhn92rcd13ifvqgrg","pricing_plan_id":"cebpf4jnsgd1na2vs0mg"},{"bike_id":"a7d03a36-f2d2-4ec9-b8cc-dcb186ac26fd","system_id":"levelo_inurba_marseille","lat":43.30545,"lon":5.36699,"is_reserved":false,"is_disabled":true,"rental_uris":{"android":"levelo://app?vid=a7d03a36-f2d2-4ec9-b8cc-dcb186ac26fd","ios":"levelo://app?vid=a7d03a36-f2d2-4ec9-b8cc-dcb186ac26fd"},"vehicle_type_id":"4","last_reported":1732875054,"current_range_meters":36800,"station_id":"ce4bgrp2rcd13ifvqc9g","pricing_plan_id":"cebpf4jnsgd1na2vs0mg"},{"bike_id":"a11c87cd-c5ed-4a29-ba8a-78abe7a5d984","system_id":"levelo_inurba_marseille","lat":43.27834,"lon":5.39202,"is_reserved":false,"is_disabled":true,"rental_uris":{"android":"levelo://app?vid=a11c87cd-c5ed-4a29-ba8a-78abe7a5d984","ios":"levelo://app?vid=a11c87cd-c5ed-4a29-ba8a-78abe7a5d984"},"vehicle_type_id":"4","last_reported":1732875054,"current_range_meters":28000,"station_id":"ce4bhjp2rcd13ifvqga0","pricing_plan_id":"cebpf4jnsgd1na2vs0mg"},{"bike_id":"aeb5c56a-8b66-4d24-9de5-1ab7a84f8a11","system_id":"levelo_inurba_marseille","lat":43.28103,"lon":5.37849,"is_reserved":false,"is_disabled":false,"rental_uris":{"android":"levelo://app?vid=aeb5c56a-8b66-4d24-9de5-1ab7a84f8a11","ios":"levelo://app?vid=aeb5c56a-8b66-4d24-9de5-1ab7a84f8a11"},"vehicle_type_id":"4","last_reported":1732875054,"current_range_meters":17600,"station_id":"ce4bha12rcd13ifvqee0","pricing_plan_id":"cebpf4jnsgd1na2vs0mg"},{"bike_id":"f6e9d20a-415c-4059-8446-8da030993c32","system_id":"levelo_inurba_marseille","lat":43.31372,"lon":5.36683,"is_reserved":false,"is_disabled":false,"rental_uris":{"android":"levelo://app?vid=f6e9d20a-415c-4059-8446-8da030993c32","ios":"levelo://app?vid=f6e9d20a-415c-4059-8446-8da030993c32"},"vehicle_type_id":"4","last_reported":1732875054,"current_range_meters":24000,"station_id":"ce4bgr92rcd13ifvqc6g","pricing_plan_id":"cebpf4jnsgd1na2vs0mg"},{"bike_id":"75486131-8e85-4448-87a1-67a7e3096de4","system_id":"levelo_inurba_marseille","lat":43.309294,"lon":5.379059,"is_reserved":false,"is_disabled":true,"rental_uris":{"android":"levelo://app?vid=75486131-8e85-4448-87a1-67a7e3096de4","ios":"levelo://app?vid=75486131-8e85-4448-87a1-67a7e3096de4"},"vehicle_type_id":"4","last_reported":1732875054,"current_range_meters":0,"station_id":"","pricing_plan_id":"cebpf4jnsgd1na2vs0mg"},{"bike_id":"a5909545-3e09-4859-9fda-9ffe4e6e4883","system_id":"levelo_inurba_marseille","lat":43.23066,"lon":5.35491,"is_reserved":false,"is_disabled":false,"rental_uris":{"android":"levelo://app?vid=a5909545-3e09-4859-9fda-9ffe4e6e4883","ios":"levelo://app?vid=a5909545-3e09-4859-9fda-9ffe4e6e4883"},"vehicle_type_id":"4","last_reported":1732875054,"current_range_meters":18000,"station_id":"cpo3342slgdg3j2ifvpg","pricing_plan_id":"cebpf4jnsgd1na2vs0mg"},{"bike_id":"b7d8f70c-1040-4e73-a1a9-fd284946081f","system_id":"levelo_inurba_marseille","lat":43.30428,"lon":5.39753,"is_reserved":false,"is_disabled":false,"rental_uris":{"android":"levelo://app?vid=b7d8f70c-1040-4e73-a1a9-fd284946081f","ios":"levelo://app?vid=b7d8f70c-1040-4e73-a1a9-fd284946081f"},"vehicle_type_id":"4","last_reported":1732875054,"current_range_meters":22400,"station_id":"ce4bh092rcd13ifvqd20","pricing_plan_id":"cebpf4jnsgd1na2vs0mg"},{"bike_id":"05412edd-4f98-4b7b-8f3b-a793b3add8af","system_id":"levelo_inurba_marseille","lat":43.30537,"lon":5.36535,"is_reserved":false,"is_disabled":false,"rental_uris":{"android":"levelo://app?vid=05412edd-4f98-4b7b-8f3b-a793b3add8af","ios":"levelo://app?vid=05412edd-4f98-4b7b-8f3b-a793b3add8af"},"vehicle_type_id":"4","last_reported":1732875054,"current_range_meters":26000,"station_id":"ce4bgs12rcd13ifvqcag","pricing_plan_id":"cebpf4jnsgd1na2vs0mg"},{"bike_id":"f8538203-2d29-44f9-8cab-913d86dfea92","system_id":"levelo_inurba_marseille","lat":43.31221,"lon":5.36853,"is_reserved":false,"is_disabled":false,"rental_uris":{"android":"levelo://app?vid=f8538203-2d29-44f9-8cab-913d86dfea92","ios":"levelo://app?vid=f8538203-2d29-44f9-8cab-913d86dfea92"},"vehicle_type_id":"4","last_reported":1732875054,"current_range_meters":38000,"station_id":"ce4bgl92rcd13ifvqbq0","pricing_plan_id":"cebpf4jnsgd1na2vs0mg"},{"bike_id":"1f3be82a-39fb-49be-9f70-2df7092d6f3c","system_id":"levelo_inurba_marseille","lat":43.32482,"lon":5.36571,"is_reserved":false,"is_disabled":false,"rental_uris":{"android":"levelo://app?vid=1f3be82a-39fb-49be-9f70-2df7092d6f3c","ios":"levelo://app?vid=1f3be82a-39fb-49be-9f70-2df7092d6f3c"},"vehicle_type_id":"4","last_reported":1732875054,"current_range_meters":12400,"station_id":"ce4bhs12rcd13ifvqhvg","pricing_plan_id":"cebpf4jnsgd1na2vs0mg"},{"bike_id":"5329edfd-3f80-481f-b22a-9053213b3f4f","system_id":"levelo_inurba_marseille","lat":43.33605,"lon":5.41024,"is_reserved":false,"is_disabled":false,"rental_uris":{"android":"levelo://app?vid=5329edfd-3f80-481f-b22a-9053213b3f4f","ios":"levelo://app?vid=5329edfd-3f80-481f-b22a-9053213b3f4f"},"vehicle_type_id":"4","last_reported":1732875054,"current_range_meters":24400,"station_id":"ce4bhqh2rcd13ifvqhmg","pricing_plan_id":"cebpf4jnsgd1na2vs0mg"},{"bike_id":"d232b51f-8a91-4fe2-8e93-1d5ea369822b","system_id":"levelo_inurba_marseille","lat":43.23156,"lon":5.43706,"is_reserved":false,"is_disabled":false,"rental_uris":{"android":"levelo://app?vid=d232b51f-8a91-4fe2-8e93-1d5ea369822b","ios":"levelo://app?vid=d232b51f-8a91-4fe2-8e93-1d5ea369822b"},"vehicle_type_id":"4","last_reported":1732875054,"current_range_meters":34800,"station_id":"ce4bhmp2rcd13ifvqgog","pricing_plan_id":"cebpf4jnsgd1na2vs0mg"},{"bike_id":"e5951ee3-4a5a-4ebb-b469-096c5188dfa3","system_id":"levelo_inurba_marseille","lat":43.23173,"lon":5.35536,"is_reserved":false,"is_disabled":false,"rental_uris":{"android":"levelo://app?vid=e5951ee3-4a5a-4ebb-b469-096c5188dfa3","ios":"levelo://app?vid=e5951ee3-4a5a-4ebb-b469-096c5188dfa3"},"vehicle_type_id":"4","last_reported":1732875054,"current_range_meters":24400,"station_id":"ce4bhu92rcd13ifvqi70","pricing_plan_id":"cebpf4jnsgd1na2vs0mg"},{"bike_id":"f9a63393-5401-4f98-ae5a-dfbb8291ab6d","system_id":"levelo_inurba_marseille","lat":43.30039,"lon":5.3754,"is_reserved":false,"is_disabled":true,"rental_uris":{"android":"levelo://app?vid=f9a63393-5401-4f98-ae5a-dfbb8291ab6d","ios":"levelo://app?vid=f9a63393-5401-4f98-ae5a-dfbb8291ab6d"},"vehicle_type_id":"4","last_reported":1732875054,"current_range_meters":400,"station_id":"","pricing_plan_id":"cebpf4jnsgd1na2vs0mg"},{"bike_id":"44ccff37-d07d-4ca2-af38-2ef5b84249db","system_id":"levelo_inurba_marseille","lat":43.29782,"lon":5.39341,"is_reserved":false,"is_disabled":false,"rental_uris":{"android":"levelo://app?vid=44ccff37-d07d-4ca2-af38-2ef5b84249db","ios":"levelo://app?vid=44ccff37-d07d-4ca2-af38-2ef5b84249db"},"vehicle_type_id":"4","last_reported":1732875054,"current_range_meters":28400,"station_id":"chh1huq6cuj3fo74tm60","pricing_plan_id":"cebpf4jnsgd1na2vs0mg"},{"bike_id":"de303072-6173-4588-8260-f566e5a6e639","system_id":"levelo_inurba_marseille","lat":43.31349,"lon":5.36762,"is_reserved":false,"is_disabled":false,"rental_uris":{"android":"levelo://app?vid=de303072-6173-4588-8260-f566e5a6e639","ios":"levelo://app?vid=de303072-6173-4588-8260-f566e5a6e639"},"vehicle_type_id":"4","last_reported":1732875054,"current_range_meters":17200,"station_id":"ce4bgr92rcd13ifvqc6g","pricing_plan_id":"cebpf4jnsgd1na2vs0mg"},{"bike_id":"beecf29b-0bf3-4cee-a03e-0dd6251d4d12","system_id":"levelo_inurba_marseille","lat":43.31697,"lon":5.37767,"is_reserved":false,"is_disabled":false,"rental_uris":{"android":"levelo://app?vid=beecf29b-0bf3-4cee-a03e-0dd6251d4d12","ios":"levelo://app?vid=beecf29b-0bf3-4cee-a03e-0dd6251d4d12"},"vehicle_type_id":"4","last_reported":1732875054,"current_range_meters":38800,"station_id":"ce4bgth2rcd13ifvqch0","pricing_plan_id":"cebpf4jnsgd1na2vs0mg"},{"bike_id":"8601dc29-9386-4aed-971c-2030bbd069d3","system_id":"levelo_inurba_marseille","lat":43.27937,"lon":5.41049,"is_reserved":false,"is_disabled":false,"rental_uris":{"android":"levelo://app?vid=8601dc29-9386-4aed-971c-2030bbd069d3","ios":"levelo://app?vid=8601dc29-9386-4aed-971c-2030bbd069d3"},"vehicle_type_id":"4","last_reported":1732875054,"current_range_meters":20800,"station_id":"ce4bhnp2rcd13ifvqh0g","pricing_plan_id":"cebpf4jnsgd1na2vs0mg"},{"bike_id":"13733150-4313-429c-b872-f3cf1ee14a82","system_id":"levelo_inurba_marseille","lat":43.31706,"lon":5.37762,"is_reserved":false,"is_disabled":false,"rental_uris":{"android":"levelo://app?vid=13733150-4313-429c-b872-f3cf1ee14a82","ios":"levelo://app?vid=13733150-4313-429c-b872-f3cf1ee14a82"},"vehicle_type_id":"4","last_reported":1732875054,"current_range_meters":38000,"station_id":"ce4bgth2rcd13ifvqch0","pricing_plan_id":"cebpf4jnsgd1na2vs0mg"},{"bike_id":"5637f218-5935-4ecf-8d2f-8e866d4ee57b","system_id":"levelo_inurba_marseille","lat":43.27992,"lon":5.41662,"is_reserved":false,"is_disabled":false,"rental_uris":{"android":"levelo://app?vid=5637f218-5935-4ecf-8d2f-8e866d4ee57b","ios":"levelo://app?vid=5637f218-5935-4ecf-8d2f-8e866d4ee57b"},"vehicle_type_id":"4","last_reported":1732875054,"current_range_meters":33600,"station_id":"ce4bho12rcd13ifvqh1g","pricing_plan_id":"cebpf4jnsgd1na2vs0mg"},{"bike_id":"974084f3-e777-4630-9a64-c5c9ce97ccbe","system_id":"levelo_inurba_marseille","lat":43.24545,"lon":5.39532,"is_reserved":false,"is_disabled":false,"rental_uris":{"android":"levelo://app?vid=974084f3-e777-4630-9a64-c5c9ce97ccbe","ios":"levelo://app?vid=974084f3-e777-4630-9a64-c5c9ce97ccbe"},"vehicle_type_id":"4","last_reported":1732875054,"current_range_meters":25600,"station_id":"ce4bhlp2rcd13ifvqgjg","pricing_plan_id":"cebpf4jnsgd1na2vs0mg"},{"bike_id":"574ba74e-ea23-46d4-a8f2-5a26caa49dfa","system_id":"levelo_inurba_marseille","lat":43.29893,"lon":5.43671,"is_reserved":false,"is_disabled":false,"rental_uris":{"android":"levelo://app?vid=574ba74e-ea23-46d4-a8f2-5a26caa49dfa","ios":"levelo://app?vid=574ba74e-ea23-46d4-a8f2-5a26caa49dfa"},"vehicle_type_id":"4","last_reported":1732875054,"current_range_meters":30000,"station_id":"ce4bhpp2rcd13ifvqhfg","pricing_plan_id":"cebpf4jnsgd1na2vs0mg"},{"bike_id":"de8dedfd-c65e-4ce5-b8ec-b5ab34a22a6e","system_id":"levelo_inurba_marseille","lat":43.27068,"lon":5.42275,"is_reserved":false,"is_disabled":true,"rental_uris":{"android":"levelo://app?vid=de8dedfd-c65e-4ce5-b8ec-b5ab34a22a6e","ios":"levelo://app?vid=de8dedfd-c65e-4ce5-b8ec-b5ab34a22a6e"},"vehicle_type_id":"4","last_reported":1732875054,"current_range_meters":38800,"station_id":"ce4bhk92rcd13ifvqgb0","pricing_plan_id":"cebpf4jnsgd1na2vs0mg"},{"bike_id":"5d13a862-aca8-4c54-8f65-fc063af75c01","system_id":"levelo_inurba_marseille","lat":43.30539,"lon":5.36704,"is_reserved":false,"is_disabled":false,"rental_uris":{"android":"levelo://app?vid=5d13a862-aca8-4c54-8f65-fc063af75c01","ios":"levelo://app?vid=5d13a862-aca8-4c54-8f65-fc063af75c01"},"vehicle_type_id":"4","last_reported":1732875054,"current_range_meters":38800,"station_id":"ce4bgrp2rcd13ifvqc9g","pricing_plan_id":"cebpf4jnsgd1na2vs0mg"},{"bike_id":"baed12b3-7578-4780-a3e6-1f289df86bbf","system_id":"levelo_inurba_marseille","lat":43.30558,"lon":5.36734,"is_reserved":false,"is_disabled":false,"rental_uris":{"android":"levelo://app?vid=baed12b3-7578-4780-a3e6-1f289df86bbf","ios":"levelo://app?vid=baed12b3-7578-4780-a3e6-1f289df86bbf"},"vehicle_type_id":"4","last_reported":1732875054,"current_range_meters":18800,"station_id":"ce4bgrp2rcd13ifvqc9g","pricing_plan_id":"cebpf4jnsgd1na2vs0mg"},{"bike_id":"75f174b0-a946-4a42-87ef-a93b48abb145","system_id":"levelo_inurba_marseille","lat":43.30947,"lon":5.390366,"is_reserved":false,"is_disabled":false,"rental_uris":{"android":"levelo://app?vid=75f174b0-a946-4a42-87ef-a93b48abb145","ios":"levelo://app?vid=75f174b0-a946-4a42-87ef-a93b48abb145"},"vehicle_type_id":"4","last_reported":1732875054,"current_range_meters":39200,"station_id":"ce4bgup2rcd13ifvqco0","pricing_plan_id":"cebpf4jnsgd1na2vs0mg"},{"bike_id":"f576f1ac-9441-4aaf-9239-99d550cb7b55","system_id":"levelo_inurba_marseille","lat":43.31708,"lon":5.37765,"is_reserved":false,"is_disabled":true,"rental_uris":{"android":"levelo://app?vid=f576f1ac-9441-4aaf-9239-99d550cb7b55","ios":"levelo://app?vid=f576f1ac-9441-4aaf-9239-99d550cb7b55"},"vehicle_type_id":"4","last_reported":1732875054,"current_range_meters":28400,"station_id":"ce4bgth2rcd13ifvqch0","pricing_plan_id":"cebpf4jnsgd1na2vs0mg"},{"bike_id":"745abdac-73af-458a-970b-abce7c221a4c","system_id":"levelo_inurba_marseille","lat":43.30948,"lon":5.39033,"is_reserved":false,"is_disabled":false,"rental_uris":{"android":"levelo://app?vid=745abdac-73af-458a-970b-abce7c221a4c","ios":"levelo://app?vid=745abdac-73af-458a-970b-abce7c221a4c"},"vehicle_type_id":"4","last_reported":1732875054,"current_range_meters":39200,"station_id":"ce4bgup2rcd13ifvqco0","pricing_plan_id":"cebpf4jnsgd1na2vs0mg"},{"bike_id":"3a3b1b2b-9521-4bba-ba92-f3603821bdb4","system_id":"levelo_inurba_marseille","lat":43.25583,"lon":5.38234,"is_reserved":false,"is_disabled":false,"rental_uris":{"android":"levelo://app?vid=3a3b1b2b-9521-4bba-ba92-f3603821bdb4","ios":"levelo://app?vid=3a3b1b2b-9521-4bba-ba92-f3603821bdb4"},"vehicle_type_id":"4","last_reported":1732875054,"current_range_meters":24800,"station_id":"ce4bhih2rcd13ifvqfs0","pricing_plan_id":"cebpf4jnsgd1na2vs0mg"},{"bike_id":"02fc0cc3-58d9-46c8-bf45-1b01da2c5061","system_id":"levelo_inurba_marseille","lat":43.32363,"lon":5.38879,"is_reserved":false,"is_disabled":false,"rental_uris":{"android":"levelo://app?vid=02fc0cc3-58d9-46c8-bf45-1b01da2c5061","ios":"levelo://app?vid=02fc0cc3-58d9-46c8-bf45-1b01da2c5061"},"vehicle_type_id":"4","last_reported":1732875054,"current_range_meters":23200,"station_id":"ce4bhqp2rcd13ifvqhog","pricing_plan_id":"cebpf4jnsgd1na2vs0mg"},{"bike_id":"0f64cc8c-892a-459d-b628-ce45f741ccd4","system_id":"levelo_inurba_marseille","lat":43.29091,"lon":5.38137,"is_reserved":false,"is_disabled":false,"rental_uris":{"android":"levelo://app?vid=0f64cc8c-892a-459d-b628-ce45f741ccd4","ios":"levelo://app?vid=0f64cc8c-892a-459d-b628-ce45f741ccd4"},"vehicle_type_id":"4","last_reported":1732875054,"current_range_meters":14400,"station_id":"ce4bh512rcd13ifvqe2g","pricing_plan_id":"cebpf4jnsgd1na2vs0mg"},{"bike_id":"bd116da4-9303-4372-b375-2867673729fc","system_id":"levelo_inurba_marseille","lat":43.23155,"lon":5.4372,"is_reserved":false,"is_disabled":false,"rental_uris":{"android":"levelo://app?vid=bd116da4-9303-4372-b375-2867673729fc","ios":"levelo://app?vid=bd116da4-9303-4372-b375-2867673729fc"},"vehicle_type_id":"4","last_reported":1732875054,"current_range_meters":23200,"station_id":"ce4bhmp2rcd13ifvqgog","pricing_plan_id":"cebpf4jnsgd1na2vs0mg"},{"bike_id":"43746d86-8a13-4845-9faf-ae69b548d714","system_id":"levelo_inurba_marseille","lat":43.29459,"lon":5.37917,"is_reserved":false,"is_disabled":true,"rental_uris":{"android":"levelo://app?vid=43746d86-8a13-4845-9faf-ae69b548d714","ios":"levelo://app?vid=43746d86-8a13-4845-9faf-ae69b548d714"},"vehicle_type_id":"4","last_reported":1732875054,"current_range_meters":0,"station_id":"","pricing_plan_id":"cebpf4jnsgd1na2vs0mg"},{"bike_id":"7c9101ae-13cf-41cf-b845-9c8f8940015c","system_id":"levelo_inurba_marseille","lat":43.30466,"lon":5.37903,"is_reserved":false,"is_disabled":false,"rental_uris":{"android":"levelo://app?vid=7c9101ae-13cf-41cf-b845-9c8f8940015c","ios":"levelo://app?vid=7c9101ae-13cf-41cf-b845-9c8f8940015c"},"vehicle_type_id":"4","last_reported":1732875054,"current_range_meters":28000,"station_id":"ce4bgup2rcd13ifvqcn0","pricing_plan_id":"cebpf4jnsgd1na2vs0mg"},{"bike_id":"35f874c4-3ed9-4c0d-b48a-680009414e79","system_id":"levelo_inurba_marseille","lat":43.297902,"lon":5.380849,"is_reserved":false,"is_disabled":false,"rental_uris":{"android":"levelo://app?vid=35f874c4-3ed9-4c0d-b48a-680009414e79","ios":"levelo://app?vid=35f874c4-3ed9-4c0d-b48a-680009414e79"},"vehicle_type_id":"4","last_reported":1732875054,"current_range_meters":30000,"station_id":"ce4bgip2rcd13ifvqbb0","pricing_plan_id":"cebpf4jnsgd1na2vs0mg"},{"bike_id":"d8404ab4-ce67-47f0-be35-3f1fcff4b0b2","system_id":"levelo_inurba_marseille","lat":43.27485,"lon":5.42475,"is_reserved":false,"is_disabled":false,"rental_uris":{"android":"levelo://app?vid=d8404ab4-ce67-47f0-be35-3f1fcff4b0b2","ios":"levelo://app?vid=d8404ab4-ce67-47f0-be35-3f1fcff4b0b2"},"vehicle_type_id":"4","last_reported":1732875054,"current_range_meters":38400,"station_id":"ce4bhn92rcd13ifvqgrg","pricing_plan_id":"cebpf4jnsgd1na2vs0mg"},{"bike_id":"48b5ff29-f272-4faf-a81d-daa5ce069c5c","system_id":"levelo_inurba_marseille","lat":43.3127,"lon":5.38859,"is_reserved":false,"is_disabled":true,"rental_uris":{"android":"levelo://app?vid=48b5ff29-f272-4faf-a81d-daa5ce069c5c","ios":"levelo://app?vid=48b5ff29-f272-4faf-a81d-daa5ce069c5c"},"vehicle_type_id":"4","last_reported":1732875054,"current_range_meters":8400,"station_id":"","pricing_plan_id":"cebpf4jnsgd1na2vs0mg"},{"bike_id":"19d265cf-d377-4a2b-ad45-1c3d69edce5c","system_id":"levelo_inurba_marseille","lat":43.25862,"lon":5.39899,"is_reserved":false,"is_disabled":false,"rental_uris":{"android":"levelo://app?vid=19d265cf-d377-4a2b-ad45-1c3d69edce5c","ios":"levelo://app?vid=19d265cf-d377-4a2b-ad45-1c3d69edce5c"},"vehicle_type_id":"4","last_reported":1732875054,"current_range_meters":37600,"station_id":"ce4bhl92rcd13ifvqghg","pricing_plan_id":"cebpf4jnsgd1na2vs0mg"},{"bike_id":"5dde6864-6705-4fe1-9e79-ee4ed65a6a50","system_id":"levelo_inurba_marseille","lat":43.24546,"lon":5.39525,"is_reserved":false,"is_disabled":false,"rental_uris":{"android":"levelo://app?vid=5dde6864-6705-4fe1-9e79-ee4ed65a6a50","ios":"levelo://app?vid=5dde6864-6705-4fe1-9e79-ee4ed65a6a50"},"vehicle_type_id":"4","last_reported":1732875054,"current_range_meters":38800,"station_id":"ce4bhlp2rcd13ifvqgjg","pricing_plan_id":"cebpf4jnsgd1na2vs0mg"},{"bike_id":"b563a645-cd3c-4285-b2b8-becf5c7c0949","system_id":"levelo_inurba_marseille","lat":43.24181,"lon":5.39734,"is_reserved":false,"is_disabled":false,"rental_uris":{"android":"levelo://app?vid=b563a645-cd3c-4285-b2b8-becf5c7c0949","ios":"levelo://app?vid=b563a645-cd3c-4285-b2b8-becf5c7c0949"},"vehicle_type_id":"4","last_reported":1732875054,"current_range_meters":38800,"station_id":"ce4bhn12rcd13ifvqgpg","pricing_plan_id":"cebpf4jnsgd1na2vs0mg"},{"bike_id":"f56fb7e3-c722-421f-956f-65aa7ba72e68","system_id":"levelo_inurba_marseille","lat":43.31492,"lon":5.37305,"is_reserved":false,"is_disabled":false,"rental_uris":{"android":"levelo://app?vid=f56fb7e3-c722-421f-956f-65aa7ba72e68","ios":"levelo://app?vid=f56fb7e3-c722-421f-956f-65aa7ba72e68"},"vehicle_type_id":"4","last_reported":1732875054,"current_range_meters":38400,"station_id":"ce4bgt12rcd13ifvqcd0","pricing_plan_id":"cebpf4jnsgd1na2vs0mg"},{"bike_id":"47b708f5-709b-4341-a5c9-1ef96cf4b4b1","system_id":"levelo_inurba_marseille","lat":43.30954,"lon":5.39046,"is_reserved":false,"is_disabled":false,"rental_uris":{"android":"levelo://app?vid=47b708f5-709b-4341-a5c9-1ef96cf4b4b1","ios":"levelo://app?vid=47b708f5-709b-4341-a5c9-1ef96cf4b4b1"},"vehicle_type_id":"4","last_reported":1732875054,"current_range_meters":20000,"station_id":"ce4bgup2rcd13ifvqco0","pricing_plan_id":"cebpf4jnsgd1na2vs0mg"},{"bike_id":"7ce199cb-9f52-4791-9a0c-089dbc105cee","system_id":"levelo_inurba_marseille","lat":43.33603,"lon":5.41029,"is_reserved":false,"is_disabled":false,"rental_uris":{"android":"levelo://app?vid=7ce199cb-9f52-4791-9a0c-089dbc105cee","ios":"levelo://app?vid=7ce199cb-9f52-4791-9a0c-089dbc105cee"},"vehicle_type_id":"4","last_reported":1732875054,"current_range_meters":14400,"station_id":"ce4bhqh2rcd13ifvqhmg","pricing_plan_id":"cebpf4jnsgd1na2vs0mg"},{"bike_id":"e1a441bb-ffc3-4b30-950e-b8eb47f0e1ee","system_id":"levelo_inurba_marseille","lat":43.26951,"lon":5.38632,"is_reserved":false,"is_disabled":false,"rental_uris":{"android":"levelo://app?vid=e1a441bb-ffc3-4b30-950e-b8eb47f0e1ee","ios":"levelo://app?vid=e1a441bb-ffc3-4b30-950e-b8eb47f0e1ee"},"vehicle_type_id":"4","last_reported":1732875054,"current_range_meters":28400,"station_id":"ce4bhh92rcd13ifvqfh0","pricing_plan_id":"cebpf4jnsgd1na2vs0mg"},{"bike_id":"a8dc222d-2a79-4559-874d-5706fd2740a0","system_id":"levelo_inurba_marseille","lat":43.27066,"lon":5.40253,"is_reserved":false,"is_disabled":false,"rental_uris":{"android":"levelo://app?vid=a8dc222d-2a79-4559-874d-5706fd2740a0","ios":"levelo://app?vid=a8dc222d-2a79-4559-874d-5706fd2740a0"},"vehicle_type_id":"4","last_reported":1732875054,"current_range_meters":36800,"station_id":"ce4bhk92rcd13ifvqgc0","pricing_plan_id":"cebpf4jnsgd1na2vs0mg"},{"bike_id":"b7a5ba4a-26db-44ad-946c-5ce2af000490","system_id":"levelo_inurba_marseille","lat":43.2958,"lon":5.37524,"is_reserved":false,"is_disabled":false,"rental_uris":{"android":"levelo://app?vid=b7a5ba4a-26db-44ad-946c-5ce2af000490","ios":"levelo://app?vid=b7a5ba4a-26db-44ad-946c-5ce2af000490"},"vehicle_type_id":"4","last_reported":1732875054,"current_range_meters":16800,"station_id":"ce4bgh92rcd13ifvqb50","pricing_plan_id":"cebpf4jnsgd1na2vs0mg"},{"bike_id":"27ed646a-5ca8-4e11-965e-ff2a57424384","system_id":"levelo_inurba_marseille","lat":43.26192,"lon":5.3745,"is_reserved":false,"is_disabled":false,"rental_uris":{"android":"levelo://app?vid=27ed646a-5ca8-4e11-965e-ff2a57424384","ios":"levelo://app?vid=27ed646a-5ca8-4e11-965e-ff2a57424384"},"vehicle_type_id":"4","last_reported":1732875054,"current_range_meters":26000,"station_id":"ce4bhgp2rcd13ifvqfc0","pricing_plan_id":"cebpf4jnsgd1na2vs0mg"},{"bike_id":"165216c8-95d7-4b2f-bd59-1243074ff431","system_id":"levelo_inurba_marseille","lat":43.27066,"lon":5.40258,"is_reserved":false,"is_disabled":false,"rental_uris":{"android":"levelo://app?vid=165216c8-95d7-4b2f-bd59-1243074ff431","ios":"levelo://app?vid=165216c8-95d7-4b2f-bd59-1243074ff431"},"vehicle_type_id":"4","last_reported":1732875054,"current_range_meters":10000,"station_id":"ce4bhk92rcd13ifvqgc0","pricing_plan_id":"cebpf4jnsgd1na2vs0mg"},{"bike_id":"fc4d15f5-6256-45a3-90d6-77bb4c676955","system_id":"levelo_inurba_marseille","lat":43.296284,"lon":5.377877,"is_reserved":false,"is_disabled":true,"rental_uris":{"android":"levelo://app?vid=fc4d15f5-6256-45a3-90d6-77bb4c676955","ios":"levelo://app?vid=fc4d15f5-6256-45a3-90d6-77bb4c676955"},"vehicle_type_id":"4","last_reported":1732875054,"current_range_meters":29600,"station_id":"","pricing_plan_id":"cebpf4jnsgd1na2vs0mg"},{"bike_id":"e13ed352-1f27-44c3-8c78-9a78e368a5d0","system_id":"levelo_inurba_marseille","lat":43.337444,"lon":5.374475,"is_reserved":false,"is_disabled":false,"rental_uris":{"android":"levelo://app?vid=e13ed352-1f27-44c3-8c78-9a78e368a5d0","ios":"levelo://app?vid=e13ed352-1f27-44c3-8c78-9a78e368a5d0"},"vehicle_type_id":"4","last_reported":1732875054,"current_range_meters":33200,"station_id":"ce4bh192rcd13ifvqdb0","pricing_plan_id":"cebpf4jnsgd1na2vs0mg"},{"bike_id":"c88f8730-1176-4717-97e2-17c27b15274f","system_id":"levelo_inurba_marseille","lat":43.23199,"lon":5.355471,"is_reserved":false,"is_disabled":false,"rental_uris":{"android":"levelo://app?vid=c88f8730-1176-4717-97e2-17c27b15274f","ios":"levelo://app?vid=c88f8730-1176-4717-97e2-17c27b15274f"},"vehicle_type_id":"4","last_reported":1732875054,"current_range_meters":38800,"station_id":"ce4bhu92rcd13ifvqi70","pricing_plan_id":"cebpf4jnsgd1na2vs0mg"},{"bike_id":"57729228-d5fc-4aad-84bf-09d1889b3435","system_id":"levelo_inurba_marseille","lat":43.30557,"lon":5.36717,"is_reserved":false,"is_disabled":false,"rental_uris":{"android":"levelo://app?vid=57729228-d5fc-4aad-84bf-09d1889b3435","ios":"levelo://app?vid=57729228-d5fc-4aad-84bf-09d1889b3435"},"vehicle_type_id":"4","last_reported":1732875054,"current_range_meters":20800,"station_id":"ce4bgrp2rcd13ifvqc9g","pricing_plan_id":"cebpf4jnsgd1na2vs0mg"},{"bike_id":"483bde82-a734-46a5-8bb3-1b4e39b30732","system_id":"levelo_inurba_marseille","lat":43.25573,"lon":5.38234,"is_reserved":false,"is_disabled":false,"rental_uris":{"android":"levelo://app?vid=483bde82-a734-46a5-8bb3-1b4e39b30732","ios":"levelo://app?vid=483bde82-a734-46a5-8bb3-1b4e39b30732"},"vehicle_type_id":"4","last_reported":1732875054,"current_range_meters":20000,"station_id":"ce4bhih2rcd13ifvqfs0","pricing_plan_id":"cebpf4jnsgd1na2vs0mg"},{"bike_id":"c20afd6c-d414-44df-9450-cc27e4ad9839","system_id":"levelo_inurba_marseille","lat":43.32151,"lon":5.38444,"is_reserved":false,"is_disabled":true,"rental_uris":{"android":"levelo://app?vid=c20afd6c-d414-44df-9450-cc27e4ad9839","ios":"levelo://app?vid=c20afd6c-d414-44df-9450-cc27e4ad9839"},"vehicle_type_id":"4","last_reported":1732875054,"current_range_meters":0,"station_id":"","pricing_plan_id":"cebpf4jnsgd1na2vs0mg"},{"bike_id":"a62a0f42-9376-4be7-9075-1f7cd63bf4a3","system_id":"levelo_inurba_marseille","lat":43.24989,"lon":5.38941,"is_reserved":false,"is_disabled":false,"rental_uris":{"android":"levelo://app?vid=a62a0f42-9376-4be7-9075-1f7cd63bf4a3","ios":"levelo://app?vid=a62a0f42-9376-4be7-9075-1f7cd63bf4a3"},"vehicle_type_id":"4","last_reported":1732875054,"current_range_meters":25200,"station_id":"ce4bhgp2rcd13ifvqfd0","pricing_plan_id":"cebpf4jnsgd1na2vs0mg"},{"bike_id":"3a4e6c41-3f77-4254-abd4-29776dd71545","system_id":"levelo_inurba_marseille","lat":43.30533,"lon":5.36543,"is_reserved":false,"is_disabled":false,"rental_uris":{"android":"levelo://app?vid=3a4e6c41-3f77-4254-abd4-29776dd71545","ios":"levelo://app?vid=3a4e6c41-3f77-4254-abd4-29776dd71545"},"vehicle_type_id":"4","last_reported":1732875054,"current_range_meters":38800,"station_id":"ce4bgs12rcd13ifvqcag","pricing_plan_id":"cebpf4jnsgd1na2vs0mg"},{"bike_id":"fd52e257-6121-4a27-b7c3-37b1660c1602","system_id":"levelo_inurba_marseille","lat":43.28414,"lon":5.3498,"is_reserved":false,"is_disabled":false,"rental_uris":{"android":"levelo://app?vid=fd52e257-6121-4a27-b7c3-37b1660c1602","ios":"levelo://app?vid=fd52e257-6121-4a27-b7c3-37b1660c1602"},"vehicle_type_id":"4","last_reported":1732875054,"current_range_meters":33600,"station_id":"ce4bhbh2rcd13ifvqepg","pricing_plan_id":"cebpf4jnsgd1na2vs0mg"},{"bike_id":"53832248-7ea6-4cc6-856c-2b60c3f17998","system_id":"levelo_inurba_marseille","lat":43.2954,"lon":5.42293,"is_reserved":false,"is_disabled":true,"rental_uris":{"android":"levelo://app?vid=53832248-7ea6-4cc6-856c-2b60c3f17998","ios":"levelo://app?vid=53832248-7ea6-4cc6-856c-2b60c3f17998"},"vehicle_type_id":"4","last_reported":1732875054,"current_range_meters":38800,"station_id":"ce4bhph2rcd13ifvqhdg","pricing_plan_id":"cebpf4jnsgd1na2vs0mg"},{"bike_id":"23076d8d-2ba0-4790-98fe-35e9a46878eb","system_id":"levelo_inurba_marseille","lat":43.265719,"lon":5.390068,"is_reserved":false,"is_disabled":false,"rental_uris":{"android":"levelo://app?vid=23076d8d-2ba0-4790-98fe-35e9a46878eb","ios":"levelo://app?vid=23076d8d-2ba0-4790-98fe-35e9a46878eb"},"vehicle_type_id":"4","last_reported":1732875054,"current_range_meters":38000,"station_id":"ce4bhe12rcd13ifvqf30","pricing_plan_id":"cebpf4jnsgd1na2vs0mg"},{"bike_id":"61f919f4-7d6d-41ef-800f-5100786730a3","system_id":"levelo_inurba_marseille","lat":43.33611,"lon":5.41021,"is_reserved":false,"is_disabled":false,"rental_uris":{"android":"levelo://app?vid=61f919f4-7d6d-41ef-800f-5100786730a3","ios":"levelo://app?vid=61f919f4-7d6d-41ef-800f-5100786730a3"},"vehicle_type_id":"4","last_reported":1732875054,"current_range_meters":7200,"station_id":"ce4bhqh2rcd13ifvqhmg","pricing_plan_id":"cebpf4jnsgd1na2vs0mg"},{"bike_id":"7db36b1c-f956-440c-88f7-ad48a4f9ea5b","system_id":"levelo_inurba_marseille","lat":43.25824,"lon":5.394343,"is_reserved":false,"is_disabled":false,"rental_uris":{"android":"levelo://app?vid=7db36b1c-f956-440c-88f7-ad48a4f9ea5b","ios":"levelo://app?vid=7db36b1c-f956-440c-88f7-ad48a4f9ea5b"},"vehicle_type_id":"4","last_reported":1732875054,"current_range_meters":12800,"station_id":"ce4bhip2rcd13ifvqft0","pricing_plan_id":"cebpf4jnsgd1na2vs0mg"},{"bike_id":"92defe58-ac95-4158-a899-a1890c4e5262","system_id":"levelo_inurba_marseille","lat":43.26814,"lon":5.37126,"is_reserved":false,"is_disabled":true,"rental_uris":{"android":"levelo://app?vid=92defe58-ac95-4158-a899-a1890c4e5262","ios":"levelo://app?vid=92defe58-ac95-4158-a899-a1890c4e5262"},"vehicle_type_id":"4","last_reported":1732875054,"current_range_meters":800,"station_id":"","pricing_plan_id":"cebpf4jnsgd1na2vs0mg"},{"bike_id":"b7a23fb8-618b-4ad6-8050-42e15cecbd69","system_id":"levelo_inurba_marseille","lat":43.31368,"lon":5.38499,"is_reserved":false,"is_disabled":false,"rental_uris":{"android":"levelo://app?vid=b7a23fb8-618b-4ad6-8050-42e15cecbd69","ios":"levelo://app?vid=b7a23fb8-618b-4ad6-8050-42e15cecbd69"},"vehicle_type_id":"4","last_reported":1732875054,"current_range_meters":13600,"station_id":"ce4bgt92rcd13ifvqcf0","pricing_plan_id":"cebpf4jnsgd1na2vs0mg"},{"bike_id":"3043e874-44eb-4ce8-a2fb-d5bb027c2006","system_id":"levelo_inurba_marseille","lat":43.30533,"lon":5.3654,"is_reserved":false,"is_disabled":false,"rental_uris":{"android":"levelo://app?vid=3043e874-44eb-4ce8-a2fb-d5bb027c2006","ios":"levelo://app?vid=3043e874-44eb-4ce8-a2fb-d5bb027c2006"},"vehicle_type_id":"4","last_reported":1732875054,"current_range_meters":39200,"station_id":"ce4bgs12rcd13ifvqcag","pricing_plan_id":"cebpf4jnsgd1na2vs0mg"},{"bike_id":"ae7c2b6b-cdfe-4e04-93a2-e6bd12860cab","system_id":"levelo_inurba_marseille","lat":43.31754,"lon":5.39018,"is_reserved":false,"is_disabled":false,"rental_uris":{"android":"levelo://app?vid=ae7c2b6b-cdfe-4e04-93a2-e6bd12860cab","ios":"levelo://app?vid=ae7c2b6b-cdfe-4e04-93a2-e6bd12860cab"},"vehicle_type_id":"4","last_reported":1732875054,"current_range_meters":26000,"station_id":"ce4bhqp2rcd13ifvqhng","pricing_plan_id":"cebpf4jnsgd1na2vs0mg"},{"bike_id":"37a970c3-838a-45e7-9b86-f46a3c02a84e","system_id":"levelo_inurba_marseille","lat":43.28268,"lon":5.35059,"is_reserved":false,"is_disabled":false,"rental_uris":{"android":"levelo://app?vid=37a970c3-838a-45e7-9b86-f46a3c02a84e","ios":"levelo://app?vid=37a970c3-838a-45e7-9b86-f46a3c02a84e"},"vehicle_type_id":"4","last_reported":1732875054,"current_range_meters":36400,"station_id":"ce4bhbp2rcd13ifvqerg","pricing_plan_id":"cebpf4jnsgd1na2vs0mg"},{"bike_id":"234557b4-a50e-4e0e-b846-75b86a5e7ad6","system_id":"levelo_inurba_marseille","lat":43.33607,"lon":5.41025,"is_reserved":false,"is_disabled":false,"rental_uris":{"android":"levelo://app?vid=234557b4-a50e-4e0e-b846-75b86a5e7ad6","ios":"levelo://app?vid=234557b4-a50e-4e0e-b846-75b86a5e7ad6"},"vehicle_type_id":"4","last_reported":1732875054,"current_range_meters":25200,"station_id":"ce4bhqh2rcd13ifvqhmg","pricing_plan_id":"cebpf4jnsgd1na2vs0mg"},{"bike_id":"0a29e32f-4c36-4faa-94e6-2c36e3aa0082","system_id":"levelo_inurba_marseille","lat":43.29571,"lon":5.37516,"is_reserved":false,"is_disabled":false,"rental_uris":{"android":"levelo://app?vid=0a29e32f-4c36-4faa-94e6-2c36e3aa0082","ios":"levelo://app?vid=0a29e32f-4c36-4faa-94e6-2c36e3aa0082"},"vehicle_type_id":"4","last_reported":1732875054,"current_range_meters":9200,"station_id":"ce4bgh92rcd13ifvqb50","pricing_plan_id":"cebpf4jnsgd1na2vs0mg"},{"bike_id":"7222b91b-18ff-4610-a728-06590b86deda","system_id":"levelo_inurba_marseille","lat":43.30469,"lon":5.37905,"is_reserved":false,"is_disabled":false,"rental_uris":{"android":"levelo://app?vid=7222b91b-18ff-4610-a728-06590b86deda","ios":"levelo://app?vid=7222b91b-18ff-4610-a728-06590b86deda"},"vehicle_type_id":"4","last_reported":1732875054,"current_range_meters":28800,"station_id":"ce4bgup2rcd13ifvqcn0","pricing_plan_id":"cebpf4jnsgd1na2vs0mg"},{"bike_id":"99a7b471-9f77-4acc-a7a0-5b9097f39b57","system_id":"levelo_inurba_marseille","lat":43.24658,"lon":5.38163,"is_reserved":false,"is_disabled":false,"rental_uris":{"android":"levelo://app?vid=99a7b471-9f77-4acc-a7a0-5b9097f39b57","ios":"levelo://app?vid=99a7b471-9f77-4acc-a7a0-5b9097f39b57"},"vehicle_type_id":"4","last_reported":1732875054,"current_range_meters":22400,"station_id":"ce4bhih2rcd13ifvqfr0","pricing_plan_id":"cebpf4jnsgd1na2vs0mg"},{"bike_id":"097ed1d3-ebec-4a67-af05-04c1946a3f73","system_id":"levelo_inurba_marseille","lat":43.31886,"lon":5.40741,"is_reserved":false,"is_disabled":false,"rental_uris":{"android":"levelo://app?vid=097ed1d3-ebec-4a67-af05-04c1946a3f73","ios":"levelo://app?vid=097ed1d3-ebec-4a67-af05-04c1946a3f73"},"vehicle_type_id":"4","last_reported":1732875054,"current_range_meters":37600,"station_id":"ce4bhq12rcd13ifvqhig","pricing_plan_id":"cebpf4jnsgd1na2vs0mg"},{"bike_id":"5c5f2969-a58f-44b4-b927-346aa8bda72b","system_id":"levelo_inurba_marseille","lat":43.297857,"lon":5.381127,"is_reserved":false,"is_disabled":true,"rental_uris":{"android":"levelo://app?vid=5c5f2969-a58f-44b4-b927-346aa8bda72b","ios":"levelo://app?vid=5c5f2969-a58f-44b4-b927-346aa8bda72b"},"vehicle_type_id":"4","last_reported":1732875054,"current_range_meters":38800,"station_id":"ce4bgip2rcd13ifvqbb0","pricing_plan_id":"cebpf4jnsgd1na2vs0mg"},{"bike_id":"373b0ef2-2c12-4172-adc7-218fad8a345e","system_id":"levelo_inurba_marseille","lat":43.30327,"lon":5.40442,"is_reserved":false,"is_disabled":true,"rental_uris":{"android":"levelo://app?vid=373b0ef2-2c12-4172-adc7-218fad8a345e","ios":"levelo://app?vid=373b0ef2-2c12-4172-adc7-218fad8a345e"},"vehicle_type_id":"4","last_reported":1732875054,"current_range_meters":0,"station_id":"ce4bh012rcd13ifvqd10","pricing_plan_id":"cebpf4jnsgd1na2vs0mg"},{"bike_id":"322f94ef-fcda-48fc-9b12-3f9c6fa213e2","system_id":"levelo_inurba_marseille","lat":43.29168,"lon":5.37164,"is_reserved":false,"is_disabled":false,"rental_uris":{"android":"levelo://app?vid=322f94ef-fcda-48fc-9b12-3f9c6fa213e2","ios":"levelo://app?vid=322f94ef-fcda-48fc-9b12-3f9c6fa213e2"},"vehicle_type_id":"4","last_reported":1732875054,"current_range_meters":36800,"station_id":"ce4bha92rcd13ifvqeh0","pricing_plan_id":"cebpf4jnsgd1na2vs0mg"},{"bike_id":"bea31957-ef09-4b6c-ad5b-32eebdfda98d","system_id":"levelo_inurba_marseille","lat":43.31359,"lon":5.38497,"is_reserved":false,"is_disabled":false,"rental_uris":{"android":"levelo://app?vid=bea31957-ef09-4b6c-ad5b-32eebdfda98d","ios":"levelo://app?vid=bea31957-ef09-4b6c-ad5b-32eebdfda98d"},