{"last_updated":1759086362,"ttl":60,"version":"2.2","data":{"bikes":[{"bike_id":"8e2274aa-81ad-42a4-b655-31f63ea44df6","system_id":"levelo_inurba_marseille","lat":43.313313,"lon":5.396938,"is_reserved":false,"is_disabled":false,"rental_uris":{"android":"levelo://app?vid=8e2274aa-81ad-42a4-b655-31f63ea44df6","ios":"levelo://app?vid=8e2274aa-81ad-42a4-b655-31f63ea44df6"},"vehicle_type_id":"4","last_reported":1759086362,"current_range_meters":3200,"station_id":"ce4bgvp2rcd13ifvqcu0","pricing_plan_id":"cebpf4jnsgd1na2vs0mg"},{"bike_id":"2336a081-3301-4818-b498-4e2b16a6631f","system_id":"levelo_inurba_marseille","lat":43.32341,"lon":5.4403,"is_reserved":false,"is_disabled":false,"rental_uris":{"android":"levelo://app?vid=2336a081-3301-4818-b498-4e2b16a6631f","ios":"levelo://app?vid=2336a081-3301-4818-b498-4e2b16a6631f"},"vehicle_type_id":"4","last_reported":1759086362,"current_range_meters":3600,"station_id":"","pricing_plan_id":"cebpf4jnsgd1na2vs0mg"},{"bike_id":"08fe2b08-b3fa-43f8-ae73-04061f76318d","system_id":"levelo_inurba_marseille","lat":43.305552,"lon":5.365395,"is_reserved":false,"is_disabled":false,"rental_uris":{"android":"levelo://app?vid=08fe2b08-b3fa-43f8-ae73-04061f76318d","ios":"levelo://app?vid=08fe2b08-b3fa-43f8-ae73-04061f76318d"},"vehicle_type_id":"4","last_reported":1759086362,"current_range_meters":3600,"station_id":"","pricing_plan_id":"cebpf4jnsgd1na2vs0mg"},{"bike_id":"f8723556-6224-46a2-bbbb-f7110f35c59f","system_id":"levelo_inurba_marseille","lat":43.33773,"lon":5.37477,"is_reserved":false,"is_disabled":true,"rental_uris":{"android":"levelo://app?vid=f8723556-6224-46a2-bbbb-f7110f35c59f","ios":"levelo://app?vid=f8723556-6224-46a2-bbbb-f7110f35c59f"},"vehicle_type_id":"4","last_reported":1759086362,"current_range_meters":3600,"station_id":"","pricing_plan_id":"cebpf4jnsgd1na2vs0mg"},{"bike_id":"bdfc4850-de3f-42e0-b27a-b1a610372266","system_id":"levelo_inurba_marseille","lat":43.296324,"lon":5.374101,"is_reserved":false,"is_disabled":false,"rental_uris":{"android":"levelo://app?vid=bdfc4850-de3f-42e0-b27a-b1a610372266","ios":"levelo://app?vid=bdfc4850-de3f-42e0-b27a-b1a610372266"},"vehicle_type_id":"4","last_reported":1759086362,"current_range_meters":3600,"station_id":"","pricing_plan_id":"cebpf4jnsgd1na2vs0mg"},{"bike_id":"9a819dc8-447d-4df7-8b5f-0b18332a26a7","system_id":"levelo_inurba_marseille","lat":43.32934,"lon":5.37561,"is_reserved":false,"is_disabled":true,"rental_uris":{"android":"levelo://app?vid=9a819dc8-447d-4df7-8b5f-0b18332a26a7","ios":"levelo://app?vid=9a819dc8-447d-4df7-8b5f-0b18332a26a7"},"vehicle_type_id":"4","last_reported":1759086362,"current_range_meters":3600,"station_id":"","pricing_plan_id":"cebpf4jnsgd1na2vs0mg"},{"bike_id":"2e6c2599-e8fb-45c6-8b6e-e267d88b1005","system_id":"levelo_inurba_marseille","lat":43.27069,"lon":5.42284,"is_reserved":false,"is_disabled":false,"rental_uris":{"android":"levelo://app?vid=2e6c2599-e8fb-45c6-8b6e-e267d88b1005","ios":"levelo://app?vid=2e6c2599-e8fb-45c6-8b6e-e267d88b1005"},"vehicle_type_id":"4","last_reported":1759086362,"current_range_meters":4000,"station_id":"ce4bhk92rcd13ifvqgb0","pricing_plan_id":"cebpf4jnsgd1na2vs0mg"},{"bike_id":"5279259c-45ab-425c-adc7-05d3e3b83f65","system_id":"levelo_inurba_marseille","lat":43.29916,"lon":5.38508,"is_reserved":false,"is_disabled":false,"rental_uris":{"android":"levelo://app?vid=5279259c-45ab-425c-adc7-05d3e3b83f65","ios":"levelo://app?vid=5279259c-45ab-425c-adc7-05d3e3b83f65"},"vehicle_type_id":"4","last_reported":1759086362,"current_range_meters":4000,"station_id":"","pricing_plan_id":"cebpf4jnsgd1na2vs0mg"},{"bike_id":"fee74e98-eb52-4f66-a612-109c75f34aa6","system_id":"levelo_inurba_marseille","lat":43.29601,"lon":5.37947,"is_reserved":false,"is_disabled":false,"rental_uris":{"android":"levelo://app?vid=fee74e98-eb52-4f66-a612-109c75f34aa6","ios":"levelo://app?vid=fee74e98-eb52-4f66-a612-109c75f34aa6"},"vehicle_type_id":"4","last_reported":1759086362,"current_range_meters":4000,"station_id":"","pricing_plan_id":"cebpf4jnsgd1na2vs0mg"},{"bike_id":"7a4dab58-c692-43c3-8b02-8f27222046f9","system_id":"levelo_inurba_marseille","lat":43.29631,"lon":5.40608,"is_reserved":false,"is_disabled":false,"rental_uris":{"android":"levelo://app?vid=7a4dab58-c692-43c3-8b02-8f27222046f9","ios":"levelo://app?vid=7a4dab58-c692-43c3-8b02-8f27222046f9"},"vehicle_type_id":"4","last_reported":1759086362,"current_range_meters":4000,"station_id":"ce4bh0h2rcd13ifvqd60","pricing_plan_id":"cebpf4jnsgd1na2vs0mg"},{"bike_id":"51a82f0d-3d25-4b20-95bb-0326837ed417","system_id":"levelo_inurba_marseille","lat":43.31987,"lon":5.38145,"is_reserved":false,"is_disabled":false,"rental_uris":{"android":"levelo://app?vid=51a82f0d-3d25-4b20-95bb-0326837ed417","ios":"levelo://app?vid=51a82f0d-3d25-4b20-95bb-0326837ed417"},"vehicle_type_id":"4","last_reported":1759086362,"current_range_meters":4400,"station_id":"ce4bhr12rcd13ifvqhpg","pricing_plan_id":"cebpf4jnsgd1na2vs0mg"},{"bike_id":"0475f79c-656d-48ef-a917-f0763e08bff1","system_id":"levelo_inurba_marseille","lat":43.29878,"lon":5.3973,"is_reserved":false,"is_disabled":false,"rental_uris":{"android":"levelo://app?vid=0475f79c-656d-48ef-a917-f0763e08bff1","ios":"levelo://app?vid=0475f79c-656d-48ef-a917-f0763e08bff1"},"vehicle_type_id":"4","last_reported":1759086362,"current_range_meters":4800,"station_id":"ce4bh0h2rcd13ifvqd50","pricing_plan_id":"cebpf4jnsgd1na2vs0mg"},{"bike_id":"8e78403c-35b9-4a8e-b685-df3d3f9c384d","system_id":"levelo_inurba_marseille","lat":43.22524,"lon":5.34837,"is_reserved":false,"is_disabled":false,"rental_uris":{"android":"levelo://app?vid=8e78403c-35b9-4a8e-b685-df3d3f9c384d","ios":"levelo://app?vid=8e78403c-35b9-4a8e-b685-df3d3f9c384d"},"vehicle_type_id":"4","last_reported":1759086362,"current_range_meters":4800,"station_id":"","pricing_plan_id":"cebpf4jnsgd1na2vs0mg"},{"bike_id":"6439109b-5f08-4fba-b893-c17fd61b57f6","system_id":"levelo_inurba_marseille","lat":43.30885,"lon":5.39659,"is_reserved":false,"is_disabled":false,"rental_uris":{"android":"levelo://app?vid=6439109b-5f08-4fba-b893-c17fd61b57f6","ios":"levelo://app?vid=6439109b-5f08-4fba-b893-c17fd61b57f6"},"vehicle_type_id":"4","last_reported":1759086362,"current_range_meters":5600,"station_id":"ce4bh012rcd13ifvqcv0","pricing_plan_id":"cebpf4jnsgd1na2vs0mg"},{"bike_id":"eab6a1c1-a9a3-4cee-980d-418e7fd1f606","system_id":"levelo_inurba_marseille","lat":43.30598,"lon":5.3937,"is_reserved":false,"is_disabled":false,"rental_uris":{"android":"levelo://app?vid=eab6a1c1-a9a3-4cee-980d-418e7fd1f606","ios":"levelo://app?vid=eab6a1c1-a9a3-4cee-980d-418e7fd1f606"},"vehicle_type_id":"4","last_reported":1759086362,"current_range_meters":5600,"station_id":"ce4bh0p2rcd13ifvqd80","pricing_plan_id":"cebpf4jnsgd1na2vs0mg"},{"bike_id":"f222e128-7cec-47e8-bbef-17e3b3c0765d","system_id":"levelo_inurba_marseille","lat":43.309308,"lon":5.368993,"is_reserved":false,"is_disabled":false,"rental_uris":{"android":"levelo://app?vid=f222e128-7cec-47e8-bbef-17e3b3c0765d","ios":"levelo://app?vid=f222e128-7cec-47e8-bbef-17e3b3c0765d"},"vehicle_type_id":"4","last_reported":1759086362,"current_range_meters":5600,"station_id":"ce4bgn92rcd13ifvqbvg","pricing_plan_id":"cebpf4jnsgd1na2vs0mg"},{"bike_id":"8589cb40-e598-4ad9-a693-f833e39caa1e","system_id":"levelo_inurba_marseille","lat":43.27368,"lon":5.36263,"is_reserved":false,"is_disabled":false,"rental_uris":{"android":"levelo://app?vid=8589cb40-e598-4ad9-a693-f833e39caa1e","ios":"levelo://app?vid=8589cb40-e598-4ad9-a693-f833e39caa1e"},"vehicle_type_id":"4","last_reported":1759086362,"current_range_meters":5600,"station_id":"ce4bhbh2rcd13ifvqeo0","pricing_plan_id":"cebpf4jnsgd1na2vs0mg"},{"bike_id":"9bb4db31-0bf9-4171-bca1-76cb045f53a3","system_id":"levelo_inurba_marseille","lat":43.26924,"lon":5.389081,"is_reserved":false,"is_disabled":true,"rental_uris":{"android":"levelo://app?vid=9bb4db31-0bf9-4171-bca1-76cb045f53a3","ios":"levelo://app?vid=9bb4db31-0bf9-4171-bca1-76cb045f53a3"},"vehicle_type_id":"4","last_reported":1759086362,"current_range_meters":5600,"station_id":"ce4bhhh2rcd13ifvqfl0","pricing_plan_id":"cebpf4jnsgd1na2vs0mg"},{"bike_id":"58acdf55-b5e1-442d-8c86-45fd709b98df","system_id":"levelo_inurba_marseille","lat":43.32342,"lon":5.40628,"is_reserved":false,"is_disabled":false,"rental_uris":{"android":"levelo://app?vid=58acdf55-b5e1-442d-8c86-45fd709b98df","ios":"levelo://app?vid=58acdf55-b5e1-442d-8c86-45fd709b98df"},"vehicle_type_id":"4","last_reported":1759086362,"current_range_meters":5600,"station_id":"ce4bhq92rcd13ifvqhjg","pricing_plan_id":"cebpf4jnsgd1na2vs0mg"},{"bike_id":"1cda9ce5-0ae6-414a-9759-0978b2bc1f8b","system_id":"levelo_inurba_marseille","lat":43.25116,"lon":5.40324,"is_reserved":false,"is_disabled":true,"rental_uris":{"android":"levelo://app?vid=1cda9ce5-0ae6-414a-9759-0978b2bc1f8b","ios":"levelo://app?vid=1cda9ce5-0ae6-414a-9759-0978b2bc1f8b"},"vehicle_type_id":"4","last_reported":1759086362,"current_range_meters":5600,"station_id":"ce4bhlh2rcd13ifvqgig","pricing_plan_id":"cebpf4jnsgd1na2vs0mg"},{"bike_id":"aaea33e7-1c45-4329-a89d-2cf308055113","system_id":"levelo_inurba_marseille","lat":43.25725,"lon":5.41112,"is_reserved":false,"is_disabled":false,"rental_uris":{"android":"levelo://app?vid=aaea33e7-1c45-4329-a89d-2cf308055113","ios":"levelo://app?vid=aaea33e7-1c45-4329-a89d-2cf308055113"},"vehicle_type_id":"4","last_reported":1759086362,"current_range_meters":5600,"station_id":"","pricing_plan_id":"cebpf4jnsgd1na2vs0mg"},{"bike_id":"1fe44ba1-3d92-424b-9e42-34c947824d4a","system_id":"levelo_inurba_marseille","lat":43.31644,"lon":5.42393,"is_reserved":false,"is_disabled":false,"rental_uris":{"android":"levelo://app?vid=1fe44ba1-3d92-424b-9e42-34c947824d4a","ios":"levelo://app?vid=1fe44ba1-3d92-424b-9e42-34c947824d4a"},"vehicle_type_id":"4","last_reported":1759086362,"current_range_meters":6000,"station_id":"","pricing_plan_id":"cebpf4jnsgd1na2vs0mg"},{"bike_id":"5365e873-98ea-45e2-9689-7e119051f22e","system_id":"levelo_inurba_marseille","lat":43.3313,"lon":5.35509,"is_reserved":false,"is_disabled":true,"rental_uris":{"android":"levelo://app?vid=5365e873-98ea-45e2-9689-7e119051f22e","ios":"levelo://app?vid=5365e873-98ea-45e2-9689-7e119051f22e"},"vehicle_type_id":"4","last_reported":1759086362,"current_range_meters":6000,"station_id":"","pricing_plan_id":"cebpf4jnsgd1na2vs0mg"},{"bike_id":"fbef676b-8f42-450e-b448-da45ad596c28","system_id":"levelo_inurba_marseille","lat":43.28377,"lon":5.3633,"is_reserved":false,"is_disabled":false,"rental_uris":{"android":"levelo://app?vid=fbef676b-8f42-450e-b448-da45ad596c28","ios":"levelo://app?vid=fbef676b-8f42-450e-b448-da45ad596c28"},"vehicle_type_id":"4","last_reported":1759086362,"current_range_meters":6000,"station_id":"","pricing_plan_id":"cebpf4jnsgd1na2vs0mg"},{"bike_id":"f3fa21e9-c527-4c18-bde5-c3a1a82bcf72","system_id":"levelo_inurba_marseille","lat":43.2572,"lon":5.4111,"is_reserved":false,"is_disabled":false,"rental_uris":{"android":"levelo://app?vid=f3fa21e9-c527-4c18-bde5-c3a1a82bcf72","ios":"levelo://app?vid=f3fa21e9-c527-4c18-bde5-c3a1a82bcf72"},"vehicle_type_id":"4","last_reported":1759086362,"current_range_meters":6000,"station_id":"ce4bhkp2rcd13ifvqgd0","pricing_plan_id":"cebpf4jnsgd1na2vs0mg"},{"bike_id":"672b05ff-7b9a-4af8-8a76-0f818048fa1d","system_id":"levelo_inurba_marseille","lat":43.29261,"lon":5.4092,"is_reserved":false,"is_disabled":false,"rental_uris":{"android":"levelo://app?vid=672b05ff-7b9a-4af8-8a76-0f818048fa1d","ios":"levelo://app?vid=672b05ff-7b9a-4af8-8a76-0f818048fa1d"},"vehicle_type_id":"4","last_reported":1759086362,"current_range_meters":6000,"station_id":"ce4bh192rcd13ifvqdc0","pricing_plan_id":"cebpf4jnsgd1na2vs0mg"},{"bike_id":"01bf55f2-4ac6-46f6-8504-3267bf31e1a6","system_id":"levelo_inurba_marseille","lat":43.2973,"lon":5.381787,"is_reserved":false,"is_disabled":false,"rental_uris":{"android":"levelo://app?vid=01bf55f2-4ac6-46f6-8504-3267bf31e1a6","ios":"levelo://app?vid=01bf55f2-4ac6-46f6-8504-3267bf31e1a6"},"vehicle_type_id":"4","last_reported":1759086362,"current_range_meters":6000,"station_id":"","pricing_plan_id":"cebpf4jnsgd1na2vs0mg"},{"bike_id":"526ff56e-4133-4e6a-ab7c-157894ef219a","system_id":"levelo_inurba_marseille","lat":43.211863,"lon":5.350807,"is_reserved":false,"is_disabled":true,"rental_uris":{"android":"levelo://app?vid=526ff56e-4133-4e6a-ab7c-157894ef219a","ios":"levelo://app?vid=526ff56e-4133-4e6a-ab7c-157894ef219a"},"vehicle_type_id":"4","last_reported":1759086362,"current_range_meters":6000,"station_id":"st_cvj6sg6p6f1abm77japg","pricing_plan_id":"cebpf4jnsgd1na2vs0mg"},{"bike_id":"82266494-1713-4274-a78f-ee64c3b4cc07","system_id":"levelo_inurba_marseille","lat":43.29278,"lon":5.36848,"is_reserved":false,"is_disabled":false,"rental_uris":{"android":"levelo://app?vid=82266494-1713-4274-a78f-ee64c3b4cc07","ios":"levelo://app?vid=82266494-1713-4274-a78f-ee64c3b4cc07"},"vehicle_type_id":"4","last_reported":1759086362,"current_range_meters":6000,"station_id":"ce4bhbp2rcd13ifvqesg","pricing_plan_id":"cebpf4jnsgd1na2vs0mg"},{"bike_id":"28072a77-eefd-4cfa-bd68-7696e02f507d","system_id":"levelo_inurba_marseille","lat":43.325109,"lon":5.368872,"is_reserved":false,"is_disabled":false,"rental_uris":{"android":"levelo://app?vid=28072a77-eefd-4cfa-bd68-7696e02f507d","ios":"levelo://app?vid=28072a77-eefd-4cfa-bd68-7696e02f507d"},"vehicle_type_id":"4","last_reported":1759086362,"current_range_meters":6400,"station_id":"","pricing_plan_id":"cebpf4jnsgd1na2vs0mg"},{"bike_id":"aa4f0c93-c7cd-46f3-9d24-bda5bb6bab74","system_id":"levelo_inurba_marseille","lat":43.314855,"lon":5.373035,"is_reserved":false,"is_disabled":false,"rental_uris":{"android":"levelo://app?vid=aa4f0c93-c7cd-46f3-9d24-bda5bb6bab74","ios":"levelo://app?vid=aa4f0c93-c7cd-46f3-9d24-bda5bb6bab74"},"vehicle_type_id":"4","last_reported":1759086362,"current_range_meters":6400,"station_id":"ce4bgt12rcd13ifvqcd0","pricing_plan_id":"cebpf4jnsgd1na2vs0mg"},{"bike_id":"9b0c11ab-c9e4-4b77-a404-6029deef539c","system_id":"levelo_inurba_marseille","lat":43.29549,"lon":5.39397,"is_reserved":false,"is_disabled":false,"rental_uris":{"android":"levelo://app?vid=9b0c11ab-c9e4-4b77-a404-6029deef539c","ios":"levelo://app?vid=9b0c11ab-c9e4-4b77-a404-6029deef539c"},"vehicle_type_id":"4","last_reported":1759086362,"current_range_meters":6400,"station_id":"ce4bh292rcd13ifvqdf0","pricing_plan_id":"cebpf4jnsgd1na2vs0mg"},{"bike_id":"3f51e03c-3abb-4dde-8cdd-da596aa3252f","system_id":"levelo_inurba_marseille","lat":43.27739,"lon":5.38868,"is_reserved":false,"is_disabled":true,"rental_uris":{"android":"levelo://app?vid=3f51e03c-3abb-4dde-8cdd-da596aa3252f","ios":"levelo://app?vid=3f51e03c-3abb-4dde-8cdd-da596aa3252f"},"vehicle_type_id":"4","last_reported":1759086362,"current_range_meters":6400,"station_id":"","pricing_plan_id":"cebpf4jnsgd1na2vs0mg"},{"bike_id":"232cb343-546b-434a-abc1-f1ad000083f1","system_id":"levelo_inurba_marseille","lat":43.31074,"lon":5.40102,"is_reserved":false,"is_disabled":false,"rental_uris":{"android":"levelo://app?vid=232cb343-546b-434a-abc1-f1ad000083f1","ios":"levelo://app?vid=232cb343-546b-434a-abc1-f1ad000083f1"},"vehicle_type_id":"4","last_reported":1759086362,"current_range_meters":6400,"station_id":"","pricing_plan_id":"cebpf4jnsgd1na2vs0mg"},{"bike_id":"ee96a502-9b76-492e-840a-498b02aefe72","system_id":"levelo_inurba_marseille","lat":43.3235,"lon":5.3922,"is_reserved":false,"is_disabled":false,"rental_uris":{"android":"levelo://app?vid=ee96a502-9b76-492e-840a-498b02aefe72","ios":"levelo://app?vid=ee96a502-9b76-492e-840a-498b02aefe72"},"vehicle_type_id":"4","last_reported":1759086362,"current_range_meters":6400,"station_id":"","pricing_plan_id":"cebpf4jnsgd1na2vs0mg"},{"bike_id":"208385c9-2fab-4a11-b63e-b771814bfec3","system_id":"levelo_inurba_marseille","lat":43.31362,"lon":5.38497,"is_reserved":false,"is_disabled":false,"rental_uris":{"android":"levelo://app?vid=208385c9-2fab-4a11-b63e-b771814bfec3","ios":"levelo://app?vid=208385c9-2fab-4a11-b63e-b771814bfec3"},"vehicle_type_id":"4","last_reported":1759086362,"current_range_meters":6800,"station_id":"ce4bgt92rcd13ifvqcf0","pricing_plan_id":"cebpf4jnsgd1na2vs0mg"},{"bike_id":"934ea1ec-b7f6-49a1-9efa-287317d4eb22","system_id":"levelo_inurba_marseille","lat":43.29048,"lon":5.35914,"is_reserved":false,"is_disabled":false,"rental_uris":{"android":"levelo://app?vid=934ea1ec-b7f6-49a1-9efa-287317d4eb22","ios":"levelo://app?vid=934ea1ec-b7f6-49a1-9efa-287317d4eb22"},"vehicle_type_id":"4","last_reported":1759086362,"current_range_meters":6800,"station_id":"","pricing_plan_id":"cebpf4jnsgd1na2vs0mg"},{"bike_id":"e45eee6f-7693-4355-aabf-206d7536595d","system_id":"levelo_inurba_marseille","lat":43.28264,"lon":5.35063,"is_reserved":false,"is_disabled":false,"rental_uris":{"android":"levelo://app?vid=e45eee6f-7693-4355-aabf-206d7536595d","ios":"levelo://app?vid=e45eee6f-7693-4355-aabf-206d7536595d"},"vehicle_type_id":"4","last_reported":1759086362,"current_range_meters":6800,"station_id":"ce4bhbp2rcd13ifvqerg","pricing_plan_id":"cebpf4jnsgd1na2vs0mg"},{"bike_id":"4431cbb7-14bd-49b3-b2b3-a9c49182888a","system_id":"levelo_inurba_marseille","lat":43.29734,"lon":5.38039,"is_reserved":false,"is_disabled":false,"rental_uris":{"android":"levelo://app?vid=4431cbb7-14bd-49b3-b2b3-a9c49182888a","ios":"levelo://app?vid=4431cbb7-14bd-49b3-b2b3-a9c49182888a"},"vehicle_type_id":"4","last_reported":1759086362,"current_range_meters":7200,"station_id":"","pricing_plan_id":"cebpf4jnsgd1na2vs0mg"},{"bike_id":"8360fe96-8a6b-4a67-9ba4-0ef948b002e1","system_id":"levelo_inurba_marseille","lat":43.25,"lon":5.38921,"is_reserved":false,"is_disabled":true,"rental_uris":{"android":"levelo://app?vid=8360fe96-8a6b-4a67-9ba4-0ef948b002e1","ios":"levelo://app?vid=8360fe96-8a6b-4a67-9ba4-0ef948b002e1"},"vehicle_type_id":"4","last_reported":1759086362,"current_range_meters":7200,"station_id":"ce4bhgp2rcd13ifvqfd0","pricing_plan_id":"cebpf4jnsgd1na2vs0mg"},{"bike_id":"3dc3fc27-7d94-423f-8b1e-0fbb13904e6e","system_id":"levelo_inurba_marseille","lat":43.31322,"lon":5.3971,"is_reserved":false,"is_disabled":false,"rental_uris":{"android":"levelo://app?vid=3dc3fc27-7d94-423f-8b1e-0fbb13904e6e","ios":"levelo://app?vid=3dc3fc27-7d94-423f-8b1e-0fbb13904e6e"},"vehicle_type_id":"4","last_reported":1759086362,"current_range_meters":7200,"station_id":"ce4bgvp2rcd13ifvqcu0","pricing_plan_id":"cebpf4jnsgd1na2vs0mg"},{"bike_id":"0168d323-358e-490f-932f-2c370ffac36a","system_id":"levelo_inurba_marseille","lat":43.30435,"lon":5.38906,"is_reserved":false,"is_disabled":false,"rental_uris":{"android":"levelo://app?vid=0168d323-358e-490f-932f-2c370ffac36a","ios":"levelo://app?vid=0168d323-358e-490f-932f-2c370ffac36a"},"vehicle_type_id":"4","last_reported":1759086362,"current_range_meters":7200,"station_id":"ce4bgk12rcd13ifvqbi0","pricing_plan_id":"cebpf4jnsgd1na2vs0mg"},{"bike_id":"f2fd2284-837d-45c8-8a92-163c2aa30979","system_id":"levelo_inurba_marseille","lat":43.26933,"lon":5.38933,"is_reserved":false,"is_disabled":true,"rental_uris":{"android":"levelo://app?vid=f2fd2284-837d-45c8-8a92-163c2aa30979","ios":"levelo://app?vid=f2fd2284-837d-45c8-8a92-163c2aa30979"},"vehicle_type_id":"4","last_reported":1759086362,"current_range_meters":8000,"station_id":"ce4bhhh2rcd13ifvqfl0","pricing_plan_id":"cebpf4jnsgd1na2vs0mg"},{"bike_id":"720623f7-9148-4a0e-ade4-a205c6fa44f0","system_id":"levelo_inurba_marseille","lat":43.28973,"lon":5.42901,"is_reserved":false,"is_disabled":false,"rental_uris":{"android":"levelo://app?vid=720623f7-9148-4a0e-ade4-a205c6fa44f0","ios":"levelo://app?vid=720623f7-9148-4a0e-ade4-a205c6fa44f0"},"vehicle_type_id":"4","last_reported":1759086362,"current_range_meters":8000,"station_id":"","pricing_plan_id":"cebpf4jnsgd1na2vs0mg"},{"bike_id":"5cd2b9d8-9710-4c6a-b59f-8bfe4f812564","system_id":"levelo_inurba_marseille","lat":43.2808,"lon":5.39653,"is_reserved":false,"is_disabled":false,"rental_uris":{"android":"levelo://app?vid=5cd2b9d8-9710-4c6a-b59f-8bfe4f812564","ios":"levelo://app?vid=5cd2b9d8-9710-4c6a-b59f-8bfe4f812564"},"vehicle_type_id":"4","last_reported":1759086362,"current_range_meters":8000,"station_id":"ce4bho12rcd13ifvqh2g","pricing_plan_id":"cebpf4jnsgd1na2vs0mg"},{"bike_id":"3fd7c937-a838-4d6f-932e-9e3bccbc6d3b","system_id":"levelo_inurba_marseille","lat":43.29895,"lon":5.38217,"is_reserved":false,"is_disabled":false,"rental_uris":{"android":"levelo://app?vid=3fd7c937-a838-4d6f-932e-9e3bccbc6d3b","ios":"levelo://app?vid=3fd7c937-a838-4d6f-932e-9e3bccbc6d3b"},"vehicle_type_id":"4","last_reported":1759086362,"current_range_meters":8000,"station_id":"","pricing_plan_id":"cebpf4jnsgd1na2vs0mg"},{"bike_id":"ae29672c-58f6-4592-9c54-3ad0a7062d79","system_id":"levelo_inurba_marseille","lat":43.30797,"lon":5.43532,"is_reserved":false,"is_disabled":false,"rental_uris":{"android":"levelo://app?vid=ae29672c-58f6-4592-9c54-3ad0a7062d79","ios":"levelo://app?vid=ae29672c-58f6-4592-9c54-3ad0a7062d79"},"vehicle_type_id":"4","last_reported":1759086362,"current_range_meters":8000,"station_id":"ce4bhph2rcd13ifvqheg","pricing_plan_id":"cebpf4jnsgd1na2vs0mg"},{"bike_id":"b41fb748-4871-45b2-81ad-917029fa80c5","system_id":"levelo_inurba_marseille","lat":43.32051,"lon":5.41539,"is_reserved":false,"is_disabled":false,"rental_uris":{"android":"levelo://app?vid=b41fb748-4871-45b2-81ad-917029fa80c5","ios":"levelo://app?vid=b41fb748-4871-45b2-81ad-917029fa80c5"},"vehicle_type_id":"4","last_reported":1759086362,"current_range_meters":8400,"station_id":"ce4bhq92rcd13ifvqhkg","pricing_plan_id":"cebpf4jnsgd1na2vs0mg"},{"bike_id":"0a04107e-3ed7-4bd2-b200-92a1a0edfd67","system_id":"levelo_inurba_marseille","lat":43.29804,"lon":5.39344,"is_reserved":false,"is_disabled":false,"rental_uris":{"android":"levelo://app?vid=0a04107e-3ed7-4bd2-b200-92a1a0edfd67","ios":"levelo://app?vid=0a04107e-3ed7-4bd2-b200-92a1a0edfd67"},"vehicle_type_id":"4","last_reported":1759086362,"current_range_meters":8400,"station_id":"chh1huq6cuj3fo74tm60","pricing_plan_id":"cebpf4jnsgd1na2vs0mg"},{"bike_id":"0b10856b-3dad-4052-bc3a-2c17e6f16e23","system_id":"levelo_inurba_marseille","lat":43.27525,"lon":5.38424,"is_reserved":false,"is_disabled":true,"rental_uris":{"android":"levelo://app?vid=0b10856b-3dad-4052-bc3a-2c17e6f16e23","ios":"levelo://app?vid=0b10856b-3dad-4052-bc3a-2c17e6f16e23"},"vehicle_type_id":"4","last_reported":1759086362,"current_range_meters":8400,"station_id":"ce4bhh92rcd13ifvqfi0","pricing_plan_id":"cebpf4jnsgd1na2vs0mg"},{"bike_id":"579526e6-1a96-4dcb-9bab-181bf678c4cb","system_id":"levelo_inurba_marseille","lat":43.24145,"lon":5.39706,"is_reserved":false,"is_disabled":true,"rental_uris":{"android":"levelo://app?vid=579526e6-1a96-4dcb-9bab-181bf678c4cb","ios":"levelo://app?vid=579526e6-1a96-4dcb-9bab-181bf678c4cb"},"vehicle_type_id":"4","last_reported":1759086362,"current_range_meters":8400,"station_id":"ce4bhn12rcd13ifvqgpg","pricing_plan_id":"cebpf4jnsgd1na2vs0mg"},{"bike_id":"34a09174-79f3-4515-9308-e7872853590d","system_id":"levelo_inurba_marseille","lat":43.30449,"lon":5.37507,"is_reserved":false,"is_disabled":false,"rental_uris":{"android":"levelo://app?vid=34a09174-79f3-4515-9308-e7872853590d","ios":"levelo://app?vid=34a09174-79f3-4515-9308-e7872853590d"},"vehicle_type_id":"4","last_reported":1759086362,"current_range_meters":8400,"station_id":"","pricing_plan_id":"cebpf4jnsgd1na2vs0mg"},{"bike_id":"3b01e214-ddb1-46c7-a006-a2907e8d78ce","system_id":"levelo_inurba_marseille","lat":43.30313,"lon":5.40445,"is_reserved":false,"is_disabled":false,"rental_uris":{"android":"levelo://app?vid=3b01e214-ddb1-46c7-a006-a2907e8d78ce","ios":"levelo://app?vid=3b01e214-ddb1-46c7-a006-a2907e8d78ce"},"vehicle_type_id":"4","last_reported":1759086362,"current_range_meters":8400,"station_id":"ce4bh012rcd13ifvqd10","pricing_plan_id":"cebpf4jnsgd1na2vs0mg"},{"bike_id":"695662ab-65fe-4c59-81b6-3dceb9f5066d","system_id":"levelo_inurba_marseille","lat":43.2558,"lon":5.38239,"is_reserved":false,"is_disabled":true,"rental_uris":{"android":"levelo://app?vid=695662ab-65fe-4c59-81b6-3dceb9f5066d","ios":"levelo://app?vid=695662ab-65fe-4c59-81b6-3dceb9f5066d"},"vehicle_type_id":"4","last_reported":1759086362,"current_range_meters":8400,"station_id":"ce4bhih2rcd13ifvqfs0","pricing_plan_id":"cebpf4jnsgd1na2vs0mg"},{"bike_id":"03350417-1098-4d6c-b8fe-9e64358744bf","system_id":"levelo_inurba_marseille","lat":43.33269,"lon":5.41303,"is_reserved":false,"is_disabled":false,"rental_uris":{"android":"levelo://app?vid=03350417-1098-4d6c-b8fe-9e64358744bf","ios":"levelo://app?vid=03350417-1098-4d6c-b8fe-9e64358744bf"},"vehicle_type_id":"4","last_reported":1759086362,"current_range_meters":8400,"station_id":"","pricing_plan_id":"cebpf4jnsgd1na2vs0mg"},{"bike_id":"b615feff-5b0f-497f-ae63-8d5516102d0e","system_id":"levelo_inurba_marseille","lat":43.30554,"lon":5.38417,"is_reserved":false,"is_disabled":false,"rental_uris":{"android":"levelo://app?vid=b615feff-5b0f-497f-ae63-8d5516102d0e","ios":"levelo://app?vid=b615feff-5b0f-497f-ae63-8d5516102d0e"},"vehicle_type_id":"4","last_reported":1759086362,"current_range_meters":8400,"station_id":"ce4bgg92rcd13ifvqb30","pricing_plan_id":"cebpf4jnsgd1na2vs0mg"},{"bike_id":"dc4883ea-8f06-44d1-8b3d-6660e39a87ec","system_id":"levelo_inurba_marseille","lat":43.22926,"lon":5.35393,"is_reserved":false,"is_disabled":true,"rental_uris":{"android":"levelo://app?vid=dc4883ea-8f06-44d1-8b3d-6660e39a87ec","ios":"levelo://app?vid=dc4883ea-8f06-44d1-8b3d-6660e39a87ec"},"vehicle_type_id":"4","last_reported":1759086362,"current_range_meters":8800,"station_id":"cpo3532slgdg3j2ikp40","pricing_plan_id":"cebpf4jnsgd1na2vs0mg"},{"bike_id":"b2dda1e3-0d18-48cd-b105-9355f5a1b95e","system_id":"levelo_inurba_marseille","lat":43.31885,"lon":5.40728,"is_reserved":false,"is_disabled":false,"rental_uris":{"android":"levelo://app?vid=b2dda1e3-0d18-48cd-b105-9355f5a1b95e","ios":"levelo://app?vid=b2dda1e3-0d18-48cd-b105-9355f5a1b95e"},"vehicle_type_id":"4","last_reported":1759086362,"current_range_meters":8800,"station_id":"ce4bhq12rcd13ifvqhig","pricing_plan_id":"cebpf4jnsgd1na2vs0mg"},{"bike_id":"a6cee7c9-3a1e-422b-9783-73986398ebf4","system_id":"levelo_inurba_marseille","lat":43.30873,"lon":5.37196,"is_reserved":false,"is_disabled":false,"rental_uris":{"android":"levelo://app?vid=a6cee7c9-3a1e-422b-9783-73986398ebf4","ios":"levelo://app?vid=a6cee7c9-3a1e-422b-9783-73986398ebf4"},"vehicle_type_id":"4","last_reported":1759086362,"current_range_meters":8800,"station_id":"ce4bguh2rcd13ifvqckg","pricing_plan_id":"cebpf4jnsgd1na2vs0mg"},{"bike_id":"4f718842-fb00-42a3-b314-e0ea514cd70f","system_id":"levelo_inurba_marseille","lat":43.31302,"lon":5.38489,"is_reserved":false,"is_disabled":false,"rental_uris":{"android":"levelo://app?vid=4f718842-fb00-42a3-b314-e0ea514cd70f","ios":"levelo://app?vid=4f718842-fb00-42a3-b314-e0ea514cd70f"},"vehicle_type_id":"4","last_reported":1759086362,"current_range_meters":8800,"station_id":"","pricing_plan_id":"cebpf4jnsgd1na2vs0mg"},{"bike_id":"68fac8e7-77c7-4b11-8389-36bfa5dc6460","system_id":"levelo_inurba_marseille","lat":43.27495,"lon":5.42452,"is_reserved":false,"is_disabled":false,"rental_uris":{"android":"levelo://app?vid=68fac8e7-77c7-4b11-8389-36bfa5dc6460","ios":"levelo://app?vid=68fac8e7-77c7-4b11-8389-36bfa5dc6460"},"vehicle_type_id":"4","last_reported":1759086362,"current_range_meters":9200,"station_id":"","pricing_plan_id":"cebpf4jnsgd1na2vs0mg"},{"bike_id":"c16b33eb-8029-4228-918c-ff445e09df15","system_id":"levelo_inurba_marseille","lat":43.27279,"lon":5.38956,"is_reserved":false,"is_disabled":false,"rental_uris":{"android":"levelo://app?vid=c16b33eb-8029-4228-918c-ff445e09df15","ios":"levelo://app?vid=c16b33eb-8029-4228-918c-ff445e09df15"},"vehicle_type_id":"4","last_reported":1759086362,"current_range_meters":9200,"station_id":"","pricing_plan_id":"cebpf4jnsgd1na2vs0mg"},{"bike_id":"4b5f0bef-ef55-4ad7-a41a-5ff243cde16c","system_id":"levelo_inurba_marseille","lat":43.27414,"lon":5.39436,"is_reserved":false,"is_disabled":false,"rental_uris":{"android":"levelo://app?vid=4b5f0bef-ef55-4ad7-a41a-5ff243cde16c","ios":"levelo://app?vid=4b5f0bef-ef55-4ad7-a41a-5ff243cde16c"},"vehicle_type_id":"4","last_reported":1759086362,"current_range_meters":9200,"station_id":"ce4bhdp2rcd13ifvqf20","pricing_plan_id":"cebpf4jnsgd1na2vs0mg"},{"bike_id":"ac1aa1a8-7c6e-4fb7-a9e6-c374e5efeec5","system_id":"levelo_inurba_marseille","lat":43.271242,"lon":5.402048,"is_reserved":false,"is_disabled":false,"rental_uris":{"android":"levelo://app?vid=ac1aa1a8-7c6e-4fb7-a9e6-c374e5efeec5","ios":"levelo://app?vid=ac1aa1a8-7c6e-4fb7-a9e6-c374e5efeec5"},"vehicle_type_id":"4","last_reported":1759086362,"current_range_meters":9200,"station_id":"ce4bhmh2rcd13ifvqgmg","pricing_plan_id":"cebpf4jnsgd1na2vs0mg"},{"bike_id":"f9bda557-0a74-42d3-92be-4448372f6a87","system_id":"levelo_inurba_marseille","lat":43.30886,"lon":5.39642,"is_reserved":false,"is_disabled":false,"rental_uris":{"android":"levelo://app?vid=f9bda557-0a74-42d3-92be-4448372f6a87","ios":"levelo://app?vid=f9bda557-0a74-42d3-92be-4448372f6a87"},"vehicle_type_id":"4","last_reported":1759086362,"current_range_meters":9600,"station_id":"ce4bh012rcd13ifvqcv0","pricing_plan_id":"cebpf4jnsgd1na2vs0mg"},{"bike_id":"096c311a-e31f-4e60-ab8c-de0b76354103","system_id":"levelo_inurba_marseille","lat":43.27193,"lon":5.40992,"is_reserved":false,"is_disabled":true,"rental_uris":{"android":"levelo://app?vid=096c311a-e31f-4e60-ab8c-de0b76354103","ios":"levelo://app?vid=096c311a-e31f-4e60-ab8c-de0b76354103"},"vehicle_type_id":"4","last_reported":1759086362,"current_range_meters":9600,"station_id":"ce4bhl12rcd13ifvqgf0","pricing_plan_id":"cebpf4jnsgd1na2vs0mg"},{"bike_id":"bfb25843-9057-41d8-8002-003753417501","system_id":"levelo_inurba_marseille","lat":43.29698,"lon":5.36634,"is_reserved":false,"is_disabled":false,"rental_uris":{"android":"levelo://app?vid=bfb25843-9057-41d8-8002-003753417501","ios":"levelo://app?vid=bfb25843-9057-41d8-8002-003753417501"},"vehicle_type_id":"4","last_reported":1759086362,"current_range_meters":9600,"station_id":"ce4bgn12rcd13ifvqbt0","pricing_plan_id":"cebpf4jnsgd1na2vs0mg"},{"bike_id":"1b9757e3-3c46-4155-a964-8d84d961707d","system_id":"levelo_inurba_marseille","lat":43.27432,"lon":5.39422,"is_reserved":false,"is_disabled":false,"rental_uris":{"android":"levelo://app?vid=1b9757e3-3c46-4155-a964-8d84d961707d","ios":"levelo://app?vid=1b9757e3-3c46-4155-a964-8d84d961707d"},"vehicle_type_id":"4","last_reported":1759086362,"current_range_meters":9600,"station_id":"ce4bhdp2rcd13ifvqf20","pricing_plan_id":"cebpf4jnsgd1na2vs0mg"},{"bike_id":"6d98ab21-1faa-4b15-97b2-a1dd6f53a5a7","system_id":"levelo_inurba_marseille","lat":43.27358,"lon":5.39407,"is_reserved":false,"is_disabled":true,"rental_uris":{"android":"levelo://app?vid=6d98ab21-1faa-4b15-97b2-a1dd6f53a5a7","ios":"levelo://app?vid=6d98ab21-1faa-4b15-97b2-a1dd6f53a5a7"},"vehicle_type_id":"4","last_reported":1759086362,"current_range_meters":10000,"station_id":"","pricing_plan_id":"cebpf4jnsgd1na2vs0mg"},{"bike_id":"4c02c545-ad59-45b1-9b9c-d3678a5922c7","system_id":"levelo_inurba_marseille","lat":43.337444,"lon":5.374475,"is_reserved":false,"is_disabled":false,"rental_uris":{"android":"levelo://app?vid=4c02c545-ad59-45b1-9b9c-d3678a5922c7","ios":"levelo://app?vid=4c02c545-ad59-45b1-9b9c-d3678a5922c7"},"vehicle_type_id":"4","last_reported":1759086362,"current_range_meters":10000,"station_id":"","pricing_plan_id":"cebpf4jnsgd1na2vs0mg"},{"bike_id":"4ba1e809-2ffd-4304-b96d-c09796aab676","system_id":"levelo_inurba_marseille","lat":43.29282,"lon":5.40146,"is_reserved":false,"is_disabled":false,"rental_uris":{"android":"levelo://app?vid=4ba1e809-2ffd-4304-b96d-c09796aab676","ios":"levelo://app?vid=4ba1e809-2ffd-4304-b96d-c09796aab676"},"vehicle_type_id":"4","last_reported":1759086362,"current_range_meters":9600,"station_id":"ce4bh312rcd13ifvqdk0","pricing_plan_id":"cebpf4jnsgd1na2vs0mg"},{"bike_id":"c097f066-7651-435e-913f-a8a7838aba88","system_id":"levelo_inurba_marseille","lat":43.33722,"lon":5.37459,"is_reserved":false,"is_disabled":false,"rental_uris":{"android":"levelo://app?vid=c097f066-7651-435e-913f-a8a7838aba88","ios":"levelo://app?vid=c097f066-7651-435e-913f-a8a7838aba88"},"vehicle_type_id":"4","last_reported":1759086362,"current_range_meters":10000,"station_id":"","pricing_plan_id":"cebpf4jnsgd1na2vs0mg"},{"bike_id":"7bb66801-60ae-4da2-94c3-be1d3d6ab6c4","system_id":"levelo_inurba_marseille","lat":43.2893,"lon":5.383961,"is_reserved":false,"is_disabled":false,"rental_uris":{"android":"levelo://app?vid=7bb66801-60ae-4da2-94c3-be1d3d6ab6c4","ios":"levelo://app?vid=7bb66801-60ae-4da2-94c3-be1d3d6ab6c4"},"vehicle_type_id":"4","last_reported":1759086362,"current_range_meters":10000,"station_id":"ce4bh612rcd13ifvqe6g","pricing_plan_id":"cebpf4jnsgd1na2vs0mg"},{"bike_id":"c3863a18-76cf-4412-a9bd-24b4072133eb","system_id":"levelo_inurba_marseille","lat":43.29016,"lon":5.38146,"is_reserved":false,"is_disabled":false,"rental_uris":{"android":"levelo://app?vid=c3863a18-76cf-4412-a9bd-24b4072133eb","ios":"levelo://app?vid=c3863a18-76cf-4412-a9bd-24b4072133eb"},"vehicle_type_id":"4","last_reported":1759086362,"current_range_meters":10000,"station_id":"ce4bh4p2rcd13ifvqe1g","pricing_plan_id":"cebpf4jnsgd1na2vs0mg"},{"bike_id":"eb687c86-8fcc-43e2-b311-f13df112db8e","system_id":"levelo_inurba_marseille","lat":43.30414,"lon":5.41298,"is_reserved":false,"is_disabled":false,"rental_uris":{"android":"levelo://app?vid=eb687c86-8fcc-43e2-b311-f13df112db8e","ios":"levelo://app?vid=eb687c86-8fcc-43e2-b311-f13df112db8e"},"vehicle_type_id":"4","last_reported":1759086362,"current_range_meters":10800,"station_id":"ce4bhop2rcd13ifvqh8g","pricing_plan_id":"cebpf4jnsgd1na2vs0mg"},{"bike_id":"72c47d07-f4a8-4f58-b6bc-b8c6013ac540","system_id":"levelo_inurba_marseille","lat":43.314047,"lon":5.391268,"is_reserved":false,"is_disabled":false,"rental_uris":{"android":"levelo://app?vid=72c47d07-f4a8-4f58-b6bc-b8c6013ac540","ios":"levelo://app?vid=72c47d07-f4a8-4f58-b6bc-b8c6013ac540"},"vehicle_type_id":"4","last_reported":1759086362,"current_range_meters":10800,"station_id":"","pricing_plan_id":"cebpf4jnsgd1na2vs0mg"},{"bike_id":"99f8e706-cfb0-4eb6-929e-527298f2a0db","system_id":"levelo_inurba_marseille","lat":43.28357,"lon":5.37648,"is_reserved":false,"is_disabled":false,"rental_uris":{"android":"levelo://app?vid=99f8e706-cfb0-4eb6-929e-527298f2a0db","ios":"levelo://app?vid=99f8e706-cfb0-4eb6-929e-527298f2a0db"},"vehicle_type_id":"4","last_reported":1759086362,"current_range_meters":10800,"station_id":"","pricing_plan_id":"cebpf4jnsgd1na2vs0mg"},{"bike_id":"b5a8d39c-cabd-48d9-9bc0-24c79386cf21","system_id":"levelo_inurba_marseille","lat":43.23151,"lon":5.4371,"is_reserved":false,"is_disabled":false,"rental_uris":{"android":"levelo://app?vid=b5a8d39c-cabd-48d9-9bc0-24c79386cf21","ios":"levelo://app?vid=b5a8d39c-cabd-48d9-9bc0-24c79386cf21"},"vehicle_type_id":"4","last_reported":1759086362,"current_range_meters":10800,"station_id":"ce4bhmp2rcd13ifvqgog","pricing_plan_id":"cebpf4jnsgd1na2vs0mg"},{"bike_id":"0c1b4f9e-a8b3-49ca-9c30-10a751563074","system_id":"levelo_inurba_marseille","lat":43.29175,"lon":5.39324,"is_reserved":false,"is_disabled":false,"rental_uris":{"android":"levelo://app?vid=0c1b4f9e-a8b3-49ca-9c30-10a751563074","ios":"levelo://app?vid=0c1b4f9e-a8b3-49ca-9c30-10a751563074"},"vehicle_type_id":"4","last_reported":1759086362,"current_range_meters":10800,"station_id":"ce4bh192rcd13ifvqdd0","pricing_plan_id":"cebpf4jnsgd1na2vs0mg"},{"bike_id":"7b913da8-182e-4b62-aca6-3c2071eeb3c6","system_id":"levelo_inurba_marseille","lat":43.28002,"lon":5.40016,"is_reserved":false,"is_disabled":false,"rental_uris":{"android":"levelo://app?vid=7b913da8-182e-4b62-aca6-3c2071eeb3c6","ios":"levelo://app?vid=7b913da8-182e-4b62-aca6-3c2071eeb3c6"},"vehicle_type_id":"4","last_reported":1759086362,"current_range_meters":10800,"station_id":"ce4bho92rcd13ifvqh4g","pricing_plan_id":"cebpf4jnsgd1na2vs0mg"},{"bike_id":"710dfcf0-04c4-4704-89b7-56dbb8103e66","system_id":"levelo_inurba_marseille","lat":43.2906,"lon":5.37155,"is_reserved":false,"is_disabled":true,"rental_uris":{"android":"levelo://app?vid=710dfcf0-04c4-4704-89b7-56dbb8103e66","ios":"levelo://app?vid=710dfcf0-04c4-4704-89b7-56dbb8103e66"},"vehicle_type_id":"4","last_reported":1759086362,"current_range_meters":10800,"station_id":"ce4bh5p2rcd13ifvqe4g","pricing_plan_id":"cebpf4jnsgd1na2vs0mg"},{"bike_id":"f62fe733-90ac-444a-a20a-73d227678ff7","system_id":"levelo_inurba_marseille","lat":43.29638,"lon":5.37754,"is_reserved":false,"is_disabled":true,"rental_uris":{"android":"levelo://app?vid=f62fe733-90ac-444a-a20a-73d227678ff7","ios":"levelo://app?vid=f62fe733-90ac-444a-a20a-73d227678ff7"},"vehicle_type_id":"4","last_reported":1759086362,"current_range_meters":11200,"station_id":"ce4bgi92rcd13ifvqb90","pricing_plan_id":"cebpf4jnsgd1na2vs0mg"},{"bike_id":"84d84f4a-29f2-45a5-878f-bb4fd9d1de8b","system_id":"levelo_inurba_marseille","lat":43.30245,"lon":5.40041,"is_reserved":false,"is_disabled":false,"rental_uris":{"android":"levelo://app?vid=84d84f4a-29f2-45a5-878f-bb4fd9d1de8b","ios":"levelo://app?vid=84d84f4a-29f2-45a5-878f-bb4fd9d1de8b"},"vehicle_type_id":"4","last_reported":1759086362,"current_range_meters":11200,"station_id":"ce4bgvh2rcd13ifvqcs0","pricing_plan_id":"cebpf4jnsgd1na2vs0mg"},{"bike_id":"8c9ca173-ca7b-4a93-9cfd-f56d64d6e6f2","system_id":"levelo_inurba_marseille","lat":43.2844,"lon":5.39206,"is_reserved":false,"is_disabled":false,"rental_uris":{"android":"levelo://app?vid=8c9ca173-ca7b-4a93-9cfd-f56d64d6e6f2","ios":"levelo://app?vid=8c9ca173-ca7b-4a93-9cfd-f56d64d6e6f2"},"vehicle_type_id":"4","last_reported":1759086362,"current_range_meters":11200,"station_id":"ce4bhoh2rcd13ifvqh5g","pricing_plan_id":"cebpf4jnsgd1na2vs0mg"},{"bike_id":"c9916796-5f07-4d22-aceb-87882fb08ac5","system_id":"levelo_inurba_marseille","lat":43.30626,"lon":5.36578,"is_reserved":false,"is_disabled":false,"rental_uris":{"android":"levelo://app?vid=c9916796-5f07-4d22-aceb-87882fb08ac5","ios":"levelo://app?vid=c9916796-5f07-4d22-aceb-87882fb08ac5"},"vehicle_type_id":"4","last_reported":1759086362,"current_range_meters":11200,"station_id":"","pricing_plan_id":"cebpf4jnsgd1na2vs0mg"},{"bike_id":"b6520a8a-87c7-450e-8fe5-e793b0c332b7","system_id":"levelo_inurba_marseille","lat":43.29003,"lon":5.35613,"is_reserved":false,"is_disabled":false,"rental_uris":{"android":"levelo://app?vid=b6520a8a-87c7-450e-8fe5-e793b0c332b7","ios":"levelo://app?vid=b6520a8a-87c7-450e-8fe5-e793b0c332b7"},"vehicle_type_id":"4","last_reported":1759086362,"current_range_meters":11200,"station_id":"","pricing_plan_id":"cebpf4jnsgd1na2vs0mg"},{"bike_id":"d16f46f5-3d43-4933-b088-bc397093924a","system_id":"levelo_inurba_marseille","lat":43.29852,"lon":5.362879,"is_reserved":false,"is_disabled":true,"rental_uris":{"android":"levelo://app?vid=d16f46f5-3d43-4933-b088-bc397093924a","ios":"levelo://app?vid=d16f46f5-3d43-4933-b088-bc397093924a"},"vehicle_type_id":"4","last_reported":1759086362,"current_range_meters":11200,"station_id":"ce4bgpp2rcd13ifvqc3g","pricing_plan_id":"cebpf4jnsgd1na2vs0mg"},{"bike_id":"7ac81eae-aed2-4f3f-a100-b35f399befc9","system_id":"levelo_inurba_marseille","lat":43.25107,"lon":5.40315,"is_reserved":false,"is_disabled":false,"rental_uris":{"android":"levelo://app?vid=7ac81eae-aed2-4f3f-a100-b35f399befc9","ios":"levelo://app?vid=7ac81eae-aed2-4f3f-a100-b35f399befc9"},"vehicle_type_id":"4","last_reported":1759086362,"current_range_meters":11200,"station_id":"ce4bhlh2rcd13ifvqgig","pricing_plan_id":"cebpf4jnsgd1na2vs0mg"},{"bike_id":"b8ab9e70-8d97-43e2-b0eb-bf353e8646f8","system_id":"levelo_inurba_marseille","lat":43.26191,"lon":5.40417,"is_reserved":false,"is_disabled":false,"rental_uris":{"android":"levelo://app?vid=b8ab9e70-8d97-43e2-b0eb-bf353e8646f8","ios":"levelo://app?vid=b8ab9e70-8d97-43e2-b0eb-bf353e8646f8"},"vehicle_type_id":"4","last_reported":1759086362,"current_range_meters":11200,"station_id":"ce4bhmh2rcd13ifvqgmg","pricing_plan_id":"cebpf4jnsgd1na2vs0mg"},{"bike_id":"95bafeb0-6c7b-407a-a73b-a6569ff5cb66","system_id":"levelo_inurba_marseille","lat":43.33772,"lon":5.37469,"is_reserved":false,"is_disabled":false,"rental_uris":{"android":"levelo://app?vid=95bafeb0-6c7b-407a-a73b-a6569ff5cb66","ios":"levelo://app?vid=95bafeb0-6c7b-407a-a73b-a6569ff5cb66"},"vehicle_type_id":"4","last_reported":1759086362,"current_range_meters":11600,"station_id":"","pricing_plan_id":"cebpf4jnsgd1na2vs0mg"},{"bike_id":"f4c53ff4-73a4-4134-bb3f-bbf464878afb","system_id":"levelo_inurba_marseille","lat":43.24164,"lon":5.3641,"is_reserved":false,"is_disabled":true,"rental_uris":{"android":"levelo://app?vid=f4c53ff4-73a4-4134-bb3f-bbf464878afb","ios":"levelo://app?vid=f4c53ff4-73a4-4134-bb3f-bbf464878afb"},"vehicle_type_id":"4","last_reported":1759086362,"current_range_meters":11600,"station_id":"cpo36qri1sfpv3e86is0","pricing_plan_id":"cebpf4jnsgd1na2vs0mg"},{"bike_id":"c1da1d0f-3e3f-401f-b6dd-8d59e3a9a159","system_id":"levelo_inurba_marseille","lat":43.29897,"lon":5.43671,"is_reserved":false,"is_disabled":false,"rental_uris":{"android":"levelo://app?vid=c1da1d0f-3e3f-401f-b6dd-8d59e3a9a159","ios":"levelo://app?vid=c1da1d0f-3e3f-401f-b6dd-8d59e3a9a159"},"vehicle_type_id":"4","last_reported":1759086362,"current_range_meters":11600,"station_id":"ce4bhpp2rcd13ifvqhfg","pricing_plan_id":"cebpf4jnsgd1na2vs0mg"},{"bike_id":"f000bb59-92bf-40d5-99e6-2f6ff4348fc6","system_id":"levelo_inurba_marseille","lat":43.29592,"lon":5.38098,"is_reserved":false,"is_disabled":false,"rental_uris":{"android":"levelo://app?vid=f000bb59-92bf-40d5-99e6-2f6ff4348fc6","ios":"levelo://app?vid=f000bb59-92bf-40d5-99e6-2f6ff4348fc6"},"vehicle_type_id":"4","last_reported":1759086362,"current_range_meters":11600,"station_id":"ce4bgl12rcd13ifvqbo0","pricing_plan_id":"cebpf4jnsgd1na2vs0mg"},{"bike_id":"e65e189a-d961-4cec-9f48-72d837811157","system_id":"levelo_inurba_marseille","lat":43.26498,"lon":5.3954,"is_reserved":false,"is_disabled":false,"rental_uris":{"android":"levelo://app?vid=e65e189a-d961-4cec-9f48-72d837811157","ios":"levelo://app?vid=e65e189a-d961-4cec-9f48-72d837811157"},"vehicle_type_id":"4","last_reported":1759086362,"current_range_meters":11600,"station_id":"ce4bhi12rcd13ifvqfq0","pricing_plan_id":"cebpf4jnsgd1na2vs0mg"},{"bike_id":"a2a842f6-fc46-40d7-b7a6-d9d5a8c99dfa","system_id":"levelo_inurba_marseille","lat":43.319894,"lon":5.381567,"is_reserved":false,"is_disabled":true,"rental_uris":{"android":"levelo://app?vid=a2a842f6-fc46-40d7-b7a6-d9d5a8c99dfa","ios":"levelo://app?vid=a2a842f6-fc46-40d7-b7a6-d9d5a8c99dfa"},"vehicle_type_id":"4","last_reported":1759086362,"current_range_meters":11600,"station_id":"ce4bhr12rcd13ifvqhpg","pricing_plan_id":"cebpf4jnsgd1na2vs0mg"},{"bike_id":"4f00338a-e44b-4fdd-9095-a4f54b5d9395","system_id":"levelo_inurba_marseille","lat":43.3132,"lon":5.397,"is_reserved":false,"is_disabled":false,"rental_uris":{"android":"levelo://app?vid=4f00338a-e44b-4fdd-9095-a4f54b5d9395","ios":"levelo://app?vid=4f00338a-e44b-4fdd-9095-a4f54b5d9395"},"vehicle_type_id":"4","last_reported":1759086362,"current_range_meters":11600,"station_id":"ce4bgvp2rcd13ifvqcu0","pricing_plan_id":"cebpf4jnsgd1na2vs0mg"},{"bike_id":"afb3a0b1-c807-4eff-8fb4-4964910f49c8","system_id":"levelo_inurba_marseille","lat":43.21741,"lon":5.3461,"is_reserved":false,"is_disabled":true,"rental_uris":{"android":"levelo://app?vid=afb3a0b1-c807-4eff-8fb4-4964910f49c8","ios":"levelo://app?vid=afb3a0b1-c807-4eff-8fb4-4964910f49c8"},"vehicle_type_id":"4","last_reported":1759086362,"current_range_meters":11600,"station_id":"st_cvj6r9ubvosntc0bgbag","pricing_plan_id":"cebpf4jnsgd1na2vs0mg"},{"bike_id":"691f8f0e-bc20-4b8a-8939-f2b50ee6ff34","system_id":"levelo_inurba_marseille","lat":43.28707,"lon":5.3739,"is_reserved":false,"is_disabled":false,"rental_uris":{"android":"levelo://app?vid=691f8f0e-bc20-4b8a-8939-f2b50ee6ff34","ios":"levelo://app?vid=691f8f0e-bc20-4b8a-8939-f2b50ee6ff34"},"vehicle_type_id":"4","last_reported":1759086362,"current_range_meters":11600,"station_id":"ce4bh3p2rcd13ifvqdq0","pricing_plan_id":"cebpf4jnsgd1na2vs0mg"},{"bike_id":"258ab053-1083-4ca9-a32a-1e85f085fc22","system_id":"levelo_inurba_marseille","lat":43.337444,"lon":5.374475,"is_reserved":false,"is_disabled":false,"rental_uris":{"android":"levelo://app?vid=258ab053-1083-4ca9-a32a-1e85f085fc22","ios":"levelo://app?vid=258ab053-1083-4ca9-a32a-1e85f085fc22"},"vehicle_type_id":"4","last_reported":1759086362,"current_range_meters":11600,"station_id":"","pricing_plan_id":"cebpf4jnsgd1na2vs0mg"},{"bike_id":"cd9c15f8-9aae-453c-a9e3-d543c9615386","system_id":"levelo_inurba_marseille","lat":43.29634,"lon":5.40597,"is_reserved":false,"is_disabled":false,"rental_uris":{"android":"levelo://app?vid=cd9c15f8-9aae-453c-a9e3-d543c9615386","ios":"levelo://app?vid=cd9c15f8-9aae-453c-a9e3-d543c9615386"},"vehicle_type_id":"4","last_reported":1759086362,"current_range_meters":11600,"station_id":"ce4bh0h2rcd13ifvqd60","pricing_plan_id":"cebpf4jnsgd1na2vs0mg"},{"bike_id":"e328a79a-ccc1-4705-9532-eacf7d0c6860","system_id":"levelo_inurba_marseille","lat":43.29889,"lon":5.38893,"is_reserved":false,"is_disabled":false,"rental_uris":{"android":"levelo://app?vid=e328a79a-ccc1-4705-9532-eacf7d0c6860","ios":"levelo://app?vid=e328a79a-ccc1-4705-9532-eacf7d0c6860"},"vehicle_type_id":"4","last_reported":1759086362,"current_range_meters":11600,"station_id":"ce4bh392rcd13ifvqdl0","pricing_plan_id":"cebpf4jnsgd1na2vs0mg"},{"bike_id":"dafbf689-a513-42ec-9ec6-4abecd3bdf78","system_id":"levelo_inurba_marseille","lat":43.2418,"lon":5.3973,"is_reserved":false,"is_disabled":false,"rental_uris":{"android":"levelo://app?vid=dafbf689-a513-42ec-9ec6-4abecd3bdf78","ios":"levelo://app?vid=dafbf689-a513-42ec-9ec6-4abecd3bdf78"},"vehicle_type_id":"4","last_reported":1759086362,"current_range_meters":12000,"station_id":"ce4bhn12rcd13ifvqgpg","pricing_plan_id":"cebpf4jnsgd1na2vs0mg"},{"bike_id":"454e363a-ae22-4379-b9c1-b61cbf2024fa","system_id":"levelo_inurba_marseille","lat":43.29201,"lon":5.3934,"is_reserved":false,"is_disabled":false,"rental_uris":{"android":"levelo://app?vid=454e363a-ae22-4379-b9c1-b61cbf2024fa","ios":"levelo://app?vid=454e363a-ae22-4379-b9c1-b61cbf2024fa"},"vehicle_type_id":"4","last_reported":1759086362,"current_range_meters":12000,"station_id":"ce4bh192rcd13ifvqdd0","pricing_plan_id":"cebpf4jnsgd1na2vs0mg"},{"bike_id":"360c0746-c854-4629-884f-7c911de53d9d","system_id":"levelo_inurba_marseille","lat":43.3303,"lon":5.39459,"is_reserved":false,"is_disabled":true,"rental_uris":{"android":"levelo://app?vid=360c0746-c854-4629-884f-7c911de53d9d","ios":"levelo://app?vid=360c0746-c854-4629-884f-7c911de53d9d"},"vehicle_type_id":"4","last_reported":1759086362,"current_range_meters":12000,"station_id":"","pricing_plan_id":"cebpf4jnsgd1na2vs0mg"},{"bike_id":"e3fe1c25-77d6-4c99-a172-35c670f24da9","system_id":"levelo_inurba_marseille","lat":43.28615,"lon":5.35125,"is_reserved":false,"is_disabled":true,"rental_uris":{"android":"levelo://app?vid=e3fe1c25-77d6-4c99-a172-35c670f24da9","ios":"levelo://app?vid=e3fe1c25-77d6-4c99-a172-35c670f24da9"},"vehicle_type_id":"4","last_reported":1759086362,"current_range_meters":12000,"station_id":"ce4bhch2rcd13ifvqeug","pricing_plan_id":"cebpf4jnsgd1na2vs0mg"},{"bike_id":"f12c1c9a-5ec0-4d16-b161-288c3eaaa062","system_id":"levelo_inurba_marseille","lat":43.25339,"lon":5.42162,"is_reserved":false,"is_disabled":false,"rental_uris":{"android":"levelo://app?vid=f12c1c9a-5ec0-4d16-b161-288c3eaaa062","ios":"levelo://app?vid=f12c1c9a-5ec0-4d16-b161-288c3eaaa062"},"vehicle_type_id":"4","last_reported":1759086362,"current_range_meters":12000,"station_id":"st_d2m65c5bi1j21697t3ng","pricing_plan_id":"cebpf4jnsgd1na2vs0mg"},{"bike_id":"94f863ad-9a05-4b1a-9336-5bd853f5ab0e","system_id":"levelo_inurba_marseille","lat":43.26499,"lon":5.39544,"is_reserved":false,"is_disabled":false,"rental_uris":{"android":"levelo://app?vid=94f863ad-9a05-4b1a-9336-5bd853f5ab0e","ios":"levelo://app?vid=94f863ad-9a05-4b1a-9336-5bd853f5ab0e"},"vehicle_type_id":"4","last_reported":1759086362,"current_range_meters":12400,"station_id":"ce4bhi12rcd13ifvqfq0","pricing_plan_id":"cebpf4jnsgd1na2vs0mg"},{"bike_id":"2c6518be-b3f0-42d2-93c9-c1de9e54885f","system_id":"levelo_inurba_marseille","lat":43.29227,"lon":5.38219,"is_reserved":false,"is_disabled":false,"rental_uris":{"android":"levelo://app?vid=2c6518be-b3f0-42d2-93c9-c1de9e54885f","ios":"levelo://app?vid=2c6518be-b3f0-42d2-93c9-c1de9e54885f"},"vehicle_type_id":"4","last_reported":1759086362,"current_range_meters":12400,"station_id":"","pricing_plan_id":"cebpf4jnsgd1na2vs0mg"},{"bike_id":"3cb1dae7-6bcd-41e5-b1b7-c1d25c751a99","system_id":"levelo_inurba_marseille","lat":43.337635,"lon":5.374385,"is_reserved":false,"is_disabled":false,"rental_uris":{"android":"levelo://app?vid=3cb1dae7-6bcd-41e5-b1b7-c1d25c751a99","ios":"levelo://app?vid=3cb1dae7-6bcd-41e5-b1b7-c1d25c751a99"},"vehicle_type_id":"4","last_reported":1759086362,"current_range_meters":12400,"station_id":"","pricing_plan_id":"cebpf4jnsgd1na2vs0mg"},{"bike_id":"e17d8f41-c4c3-4237-b00b-00bb81ac11d6","system_id":"levelo_inurba_marseille","lat":43.28848,"lon":5.35868,"is_reserved":false,"is_disabled":false,"rental_uris":{"android":"levelo://app?vid=e17d8f41-c4c3-4237-b00b-00bb81ac11d6","ios":"levelo://app?vid=e17d8f41-c4c3-4237-b00b-00bb81ac11d6"},"vehicle_type_id":"4","last_reported":1759086362,"current_range_meters":12400,"station_id":"ce4bhb12rcd13ifvqem0","pricing_plan_id":"cebpf4jnsgd1na2vs0mg"},{"bike_id":"d58ddcbe-70d7-4259-abad-73cc43b8b8b9","system_id":"levelo_inurba_marseille","lat":43.23041,"lon":5.35493,"is_reserved":false,"is_disabled":true,"rental_uris":{"android":"levelo://app?vid=d58ddcbe-70d7-4259-abad-73cc43b8b8b9","ios":"levelo://app?vid=d58ddcbe-70d7-4259-abad-73cc43b8b8b9"},"vehicle_type_id":"4","last_reported":1759086362,"current_range_meters":12400,"station_id":"cpo3342slgdg3j2ifvpg","pricing_plan_id":"cebpf4jnsgd1na2vs0mg"},{"bike_id":"5fe7f407-3191-4d84-bcf8-5bce6d58e56d","system_id":"levelo_inurba_marseille","lat":43.229311,"lon":5.35376,"is_reserved":false,"is_disabled":false,"rental_uris":{"android":"levelo://app?vid=5fe7f407-3191-4d84-bcf8-5bce6d58e56d","ios":"levelo://app?vid=5fe7f407-3191-4d84-bcf8-5bce6d58e56d"},"vehicle_type_id":"4","last_reported":1759086362,"current_range_meters":12400,"station_id":"cpo3532slgdg3j2ikp40","pricing_plan_id":"cebpf4jnsgd1na2vs0mg"},{"bike_id":"ecf30250-2485-493a-a887-94e05fa088f6","system_id":"levelo_inurba_marseille","lat":43.29267,"lon":5.3845,"is_reserved":false,"is_disabled":false,"rental_uris":{"android":"levelo://app?vid=ecf30250-2485-493a-a887-94e05fa088f6","ios":"levelo://app?vid=ecf30250-2485-493a-a887-94e05fa088f6"},"vehicle_type_id":"4","last_reported":1759086362,"current_range_meters":12400,"station_id":"ce4bh692rcd13ifvqea0","pricing_plan_id":"cebpf4jnsgd1na2vs0mg"},{"bike_id":"73e0877c-52aa-4d1a-8169-83c3ea6a2c95","system_id":"levelo_inurba_marseille","lat":43.30726,"lon":5.38238,"is_reserved":false,"is_disabled":false,"rental_uris":{"android":"levelo://app?vid=73e0877c-52aa-4d1a-8169-83c3ea6a2c95","ios":"levelo://app?vid=73e0877c-52aa-4d1a-8169-83c3ea6a2c95"},"vehicle_type_id":"4","last_reported":1759086362,"current_range_meters":12400,"station_id":"","pricing_plan_id":"cebpf4jnsgd1na2vs0mg"},{"bike_id":"4066d7ec-fa0b-489f-983a-e34bc8d89709","system_id":"levelo_inurba_marseille","lat":43.2994,"lon":5.37143,"is_reserved":false,"is_disabled":false,"rental_uris":{"android":"levelo://app?vid=4066d7ec-fa0b-489f-983a-e34bc8d89709","ios":"levelo://app?vid=4066d7ec-fa0b-489f-983a-e34bc8d89709"},"vehicle_type_id":"4","last_reported":1759086362,"current_range_meters":12000,"station_id":"ce4bgr92rcd13ifvqc7g","pricing_plan_id":"cebpf4jnsgd1na2vs0mg"},{"bike_id":"60a20149-a629-4d28-b8a9-32aba9067bc9","system_id":"levelo_inurba_marseille","lat":43.28364,"lon":5.38098,"is_reserved":false,"is_disabled":false,"rental_uris":{"android":"levelo://app?vid=60a20149-a629-4d28-b8a9-32aba9067bc9","ios":"levelo://app?vid=60a20149-a629-4d28-b8a9-32aba9067bc9"},"vehicle_type_id":"4","last_reported":1759086362,"current_range_meters":12400,"station_id":"ce4bh412rcd13ifvqdr0","pricing_plan_id":"cebpf4jnsgd1na2vs0mg"},{"bike_id":"818f8e2b-b8b6-48e8-8505-72a6d8e9a5f7","system_id":"levelo_inurba_marseille","lat":43.302551,"lon":5.400697,"is_reserved":false,"is_disabled":false,"rental_uris":{"android":"levelo://app?vid=818f8e2b-b8b6-48e8-8505-72a6d8e9a5f7","ios":"levelo://app?vid=818f8e2b-b8b6-48e8-8505-72a6d8e9a5f7"},"vehicle_type_id":"4","last_reported":1759086362,"current_range_meters":12400,"station_id":"ce4bgvh2rcd13ifvqcs0","pricing_plan_id":"cebpf4jnsgd1na2vs0mg"},{"bike_id":"1dad2113-89e2-44fc-a0b6-ddd6a09baff1","system_id":"levelo_inurba_marseille","lat":43.337444,"lon":5.374475,"is_reserved":false,"is_disabled":false,"rental_uris":{"android":"levelo://app?vid=1dad2113-89e2-44fc-a0b6-ddd6a09baff1","ios":"levelo://app?vid=1dad2113-89e2-44fc-a0b6-ddd6a09baff1"},"vehicle_type_id":"4","last_reported":1759086362,"current_range_meters":12400,"station_id":"","pricing_plan_id":"cebpf4jnsgd1na2vs0mg"},{"bike_id":"6f0c1749-517c-4897-91c9-50c589e202de","system_id":"levelo_inurba_marseille","lat":43.34142,"lon":5.40938,"is_reserved":false,"is_disabled":true,"rental_uris":{"android":"levelo://app?vid=6f0c1749-517c-4897-91c9-50c589e202de","ios":"levelo://app?vid=6f0c1749-517c-4897-91c9-50c589e202de"},"vehicle_type_id":"4","last_reported":1759086362,"current_range_meters":12800,"station_id":"ce4bhqh2rcd13ifvqhlg","pricing_plan_id":"cebpf4jnsgd1na2vs0mg"},{"bike_id":"5c1c4b14-88d4-46ad-a396-47fa58932ab3","system_id":"levelo_inurba_marseille","lat":43.30146,"lon":5.39848,"is_reserved":false,"is_disabled":false,"rental_uris":{"android":"levelo://app?vid=5c1c4b14-88d4-46ad-a396-47fa58932ab3","ios":"levelo://app?vid=5c1c4b14-88d4-46ad-a396-47fa58932ab3"},"vehicle_type_id":"4","last_reported":1759086362,"current_range_meters":9200,"station_id":"ce4bh0h2rcd13ifvqd40","pricing_plan_id":"cebpf4jnsgd1na2vs0mg"},{"bike_id":"89e61d54-e5fc-4c18-8af5-34e07be267d8","system_id":"levelo_inurba_marseille","lat":43.31072,"lon":5.3835,"is_reserved":false,"is_disabled":false,"rental_uris":{"android":"levelo://app?vid=89e61d54-e5fc-4c18-8af5-34e07be267d8","ios":"levelo://app?vid=89e61d54-e5fc-4c18-8af5-34e07be267d8"},"vehicle_type_id":"4","last_reported":1759086362,"current_range_meters":12800,"station_id":"ce4bgv92rcd13ifvqcr0","pricing_plan_id":"cebpf4jnsgd1na2vs0mg"},{"bike_id":"d91185f4-23fb-4b20-ab14-b2fe3ee5bcc1","system_id":"levelo_inurba_marseille","lat":43.296,"lon":5.3808,"is_reserved":false,"is_disabled":false,"rental_uris":{"android":"levelo://app?vid=d91185f4-23fb-4b20-ab14-b2fe3ee5bcc1","ios":"levelo://app?vid=d91185f4-23fb-4b20-ab14-b2fe3ee5bcc1"},"vehicle_type_id":"4","last_reported":1759086362,"current_range_meters":12400,"station_id":"ce4bgl12rcd13ifvqbo0","pricing_plan_id":"cebpf4jnsgd1na2vs0mg"},{"bike_id":"6962806f-5502-4a1f-9709-5ea60b1910fe","system_id":"levelo_inurba_marseille","lat":43.25818,"lon":5.39439,"is_reserved":false,"is_disabled":false,"rental_uris":{"android":"levelo://app?vid=6962806f-5502-4a1f-9709-5ea60b1910fe","ios":"levelo://app?vid=6962806f-5502-4a1f-9709-5ea60b1910fe"},"vehicle_type_id":"4","last_reported":1759086362,"current_range_meters":12800,"station_id":"ce4bhip2rcd13ifvqft0","pricing_plan_id":"cebpf4jnsgd1na2vs0mg"},{"bike_id":"151d75a0-434c-41d6-a3a8-42bc6a9a604c","system_id":"levelo_inurba_marseille","lat":43.31757,"lon":5.39017,"is_reserved":false,"is_disabled":false,"rental_uris":{"android":"levelo://app?vid=151d75a0-434c-41d6-a3a8-42bc6a9a604c","ios":"levelo://app?vid=151d75a0-434c-41d6-a3a8-42bc6a9a604c"},"vehicle_type_id":"4","last_reported":1759086362,"current_range_meters":12800,"station_id":"ce4bgt92rcd13ifvqcf0","pricing_plan_id":"cebpf4jnsgd1na2vs0mg"},{"bike_id":"0c38051c-a803-44c4-90a1-151a4109583c","system_id":"levelo_inurba_marseille","lat":43.28658,"lon":5.38663,"is_reserved":false,"is_disabled":true,"rental_uris":{"android":"levelo://app?vid=0c38051c-a803-44c4-90a1-151a4109583c","ios":"levelo://app?vid=0c38051c-a803-44c4-90a1-151a4109583c"},"vehicle_type_id":"4","last_reported":1759086362,"current_range_meters":12800,"station_id":"ce4bh492rcd13ifvqdug","pricing_plan_id":"cebpf4jnsgd1na2vs0mg"},{"bike_id":"946fa785-ee55-4fe8-a3f0-8dc88b65a494","system_id":"levelo_inurba_marseille","lat":43.30957,"lon":5.39043,"is_reserved":false,"is_disabled":false,"rental_uris":{"android":"levelo://app?vid=946fa785-ee55-4fe8-a3f0-8dc88b65a494","ios":"levelo://app?vid=946fa785-ee55-4fe8-a3f0-8dc88b65a494"},"vehicle_type_id":"4","last_reported":1759086362,"current_range_meters":12800,"station_id":"ce4bgup2rcd13ifvqco0","pricing_plan_id":"cebpf4jnsgd1na2vs0mg"},{"bike_id":"83bacdaa-72b6-4f6c-bddd-a7ce01145202","system_id":"levelo_inurba_marseille","lat":43.31319,"lon":5.39704,"is_reserved":false,"is_disabled":false,"rental_uris":{"android":"levelo://app?vid=83bacdaa-72b6-4f6c-bddd-a7ce01145202","ios":"levelo://app?vid=83bacdaa-72b6-4f6c-bddd-a7ce01145202"},"vehicle_type_id":"4","last_reported":1759086362,"current_range_meters":12800,"station_id":"ce4bgvp2rcd13ifvqcu0","pricing_plan_id":"cebpf4jnsgd1na2vs0mg"},{"bike_id":"44b8e2b4-a581-4b59-8a9e-762706ac1ccc","system_id":"levelo_inurba_marseille","lat":43.320393,"lon":5.415465,"is_reserved":false,"is_disabled":false,"rental_uris":{"android":"levelo://app?vid=44b8e2b4-a581-4b59-8a9e-762706ac1ccc","ios":"levelo://app?vid=44b8e2b4-a581-4b59-8a9e-762706ac1ccc"},"vehicle_type_id":"4","last_reported":1759086362,"current_range_meters":12800,"station_id":"ce4bhq92rcd13ifvqhkg","pricing_plan_id":"cebpf4jnsgd1na2vs0mg"},{"bike_id":"644cffef-bd0f-4766-aee1-2f6e9e0483da","system_id":"levelo_inurba_marseille","lat":43.30929,"lon":5.40147,"is_reserved":false,"is_disabled":false,"rental_uris":{"android":"levelo://app?vid=644cffef-bd0f-4766-aee1-2f6e9e0483da","ios":"levelo://app?vid=644cffef-bd0f-4766-aee1-2f6e9e0483da"},"vehicle_type_id":"4","last_reported":1759086362,"current_range_meters":12800,"station_id":"ce4bgvp2rcd13ifvqct0","pricing_plan_id":"cebpf4jnsgd1na2vs0mg"},{"bike_id":"8915809c-776d-498b-875a-ee2adbd8f011","system_id":"levelo_inurba_marseille","lat":43.30421,"lon":5.41295,"is_reserved":false,"is_disabled":false,"rental_uris":{"android":"levelo://app?vid=8915809c-776d-498b-875a-ee2adbd8f011","ios":"levelo://app?vid=8915809c-776d-498b-875a-ee2adbd8f011"},"vehicle_type_id":"4","last_reported":1759086362,"current_range_meters":12400,"station_id":"ce4bhop2rcd13ifvqh8g","pricing_plan_id":"cebpf4jnsgd1na2vs0mg"},{"bike_id":"0bde17af-7284-432d-babb-bd2b1d71fa51","system_id":"levelo_inurba_marseille","lat":43.309123,"lon":5.396473,"is_reserved":false,"is_disabled":false,"rental_uris":{"android":"levelo://app?vid=0bde17af-7284-432d-babb-bd2b1d71fa51","ios":"levelo://app?vid=0bde17af-7284-432d-babb-bd2b1d71fa51"},"vehicle_type_id":"4","last_reported":1759086362,"current_range_meters":12800,"station_id":"ce4bh012rcd13ifvqcv0","pricing_plan_id":"cebpf4jnsgd1na2vs0mg"},{"bike_id":"1b5cfc07-48a5-4996-a000-15545d65edc4","system_id":"levelo_inurba_marseille","lat":43.30886,"lon":5.39659,"is_reserved":false,"is_disabled":false,"rental_uris":{"android":"levelo://app?vid=1b5cfc07-48a5-4996-a000-15545d65edc4","ios":"levelo://app?vid=1b5cfc07-48a5-4996-a000-15545d65edc4"},"vehicle_type_id":"4","last_reported":1759086362,"current_range_meters":12800,"station_id":"ce4bh012rcd13ifvqcv0","pricing_plan_id":"cebpf4jnsgd1na2vs0mg"},{"bike_id":"c2fc8b85-418e-4371-801b-52f6e96ee3fc","system_id":"levelo_inurba_marseille","lat":43.30133,"lon":5.3986,"is_reserved":false,"is_disabled":false,"rental_uris":{"android":"levelo://app?vid=c2fc8b85-418e-4371-801b-52f6e96ee3fc","ios":"levelo://app?vid=c2fc8b85-418e-4371-801b-52f6e96ee3fc"},"vehicle_type_id":"4","last_reported":1759086362,"current_range_meters":12800,"station_id":"ce4bh0h2rcd13ifvqd40","pricing_plan_id":"cebpf4jnsgd1na2vs0mg"},{"bike_id":"dc71f4ce-5483-4636-b3f9-0ce887b89680","system_id":"levelo_inurba_marseille","lat":43.29911,"lon":5.37467,"is_reserved":false,"is_disabled":false,"rental_uris":{"android":"levelo://app?vid=dc71f4ce-5483-4636-b3f9-0ce887b89680","ios":"levelo://app?vid=dc71f4ce-5483-4636-b3f9-0ce887b89680"},"vehicle_type_id":"4","last_reported":1759086362,"current_range_meters":12800,"station_id":"ce4bgjh2rcd13ifvqbg0","pricing_plan_id":"cebpf4jnsgd1na2vs0mg"},{"bike_id":"20c1c77a-f4d0-45da-bf37-9dfdc8268d18","system_id":"levelo_inurba_marseille","lat":43.32005,"lon":5.38163,"is_reserved":false,"is_disabled":false,"rental_uris":{"android":"levelo://app?vid=20c1c77a-f4d0-45da-bf37-9dfdc8268d18","ios":"levelo://app?vid=20c1c77a-f4d0-45da-bf37-9dfdc8268d18"},"vehicle_type_id":"4","last_reported":1759086362,"current_range_meters":13600,"station_id":"ce4bhr12rcd13ifvqhpg","pricing_plan_id":"cebpf4jnsgd1na2vs0mg"},{"bike_id":"01e260f5-828c-4df2-9bc4-ca80e799f979","system_id":"levelo_inurba_marseille","lat":43.241707,"lon":5.363935,"is_reserved":false,"is_disabled":true,"rental_uris":{"android":"levelo://app?vid=01e260f5-828c-4df2-9bc4-ca80e799f979","ios":"levelo://app?vid=01e260f5-828c-4df2-9bc4-ca80e799f979"},"vehicle_type_id":"4","last_reported":1759086362,"current_range_meters":13600,"station_id":"cpo36qri1sfpv3e86is0","pricing_plan_id":"cebpf4jnsgd1na2vs0mg"},{"bike_id":"d7d09523-34bb-44d2-9695-02f0abea9b47","system_id":"levelo_inurba_marseille","lat":43.29731,"lon":5.3793,"is_reserved":false,"is_disabled":false,"rental_uris":{"android":"levelo://app?vid=d7d09523-34bb-44d2-9695-02f0abea9b47","ios":"levelo://app?vid=d7d09523-34bb-44d2-9695-02f0abea9b47"},"vehicle_type_id":"4","last_reported":1759086362,"current_range_meters":13600,"station_id":"","pricing_plan_id":"cebpf4jnsgd1na2vs0mg"},{"bike_id":"0ba74de0-ecf2-426c-a16f-6ff84f030f1a","system_id":"levelo_inurba_marseille","lat":43.29026,"lon":5.38133,"is_reserved":false,"is_disabled":false,"rental_uris":{"android":"levelo://app?vid=0ba74de0-ecf2-426c-a16f-6ff84f030f1a","ios":"levelo://app?vid=0ba74de0-ecf2-426c-a16f-6ff84f030f1a"},"vehicle_type_id":"4","last_reported":1759086362,"current_range_meters":13600,"station_id":"ce4bh4p2rcd13ifvqe1g","pricing_plan_id":"cebpf4jnsgd1na2vs0mg"},{"bike_id":"d1607a37-7a06-451d-93aa-af4983210155","system_id":"levelo_inurba_marseille","lat":43.31232,"lon":5.36851,"is_reserved":false,"is_disabled":false,"rental_uris":{"android":"levelo://app?vid=d1607a37-7a06-451d-93aa-af4983210155","ios":"levelo://app?vid=d1607a37-7a06-451d-93aa-af4983210155"},"vehicle_type_id":"4","last_reported":1759086362,"current_range_meters":13600,"station_id":"ce4bgl92rcd13ifvqbq0","pricing_plan_id":"cebpf4jnsgd1na2vs0mg"},{"bike_id":"35e8f722-b82a-4247-beb8-7e2827829ce6","system_id":"levelo_inurba_marseille","lat":43.32405,"lon":5.3911,"is_reserved":false,"is_disabled":false,"rental_uris":{"android":"levelo://app?vid=35e8f722-b82a-4247-beb8-7e2827829ce6","ios":"levelo://app?vid=35e8f722-b82a-4247-beb8-7e2827829ce6"},"vehicle_type_id":"4","last_reported":1759086362,"current_range_meters":13600,"station_id":"","pricing_plan_id":"cebpf4jnsgd1na2vs0mg"},{"bike_id":"e5378695-fba9-432a-9cfb-3b5b05e40fec","system_id":"levelo_inurba_marseille","lat":43.337986,"lon":5.374304,"is_reserved":false,"is_disabled":false,"rental_uris":{"android":"levelo://app?vid=e5378695-fba9-432a-9cfb-3b5b05e40fec","ios":"levelo://app?vid=e5378695-fba9-432a-9cfb-3b5b05e40fec"},"vehicle_type_id":"4","last_reported":1759086362,"current_range_meters":13600,"station_id":"","pricing_plan_id":"cebpf4jnsgd1na2vs0mg"},{"bike_id":"e7a07ee7-ff27-4e97-adec-6f7b9b9085bf","system_id":"levelo_inurba_marseille","lat":43.28862,"lon":5.42514,"is_reserved":false,"is_disabled":false,"rental_uris":{"android":"levelo://app?vid=e7a07ee7-ff27-4e97-adec-6f7b9b9085bf","ios":"levelo://app?vid=e7a07ee7-ff27-4e97-adec-6f7b9b9085bf"},"vehicle_type_id":"4","last_reported":1759086362,"current_range_meters":14000,"station_id":"st_d3b462108ojc7389ooeg","pricing_plan_id":"cebpf4jnsgd1na2vs0mg"},{"bike_id":"d1eafab3-b41c-4931-b661-7d65b0e52688","system_id":"levelo_inurba_marseille","lat":43.28487,"lon":5.38423,"is_reserved":false,"is_disabled":false,"rental_uris":{"android":"levelo://app?vid=d1eafab3-b41c-4931-b661-7d65b0e52688","ios":"levelo://app?vid=d1eafab3-b41c-4931-b661-7d65b0e52688"},"vehicle_type_id":"4","last_reported":1759086362,"current_range_meters":14000,"station_id":"ce4bh512rcd13ifvqe3g","pricing_plan_id":"cebpf4jnsgd1na2vs0mg"},{"bike_id":"e7bfafba-a590-48b6-bc44-33a6e148e02e","system_id":"levelo_inurba_marseille","lat":43.30313,"lon":5.39215,"is_reserved":false,"is_disabled":false,"rental_uris":{"android":"levelo://app?vid=e7bfafba-a590-48b6-bc44-33a6e148e02e","ios":"levelo://app?vid=e7bfafba-a590-48b6-bc44-33a6e148e02e"},"vehicle_type_id":"4","last_reported":1759086362,"current_range_meters":14000,"station_id":"ce4bgkh2rcd13ifvqbk0","pricing_plan_id":"cebpf4jnsgd1na2vs0mg"},{"bike_id":"bbe6bb4c-94f0-4fe6-9812-efd2e0a0407d","system_id":"levelo_inurba_marseille","lat":43.2869,"lon":5.37384,"is_reserved":false,"is_disabled":false,"rental_uris":{"android":"levelo://app?vid=bbe6bb4c-94f0-4fe6-9812-efd2e0a0407d","ios":"levelo://app?vid=bbe6bb4c-94f0-4fe6-9812-efd2e0a0407d"},"vehicle_type_id":"4","last_reported":1759086362,"current_range_meters":14000,"station_id":"ce4bh3p2rcd13ifvqdq0","pricing_plan_id":"cebpf4jnsgd1na2vs0mg"},{"bike_id":"c9b2b6fb-5c53-4453-a146-51be25fe07e4","system_id":"levelo_inurba_marseille","lat":43.21745,"lon":5.34605,"is_reserved":false,"is_disabled":false,"rental_uris":{"android":"levelo://app?vid=c9b2b6fb-5c53-4453-a146-51be25fe07e4","ios":"levelo://app?vid=c9b2b6fb-5c53-4453-a146-51be25fe07e4"},"vehicle_type_id":"4","last_reported":1759086362,"current_range_meters":14000,"station_id":"st_cvj6r9ubvosntc0bgbag","pricing_plan_id":"cebpf4jnsgd1na2vs0mg"},{"bike_id":"e5cca1d3-7b83-4815-adc1-45ead40eb28d","system_id":"levelo_inurba_marseille","lat":43.32084,"lon":5.36801,"is_reserved":false,"is_disabled":false,"rental_uris":{"android":"levelo://app?vid=e5cca1d3-7b83-4815-adc1-45ead40eb28d","ios":"levelo://app?vid=e5cca1d3-7b83-4815-adc1-45ead40eb28d"},"vehicle_type_id":"4","last_reported":1759086362,"current_range_meters":14000,"station_id":"ce4bhrh2rcd13ifvqhug","pricing_plan_id":"cebpf4jnsgd1na2vs0mg"},{"bike_id":"0656741e-4baa-4804-921b-3ed5233045aa","system_id":"levelo_inurba_marseille","lat":43.24626,"lon":5.43145,"is_reserved":false,"is_disabled":false,"rental_uris":{"android":"levelo://app?vid=0656741e-4baa-4804-921b-3ed5233045aa","ios":"levelo://app?vid=0656741e-4baa-4804-921b-3ed5233045aa"},"vehicle_type_id":"4","last_reported":1759086362,"current_range_meters":14000,"station_id":"st_d2m6c4gdas8pm72e190g","pricing_plan_id":"cebpf4jnsgd1na2vs0mg"},{"bike_id":"452181b3-da35-4f9f-9eb4-10bffda73c95","system_id":"levelo_inurba_marseille","lat":43.29276,"lon":5.38423,"is_reserved":false,"is_disabled":false,"rental_uris":{"android":"levelo://app?vid=452181b3-da35-4f9f-9eb4-10bffda73c95","ios":"levelo://app?vid=452181b3-da35-4f9f-9eb4-10bffda73c95"},"vehicle_type_id":"4","last_reported":1759086362,"current_range_meters":14000,"station_id":"ce4bh692rcd13ifvqea0","pricing_plan_id":"cebpf4jnsgd1na2vs0mg"},{"bike_id":"aef170f6-3306-46fe-9dab-25f26114ab13","system_id":"levelo_inurba_marseille","lat":43.3236,"lon":5.3675,"is_reserved":false,"is_disabled":false,"rental_uris":{"android":"levelo://app?vid=aef170f6-3306-46fe-9dab-25f26114ab13","ios":"levelo://app?vid=aef170f6-3306-46fe-9dab-25f26114ab13"},"vehicle_type_id":"4","last_reported":1759086362,"current_range_meters":14400,"station_id":"ce4bhsh2rcd13ifvqi2g","pricing_plan_id":"cebpf4jnsgd1na2vs0mg"},{"bike_id":"677a0b1c-d5ca-4154-a464-cd0c0a8279d2","system_id":"levelo_inurba_marseille","lat":43.28993,"lon":5.35585,"is_reserved":false,"is_disabled":true,"rental_uris":{"android":"levelo://app?vid=677a0b1c-d5ca-4154-a464-cd0c0a8279d2","ios":"levelo://app?vid=677a0b1c-d5ca-4154-a464-cd0c0a8279d2"},"vehicle_type_id":"4","last_reported":1759086362,"current_range_meters":14400,"station_id":"ce4bhb92rcd13ifvqen0","pricing_plan_id":"cebpf4jnsgd1na2vs0mg"},{"bike_id":"f46af9c8-9dc6-4dd2-8c1b-c3b77e23dbb3","system_id":"levelo_inurba_marseille","lat":43.24653,"lon":5.38895,"is_reserved":false,"is_disabled":false,"rental_uris":{"android":"levelo://app?vid=f46af9c8-9dc6-4dd2-8c1b-c3b77e23dbb3","ios":"levelo://app?vid=f46af9c8-9dc6-4dd2-8c1b-c3b77e23dbb3"},"vehicle_type_id":"4","last_reported":1759086362,"current_range_meters":14400,"station_id":"ce4bhg12rcd13ifvqf60","pricing_plan_id":"cebpf4jnsgd1na2vs0mg"},{"bike_id":"0b44cc37-c89d-4d6a-90ed-b2c9fc5b15fd","system_id":"levelo_inurba_marseille","lat":43.26934,"lon":5.3892,"is_reserved":false,"is_disabled":false,"rental_uris":{"android":"levelo://app?vid=0b44cc37-c89d-4d6a-90ed-b2c9fc5b15fd","ios":"levelo://app?vid=0b44cc37-c89d-4d6a-90ed-b2c9fc5b15fd"},"vehicle_type_id":"4","last_reported":1759086362,"current_range_meters":14000,"station_id":"ce4bhhh2rcd13ifvqfl0","pricing_plan_id":"cebpf4jnsgd1na2vs0mg"},{"bike_id":"4822dd99-56ec-44f6-a9b9-ee0ae5dcc1bf","system_id":"levelo_inurba_marseille","lat":43.30009,"lon":5.39994,"is_reserved":false,"is_disabled":false,"rental_uris":{"android":"levelo://app?vid=4822dd99-56ec-44f6-a9b9-ee0ae5dcc1bf","ios":"levelo://app?vid=4822dd99-56ec-44f6-a9b9-ee0ae5dcc1bf"},"vehicle_type_id":"4","last_reported":1759086362,"current_range_meters":14400,"station_id":"ce4bh0h2rcd13ifvqd40","pricing_plan_id":"cebpf4jnsgd1na2vs0mg"},{"bike_id":"02fb4eb6-9203-431e-bd5c-fe9dd3847cf2","system_id":"levelo_inurba_marseille","lat":43.24171,"lon":5.36408,"is_reserved":false,"is_disabled":false,"rental_uris":{"android":"levelo://app?vid=02fb4eb6-9203-431e-bd5c-fe9dd3847cf2","ios":"levelo://app?vid=02fb4eb6-9203-431e-bd5c-fe9dd3847cf2"},"vehicle_type_id":"4","last_reported":1759086362,"current_range_meters":14400,"station_id":"cpo36qri1sfpv3e86is0","pricing_plan_id":"cebpf4jnsgd1na2vs0mg"},{"bike_id":"f08b3f9e-b3c8-4abf-a756-acd732503f08","system_id":"levelo_inurba_marseille","lat":43.29017,"lon":5.38652,"is_reserved":false,"is_disabled":false,"rental_uris":{"android":"levelo://app?vid=f08b3f9e-b3c8-4abf-a756-acd732503f08","ios":"levelo://app?vid=f08b3f9e-b3c8-4abf-a756-acd732503f08"},"vehicle_type_id":"4","last_reported":1759086362,"current_range_meters":14400,"station_id":"ce4bh4p2rcd13ifvqe0g","pricing_plan_id":"cebpf4jnsgd1na2vs0mg"},{"bike_id":"95c151e3-1bb3-4e62-b5a1-d011942257c5","system_id":"levelo_inurba_marseille","lat":43.29629,"lon":5.37746,"is_reserved":false,"is_disabled":false,"rental_uris":{"android":"levelo://app?vid=95c151e3-1bb3-4e62-b5a1-d011942257c5","ios":"levelo://app?vid=95c151e3-1bb3-4e62-b5a1-d011942257c5"},"vehicle_type_id":"4","last_reported":1759086362,"current_range_meters":14400,"station_id":"ce4bgi92rcd13ifvqb90","pricing_plan_id":"cebpf4jnsgd1na2vs0mg"},{"bike_id":"327c041e-5c9e-4b0d-a97c-a2dbaab036ae","system_id":"levelo_inurba_marseille","lat":43.32813,"lon":5.4113,"is_reserved":false,"is_disabled":false,"rental_uris":{"android":"levelo://app?vid=327c041e-5c9e-4b0d-a97c-a2dbaab036ae","ios":"levelo://app?vid=327c041e-5c9e-4b0d-a97c-a2dbaab036ae"},"vehicle_type_id":"4","last_reported":1759086362,"current_range_meters":14800,"station_id":"","pricing_plan_id":"cebpf4jnsgd1na2vs0mg"},{"bike_id":"c4752af8-c6d6-4504-b7e4-77fcff288a7d","system_id":"levelo_inurba_marseille","lat":43.303327,"lon":5.403862,"is_reserved":false,"is_disabled":false,"rental_uris":{"android":"levelo://app?vid=c4752af8-c6d6-4504-b7e4-77fcff288a7d","ios":"levelo://app?vid=c4752af8-c6d6-4504-b7e4-77fcff288a7d"},"vehicle_type_id":"4","last_reported":1759086362,"current_range_meters":14800,"station_id":"ce4bh012rcd13ifvqd10","pricing_plan_id":"cebpf4jnsgd1na2vs0mg"},{"bike_id":"e0e9194b-710d-4981-ad65-ba5929d7512b","system_id":"levelo_inurba_marseille","lat":43.306022,"lon":5.384559,"is_reserved":false,"is_disabled":false,"rental_uris":{"android":"levelo://app?vid=e0e9194b-710d-4981-ad65-ba5929d7512b","ios":"levelo://app?vid=e0e9194b-710d-4981-ad65-ba5929d7512b"},"vehicle_type_id":"4","last_reported":1759086362,"current_range_meters":14800,"station_id":"","pricing_plan_id":"cebpf4jnsgd1na2vs0mg"},{"bike_id":"3b530333-201c-4f53-a98d-ce6c8fa2e551","system_id":"levelo_inurba_marseille","lat":43.260279,"lon":5.375515,"is_reserved":false,"is_disabled":true,"rental_uris":{"android":"levelo://app?vid=3b530333-201c-4f53-a98d-ce6c8fa2e551","ios":"levelo://app?vid=3b530333-201c-4f53-a98d-ce6c8fa2e551"},"vehicle_type_id":"4","last_reported":1759086362,"current_range_meters":14800,"station_id":"ce4bhgh2rcd13ifvqfa0","pricing_plan_id":"cebpf4jnsgd1na2vs0mg"},{"bike_id":"80b98ce0-3233-47ce-84db-722943723d1e","system_id":"levelo_inurba_marseille","lat":43.269329,"lon":5.38928,"is_reserved":false,"is_disabled":false,"rental_uris":{"android":"levelo://app?vid=80b98ce0-3233-47ce-84db-722943723d1e","ios":"levelo://app?vid=80b98ce0-3233-47ce-84db-722943723d1e"},"vehicle_type_id":"4","last_reported":1759086362,"current_range_meters":14800,"station_id":"","pricing_plan_id":"cebpf4jnsgd1na2vs0mg"},{"bike_id":"01d71389-0b80-4650-affd-c19dc5c27b50","system_id":"levelo_inurba_marseille","lat":43.23963,"lon":5.366266,"is_reserved":false,"is_disabled":true,"rental_uris":{"android":"levelo://app?vid=01d71389-0b80-4650-affd-c19dc5c27b50","ios":"levelo://app?vid=01d71389-0b80-4650-affd-c19dc5c27b50"},"vehicle_type_id":"4","last_reported":1759086362,"current_range_meters":14800,"station_id":"ce4bhi12rcd13ifvqfp0","pricing_plan_id":"cebpf4jnsgd1na2vs0mg"},{"bike_id":"098460e9-6b11-4f84-8036-b4cbefbd5d3c","system_id":"levelo_inurba_marseille","lat":43.25701,"lon":5.41121,"is_reserved":false,"is_disabled":false,"rental_uris":{"android":"levelo://app?vid=098460e9-6b11-4f84-8036-b4cbefbd5d3c","ios":"levelo://app?vid=098460e9-6b11-4f84-8036-b4cbefbd5d3c"},"vehicle_type_id":"4","last_reported":1759086362,"current_range_meters":14800,"station_id":"ce4bhkp2rcd13ifvqgd0","pricing_plan_id":"cebpf4jnsgd1na2vs0mg"},{"bike_id":"3f41da30-b5ae-4692-961a-f99fb698483a","system_id":"levelo_inurba_marseille","lat":43.2808,"lon":5.39663,"is_reserved":false,"is_disabled":false,"rental_uris":{"android":"levelo://app?vid=3f41da30-b5ae-4692-961a-f99fb698483a","ios":"levelo://app?vid=3f41da30-b5ae-4692-961a-f99fb698483a"},"vehicle_type_id":"4","last_reported":1759086362,"current_range_meters":14800,"station_id":"ce4bho12rcd13ifvqh2g","pricing_plan_id":"cebpf4jnsgd1na2vs0mg"},{"bike_id":"0efb0155-7dbe-4bae-87fd-84f9608f29ef","system_id":"levelo_inurba_marseille","lat":43.25857,"lon":5.39901,"is_reserved":false,"is_disabled":false,"rental_uris":{"android":"levelo://app?vid=0efb0155-7dbe-4bae-87fd-84f9608f29ef","ios":"levelo://app?vid=0efb0155-7dbe-4bae-87fd-84f9608f29ef"},"vehicle_type_id":"4","last_reported":1759086362,"current_range_meters":15200,"station_id":"ce4bhl92rcd13ifvqghg","pricing_plan_id":"cebpf4jnsgd1na2vs0mg"},{"bike_id":"a1e2b7f3-f53e-4b6a-b8f1-27b0fbf9634d","system_id":"levelo_inurba_marseille","lat":43.31875,"lon":5.37317,"is_reserved":false,"is_disabled":false,"rental_uris":{"android":"levelo://app?vid=a1e2b7f3-f53e-4b6a-b8f1-27b0fbf9634d","ios":"levelo://app?vid=a1e2b7f3-f53e-4b6a-b8f1-27b0fbf9634d"},"vehicle_type_id":"4","last_reported":1759086362,"current_range_meters":15200,"station_id":"","pricing_plan_id":"cebpf4jnsgd1na2vs0mg"},{"bike_id":"73bbd8a8-62e4-4a7e-9641-f59dbff0423a","system_id":"levelo_inurba_marseille","lat":43.30208,"lon":5.39471,"is_reserved":false,"is_disabled":true,"rental_uris":{"android":"levelo://app?vid=73bbd8a8-62e4-4a7e-9641-f59dbff0423a","ios":"levelo://app?vid=73bbd8a8-62e4-4a7e-9641-f59dbff0423a"},"vehicle_type_id":"4","last_reported":1759086362,"current_range_meters":15200,"station_id":"ce4bh0p2rcd13ifvqd70","pricing_plan_id":"cebpf4jnsgd1na2vs0mg"},{"bike_id":"568f867a-d82c-4860-9f16-339692b71683","system_id":"levelo_inurba_marseille","lat":43.29288,"lon":5.37466,"is_reserved":false,"is_disabled":false,"rental_uris":{"android":"levelo://app?vid=568f867a-d82c-4860-9f16-339692b71683","ios":"levelo://app?vid=568f867a-d82c-4860-9f16-339692b71683"},"vehicle_type_id":"4","last_reported":1759086362,"current_range_meters":15200,"station_id":"ce4bgi12rcd13ifvqb70","pricing_plan_id":"cebpf4jnsgd1na2vs0mg"},{"bike_id":"c8eb7660-6046-4e9c-8c85-8306cbdbfdf8","system_id":"levelo_inurba_marseille","lat":43.24635,"lon":5.43153,"is_reserved":false,"is_disabled":false,"rental_uris":{"android":"levelo://app?vid=c8eb7660-6046-4e9c-8c85-8306cbdbfdf8","ios":"levelo://app?vid=c8eb7660-6046-4e9c-8c85-8306cbdbfdf8"},"vehicle_type_id":"4","last_reported":1759086362,"current_range_meters":15200,"station_id":"st_d2m6c4gdas8pm72e190g","pricing_plan_id":"cebpf4jnsgd1na2vs0mg"},{"bike_id":"f4bc1f7f-7210-48f7-a6c2-5bb4941ac693","system_id":"levelo_inurba_marseille","lat":43.27214,"lon":5.39221,"is_reserved":false,"is_disabled":true,"rental_uris":{"android":"levelo://app?vid=f4bc1f7f-7210-48f7-a6c2-5bb4941ac693","ios":"levelo://app?vid=f4bc1f7f-7210-48f7-a6c2-5bb4941ac693"},"vehicle_type_id":"4","last_reported":1759086362,"current_range_meters":15200,"station_id":"ce4bhhp2rcd13ifvqfm0","pricing_plan_id":"cebpf4jnsgd1na2vs0mg"},{"bike_id":"edc0c4e0-7f8f-4812-8ac6-ad4d28285d80","system_id":"levelo_inurba_marseille","lat":43.25594,"lon":5.38248,"is_reserved":false,"is_disabled":false,"rental_uris":{"android":"levelo://app?vid=edc0c4e0-7f8f-4812-8ac6-ad4d28285d80","ios":"levelo://app?vid=edc0c4e0-7f8f-4812-8ac6-ad4d28285d80"},"vehicle_type_id":"4","last_reported":1759086362,"current_range_meters":15200,"station_id":"ce4bhih2rcd13ifvqfs0","pricing_plan_id":"cebpf4jnsgd1na2vs0mg"},{"bike_id":"f060d515-f268-4371-95a2-f04eea0ad05f","system_id":"levelo_inurba_marseille","lat":43.246308,"lon":5.431436,"is_reserved":false,"is_disabled":false,"rental_uris":{"android":"levelo://app?vid=f060d515-f268-4371-95a2-f04eea0ad05f","ios":"levelo://app?vid=f060d515-f268-4371-95a2-f04eea0ad05f"},"vehicle_type_id":"4","last_reported":1759086362,"current_range_meters":15200,"station_id":"st_d2m6c4gdas8pm72e190g","pricing_plan_id":"cebpf4jnsgd1na2vs0mg"},{"bike_id":"9aecb222-b733-42e5-bd09-5f6539da0b7e","system_id":"levelo_inurba_marseille","lat":43.29511,"lon":5.39405,"is_reserved":false,"is_disabled":false,"rental_uris":{"android":"levelo://app?vid=9aecb222-b733-42e5-bd09-5f6539da0b7e","ios":"levelo://app?vid=9aecb222-b733-42e5-bd09-5f6539da0b7e"},"vehicle_type_id":"4","last_reported":1759086362,"current_range_meters":16000,"station_id":"ce4bh292rcd13ifvqdf0","pricing_plan_id":"cebpf4jnsgd1na2vs0mg"},{"bike_id":"52c9b314-f114-42a1-a4fd-67f999afdffe","system_id":"levelo_inurba_marseille","lat":43.25722,"lon":5.41108,"is_reserved":false,"is_disabled":false,"rental_uris":{"android":"levelo://app?vid=52c9b314-f114-42a1-a4fd-67f999afdffe","ios":"levelo://app?vid=52c9b314-f114-42a1-a4fd-67f999afdffe"},"vehicle_type_id":"4","last_reported":1759086362,"current_range_meters":16000,"station_id":"ce4bhkp2rcd13ifvqgd0","pricing_plan_id":"cebpf4jnsgd1na2vs0mg"},{"bike_id":"db54ae1e-766a-4881-94b4-a4cf26d411ba","system_id":"levelo_inurba_marseille","lat":43.29268,"lon":5.38434,"is_reserved":false,"is_disabled":true,"rental_uris":{"android":"levelo://app?vid=db54ae1e-766a-4881-94b4-a4cf26d411ba","ios":"levelo://app?vid=db54ae1e-766a-4881-94b4-a4cf26d411ba"},"vehicle_type_id":"4","last_reported":1759086362,"current_range_meters":16000,"station_id":"ce4bh692rcd13ifvqea0","pricing_plan_id":"cebpf4jnsgd1na2vs0mg"},{"bike_id":"1d65299e-cf34-435b-a60a-0ba0d66bcde6","system_id":"levelo_inurba_marseille","lat":43.28423,"lon":5.37524,"is_reserved":false,"is_disabled":true,"rental_uris":{"android":"levelo://app?vid=1d65299e-cf34-435b-a60a-0ba0d66bcde6","ios":"levelo://app?vid=1d65299e-cf34-435b-a60a-0ba0d66bcde6"},"vehicle_type_id":"4","last_reported":1759086362,"current_range_meters":16000,"station_id":"ce4bh412rcd13ifvqds0","pricing_plan_id":"cebpf4jnsgd1na2vs0mg"},{"bike_id":"c473828e-5955-4ace-bf13-885f4280b1e5","system_id":"levelo_inurba_marseille","lat":43.29601,"lon":5.38112,"is_reserved":false,"is_disabled":false,"rental_uris":{"android":"levelo://app?vid=c473828e-5955-4ace-bf13-885f4280b1e5","ios":"levelo://app?vid=c473828e-5955-4ace-bf13-885f4280b1e5"},"vehicle_type_id":"4","last_reported":1759086362,"current_range_meters":16000,"station_id":"ce4bgl12rcd13ifvqbo0","pricing_plan_id":"cebpf4jnsgd1na2vs0mg"},{"bike_id":"ed3574c7-66a0-416c-b415-12f5bd8ea748","system_id":"levelo_inurba_marseille","lat":43.29897,"lon":5.38899,"is_reserved":false,"is_disabled":false,"rental_uris":{"android":"levelo://app?vid=ed3574c7-66a0-416c-b415-12f5bd8ea748","ios":"levelo://app?vid=ed3574c7-66a0-416c-b415-12f5bd8ea748"},"vehicle_type_id":"4","last_reported":1759086362,"current_range_meters":16000,"station_id":"ce4bh392rcd13ifvqdl0","pricing_plan_id":"cebpf4jnsgd1na2vs0mg"},{"bike_id":"89fe513c-a434-4cf8-a56c-ee0844b2f3be","system_id":"levelo_inurba_marseille","lat":43.29961,"lon":5.38514,"is_reserved":false,"is_disabled":true,"rental_uris":{"android":"levelo://app?vid=89fe513c-a434-4cf8-a56c-ee0844b2f3be","ios":"levelo://app?vid=89fe513c-a434-4cf8-a56c-ee0844b2f3be"},"vehicle_type_id":"4","last_reported":1759086362,"current_range_meters":16000,"station_id":"ce4bgj92rcd13ifvqbd0","pricing_plan_id":"cebpf4jnsgd1na2vs0mg"},{"bike_id":"b12da73d-d5e7-4ace-8ff0-fdb9e45fcb2e","system_id":"levelo_inurba_marseille","lat":43.27494,"lon":5.42452,"is_reserved":false,"is_disabled":false,"rental_uris":{"android":"levelo://app?vid=b12da73d-d5e7-4ace-8ff0-fdb9e45fcb2e","ios":"levelo://app?vid=b12da73d-d5e7-4ace-8ff0-fdb9e45fcb2e"},"vehicle_type_id":"4","last_reported":1759086362,"current_range_meters":15200,"station_id":"ce4bhn92rcd13ifvqgrg","pricing_plan_id":"cebpf4jnsgd1na2vs0mg"},{"bike_id":"141a0c3b-aa54-4f00-bafa-f05102786a7d","system_id":"levelo_inurba_marseille","lat":43.30136,"lon":5.37419,"is_reserved":false,"is_disabled":false,"rental_uris":{"android":"levelo://app?vid=141a0c3b-aa54-4f00-bafa-f05102786a7d","ios":"levelo://app?vid=141a0c3b-aa54-4f00-bafa-f05102786a7d"},"vehicle_type_id":"4","last_reported":1759086362,"current_range_meters":16000,"station_id":"ce4bgs92rcd13ifvqcc0","pricing_plan_id":"cebpf4jnsgd1na2vs0mg"},{"bike_id":"9c4235da-d3d0-4056-aa6b-c6aa6e8e7367","system_id":"levelo_inurba_marseille","lat":43.30655,"lon":5.37511,"is_reserved":false,"is_disabled":false,"rental_uris":{"android":"levelo://app?vid=9c4235da-d3d0-4056-aa6b-c6aa6e8e7367","ios":"levelo://app?vid=9c4235da-d3d0-4056-aa6b-c6aa6e8e7367"},"vehicle_type_id":"4","last_reported":1759086362,"current_range_meters":16000,"station_id":"","pricing_plan_id":"cebpf4jnsgd1na2vs0mg"},{"bike_id":"b2a1aa6e-b2b9-4978-afe1-de5d46989748","system_id":"levelo_inurba_marseille","lat":43.26548,"lon":5.40322,"is_reserved":false,"is_disabled":false,"rental_uris":{"android":"levelo://app?vid=b2a1aa6e-b2b9-4978-afe1-de5d46989748","ios":"levelo://app?vid=b2a1aa6e-b2b9-4978-afe1-de5d46989748"},"vehicle_type_id":"4","last_reported":1759086362,"current_range_meters":16400,"station_id":"ce4bhmp2rcd13ifvqgng","pricing_plan_id":"cebpf4jnsgd1na2vs0mg"},{"bike_id":"944fcd42-fce0-4d6a-b86b-5faf9d5e9c5a","system_id":"levelo_inurba_marseille","lat":43.30481,"lon":5.37891,"is_reserved":false,"is_disabled":false,"rental_uris":{"android":"levelo://app?vid=944fcd42-fce0-4d6a-b86b-5faf9d5e9c5a","ios":"levelo://app?vid=944fcd42-fce0-4d6a-b86b-5faf9d5e9c5a"},"vehicle_type_id":"4","last_reported":1759086362,"current_range_meters":16400,"station_id":"ce4bgup2rcd13ifvqcn0","pricing_plan_id":"cebpf4jnsgd1na2vs0mg"},{"bike_id":"376b3e68-45d6-4438-83af-7eeda314bc9d","system_id":"levelo_inurba_marseille","lat":43.28445,"lon":5.39207,"is_reserved":false,"is_disabled":false,"rental_uris":{"android":"levelo://app?vid=376b3e68-45d6-4438-83af-7eeda314bc9d","ios":"levelo://app?vid=376b3e68-45d6-4438-83af-7eeda314bc9d"},"vehicle_type_id":"4","last_reported":1759086362,"current_range_meters":16000,"station_id":"ce4bhoh2rcd13ifvqh5g","pricing_plan_id":"cebpf4jnsgd1na2vs0mg"},{"bike_id":"4740cb4b-ba84-4855-b5df-34026bcfa260","system_id":"levelo_inurba_marseille","lat":43.24542,"lon":5.39525,"is_reserved":false,"is_disabled":false,"rental_uris":{"android":"levelo://app?vid=4740cb4b-ba84-4855-b5df-34026bcfa260","ios":"levelo://app?vid=4740cb4b-ba84-4855-b5df-34026bcfa260"},"vehicle_type_id":"4","last_reported":1759086362,"current_range_meters":16000,"station_id":"ce4bhlp2rcd13ifvqgjg","pricing_plan_id":"cebpf4jnsgd1na2vs0mg"},{"bike_id":"a07a513e-e5a9-4481-8592-d991379bc662","system_id":"levelo_inurba_marseille","lat":43.33735,"lon":5.37481,"is_reserved":false,"is_disabled":false,"rental_uris":{"android":"levelo://app?vid=a07a513e-e5a9-4481-8592-d991379bc662","ios":"levelo://app?vid=a07a513e-e5a9-4481-8592-d991379bc662"},"vehicle_type_id":"4","last_reported":1759086362,"current_range_meters":16400,"station_id":"","pricing_plan_id":"cebpf4jnsgd1na2vs0mg"},{"bike_id":"71b2b05c-9ff1-4d57-a8f6-d481051c9a72","system_id":"levelo_inurba_marseille","lat":43.2956,"lon":5.38555,"is_reserved":false,"is_disabled":true,"rental_uris":{"android":"levelo://app?vid=71b2b05c-9ff1-4d57-a8f6-d481051c9a72","ios":"levelo://app?vid=71b2b05c-9ff1-4d57-a8f6-d481051c9a72"},"vehicle_type_id":"4","last_reported":1759086362,"current_range_meters":16800,"station_id":"ce4bgih2rcd13ifvqba0","pricing_plan_id":"cebpf4jnsgd1na2vs0mg"},{"bike_id":"72dfe78c-7413-46c8-9431-20c14760210e","system_id":"levelo_inurba_marseille","lat":43.25718,"lon":5.41138,"is_reserved":false,"is_disabled":false,"rental_uris":{"android":"levelo://app?vid=72dfe78c-7413-46c8-9431-20c14760210e","ios":"levelo://app?vid=72dfe78c-7413-46c8-9431-20c14760210e"},"vehicle_type_id":"4","last_reported":1759086362,"current_range_meters":16800,"station_id":"ce4bhkp2rcd13ifvqgd0","pricing_plan_id":"cebpf4jnsgd1na2vs0mg"},{"bike_id":"5184bf5b-3cc8-4111-8b99-b9c4fcc9d2b3","system_id":"levelo_inurba_marseille","lat":43.241678,"lon":5.397316,"is_reserved":false,"is_disabled":false,"rental_uris":{"android":"levelo://app?vid=5184bf5b-3cc8-4111-8b99-b9c4fcc9d2b3","ios":"levelo://app?vid=5184bf5b-3cc8-4111-8b99-b9c4fcc9d2b3"},"vehicle_type_id":"4","last_reported":1759086362,"current_range_meters":16800,"station_id":"ce4bhn12rcd13ifvqgpg","pricing_plan_id":"cebpf4jnsgd1na2vs0mg"},{"bike_id":"e48eb6de-f069-4709-924c-08384c1f854e","system_id":"levelo_inurba_marseille","lat":43.28383,"lon":5.38092,"is_reserved":false,"is_disabled":false,"rental_uris":{"android":"levelo://app?vid=e48eb6de-f069-4709-924c-08384c1f854e","ios":"levelo://app?vid=e48eb6de-f069-4709-924c-08384c1f854e"},"vehicle_type_id":"4","last_reported":1759086362,"current_range_meters":16800,"station_id":"ce4bh412rcd13ifvqdr0","pricing_plan_id":"cebpf4jnsgd1na2vs0mg"},{"bike_id":"91ba376c-1a65-4fc0-ab01-070b716f0ff5","system_id":"levelo_inurba_marseille","lat":43.25565,"lon":5.38286,"is_reserved":false,"is_disabled":false,"rental_uris":{"android":"levelo://app?vid=91ba376c-1a65-4fc0-ab01-070b716f0ff5","ios":"levelo://app?vid=91ba376c-1a65-4fc0-ab01-070b716f0ff5"},"vehicle_type_id":"4","last_reported":1759086362,"current_range_meters":16800,"station_id":"ce4bhih2rcd13ifvqfs0","pricing_plan_id":"cebpf4jnsgd1na2vs0mg"},{"bike_id":"96d753a3-f35e-4904-b1bb-0ffbe41cce59","system_id":"levelo_inurba_marseille","lat":43.29025,"lon":5.38636,"is_reserved":false,"is_disabled":false,"rental_uris":{"android":"levelo://app?vid=96d753a3-f35e-4904-b1bb-0ffbe41cce59","ios":"levelo://app?vid=96d753a3-f35e-4904-b1bb-0ffbe41cce59"},"vehicle_type_id":"4","last_reported":1759086362,"current_range_meters":16800,"station_id":"ce4bh4p2rcd13ifvqe0g","pricing_plan_id":"cebpf4jnsgd1na2vs0mg"},{"bike_id":"8c986307-df22-41f8-9c2d-42ccabc665aa","system_id":"levelo_inurba_marseille","lat":43.30199,"lon":5.36625,"is_reserved":false,"is_disabled":false,"rental_uris":{"android":"levelo://app?vid=8c986307-df22-41f8-9c2d-42ccabc665aa","ios":"levelo://app?vid=8c986307-df22-41f8-9c2d-42ccabc665aa"},"vehicle_type_id":"4","last_reported":1759086362,"current_range_meters":16800,"station_id":"ce4bgrh2rcd13ifvqc8g","pricing_plan_id":"cebpf4jnsgd1na2vs0mg"},{"bike_id":"796aa64a-f5b9-41bd-b541-6d953118b802","system_id":"levelo_inurba_marseille","lat":43.23153,"lon":5.43714,"is_reserved":false,"is_disabled":false,"rental_uris":{"android":"levelo://app?vid=796aa64a-f5b9-41bd-b541-6d953118b802","ios":"levelo://app?vid=796aa64a-f5b9-41bd-b541-6d953118b802"},"vehicle_type_id":"4","last_reported":1759086362,"current_range_meters":16800,"station_id":"ce4bhmp2rcd13ifvqgog","pricing_plan_id":"cebpf4jnsgd1na2vs0mg"},{"bike_id":"9e50a7a8-3461-435f-a364-2bec8eda7805","system_id":"levelo_inurba_marseille","lat":43.29208,"lon":5.39315,"is_reserved":false,"is_disabled":false,"rental_uris":{"android":"levelo://app?vid=9e50a7a8-3461-435f-a364-2bec8eda7805","ios":"levelo://app?vid=9e50a7a8-3461-435f-a364-2bec8eda7805"},"vehicle_type_id":"4","last_reported":1759086362,"current_range_meters":16800,"station_id":"ce4bh192rcd13ifvqdd0","pricing_plan_id":"cebpf4jnsgd1na2vs0mg"},{"bike_id":"a63906d9-70e3-4694-a19f-f783d775e9bb","system_id":"levelo_inurba_marseille","lat":43.31289,"lon":5.37411,"is_reserved":false,"is_disabled":false,"rental_uris":{"android":"levelo://app?vid=a63906d9-70e3-4694-a19f-f783d775e9bb","ios":"levelo://app?vid=a63906d9-70e3-4694-a19f-f783d775e9bb"},"vehicle_type_id":"4","last_reported":1759086362,"current_range_meters":16800,"station_id":"","pricing_plan_id":"cebpf4jnsgd1na2vs0mg"},{"bike_id":"876569c1-3c48-44d5-944b-d269a39dae22","system_id":"levelo_inurba_marseille","lat":43.310852,"lon":5.387667,"is_reserved":false,"is_disabled":false,"rental_uris":{"android":"levelo://app?vid=876569c1-3c48-44d5-944b-d269a39dae22","ios":"levelo://app?vid=876569c1-3c48-44d5-944b-d269a39dae22"},"vehicle_type_id":"4","last_reported":1759086362,"current_range_meters":16800,"station_id":"ce4bgv12rcd13ifvqcp0","pricing_plan_id":"cebpf4jnsgd1na2vs0mg"},{"bike_id":"c8d7f4fe-be5b-447b-ba1b-2244460fc221","system_id":"levelo_inurba_marseille","lat":43.24666,"lon":5.38916,"is_reserved":false,"is_disabled":false,"rental_uris":{"android":"levelo://app?vid=c8d7f4fe-be5b-447b-ba1b-2244460fc221","ios":"levelo://app?vid=c8d7f4fe-be5b-447b-ba1b-2244460fc221"},"vehicle_type_id":"4","last_reported":1759086362,"current_range_meters":16800,"station_id":"ce4bhg12rcd13ifvqf60","pricing_plan_id":"cebpf4jnsgd1na2vs0mg"},{"bike_id":"186382ff-6f85-4b54-8ced-7951505b575f","system_id":"levelo_inurba_marseille","lat":43.28263,"lon":5.35066,"is_reserved":false,"is_disabled":false,"rental_uris":{"android":"levelo://app?vid=186382ff-6f85-4b54-8ced-7951505b575f","ios":"levelo://app?vid=186382ff-6f85-4b54-8ced-7951505b575f"},"vehicle_type_id":"4","last_reported":1759086362,"current_range_meters":16800,"station_id":"ce4bhbp2rcd13ifvqerg","pricing_plan_id":"cebpf4jnsgd1na2vs0mg"},{"bike_id":"8b353c9e-13c5-42ee-a76f-ccbd6269a3dc","system_id":"levelo_inurba_marseille","lat":43.29899,"lon":5.37492,"is_reserved":false,"is_disabled":false,"rental_uris":{"android":"levelo://app?vid=8b353c9e-13c5-42ee-a76f-ccbd6269a3dc","ios":"levelo://app?vid=8b353c9e-13c5-42ee-a76f-ccbd6269a3dc"},"vehicle_type_id":"4","last_reported":1759086362,"current_range_meters":17200,"station_id":"","pricing_plan_id":"cebpf4jnsgd1na2vs0mg"},{"bike_id":"21c34b06-d730-49d8-9d33-97ead9aa9ca5","system_id":"levelo_inurba_marseille","lat":43.28569,"lon":5.39499,"is_reserved":false,"is_disabled":false,"rental_uris":{"android":"levelo://app?vid=21c34b06-d730-49d8-9d33-97ead9aa9ca5","ios":"levelo://app?vid=21c34b06-d730-49d8-9d33-97ead9aa9ca5"},"vehicle_type_id":"4","last_reported":1759086362,"current_range_meters":17200,"station_id":"ce4bh292rcd13ifvqdg0","pricing_plan_id":"cebpf4jnsgd1na2vs0mg"},{"bike_id":"9562cfff-3223-4699-9f6e-10e0c7ca294e","system_id":"levelo_inurba_marseille","lat":43.27682,"lon":5.38871,"is_reserved":false,"is_disabled":false,"rental_uris":{"android":"levelo://app?vid=9562cfff-3223-4699-9f6e-10e0c7ca294e","ios":"levelo://app?vid=9562cfff-3223-4699-9f6e-10e0c7ca294e"},"vehicle_type_id":"4","last_reported":1759086362,"current_range_meters":16800,"station_id":"ce4bhi12rcd13ifvqfo0","pricing_plan_id":"cebpf4jnsgd1na2vs0mg"},{"bike_id":"83be99c8-b60b-4d40-928c-3fbcd74cda1a","system_id":"levelo_inurba_marseille","lat":43.30932,"lon":5.40138,"is_reserved":false,"is_disabled":false,"rental_uris":{"android":"levelo://app?vid=83be99c8-b60b-4d40-928c-3fbcd74cda1a","ios":"levelo://app?vid=83be99c8-b60b-4d40-928c-3fbcd74cda1a"},"vehicle_type_id":"4","last_reported":1759086362,"current_range_meters":17200,"station_id":"ce4bgvp2rcd13ifvqct0","pricing_plan_id":"cebpf4jnsgd1na2vs0mg"},{"bike_id":"00330f80-eb21-4540-b39b-27e6dea1ab55","system_id":"levelo_inurba_marseille","lat":43.26199,"lon":5.40436,"is_reserved":false,"is_disabled":false,"rental_uris":{"android":"levelo://app?vid=00330f80-eb21-4540-b39b-27e6dea1ab55","ios":"levelo://app?vid=00330f80-eb21-4540-b39b-27e6dea1ab55"},"vehicle_type_id":"4","last_reported":1759086362,"current_range_meters":17200,"station_id":"ce4bhmh2rcd13ifvqgmg","pricing_plan_id":"cebpf4jnsgd1na2vs0mg"},{"bike_id":"25c434a4-2d78-4622-948f-1ba3f4bce0ee","system_id":"levelo_inurba_marseille","lat":43.3092,"lon":5.40135,"is_reserved":false,"is_disabled":false,"rental_uris":{"android":"levelo://app?vid=25c434a4-2d78-4622-948f-1ba3f4bce0ee","ios":"levelo://app?vid=25c434a4-2d78-4622-948f-1ba3f4bce0ee"},"vehicle_type_id":"4","last_reported":1759086362,"current_range_meters":17200,"station_id":"ce4bgvp2rcd13ifvqct0","pricing_plan_id":"cebpf4jnsgd1na2vs0mg"},{"bike_id":"7dc10ae7-7366-4aef-afb3-946c513f88ef","system_id":"levelo_inurba_marseille","lat":43.27997,"lon":5.36416,"is_reserved":false,"is_disabled":false,"rental_uris":{"android":"levelo://app?vid=7dc10ae7-7366-4aef-afb3-946c513f88ef","ios":"levelo://app?vid=7dc10ae7-7366-4aef-afb3-946c513f88ef"},"vehicle_type_id":"4","last_reported":1759086362,"current_range_meters":17200,"station_id":"ce4bha12rcd13ifvqef0","pricing_plan_id":"cebpf4jnsgd1na2vs0mg"},{"bike_id":"ce041d4d-f52d-4808-a0f8-279b7505a667","system_id":"levelo_inurba_marseille","lat":43.31153,"lon":5.37755,"is_reserved":false,"is_disabled":false,"rental_uris":{"android":"levelo://app?vid=ce041d4d-f52d-4808-a0f8-279b7505a667","ios":"levelo://app?vid=ce041d4d-f52d-4808-a0f8-279b7505a667"},"vehicle_type_id":"4","last_reported":1759086362,"current_range_meters":17200,"station_id":"ce4bgt92rcd13ifvqcg0","pricing_plan_id":"cebpf4jnsgd1na2vs0mg"},{"bike_id":"88bab79e-f428-48c7-9fe8-35fa768316c1","system_id":"levelo_inurba_marseille","lat":43.32368,"lon":5.38191,"is_reserved":false,"is_disabled":false,"rental_uris":{"android":"levelo://app?vid=88bab79e-f428-48c7-9fe8-35fa768316c1","ios":"levelo://app?vid=88bab79e-f428-48c7-9fe8-35fa768316c1"},"vehicle_type_id":"4","last_reported":1759086362,"current_range_meters":17200,"station_id":"","pricing_plan_id":"cebpf4jnsgd1na2vs0mg"},{"bike_id":"8ffac578-131d-4171-941b-d073a175c44c","system_id":"levelo_inurba_marseille","lat":43.26214,"lon":5.37435,"is_reserved":false,"is_disabled":true,"rental_uris":{"android":"levelo://app?vid=8ffac578-131d-4171-941b-d073a175c44c","ios":"levelo://app?vid=8ffac578-131d-4171-941b-d073a175c44c"},"vehicle_type_id":"4","last_reported":1759086362,"current_range_meters":17200,"station_id":"ce4bhgp2rcd13ifvqfc0","pricing_plan_id":"cebpf4jnsgd1na2vs0mg"},{"bike_id":"c627b34a-8e81-4438-af3b-4fd0aab1c160","system_id":"levelo_inurba_marseille","lat":43.29692,"lon":5.36016,"is_reserved":false,"is_disabled":false,"rental_uris":{"android":"levelo://app?vid=c627b34a-8e81-4438-af3b-4fd0aab1c160","ios":"levelo://app?vid=c627b34a-8e81-4438-af3b-4fd0aab1c160"},"vehicle_type_id":"4","last_reported":1759086362,"current_range_meters":17200,"station_id":"","pricing_plan_id":"cebpf4jnsgd1na2vs0mg"},{"bike_id":"b95fc461-975e-4871-bea2-2cf869bc7f14","system_id":"levelo_inurba_marseille","lat":43.25086,"lon":5.39518,"is_reserved":false,"is_disabled":false,"rental_uris":{"android":"levelo://app?vid=b95fc461-975e-4871-bea2-2cf869bc7f14","ios":"levelo://app?vid=b95fc461-975e-4871-bea2-2cf869bc7f14"},"vehicle_type_id":"4","last_reported":1759086362,"current_range_meters":17600,"station_id":"ce4bhm12rcd13ifvqgkg","pricing_plan_id":"cebpf4jnsgd1na2vs0mg"},{"bike_id":"be49b4e1-1b0d-4000-9f8f-90d9172d05d1","system_id":"levelo_inurba_marseille","lat":43.29775,"lon":5.39341,"is_reserved":false,"is_disabled":false,"rental_uris":{"android":"levelo://app?vid=be49b4e1-1b0d-4000-9f8f-90d9172d05d1","ios":"levelo://app?vid=be49b4e1-1b0d-4000-9f8f-90d9172d05d1"},"vehicle_type_id":"4","last_reported":1759086362,"current_range_meters":18000,"station_id":"chh1huq6cuj3fo74tm60","pricing_plan_id":"cebpf4jnsgd1na2vs0mg"},{"bike_id":"74898dc7-8c2d-4900-a548-e66777267953","system_id":"levelo_inurba_marseille","lat":43.265525,"lon":5.372856,"is_reserved":false,"is_disabled":false,"rental_uris":{"android":"levelo://app?vid=74898dc7-8c2d-4900-a548-e66777267953","ios":"levelo://app?vid=74898dc7-8c2d-4900-a548-e66777267953"},"vehicle_type_id":"4","last_reported":1759086362,"current_range_meters":17600,"station_id":"","pricing_plan_id":"cebpf4jnsgd1na2vs0mg"},{"bike_id":"98f7500d-81a5-4fd7-8ab2-e148bca2524f","system_id":"levelo_inurba_marseille","lat":43.303245,"lon":5.404361,"is_reserved":false,"is_disabled":false,"rental_uris":{"android":"levelo://app?vid=98f7500d-81a5-4fd7-8ab2-e148bca2524f","ios":"levelo://app?vid=98f7500d-81a5-4fd7-8ab2-e148bca2524f"},"vehicle_type_id":"4","last_reported":1759086362,"current_range_meters":17600,"station_id":"ce4bh012rcd13ifvqd10","pricing_plan_id":"cebpf4jnsgd1na2vs0mg"},{"bike_id":"899af826-7c5d-4a2b-b0fd-d061ab2a7573","system_id":"levelo_inurba_marseille","lat":43.25701,"lon":5.41123,"is_reserved":false,"is_disabled":false,"rental_uris":{"android":"levelo://app?vid=899af826-7c5d-4a2b-b0fd-d061ab2a7573","ios":"levelo://app?vid=899af826-7c5d-4a2b-b0fd-d061ab2a7573"},"vehicle_type_id":"4","last_reported":1759086362,"current_range_meters":17600,"station_id":"ce4bhkp2rcd13ifvqgd0","pricing_plan_id":"cebpf4jnsgd1na2vs0mg"},{"bike_id":"d32cbec3-cda6-436c-a1f6-54a2c8e5119e","system_id":"levelo_inurba_marseille","lat":43.23965,"lon":5.36633,"is_reserved":false,"is_disabled":false,"rental_uris":{"android":"levelo://app?vid=d32cbec3-cda6-436c-a1f6-54a2c8e5119e","ios":"levelo://app?vid=d32cbec3-cda6-436c-a1f6-54a2c8e5119e"},"vehicle_type_id":"4","last_reported":1759086362,"current_range_meters":17200,"station_id":"ce4bhi12rcd13ifvqfp0","pricing_plan_id":"cebpf4jnsgd1na2vs0mg"},{"bike_id":"2c6c6f0f-0246-4f04-9f70-834792a2a1db","system_id":"levelo_inurba_marseille","lat":43.24679,"lon":5.38155,"is_reserved":false,"is_disabled":false,"rental_uris":{"android":"levelo://app?vid=2c6c6f0f-0246-4f04-9f70-834792a2a1db","ios":"levelo://app?vid=2c6c6f0f-0246-4f04-9f70-834792a2a1db"},"vehicle_type_id":"4","last_reported":1759086362,"current_range_meters":17600,"station_id":"ce4bhih2rcd13ifvqfr0","pricing_plan_id":"cebpf4jnsgd1na2vs0mg"},{"bike_id":"7f46228e-4ed4-4fb2-9b7c-2773cead13c2","system_id":"levelo_inurba_marseille","lat":43.240174,"lon":5.362763,"is_reserved":false,"is_disabled":true,"rental_uris":{"android":"levelo://app?vid=7f46228e-4ed4-4fb2-9b7c-2773cead13c2","ios":"levelo://app?vid=7f46228e-4ed4-4fb2-9b7c-2773cead13c2"},"vehicle_type_id":"4","last_reported":1759086362,"current_range_meters":17600,"station_id":"","pricing_plan_id":"cebpf4jnsgd1na2vs0mg"},{"bike_id":"10baf174-97c7-4514-95bf-33ba4deb3e4f","system_id":"levelo_inurba_marseille","lat":43.21192,"lon":5.35064,"is_reserved":false,"is_disabled":true,"rental_uris":{"android":"levelo://app?vid=10baf174-97c7-4514-95bf-33ba4deb3e4f","ios":"levelo://app?vid=10baf174-97c7-4514-95bf-33ba4deb3e4f"},"vehicle_type_id":"4","last_reported":1759086362,"current_range_meters":17600,"station_id":"st_cvj6sg6p6f1abm77japg","pricing_plan_id":"cebpf4jnsgd1na2vs0mg"},