{"last_updated":1742850543,"ttl":60,"version":"2.2","data":{"bikes":[{"bike_id":"e30ed5ac-62f7-4c04-b9eb-84c33380aecb","system_id":"levelo_inurba_marseille","lat":43.288513,"lon":5.393404,"is_reserved":false,"is_disabled":false,"rental_uris":{"android":"levelo://app?vid=e30ed5ac-62f7-4c04-b9eb-84c33380aecb","ios":"levelo://app?vid=e30ed5ac-62f7-4c04-b9eb-84c33380aecb"},"vehicle_type_id":"4","last_reported":1742850543,"current_range_meters":2800,"station_id":"ce4bh2p2rcd13ifvqdi0","pricing_plan_id":"cebpf4jnsgd1na2vs0mg"},{"bike_id":"37da0b8d-e13a-4b30-b5b8-2e033a1e6888","system_id":"levelo_inurba_marseille","lat":43.28706,"lon":5.3739,"is_reserved":false,"is_disabled":false,"rental_uris":{"android":"levelo://app?vid=37da0b8d-e13a-4b30-b5b8-2e033a1e6888","ios":"levelo://app?vid=37da0b8d-e13a-4b30-b5b8-2e033a1e6888"},"vehicle_type_id":"4","last_reported":1742850543,"current_range_meters":3200,"station_id":"ce4bh3p2rcd13ifvqdq0","pricing_plan_id":"cebpf4jnsgd1na2vs0mg"},{"bike_id":"3500f5b1-396a-411d-9bf0-14527f9c741b","system_id":"levelo_inurba_marseille","lat":43.30887,"lon":5.39661,"is_reserved":false,"is_disabled":false,"rental_uris":{"android":"levelo://app?vid=3500f5b1-396a-411d-9bf0-14527f9c741b","ios":"levelo://app?vid=3500f5b1-396a-411d-9bf0-14527f9c741b"},"vehicle_type_id":"4","last_reported":1742850543,"current_range_meters":3200,"station_id":"ce4bh012rcd13ifvqcv0","pricing_plan_id":"cebpf4jnsgd1na2vs0mg"},{"bike_id":"cfda1c89-ca69-4901-87c4-6f415bb03239","system_id":"levelo_inurba_marseille","lat":43.30104,"lon":5.3907,"is_reserved":false,"is_disabled":false,"rental_uris":{"android":"levelo://app?vid=cfda1c89-ca69-4901-87c4-6f415bb03239","ios":"levelo://app?vid=cfda1c89-ca69-4901-87c4-6f415bb03239"},"vehicle_type_id":"4","last_reported":1742850543,"current_range_meters":3200,"station_id":"","pricing_plan_id":"cebpf4jnsgd1na2vs0mg"},{"bike_id":"86491cc3-e511-474e-9d79-bf1bb3a29b84","system_id":"levelo_inurba_marseille","lat":43.25118,"lon":5.40314,"is_reserved":false,"is_disabled":true,"rental_uris":{"android":"levelo://app?vid=86491cc3-e511-474e-9d79-bf1bb3a29b84","ios":"levelo://app?vid=86491cc3-e511-474e-9d79-bf1bb3a29b84"},"vehicle_type_id":"4","last_reported":1742850543,"current_range_meters":3200,"station_id":"ce4bhlh2rcd13ifvqgig","pricing_plan_id":"cebpf4jnsgd1na2vs0mg"},{"bike_id":"2b97c6c8-6b27-48dc-abad-8bcf29b097e0","system_id":"levelo_inurba_marseille","lat":43.26802,"lon":5.39402,"is_reserved":false,"is_disabled":true,"rental_uris":{"android":"levelo://app?vid=2b97c6c8-6b27-48dc-abad-8bcf29b097e0","ios":"levelo://app?vid=2b97c6c8-6b27-48dc-abad-8bcf29b097e0"},"vehicle_type_id":"4","last_reported":1742850543,"current_range_meters":3600,"station_id":"ce4bhh12rcd13ifvqfg0","pricing_plan_id":"cebpf4jnsgd1na2vs0mg"},{"bike_id":"7b91c0f8-0cb0-4eec-af72-b615cc0badc8","system_id":"levelo_inurba_marseille","lat":43.31352,"lon":5.396858,"is_reserved":false,"is_disabled":false,"rental_uris":{"android":"levelo://app?vid=7b91c0f8-0cb0-4eec-af72-b615cc0badc8","ios":"levelo://app?vid=7b91c0f8-0cb0-4eec-af72-b615cc0badc8"},"vehicle_type_id":"4","last_reported":1742850543,"current_range_meters":4000,"station_id":"ce4bgvp2rcd13ifvqcu0","pricing_plan_id":"cebpf4jnsgd1na2vs0mg"},{"bike_id":"eb6e61aa-4efb-4507-a2aa-8e582c098ebf","system_id":"levelo_inurba_marseille","lat":43.2938,"lon":5.37843,"is_reserved":false,"is_disabled":false,"rental_uris":{"android":"levelo://app?vid=eb6e61aa-4efb-4507-a2aa-8e582c098ebf","ios":"levelo://app?vid=eb6e61aa-4efb-4507-a2aa-8e582c098ebf"},"vehicle_type_id":"4","last_reported":1742850543,"current_range_meters":4000,"station_id":"ce4bgjh2rcd13ifvqbf0","pricing_plan_id":"cebpf4jnsgd1na2vs0mg"},{"bike_id":"9099b1da-7fd7-401d-acb1-68ae757af661","system_id":"levelo_inurba_marseille","lat":43.23192,"lon":5.39979,"is_reserved":false,"is_disabled":false,"rental_uris":{"android":"levelo://app?vid=9099b1da-7fd7-401d-acb1-68ae757af661","ios":"levelo://app?vid=9099b1da-7fd7-401d-acb1-68ae757af661"},"vehicle_type_id":"4","last_reported":1742850543,"current_range_meters":4400,"station_id":"ce4bhn12rcd13ifvqgqg","pricing_plan_id":"cebpf4jnsgd1na2vs0mg"},{"bike_id":"515c9ef6-8580-4696-9b95-380634ee713c","system_id":"levelo_inurba_marseille","lat":43.3106,"lon":5.38336,"is_reserved":false,"is_disabled":false,"rental_uris":{"android":"levelo://app?vid=515c9ef6-8580-4696-9b95-380634ee713c","ios":"levelo://app?vid=515c9ef6-8580-4696-9b95-380634ee713c"},"vehicle_type_id":"4","last_reported":1742850543,"current_range_meters":4400,"station_id":"ce4bgv92rcd13ifvqcr0","pricing_plan_id":"cebpf4jnsgd1na2vs0mg"},{"bike_id":"2e389920-6792-413a-bdbe-539b021b1f8a","system_id":"levelo_inurba_marseille","lat":43.30252,"lon":5.40059,"is_reserved":false,"is_disabled":false,"rental_uris":{"android":"levelo://app?vid=2e389920-6792-413a-bdbe-539b021b1f8a","ios":"levelo://app?vid=2e389920-6792-413a-bdbe-539b021b1f8a"},"vehicle_type_id":"4","last_reported":1742850543,"current_range_meters":4800,"station_id":"ce4bgvh2rcd13ifvqcs0","pricing_plan_id":"cebpf4jnsgd1na2vs0mg"},{"bike_id":"2c02dd4e-bf01-415c-a0b8-949c655c25ce","system_id":"levelo_inurba_marseille","lat":43.29962,"lon":5.38502,"is_reserved":false,"is_disabled":false,"rental_uris":{"android":"levelo://app?vid=2c02dd4e-bf01-415c-a0b8-949c655c25ce","ios":"levelo://app?vid=2c02dd4e-bf01-415c-a0b8-949c655c25ce"},"vehicle_type_id":"4","last_reported":1742850543,"current_range_meters":4800,"station_id":"ce4bgj92rcd13ifvqbd0","pricing_plan_id":"cebpf4jnsgd1na2vs0mg"},{"bike_id":"a8a90f3b-e99a-4a49-9b91-01ba2232dc32","system_id":"levelo_inurba_marseille","lat":43.31078,"lon":5.42436,"is_reserved":false,"is_disabled":false,"rental_uris":{"android":"levelo://app?vid=a8a90f3b-e99a-4a49-9b91-01ba2232dc32","ios":"levelo://app?vid=a8a90f3b-e99a-4a49-9b91-01ba2232dc32"},"vehicle_type_id":"4","last_reported":1742850543,"current_range_meters":5600,"station_id":"","pricing_plan_id":"cebpf4jnsgd1na2vs0mg"},{"bike_id":"9ad07e03-661f-4fd7-8bf7-a38c2d52cbf6","system_id":"levelo_inurba_marseille","lat":43.33601,"lon":5.41035,"is_reserved":false,"is_disabled":false,"rental_uris":{"android":"levelo://app?vid=9ad07e03-661f-4fd7-8bf7-a38c2d52cbf6","ios":"levelo://app?vid=9ad07e03-661f-4fd7-8bf7-a38c2d52cbf6"},"vehicle_type_id":"4","last_reported":1742850543,"current_range_meters":5600,"station_id":"ce4bhqh2rcd13ifvqhmg","pricing_plan_id":"cebpf4jnsgd1na2vs0mg"},{"bike_id":"c36cefb3-0db7-45d8-b171-a7dea51fd330","system_id":"levelo_inurba_marseille","lat":43.25733,"lon":5.41101,"is_reserved":false,"is_disabled":false,"rental_uris":{"android":"levelo://app?vid=c36cefb3-0db7-45d8-b171-a7dea51fd330","ios":"levelo://app?vid=c36cefb3-0db7-45d8-b171-a7dea51fd330"},"vehicle_type_id":"4","last_reported":1742850543,"current_range_meters":6000,"station_id":"ce4bhkp2rcd13ifvqgd0","pricing_plan_id":"cebpf4jnsgd1na2vs0mg"},{"bike_id":"1befdc84-9289-4922-a09d-c25f119703a9","system_id":"levelo_inurba_marseille","lat":43.31361,"lon":5.38504,"is_reserved":false,"is_disabled":false,"rental_uris":{"android":"levelo://app?vid=1befdc84-9289-4922-a09d-c25f119703a9","ios":"levelo://app?vid=1befdc84-9289-4922-a09d-c25f119703a9"},"vehicle_type_id":"4","last_reported":1742850543,"current_range_meters":6000,"station_id":"","pricing_plan_id":"cebpf4jnsgd1na2vs0mg"},{"bike_id":"1c6f05f0-7c91-4908-89c5-9a37262e348a","system_id":"levelo_inurba_marseille","lat":43.29508,"lon":5.37521,"is_reserved":false,"is_disabled":false,"rental_uris":{"android":"levelo://app?vid=1c6f05f0-7c91-4908-89c5-9a37262e348a","ios":"levelo://app?vid=1c6f05f0-7c91-4908-89c5-9a37262e348a"},"vehicle_type_id":"4","last_reported":1742850543,"current_range_meters":6000,"station_id":"ce4bgkp2rcd13ifvqbmg","pricing_plan_id":"cebpf4jnsgd1na2vs0mg"},{"bike_id":"d1f993ec-8e82-4e82-a38b-e848ded0cf74","system_id":"levelo_inurba_marseille","lat":43.25095,"lon":5.39509,"is_reserved":false,"is_disabled":false,"rental_uris":{"android":"levelo://app?vid=d1f993ec-8e82-4e82-a38b-e848ded0cf74","ios":"levelo://app?vid=d1f993ec-8e82-4e82-a38b-e848ded0cf74"},"vehicle_type_id":"4","last_reported":1742850543,"current_range_meters":6000,"station_id":"","pricing_plan_id":"cebpf4jnsgd1na2vs0mg"},{"bike_id":"8b630951-f900-4a02-a32e-de980d0f5c14","system_id":"levelo_inurba_marseille","lat":43.28253,"lon":5.35078,"is_reserved":false,"is_disabled":false,"rental_uris":{"android":"levelo://app?vid=8b630951-f900-4a02-a32e-de980d0f5c14","ios":"levelo://app?vid=8b630951-f900-4a02-a32e-de980d0f5c14"},"vehicle_type_id":"4","last_reported":1742850543,"current_range_meters":6000,"station_id":"ce4bhbp2rcd13ifvqerg","pricing_plan_id":"cebpf4jnsgd1na2vs0mg"},{"bike_id":"1b7c5e4e-130d-4e75-8db2-feee0d51fa46","system_id":"levelo_inurba_marseille","lat":43.24177,"lon":5.39719,"is_reserved":false,"is_disabled":false,"rental_uris":{"android":"levelo://app?vid=1b7c5e4e-130d-4e75-8db2-feee0d51fa46","ios":"levelo://app?vid=1b7c5e4e-130d-4e75-8db2-feee0d51fa46"},"vehicle_type_id":"4","last_reported":1742850543,"current_range_meters":6400,"station_id":"ce4bhn12rcd13ifvqgpg","pricing_plan_id":"cebpf4jnsgd1na2vs0mg"},{"bike_id":"779911e8-6b05-446d-8c68-8ad7891b5283","system_id":"levelo_inurba_marseille","lat":43.27831,"lon":5.39206,"is_reserved":false,"is_disabled":false,"rental_uris":{"android":"levelo://app?vid=779911e8-6b05-446d-8c68-8ad7891b5283","ios":"levelo://app?vid=779911e8-6b05-446d-8c68-8ad7891b5283"},"vehicle_type_id":"4","last_reported":1742850543,"current_range_meters":6400,"station_id":"ce4bhjp2rcd13ifvqga0","pricing_plan_id":"cebpf4jnsgd1na2vs0mg"},{"bike_id":"c328c08b-84d1-40c7-ac2b-4e12c9cee56c","system_id":"levelo_inurba_marseille","lat":43.26563,"lon":5.3727,"is_reserved":false,"is_disabled":false,"rental_uris":{"android":"levelo://app?vid=c328c08b-84d1-40c7-ac2b-4e12c9cee56c","ios":"levelo://app?vid=c328c08b-84d1-40c7-ac2b-4e12c9cee56c"},"vehicle_type_id":"4","last_reported":1742850543,"current_range_meters":6400,"station_id":"ce4bhg12rcd13ifvqf70","pricing_plan_id":"cebpf4jnsgd1na2vs0mg"},{"bike_id":"bebbaaa4-9324-461e-b685-01f74c9202e0","system_id":"levelo_inurba_marseille","lat":43.23977,"lon":5.3662,"is_reserved":false,"is_disabled":false,"rental_uris":{"android":"levelo://app?vid=bebbaaa4-9324-461e-b685-01f74c9202e0","ios":"levelo://app?vid=bebbaaa4-9324-461e-b685-01f74c9202e0"},"vehicle_type_id":"4","last_reported":1742850543,"current_range_meters":6400,"station_id":"ce4bhi12rcd13ifvqfp0","pricing_plan_id":"cebpf4jnsgd1na2vs0mg"},{"bike_id":"634c433d-3db3-4fd8-8be9-8b653dae530e","system_id":"levelo_inurba_marseille","lat":43.28006,"lon":5.39053,"is_reserved":false,"is_disabled":true,"rental_uris":{"android":"levelo://app?vid=634c433d-3db3-4fd8-8be9-8b653dae530e","ios":"levelo://app?vid=634c433d-3db3-4fd8-8be9-8b653dae530e"},"vehicle_type_id":"4","last_reported":1742850543,"current_range_meters":6400,"station_id":"","pricing_plan_id":"cebpf4jnsgd1na2vs0mg"},{"bike_id":"0e680333-b1df-418a-9e56-bc70c69af5af","system_id":"levelo_inurba_marseille","lat":43.27962,"lon":5.39591,"is_reserved":false,"is_disabled":false,"rental_uris":{"android":"levelo://app?vid=0e680333-b1df-418a-9e56-bc70c69af5af","ios":"levelo://app?vid=0e680333-b1df-418a-9e56-bc70c69af5af"},"vehicle_type_id":"4","last_reported":1742850543,"current_range_meters":6400,"station_id":"ce4bhf92rcd13ifvqf40","pricing_plan_id":"cebpf4jnsgd1na2vs0mg"},{"bike_id":"732a627f-01b2-4ae6-a8e5-331bcbff3b4f","system_id":"levelo_inurba_marseille","lat":43.25116,"lon":5.403,"is_reserved":false,"is_disabled":false,"rental_uris":{"android":"levelo://app?vid=732a627f-01b2-4ae6-a8e5-331bcbff3b4f","ios":"levelo://app?vid=732a627f-01b2-4ae6-a8e5-331bcbff3b4f"},"vehicle_type_id":"4","last_reported":1742850543,"current_range_meters":6400,"station_id":"","pricing_plan_id":"cebpf4jnsgd1na2vs0mg"},{"bike_id":"6767d65f-236c-4b2c-a7f3-3d513792b933","system_id":"levelo_inurba_marseille","lat":43.28091,"lon":5.39645,"is_reserved":false,"is_disabled":false,"rental_uris":{"android":"levelo://app?vid=6767d65f-236c-4b2c-a7f3-3d513792b933","ios":"levelo://app?vid=6767d65f-236c-4b2c-a7f3-3d513792b933"},"vehicle_type_id":"4","last_reported":1742850543,"current_range_meters":6400,"station_id":"ce4bho12rcd13ifvqh2g","pricing_plan_id":"cebpf4jnsgd1na2vs0mg"},{"bike_id":"6f023766-497a-44b5-8b39-a397e2b8fcb8","system_id":"levelo_inurba_marseille","lat":43.31077,"lon":5.42433,"is_reserved":false,"is_disabled":false,"rental_uris":{"android":"levelo://app?vid=6f023766-497a-44b5-8b39-a397e2b8fcb8","ios":"levelo://app?vid=6f023766-497a-44b5-8b39-a397e2b8fcb8"},"vehicle_type_id":"4","last_reported":1742850543,"current_range_meters":6800,"station_id":"ce4bhp92rcd13ifvqhag","pricing_plan_id":"cebpf4jnsgd1na2vs0mg"},{"bike_id":"2ed5d4c7-38ea-493c-bf76-f09ee38d35e0","system_id":"levelo_inurba_marseille","lat":43.278097,"lon":5.407163,"is_reserved":false,"is_disabled":false,"rental_uris":{"android":"levelo://app?vid=2ed5d4c7-38ea-493c-bf76-f09ee38d35e0","ios":"levelo://app?vid=2ed5d4c7-38ea-493c-bf76-f09ee38d35e0"},"vehicle_type_id":"4","last_reported":1742850543,"current_range_meters":6800,"station_id":"ce4bh312rcd13ifvqdk0","pricing_plan_id":"cebpf4jnsgd1na2vs0mg"},{"bike_id":"2e5c3384-1873-494e-8faa-0ed376757580","system_id":"levelo_inurba_marseille","lat":43.30808,"lon":5.43516,"is_reserved":false,"is_disabled":false,"rental_uris":{"android":"levelo://app?vid=2e5c3384-1873-494e-8faa-0ed376757580","ios":"levelo://app?vid=2e5c3384-1873-494e-8faa-0ed376757580"},"vehicle_type_id":"4","last_reported":1742850543,"current_range_meters":6800,"station_id":"ce4bhph2rcd13ifvqheg","pricing_plan_id":"cebpf4jnsgd1na2vs0mg"},{"bike_id":"ed915792-e9d6-47b8-94eb-c55b1ee6bde0","system_id":"levelo_inurba_marseille","lat":43.297821,"lon":5.393385,"is_reserved":false,"is_disabled":false,"rental_uris":{"android":"levelo://app?vid=ed915792-e9d6-47b8-94eb-c55b1ee6bde0","ios":"levelo://app?vid=ed915792-e9d6-47b8-94eb-c55b1ee6bde0"},"vehicle_type_id":"4","last_reported":1742850543,"current_range_meters":6800,"station_id":"","pricing_plan_id":"cebpf4jnsgd1na2vs0mg"},{"bike_id":"23072277-821e-4dae-9fb3-b242144e7a04","system_id":"levelo_inurba_marseille","lat":43.32659,"lon":5.40991,"is_reserved":false,"is_disabled":false,"rental_uris":{"android":"levelo://app?vid=23072277-821e-4dae-9fb3-b242144e7a04","ios":"levelo://app?vid=23072277-821e-4dae-9fb3-b242144e7a04"},"vehicle_type_id":"4","last_reported":1742850543,"current_range_meters":6800,"station_id":"ce4bhpp2rcd13ifvqhgg","pricing_plan_id":"cebpf4jnsgd1na2vs0mg"},{"bike_id":"21e3a6e5-11f0-467c-9e11-90aab4ee0f83","system_id":"levelo_inurba_marseille","lat":43.2737,"lon":5.36249,"is_reserved":false,"is_disabled":false,"rental_uris":{"android":"levelo://app?vid=21e3a6e5-11f0-467c-9e11-90aab4ee0f83","ios":"levelo://app?vid=21e3a6e5-11f0-467c-9e11-90aab4ee0f83"},"vehicle_type_id":"4","last_reported":1742850543,"current_range_meters":6800,"station_id":"ce4bhbh2rcd13ifvqeo0","pricing_plan_id":"cebpf4jnsgd1na2vs0mg"},{"bike_id":"76f3d16e-d7a5-4684-96dc-ab38a67e3c56","system_id":"levelo_inurba_marseille","lat":43.27834,"lon":5.40726,"is_reserved":false,"is_disabled":false,"rental_uris":{"android":"levelo://app?vid=76f3d16e-d7a5-4684-96dc-ab38a67e3c56","ios":"levelo://app?vid=76f3d16e-d7a5-4684-96dc-ab38a67e3c56"},"vehicle_type_id":"4","last_reported":1742850543,"current_range_meters":6800,"station_id":"ce4bhnh2rcd13ifvqgtg","pricing_plan_id":"cebpf4jnsgd1na2vs0mg"},{"bike_id":"91456e3b-facc-45cb-b00f-aea26e6eaf6c","system_id":"levelo_inurba_marseille","lat":43.278142,"lon":5.407231,"is_reserved":false,"is_disabled":true,"rental_uris":{"android":"levelo://app?vid=91456e3b-facc-45cb-b00f-aea26e6eaf6c","ios":"levelo://app?vid=91456e3b-facc-45cb-b00f-aea26e6eaf6c"},"vehicle_type_id":"4","last_reported":1742850543,"current_range_meters":6800,"station_id":"ce4bhnh2rcd13ifvqgtg","pricing_plan_id":"cebpf4jnsgd1na2vs0mg"},{"bike_id":"04379eca-bab8-4fec-ba2d-df219cf43f2a","system_id":"levelo_inurba_marseille","lat":43.28848,"lon":5.393211,"is_reserved":false,"is_disabled":false,"rental_uris":{"android":"levelo://app?vid=04379eca-bab8-4fec-ba2d-df219cf43f2a","ios":"levelo://app?vid=04379eca-bab8-4fec-ba2d-df219cf43f2a"},"vehicle_type_id":"4","last_reported":1742850543,"current_range_meters":6800,"station_id":"ce4bh2p2rcd13ifvqdi0","pricing_plan_id":"cebpf4jnsgd1na2vs0mg"},{"bike_id":"86a65fab-1faf-4fc4-885c-2b086e92c069","system_id":"levelo_inurba_marseille","lat":43.24161,"lon":5.36401,"is_reserved":false,"is_disabled":false,"rental_uris":{"android":"levelo://app?vid=86a65fab-1faf-4fc4-885c-2b086e92c069","ios":"levelo://app?vid=86a65fab-1faf-4fc4-885c-2b086e92c069"},"vehicle_type_id":"4","last_reported":1742850543,"current_range_meters":6800,"station_id":"cpo36qri1sfpv3e86is0","pricing_plan_id":"cebpf4jnsgd1na2vs0mg"},{"bike_id":"0b55f403-18e2-47b7-9e0e-c74ad2be4001","system_id":"levelo_inurba_marseille","lat":43.33607,"lon":5.40978,"is_reserved":false,"is_disabled":false,"rental_uris":{"android":"levelo://app?vid=0b55f403-18e2-47b7-9e0e-c74ad2be4001","ios":"levelo://app?vid=0b55f403-18e2-47b7-9e0e-c74ad2be4001"},"vehicle_type_id":"4","last_reported":1742850543,"current_range_meters":7200,"station_id":"ce4bhqh2rcd13ifvqhmg","pricing_plan_id":"cebpf4jnsgd1na2vs0mg"},{"bike_id":"3b80d575-b6f6-47f6-86af-968f2f87e0de","system_id":"levelo_inurba_marseille","lat":43.3089,"lon":5.39648,"is_reserved":false,"is_disabled":false,"rental_uris":{"android":"levelo://app?vid=3b80d575-b6f6-47f6-86af-968f2f87e0de","ios":"levelo://app?vid=3b80d575-b6f6-47f6-86af-968f2f87e0de"},"vehicle_type_id":"4","last_reported":1742850543,"current_range_meters":7200,"station_id":"ce4bh012rcd13ifvqcv0","pricing_plan_id":"cebpf4jnsgd1na2vs0mg"},{"bike_id":"af5a5a7b-7c81-4426-8212-87d6aab64e0a","system_id":"levelo_inurba_marseille","lat":43.27426,"lon":5.39431,"is_reserved":false,"is_disabled":false,"rental_uris":{"android":"levelo://app?vid=af5a5a7b-7c81-4426-8212-87d6aab64e0a","ios":"levelo://app?vid=af5a5a7b-7c81-4426-8212-87d6aab64e0a"},"vehicle_type_id":"4","last_reported":1742850543,"current_range_meters":7200,"station_id":"ce4bhdp2rcd13ifvqf20","pricing_plan_id":"cebpf4jnsgd1na2vs0mg"},{"bike_id":"bb7d553e-f91c-478a-a14a-5f3ea0dc4964","system_id":"levelo_inurba_marseille","lat":43.24525,"lon":5.39539,"is_reserved":false,"is_disabled":false,"rental_uris":{"android":"levelo://app?vid=bb7d553e-f91c-478a-a14a-5f3ea0dc4964","ios":"levelo://app?vid=bb7d553e-f91c-478a-a14a-5f3ea0dc4964"},"vehicle_type_id":"4","last_reported":1742850543,"current_range_meters":7200,"station_id":"ce4bhlp2rcd13ifvqgjg","pricing_plan_id":"cebpf4jnsgd1na2vs0mg"},{"bike_id":"ba77c809-1111-412f-8eae-c3c885fbd6c5","system_id":"levelo_inurba_marseille","lat":43.24158,"lon":5.36402,"is_reserved":false,"is_disabled":false,"rental_uris":{"android":"levelo://app?vid=ba77c809-1111-412f-8eae-c3c885fbd6c5","ios":"levelo://app?vid=ba77c809-1111-412f-8eae-c3c885fbd6c5"},"vehicle_type_id":"4","last_reported":1742850543,"current_range_meters":7200,"station_id":"cpo36qri1sfpv3e86is0","pricing_plan_id":"cebpf4jnsgd1na2vs0mg"},{"bike_id":"763cfa5b-c33b-448e-9f64-07102448a732","system_id":"levelo_inurba_marseille","lat":43.28156,"lon":5.42643,"is_reserved":false,"is_disabled":false,"rental_uris":{"android":"levelo://app?vid=763cfa5b-c33b-448e-9f64-07102448a732","ios":"levelo://app?vid=763cfa5b-c33b-448e-9f64-07102448a732"},"vehicle_type_id":"4","last_reported":1742850543,"current_range_meters":7200,"station_id":"ce4bhnh2rcd13ifvqgug","pricing_plan_id":"cebpf4jnsgd1na2vs0mg"},{"bike_id":"6da44af1-8b7c-4791-bcb1-30013b0638eb","system_id":"levelo_inurba_marseille","lat":43.27303,"lon":5.39125,"is_reserved":false,"is_disabled":true,"rental_uris":{"android":"levelo://app?vid=6da44af1-8b7c-4791-bcb1-30013b0638eb","ios":"levelo://app?vid=6da44af1-8b7c-4791-bcb1-30013b0638eb"},"vehicle_type_id":"4","last_reported":1742850543,"current_range_meters":8000,"station_id":"","pricing_plan_id":"cebpf4jnsgd1na2vs0mg"},{"bike_id":"9fc87cb3-4f61-4e11-a37d-bb25cfffc8b7","system_id":"levelo_inurba_marseille","lat":43.24527,"lon":5.42886,"is_reserved":false,"is_disabled":false,"rental_uris":{"android":"levelo://app?vid=9fc87cb3-4f61-4e11-a37d-bb25cfffc8b7","ios":"levelo://app?vid=9fc87cb3-4f61-4e11-a37d-bb25cfffc8b7"},"vehicle_type_id":"4","last_reported":1742850543,"current_range_meters":8000,"station_id":"","pricing_plan_id":"cebpf4jnsgd1na2vs0mg"},{"bike_id":"e3c6d100-9b3b-44e1-abd1-7cf3538ee12c","system_id":"levelo_inurba_marseille","lat":43.23201,"lon":5.35577,"is_reserved":false,"is_disabled":false,"rental_uris":{"android":"levelo://app?vid=e3c6d100-9b3b-44e1-abd1-7cf3538ee12c","ios":"levelo://app?vid=e3c6d100-9b3b-44e1-abd1-7cf3538ee12c"},"vehicle_type_id":"4","last_reported":1742850543,"current_range_meters":8000,"station_id":"ce4bhu92rcd13ifvqi70","pricing_plan_id":"cebpf4jnsgd1na2vs0mg"},{"bike_id":"f02a77b8-f810-41ff-bf5b-5ab742b469a7","system_id":"levelo_inurba_marseille","lat":43.23152,"lon":5.43706,"is_reserved":false,"is_disabled":false,"rental_uris":{"android":"levelo://app?vid=f02a77b8-f810-41ff-bf5b-5ab742b469a7","ios":"levelo://app?vid=f02a77b8-f810-41ff-bf5b-5ab742b469a7"},"vehicle_type_id":"4","last_reported":1742850543,"current_range_meters":8000,"station_id":"ce4bhmp2rcd13ifvqgog","pricing_plan_id":"cebpf4jnsgd1na2vs0mg"},{"bike_id":"3d50d2d4-f98c-466f-af60-d375a9debb10","system_id":"levelo_inurba_marseille","lat":43.32256,"lon":5.38303,"is_reserved":false,"is_disabled":false,"rental_uris":{"android":"levelo://app?vid=3d50d2d4-f98c-466f-af60-d375a9debb10","ios":"levelo://app?vid=3d50d2d4-f98c-466f-af60-d375a9debb10"},"vehicle_type_id":"4","last_reported":1742850543,"current_range_meters":8000,"station_id":"ce4bhr12rcd13ifvqhqg","pricing_plan_id":"cebpf4jnsgd1na2vs0mg"},{"bike_id":"c77ba74c-34b4-4065-8232-671a3f8577ef","system_id":"levelo_inurba_marseille","lat":43.26199,"lon":5.37926,"is_reserved":false,"is_disabled":false,"rental_uris":{"android":"levelo://app?vid=c77ba74c-34b4-4065-8232-671a3f8577ef","ios":"levelo://app?vid=c77ba74c-34b4-4065-8232-671a3f8577ef"},"vehicle_type_id":"4","last_reported":1742850543,"current_range_meters":8000,"station_id":"","pricing_plan_id":"cebpf4jnsgd1na2vs0mg"},{"bike_id":"80c5d116-3978-4fe6-acb0-534e96e2f1d8","system_id":"levelo_inurba_marseille","lat":43.30416,"lon":5.39749,"is_reserved":false,"is_disabled":false,"rental_uris":{"android":"levelo://app?vid=80c5d116-3978-4fe6-acb0-534e96e2f1d8","ios":"levelo://app?vid=80c5d116-3978-4fe6-acb0-534e96e2f1d8"},"vehicle_type_id":"4","last_reported":1742850543,"current_range_meters":8000,"station_id":"ce4bh092rcd13ifvqd20","pricing_plan_id":"cebpf4jnsgd1na2vs0mg"},{"bike_id":"7e392b4b-f521-41ae-841e-fe8a3cccc001","system_id":"levelo_inurba_marseille","lat":43.30812,"lon":5.43512,"is_reserved":false,"is_disabled":false,"rental_uris":{"android":"levelo://app?vid=7e392b4b-f521-41ae-841e-fe8a3cccc001","ios":"levelo://app?vid=7e392b4b-f521-41ae-841e-fe8a3cccc001"},"vehicle_type_id":"4","last_reported":1742850543,"current_range_meters":8000,"station_id":"ce4bhph2rcd13ifvqheg","pricing_plan_id":"cebpf4jnsgd1na2vs0mg"},{"bike_id":"19c4d38c-721f-4a6d-8de0-ad162aee3dc3","system_id":"levelo_inurba_marseille","lat":43.29864,"lon":5.38905,"is_reserved":false,"is_disabled":true,"rental_uris":{"android":"levelo://app?vid=19c4d38c-721f-4a6d-8de0-ad162aee3dc3","ios":"levelo://app?vid=19c4d38c-721f-4a6d-8de0-ad162aee3dc3"},"vehicle_type_id":"4","last_reported":1742850543,"current_range_meters":8400,"station_id":"ce4bh392rcd13ifvqdl0","pricing_plan_id":"cebpf4jnsgd1na2vs0mg"},{"bike_id":"d942f3e8-444a-4f08-8153-7c5e4dca0232","system_id":"levelo_inurba_marseille","lat":43.31705,"lon":5.43728,"is_reserved":false,"is_disabled":false,"rental_uris":{"android":"levelo://app?vid=d942f3e8-444a-4f08-8153-7c5e4dca0232","ios":"levelo://app?vid=d942f3e8-444a-4f08-8153-7c5e4dca0232"},"vehicle_type_id":"4","last_reported":1742850543,"current_range_meters":8400,"station_id":"ce4bhp92rcd13ifvqhcg","pricing_plan_id":"cebpf4jnsgd1na2vs0mg"},{"bike_id":"ab109a35-cb7d-438b-8db8-1c92b3f80847","system_id":"levelo_inurba_marseille","lat":43.31991,"lon":5.38146,"is_reserved":false,"is_disabled":false,"rental_uris":{"android":"levelo://app?vid=ab109a35-cb7d-438b-8db8-1c92b3f80847","ios":"levelo://app?vid=ab109a35-cb7d-438b-8db8-1c92b3f80847"},"vehicle_type_id":"4","last_reported":1742850543,"current_range_meters":8400,"station_id":"ce4bhr12rcd13ifvqhpg","pricing_plan_id":"cebpf4jnsgd1na2vs0mg"},{"bike_id":"86a44a05-0a83-4313-982b-6cc18fac25e6","system_id":"levelo_inurba_marseille","lat":43.3065,"lon":5.40045,"is_reserved":false,"is_disabled":false,"rental_uris":{"android":"levelo://app?vid=86a44a05-0a83-4313-982b-6cc18fac25e6","ios":"levelo://app?vid=86a44a05-0a83-4313-982b-6cc18fac25e6"},"vehicle_type_id":"4","last_reported":1742850543,"current_range_meters":8800,"station_id":"ce4bh112rcd13ifvqda0","pricing_plan_id":"cebpf4jnsgd1na2vs0mg"},{"bike_id":"42a0b69b-f29a-4ea2-80ed-6573bad37aeb","system_id":"levelo_inurba_marseille","lat":43.24538,"lon":5.39518,"is_reserved":false,"is_disabled":false,"rental_uris":{"android":"levelo://app?vid=42a0b69b-f29a-4ea2-80ed-6573bad37aeb","ios":"levelo://app?vid=42a0b69b-f29a-4ea2-80ed-6573bad37aeb"},"vehicle_type_id":"4","last_reported":1742850543,"current_range_meters":8800,"station_id":"","pricing_plan_id":"cebpf4jnsgd1na2vs0mg"},{"bike_id":"ae7aa3dd-7755-481c-9fe1-ef1d518137c2","system_id":"levelo_inurba_marseille","lat":43.28077,"lon":5.39641,"is_reserved":false,"is_disabled":false,"rental_uris":{"android":"levelo://app?vid=ae7aa3dd-7755-481c-9fe1-ef1d518137c2","ios":"levelo://app?vid=ae7aa3dd-7755-481c-9fe1-ef1d518137c2"},"vehicle_type_id":"4","last_reported":1742850543,"current_range_meters":8800,"station_id":"ce4bho12rcd13ifvqh2g","pricing_plan_id":"cebpf4jnsgd1na2vs0mg"},{"bike_id":"97737839-0f51-4ecc-9c5a-823210b37893","system_id":"levelo_inurba_marseille","lat":43.28514,"lon":5.35832,"is_reserved":false,"is_disabled":false,"rental_uris":{"android":"levelo://app?vid=97737839-0f51-4ecc-9c5a-823210b37893","ios":"levelo://app?vid=97737839-0f51-4ecc-9c5a-823210b37893"},"vehicle_type_id":"4","last_reported":1742850543,"current_range_meters":8800,"station_id":"ce4bhah2rcd13ifvqei0","pricing_plan_id":"cebpf4jnsgd1na2vs0mg"},{"bike_id":"2462aff4-312c-46a9-ae18-d864ef42c20c","system_id":"levelo_inurba_marseille","lat":43.24175,"lon":5.36396,"is_reserved":false,"is_disabled":false,"rental_uris":{"android":"levelo://app?vid=2462aff4-312c-46a9-ae18-d864ef42c20c","ios":"levelo://app?vid=2462aff4-312c-46a9-ae18-d864ef42c20c"},"vehicle_type_id":"4","last_reported":1742850543,"current_range_meters":9200,"station_id":"cpo36qri1sfpv3e86is0","pricing_plan_id":"cebpf4jnsgd1na2vs0mg"},{"bike_id":"a49a5ac6-93a8-4611-8397-b2b9339aaeb9","system_id":"levelo_inurba_marseille","lat":43.31077,"lon":5.42429,"is_reserved":false,"is_disabled":false,"rental_uris":{"android":"levelo://app?vid=a49a5ac6-93a8-4611-8397-b2b9339aaeb9","ios":"levelo://app?vid=a49a5ac6-93a8-4611-8397-b2b9339aaeb9"},"vehicle_type_id":"4","last_reported":1742850543,"current_range_meters":9200,"station_id":"ce4bhp92rcd13ifvqhag","pricing_plan_id":"cebpf4jnsgd1na2vs0mg"},{"bike_id":"1b8779ee-15bd-411f-8230-66fb3b9d06b8","system_id":"levelo_inurba_marseille","lat":43.29907,"lon":5.43704,"is_reserved":false,"is_disabled":false,"rental_uris":{"android":"levelo://app?vid=1b8779ee-15bd-411f-8230-66fb3b9d06b8","ios":"levelo://app?vid=1b8779ee-15bd-411f-8230-66fb3b9d06b8"},"vehicle_type_id":"4","last_reported":1742850543,"current_range_meters":9200,"station_id":"","pricing_plan_id":"cebpf4jnsgd1na2vs0mg"},{"bike_id":"0645919f-9dda-4ed0-b513-9ca60289b446","system_id":"levelo_inurba_marseille","lat":43.30531,"lon":5.36549,"is_reserved":false,"is_disabled":false,"rental_uris":{"android":"levelo://app?vid=0645919f-9dda-4ed0-b513-9ca60289b446","ios":"levelo://app?vid=0645919f-9dda-4ed0-b513-9ca60289b446"},"vehicle_type_id":"4","last_reported":1742850543,"current_range_meters":9200,"station_id":"","pricing_plan_id":"cebpf4jnsgd1na2vs0mg"},{"bike_id":"2ff570d2-4d8e-48ed-9e8e-8a83ca9149b2","system_id":"levelo_inurba_marseille","lat":43.2707,"lon":5.42278,"is_reserved":false,"is_disabled":true,"rental_uris":{"android":"levelo://app?vid=2ff570d2-4d8e-48ed-9e8e-8a83ca9149b2","ios":"levelo://app?vid=2ff570d2-4d8e-48ed-9e8e-8a83ca9149b2"},"vehicle_type_id":"4","last_reported":1742850543,"current_range_meters":9200,"station_id":"ce4bhk92rcd13ifvqgb0","pricing_plan_id":"cebpf4jnsgd1na2vs0mg"},{"bike_id":"16a20090-4290-4041-8a23-3f924e32764f","system_id":"levelo_inurba_marseille","lat":43.30889,"lon":5.39633,"is_reserved":false,"is_disabled":false,"rental_uris":{"android":"levelo://app?vid=16a20090-4290-4041-8a23-3f924e32764f","ios":"levelo://app?vid=16a20090-4290-4041-8a23-3f924e32764f"},"vehicle_type_id":"4","last_reported":1742850543,"current_range_meters":9200,"station_id":"ce4bh012rcd13ifvqcv0","pricing_plan_id":"cebpf4jnsgd1na2vs0mg"},{"bike_id":"e880d38f-4638-4aaa-9697-99ba9a97221c","system_id":"levelo_inurba_marseille","lat":43.3204,"lon":5.41509,"is_reserved":false,"is_disabled":false,"rental_uris":{"android":"levelo://app?vid=e880d38f-4638-4aaa-9697-99ba9a97221c","ios":"levelo://app?vid=e880d38f-4638-4aaa-9697-99ba9a97221c"},"vehicle_type_id":"4","last_reported":1742850543,"current_range_meters":9200,"station_id":"ce4bhq92rcd13ifvqhkg","pricing_plan_id":"cebpf4jnsgd1na2vs0mg"},{"bike_id":"cc799e13-4938-4b46-8479-9b3783ed8fb9","system_id":"levelo_inurba_marseille","lat":43.30894,"lon":5.39646,"is_reserved":false,"is_disabled":false,"rental_uris":{"android":"levelo://app?vid=cc799e13-4938-4b46-8479-9b3783ed8fb9","ios":"levelo://app?vid=cc799e13-4938-4b46-8479-9b3783ed8fb9"},"vehicle_type_id":"4","last_reported":1742850543,"current_range_meters":9200,"station_id":"ce4bh012rcd13ifvqcv0","pricing_plan_id":"cebpf4jnsgd1na2vs0mg"},{"bike_id":"c094919f-14ee-4ffc-9259-e33190fa310d","system_id":"levelo_inurba_marseille","lat":43.29955,"lon":5.38515,"is_reserved":false,"is_disabled":false,"rental_uris":{"android":"levelo://app?vid=c094919f-14ee-4ffc-9259-e33190fa310d","ios":"levelo://app?vid=c094919f-14ee-4ffc-9259-e33190fa310d"},"vehicle_type_id":"4","last_reported":1742850543,"current_range_meters":9200,"station_id":"","pricing_plan_id":"cebpf4jnsgd1na2vs0mg"},{"bike_id":"75927f7b-b7af-425d-be41-2c9e710eb30a","system_id":"levelo_inurba_marseille","lat":43.32338,"lon":5.40618,"is_reserved":false,"is_disabled":false,"rental_uris":{"android":"levelo://app?vid=75927f7b-b7af-425d-be41-2c9e710eb30a","ios":"levelo://app?vid=75927f7b-b7af-425d-be41-2c9e710eb30a"},"vehicle_type_id":"4","last_reported":1742850543,"current_range_meters":9200,"station_id":"ce4bhq92rcd13ifvqhjg","pricing_plan_id":"cebpf4jnsgd1na2vs0mg"},{"bike_id":"1bf06481-d9a0-4112-85ce-090f0c187592","system_id":"levelo_inurba_marseille","lat":43.30799,"lon":5.43531,"is_reserved":false,"is_disabled":false,"rental_uris":{"android":"levelo://app?vid=1bf06481-d9a0-4112-85ce-090f0c187592","ios":"levelo://app?vid=1bf06481-d9a0-4112-85ce-090f0c187592"},"vehicle_type_id":"4","last_reported":1742850543,"current_range_meters":9600,"station_id":"ce4bhph2rcd13ifvqheg","pricing_plan_id":"cebpf4jnsgd1na2vs0mg"},{"bike_id":"ebf86de8-a3f7-4563-b9cd-62f5316ef4ec","system_id":"levelo_inurba_marseille","lat":43.3092,"lon":5.40149,"is_reserved":false,"is_disabled":true,"rental_uris":{"android":"levelo://app?vid=ebf86de8-a3f7-4563-b9cd-62f5316ef4ec","ios":"levelo://app?vid=ebf86de8-a3f7-4563-b9cd-62f5316ef4ec"},"vehicle_type_id":"4","last_reported":1742850543,"current_range_meters":9600,"station_id":"ce4bgvp2rcd13ifvqct0","pricing_plan_id":"cebpf4jnsgd1na2vs0mg"},{"bike_id":"a0a460eb-34d7-43d6-85ef-87b30455cbf0","system_id":"levelo_inurba_marseille","lat":43.23961,"lon":5.36613,"is_reserved":false,"is_disabled":false,"rental_uris":{"android":"levelo://app?vid=a0a460eb-34d7-43d6-85ef-87b30455cbf0","ios":"levelo://app?vid=a0a460eb-34d7-43d6-85ef-87b30455cbf0"},"vehicle_type_id":"4","last_reported":1742850543,"current_range_meters":9600,"station_id":"ce4bhi12rcd13ifvqfp0","pricing_plan_id":"cebpf4jnsgd1na2vs0mg"},{"bike_id":"0dfb0d89-73f2-49b8-91e9-15d856e46939","system_id":"levelo_inurba_marseille","lat":43.24164,"lon":5.3974,"is_reserved":false,"is_disabled":false,"rental_uris":{"android":"levelo://app?vid=0dfb0d89-73f2-49b8-91e9-15d856e46939","ios":"levelo://app?vid=0dfb0d89-73f2-49b8-91e9-15d856e46939"},"vehicle_type_id":"4","last_reported":1742850543,"current_range_meters":9600,"station_id":"ce4bhn12rcd13ifvqgpg","pricing_plan_id":"cebpf4jnsgd1na2vs0mg"},{"bike_id":"b8bf4440-1171-40eb-8cc6-19786d84687b","system_id":"levelo_inurba_marseille","lat":43.28724,"lon":5.36084,"is_reserved":false,"is_disabled":false,"rental_uris":{"android":"levelo://app?vid=b8bf4440-1171-40eb-8cc6-19786d84687b","ios":"levelo://app?vid=b8bf4440-1171-40eb-8cc6-19786d84687b"},"vehicle_type_id":"4","last_reported":1742850543,"current_range_meters":9600,"station_id":"cki0cbj6b192h4jlfktg","pricing_plan_id":"cebpf4jnsgd1na2vs0mg"},{"bike_id":"e1b0e5a5-4d2c-439f-a035-eadd5217d570","system_id":"levelo_inurba_marseille","lat":43.31254,"lon":5.36833,"is_reserved":false,"is_disabled":true,"rental_uris":{"android":"levelo://app?vid=e1b0e5a5-4d2c-439f-a035-eadd5217d570","ios":"levelo://app?vid=e1b0e5a5-4d2c-439f-a035-eadd5217d570"},"vehicle_type_id":"4","last_reported":1742850543,"current_range_meters":9600,"station_id":"ce4bgl92rcd13ifvqbq0","pricing_plan_id":"cebpf4jnsgd1na2vs0mg"},{"bike_id":"9ce38cc6-6757-415f-8b3e-57e63a2ec031","system_id":"levelo_inurba_marseille","lat":43.27814,"lon":5.40716,"is_reserved":false,"is_disabled":false,"rental_uris":{"android":"levelo://app?vid=9ce38cc6-6757-415f-8b3e-57e63a2ec031","ios":"levelo://app?vid=9ce38cc6-6757-415f-8b3e-57e63a2ec031"},"vehicle_type_id":"4","last_reported":1742850543,"current_range_meters":9600,"station_id":"ce4bhnh2rcd13ifvqgtg","pricing_plan_id":"cebpf4jnsgd1na2vs0mg"},{"bike_id":"d6b9068b-bec0-4f76-9c03-273151aa3d54","system_id":"levelo_inurba_marseille","lat":43.26561,"lon":5.37274,"is_reserved":false,"is_disabled":false,"rental_uris":{"android":"levelo://app?vid=d6b9068b-bec0-4f76-9c03-273151aa3d54","ios":"levelo://app?vid=d6b9068b-bec0-4f76-9c03-273151aa3d54"},"vehicle_type_id":"4","last_reported":1742850543,"current_range_meters":9600,"station_id":"","pricing_plan_id":"cebpf4jnsgd1na2vs0mg"},{"bike_id":"38e0f955-2686-4e43-b82b-9f7bda364270","system_id":"levelo_inurba_marseille","lat":43.28843,"lon":5.35833,"is_reserved":false,"is_disabled":false,"rental_uris":{"android":"levelo://app?vid=38e0f955-2686-4e43-b82b-9f7bda364270","ios":"levelo://app?vid=38e0f955-2686-4e43-b82b-9f7bda364270"},"vehicle_type_id":"4","last_reported":1742850543,"current_range_meters":10000,"station_id":"ce4bhb12rcd13ifvqem0","pricing_plan_id":"cebpf4jnsgd1na2vs0mg"},{"bike_id":"0c362fcf-65ba-4e5a-83a7-0b90070d3fa1","system_id":"levelo_inurba_marseille","lat":43.303056,"lon":5.368991,"is_reserved":false,"is_disabled":false,"rental_uris":{"android":"levelo://app?vid=0c362fcf-65ba-4e5a-83a7-0b90070d3fa1","ios":"levelo://app?vid=0c362fcf-65ba-4e5a-83a7-0b90070d3fa1"},"vehicle_type_id":"4","last_reported":1742850543,"current_range_meters":10000,"station_id":"ce4bgqh2rcd13ifvqc5g","pricing_plan_id":"cebpf4jnsgd1na2vs0mg"},{"bike_id":"f977c0fa-0831-48e0-84ba-e6382d1caf32","system_id":"levelo_inurba_marseille","lat":43.31087,"lon":5.38356,"is_reserved":false,"is_disabled":false,"rental_uris":{"android":"levelo://app?vid=f977c0fa-0831-48e0-84ba-e6382d1caf32","ios":"levelo://app?vid=f977c0fa-0831-48e0-84ba-e6382d1caf32"},"vehicle_type_id":"4","last_reported":1742850543,"current_range_meters":10000,"station_id":"ce4bgv92rcd13ifvqcr0","pricing_plan_id":"cebpf4jnsgd1na2vs0mg"},{"bike_id":"9eef2c13-4412-429d-a6b0-e32bea5d5b99","system_id":"levelo_inurba_marseille","lat":43.32485,"lon":5.36562,"is_reserved":false,"is_disabled":false,"rental_uris":{"android":"levelo://app?vid=9eef2c13-4412-429d-a6b0-e32bea5d5b99","ios":"levelo://app?vid=9eef2c13-4412-429d-a6b0-e32bea5d5b99"},"vehicle_type_id":"4","last_reported":1742850543,"current_range_meters":10000,"station_id":"ce4bhs12rcd13ifvqhvg","pricing_plan_id":"cebpf4jnsgd1na2vs0mg"},{"bike_id":"c9c19aa6-3fe4-401b-ab2c-9612f3df5e72","system_id":"levelo_inurba_marseille","lat":43.30948,"lon":5.39011,"is_reserved":false,"is_disabled":true,"rental_uris":{"android":"levelo://app?vid=c9c19aa6-3fe4-401b-ab2c-9612f3df5e72","ios":"levelo://app?vid=c9c19aa6-3fe4-401b-ab2c-9612f3df5e72"},"vehicle_type_id":"4","last_reported":1742850543,"current_range_meters":10000,"station_id":"ce4bgup2rcd13ifvqco0","pricing_plan_id":"cebpf4jnsgd1na2vs0mg"},{"bike_id":"96d2bde3-2104-462e-ba05-550b8c8f157b","system_id":"levelo_inurba_marseille","lat":43.29044,"lon":5.35905,"is_reserved":false,"is_disabled":false,"rental_uris":{"android":"levelo://app?vid=96d2bde3-2104-462e-ba05-550b8c8f157b","ios":"levelo://app?vid=96d2bde3-2104-462e-ba05-550b8c8f157b"},"vehicle_type_id":"4","last_reported":1742850543,"current_range_meters":10000,"station_id":"ce4bha92rcd13ifvqeg0","pricing_plan_id":"cebpf4jnsgd1na2vs0mg"},{"bike_id":"f64a5f06-bff4-4284-a64d-ce271f664dc4","system_id":"levelo_inurba_marseille","lat":43.26155,"lon":5.40533,"is_reserved":false,"is_disabled":false,"rental_uris":{"android":"levelo://app?vid=f64a5f06-bff4-4284-a64d-ce271f664dc4","ios":"levelo://app?vid=f64a5f06-bff4-4284-a64d-ce271f664dc4"},"vehicle_type_id":"4","last_reported":1742850543,"current_range_meters":10000,"station_id":"","pricing_plan_id":"cebpf4jnsgd1na2vs0mg"},{"bike_id":"a0d4632a-7a87-4031-aeeb-061ca0feaca6","system_id":"levelo_inurba_marseille","lat":43.23944,"lon":5.3665,"is_reserved":false,"is_disabled":false,"rental_uris":{"android":"levelo://app?vid=a0d4632a-7a87-4031-aeeb-061ca0feaca6","ios":"levelo://app?vid=a0d4632a-7a87-4031-aeeb-061ca0feaca6"},"vehicle_type_id":"4","last_reported":1742850543,"current_range_meters":10800,"station_id":"ce4bhi12rcd13ifvqfp0","pricing_plan_id":"cebpf4jnsgd1na2vs0mg"},{"bike_id":"26fa24fb-ac6c-440b-833a-f02e8547dc9a","system_id":"levelo_inurba_marseille","lat":43.30911,"lon":5.36828,"is_reserved":false,"is_disabled":false,"rental_uris":{"android":"levelo://app?vid=26fa24fb-ac6c-440b-833a-f02e8547dc9a","ios":"levelo://app?vid=26fa24fb-ac6c-440b-833a-f02e8547dc9a"},"vehicle_type_id":"4","last_reported":1742850543,"current_range_meters":10800,"station_id":"","pricing_plan_id":"cebpf4jnsgd1na2vs0mg"},{"bike_id":"42e12277-2404-40c1-a358-f3ca2810181d","system_id":"levelo_inurba_marseille","lat":43.29893,"lon":5.36301,"is_reserved":false,"is_disabled":false,"rental_uris":{"android":"levelo://app?vid=42e12277-2404-40c1-a358-f3ca2810181d","ios":"levelo://app?vid=42e12277-2404-40c1-a358-f3ca2810181d"},"vehicle_type_id":"4","last_reported":1742850543,"current_range_meters":10800,"station_id":"ce4bgpp2rcd13ifvqc3g","pricing_plan_id":"cebpf4jnsgd1na2vs0mg"},{"bike_id":"6cc316b8-6c1c-4fd9-b09f-9bbf99b4b3f6","system_id":"levelo_inurba_marseille","lat":43.29166,"lon":5.37157,"is_reserved":false,"is_disabled":false,"rental_uris":{"android":"levelo://app?vid=6cc316b8-6c1c-4fd9-b09f-9bbf99b4b3f6","ios":"levelo://app?vid=6cc316b8-6c1c-4fd9-b09f-9bbf99b4b3f6"},"vehicle_type_id":"4","last_reported":1742850543,"current_range_meters":10800,"station_id":"ce4bha92rcd13ifvqeh0","pricing_plan_id":"cebpf4jnsgd1na2vs0mg"},{"bike_id":"fbfecbb6-5794-4d9a-9176-1810e4b4a7ef","system_id":"levelo_inurba_marseille","lat":43.23063,"lon":5.35494,"is_reserved":false,"is_disabled":false,"rental_uris":{"android":"levelo://app?vid=fbfecbb6-5794-4d9a-9176-1810e4b4a7ef","ios":"levelo://app?vid=fbfecbb6-5794-4d9a-9176-1810e4b4a7ef"},"vehicle_type_id":"4","last_reported":1742850543,"current_range_meters":10800,"station_id":"","pricing_plan_id":"cebpf4jnsgd1na2vs0mg"},{"bike_id":"a0d05f03-0e02-4b04-8fa4-3561235d49f8","system_id":"levelo_inurba_marseille","lat":43.289217,"lon":5.383993,"is_reserved":false,"is_disabled":true,"rental_uris":{"android":"levelo://app?vid=a0d05f03-0e02-4b04-8fa4-3561235d49f8","ios":"levelo://app?vid=a0d05f03-0e02-4b04-8fa4-3561235d49f8"},"vehicle_type_id":"4","last_reported":1742850543,"current_range_meters":11200,"station_id":"ce4bh612rcd13ifvqe6g","pricing_plan_id":"cebpf4jnsgd1na2vs0mg"},{"bike_id":"365f09ab-8c99-476c-926d-06a67e798fc3","system_id":"levelo_inurba_marseille","lat":43.3168,"lon":5.40476,"is_reserved":false,"is_disabled":false,"rental_uris":{"android":"levelo://app?vid=365f09ab-8c99-476c-926d-06a67e798fc3","ios":"levelo://app?vid=365f09ab-8c99-476c-926d-06a67e798fc3"},"vehicle_type_id":"4","last_reported":1742850543,"current_range_meters":11200,"station_id":"ce4bh012rcd13ifvqd00","pricing_plan_id":"cebpf4jnsgd1na2vs0mg"},{"bike_id":"ef43d9bd-e531-4a59-b8a9-fdc80b41fa34","system_id":"levelo_inurba_marseille","lat":43.31268,"lon":5.40169,"is_reserved":false,"is_disabled":true,"rental_uris":{"android":"levelo://app?vid=ef43d9bd-e531-4a59-b8a9-fdc80b41fa34","ios":"levelo://app?vid=ef43d9bd-e531-4a59-b8a9-fdc80b41fa34"},"vehicle_type_id":"4","last_reported":1742850543,"current_range_meters":11200,"station_id":"ce4bh092rcd13ifvqd30","pricing_plan_id":"cebpf4jnsgd1na2vs0mg"},{"bike_id":"b80cef71-9250-491f-bbd3-83ef9ed785b3","system_id":"levelo_inurba_marseille","lat":43.27667,"lon":5.38867,"is_reserved":false,"is_disabled":false,"rental_uris":{"android":"levelo://app?vid=b80cef71-9250-491f-bbd3-83ef9ed785b3","ios":"levelo://app?vid=b80cef71-9250-491f-bbd3-83ef9ed785b3"},"vehicle_type_id":"4","last_reported":1742850543,"current_range_meters":11200,"station_id":"","pricing_plan_id":"cebpf4jnsgd1na2vs0mg"},{"bike_id":"bb938d95-39cf-421d-8558-b3fbb7454044","system_id":"levelo_inurba_marseille","lat":43.28412,"lon":5.37519,"is_reserved":false,"is_disabled":false,"rental_uris":{"android":"levelo://app?vid=bb938d95-39cf-421d-8558-b3fbb7454044","ios":"levelo://app?vid=bb938d95-39cf-421d-8558-b3fbb7454044"},"vehicle_type_id":"4","last_reported":1742850543,"current_range_meters":11200,"station_id":"ce4bh412rcd13ifvqds0","pricing_plan_id":"cebpf4jnsgd1na2vs0mg"},{"bike_id":"938c0f4e-65bf-479a-ba6e-fe7a68ff9b08","system_id":"levelo_inurba_marseille","lat":43.2651,"lon":5.37311,"is_reserved":false,"is_disabled":false,"rental_uris":{"android":"levelo://app?vid=938c0f4e-65bf-479a-ba6e-fe7a68ff9b08","ios":"levelo://app?vid=938c0f4e-65bf-479a-ba6e-fe7a68ff9b08"},"vehicle_type_id":"4","last_reported":1742850543,"current_range_meters":11200,"station_id":"","pricing_plan_id":"cebpf4jnsgd1na2vs0mg"},{"bike_id":"a6c20288-f5a1-4928-9f6b-d04bd827a79e","system_id":"levelo_inurba_marseille","lat":43.24555,"lon":5.39516,"is_reserved":false,"is_disabled":false,"rental_uris":{"android":"levelo://app?vid=a6c20288-f5a1-4928-9f6b-d04bd827a79e","ios":"levelo://app?vid=a6c20288-f5a1-4928-9f6b-d04bd827a79e"},"vehicle_type_id":"4","last_reported":1742850543,"current_range_meters":11200,"station_id":"ce4bhlp2rcd13ifvqgjg","pricing_plan_id":"cebpf4jnsgd1na2vs0mg"},{"bike_id":"2a99ecb7-4bf0-4c00-89bb-11ff019b8a6d","system_id":"levelo_inurba_marseille","lat":43.22952,"lon":5.35365,"is_reserved":false,"is_disabled":false,"rental_uris":{"android":"levelo://app?vid=2a99ecb7-4bf0-4c00-89bb-11ff019b8a6d","ios":"levelo://app?vid=2a99ecb7-4bf0-4c00-89bb-11ff019b8a6d"},"vehicle_type_id":"4","last_reported":1742850543,"current_range_meters":11600,"station_id":"cpo3532slgdg3j2ikp40","pricing_plan_id":"cebpf4jnsgd1na2vs0mg"},{"bike_id":"033fd02a-369d-47fa-80d8-6fc1b8da07f1","system_id":"levelo_inurba_marseille","lat":43.30645,"lon":5.40093,"is_reserved":false,"is_disabled":false,"rental_uris":{"android":"levelo://app?vid=033fd02a-369d-47fa-80d8-6fc1b8da07f1","ios":"levelo://app?vid=033fd02a-369d-47fa-80d8-6fc1b8da07f1"},"vehicle_type_id":"4","last_reported":1742850543,"current_range_meters":11600,"station_id":"ce4bh112rcd13ifvqda0","pricing_plan_id":"cebpf4jnsgd1na2vs0mg"},{"bike_id":"8284de5c-d227-47cd-b1ac-1bc2e0170d0f","system_id":"levelo_inurba_marseille","lat":43.27823,"lon":5.40721,"is_reserved":false,"is_disabled":true,"rental_uris":{"android":"levelo://app?vid=8284de5c-d227-47cd-b1ac-1bc2e0170d0f","ios":"levelo://app?vid=8284de5c-d227-47cd-b1ac-1bc2e0170d0f"},"vehicle_type_id":"4","last_reported":1742850543,"current_range_meters":11600,"station_id":"ce4bhnh2rcd13ifvqgtg","pricing_plan_id":"cebpf4jnsgd1na2vs0mg"},{"bike_id":"37edeb0d-9f2a-4ca7-a5e6-671985783cf6","system_id":"levelo_inurba_marseille","lat":43.28106,"lon":5.37814,"is_reserved":false,"is_disabled":false,"rental_uris":{"android":"levelo://app?vid=37edeb0d-9f2a-4ca7-a5e6-671985783cf6","ios":"levelo://app?vid=37edeb0d-9f2a-4ca7-a5e6-671985783cf6"},"vehicle_type_id":"4","last_reported":1742850543,"current_range_meters":11600,"station_id":"ce4bha12rcd13ifvqee0","pricing_plan_id":"cebpf4jnsgd1na2vs0mg"},{"bike_id":"80b8cdb1-0686-4f13-a055-22aa874d4ea5","system_id":"levelo_inurba_marseille","lat":43.308,"lon":5.38161,"is_reserved":false,"is_disabled":false,"rental_uris":{"android":"levelo://app?vid=80b8cdb1-0686-4f13-a055-22aa874d4ea5","ios":"levelo://app?vid=80b8cdb1-0686-4f13-a055-22aa874d4ea5"},"vehicle_type_id":"4","last_reported":1742850543,"current_range_meters":11600,"station_id":"ce4bgt12rcd13ifvqce0","pricing_plan_id":"cebpf4jnsgd1na2vs0mg"},{"bike_id":"07273ad5-0d14-41f9-aa20-8a351943b18a","system_id":"levelo_inurba_marseille","lat":43.2816,"lon":5.42624,"is_reserved":false,"is_disabled":false,"rental_uris":{"android":"levelo://app?vid=07273ad5-0d14-41f9-aa20-8a351943b18a","ios":"levelo://app?vid=07273ad5-0d14-41f9-aa20-8a351943b18a"},"vehicle_type_id":"4","last_reported":1742850543,"current_range_meters":11600,"station_id":"ce4bhnh2rcd13ifvqgug","pricing_plan_id":"cebpf4jnsgd1na2vs0mg"},{"bike_id":"008c8db6-be2b-43ce-8a53-8af51fd8b577","system_id":"levelo_inurba_marseille","lat":43.24144,"lon":5.39706,"is_reserved":false,"is_disabled":false,"rental_uris":{"android":"levelo://app?vid=008c8db6-be2b-43ce-8a53-8af51fd8b577","ios":"levelo://app?vid=008c8db6-be2b-43ce-8a53-8af51fd8b577"},"vehicle_type_id":"4","last_reported":1742850543,"current_range_meters":11600,"station_id":"ce4bhn12rcd13ifvqgpg","pricing_plan_id":"cebpf4jnsgd1na2vs0mg"},{"bike_id":"ccd5323e-e780-4439-b4c7-d22e740499a4","system_id":"levelo_inurba_marseille","lat":43.27904,"lon":5.38018,"is_reserved":false,"is_disabled":false,"rental_uris":{"android":"levelo://app?vid=ccd5323e-e780-4439-b4c7-d22e740499a4","ios":"levelo://app?vid=ccd5323e-e780-4439-b4c7-d22e740499a4"},"vehicle_type_id":"4","last_reported":1742850543,"current_range_meters":11600,"station_id":"ce4bhf92rcd13ifvqf50","pricing_plan_id":"cebpf4jnsgd1na2vs0mg"},{"bike_id":"4fe82e65-425c-453e-9e10-5bbbfdd7a6b8","system_id":"levelo_inurba_marseille","lat":43.24176,"lon":5.39732,"is_reserved":false,"is_disabled":false,"rental_uris":{"android":"levelo://app?vid=4fe82e65-425c-453e-9e10-5bbbfdd7a6b8","ios":"levelo://app?vid=4fe82e65-425c-453e-9e10-5bbbfdd7a6b8"},"vehicle_type_id":"4","last_reported":1742850543,"current_range_meters":11600,"station_id":"ce4bhn12rcd13ifvqgpg","pricing_plan_id":"cebpf4jnsgd1na2vs0mg"},{"bike_id":"c353c957-fbb8-408a-9097-46c8d6b68074","system_id":"levelo_inurba_marseille","lat":43.2419,"lon":5.39719,"is_reserved":false,"is_disabled":false,"rental_uris":{"android":"levelo://app?vid=c353c957-fbb8-408a-9097-46c8d6b68074","ios":"levelo://app?vid=c353c957-fbb8-408a-9097-46c8d6b68074"},"vehicle_type_id":"4","last_reported":1742850543,"current_range_meters":11600,"station_id":"ce4bhn12rcd13ifvqgpg","pricing_plan_id":"cebpf4jnsgd1na2vs0mg"},{"bike_id":"b640f54f-8d9f-456d-9f73-f6486b8763b8","system_id":"levelo_inurba_marseille","lat":43.309,"lon":5.37098,"is_reserved":false,"is_disabled":false,"rental_uris":{"android":"levelo://app?vid=b640f54f-8d9f-456d-9f73-f6486b8763b8","ios":"levelo://app?vid=b640f54f-8d9f-456d-9f73-f6486b8763b8"},"vehicle_type_id":"4","last_reported":1742850543,"current_range_meters":11200,"station_id":"ce4bguh2rcd13ifvqckg","pricing_plan_id":"cebpf4jnsgd1na2vs0mg"},{"bike_id":"42331001-9f56-4e3c-a1d0-e9556a3c571c","system_id":"levelo_inurba_marseille","lat":43.30796,"lon":5.38151,"is_reserved":false,"is_disabled":false,"rental_uris":{"android":"levelo://app?vid=42331001-9f56-4e3c-a1d0-e9556a3c571c","ios":"levelo://app?vid=42331001-9f56-4e3c-a1d0-e9556a3c571c"},"vehicle_type_id":"4","last_reported":1742850543,"current_range_meters":11600,"station_id":"ce4bgt12rcd13ifvqce0","pricing_plan_id":"cebpf4jnsgd1na2vs0mg"},{"bike_id":"8871fee1-c30f-4721-bb9f-022f22051a94","system_id":"levelo_inurba_marseille","lat":43.24186,"lon":5.39738,"is_reserved":false,"is_disabled":false,"rental_uris":{"android":"levelo://app?vid=8871fee1-c30f-4721-bb9f-022f22051a94","ios":"levelo://app?vid=8871fee1-c30f-4721-bb9f-022f22051a94"},"vehicle_type_id":"4","last_reported":1742850543,"current_range_meters":12000,"station_id":"ce4bhn12rcd13ifvqgpg","pricing_plan_id":"cebpf4jnsgd1na2vs0mg"},{"bike_id":"b4601df0-b0e0-46ad-afa6-1d44767e23db","system_id":"levelo_inurba_marseille","lat":43.29714,"lon":5.36617,"is_reserved":false,"is_disabled":false,"rental_uris":{"android":"levelo://app?vid=b4601df0-b0e0-46ad-afa6-1d44767e23db","ios":"levelo://app?vid=b4601df0-b0e0-46ad-afa6-1d44767e23db"},"vehicle_type_id":"4","last_reported":1742850543,"current_range_meters":12000,"station_id":"ce4bgn12rcd13ifvqbt0","pricing_plan_id":"cebpf4jnsgd1na2vs0mg"},{"bike_id":"84ac7625-b298-4252-bff8-80b302c2671a","system_id":"levelo_inurba_marseille","lat":43.30887,"lon":5.39659,"is_reserved":false,"is_disabled":false,"rental_uris":{"android":"levelo://app?vid=84ac7625-b298-4252-bff8-80b302c2671a","ios":"levelo://app?vid=84ac7625-b298-4252-bff8-80b302c2671a"},"vehicle_type_id":"4","last_reported":1742850543,"current_range_meters":12000,"station_id":"ce4bh012rcd13ifvqcv0","pricing_plan_id":"cebpf4jnsgd1na2vs0mg"},{"bike_id":"d0ce6a4c-8c1a-4117-b620-bb8816808dbc","system_id":"levelo_inurba_marseille","lat":43.23965,"lon":5.36631,"is_reserved":false,"is_disabled":false,"rental_uris":{"android":"levelo://app?vid=d0ce6a4c-8c1a-4117-b620-bb8816808dbc","ios":"levelo://app?vid=d0ce6a4c-8c1a-4117-b620-bb8816808dbc"},"vehicle_type_id":"4","last_reported":1742850543,"current_range_meters":12000,"station_id":"ce4bhi12rcd13ifvqfp0","pricing_plan_id":"cebpf4jnsgd1na2vs0mg"},{"bike_id":"a5282f74-4fae-4145-92e0-0b61390c0994","system_id":"levelo_inurba_marseille","lat":43.23962,"lon":5.36623,"is_reserved":false,"is_disabled":false,"rental_uris":{"android":"levelo://app?vid=a5282f74-4fae-4145-92e0-0b61390c0994","ios":"levelo://app?vid=a5282f74-4fae-4145-92e0-0b61390c0994"},"vehicle_type_id":"4","last_reported":1742850543,"current_range_meters":12000,"station_id":"ce4bhi12rcd13ifvqfp0","pricing_plan_id":"cebpf4jnsgd1na2vs0mg"},{"bike_id":"a9ede7df-1743-4e40-808d-2fa0d1817681","system_id":"levelo_inurba_marseille","lat":43.27782,"lon":5.40773,"is_reserved":false,"is_disabled":false,"rental_uris":{"android":"levelo://app?vid=a9ede7df-1743-4e40-808d-2fa0d1817681","ios":"levelo://app?vid=a9ede7df-1743-4e40-808d-2fa0d1817681"},"vehicle_type_id":"4","last_reported":1742850543,"current_range_meters":12000,"station_id":"","pricing_plan_id":"cebpf4jnsgd1na2vs0mg"},{"bike_id":"5cced8c2-e3b9-4f6d-88d2-83e105451a94","system_id":"levelo_inurba_marseille","lat":43.26571,"lon":5.39015,"is_reserved":false,"is_disabled":false,"rental_uris":{"android":"levelo://app?vid=5cced8c2-e3b9-4f6d-88d2-83e105451a94","ios":"levelo://app?vid=5cced8c2-e3b9-4f6d-88d2-83e105451a94"},"vehicle_type_id":"4","last_reported":1742850543,"current_range_meters":12000,"station_id":"ce4bhe12rcd13ifvqf30","pricing_plan_id":"cebpf4jnsgd1na2vs0mg"},{"bike_id":"6bb6f1fc-5b4f-4f3d-97c1-f093e7e9a8ef","system_id":"levelo_inurba_marseille","lat":43.23056,"lon":5.35494,"is_reserved":false,"is_disabled":false,"rental_uris":{"android":"levelo://app?vid=6bb6f1fc-5b4f-4f3d-97c1-f093e7e9a8ef","ios":"levelo://app?vid=6bb6f1fc-5b4f-4f3d-97c1-f093e7e9a8ef"},"vehicle_type_id":"4","last_reported":1742850543,"current_range_meters":12000,"station_id":"cpo3342slgdg3j2ifvpg","pricing_plan_id":"cebpf4jnsgd1na2vs0mg"},{"bike_id":"1887fe37-51a0-4284-bd26-ea9ec274ce5e","system_id":"levelo_inurba_marseille","lat":43.2579,"lon":5.41076,"is_reserved":false,"is_disabled":false,"rental_uris":{"android":"levelo://app?vid=1887fe37-51a0-4284-bd26-ea9ec274ce5e","ios":"levelo://app?vid=1887fe37-51a0-4284-bd26-ea9ec274ce5e"},"vehicle_type_id":"4","last_reported":1742850543,"current_range_meters":12400,"station_id":"ce4bhkp2rcd13ifvqgd0","pricing_plan_id":"cebpf4jnsgd1na2vs0mg"},{"bike_id":"ea9a404e-5801-4712-9e40-3ea599f892fb","system_id":"levelo_inurba_marseille","lat":43.31068,"lon":5.38359,"is_reserved":false,"is_disabled":false,"rental_uris":{"android":"levelo://app?vid=ea9a404e-5801-4712-9e40-3ea599f892fb","ios":"levelo://app?vid=ea9a404e-5801-4712-9e40-3ea599f892fb"},"vehicle_type_id":"4","last_reported":1742850543,"current_range_meters":12400,"station_id":"ce4bgv92rcd13ifvqcr0","pricing_plan_id":"cebpf4jnsgd1na2vs0mg"},{"bike_id":"eef58434-f11d-4ef8-9c46-652018e16f5e","system_id":"levelo_inurba_marseille","lat":43.27069,"lon":5.42278,"is_reserved":false,"is_disabled":false,"rental_uris":{"android":"levelo://app?vid=eef58434-f11d-4ef8-9c46-652018e16f5e","ios":"levelo://app?vid=eef58434-f11d-4ef8-9c46-652018e16f5e"},"vehicle_type_id":"4","last_reported":1742850543,"current_range_meters":12400,"station_id":"ce4bhk92rcd13ifvqgb0","pricing_plan_id":"cebpf4jnsgd1na2vs0mg"},{"bike_id":"2c49ac05-b437-4e53-a732-dd335b95df30","system_id":"levelo_inurba_marseille","lat":43.3108,"lon":5.4244,"is_reserved":false,"is_disabled":false,"rental_uris":{"android":"levelo://app?vid=2c49ac05-b437-4e53-a732-dd335b95df30","ios":"levelo://app?vid=2c49ac05-b437-4e53-a732-dd335b95df30"},"vehicle_type_id":"4","last_reported":1742850543,"current_range_meters":12400,"station_id":"","pricing_plan_id":"cebpf4jnsgd1na2vs0mg"},{"bike_id":"0a2fd2bd-0465-4490-8bf0-a948a7c174a7","system_id":"levelo_inurba_marseille","lat":43.26568,"lon":5.39053,"is_reserved":false,"is_disabled":true,"rental_uris":{"android":"levelo://app?vid=0a2fd2bd-0465-4490-8bf0-a948a7c174a7","ios":"levelo://app?vid=0a2fd2bd-0465-4490-8bf0-a948a7c174a7"},"vehicle_type_id":"4","last_reported":1742850543,"current_range_meters":12400,"station_id":"ce4bhe12rcd13ifvqf30","pricing_plan_id":"cebpf4jnsgd1na2vs0mg"},{"bike_id":"6457a7c3-e47d-4e22-a706-55621349603c","system_id":"levelo_inurba_marseille","lat":43.26066,"lon":5.39415,"is_reserved":false,"is_disabled":false,"rental_uris":{"android":"levelo://app?vid=6457a7c3-e47d-4e22-a706-55621349603c","ios":"levelo://app?vid=6457a7c3-e47d-4e22-a706-55621349603c"},"vehicle_type_id":"4","last_reported":1742850543,"current_range_meters":12400,"station_id":"ce4bhh92rcd13ifvqfj0","pricing_plan_id":"cebpf4jnsgd1na2vs0mg"},{"bike_id":"134a205d-46ae-4dee-8c1a-5e151dd78ec4","system_id":"levelo_inurba_marseille","lat":43.33005,"lon":5.38988,"is_reserved":false,"is_disabled":false,"rental_uris":{"android":"levelo://app?vid=134a205d-46ae-4dee-8c1a-5e151dd78ec4","ios":"levelo://app?vid=134a205d-46ae-4dee-8c1a-5e151dd78ec4"},"vehicle_type_id":"4","last_reported":1742850543,"current_range_meters":12800,"station_id":"ce4bhr92rcd13ifvqhrg","pricing_plan_id":"cebpf4jnsgd1na2vs0mg"},{"bike_id":"e3f76d45-4904-44a7-aac2-e04832e991bb","system_id":"levelo_inurba_marseille","lat":43.29976,"lon":5.41322,"is_reserved":false,"is_disabled":true,"rental_uris":{"android":"levelo://app?vid=e3f76d45-4904-44a7-aac2-e04832e991bb","ios":"levelo://app?vid=e3f76d45-4904-44a7-aac2-e04832e991bb"},"vehicle_type_id":"4","last_reported":1742850543,"current_range_meters":12800,"station_id":"","pricing_plan_id":"cebpf4jnsgd1na2vs0mg"},{"bike_id":"7da1780c-a707-4e5c-9536-83f171012129","system_id":"levelo_inurba_marseille","lat":43.31076,"lon":5.38343,"is_reserved":false,"is_disabled":false,"rental_uris":{"android":"levelo://app?vid=7da1780c-a707-4e5c-9536-83f171012129","ios":"levelo://app?vid=7da1780c-a707-4e5c-9536-83f171012129"},"vehicle_type_id":"4","last_reported":1742850543,"current_range_meters":12800,"station_id":"ce4bgv92rcd13ifvqcr0","pricing_plan_id":"cebpf4jnsgd1na2vs0mg"},{"bike_id":"2f3e2a92-1301-4a27-8eaa-7b0ea525530e","system_id":"levelo_inurba_marseille","lat":43.31693,"lon":5.43726,"is_reserved":false,"is_disabled":false,"rental_uris":{"android":"levelo://app?vid=2f3e2a92-1301-4a27-8eaa-7b0ea525530e","ios":"levelo://app?vid=2f3e2a92-1301-4a27-8eaa-7b0ea525530e"},"vehicle_type_id":"4","last_reported":1742850543,"current_range_meters":12800,"station_id":"ce4bhp92rcd13ifvqhcg","pricing_plan_id":"cebpf4jnsgd1na2vs0mg"},{"bike_id":"b59e17bc-7ab3-40a5-ac96-2f844ab7e903","system_id":"levelo_inurba_marseille","lat":43.31754,"lon":5.39022,"is_reserved":false,"is_disabled":false,"rental_uris":{"android":"levelo://app?vid=b59e17bc-7ab3-40a5-ac96-2f844ab7e903","ios":"levelo://app?vid=b59e17bc-7ab3-40a5-ac96-2f844ab7e903"},"vehicle_type_id":"4","last_reported":1742850543,"current_range_meters":12800,"station_id":"ce4bhqp2rcd13ifvqhng","pricing_plan_id":"cebpf4jnsgd1na2vs0mg"},{"bike_id":"76af26da-9b18-45d4-b765-2a2760095f1d","system_id":"levelo_inurba_marseille","lat":43.32658,"lon":5.40991,"is_reserved":false,"is_disabled":false,"rental_uris":{"android":"levelo://app?vid=76af26da-9b18-45d4-b765-2a2760095f1d","ios":"levelo://app?vid=76af26da-9b18-45d4-b765-2a2760095f1d"},"vehicle_type_id":"4","last_reported":1742850543,"current_range_meters":12800,"station_id":"ce4bhpp2rcd13ifvqhgg","pricing_plan_id":"cebpf4jnsgd1na2vs0mg"},{"bike_id":"4bf82290-6c34-4724-be7a-fccc387df49e","system_id":"levelo_inurba_marseille","lat":43.314762,"lon":5.372586,"is_reserved":false,"is_disabled":false,"rental_uris":{"android":"levelo://app?vid=4bf82290-6c34-4724-be7a-fccc387df49e","ios":"levelo://app?vid=4bf82290-6c34-4724-be7a-fccc387df49e"},"vehicle_type_id":"4","last_reported":1742850543,"current_range_meters":12800,"station_id":"ce4bgt12rcd13ifvqcd0","pricing_plan_id":"cebpf4jnsgd1na2vs0mg"},{"bike_id":"552fb8ff-98a7-4106-b06d-1880af44f89c","system_id":"levelo_inurba_marseille","lat":43.30087,"lon":5.39073,"is_reserved":false,"is_disabled":false,"rental_uris":{"android":"levelo://app?vid=552fb8ff-98a7-4106-b06d-1880af44f89c","ios":"levelo://app?vid=552fb8ff-98a7-4106-b06d-1880af44f89c"},"vehicle_type_id":"4","last_reported":1742850543,"current_range_meters":12800,"station_id":"ce4bh192rcd13ifvqdb0","pricing_plan_id":"cebpf4jnsgd1na2vs0mg"},{"bike_id":"a0f3c604-addd-451e-8f22-592edd23fe37","system_id":"levelo_inurba_marseille","lat":43.26563,"lon":5.39022,"is_reserved":false,"is_disabled":false,"rental_uris":{"android":"levelo://app?vid=a0f3c604-addd-451e-8f22-592edd23fe37","ios":"levelo://app?vid=a0f3c604-addd-451e-8f22-592edd23fe37"},"vehicle_type_id":"4","last_reported":1742850543,"current_range_meters":12800,"station_id":"ce4bhe12rcd13ifvqf30","pricing_plan_id":"cebpf4jnsgd1na2vs0mg"},{"bike_id":"9ef54973-d7d7-4db7-9359-823fb08a91ad","system_id":"levelo_inurba_marseille","lat":43.23953,"lon":5.36621,"is_reserved":false,"is_disabled":false,"rental_uris":{"android":"levelo://app?vid=9ef54973-d7d7-4db7-9359-823fb08a91ad","ios":"levelo://app?vid=9ef54973-d7d7-4db7-9359-823fb08a91ad"},"vehicle_type_id":"4","last_reported":1742850543,"current_range_meters":12800,"station_id":"ce4bhi12rcd13ifvqfp0","pricing_plan_id":"cebpf4jnsgd1na2vs0mg"},{"bike_id":"fee8dabf-4af3-4655-9fe1-7a1172d14609","system_id":"levelo_inurba_marseille","lat":43.27818,"lon":5.40707,"is_reserved":false,"is_disabled":false,"rental_uris":{"android":"levelo://app?vid=fee8dabf-4af3-4655-9fe1-7a1172d14609","ios":"levelo://app?vid=fee8dabf-4af3-4655-9fe1-7a1172d14609"},"vehicle_type_id":"4","last_reported":1742850543,"current_range_meters":12800,"station_id":"ce4bhnh2rcd13ifvqgtg","pricing_plan_id":"cebpf4jnsgd1na2vs0mg"},{"bike_id":"8f208df7-81e0-45c5-bd98-a49c85a38fa2","system_id":"levelo_inurba_marseille","lat":43.30316,"lon":5.36897,"is_reserved":false,"is_disabled":false,"rental_uris":{"android":"levelo://app?vid=8f208df7-81e0-45c5-bd98-a49c85a38fa2","ios":"levelo://app?vid=8f208df7-81e0-45c5-bd98-a49c85a38fa2"},"vehicle_type_id":"4","last_reported":1742850543,"current_range_meters":12800,"station_id":"ce4bgqh2rcd13ifvqc5g","pricing_plan_id":"cebpf4jnsgd1na2vs0mg"},{"bike_id":"95b42187-a238-4522-8177-b58ab5963f5c","system_id":"levelo_inurba_marseille","lat":43.30926,"lon":5.40138,"is_reserved":false,"is_disabled":false,"rental_uris":{"android":"levelo://app?vid=95b42187-a238-4522-8177-b58ab5963f5c","ios":"levelo://app?vid=95b42187-a238-4522-8177-b58ab5963f5c"},"vehicle_type_id":"4","last_reported":1742850543,"current_range_meters":12800,"station_id":"ce4bgvp2rcd13ifvqct0","pricing_plan_id":"cebpf4jnsgd1na2vs0mg"},{"bike_id":"6adb5407-e228-44f4-a1da-80d9852b3164","system_id":"levelo_inurba_marseille","lat":43.25011,"lon":5.38913,"is_reserved":false,"is_disabled":false,"rental_uris":{"android":"levelo://app?vid=6adb5407-e228-44f4-a1da-80d9852b3164","ios":"levelo://app?vid=6adb5407-e228-44f4-a1da-80d9852b3164"},"vehicle_type_id":"4","last_reported":1742850543,"current_range_meters":12800,"station_id":"ce4bhgp2rcd13ifvqfd0","pricing_plan_id":"cebpf4jnsgd1na2vs0mg"},{"bike_id":"cfba7878-c036-461e-a1a6-18cd6c9a5373","system_id":"levelo_inurba_marseille","lat":43.30248,"lon":5.4005,"is_reserved":false,"is_disabled":false,"rental_uris":{"android":"levelo://app?vid=cfba7878-c036-461e-a1a6-18cd6c9a5373","ios":"levelo://app?vid=cfba7878-c036-461e-a1a6-18cd6c9a5373"},"vehicle_type_id":"4","last_reported":1742850543,"current_range_meters":12800,"station_id":"","pricing_plan_id":"cebpf4jnsgd1na2vs0mg"},{"bike_id":"faf455aa-a234-40c2-8b09-bb16b410ef3f","system_id":"levelo_inurba_marseille","lat":43.28466,"lon":5.35872,"is_reserved":false,"is_disabled":false,"rental_uris":{"android":"levelo://app?vid=faf455aa-a234-40c2-8b09-bb16b410ef3f","ios":"levelo://app?vid=faf455aa-a234-40c2-8b09-bb16b410ef3f"},"vehicle_type_id":"4","last_reported":1742850543,"current_range_meters":13600,"station_id":"ce4bhah2rcd13ifvqei0","pricing_plan_id":"cebpf4jnsgd1na2vs0mg"},{"bike_id":"78f4fff1-6036-42ea-98f4-257baf5ff20b","system_id":"levelo_inurba_marseille","lat":43.31187,"lon":5.38698,"is_reserved":false,"is_disabled":false,"rental_uris":{"android":"levelo://app?vid=78f4fff1-6036-42ea-98f4-257baf5ff20b","ios":"levelo://app?vid=78f4fff1-6036-42ea-98f4-257baf5ff20b"},"vehicle_type_id":"4","last_reported":1742850543,"current_range_meters":13600,"station_id":"ce4bgv12rcd13ifvqcp0","pricing_plan_id":"cebpf4jnsgd1na2vs0mg"},{"bike_id":"b713c937-1b64-4737-8dbd-ff46df1e71b5","system_id":"levelo_inurba_marseille","lat":43.29267,"lon":5.36854,"is_reserved":false,"is_disabled":false,"rental_uris":{"android":"levelo://app?vid=b713c937-1b64-4737-8dbd-ff46df1e71b5","ios":"levelo://app?vid=b713c937-1b64-4737-8dbd-ff46df1e71b5"},"vehicle_type_id":"4","last_reported":1742850543,"current_range_meters":13600,"station_id":"ce4bhbp2rcd13ifvqesg","pricing_plan_id":"cebpf4jnsgd1na2vs0mg"},{"bike_id":"6cacd646-d929-49ec-bc8d-32b19dcf3130","system_id":"levelo_inurba_marseille","lat":43.28063,"lon":5.39727,"is_reserved":false,"is_disabled":false,"rental_uris":{"android":"levelo://app?vid=6cacd646-d929-49ec-bc8d-32b19dcf3130","ios":"levelo://app?vid=6cacd646-d929-49ec-bc8d-32b19dcf3130"},"vehicle_type_id":"4","last_reported":1742850543,"current_range_meters":13600,"station_id":"ce4bho12rcd13ifvqh2g","pricing_plan_id":"cebpf4jnsgd1na2vs0mg"},{"bike_id":"c2302460-b7bf-4409-8c4d-b7709aba90b3","system_id":"levelo_inurba_marseille","lat":43.28376,"lon":5.3864,"is_reserved":false,"is_disabled":false,"rental_uris":{"android":"levelo://app?vid=c2302460-b7bf-4409-8c4d-b7709aba90b3","ios":"levelo://app?vid=c2302460-b7bf-4409-8c4d-b7709aba90b3"},"vehicle_type_id":"4","last_reported":1742850543,"current_range_meters":13600,"station_id":"ce4bh492rcd13ifvqdvg","pricing_plan_id":"cebpf4jnsgd1na2vs0mg"},{"bike_id":"1cd0e0bf-6fff-4d8c-86cf-a6eae67b1e4c","system_id":"levelo_inurba_marseille","lat":43.29933,"lon":5.3654,"is_reserved":false,"is_disabled":false,"rental_uris":{"android":"levelo://app?vid=1cd0e0bf-6fff-4d8c-86cf-a6eae67b1e4c","ios":"levelo://app?vid=1cd0e0bf-6fff-4d8c-86cf-a6eae67b1e4c"},"vehicle_type_id":"4","last_reported":1742850543,"current_range_meters":13600,"station_id":"ce4bgm92rcd13ifvqbr0","pricing_plan_id":"cebpf4jnsgd1na2vs0mg"},{"bike_id":"b82c062b-ed6f-4114-8bdf-6d996a293c90","system_id":"levelo_inurba_marseille","lat":43.32123,"lon":5.3679,"is_reserved":false,"is_disabled":false,"rental_uris":{"android":"levelo://app?vid=b82c062b-ed6f-4114-8bdf-6d996a293c90","ios":"levelo://app?vid=b82c062b-ed6f-4114-8bdf-6d996a293c90"},"vehicle_type_id":"4","last_reported":1742850543,"current_range_meters":13600,"station_id":"ce4bhrh2rcd13ifvqhug","pricing_plan_id":"cebpf4jnsgd1na2vs0mg"},{"bike_id":"45926470-0c73-4749-a366-16797547dd07","system_id":"levelo_inurba_marseille","lat":43.29577,"lon":5.39974,"is_reserved":false,"is_disabled":false,"rental_uris":{"android":"levelo://app?vid=45926470-0c73-4749-a366-16797547dd07","ios":"levelo://app?vid=45926470-0c73-4749-a366-16797547dd07"},"vehicle_type_id":"4","last_reported":1742850543,"current_range_meters":13600,"station_id":"ce4bh312rcd13ifvqdj0","pricing_plan_id":"cebpf4jnsgd1na2vs0mg"},{"bike_id":"7c2de8e8-262f-4f95-b05b-b7ebfc116ad0","system_id":"levelo_inurba_marseille","lat":43.28724,"lon":5.36085,"is_reserved":false,"is_disabled":false,"rental_uris":{"android":"levelo://app?vid=7c2de8e8-262f-4f95-b05b-b7ebfc116ad0","ios":"levelo://app?vid=7c2de8e8-262f-4f95-b05b-b7ebfc116ad0"},"vehicle_type_id":"4","last_reported":1742850543,"current_range_meters":13600,"station_id":"cki0cbj6b192h4jlfktg","pricing_plan_id":"cebpf4jnsgd1na2vs0mg"},{"bike_id":"8772847d-49d3-4c26-b827-fa0194087d57","system_id":"levelo_inurba_marseille","lat":43.28456,"lon":5.35882,"is_reserved":false,"is_disabled":false,"rental_uris":{"android":"levelo://app?vid=8772847d-49d3-4c26-b827-fa0194087d57","ios":"levelo://app?vid=8772847d-49d3-4c26-b827-fa0194087d57"},"vehicle_type_id":"4","last_reported":1742850543,"current_range_meters":13600,"station_id":"ce4bhah2rcd13ifvqei0","pricing_plan_id":"cebpf4jnsgd1na2vs0mg"},{"bike_id":"89e75ed9-7f20-48f7-ad37-e0033e47c633","system_id":"levelo_inurba_marseille","lat":43.2465,"lon":5.38878,"is_reserved":false,"is_disabled":false,"rental_uris":{"android":"levelo://app?vid=89e75ed9-7f20-48f7-ad37-e0033e47c633","ios":"levelo://app?vid=89e75ed9-7f20-48f7-ad37-e0033e47c633"},"vehicle_type_id":"4","last_reported":1742850543,"current_range_meters":13600,"station_id":"ce4bhg12rcd13ifvqf60","pricing_plan_id":"cebpf4jnsgd1na2vs0mg"},{"bike_id":"48c69452-0c1c-4c3b-b79c-f6bd70623efb","system_id":"levelo_inurba_marseille","lat":43.31882,"lon":5.40748,"is_reserved":false,"is_disabled":false,"rental_uris":{"android":"levelo://app?vid=48c69452-0c1c-4c3b-b79c-f6bd70623efb","ios":"levelo://app?vid=48c69452-0c1c-4c3b-b79c-f6bd70623efb"},"vehicle_type_id":"4","last_reported":1742850543,"current_range_meters":13600,"station_id":"ce4bhq12rcd13ifvqhig","pricing_plan_id":"cebpf4jnsgd1na2vs0mg"},{"bike_id":"a9cb07f4-2358-4a55-b94b-5d07e7094af2","system_id":"levelo_inurba_marseille","lat":43.27836,"lon":5.39212,"is_reserved":false,"is_disabled":false,"rental_uris":{"android":"levelo://app?vid=a9cb07f4-2358-4a55-b94b-5d07e7094af2","ios":"levelo://app?vid=a9cb07f4-2358-4a55-b94b-5d07e7094af2"},"vehicle_type_id":"4","last_reported":1742850543,"current_range_meters":14000,"station_id":"ce4bhjp2rcd13ifvqga0","pricing_plan_id":"cebpf4jnsgd1na2vs0mg"},{"bike_id":"d7c9b119-99cc-4acd-80c4-6ecaf67a26b1","system_id":"levelo_inurba_marseille","lat":43.23091,"lon":5.35461,"is_reserved":false,"is_disabled":false,"rental_uris":{"android":"levelo://app?vid=d7c9b119-99cc-4acd-80c4-6ecaf67a26b1","ios":"levelo://app?vid=d7c9b119-99cc-4acd-80c4-6ecaf67a26b1"},"vehicle_type_id":"4","last_reported":1742850543,"current_range_meters":14000,"station_id":"cpo3342slgdg3j2ifvpg","pricing_plan_id":"cebpf4jnsgd1na2vs0mg"},{"bike_id":"c67b1c67-c041-427c-95f8-4becb2af791c","system_id":"levelo_inurba_marseille","lat":43.30645,"lon":5.40085,"is_reserved":false,"is_disabled":false,"rental_uris":{"android":"levelo://app?vid=c67b1c67-c041-427c-95f8-4becb2af791c","ios":"levelo://app?vid=c67b1c67-c041-427c-95f8-4becb2af791c"},"vehicle_type_id":"4","last_reported":1742850543,"current_range_meters":14000,"station_id":"ce4bh112rcd13ifvqda0","pricing_plan_id":"cebpf4jnsgd1na2vs0mg"},{"bike_id":"5356bea1-2e47-434a-af4b-e0287f4be96f","system_id":"levelo_inurba_marseille","lat":43.3079,"lon":5.38153,"is_reserved":false,"is_disabled":false,"rental_uris":{"android":"levelo://app?vid=5356bea1-2e47-434a-af4b-e0287f4be96f","ios":"levelo://app?vid=5356bea1-2e47-434a-af4b-e0287f4be96f"},"vehicle_type_id":"4","last_reported":1742850543,"current_range_meters":14000,"station_id":"ce4bgt12rcd13ifvqce0","pricing_plan_id":"cebpf4jnsgd1na2vs0mg"},{"bike_id":"ddad4632-6929-4629-9bc8-25db62ffd75b","system_id":"levelo_inurba_marseille","lat":43.286379,"lon":5.367046,"is_reserved":false,"is_disabled":false,"rental_uris":{"android":"levelo://app?vid=ddad4632-6929-4629-9bc8-25db62ffd75b","ios":"levelo://app?vid=ddad4632-6929-4629-9bc8-25db62ffd75b"},"vehicle_type_id":"4","last_reported":1742850543,"current_range_meters":14000,"station_id":"ce4bha12rcd13ifvqef0","pricing_plan_id":"cebpf4jnsgd1na2vs0mg"},{"bike_id":"75433386-527c-4886-a740-aad143890352","system_id":"levelo_inurba_marseille","lat":43.27815,"lon":5.40712,"is_reserved":false,"is_disabled":false,"rental_uris":{"android":"levelo://app?vid=75433386-527c-4886-a740-aad143890352","ios":"levelo://app?vid=75433386-527c-4886-a740-aad143890352"},"vehicle_type_id":"4","last_reported":1742850543,"current_range_meters":14000,"station_id":"ce4bhnh2rcd13ifvqgtg","pricing_plan_id":"cebpf4jnsgd1na2vs0mg"},{"bike_id":"4ce487c6-19fa-4f48-9bdd-3b50e801366f","system_id":"levelo_inurba_marseille","lat":43.27948,"lon":5.38736,"is_reserved":false,"is_disabled":false,"rental_uris":{"android":"levelo://app?vid=4ce487c6-19fa-4f48-9bdd-3b50e801366f","ios":"levelo://app?vid=4ce487c6-19fa-4f48-9bdd-3b50e801366f"},"vehicle_type_id":"4","last_reported":1742850543,"current_range_meters":14000,"station_id":"ce4bhg12rcd13ifvqf80","pricing_plan_id":"cebpf4jnsgd1na2vs0mg"},{"bike_id":"b28ecb00-2b9b-4665-8ad5-1aeb61554a5a","system_id":"levelo_inurba_marseille","lat":43.29887,"lon":5.39747,"is_reserved":false,"is_disabled":false,"rental_uris":{"android":"levelo://app?vid=b28ecb00-2b9b-4665-8ad5-1aeb61554a5a","ios":"levelo://app?vid=b28ecb00-2b9b-4665-8ad5-1aeb61554a5a"},"vehicle_type_id":"4","last_reported":1742850543,"current_range_meters":14400,"station_id":"ce4bh0h2rcd13ifvqd50","pricing_plan_id":"cebpf4jnsgd1na2vs0mg"},{"bike_id":"11638dcf-c183-4940-bebb-985f736789bf","system_id":"levelo_inurba_marseille","lat":43.2766,"lon":5.38876,"is_reserved":false,"is_disabled":true,"rental_uris":{"android":"levelo://app?vid=11638dcf-c183-4940-bebb-985f736789bf","ios":"levelo://app?vid=11638dcf-c183-4940-bebb-985f736789bf"},"vehicle_type_id":"4","last_reported":1742850543,"current_range_meters":14400,"station_id":"ce4bhi12rcd13ifvqfo0","pricing_plan_id":"cebpf4jnsgd1na2vs0mg"},{"bike_id":"a845b8cd-afc5-4207-a0a5-5c59cb022a3b","system_id":"levelo_inurba_marseille","lat":43.28611,"lon":5.35104,"is_reserved":false,"is_disabled":false,"rental_uris":{"android":"levelo://app?vid=a845b8cd-afc5-4207-a0a5-5c59cb022a3b","ios":"levelo://app?vid=a845b8cd-afc5-4207-a0a5-5c59cb022a3b"},"vehicle_type_id":"4","last_reported":1742850543,"current_range_meters":14400,"station_id":"ce4bhch2rcd13ifvqeug","pricing_plan_id":"cebpf4jnsgd1na2vs0mg"},{"bike_id":"b07ca6c2-3c69-49e0-b860-ed8daa7238e0","system_id":"levelo_inurba_marseille","lat":43.30599,"lon":5.37231,"is_reserved":false,"is_disabled":false,"rental_uris":{"android":"levelo://app?vid=b07ca6c2-3c69-49e0-b860-ed8daa7238e0","ios":"levelo://app?vid=b07ca6c2-3c69-49e0-b860-ed8daa7238e0"},"vehicle_type_id":"4","last_reported":1742850543,"current_range_meters":14400,"station_id":"ce4bgqh2rcd13ifvqc4g","pricing_plan_id":"cebpf4jnsgd1na2vs0mg"},{"bike_id":"74406c35-ee35-437d-be26-2d7711378046","system_id":"levelo_inurba_marseille","lat":43.3236,"lon":5.36771,"is_reserved":false,"is_disabled":false,"rental_uris":{"android":"levelo://app?vid=74406c35-ee35-437d-be26-2d7711378046","ios":"levelo://app?vid=74406c35-ee35-437d-be26-2d7711378046"},"vehicle_type_id":"4","last_reported":1742850543,"current_range_meters":14400,"station_id":"ce4bhsh2rcd13ifvqi2g","pricing_plan_id":"cebpf4jnsgd1na2vs0mg"},{"bike_id":"0ccd79b2-51ea-4b93-86a9-89925d01380f","system_id":"levelo_inurba_marseille","lat":43.23963,"lon":5.36636,"is_reserved":false,"is_disabled":false,"rental_uris":{"android":"levelo://app?vid=0ccd79b2-51ea-4b93-86a9-89925d01380f","ios":"levelo://app?vid=0ccd79b2-51ea-4b93-86a9-89925d01380f"},"vehicle_type_id":"4","last_reported":1742850543,"current_range_meters":14400,"station_id":"ce4bhi12rcd13ifvqfp0","pricing_plan_id":"cebpf4jnsgd1na2vs0mg"},{"bike_id":"31853493-08cd-48ca-8af6-a1f588cefafe","system_id":"levelo_inurba_marseille","lat":43.25846,"lon":5.3944,"is_reserved":false,"is_disabled":false,"rental_uris":{"android":"levelo://app?vid=31853493-08cd-48ca-8af6-a1f588cefafe","ios":"levelo://app?vid=31853493-08cd-48ca-8af6-a1f588cefafe"},"vehicle_type_id":"4","last_reported":1742850543,"current_range_meters":14400,"station_id":"ce4bhip2rcd13ifvqft0","pricing_plan_id":"cebpf4jnsgd1na2vs0mg"},{"bike_id":"8583bcae-e817-4db7-ab92-448c595780ea","system_id":"levelo_inurba_marseille","lat":43.32943,"lon":5.39032,"is_reserved":false,"is_disabled":false,"rental_uris":{"android":"levelo://app?vid=8583bcae-e817-4db7-ab92-448c595780ea","ios":"levelo://app?vid=8583bcae-e817-4db7-ab92-448c595780ea"},"vehicle_type_id":"4","last_reported":1742850543,"current_range_meters":14400,"station_id":"","pricing_plan_id":"cebpf4jnsgd1na2vs0mg"},{"bike_id":"451c37a8-3b73-45a0-852a-225ea6f2986a","system_id":"levelo_inurba_marseille","lat":43.30544,"lon":5.38428,"is_reserved":false,"is_disabled":false,"rental_uris":{"android":"levelo://app?vid=451c37a8-3b73-45a0-852a-225ea6f2986a","ios":"levelo://app?vid=451c37a8-3b73-45a0-852a-225ea6f2986a"},"vehicle_type_id":"4","last_reported":1742850543,"current_range_meters":14800,"station_id":"ce4bgg92rcd13ifvqb30","pricing_plan_id":"cebpf4jnsgd1na2vs0mg"},{"bike_id":"670214b8-0c1a-44c6-9ec1-e4e7883cf534","system_id":"levelo_inurba_marseille","lat":43.30539,"lon":5.36561,"is_reserved":false,"is_disabled":false,"rental_uris":{"android":"levelo://app?vid=670214b8-0c1a-44c6-9ec1-e4e7883cf534","ios":"levelo://app?vid=670214b8-0c1a-44c6-9ec1-e4e7883cf534"},"vehicle_type_id":"4","last_reported":1742850543,"current_range_meters":14800,"station_id":"ce4bgs12rcd13ifvqcag","pricing_plan_id":"cebpf4jnsgd1na2vs0mg"},{"bike_id":"e1e35c11-11be-4d6b-9a98-3de91e1bd819","system_id":"levelo_inurba_marseille","lat":43.32479,"lon":5.36564,"is_reserved":false,"is_disabled":false,"rental_uris":{"android":"levelo://app?vid=e1e35c11-11be-4d6b-9a98-3de91e1bd819","ios":"levelo://app?vid=e1e35c11-11be-4d6b-9a98-3de91e1bd819"},"vehicle_type_id":"4","last_reported":1742850543,"current_range_meters":14800,"station_id":"ce4bhs12rcd13ifvqhvg","pricing_plan_id":"cebpf4jnsgd1na2vs0mg"},{"bike_id":"18a7fec5-cd4f-470b-b4aa-49a452d96c3f","system_id":"levelo_inurba_marseille","lat":43.30616,"lon":5.39365,"is_reserved":false,"is_disabled":true,"rental_uris":{"android":"levelo://app?vid=18a7fec5-cd4f-470b-b4aa-49a452d96c3f","ios":"levelo://app?vid=18a7fec5-cd4f-470b-b4aa-49a452d96c3f"},"vehicle_type_id":"4","last_reported":1742850543,"current_range_meters":14800,"station_id":"ce4bh0p2rcd13ifvqd80","pricing_plan_id":"cebpf4jnsgd1na2vs0mg"},{"bike_id":"dea1f70c-3a59-4563-bb09-a9d3b04a8744","system_id":"levelo_inurba_marseille","lat":43.2586,"lon":5.3891,"is_reserved":false,"is_disabled":false,"rental_uris":{"android":"levelo://app?vid=dea1f70c-3a59-4563-bb09-a9d3b04a8744","ios":"levelo://app?vid=dea1f70c-3a59-4563-bb09-a9d3b04a8744"},"vehicle_type_id":"4","last_reported":1742850543,"current_range_meters":14800,"station_id":"","pricing_plan_id":"cebpf4jnsgd1na2vs0mg"},{"bike_id":"2f95d84a-f03d-40d7-98e6-71c071e2bbde","system_id":"levelo_inurba_marseille","lat":43.2808,"lon":5.39651,"is_reserved":false,"is_disabled":false,"rental_uris":{"android":"levelo://app?vid=2f95d84a-f03d-40d7-98e6-71c071e2bbde","ios":"levelo://app?vid=2f95d84a-f03d-40d7-98e6-71c071e2bbde"},"vehicle_type_id":"4","last_reported":1742850543,"current_range_meters":14800,"station_id":"ce4bho12rcd13ifvqh2g","pricing_plan_id":"cebpf4jnsgd1na2vs0mg"},{"bike_id":"9d901bcb-7adf-402a-b67f-43b2cf34de78","system_id":"levelo_inurba_marseille","lat":43.28728,"lon":5.36081,"is_reserved":false,"is_disabled":false,"rental_uris":{"android":"levelo://app?vid=9d901bcb-7adf-402a-b67f-43b2cf34de78","ios":"levelo://app?vid=9d901bcb-7adf-402a-b67f-43b2cf34de78"},"vehicle_type_id":"4","last_reported":1742850543,"current_range_meters":14800,"station_id":"cki0cbj6b192h4jlfktg","pricing_plan_id":"cebpf4jnsgd1na2vs0mg"},{"bike_id":"0d89eca0-5671-404f-88cc-d263b1555cb5","system_id":"levelo_inurba_marseille","lat":43.25722,"lon":5.41107,"is_reserved":false,"is_disabled":false,"rental_uris":{"android":"levelo://app?vid=0d89eca0-5671-404f-88cc-d263b1555cb5","ios":"levelo://app?vid=0d89eca0-5671-404f-88cc-d263b1555cb5"},"vehicle_type_id":"4","last_reported":1742850543,"current_range_meters":14800,"station_id":"","pricing_plan_id":"cebpf4jnsgd1na2vs0mg"},{"bike_id":"301cdb23-62cf-4df3-a8d1-f5d3d454491c","system_id":"levelo_inurba_marseille","lat":43.28031,"lon":5.36948,"is_reserved":false,"is_disabled":false,"rental_uris":{"android":"levelo://app?vid=301cdb23-62cf-4df3-a8d1-f5d3d454491c","ios":"levelo://app?vid=301cdb23-62cf-4df3-a8d1-f5d3d454491c"},"vehicle_type_id":"4","last_reported":1742850543,"current_range_meters":14800,"station_id":"ce4bha12rcd13ifvqef0","pricing_plan_id":"cebpf4jnsgd1na2vs0mg"},{"bike_id":"28d8f750-b4b8-4384-a577-be01aab0eac5","system_id":"levelo_inurba_marseille","lat":43.28464,"lon":5.38421,"is_reserved":false,"is_disabled":false,"rental_uris":{"android":"levelo://app?vid=28d8f750-b4b8-4384-a577-be01aab0eac5","ios":"levelo://app?vid=28d8f750-b4b8-4384-a577-be01aab0eac5"},"vehicle_type_id":"4","last_reported":1742850543,"current_range_meters":15200,"station_id":"ce4bh512rcd13ifvqe3g","pricing_plan_id":"cebpf4jnsgd1na2vs0mg"},{"bike_id":"844d3370-21e5-4de2-9d45-2b091e1157d6","system_id":"levelo_inurba_marseille","lat":43.2396,"lon":5.36641,"is_reserved":false,"is_disabled":false,"rental_uris":{"android":"levelo://app?vid=844d3370-21e5-4de2-9d45-2b091e1157d6","ios":"levelo://app?vid=844d3370-21e5-4de2-9d45-2b091e1157d6"},"vehicle_type_id":"4","last_reported":1742850543,"current_range_meters":15200,"station_id":"ce4bhi12rcd13ifvqfp0","pricing_plan_id":"cebpf4jnsgd1na2vs0mg"},{"bike_id":"16d1a1e8-6833-46ef-8ac2-dd05daf383fb","system_id":"levelo_inurba_marseille","lat":43.27124,"lon":5.41708,"is_reserved":false,"is_disabled":false,"rental_uris":{"android":"levelo://app?vid=16d1a1e8-6833-46ef-8ac2-dd05daf383fb","ios":"levelo://app?vid=16d1a1e8-6833-46ef-8ac2-dd05daf383fb"},"vehicle_type_id":"4","last_reported":1742850543,"current_range_meters":15200,"station_id":"","pricing_plan_id":"cebpf4jnsgd1na2vs0mg"},{"bike_id":"eecf72a5-1da5-489e-9b7b-9c47af0a4653","system_id":"levelo_inurba_marseille","lat":43.31323,"lon":5.39687,"is_reserved":false,"is_disabled":false,"rental_uris":{"android":"levelo://app?vid=eecf72a5-1da5-489e-9b7b-9c47af0a4653","ios":"levelo://app?vid=eecf72a5-1da5-489e-9b7b-9c47af0a4653"},"vehicle_type_id":"4","last_reported":1742850543,"current_range_meters":15200,"station_id":"ce4bgvp2rcd13ifvqcu0","pricing_plan_id":"cebpf4jnsgd1na2vs0mg"},{"bike_id":"7fe0c669-25a5-42e0-9ce2-dd43cabfc55e","system_id":"levelo_inurba_marseille","lat":43.29791,"lon":5.404,"is_reserved":false,"is_disabled":false,"rental_uris":{"android":"levelo://app?vid=7fe0c669-25a5-42e0-9ce2-dd43cabfc55e","ios":"levelo://app?vid=7fe0c669-25a5-42e0-9ce2-dd43cabfc55e"},"vehicle_type_id":"4","last_reported":1742850543,"current_range_meters":15200,"station_id":"ce4bh112rcd13ifvqd90","pricing_plan_id":"cebpf4jnsgd1na2vs0mg"},{"bike_id":"71d053fe-72cd-4674-8064-9f91eaaa9762","system_id":"levelo_inurba_marseille","lat":43.28489,"lon":5.38596,"is_reserved":false,"is_disabled":true,"rental_uris":{"android":"levelo://app?vid=71d053fe-72cd-4674-8064-9f91eaaa9762","ios":"levelo://app?vid=71d053fe-72cd-4674-8064-9f91eaaa9762"},"vehicle_type_id":"4","last_reported":1742850543,"current_range_meters":15200,"station_id":"ce4bh8p2rcd13ifvqeb0","pricing_plan_id":"cebpf4jnsgd1na2vs0mg"},{"bike_id":"3112796a-1529-48c0-a160-00e0bfc3908a","system_id":"levelo_inurba_marseille","lat":43.29709,"lon":5.36625,"is_reserved":false,"is_disabled":false,"rental_uris":{"android":"levelo://app?vid=3112796a-1529-48c0-a160-00e0bfc3908a","ios":"levelo://app?vid=3112796a-1529-48c0-a160-00e0bfc3908a"},"vehicle_type_id":"4","last_reported":1742850543,"current_range_meters":16000,"station_id":"ce4bgn12rcd13ifvqbt0","pricing_plan_id":"cebpf4jnsgd1na2vs0mg"},{"bike_id":"319fbde0-f02d-47c8-9ea3-00bb37a99bb2","system_id":"levelo_inurba_marseille","lat":43.24537,"lon":5.39521,"is_reserved":false,"is_disabled":false,"rental_uris":{"android":"levelo://app?vid=319fbde0-f02d-47c8-9ea3-00bb37a99bb2","ios":"levelo://app?vid=319fbde0-f02d-47c8-9ea3-00bb37a99bb2"},"vehicle_type_id":"4","last_reported":1742850543,"current_range_meters":16000,"station_id":"ce4bhlp2rcd13ifvqgjg","pricing_plan_id":"cebpf4jnsgd1na2vs0mg"},{"bike_id":"04164eb8-9e45-49ab-a887-5338c09b0b0a","system_id":"levelo_inurba_marseille","lat":43.28945,"lon":5.364,"is_reserved":false,"is_disabled":false,"rental_uris":{"android":"levelo://app?vid=04164eb8-9e45-49ab-a887-5338c09b0b0a","ios":"levelo://app?vid=04164eb8-9e45-49ab-a887-5338c09b0b0a"},"vehicle_type_id":"4","last_reported":1742850543,"current_range_meters":16000,"station_id":"ce4bhc92rcd13ifvqetg","pricing_plan_id":"cebpf4jnsgd1na2vs0mg"},{"bike_id":"481bb1ff-e869-4e0c-bff6-d144a56689b8","system_id":"levelo_inurba_marseille","lat":43.31376,"lon":5.385,"is_reserved":false,"is_disabled":false,"rental_uris":{"android":"levelo://app?vid=481bb1ff-e869-4e0c-bff6-d144a56689b8","ios":"levelo://app?vid=481bb1ff-e869-4e0c-bff6-d144a56689b8"},"vehicle_type_id":"4","last_reported":1742850543,"current_range_meters":16000,"station_id":"ce4bgt92rcd13ifvqcf0","pricing_plan_id":"cebpf4jnsgd1na2vs0mg"},{"bike_id":"6633349b-54ae-41b8-88d5-61ec5d012302","system_id":"levelo_inurba_marseille","lat":43.32111,"lon":5.36768,"is_reserved":false,"is_disabled":false,"rental_uris":{"android":"levelo://app?vid=6633349b-54ae-41b8-88d5-61ec5d012302","ios":"levelo://app?vid=6633349b-54ae-41b8-88d5-61ec5d012302"},"vehicle_type_id":"4","last_reported":1742850543,"current_range_meters":16000,"station_id":"ce4bhrh2rcd13ifvqhug","pricing_plan_id":"cebpf4jnsgd1na2vs0mg"},{"bike_id":"00d8699e-eac7-4b25-a5e5-4d2f462e0645","system_id":"levelo_inurba_marseille","lat":43.23192,"lon":5.39971,"is_reserved":false,"is_disabled":false,"rental_uris":{"android":"levelo://app?vid=00d8699e-eac7-4b25-a5e5-4d2f462e0645","ios":"levelo://app?vid=00d8699e-eac7-4b25-a5e5-4d2f462e0645"},"vehicle_type_id":"4","last_reported":1742850543,"current_range_meters":16000,"station_id":"ce4bhn12rcd13ifvqgqg","pricing_plan_id":"cebpf4jnsgd1na2vs0mg"},{"bike_id":"4984db66-5241-446c-94cd-2a35586b6040","system_id":"levelo_inurba_marseille","lat":43.27866,"lon":5.41091,"is_reserved":false,"is_disabled":false,"rental_uris":{"android":"levelo://app?vid=4984db66-5241-446c-94cd-2a35586b6040","ios":"levelo://app?vid=4984db66-5241-446c-94cd-2a35586b6040"},"vehicle_type_id":"4","last_reported":1742850543,"current_range_meters":16000,"station_id":"ce4bhnp2rcd13ifvqh0g","pricing_plan_id":"cebpf4jnsgd1na2vs0mg"},{"bike_id":"04357187-31a2-4621-9b88-fc476381d72a","system_id":"levelo_inurba_marseille","lat":43.25819,"lon":5.39441,"is_reserved":false,"is_disabled":false,"rental_uris":{"android":"levelo://app?vid=04357187-31a2-4621-9b88-fc476381d72a","ios":"levelo://app?vid=04357187-31a2-4621-9b88-fc476381d72a"},"vehicle_type_id":"4","last_reported":1742850543,"current_range_meters":16000,"station_id":"ce4bhip2rcd13ifvqft0","pricing_plan_id":"cebpf4jnsgd1na2vs0mg"},{"bike_id":"38351309-2dec-417c-a558-74c8bc991036","system_id":"levelo_inurba_marseille","lat":43.30825,"lon":5.40627,"is_reserved":false,"is_disabled":true,"rental_uris":{"android":"levelo://app?vid=38351309-2dec-417c-a558-74c8bc991036","ios":"levelo://app?vid=38351309-2dec-417c-a558-74c8bc991036"},"vehicle_type_id":"4","last_reported":1742850543,"current_range_meters":16000,"station_id":"","pricing_plan_id":"cebpf4jnsgd1na2vs0mg"},{"bike_id":"b599ec8c-9116-4cb3-980c-d0a7d1e83114","system_id":"levelo_inurba_marseille","lat":43.32493,"lon":5.36556,"is_reserved":false,"is_disabled":false,"rental_uris":{"android":"levelo://app?vid=b599ec8c-9116-4cb3-980c-d0a7d1e83114","ios":"levelo://app?vid=b599ec8c-9116-4cb3-980c-d0a7d1e83114"},"vehicle_type_id":"4","last_reported":1742850543,"current_range_meters":16000,"station_id":"ce4bhs12rcd13ifvqhvg","pricing_plan_id":"cebpf4jnsgd1na2vs0mg"},{"bike_id":"98d38a64-15b2-410c-b614-5635d097b9ba","system_id":"levelo_inurba_marseille","lat":43.30312,"lon":5.39193,"is_reserved":false,"is_disabled":true,"rental_uris":{"android":"levelo://app?vid=98d38a64-15b2-410c-b614-5635d097b9ba","ios":"levelo://app?vid=98d38a64-15b2-410c-b614-5635d097b9ba"},"vehicle_type_id":"4","last_reported":1742850543,"current_range_meters":16000,"station_id":"ce4bgkh2rcd13ifvqbk0","pricing_plan_id":"cebpf4jnsgd1na2vs0mg"},{"bike_id":"62d3e845-03ac-4ecc-85de-0fb5d37fb5f9","system_id":"levelo_inurba_marseille","lat":43.29183,"lon":5.39306,"is_reserved":false,"is_disabled":false,"rental_uris":{"android":"levelo://app?vid=62d3e845-03ac-4ecc-85de-0fb5d37fb5f9","ios":"levelo://app?vid=62d3e845-03ac-4ecc-85de-0fb5d37fb5f9"},"vehicle_type_id":"4","last_reported":1742850543,"current_range_meters":16000,"station_id":"","pricing_plan_id":"cebpf4jnsgd1na2vs0mg"},{"bike_id":"bb58f931-d39b-4674-bcbc-5096c1d815e7","system_id":"levelo_inurba_marseille","lat":43.24193,"lon":5.39735,"is_reserved":false,"is_disabled":false,"rental_uris":{"android":"levelo://app?vid=bb58f931-d39b-4674-bcbc-5096c1d815e7","ios":"levelo://app?vid=bb58f931-d39b-4674-bcbc-5096c1d815e7"},"vehicle_type_id":"4","last_reported":1742850543,"current_range_meters":16000,"station_id":"","pricing_plan_id":"cebpf4jnsgd1na2vs0mg"},{"bike_id":"87bc971d-7f2a-4f5b-9231-d1a713fc5fde","system_id":"levelo_inurba_marseille","lat":43.31993,"lon":5.38155,"is_reserved":false,"is_disabled":false,"rental_uris":{"android":"levelo://app?vid=87bc971d-7f2a-4f5b-9231-d1a713fc5fde","ios":"levelo://app?vid=87bc971d-7f2a-4f5b-9231-d1a713fc5fde"},"vehicle_type_id":"4","last_reported":1742850543,"current_range_meters":16000,"station_id":"ce4bhr12rcd13ifvqhpg","pricing_plan_id":"cebpf4jnsgd1na2vs0mg"},{"bike_id":"9a4d2b64-53bf-4f7a-af59-18a071f51650","system_id":"levelo_inurba_marseille","lat":43.30643,"lon":5.40065,"is_reserved":false,"is_disabled":false,"rental_uris":{"android":"levelo://app?vid=9a4d2b64-53bf-4f7a-af59-18a071f51650","ios":"levelo://app?vid=9a4d2b64-53bf-4f7a-af59-18a071f51650"},"vehicle_type_id":"4","last_reported":1742850543,"current_range_meters":16000,"station_id":"ce4bh112rcd13ifvqda0","pricing_plan_id":"cebpf4jnsgd1na2vs0mg"},{"bike_id":"2a4244eb-a8c7-492c-b00e-5c05064cd3d7","system_id":"levelo_inurba_marseille","lat":43.30649,"lon":5.40071,"is_reserved":false,"is_disabled":false,"rental_uris":{"android":"levelo://app?vid=2a4244eb-a8c7-492c-b00e-5c05064cd3d7","ios":"levelo://app?vid=2a4244eb-a8c7-492c-b00e-5c05064cd3d7"},"vehicle_type_id":"4","last_reported":1742850543,"current_range_meters":16400,"station_id":"ce4bh112rcd13ifvqda0","pricing_plan_id":"cebpf4jnsgd1na2vs0mg"},{"bike_id":"49fbe21e-ba16-4e56-8617-5066ed12268a","system_id":"levelo_inurba_marseille","lat":43.31094,"lon":5.42439,"is_reserved":false,"is_disabled":false,"rental_uris":{"android":"levelo://app?vid=49fbe21e-ba16-4e56-8617-5066ed12268a","ios":"levelo://app?vid=49fbe21e-ba16-4e56-8617-5066ed12268a"},"vehicle_type_id":"4","last_reported":1742850543,"current_range_meters":16400,"station_id":"","pricing_plan_id":"cebpf4jnsgd1na2vs0mg"},{"bike_id":"7ba67112-1f90-4efe-8388-f7141c804634","system_id":"levelo_inurba_marseille","lat":43.29798,"lon":5.40396,"is_reserved":false,"is_disabled":false,"rental_uris":{"android":"levelo://app?vid=7ba67112-1f90-4efe-8388-f7141c804634","ios":"levelo://app?vid=7ba67112-1f90-4efe-8388-f7141c804634"},"vehicle_type_id":"4","last_reported":1742850543,"current_range_meters":16400,"station_id":"ce4bh112rcd13ifvqd90","pricing_plan_id":"cebpf4jnsgd1na2vs0mg"},{"bike_id":"28b8bdb3-c73f-4e95-859b-e9db1be690ff","system_id":"levelo_inurba_marseille","lat":43.33014,"lon":5.3903,"is_reserved":false,"is_disabled":false,"rental_uris":{"android":"levelo://app?vid=28b8bdb3-c73f-4e95-859b-e9db1be690ff","ios":"levelo://app?vid=28b8bdb3-c73f-4e95-859b-e9db1be690ff"},"vehicle_type_id":"4","last_reported":1742850543,"current_range_meters":16400,"station_id":"","pricing_plan_id":"cebpf4jnsgd1na2vs0mg"},{"bike_id":"7fbb5cc4-ceec-4424-b26c-0b8b49614ca0","system_id":"levelo_inurba_marseille","lat":43.30168,"lon":5.39842,"is_reserved":false,"is_disabled":true,"rental_uris":{"android":"levelo://app?vid=7fbb5cc4-ceec-4424-b26c-0b8b49614ca0","ios":"levelo://app?vid=7fbb5cc4-ceec-4424-b26c-0b8b49614ca0"},"vehicle_type_id":"4","last_reported":1742850543,"current_range_meters":16400,"station_id":"","pricing_plan_id":"cebpf4jnsgd1na2vs0mg"},{"bike_id":"2f9b5888-753e-4b20-a5fe-8983bbb006bb","system_id":"levelo_inurba_marseille","lat":43.28838,"lon":5.35829,"is_reserved":false,"is_disabled":false,"rental_uris":{"android":"levelo://app?vid=2f9b5888-753e-4b20-a5fe-8983bbb006bb","ios":"levelo://app?vid=2f9b5888-753e-4b20-a5fe-8983bbb006bb"},"vehicle_type_id":"4","last_reported":1742850543,"current_range_meters":16400,"station_id":"ce4bhb12rcd13ifvqem0","pricing_plan_id":"cebpf4jnsgd1na2vs0mg"},{"bike_id":"3a507784-1e32-42f9-9210-f04a2955b962","system_id":"levelo_inurba_marseille","lat":43.28078,"lon":5.39653,"is_reserved":false,"is_disabled":false,"rental_uris":{"android":"levelo://app?vid=3a507784-1e32-42f9-9210-f04a2955b962","ios":"levelo://app?vid=3a507784-1e32-42f9-9210-f04a2955b962"},"vehicle_type_id":"4","last_reported":1742850543,"current_range_meters":16400,"station_id":"ce4bho12rcd13ifvqh2g","pricing_plan_id":"cebpf4jnsgd1na2vs0mg"},{"bike_id":"c17e766d-72fd-4570-b62c-2beb5e983b80","system_id":"levelo_inurba_marseille","lat":43.286922,"lon":5.373911,"is_reserved":false,"is_disabled":false,"rental_uris":{"android":"levelo://app?vid=c17e766d-72fd-4570-b62c-2beb5e983b80","ios":"levelo://app?vid=c17e766d-72fd-4570-b62c-2beb5e983b80"},"vehicle_type_id":"4","last_reported":1742850543,"current_range_meters":16400,"station_id":"ce4bh3p2rcd13ifvqdq0","pricing_plan_id":"cebpf4jnsgd1na2vs0mg"},{"bike_id":"b8ab03e3-b90f-4b87-9e6c-5b8a7720f2cf","system_id":"levelo_inurba_marseille","lat":43.265783,"lon":5.390095,"is_reserved":false,"is_disabled":false,"rental_uris":{"android":"levelo://app?vid=b8ab03e3-b90f-4b87-9e6c-5b8a7720f2cf","ios":"levelo://app?vid=b8ab03e3-b90f-4b87-9e6c-5b8a7720f2cf"},"vehicle_type_id":"4","last_reported":1742850543,"current_range_meters":16400,"station_id":"ce4bhe12rcd13ifvqf30","pricing_plan_id":"cebpf4jnsgd1na2vs0mg"},{"bike_id":"a77bf2ee-e72e-4ea6-b7f9-04ab237af506","system_id":"levelo_inurba_marseille","lat":43.26791,"lon":5.39409,"is_reserved":false,"is_disabled":false,"rental_uris":{"android":"levelo://app?vid=a77bf2ee-e72e-4ea6-b7f9-04ab237af506","ios":"levelo://app?vid=a77bf2ee-e72e-4ea6-b7f9-04ab237af506"},"vehicle_type_id":"4","last_reported":1742850543,"current_range_meters":16400,"station_id":"ce4bhh12rcd13ifvqfg0","pricing_plan_id":"cebpf4jnsgd1na2vs0mg"},{"bike_id":"4a3cef67-7854-486a-96a1-875577c9d100","system_id":"levelo_inurba_marseille","lat":43.2809,"lon":5.3965,"is_reserved":false,"is_disabled":true,"rental_uris":{"android":"levelo://app?vid=4a3cef67-7854-486a-96a1-875577c9d100","ios":"levelo://app?vid=4a3cef67-7854-486a-96a1-875577c9d100"},"vehicle_type_id":"4","last_reported":1742850543,"current_range_meters":16400,"station_id":"ce4bho12rcd13ifvqh2g","pricing_plan_id":"cebpf4jnsgd1na2vs0mg"},{"bike_id":"1c775580-d1ab-41a6-9ca2-2ebea91682b8","system_id":"levelo_inurba_marseille","lat":43.27824,"lon":5.40706,"is_reserved":false,"is_disabled":false,"rental_uris":{"android":"levelo://app?vid=1c775580-d1ab-41a6-9ca2-2ebea91682b8","ios":"levelo://app?vid=1c775580-d1ab-41a6-9ca2-2ebea91682b8"},"vehicle_type_id":"4","last_reported":1742850543,"current_range_meters":16400,"station_id":"","pricing_plan_id":"cebpf4jnsgd1na2vs0mg"},{"bike_id":"7bd273ba-9c71-4fca-b071-df9ae72e7522","system_id":"levelo_inurba_marseille","lat":43.28405,"lon":5.37531,"is_reserved":false,"is_disabled":false,"rental_uris":{"android":"levelo://app?vid=7bd273ba-9c71-4fca-b071-df9ae72e7522","ios":"levelo://app?vid=7bd273ba-9c71-4fca-b071-df9ae72e7522"},"vehicle_type_id":"4","last_reported":1742850543,"current_range_meters":16400,"station_id":"ce4bh412rcd13ifvqds0","pricing_plan_id":"cebpf4jnsgd1na2vs0mg"},{"bike_id":"ab4776ff-6b27-4499-80aa-79c9d542b375","system_id":"levelo_inurba_marseille","lat":43.29925,"lon":5.37475,"is_reserved":false,"is_disabled":false,"rental_uris":{"android":"levelo://app?vid=ab4776ff-6b27-4499-80aa-79c9d542b375","ios":"levelo://app?vid=ab4776ff-6b27-4499-80aa-79c9d542b375"},"vehicle_type_id":"4","last_reported":1742850543,"current_range_meters":16800,"station_id":"ce4bgjh2rcd13ifvqbg0","pricing_plan_id":"cebpf4jnsgd1na2vs0mg"},{"bike_id":"1aeecb8e-b006-4f49-8edc-947d6456e728","system_id":"levelo_inurba_marseille","lat":43.30917,"lon":5.36834,"is_reserved":false,"is_disabled":false,"rental_uris":{"android":"levelo://app?vid=1aeecb8e-b006-4f49-8edc-947d6456e728","ios":"levelo://app?vid=1aeecb8e-b006-4f49-8edc-947d6456e728"},"vehicle_type_id":"4","last_reported":1742850543,"current_range_meters":16800,"station_id":"","pricing_plan_id":"cebpf4jnsgd1na2vs0mg"},{"bike_id":"8f21fa7e-4d4f-4350-b241-d07e79b33ad0","system_id":"levelo_inurba_marseille","lat":43.23953,"lon":5.36643,"is_reserved":false,"is_disabled":false,"rental_uris":{"android":"levelo://app?vid=8f21fa7e-4d4f-4350-b241-d07e79b33ad0","ios":"levelo://app?vid=8f21fa7e-4d4f-4350-b241-d07e79b33ad0"},"vehicle_type_id":"4","last_reported":1742850543,"current_range_meters":16800,"station_id":"ce4bhi12rcd13ifvqfp0","pricing_plan_id":"cebpf4jnsgd1na2vs0mg"},{"bike_id":"85be6fdd-7e00-4192-a669-6344acf18d2c","system_id":"levelo_inurba_marseille","lat":43.29583,"lon":5.37529,"is_reserved":false,"is_disabled":true,"rental_uris":{"android":"levelo://app?vid=85be6fdd-7e00-4192-a669-6344acf18d2c","ios":"levelo://app?vid=85be6fdd-7e00-4192-a669-6344acf18d2c"},"vehicle_type_id":"4","last_reported":1742850543,"current_range_meters":16800,"station_id":"ce4bgh92rcd13ifvqb50","pricing_plan_id":"cebpf4jnsgd1na2vs0mg"},{"bike_id":"9e61c971-7d3d-4684-a88b-9a35883d3dab","system_id":"levelo_inurba_marseille","lat":43.2791,"lon":5.39576,"is_reserved":false,"is_disabled":false,"rental_uris":{"android":"levelo://app?vid=9e61c971-7d3d-4684-a88b-9a35883d3dab","ios":"levelo://app?vid=9e61c971-7d3d-4684-a88b-9a35883d3dab"},"vehicle_type_id":"4","last_reported":1742850543,"current_range_meters":16800,"station_id":"ce4bhf92rcd13ifvqf40","pricing_plan_id":"cebpf4jnsgd1na2vs0mg"},{"bike_id":"32a50065-3214-4bfa-91d8-9a063da066ae","system_id":"levelo_inurba_marseille","lat":43.30335,"lon":5.36835,"is_reserved":false,"is_disabled":false,"rental_uris":{"android":"levelo://app?vid=32a50065-3214-4bfa-91d8-9a063da066ae","ios":"levelo://app?vid=32a50065-3214-4bfa-91d8-9a063da066ae"},"vehicle_type_id":"4","last_reported":1742850543,"current_range_meters":16800,"station_id":"ce4bgqh2rcd13ifvqc5g","pricing_plan_id":"cebpf4jnsgd1na2vs0mg"},{"bike_id":"7e1a9145-ca6a-4a17-b5e6-320201ea3679","system_id":"levelo_inurba_marseille","lat":43.26589,"lon":5.39071,"is_reserved":false,"is_disabled":true,"rental_uris":{"android":"levelo://app?vid=7e1a9145-ca6a-4a17-b5e6-320201ea3679","ios":"levelo://app?vid=7e1a9145-ca6a-4a17-b5e6-320201ea3679"},"vehicle_type_id":"4","last_reported":1742850543,"current_range_meters":16800,"station_id":"ce4bhe12rcd13ifvqf30","pricing_plan_id":"cebpf4jnsgd1na2vs0mg"},{"bike_id":"07101b2e-7606-4bb3-bbe8-f0db91cd353d","system_id":"levelo_inurba_marseille","lat":43.28615,"lon":5.35105,"is_reserved":false,"is_disabled":false,"rental_uris":{"android":"levelo://app?vid=07101b2e-7606-4bb3-bbe8-f0db91cd353d","ios":"levelo://app?vid=07101b2e-7606-4bb3-bbe8-f0db91cd353d"},"vehicle_type_id":"4","last_reported":1742850543,"current_range_meters":16800,"station_id":"ce4bhch2rcd13ifvqeug","pricing_plan_id":"cebpf4jnsgd1na2vs0mg"},{"bike_id":"75ffd754-9941-4766-a82c-4299a9634530","system_id":"levelo_inurba_marseille","lat":43.29027,"lon":5.38651,"is_reserved":false,"is_disabled":false,"rental_uris":{"android":"levelo://app?vid=75ffd754-9941-4766-a82c-4299a9634530","ios":"levelo://app?vid=75ffd754-9941-4766-a82c-4299a9634530"},"vehicle_type_id":"4","last_reported":1742850543,"current_range_meters":17200,"station_id":"ce4bh4p2rcd13ifvqe0g","pricing_plan_id":"cebpf4jnsgd1na2vs0mg"},{"bike_id":"da43d894-069e-486e-a738-14255c3635ad","system_id":"levelo_inurba_marseille","lat":43.26066,"lon":5.39393,"is_reserved":false,"is_disabled":false,"rental_uris":{"android":"levelo://app?vid=da43d894-069e-486e-a738-14255c3635ad","ios":"levelo://app?vid=da43d894-069e-486e-a738-14255c3635ad"},"vehicle_type_id":"4","last_reported":1742850543,"current_range_meters":17200,"station_id":"ce4bhh92rcd13ifvqfj0","pricing_plan_id":"cebpf4jnsgd1na2vs0mg"},{"bike_id":"d713038c-d334-4d52-a1e5-c192f6a88919","system_id":"levelo_inurba_marseille","lat":43.27823,"lon":5.392,"is_reserved":false,"is_disabled":false,"rental_uris":{"android":"levelo://app?vid=d713038c-d334-4d52-a1e5-c192f6a88919","ios":"levelo://app?vid=d713038c-d334-4d52-a1e5-c192f6a88919"},"vehicle_type_id":"4","last_reported":1742850543,"current_range_meters":17200,"station_id":"ce4bhjp2rcd13ifvqga0","pricing_plan_id":"cebpf4jnsgd1na2vs0mg"},{"bike_id":"682f6eaa-4c29-4c3b-a483-b3baee9bd977","system_id":"levelo_inurba_marseille","lat":43.25928,"lon":5.40874,"is_reserved":false,"is_disabled":true,"rental_uris":{"android":"levelo://app?vid=682f6eaa-4c29-4c3b-a483-b3baee9bd977","ios":"levelo://app?vid=682f6eaa-4c29-4c3b-a483-b3baee9bd977"},"vehicle_type_id":"4","last_reported":1742850543,"current_range_meters":17200,"station_id":"ce4bhm92rcd13ifvqglg","pricing_plan_id":"cebpf4jnsgd1na2vs0mg"},{"bike_id":"9b25fc87-beed-42eb-8d19-7bc31b9dcdec","system_id":"levelo_inurba_marseille","lat":43.28474,"lon":5.38422,"is_reserved":false,"is_disabled":false,"rental_uris":{"android":"levelo://app?vid=9b25fc87-beed-42eb-8d19-7bc31b9dcdec","ios":"levelo://app?vid=9b25fc87-beed-42eb-8d19-7bc31b9dcdec"},"vehicle_type_id":"4","last_reported":1742850543,"current_range_meters":17200,"station_id":"ce4bh512rcd13ifvqe3g","pricing_plan_id":"cebpf4jnsgd1na2vs0mg"},{"bike_id":"6004f39a-9986-44bc-b884-5e75e6429081","system_id":"levelo_inurba_marseille","lat":43.28387,"lon":5.3754,"is_reserved":false,"is_disabled":false,"rental_uris":{"android":"levelo://app?vid=6004f39a-9986-44bc-b884-5e75e6429081","ios":"levelo://app?vid=6004f39a-9986-44bc-b884-5e75e6429081"},"vehicle_type_id":"4","last_reported":1742850543,"current_range_meters":17200,"station_id":"ce4bh412rcd13ifvqds0","pricing_plan_id":"cebpf4jnsgd1na2vs0mg"},