{"last_updated":1729375749,"ttl":60,"version":"2.2","data":{"bikes":[{"bike_id":"834fec7b-d4c0-427b-b877-186743eeea27","system_id":"levelo_inurba_marseille","lat":43.26935,"lon":5.38642,"is_reserved":false,"is_disabled":false,"rental_uris":{"android":"levelo://app?vid=834fec7b-d4c0-427b-b877-186743eeea27","ios":"levelo://app?vid=834fec7b-d4c0-427b-b877-186743eeea27"},"vehicle_type_id":"4","last_reported":1729375750,"current_range_meters":4000,"station_id":"ce4bhh92rcd13ifvqfh0","pricing_plan_id":"cebpf4jnsgd1na2vs0mg"},{"bike_id":"9b9a7cfe-944f-49a6-84c3-af9eec72cacc","system_id":"levelo_inurba_marseille","lat":43.31124,"lon":5.37773,"is_reserved":false,"is_disabled":false,"rental_uris":{"android":"levelo://app?vid=9b9a7cfe-944f-49a6-84c3-af9eec72cacc","ios":"levelo://app?vid=9b9a7cfe-944f-49a6-84c3-af9eec72cacc"},"vehicle_type_id":"4","last_reported":1729375750,"current_range_meters":22400,"station_id":"ce4bgt92rcd13ifvqcg0","pricing_plan_id":"cebpf4jnsgd1na2vs0mg"},{"bike_id":"50276af6-354d-4478-8c25-ac5cf615f422","system_id":"levelo_inurba_marseille","lat":43.2844,"lon":5.39202,"is_reserved":false,"is_disabled":false,"rental_uris":{"android":"levelo://app?vid=50276af6-354d-4478-8c25-ac5cf615f422","ios":"levelo://app?vid=50276af6-354d-4478-8c25-ac5cf615f422"},"vehicle_type_id":"4","last_reported":1729375750,"current_range_meters":38800,"station_id":"ce4bhoh2rcd13ifvqh5g","pricing_plan_id":"cebpf4jnsgd1na2vs0mg"},{"bike_id":"3942a4a0-c9e6-40a8-a307-6c7d058d3096","system_id":"levelo_inurba_marseille","lat":43.27424,"lon":5.39415,"is_reserved":false,"is_disabled":false,"rental_uris":{"android":"levelo://app?vid=3942a4a0-c9e6-40a8-a307-6c7d058d3096","ios":"levelo://app?vid=3942a4a0-c9e6-40a8-a307-6c7d058d3096"},"vehicle_type_id":"4","last_reported":1729375750,"current_range_meters":5600,"station_id":"ce4bhdp2rcd13ifvqf20","pricing_plan_id":"cebpf4jnsgd1na2vs0mg"},{"bike_id":"b311d360-b42e-4fb9-adc9-8f3de337e797","system_id":"levelo_inurba_marseille","lat":43.29031,"lon":5.37562,"is_reserved":false,"is_disabled":false,"rental_uris":{"android":"levelo://app?vid=b311d360-b42e-4fb9-adc9-8f3de337e797","ios":"levelo://app?vid=b311d360-b42e-4fb9-adc9-8f3de337e797"},"vehicle_type_id":"4","last_reported":1729375750,"current_range_meters":36800,"station_id":"ce4bh692rcd13ifvqe90","pricing_plan_id":"cebpf4jnsgd1na2vs0mg"},{"bike_id":"cc7efa44-13df-4e12-a405-4e45667f6687","system_id":"levelo_inurba_marseille","lat":43.31118,"lon":5.37761,"is_reserved":false,"is_disabled":false,"rental_uris":{"android":"levelo://app?vid=cc7efa44-13df-4e12-a405-4e45667f6687","ios":"levelo://app?vid=cc7efa44-13df-4e12-a405-4e45667f6687"},"vehicle_type_id":"4","last_reported":1729375750,"current_range_meters":6000,"station_id":"ce4bgt92rcd13ifvqcg0","pricing_plan_id":"cebpf4jnsgd1na2vs0mg"},{"bike_id":"c0f44f9e-ef26-4266-933b-169570a9bbbc","system_id":"levelo_inurba_marseille","lat":43.28272,"lon":5.35069,"is_reserved":false,"is_disabled":false,"rental_uris":{"android":"levelo://app?vid=c0f44f9e-ef26-4266-933b-169570a9bbbc","ios":"levelo://app?vid=c0f44f9e-ef26-4266-933b-169570a9bbbc"},"vehicle_type_id":"4","last_reported":1729375750,"current_range_meters":8800,"station_id":"ce4bhbp2rcd13ifvqerg","pricing_plan_id":"cebpf4jnsgd1na2vs0mg"},{"bike_id":"145f124f-a761-4cbc-aa73-a914a824dcae","system_id":"levelo_inurba_marseille","lat":43.30644,"lon":5.40066,"is_reserved":false,"is_disabled":false,"rental_uris":{"android":"levelo://app?vid=145f124f-a761-4cbc-aa73-a914a824dcae","ios":"levelo://app?vid=145f124f-a761-4cbc-aa73-a914a824dcae"},"vehicle_type_id":"4","last_reported":1729375750,"current_range_meters":31200,"station_id":"ce4bh112rcd13ifvqda0","pricing_plan_id":"cebpf4jnsgd1na2vs0mg"},{"bike_id":"ae03ded3-bb9c-4513-9a11-82f2838e82a4","system_id":"levelo_inurba_marseille","lat":43.29074,"lon":5.37162,"is_reserved":false,"is_disabled":false,"rental_uris":{"android":"levelo://app?vid=ae03ded3-bb9c-4513-9a11-82f2838e82a4","ios":"levelo://app?vid=ae03ded3-bb9c-4513-9a11-82f2838e82a4"},"vehicle_type_id":"4","last_reported":1729375750,"current_range_meters":21600,"station_id":"ce4bh5p2rcd13ifvqe4g","pricing_plan_id":"cebpf4jnsgd1na2vs0mg"},{"bike_id":"814a8b4c-43f0-4f31-87f7-0f70c081bccd","system_id":"levelo_inurba_marseille","lat":43.24804,"lon":5.37454,"is_reserved":false,"is_disabled":false,"rental_uris":{"android":"levelo://app?vid=814a8b4c-43f0-4f31-87f7-0f70c081bccd","ios":"levelo://app?vid=814a8b4c-43f0-4f31-87f7-0f70c081bccd"},"vehicle_type_id":"4","last_reported":1729375750,"current_range_meters":38800,"station_id":"ce4bhgh2rcd13ifvqfb0","pricing_plan_id":"cebpf4jnsgd1na2vs0mg"},{"bike_id":"1d123306-76de-4e99-b18a-f2b54d4716f7","system_id":"levelo_inurba_marseille","lat":43.32342,"lon":5.40622,"is_reserved":false,"is_disabled":false,"rental_uris":{"android":"levelo://app?vid=1d123306-76de-4e99-b18a-f2b54d4716f7","ios":"levelo://app?vid=1d123306-76de-4e99-b18a-f2b54d4716f7"},"vehicle_type_id":"4","last_reported":1729375750,"current_range_meters":20800,"station_id":"ce4bhq92rcd13ifvqhjg","pricing_plan_id":"cebpf4jnsgd1na2vs0mg"},{"bike_id":"e0879c3f-10eb-4d3b-8053-605cb1c6310c","system_id":"levelo_inurba_marseille","lat":43.26059,"lon":5.39392,"is_reserved":false,"is_disabled":false,"rental_uris":{"android":"levelo://app?vid=e0879c3f-10eb-4d3b-8053-605cb1c6310c","ios":"levelo://app?vid=e0879c3f-10eb-4d3b-8053-605cb1c6310c"},"vehicle_type_id":"4","last_reported":1729375750,"current_range_meters":24800,"station_id":"ce4bhh92rcd13ifvqfj0","pricing_plan_id":"cebpf4jnsgd1na2vs0mg"},{"bike_id":"5670cc1a-3b42-4baf-84dd-24fbe4175a33","system_id":"levelo_inurba_marseille","lat":43.30834,"lon":5.38116,"is_reserved":false,"is_disabled":false,"rental_uris":{"android":"levelo://app?vid=5670cc1a-3b42-4baf-84dd-24fbe4175a33","ios":"levelo://app?vid=5670cc1a-3b42-4baf-84dd-24fbe4175a33"},"vehicle_type_id":"4","last_reported":1729375750,"current_range_meters":10000,"station_id":"ce4bgt12rcd13ifvqce0","pricing_plan_id":"cebpf4jnsgd1na2vs0mg"},{"bike_id":"5e49e36b-bb55-4c9d-8e59-bbce92bc26c1","system_id":"levelo_inurba_marseille","lat":43.30187,"lon":5.36616,"is_reserved":false,"is_disabled":false,"rental_uris":{"android":"levelo://app?vid=5e49e36b-bb55-4c9d-8e59-bbce92bc26c1","ios":"levelo://app?vid=5e49e36b-bb55-4c9d-8e59-bbce92bc26c1"},"vehicle_type_id":"4","last_reported":1729375750,"current_range_meters":37600,"station_id":"ce4bgrh2rcd13ifvqc8g","pricing_plan_id":"cebpf4jnsgd1na2vs0mg"},{"bike_id":"a9128e19-daf5-4e1f-b719-f7b1a144d711","system_id":"levelo_inurba_marseille","lat":43.33719,"lon":5.39187,"is_reserved":false,"is_disabled":false,"rental_uris":{"android":"levelo://app?vid=a9128e19-daf5-4e1f-b719-f7b1a144d711","ios":"levelo://app?vid=a9128e19-daf5-4e1f-b719-f7b1a144d711"},"vehicle_type_id":"4","last_reported":1729375750,"current_range_meters":10000,"station_id":"ce4bhr92rcd13ifvqhsg","pricing_plan_id":"cebpf4jnsgd1na2vs0mg"},{"bike_id":"3fbb8f30-0d80-4328-ab5c-f746ad375e95","system_id":"levelo_inurba_marseille","lat":43.279476,"lon":5.410446,"is_reserved":false,"is_disabled":false,"rental_uris":{"android":"levelo://app?vid=3fbb8f30-0d80-4328-ab5c-f746ad375e95","ios":"levelo://app?vid=3fbb8f30-0d80-4328-ab5c-f746ad375e95"},"vehicle_type_id":"4","last_reported":1729375750,"current_range_meters":24800,"station_id":"ce4bhnp2rcd13ifvqh0g","pricing_plan_id":"cebpf4jnsgd1na2vs0mg"},{"bike_id":"2cb8dcea-6e24-4078-9365-ab51d7e910c9","system_id":"levelo_inurba_marseille","lat":43.22925,"lon":5.35374,"is_reserved":false,"is_disabled":false,"rental_uris":{"android":"levelo://app?vid=2cb8dcea-6e24-4078-9365-ab51d7e910c9","ios":"levelo://app?vid=2cb8dcea-6e24-4078-9365-ab51d7e910c9"},"vehicle_type_id":"4","last_reported":1729375750,"current_range_meters":38800,"station_id":"cpo3532slgdg3j2ikp40","pricing_plan_id":"cebpf4jnsgd1na2vs0mg"},{"bike_id":"a8d2cfa4-d275-47c6-84f3-c214a2d8d7b4","system_id":"levelo_inurba_marseille","lat":43.31489,"lon":5.37305,"is_reserved":false,"is_disabled":false,"rental_uris":{"android":"levelo://app?vid=a8d2cfa4-d275-47c6-84f3-c214a2d8d7b4","ios":"levelo://app?vid=a8d2cfa4-d275-47c6-84f3-c214a2d8d7b4"},"vehicle_type_id":"4","last_reported":1729375750,"current_range_meters":38800,"station_id":"ce4bgt12rcd13ifvqcd0","pricing_plan_id":"cebpf4jnsgd1na2vs0mg"},{"bike_id":"5808184e-866e-4fa7-80c5-0c3e8948c68b","system_id":"levelo_inurba_marseille","lat":43.2315,"lon":5.43719,"is_reserved":false,"is_disabled":false,"rental_uris":{"android":"levelo://app?vid=5808184e-866e-4fa7-80c5-0c3e8948c68b","ios":"levelo://app?vid=5808184e-866e-4fa7-80c5-0c3e8948c68b"},"vehicle_type_id":"4","last_reported":1729375750,"current_range_meters":18800,"station_id":"ce4bhmp2rcd13ifvqgog","pricing_plan_id":"cebpf4jnsgd1na2vs0mg"},{"bike_id":"481cffd0-bd3a-4827-9e2c-2ef60f9d0829","system_id":"levelo_inurba_marseille","lat":43.28458,"lon":5.35887,"is_reserved":false,"is_disabled":false,"rental_uris":{"android":"levelo://app?vid=481cffd0-bd3a-4827-9e2c-2ef60f9d0829","ios":"levelo://app?vid=481cffd0-bd3a-4827-9e2c-2ef60f9d0829"},"vehicle_type_id":"4","last_reported":1729375750,"current_range_meters":26800,"station_id":"ce4bhah2rcd13ifvqei0","pricing_plan_id":"cebpf4jnsgd1na2vs0mg"},{"bike_id":"f002ff7c-8d7f-4b30-a59b-b17d6e6e6eba","system_id":"levelo_inurba_marseille","lat":43.3266,"lon":5.40988,"is_reserved":false,"is_disabled":false,"rental_uris":{"android":"levelo://app?vid=f002ff7c-8d7f-4b30-a59b-b17d6e6e6eba","ios":"levelo://app?vid=f002ff7c-8d7f-4b30-a59b-b17d6e6e6eba"},"vehicle_type_id":"4","last_reported":1729375750,"current_range_meters":13600,"station_id":"ce4bhpp2rcd13ifvqhgg","pricing_plan_id":"cebpf4jnsgd1na2vs0mg"},{"bike_id":"474ccd54-d884-4c48-ac27-1f7190ae4438","system_id":"levelo_inurba_marseille","lat":43.33728,"lon":5.39189,"is_reserved":false,"is_disabled":false,"rental_uris":{"android":"levelo://app?vid=474ccd54-d884-4c48-ac27-1f7190ae4438","ios":"levelo://app?vid=474ccd54-d884-4c48-ac27-1f7190ae4438"},"vehicle_type_id":"4","last_reported":1729375750,"current_range_meters":10000,"station_id":"ce4bhr92rcd13ifvqhsg","pricing_plan_id":"cebpf4jnsgd1na2vs0mg"},{"bike_id":"47a652d1-2a75-4bd2-83f4-5d02a6d806da","system_id":"levelo_inurba_marseille","lat":43.29054,"lon":5.35903,"is_reserved":false,"is_disabled":false,"rental_uris":{"android":"levelo://app?vid=47a652d1-2a75-4bd2-83f4-5d02a6d806da","ios":"levelo://app?vid=47a652d1-2a75-4bd2-83f4-5d02a6d806da"},"vehicle_type_id":"4","last_reported":1729375750,"current_range_meters":24000,"station_id":"ce4bha92rcd13ifvqeg0","pricing_plan_id":"cebpf4jnsgd1na2vs0mg"},{"bike_id":"967de6d1-e498-46a4-a944-4f792f9f122c","system_id":"levelo_inurba_marseille","lat":43.28778,"lon":5.3825,"is_reserved":false,"is_disabled":false,"rental_uris":{"android":"levelo://app?vid=967de6d1-e498-46a4-a944-4f792f9f122c","ios":"levelo://app?vid=967de6d1-e498-46a4-a944-4f792f9f122c"},"vehicle_type_id":"4","last_reported":1729375750,"current_range_meters":20400,"station_id":"","pricing_plan_id":"cebpf4jnsgd1na2vs0mg"},{"bike_id":"08801f35-9207-48bb-b146-c1e9196bdb6c","system_id":"levelo_inurba_marseille","lat":43.27946,"lon":5.41049,"is_reserved":false,"is_disabled":false,"rental_uris":{"android":"levelo://app?vid=08801f35-9207-48bb-b146-c1e9196bdb6c","ios":"levelo://app?vid=08801f35-9207-48bb-b146-c1e9196bdb6c"},"vehicle_type_id":"4","last_reported":1729375750,"current_range_meters":28400,"station_id":"ce4bhnp2rcd13ifvqh0g","pricing_plan_id":"cebpf4jnsgd1na2vs0mg"},{"bike_id":"81ef031a-81ce-496c-854f-d95fdd23c602","system_id":"levelo_inurba_marseille","lat":43.2986,"lon":5.38563,"is_reserved":false,"is_disabled":false,"rental_uris":{"android":"levelo://app?vid=81ef031a-81ce-496c-854f-d95fdd23c602","ios":"levelo://app?vid=81ef031a-81ce-496c-854f-d95fdd23c602"},"vehicle_type_id":"4","last_reported":1729375750,"current_range_meters":26800,"station_id":"ce4bgkh2rcd13ifvqbk0","pricing_plan_id":"cebpf4jnsgd1na2vs0mg"},{"bike_id":"7e0b5d71-a8eb-4421-a968-268fef2f6d80","system_id":"levelo_inurba_marseille","lat":43.30782,"lon":5.37654,"is_reserved":false,"is_disabled":false,"rental_uris":{"android":"levelo://app?vid=7e0b5d71-a8eb-4421-a968-268fef2f6d80","ios":"levelo://app?vid=7e0b5d71-a8eb-4421-a968-268fef2f6d80"},"vehicle_type_id":"4","last_reported":1729375750,"current_range_meters":24800,"station_id":"ce4bgv92rcd13ifvqcq0","pricing_plan_id":"cebpf4jnsgd1na2vs0mg"},{"bike_id":"01eb4b6f-8267-423c-9273-ca859312881e","system_id":"levelo_inurba_marseille","lat":43.30426,"lon":5.38877,"is_reserved":false,"is_disabled":false,"rental_uris":{"android":"levelo://app?vid=01eb4b6f-8267-423c-9273-ca859312881e","ios":"levelo://app?vid=01eb4b6f-8267-423c-9273-ca859312881e"},"vehicle_type_id":"4","last_reported":1729375750,"current_range_meters":10000,"station_id":"ce4bgk12rcd13ifvqbi0","pricing_plan_id":"cebpf4jnsgd1na2vs0mg"},{"bike_id":"7aa259b1-98ce-4330-9b3b-74957bda49bd","system_id":"levelo_inurba_marseille","lat":43.258679,"lon":5.399031,"is_reserved":false,"is_disabled":false,"rental_uris":{"android":"levelo://app?vid=7aa259b1-98ce-4330-9b3b-74957bda49bd","ios":"levelo://app?vid=7aa259b1-98ce-4330-9b3b-74957bda49bd"},"vehicle_type_id":"4","last_reported":1729375750,"current_range_meters":38800,"station_id":"ce4bhl92rcd13ifvqghg","pricing_plan_id":"cebpf4jnsgd1na2vs0mg"},{"bike_id":"a271bdd0-8735-4737-9887-7e1fad0a3b13","system_id":"levelo_inurba_marseille","lat":43.27562,"lon":5.3843,"is_reserved":false,"is_disabled":false,"rental_uris":{"android":"levelo://app?vid=a271bdd0-8735-4737-9887-7e1fad0a3b13","ios":"levelo://app?vid=a271bdd0-8735-4737-9887-7e1fad0a3b13"},"vehicle_type_id":"4","last_reported":1729375750,"current_range_meters":16400,"station_id":"ce4bhh92rcd13ifvqfi0","pricing_plan_id":"cebpf4jnsgd1na2vs0mg"},{"bike_id":"fc6e513b-da81-4d34-a427-493e42edd768","system_id":"levelo_inurba_marseille","lat":43.29526,"lon":5.3924,"is_reserved":false,"is_disabled":false,"rental_uris":{"android":"levelo://app?vid=fc6e513b-da81-4d34-a427-493e42edd768","ios":"levelo://app?vid=fc6e513b-da81-4d34-a427-493e42edd768"},"vehicle_type_id":"4","last_reported":1729375750,"current_range_meters":19600,"station_id":"","pricing_plan_id":"cebpf4jnsgd1na2vs0mg"},{"bike_id":"cc7948bf-9ca9-4536-a608-d1b740d71b0c","system_id":"levelo_inurba_marseille","lat":43.2952,"lon":5.394,"is_reserved":false,"is_disabled":false,"rental_uris":{"android":"levelo://app?vid=cc7948bf-9ca9-4536-a608-d1b740d71b0c","ios":"levelo://app?vid=cc7948bf-9ca9-4536-a608-d1b740d71b0c"},"vehicle_type_id":"4","last_reported":1729375750,"current_range_meters":36800,"station_id":"ce4bh292rcd13ifvqdf0","pricing_plan_id":"cebpf4jnsgd1na2vs0mg"},{"bike_id":"cdd4a016-eafe-4b24-a989-5b2c6140504d","system_id":"levelo_inurba_marseille","lat":43.30431,"lon":5.38886,"is_reserved":false,"is_disabled":false,"rental_uris":{"android":"levelo://app?vid=cdd4a016-eafe-4b24-a989-5b2c6140504d","ios":"levelo://app?vid=cdd4a016-eafe-4b24-a989-5b2c6140504d"},"vehicle_type_id":"4","last_reported":1729375750,"current_range_meters":36000,"station_id":"ce4bgk12rcd13ifvqbi0","pricing_plan_id":"cebpf4jnsgd1na2vs0mg"},{"bike_id":"c113a0c8-dd33-4375-9455-e7a4c1d00534","system_id":"levelo_inurba_marseille","lat":43.2481,"lon":5.37457,"is_reserved":false,"is_disabled":false,"rental_uris":{"android":"levelo://app?vid=c113a0c8-dd33-4375-9455-e7a4c1d00534","ios":"levelo://app?vid=c113a0c8-dd33-4375-9455-e7a4c1d00534"},"vehicle_type_id":"4","last_reported":1729375750,"current_range_meters":23200,"station_id":"ce4bhgh2rcd13ifvqfb0","pricing_plan_id":"cebpf4jnsgd1na2vs0mg"},{"bike_id":"4e50393c-3815-487b-aeae-7a81189985c5","system_id":"levelo_inurba_marseille","lat":43.29519,"lon":5.3853,"is_reserved":false,"is_disabled":false,"rental_uris":{"android":"levelo://app?vid=4e50393c-3815-487b-aeae-7a81189985c5","ios":"levelo://app?vid=4e50393c-3815-487b-aeae-7a81189985c5"},"vehicle_type_id":"4","last_reported":1729375750,"current_range_meters":38000,"station_id":"ce4bgih2rcd13ifvqba0","pricing_plan_id":"cebpf4jnsgd1na2vs0mg"},{"bike_id":"ecb85f99-17b9-4bf1-829c-0f61a2cf1ee6","system_id":"levelo_inurba_marseille","lat":43.27985,"lon":5.41674,"is_reserved":false,"is_disabled":false,"rental_uris":{"android":"levelo://app?vid=ecb85f99-17b9-4bf1-829c-0f61a2cf1ee6","ios":"levelo://app?vid=ecb85f99-17b9-4bf1-829c-0f61a2cf1ee6"},"vehicle_type_id":"4","last_reported":1729375750,"current_range_meters":11200,"station_id":"ce4bho12rcd13ifvqh1g","pricing_plan_id":"cebpf4jnsgd1na2vs0mg"},{"bike_id":"d0201ef7-288d-41c0-a113-a9447266d47b","system_id":"levelo_inurba_marseille","lat":43.3089,"lon":5.39642,"is_reserved":false,"is_disabled":false,"rental_uris":{"android":"levelo://app?vid=d0201ef7-288d-41c0-a113-a9447266d47b","ios":"levelo://app?vid=d0201ef7-288d-41c0-a113-a9447266d47b"},"vehicle_type_id":"4","last_reported":1729375750,"current_range_meters":6000,"station_id":"ce4bh012rcd13ifvqcv0","pricing_plan_id":"cebpf4jnsgd1na2vs0mg"},{"bike_id":"098227f3-4da7-485b-b705-e552955c5060","system_id":"levelo_inurba_marseille","lat":43.29901,"lon":5.38151,"is_reserved":false,"is_disabled":false,"rental_uris":{"android":"levelo://app?vid=098227f3-4da7-485b-b705-e552955c5060","ios":"levelo://app?vid=098227f3-4da7-485b-b705-e552955c5060"},"vehicle_type_id":"4","last_reported":1729375750,"current_range_meters":14400,"station_id":"ce4bgj12rcd13ifvqbc0","pricing_plan_id":"cebpf4jnsgd1na2vs0mg"},{"bike_id":"57dd0012-e7c2-43e3-90a1-087125ac63fa","system_id":"levelo_inurba_marseille","lat":43.33753,"lon":5.37454,"is_reserved":false,"is_disabled":false,"rental_uris":{"android":"levelo://app?vid=57dd0012-e7c2-43e3-90a1-087125ac63fa","ios":"levelo://app?vid=57dd0012-e7c2-43e3-90a1-087125ac63fa"},"vehicle_type_id":"4","last_reported":1729375750,"current_range_meters":38000,"station_id":"","pricing_plan_id":"cebpf4jnsgd1na2vs0mg"},{"bike_id":"d0c5a1c1-66a9-4933-b464-9142a7c2b7a1","system_id":"levelo_inurba_marseille","lat":43.28455,"lon":5.35895,"is_reserved":false,"is_disabled":false,"rental_uris":{"android":"levelo://app?vid=d0c5a1c1-66a9-4933-b464-9142a7c2b7a1","ios":"levelo://app?vid=d0c5a1c1-66a9-4933-b464-9142a7c2b7a1"},"vehicle_type_id":"4","last_reported":1729375750,"current_range_meters":14000,"station_id":"ce4bhah2rcd13ifvqei0","pricing_plan_id":"cebpf4jnsgd1na2vs0mg"},{"bike_id":"580fd143-444b-4424-b5bb-4b9e450f75b5","system_id":"levelo_inurba_marseille","lat":43.27943,"lon":5.41043,"is_reserved":false,"is_disabled":false,"rental_uris":{"android":"levelo://app?vid=580fd143-444b-4424-b5bb-4b9e450f75b5","ios":"levelo://app?vid=580fd143-444b-4424-b5bb-4b9e450f75b5"},"vehicle_type_id":"4","last_reported":1729375750,"current_range_meters":34800,"station_id":"ce4bhnp2rcd13ifvqh0g","pricing_plan_id":"cebpf4jnsgd1na2vs0mg"},{"bike_id":"a5280cbd-d187-41a1-badf-5e1878983c0b","system_id":"levelo_inurba_marseille","lat":43.30951,"lon":5.39026,"is_reserved":false,"is_disabled":false,"rental_uris":{"android":"levelo://app?vid=a5280cbd-d187-41a1-badf-5e1878983c0b","ios":"levelo://app?vid=a5280cbd-d187-41a1-badf-5e1878983c0b"},"vehicle_type_id":"4","last_reported":1729375750,"current_range_meters":18000,"station_id":"ce4bgup2rcd13ifvqco0","pricing_plan_id":"cebpf4jnsgd1na2vs0mg"},{"bike_id":"1a6a4619-f26e-4970-b3c0-a933218f2e6c","system_id":"levelo_inurba_marseille","lat":43.3059,"lon":5.39372,"is_reserved":false,"is_disabled":false,"rental_uris":{"android":"levelo://app?vid=1a6a4619-f26e-4970-b3c0-a933218f2e6c","ios":"levelo://app?vid=1a6a4619-f26e-4970-b3c0-a933218f2e6c"},"vehicle_type_id":"4","last_reported":1729375750,"current_range_meters":6800,"station_id":"ce4bh0p2rcd13ifvqd80","pricing_plan_id":"cebpf4jnsgd1na2vs0mg"},{"bike_id":"6c565be0-e8e9-40e8-b134-5bea2389ee39","system_id":"levelo_inurba_marseille","lat":43.30935,"lon":5.40149,"is_reserved":false,"is_disabled":false,"rental_uris":{"android":"levelo://app?vid=6c565be0-e8e9-40e8-b134-5bea2389ee39","ios":"levelo://app?vid=6c565be0-e8e9-40e8-b134-5bea2389ee39"},"vehicle_type_id":"4","last_reported":1729375750,"current_range_meters":10000,"station_id":"ce4bgvp2rcd13ifvqct0","pricing_plan_id":"cebpf4jnsgd1na2vs0mg"},{"bike_id":"b39cc7a6-a6f0-4f1f-b608-fdcec5c673db","system_id":"levelo_inurba_marseille","lat":43.31068,"lon":5.38343,"is_reserved":false,"is_disabled":false,"rental_uris":{"android":"levelo://app?vid=b39cc7a6-a6f0-4f1f-b608-fdcec5c673db","ios":"levelo://app?vid=b39cc7a6-a6f0-4f1f-b608-fdcec5c673db"},"vehicle_type_id":"4","last_reported":1729375750,"current_range_meters":25600,"station_id":"ce4bgv92rcd13ifvqcr0","pricing_plan_id":"cebpf4jnsgd1na2vs0mg"},{"bike_id":"7a337ef7-ba11-47bb-8d25-795e72b91122","system_id":"levelo_inurba_marseille","lat":43.30459,"lon":5.37912,"is_reserved":false,"is_disabled":false,"rental_uris":{"android":"levelo://app?vid=7a337ef7-ba11-47bb-8d25-795e72b91122","ios":"levelo://app?vid=7a337ef7-ba11-47bb-8d25-795e72b91122"},"vehicle_type_id":"4","last_reported":1729375750,"current_range_meters":14800,"station_id":"ce4bgqh2rcd13ifvqc5g","pricing_plan_id":"cebpf4jnsgd1na2vs0mg"},{"bike_id":"f1409a72-b5dc-4c70-b2dd-6f4ba84de408","system_id":"levelo_inurba_marseille","lat":43.297815,"lon":5.393418,"is_reserved":false,"is_disabled":false,"rental_uris":{"android":"levelo://app?vid=f1409a72-b5dc-4c70-b2dd-6f4ba84de408","ios":"levelo://app?vid=f1409a72-b5dc-4c70-b2dd-6f4ba84de408"},"vehicle_type_id":"4","last_reported":1729375750,"current_range_meters":12400,"station_id":"chh1huq6cuj3fo74tm60","pricing_plan_id":"cebpf4jnsgd1na2vs0mg"},{"bike_id":"970ce056-93b7-4b51-889b-8fcf2f52c05f","system_id":"levelo_inurba_marseille","lat":43.24546,"lon":5.3952,"is_reserved":false,"is_disabled":false,"rental_uris":{"android":"levelo://app?vid=970ce056-93b7-4b51-889b-8fcf2f52c05f","ios":"levelo://app?vid=970ce056-93b7-4b51-889b-8fcf2f52c05f"},"vehicle_type_id":"4","last_reported":1729375750,"current_range_meters":10000,"station_id":"ce4bhlp2rcd13ifvqgjg","pricing_plan_id":"cebpf4jnsgd1na2vs0mg"},{"bike_id":"9e927d85-4215-47b3-8d8f-01fc49f32640","system_id":"levelo_inurba_marseille","lat":43.26489,"lon":5.39542,"is_reserved":false,"is_disabled":false,"rental_uris":{"android":"levelo://app?vid=9e927d85-4215-47b3-8d8f-01fc49f32640","ios":"levelo://app?vid=9e927d85-4215-47b3-8d8f-01fc49f32640"},"vehicle_type_id":"4","last_reported":1729375750,"current_range_meters":38800,"station_id":"ce4bhi12rcd13ifvqfq0","pricing_plan_id":"cebpf4jnsgd1na2vs0mg"},{"bike_id":"a533abe5-dac1-401a-9d02-f2c113b84f4f","system_id":"levelo_inurba_marseille","lat":43.28934,"lon":5.36371,"is_reserved":false,"is_disabled":false,"rental_uris":{"android":"levelo://app?vid=a533abe5-dac1-401a-9d02-f2c113b84f4f","ios":"levelo://app?vid=a533abe5-dac1-401a-9d02-f2c113b84f4f"},"vehicle_type_id":"4","last_reported":1729375750,"current_range_meters":36000,"station_id":"ce4bhc92rcd13ifvqetg","pricing_plan_id":"cebpf4jnsgd1na2vs0mg"},{"bike_id":"e8b3df60-01e0-45e7-8b61-61d52e175cbb","system_id":"levelo_inurba_marseille","lat":43.28103,"lon":5.37835,"is_reserved":false,"is_disabled":false,"rental_uris":{"android":"levelo://app?vid=e8b3df60-01e0-45e7-8b61-61d52e175cbb","ios":"levelo://app?vid=e8b3df60-01e0-45e7-8b61-61d52e175cbb"},"vehicle_type_id":"4","last_reported":1729375750,"current_range_meters":39200,"station_id":"ce4bha12rcd13ifvqee0","pricing_plan_id":"cebpf4jnsgd1na2vs0mg"},{"bike_id":"b88b0471-3e76-49b0-9ff7-c71e4fc07cd2","system_id":"levelo_inurba_marseille","lat":43.26569,"lon":5.39001,"is_reserved":false,"is_disabled":false,"rental_uris":{"android":"levelo://app?vid=b88b0471-3e76-49b0-9ff7-c71e4fc07cd2","ios":"levelo://app?vid=b88b0471-3e76-49b0-9ff7-c71e4fc07cd2"},"vehicle_type_id":"4","last_reported":1729375750,"current_range_meters":38800,"station_id":"ce4bhe12rcd13ifvqf30","pricing_plan_id":"cebpf4jnsgd1na2vs0mg"},{"bike_id":"6aa99f06-dfb6-48a5-8719-6314fb12cad0","system_id":"levelo_inurba_marseille","lat":43.29558,"lon":5.4228,"is_reserved":false,"is_disabled":false,"rental_uris":{"android":"levelo://app?vid=6aa99f06-dfb6-48a5-8719-6314fb12cad0","ios":"levelo://app?vid=6aa99f06-dfb6-48a5-8719-6314fb12cad0"},"vehicle_type_id":"4","last_reported":1729375750,"current_range_meters":36000,"station_id":"ce4bhph2rcd13ifvqhdg","pricing_plan_id":"cebpf4jnsgd1na2vs0mg"},{"bike_id":"580f5a40-12b2-4fc1-b2dd-ca7298d678b2","system_id":"levelo_inurba_marseille","lat":43.29196,"lon":5.39305,"is_reserved":false,"is_disabled":false,"rental_uris":{"android":"levelo://app?vid=580f5a40-12b2-4fc1-b2dd-ca7298d678b2","ios":"levelo://app?vid=580f5a40-12b2-4fc1-b2dd-ca7298d678b2"},"vehicle_type_id":"4","last_reported":1729375750,"current_range_meters":28000,"station_id":"ce4bh192rcd13ifvqdd0","pricing_plan_id":"cebpf4jnsgd1na2vs0mg"},{"bike_id":"5b21a661-a705-4b97-a41e-a380694fed51","system_id":"levelo_inurba_marseille","lat":43.2951,"lon":5.3941,"is_reserved":false,"is_disabled":false,"rental_uris":{"android":"levelo://app?vid=5b21a661-a705-4b97-a41e-a380694fed51","ios":"levelo://app?vid=5b21a661-a705-4b97-a41e-a380694fed51"},"vehicle_type_id":"4","last_reported":1729375750,"current_range_meters":6400,"station_id":"ce4bh292rcd13ifvqdf0","pricing_plan_id":"cebpf4jnsgd1na2vs0mg"},{"bike_id":"a9247564-b71c-42d3-a7af-078e1531397e","system_id":"levelo_inurba_marseille","lat":43.25089,"lon":5.39506,"is_reserved":false,"is_disabled":false,"rental_uris":{"android":"levelo://app?vid=a9247564-b71c-42d3-a7af-078e1531397e","ios":"levelo://app?vid=a9247564-b71c-42d3-a7af-078e1531397e"},"vehicle_type_id":"4","last_reported":1729375750,"current_range_meters":39200,"station_id":"ce4bhm12rcd13ifvqgkg","pricing_plan_id":"cebpf4jnsgd1na2vs0mg"},{"bike_id":"e2198d75-ec0b-45d7-b6f6-08bbbe60882a","system_id":"levelo_inurba_marseille","lat":43.33025,"lon":5.39035,"is_reserved":false,"is_disabled":false,"rental_uris":{"android":"levelo://app?vid=e2198d75-ec0b-45d7-b6f6-08bbbe60882a","ios":"levelo://app?vid=e2198d75-ec0b-45d7-b6f6-08bbbe60882a"},"vehicle_type_id":"4","last_reported":1729375750,"current_range_meters":35600,"station_id":"ce4bhr92rcd13ifvqhrg","pricing_plan_id":"cebpf4jnsgd1na2vs0mg"},{"bike_id":"d0fc17d9-36e0-4204-b2f5-3d49d9e9cdb7","system_id":"levelo_inurba_marseille","lat":43.31218,"lon":5.36851,"is_reserved":false,"is_disabled":false,"rental_uris":{"android":"levelo://app?vid=d0fc17d9-36e0-4204-b2f5-3d49d9e9cdb7","ios":"levelo://app?vid=d0fc17d9-36e0-4204-b2f5-3d49d9e9cdb7"},"vehicle_type_id":"4","last_reported":1729375750,"current_range_meters":8400,"station_id":"ce4bgl92rcd13ifvqbq0","pricing_plan_id":"cebpf4jnsgd1na2vs0mg"},{"bike_id":"35e7f867-368c-476c-a860-684a9be05389","system_id":"levelo_inurba_marseille","lat":43.26559,"lon":5.39011,"is_reserved":false,"is_disabled":false,"rental_uris":{"android":"levelo://app?vid=35e7f867-368c-476c-a860-684a9be05389","ios":"levelo://app?vid=35e7f867-368c-476c-a860-684a9be05389"},"vehicle_type_id":"4","last_reported":1729375750,"current_range_meters":37600,"station_id":"ce4bhe12rcd13ifvqf30","pricing_plan_id":"cebpf4jnsgd1na2vs0mg"},{"bike_id":"4ea5aef8-ce0c-4408-90ea-0be5c9c1920f","system_id":"levelo_inurba_marseille","lat":43.29403,"lon":5.37794,"is_reserved":false,"is_disabled":false,"rental_uris":{"android":"levelo://app?vid=4ea5aef8-ce0c-4408-90ea-0be5c9c1920f","ios":"levelo://app?vid=4ea5aef8-ce0c-4408-90ea-0be5c9c1920f"},"vehicle_type_id":"4","last_reported":1729375750,"current_range_meters":17200,"station_id":"","pricing_plan_id":"cebpf4jnsgd1na2vs0mg"},{"bike_id":"f835791a-40ff-4fab-994b-4f3755e6e522","system_id":"levelo_inurba_marseille","lat":43.28411,"lon":5.37516,"is_reserved":false,"is_disabled":false,"rental_uris":{"android":"levelo://app?vid=f835791a-40ff-4fab-994b-4f3755e6e522","ios":"levelo://app?vid=f835791a-40ff-4fab-994b-4f3755e6e522"},"vehicle_type_id":"4","last_reported":1729375750,"current_range_meters":26000,"station_id":"ce4bh412rcd13ifvqds0","pricing_plan_id":"cebpf4jnsgd1na2vs0mg"},{"bike_id":"d234dac7-4ce3-4348-b72f-a62abb04355c","system_id":"levelo_inurba_marseille","lat":43.27918,"lon":5.39582,"is_reserved":false,"is_disabled":false,"rental_uris":{"android":"levelo://app?vid=d234dac7-4ce3-4348-b72f-a62abb04355c","ios":"levelo://app?vid=d234dac7-4ce3-4348-b72f-a62abb04355c"},"vehicle_type_id":"4","last_reported":1729375750,"current_range_meters":14000,"station_id":"ce4bhf92rcd13ifvqf40","pricing_plan_id":"cebpf4jnsgd1na2vs0mg"},{"bike_id":"b10181cc-41ff-4bd7-8376-48a23e3dc7f1","system_id":"levelo_inurba_marseille","lat":43.25867,"lon":5.39894,"is_reserved":false,"is_disabled":false,"rental_uris":{"android":"levelo://app?vid=b10181cc-41ff-4bd7-8376-48a23e3dc7f1","ios":"levelo://app?vid=b10181cc-41ff-4bd7-8376-48a23e3dc7f1"},"vehicle_type_id":"4","last_reported":1729375750,"current_range_meters":32400,"station_id":"ce4bhl92rcd13ifvqghg","pricing_plan_id":"cebpf4jnsgd1na2vs0mg"},{"bike_id":"0c07120c-6a22-4d0f-a500-32eb140d4f3a","system_id":"levelo_inurba_marseille","lat":43.28703,"lon":5.39989,"is_reserved":false,"is_disabled":false,"rental_uris":{"android":"levelo://app?vid=0c07120c-6a22-4d0f-a500-32eb140d4f3a","ios":"levelo://app?vid=0c07120c-6a22-4d0f-a500-32eb140d4f3a"},"vehicle_type_id":"4","last_reported":1729375750,"current_range_meters":39200,"station_id":"ce4bho92rcd13ifvqh3g","pricing_plan_id":"cebpf4jnsgd1na2vs0mg"},{"bike_id":"8d99d55a-7b47-40c1-ad7b-8d15db9ce591","system_id":"levelo_inurba_marseille","lat":43.25116,"lon":5.4032,"is_reserved":false,"is_disabled":false,"rental_uris":{"android":"levelo://app?vid=8d99d55a-7b47-40c1-ad7b-8d15db9ce591","ios":"levelo://app?vid=8d99d55a-7b47-40c1-ad7b-8d15db9ce591"},"vehicle_type_id":"4","last_reported":1729375750,"current_range_meters":38800,"station_id":"ce4bhlh2rcd13ifvqgig","pricing_plan_id":"cebpf4jnsgd1na2vs0mg"},{"bike_id":"3bf0d25b-2e05-4c9b-a06d-a66a86e3798c","system_id":"levelo_inurba_marseille","lat":43.28935,"lon":5.36388,"is_reserved":false,"is_disabled":false,"rental_uris":{"android":"levelo://app?vid=3bf0d25b-2e05-4c9b-a06d-a66a86e3798c","ios":"levelo://app?vid=3bf0d25b-2e05-4c9b-a06d-a66a86e3798c"},"vehicle_type_id":"4","last_reported":1729375750,"current_range_meters":26000,"station_id":"ce4bhc92rcd13ifvqetg","pricing_plan_id":"cebpf4jnsgd1na2vs0mg"},{"bike_id":"55b3a8f5-19d1-4d08-bf99-ccf2c312bc04","system_id":"levelo_inurba_marseille","lat":43.231864,"lon":5.355484,"is_reserved":false,"is_disabled":false,"rental_uris":{"android":"levelo://app?vid=55b3a8f5-19d1-4d08-bf99-ccf2c312bc04","ios":"levelo://app?vid=55b3a8f5-19d1-4d08-bf99-ccf2c312bc04"},"vehicle_type_id":"4","last_reported":1729375750,"current_range_meters":38800,"station_id":"ce4bhu92rcd13ifvqi70","pricing_plan_id":"cebpf4jnsgd1na2vs0mg"},{"bike_id":"e54be7fc-57d4-44b9-a9be-d4857ea449b1","system_id":"levelo_inurba_marseille","lat":43.31483,"lon":5.37308,"is_reserved":false,"is_disabled":false,"rental_uris":{"android":"levelo://app?vid=e54be7fc-57d4-44b9-a9be-d4857ea449b1","ios":"levelo://app?vid=e54be7fc-57d4-44b9-a9be-d4857ea449b1"},"vehicle_type_id":"4","last_reported":1729375750,"current_range_meters":37600,"station_id":"ce4bgt12rcd13ifvqcd0","pricing_plan_id":"cebpf4jnsgd1na2vs0mg"},{"bike_id":"14c05e35-ac2d-4eaf-bbf8-df9c4897f4a9","system_id":"levelo_inurba_marseille","lat":43.28657,"lon":5.36363,"is_reserved":false,"is_disabled":false,"rental_uris":{"android":"levelo://app?vid=14c05e35-ac2d-4eaf-bbf8-df9c4897f4a9","ios":"levelo://app?vid=14c05e35-ac2d-4eaf-bbf8-df9c4897f4a9"},"vehicle_type_id":"4","last_reported":1729375750,"current_range_meters":10800,"station_id":"ce4bhah2rcd13ifvqej0","pricing_plan_id":"cebpf4jnsgd1na2vs0mg"},{"bike_id":"fe2c5efc-0fec-40ae-8c77-00fb773d9638","system_id":"levelo_inurba_marseille","lat":43.29197,"lon":5.39327,"is_reserved":false,"is_disabled":false,"rental_uris":{"android":"levelo://app?vid=fe2c5efc-0fec-40ae-8c77-00fb773d9638","ios":"levelo://app?vid=fe2c5efc-0fec-40ae-8c77-00fb773d9638"},"vehicle_type_id":"4","last_reported":1729375750,"current_range_meters":18800,"station_id":"ce4bh192rcd13ifvqdd0","pricing_plan_id":"cebpf4jnsgd1na2vs0mg"},{"bike_id":"43d24770-4ece-4a77-a029-fe46e9bde13b","system_id":"levelo_inurba_marseille","lat":43.31764,"lon":5.37199,"is_reserved":false,"is_disabled":false,"rental_uris":{"android":"levelo://app?vid=43d24770-4ece-4a77-a029-fe46e9bde13b","ios":"levelo://app?vid=43d24770-4ece-4a77-a029-fe46e9bde13b"},"vehicle_type_id":"4","last_reported":1729375750,"current_range_meters":38800,"station_id":"","pricing_plan_id":"cebpf4jnsgd1na2vs0mg"},{"bike_id":"3795c2e2-0ec5-4ee5-a0c0-7922090328ae","system_id":"levelo_inurba_marseille","lat":43.30129,"lon":5.39877,"is_reserved":false,"is_disabled":false,"rental_uris":{"android":"levelo://app?vid=3795c2e2-0ec5-4ee5-a0c0-7922090328ae","ios":"levelo://app?vid=3795c2e2-0ec5-4ee5-a0c0-7922090328ae"},"vehicle_type_id":"4","last_reported":1729375750,"current_range_meters":38400,"station_id":"ce4bh0h2rcd13ifvqd40","pricing_plan_id":"cebpf4jnsgd1na2vs0mg"},{"bike_id":"28db4370-84ab-40a1-ba5d-f49d506458f1","system_id":"levelo_inurba_marseille","lat":43.28457,"lon":5.35879,"is_reserved":false,"is_disabled":false,"rental_uris":{"android":"levelo://app?vid=28db4370-84ab-40a1-ba5d-f49d506458f1","ios":"levelo://app?vid=28db4370-84ab-40a1-ba5d-f49d506458f1"},"vehicle_type_id":"4","last_reported":1729375750,"current_range_meters":14800,"station_id":"ce4bhah2rcd13ifvqei0","pricing_plan_id":"cebpf4jnsgd1na2vs0mg"},{"bike_id":"df0764bb-73ac-46d7-903f-a26945b45d7c","system_id":"levelo_inurba_marseille","lat":43.24622,"lon":5.41608,"is_reserved":false,"is_disabled":false,"rental_uris":{"android":"levelo://app?vid=df0764bb-73ac-46d7-903f-a26945b45d7c","ios":"levelo://app?vid=df0764bb-73ac-46d7-903f-a26945b45d7c"},"vehicle_type_id":"4","last_reported":1729375750,"current_range_meters":27200,"station_id":"","pricing_plan_id":"cebpf4jnsgd1na2vs0mg"},{"bike_id":"766da900-471d-42f5-8cfa-8db494f945d7","system_id":"levelo_inurba_marseille","lat":43.289137,"lon":5.460558,"is_reserved":false,"is_disabled":false,"rental_uris":{"android":"levelo://app?vid=766da900-471d-42f5-8cfa-8db494f945d7","ios":"levelo://app?vid=766da900-471d-42f5-8cfa-8db494f945d7"},"vehicle_type_id":"4","last_reported":1729375750,"current_range_meters":27600,"station_id":"","pricing_plan_id":"cebpf4jnsgd1na2vs0mg"},{"bike_id":"e700e4d8-85f6-44d8-80b4-4749efe0ea4f","system_id":"levelo_inurba_marseille","lat":43.29189,"lon":5.3933,"is_reserved":false,"is_disabled":false,"rental_uris":{"android":"levelo://app?vid=e700e4d8-85f6-44d8-80b4-4749efe0ea4f","ios":"levelo://app?vid=e700e4d8-85f6-44d8-80b4-4749efe0ea4f"},"vehicle_type_id":"4","last_reported":1729375750,"current_range_meters":12400,"station_id":"ce4bh192rcd13ifvqdd0","pricing_plan_id":"cebpf4jnsgd1na2vs0mg"},{"bike_id":"01c342fc-b84b-42ba-b35d-21a249f10378","system_id":"levelo_inurba_marseille","lat":43.29531,"lon":5.39403,"is_reserved":false,"is_disabled":false,"rental_uris":{"android":"levelo://app?vid=01c342fc-b84b-42ba-b35d-21a249f10378","ios":"levelo://app?vid=01c342fc-b84b-42ba-b35d-21a249f10378"},"vehicle_type_id":"4","last_reported":1729375750,"current_range_meters":32400,"station_id":"ce4bh292rcd13ifvqdf0","pricing_plan_id":"cebpf4jnsgd1na2vs0mg"},{"bike_id":"1e01d598-1515-475e-8c04-27307d39a16f","system_id":"levelo_inurba_marseille","lat":43.29172,"lon":5.40607,"is_reserved":false,"is_disabled":false,"rental_uris":{"android":"levelo://app?vid=1e01d598-1515-475e-8c04-27307d39a16f","ios":"levelo://app?vid=1e01d598-1515-475e-8c04-27307d39a16f"},"vehicle_type_id":"4","last_reported":1729375750,"current_range_meters":10000,"station_id":"","pricing_plan_id":"cebpf4jnsgd1na2vs0mg"},{"bike_id":"c2fdfd02-37ba-42c6-be43-38d4e4d91199","system_id":"levelo_inurba_marseille","lat":43.29242,"lon":5.3753,"is_reserved":false,"is_disabled":false,"rental_uris":{"android":"levelo://app?vid=c2fdfd02-37ba-42c6-be43-38d4e4d91199","ios":"levelo://app?vid=c2fdfd02-37ba-42c6-be43-38d4e4d91199"},"vehicle_type_id":"4","last_reported":1729375750,"current_range_meters":28800,"station_id":"ce4bgi12rcd13ifvqb70","pricing_plan_id":"cebpf4jnsgd1na2vs0mg"},{"bike_id":"ab3708dc-2324-4d77-ac1a-38c928b735aa","system_id":"levelo_inurba_marseille","lat":43.28106,"lon":5.37841,"is_reserved":false,"is_disabled":false,"rental_uris":{"android":"levelo://app?vid=ab3708dc-2324-4d77-ac1a-38c928b735aa","ios":"levelo://app?vid=ab3708dc-2324-4d77-ac1a-38c928b735aa"},"vehicle_type_id":"4","last_reported":1729375750,"current_range_meters":31200,"station_id":"ce4bha12rcd13ifvqee0","pricing_plan_id":"cebpf4jnsgd1na2vs0mg"},{"bike_id":"8a835fb4-ae82-4987-af0f-072391e418d6","system_id":"levelo_inurba_marseille","lat":43.28153,"lon":5.42645,"is_reserved":false,"is_disabled":false,"rental_uris":{"android":"levelo://app?vid=8a835fb4-ae82-4987-af0f-072391e418d6","ios":"levelo://app?vid=8a835fb4-ae82-4987-af0f-072391e418d6"},"vehicle_type_id":"4","last_reported":1729375750,"current_range_meters":14000,"station_id":"ce4bhnh2rcd13ifvqgug","pricing_plan_id":"cebpf4jnsgd1na2vs0mg"},{"bike_id":"707eb2f1-a40c-4580-8f44-11408cac020b","system_id":"levelo_inurba_marseille","lat":43.26804,"lon":5.40265,"is_reserved":false,"is_disabled":false,"rental_uris":{"android":"levelo://app?vid=707eb2f1-a40c-4580-8f44-11408cac020b","ios":"levelo://app?vid=707eb2f1-a40c-4580-8f44-11408cac020b"},"vehicle_type_id":"4","last_reported":1729375750,"current_range_meters":7200,"station_id":"ce501612rcd8frsf0b60","pricing_plan_id":"cebpf4jnsgd1na2vs0mg"},{"bike_id":"8400a97e-ed46-4d37-b5cf-926b69826c1f","system_id":"levelo_inurba_marseille","lat":43.28222,"lon":5.37907,"is_reserved":false,"is_disabled":false,"rental_uris":{"android":"levelo://app?vid=8400a97e-ed46-4d37-b5cf-926b69826c1f","ios":"levelo://app?vid=8400a97e-ed46-4d37-b5cf-926b69826c1f"},"vehicle_type_id":"4","last_reported":1729375750,"current_range_meters":19600,"station_id":"","pricing_plan_id":"cebpf4jnsgd1na2vs0mg"},{"bike_id":"fbe5e5b4-3e44-4487-a73e-284854502401","system_id":"levelo_inurba_marseille","lat":43.24068,"lon":5.37765,"is_reserved":false,"is_disabled":false,"rental_uris":{"android":"levelo://app?vid=fbe5e5b4-3e44-4487-a73e-284854502401","ios":"levelo://app?vid=fbe5e5b4-3e44-4487-a73e-284854502401"},"vehicle_type_id":"4","last_reported":1729375750,"current_range_meters":22000,"station_id":"ce4bhnp2rcd13ifvqgvg","pricing_plan_id":"cebpf4jnsgd1na2vs0mg"},{"bike_id":"97f2c4f4-7a9c-46e1-820f-a20b5a58bd2e","system_id":"levelo_inurba_marseille","lat":43.29569,"lon":5.37519,"is_reserved":false,"is_disabled":false,"rental_uris":{"android":"levelo://app?vid=97f2c4f4-7a9c-46e1-820f-a20b5a58bd2e","ios":"levelo://app?vid=97f2c4f4-7a9c-46e1-820f-a20b5a58bd2e"},"vehicle_type_id":"4","last_reported":1729375750,"current_range_meters":33200,"station_id":"ce4bgh92rcd13ifvqb50","pricing_plan_id":"cebpf4jnsgd1na2vs0mg"},{"bike_id":"a5e59ea1-15b5-4a36-8252-63390db4544e","system_id":"levelo_inurba_marseille","lat":43.2957,"lon":5.3752,"is_reserved":false,"is_disabled":false,"rental_uris":{"android":"levelo://app?vid=a5e59ea1-15b5-4a36-8252-63390db4544e","ios":"levelo://app?vid=a5e59ea1-15b5-4a36-8252-63390db4544e"},"vehicle_type_id":"4","last_reported":1729375750,"current_range_meters":11200,"station_id":"ce4bgh92rcd13ifvqb50","pricing_plan_id":"cebpf4jnsgd1na2vs0mg"},{"bike_id":"05172b3b-0223-41db-b5bd-b978ecbff7d5","system_id":"levelo_inurba_marseille","lat":43.30419,"lon":5.41279,"is_reserved":false,"is_disabled":false,"rental_uris":{"android":"levelo://app?vid=05172b3b-0223-41db-b5bd-b978ecbff7d5","ios":"levelo://app?vid=05172b3b-0223-41db-b5bd-b978ecbff7d5"},"vehicle_type_id":"4","last_reported":1729375750,"current_range_meters":37600,"station_id":"ce4bhop2rcd13ifvqh8g","pricing_plan_id":"cebpf4jnsgd1na2vs0mg"},{"bike_id":"4158d4ef-7d68-469c-9874-e49eaf6f57e9","system_id":"levelo_inurba_marseille","lat":43.29251,"lon":5.40911,"is_reserved":false,"is_disabled":false,"rental_uris":{"android":"levelo://app?vid=4158d4ef-7d68-469c-9874-e49eaf6f57e9","ios":"levelo://app?vid=4158d4ef-7d68-469c-9874-e49eaf6f57e9"},"vehicle_type_id":"4","last_reported":1729375750,"current_range_meters":38800,"station_id":"ce4bh192rcd13ifvqdc0","pricing_plan_id":"cebpf4jnsgd1na2vs0mg"},{"bike_id":"31c4410c-150a-4057-96ff-f61153fc336a","system_id":"levelo_inurba_marseille","lat":43.30588,"lon":5.39359,"is_reserved":false,"is_disabled":false,"rental_uris":{"android":"levelo://app?vid=31c4410c-150a-4057-96ff-f61153fc336a","ios":"levelo://app?vid=31c4410c-150a-4057-96ff-f61153fc336a"},"vehicle_type_id":"4","last_reported":1729375750,"current_range_meters":24000,"station_id":"ce4bh0p2rcd13ifvqd80","pricing_plan_id":"cebpf4jnsgd1na2vs0mg"},{"bike_id":"389da3f7-b923-45b7-9301-d2cb6aa94240","system_id":"levelo_inurba_marseille","lat":43.3104,"lon":5.39007,"is_reserved":false,"is_disabled":false,"rental_uris":{"android":"levelo://app?vid=389da3f7-b923-45b7-9301-d2cb6aa94240","ios":"levelo://app?vid=389da3f7-b923-45b7-9301-d2cb6aa94240"},"vehicle_type_id":"4","last_reported":1729375750,"current_range_meters":24000,"station_id":"ce4bgup2rcd13ifvqco0","pricing_plan_id":"cebpf4jnsgd1na2vs0mg"},{"bike_id":"b9cb22c7-965c-4a00-b135-6db2b2768363","system_id":"levelo_inurba_marseille","lat":43.29199,"lon":5.39327,"is_reserved":false,"is_disabled":false,"rental_uris":{"android":"levelo://app?vid=b9cb22c7-965c-4a00-b135-6db2b2768363","ios":"levelo://app?vid=b9cb22c7-965c-4a00-b135-6db2b2768363"},"vehicle_type_id":"4","last_reported":1729375750,"current_range_meters":22000,"station_id":"ce4bh192rcd13ifvqdd0","pricing_plan_id":"cebpf4jnsgd1na2vs0mg"},{"bike_id":"46fb0839-a2fc-48f3-988a-c0bec4f0a4d5","system_id":"levelo_inurba_marseille","lat":43.29271,"lon":5.38445,"is_reserved":false,"is_disabled":false,"rental_uris":{"android":"levelo://app?vid=46fb0839-a2fc-48f3-988a-c0bec4f0a4d5","ios":"levelo://app?vid=46fb0839-a2fc-48f3-988a-c0bec4f0a4d5"},"vehicle_type_id":"4","last_reported":1729375750,"current_range_meters":4400,"station_id":"","pricing_plan_id":"cebpf4jnsgd1na2vs0mg"},{"bike_id":"2910eaad-da2f-4396-abed-6a24ceae014b","system_id":"levelo_inurba_marseille","lat":43.3039,"lon":5.37326,"is_reserved":false,"is_disabled":false,"rental_uris":{"android":"levelo://app?vid=2910eaad-da2f-4396-abed-6a24ceae014b","ios":"levelo://app?vid=2910eaad-da2f-4396-abed-6a24ceae014b"},"vehicle_type_id":"4","last_reported":1729375750,"current_range_meters":20000,"station_id":"","pricing_plan_id":"cebpf4jnsgd1na2vs0mg"},{"bike_id":"6dd8065b-54f2-443b-a976-2ad9ce67a5ef","system_id":"levelo_inurba_marseille","lat":43.29534,"lon":5.38545,"is_reserved":false,"is_disabled":false,"rental_uris":{"android":"levelo://app?vid=6dd8065b-54f2-443b-a976-2ad9ce67a5ef","ios":"levelo://app?vid=6dd8065b-54f2-443b-a976-2ad9ce67a5ef"},"vehicle_type_id":"4","last_reported":1729375750,"current_range_meters":38800,"station_id":"ce4bgih2rcd13ifvqba0","pricing_plan_id":"cebpf4jnsgd1na2vs0mg"},{"bike_id":"6e706dcb-6e41-41b6-a172-73765c66fdaa","system_id":"levelo_inurba_marseille","lat":43.26239,"lon":5.37591,"is_reserved":false,"is_disabled":false,"rental_uris":{"android":"levelo://app?vid=6e706dcb-6e41-41b6-a172-73765c66fdaa","ios":"levelo://app?vid=6e706dcb-6e41-41b6-a172-73765c66fdaa"},"vehicle_type_id":"4","last_reported":1729375750,"current_range_meters":36800,"station_id":"ce4bhhp2rcd13ifvqfm0","pricing_plan_id":"cebpf4jnsgd1na2vs0mg"},{"bike_id":"52a90fa3-a357-4191-8d7d-fd3ddb0babf4","system_id":"levelo_inurba_marseille","lat":43.25498,"lon":5.3765,"is_reserved":false,"is_disabled":false,"rental_uris":{"android":"levelo://app?vid=52a90fa3-a357-4191-8d7d-fd3ddb0babf4","ios":"levelo://app?vid=52a90fa3-a357-4191-8d7d-fd3ddb0babf4"},"vehicle_type_id":"4","last_reported":1729375750,"current_range_meters":32000,"station_id":"ce4bhh12rcd13ifvqff0","pricing_plan_id":"cebpf4jnsgd1na2vs0mg"},{"bike_id":"522bb5dc-efc4-45ac-a026-aafe838b2839","system_id":"levelo_inurba_marseille","lat":43.29777,"lon":5.37094,"is_reserved":false,"is_disabled":false,"rental_uris":{"android":"levelo://app?vid=522bb5dc-efc4-45ac-a026-aafe838b2839","ios":"levelo://app?vid=522bb5dc-efc4-45ac-a026-aafe838b2839"},"vehicle_type_id":"4","last_reported":1729375750,"current_range_meters":38800,"station_id":"ce4bgop2rcd13ifvqc1g","pricing_plan_id":"cebpf4jnsgd1na2vs0mg"},{"bike_id":"1d0123a6-a46a-4f0d-aa90-d1ca1d1a44c9","system_id":"levelo_inurba_marseille","lat":43.31328,"lon":5.39699,"is_reserved":false,"is_disabled":false,"rental_uris":{"android":"levelo://app?vid=1d0123a6-a46a-4f0d-aa90-d1ca1d1a44c9","ios":"levelo://app?vid=1d0123a6-a46a-4f0d-aa90-d1ca1d1a44c9"},"vehicle_type_id":"4","last_reported":1729375750,"current_range_meters":38800,"station_id":"ce4bgvp2rcd13ifvqcu0","pricing_plan_id":"cebpf4jnsgd1na2vs0mg"},{"bike_id":"7772d39f-5e28-445c-af91-069b0cf63793","system_id":"levelo_inurba_marseille","lat":43.33765,"lon":5.37438,"is_reserved":false,"is_disabled":false,"rental_uris":{"android":"levelo://app?vid=7772d39f-5e28-445c-af91-069b0cf63793","ios":"levelo://app?vid=7772d39f-5e28-445c-af91-069b0cf63793"},"vehicle_type_id":"4","last_reported":1729375750,"current_range_meters":7200,"station_id":"","pricing_plan_id":"cebpf4jnsgd1na2vs0mg"},{"bike_id":"733eb2c5-00ab-4d49-8038-dfb888b12557","system_id":"levelo_inurba_marseille","lat":43.31991,"lon":5.38158,"is_reserved":false,"is_disabled":false,"rental_uris":{"android":"levelo://app?vid=733eb2c5-00ab-4d49-8038-dfb888b12557","ios":"levelo://app?vid=733eb2c5-00ab-4d49-8038-dfb888b12557"},"vehicle_type_id":"4","last_reported":1729375750,"current_range_meters":36400,"station_id":"ce4bhr12rcd13ifvqhpg","pricing_plan_id":"cebpf4jnsgd1na2vs0mg"},{"bike_id":"3213665e-989c-4d22-9f5a-31c8522597dd","system_id":"levelo_inurba_marseille","lat":43.296,"lon":5.36142,"is_reserved":false,"is_disabled":false,"rental_uris":{"android":"levelo://app?vid=3213665e-989c-4d22-9f5a-31c8522597dd","ios":"levelo://app?vid=3213665e-989c-4d22-9f5a-31c8522597dd"},"vehicle_type_id":"4","last_reported":1729375750,"current_range_meters":17600,"station_id":"","pricing_plan_id":"cebpf4jnsgd1na2vs0mg"},{"bike_id":"00fd350b-72b1-470f-9195-a717cecd4d0a","system_id":"levelo_inurba_marseille","lat":43.31218,"lon":5.36849,"is_reserved":false,"is_disabled":false,"rental_uris":{"android":"levelo://app?vid=00fd350b-72b1-470f-9195-a717cecd4d0a","ios":"levelo://app?vid=00fd350b-72b1-470f-9195-a717cecd4d0a"},"vehicle_type_id":"4","last_reported":1729375750,"current_range_meters":22400,"station_id":"ce4bgl92rcd13ifvqbq0","pricing_plan_id":"cebpf4jnsgd1na2vs0mg"},{"bike_id":"09a1c59c-9906-4c94-966e-411f5a9bb215","system_id":"levelo_inurba_marseille","lat":43.27948,"lon":5.41047,"is_reserved":false,"is_disabled":false,"rental_uris":{"android":"levelo://app?vid=09a1c59c-9906-4c94-966e-411f5a9bb215","ios":"levelo://app?vid=09a1c59c-9906-4c94-966e-411f5a9bb215"},"vehicle_type_id":"4","last_reported":1729375750,"current_range_meters":8000,"station_id":"ce4bhnp2rcd13ifvqh0g","pricing_plan_id":"cebpf4jnsgd1na2vs0mg"},{"bike_id":"3f3c663d-a6fd-4091-8533-6c09ca965902","system_id":"levelo_inurba_marseille","lat":43.3119,"lon":5.37715,"is_reserved":false,"is_disabled":false,"rental_uris":{"android":"levelo://app?vid=3f3c663d-a6fd-4091-8533-6c09ca965902","ios":"levelo://app?vid=3f3c663d-a6fd-4091-8533-6c09ca965902"},"vehicle_type_id":"4","last_reported":1729375750,"current_range_meters":17600,"station_id":"","pricing_plan_id":"cebpf4jnsgd1na2vs0mg"},{"bike_id":"275e8b97-c257-4f5b-9606-c19c9133569b","system_id":"levelo_inurba_marseille","lat":43.29485,"lon":5.36306,"is_reserved":false,"is_disabled":false,"rental_uris":{"android":"levelo://app?vid=275e8b97-c257-4f5b-9606-c19c9133569b","ios":"levelo://app?vid=275e8b97-c257-4f5b-9606-c19c9133569b"},"vehicle_type_id":"4","last_reported":1729375750,"current_range_meters":14400,"station_id":"","pricing_plan_id":"cebpf4jnsgd1na2vs0mg"},{"bike_id":"9a2117f0-c5b0-4dc2-891b-026a24af23f1","system_id":"levelo_inurba_marseille","lat":43.3105,"lon":5.40092,"is_reserved":false,"is_disabled":false,"rental_uris":{"android":"levelo://app?vid=9a2117f0-c5b0-4dc2-891b-026a24af23f1","ios":"levelo://app?vid=9a2117f0-c5b0-4dc2-891b-026a24af23f1"},"vehicle_type_id":"4","last_reported":1729375750,"current_range_meters":36400,"station_id":"","pricing_plan_id":"cebpf4jnsgd1na2vs0mg"},{"bike_id":"eb63ba09-6f9d-4cf6-88df-f95385f23699","system_id":"levelo_inurba_marseille","lat":43.2582,"lon":5.3943,"is_reserved":false,"is_disabled":false,"rental_uris":{"android":"levelo://app?vid=eb63ba09-6f9d-4cf6-88df-f95385f23699","ios":"levelo://app?vid=eb63ba09-6f9d-4cf6-88df-f95385f23699"},"vehicle_type_id":"4","last_reported":1729375750,"current_range_meters":38800,"station_id":"ce4bhip2rcd13ifvqft0","pricing_plan_id":"cebpf4jnsgd1na2vs0mg"},{"bike_id":"19570b06-afa6-4d9c-9137-966361107063","system_id":"levelo_inurba_marseille","lat":43.30795,"lon":5.38161,"is_reserved":false,"is_disabled":false,"rental_uris":{"android":"levelo://app?vid=19570b06-afa6-4d9c-9137-966361107063","ios":"levelo://app?vid=19570b06-afa6-4d9c-9137-966361107063"},"vehicle_type_id":"4","last_reported":1729375750,"current_range_meters":24800,"station_id":"ce4bgt12rcd13ifvqce0","pricing_plan_id":"cebpf4jnsgd1na2vs0mg"},{"bike_id":"5dd719ab-a213-4094-b2e1-609f6924f39b","system_id":"levelo_inurba_marseille","lat":43.31992,"lon":5.381624,"is_reserved":false,"is_disabled":false,"rental_uris":{"android":"levelo://app?vid=5dd719ab-a213-4094-b2e1-609f6924f39b","ios":"levelo://app?vid=5dd719ab-a213-4094-b2e1-609f6924f39b"},"vehicle_type_id":"4","last_reported":1729375750,"current_range_meters":37600,"station_id":"ce4bhr12rcd13ifvqhpg","pricing_plan_id":"cebpf4jnsgd1na2vs0mg"},{"bike_id":"dd13cdb6-b3f8-44c0-bd53-9042589aae7d","system_id":"levelo_inurba_marseille","lat":43.28435,"lon":5.39189,"is_reserved":false,"is_disabled":false,"rental_uris":{"android":"levelo://app?vid=dd13cdb6-b3f8-44c0-bd53-9042589aae7d","ios":"levelo://app?vid=dd13cdb6-b3f8-44c0-bd53-9042589aae7d"},"vehicle_type_id":"4","last_reported":1729375750,"current_range_meters":21600,"station_id":"ce4bhoh2rcd13ifvqh5g","pricing_plan_id":"cebpf4jnsgd1na2vs0mg"},{"bike_id":"8e3aae00-e224-4e62-89fd-ad80713ca34c","system_id":"levelo_inurba_marseille","lat":43.29531,"lon":5.38544,"is_reserved":false,"is_disabled":false,"rental_uris":{"android":"levelo://app?vid=8e3aae00-e224-4e62-89fd-ad80713ca34c","ios":"levelo://app?vid=8e3aae00-e224-4e62-89fd-ad80713ca34c"},"vehicle_type_id":"4","last_reported":1729375750,"current_range_meters":25600,"station_id":"ce4bgih2rcd13ifvqba0","pricing_plan_id":"cebpf4jnsgd1na2vs0mg"},{"bike_id":"8c7494aa-0ea3-4849-b765-3410d302e855","system_id":"levelo_inurba_marseille","lat":43.292206,"lon":5.361461,"is_reserved":false,"is_disabled":false,"rental_uris":{"android":"levelo://app?vid=8c7494aa-0ea3-4849-b765-3410d302e855","ios":"levelo://app?vid=8c7494aa-0ea3-4849-b765-3410d302e855"},"vehicle_type_id":"4","last_reported":1729375750,"current_range_meters":9600,"station_id":"ce4bgnh2rcd13ifvqc0g","pricing_plan_id":"cebpf4jnsgd1na2vs0mg"},{"bike_id":"6d33b954-6503-4719-bc2a-59842fe24f6c","system_id":"levelo_inurba_marseille","lat":43.285156,"lon":5.381628,"is_reserved":false,"is_disabled":false,"rental_uris":{"android":"levelo://app?vid=6d33b954-6503-4719-bc2a-59842fe24f6c","ios":"levelo://app?vid=6d33b954-6503-4719-bc2a-59842fe24f6c"},"vehicle_type_id":"4","last_reported":1729375750,"current_range_meters":11600,"station_id":"ce4bh5p2rcd13ifvqe4g","pricing_plan_id":"cebpf4jnsgd1na2vs0mg"},{"bike_id":"00e7f300-5489-4a7b-806b-f9a497338933","system_id":"levelo_inurba_marseille","lat":43.23152,"lon":5.43706,"is_reserved":false,"is_disabled":false,"rental_uris":{"android":"levelo://app?vid=00e7f300-5489-4a7b-806b-f9a497338933","ios":"levelo://app?vid=00e7f300-5489-4a7b-806b-f9a497338933"},"vehicle_type_id":"4","last_reported":1729375750,"current_range_meters":8400,"station_id":"ce4bhmp2rcd13ifvqgog","pricing_plan_id":"cebpf4jnsgd1na2vs0mg"},{"bike_id":"39e0a788-2209-4060-bfb0-c61904195e4a","system_id":"levelo_inurba_marseille","lat":43.2903,"lon":5.38641,"is_reserved":false,"is_disabled":false,"rental_uris":{"android":"levelo://app?vid=39e0a788-2209-4060-bfb0-c61904195e4a","ios":"levelo://app?vid=39e0a788-2209-4060-bfb0-c61904195e4a"},"vehicle_type_id":"4","last_reported":1729375750,"current_range_meters":37600,"station_id":"ce4bh4p2rcd13ifvqe0g","pricing_plan_id":"cebpf4jnsgd1na2vs0mg"},{"bike_id":"742c2f9b-af19-4a4a-a8eb-990f2f71325b","system_id":"levelo_inurba_marseille","lat":43.28104,"lon":5.37834,"is_reserved":false,"is_disabled":false,"rental_uris":{"android":"levelo://app?vid=742c2f9b-af19-4a4a-a8eb-990f2f71325b","ios":"levelo://app?vid=742c2f9b-af19-4a4a-a8eb-990f2f71325b"},"vehicle_type_id":"4","last_reported":1729375750,"current_range_meters":23200,"station_id":"ce4bha12rcd13ifvqee0","pricing_plan_id":"cebpf4jnsgd1na2vs0mg"},{"bike_id":"90242507-6246-42b3-bfae-9b7f2cf0d473","system_id":"levelo_inurba_marseille","lat":43.2937,"lon":5.37828,"is_reserved":false,"is_disabled":false,"rental_uris":{"android":"levelo://app?vid=90242507-6246-42b3-bfae-9b7f2cf0d473","ios":"levelo://app?vid=90242507-6246-42b3-bfae-9b7f2cf0d473"},"vehicle_type_id":"4","last_reported":1729375750,"current_range_meters":38000,"station_id":"ce4bgjh2rcd13ifvqbf0","pricing_plan_id":"cebpf4jnsgd1na2vs0mg"},{"bike_id":"5f181de5-971b-4e62-8fe1-4fbba3f53f7e","system_id":"levelo_inurba_marseille","lat":43.31329,"lon":5.39703,"is_reserved":false,"is_disabled":false,"rental_uris":{"android":"levelo://app?vid=5f181de5-971b-4e62-8fe1-4fbba3f53f7e","ios":"levelo://app?vid=5f181de5-971b-4e62-8fe1-4fbba3f53f7e"},"vehicle_type_id":"4","last_reported":1729375750,"current_range_meters":27600,"station_id":"ce4bgvp2rcd13ifvqcu0","pricing_plan_id":"cebpf4jnsgd1na2vs0mg"},{"bike_id":"88a6c16e-2cb9-4142-9434-e66382622780","system_id":"levelo_inurba_marseille","lat":43.323159,"lon":5.406162,"is_reserved":false,"is_disabled":false,"rental_uris":{"android":"levelo://app?vid=88a6c16e-2cb9-4142-9434-e66382622780","ios":"levelo://app?vid=88a6c16e-2cb9-4142-9434-e66382622780"},"vehicle_type_id":"4","last_reported":1729375750,"current_range_meters":20000,"station_id":"ce4bhq92rcd13ifvqhjg","pricing_plan_id":"cebpf4jnsgd1na2vs0mg"},{"bike_id":"82795302-3102-4f30-900c-f73639741617","system_id":"levelo_inurba_marseille","lat":43.30605,"lon":5.37217,"is_reserved":false,"is_disabled":false,"rental_uris":{"android":"levelo://app?vid=82795302-3102-4f30-900c-f73639741617","ios":"levelo://app?vid=82795302-3102-4f30-900c-f73639741617"},"vehicle_type_id":"4","last_reported":1729375750,"current_range_meters":22800,"station_id":"ce4bgqh2rcd13ifvqc4g","pricing_plan_id":"cebpf4jnsgd1na2vs0mg"},{"bike_id":"62888de0-0e6e-4b00-8ac5-3886ef4ca546","system_id":"levelo_inurba_marseille","lat":43.28278,"lon":5.35079,"is_reserved":false,"is_disabled":false,"rental_uris":{"android":"levelo://app?vid=62888de0-0e6e-4b00-8ac5-3886ef4ca546","ios":"levelo://app?vid=62888de0-0e6e-4b00-8ac5-3886ef4ca546"},"vehicle_type_id":"4","last_reported":1729375750,"current_range_meters":20400,"station_id":"ce4bhbp2rcd13ifvqerg","pricing_plan_id":"cebpf4jnsgd1na2vs0mg"},{"bike_id":"a50da574-03c5-475b-b6c5-e3885a5b2ef0","system_id":"levelo_inurba_marseille","lat":43.28152,"lon":5.42635,"is_reserved":false,"is_disabled":false,"rental_uris":{"android":"levelo://app?vid=a50da574-03c5-475b-b6c5-e3885a5b2ef0","ios":"levelo://app?vid=a50da574-03c5-475b-b6c5-e3885a5b2ef0"},"vehicle_type_id":"4","last_reported":1729375750,"current_range_meters":20800,"station_id":"ce4bhnh2rcd13ifvqgug","pricing_plan_id":"cebpf4jnsgd1na2vs0mg"},{"bike_id":"fac9a3a2-2dd0-4efd-afd6-73cc4f4edd9a","system_id":"levelo_inurba_marseille","lat":43.24809,"lon":5.37459,"is_reserved":false,"is_disabled":false,"rental_uris":{"android":"levelo://app?vid=fac9a3a2-2dd0-4efd-afd6-73cc4f4edd9a","ios":"levelo://app?vid=fac9a3a2-2dd0-4efd-afd6-73cc4f4edd9a"},"vehicle_type_id":"4","last_reported":1729375750,"current_range_meters":38800,"station_id":"ce4bhgh2rcd13ifvqfb0","pricing_plan_id":"cebpf4jnsgd1na2vs0mg"},{"bike_id":"452d0013-e3a0-4b71-8054-83321f27adef","system_id":"levelo_inurba_marseille","lat":43.31708,"lon":5.43704,"is_reserved":false,"is_disabled":false,"rental_uris":{"android":"levelo://app?vid=452d0013-e3a0-4b71-8054-83321f27adef","ios":"levelo://app?vid=452d0013-e3a0-4b71-8054-83321f27adef"},"vehicle_type_id":"4","last_reported":1729375750,"current_range_meters":30400,"station_id":"ce4bhp92rcd13ifvqhcg","pricing_plan_id":"cebpf4jnsgd1na2vs0mg"},{"bike_id":"ff6acccb-63f8-4575-bc15-445527159362","system_id":"levelo_inurba_marseille","lat":43.29572,"lon":5.37523,"is_reserved":false,"is_disabled":false,"rental_uris":{"android":"levelo://app?vid=ff6acccb-63f8-4575-bc15-445527159362","ios":"levelo://app?vid=ff6acccb-63f8-4575-bc15-445527159362"},"vehicle_type_id":"4","last_reported":1729375750,"current_range_meters":35200,"station_id":"ce4bgh92rcd13ifvqb50","pricing_plan_id":"cebpf4jnsgd1na2vs0mg"},{"bike_id":"7c795450-e862-41a2-a711-f5741f091cf9","system_id":"levelo_inurba_marseille","lat":43.22937,"lon":5.35378,"is_reserved":false,"is_disabled":false,"rental_uris":{"android":"levelo://app?vid=7c795450-e862-41a2-a711-f5741f091cf9","ios":"levelo://app?vid=7c795450-e862-41a2-a711-f5741f091cf9"},"vehicle_type_id":"4","last_reported":1729375750,"current_range_meters":28800,"station_id":"cpo3532slgdg3j2ikp40","pricing_plan_id":"cebpf4jnsgd1na2vs0mg"},{"bike_id":"975a1620-0a6d-4c4e-a1d9-1cac007aef6d","system_id":"levelo_inurba_marseille","lat":43.23152,"lon":5.4372,"is_reserved":false,"is_disabled":false,"rental_uris":{"android":"levelo://app?vid=975a1620-0a6d-4c4e-a1d9-1cac007aef6d","ios":"levelo://app?vid=975a1620-0a6d-4c4e-a1d9-1cac007aef6d"},"vehicle_type_id":"4","last_reported":1729375750,"current_range_meters":38800,"station_id":"ce4bhmp2rcd13ifvqgog","pricing_plan_id":"cebpf4jnsgd1na2vs0mg"},{"bike_id":"528fef3b-bb8b-42d1-985d-ca1adbc390f0","system_id":"levelo_inurba_marseille","lat":43.243868,"lon":5.370544,"is_reserved":false,"is_disabled":false,"rental_uris":{"android":"levelo://app?vid=528fef3b-bb8b-42d1-985d-ca1adbc390f0","ios":"levelo://app?vid=528fef3b-bb8b-42d1-985d-ca1adbc390f0"},"vehicle_type_id":"4","last_reported":1729375750,"current_range_meters":14000,"station_id":"ce4bhhh2rcd13ifvqfk0","pricing_plan_id":"cebpf4jnsgd1na2vs0mg"},{"bike_id":"9fbaf6d7-d66f-469e-ad7b-e24f4ad62bf2","system_id":"levelo_inurba_marseille","lat":43.31117,"lon":5.37773,"is_reserved":false,"is_disabled":false,"rental_uris":{"android":"levelo://app?vid=9fbaf6d7-d66f-469e-ad7b-e24f4ad62bf2","ios":"levelo://app?vid=9fbaf6d7-d66f-469e-ad7b-e24f4ad62bf2"},"vehicle_type_id":"4","last_reported":1729375750,"current_range_meters":38800,"station_id":"ce4bgt92rcd13ifvqcg0","pricing_plan_id":"cebpf4jnsgd1na2vs0mg"},{"bike_id":"ceb1603d-2c49-4a2f-971f-80e7a3348d6a","system_id":"levelo_inurba_marseille","lat":43.33027,"lon":5.39045,"is_reserved":false,"is_disabled":false,"rental_uris":{"android":"levelo://app?vid=ceb1603d-2c49-4a2f-971f-80e7a3348d6a","ios":"levelo://app?vid=ceb1603d-2c49-4a2f-971f-80e7a3348d6a"},"vehicle_type_id":"4","last_reported":1729375750,"current_range_meters":30800,"station_id":"ce4bhr92rcd13ifvqhrg","pricing_plan_id":"cebpf4jnsgd1na2vs0mg"},{"bike_id":"90caed9f-a90e-4628-acdc-9eb6257b7409","system_id":"levelo_inurba_marseille","lat":43.28445,"lon":5.39149,"is_reserved":false,"is_disabled":false,"rental_uris":{"android":"levelo://app?vid=90caed9f-a90e-4628-acdc-9eb6257b7409","ios":"levelo://app?vid=90caed9f-a90e-4628-acdc-9eb6257b7409"},"vehicle_type_id":"4","last_reported":1729375750,"current_range_meters":38800,"station_id":"ce4bhoh2rcd13ifvqh5g","pricing_plan_id":"cebpf4jnsgd1na2vs0mg"},{"bike_id":"9844e503-d4bc-48f3-9db5-980e55dc4bec","system_id":"levelo_inurba_marseille","lat":43.28458,"lon":5.35875,"is_reserved":false,"is_disabled":false,"rental_uris":{"android":"levelo://app?vid=9844e503-d4bc-48f3-9db5-980e55dc4bec","ios":"levelo://app?vid=9844e503-d4bc-48f3-9db5-980e55dc4bec"},"vehicle_type_id":"4","last_reported":1729375750,"current_range_meters":32000,"station_id":"ce4bhah2rcd13ifvqei0","pricing_plan_id":"cebpf4jnsgd1na2vs0mg"},{"bike_id":"8f3e897c-091e-428e-92e2-05d32fbfe4e7","system_id":"levelo_inurba_marseille","lat":43.306003,"lon":5.39347,"is_reserved":false,"is_disabled":false,"rental_uris":{"android":"levelo://app?vid=8f3e897c-091e-428e-92e2-05d32fbfe4e7","ios":"levelo://app?vid=8f3e897c-091e-428e-92e2-05d32fbfe4e7"},"vehicle_type_id":"4","last_reported":1729375750,"current_range_meters":36800,"station_id":"ce4bh0p2rcd13ifvqd80","pricing_plan_id":"cebpf4jnsgd1na2vs0mg"},{"bike_id":"2712a50f-61b7-42b9-8f6e-832dd119894e","system_id":"levelo_inurba_marseille","lat":43.29565,"lon":5.39971,"is_reserved":false,"is_disabled":false,"rental_uris":{"android":"levelo://app?vid=2712a50f-61b7-42b9-8f6e-832dd119894e","ios":"levelo://app?vid=2712a50f-61b7-42b9-8f6e-832dd119894e"},"vehicle_type_id":"4","last_reported":1729375750,"current_range_meters":39200,"station_id":"ce4bh312rcd13ifvqdj0","pricing_plan_id":"cebpf4jnsgd1na2vs0mg"},{"bike_id":"4cf3e5d8-4f9a-4007-b965-622ecd99339e","system_id":"levelo_inurba_marseille","lat":43.31074,"lon":5.40085,"is_reserved":false,"is_disabled":false,"rental_uris":{"android":"levelo://app?vid=4cf3e5d8-4f9a-4007-b965-622ecd99339e","ios":"levelo://app?vid=4cf3e5d8-4f9a-4007-b965-622ecd99339e"},"vehicle_type_id":"4","last_reported":1729375750,"current_range_meters":10000,"station_id":"","pricing_plan_id":"cebpf4jnsgd1na2vs0mg"},{"bike_id":"c34e2acb-3afe-4aa1-8cdb-c481d100b683","system_id":"levelo_inurba_marseille","lat":43.32479,"lon":5.36548,"is_reserved":false,"is_disabled":false,"rental_uris":{"android":"levelo://app?vid=c34e2acb-3afe-4aa1-8cdb-c481d100b683","ios":"levelo://app?vid=c34e2acb-3afe-4aa1-8cdb-c481d100b683"},"vehicle_type_id":"4","last_reported":1729375750,"current_range_meters":22800,"station_id":"ce4bhs12rcd13ifvqhvg","pricing_plan_id":"cebpf4jnsgd1na2vs0mg"},{"bike_id":"19e0c7ba-a3f7-43e2-aca8-366f22e4e87d","system_id":"levelo_inurba_marseille","lat":43.33719,"lon":5.39184,"is_reserved":false,"is_disabled":false,"rental_uris":{"android":"levelo://app?vid=19e0c7ba-a3f7-43e2-aca8-366f22e4e87d","ios":"levelo://app?vid=19e0c7ba-a3f7-43e2-aca8-366f22e4e87d"},"vehicle_type_id":"4","last_reported":1729375750,"current_range_meters":38800,"station_id":"ce4bhr92rcd13ifvqhsg","pricing_plan_id":"cebpf4jnsgd1na2vs0mg"},{"bike_id":"e5bee9a2-d951-49f9-bc3e-8da64d00955b","system_id":"levelo_inurba_marseille","lat":43.29197,"lon":5.39327,"is_reserved":false,"is_disabled":false,"rental_uris":{"android":"levelo://app?vid=e5bee9a2-d951-49f9-bc3e-8da64d00955b","ios":"levelo://app?vid=e5bee9a2-d951-49f9-bc3e-8da64d00955b"},"vehicle_type_id":"4","last_reported":1729375750,"current_range_meters":38800,"station_id":"ce4bh192rcd13ifvqdd0","pricing_plan_id":"cebpf4jnsgd1na2vs0mg"},{"bike_id":"f9928a1b-5e01-4359-8549-3825d8c7f41a","system_id":"levelo_inurba_marseille","lat":43.2293,"lon":5.35371,"is_reserved":false,"is_disabled":false,"rental_uris":{"android":"levelo://app?vid=f9928a1b-5e01-4359-8549-3825d8c7f41a","ios":"levelo://app?vid=f9928a1b-5e01-4359-8549-3825d8c7f41a"},"vehicle_type_id":"4","last_reported":1729375750,"current_range_meters":38800,"station_id":"cpo3532slgdg3j2ikp40","pricing_plan_id":"cebpf4jnsgd1na2vs0mg"},{"bike_id":"0176aaf7-b3c6-4930-ad5b-7ad988515c72","system_id":"levelo_inurba_marseille","lat":43.28439,"lon":5.39187,"is_reserved":false,"is_disabled":false,"rental_uris":{"android":"levelo://app?vid=0176aaf7-b3c6-4930-ad5b-7ad988515c72","ios":"levelo://app?vid=0176aaf7-b3c6-4930-ad5b-7ad988515c72"},"vehicle_type_id":"4","last_reported":1729375750,"current_range_meters":17200,"station_id":"ce4bhoh2rcd13ifvqh5g","pricing_plan_id":"cebpf4jnsgd1na2vs0mg"},{"bike_id":"da57fedc-7e7e-49e9-b674-21ebe804bbf1","system_id":"levelo_inurba_marseille","lat":43.31112,"lon":5.37767,"is_reserved":false,"is_disabled":false,"rental_uris":{"android":"levelo://app?vid=da57fedc-7e7e-49e9-b674-21ebe804bbf1","ios":"levelo://app?vid=da57fedc-7e7e-49e9-b674-21ebe804bbf1"},"vehicle_type_id":"4","last_reported":1729375750,"current_range_meters":33600,"station_id":"ce4bgt92rcd13ifvqcg0","pricing_plan_id":"cebpf4jnsgd1na2vs0mg"},{"bike_id":"a7b7a404-4daf-4700-b81b-e63a35f02840","system_id":"levelo_inurba_marseille","lat":43.24389,"lon":5.37065,"is_reserved":false,"is_disabled":false,"rental_uris":{"android":"levelo://app?vid=a7b7a404-4daf-4700-b81b-e63a35f02840","ios":"levelo://app?vid=a7b7a404-4daf-4700-b81b-e63a35f02840"},"vehicle_type_id":"4","last_reported":1729375750,"current_range_meters":38000,"station_id":"ce4bhhh2rcd13ifvqfk0","pricing_plan_id":"cebpf4jnsgd1na2vs0mg"},{"bike_id":"721de7b0-fa5f-415e-9794-62464485acc5","system_id":"levelo_inurba_marseille","lat":43.27954,"lon":5.41041,"is_reserved":false,"is_disabled":false,"rental_uris":{"android":"levelo://app?vid=721de7b0-fa5f-415e-9794-62464485acc5","ios":"levelo://app?vid=721de7b0-fa5f-415e-9794-62464485acc5"},"vehicle_type_id":"4","last_reported":1729375750,"current_range_meters":37600,"station_id":"ce4bhnp2rcd13ifvqh0g","pricing_plan_id":"cebpf4jnsgd1na2vs0mg"},{"bike_id":"ee026ab5-3618-48cd-990a-86fb331daa48","system_id":"levelo_inurba_marseille","lat":43.28722,"lon":5.36081,"is_reserved":false,"is_disabled":false,"rental_uris":{"android":"levelo://app?vid=ee026ab5-3618-48cd-990a-86fb331daa48","ios":"levelo://app?vid=ee026ab5-3618-48cd-990a-86fb331daa48"},"vehicle_type_id":"4","last_reported":1729375750,"current_range_meters":8400,"station_id":"cki0cbj6b192h4jlfktg","pricing_plan_id":"cebpf4jnsgd1na2vs0mg"},{"bike_id":"c9515746-ed3d-4c0e-bcd1-aa6f785d2e54","system_id":"levelo_inurba_marseille","lat":43.25491,"lon":5.37649,"is_reserved":false,"is_disabled":false,"rental_uris":{"android":"levelo://app?vid=c9515746-ed3d-4c0e-bcd1-aa6f785d2e54","ios":"levelo://app?vid=c9515746-ed3d-4c0e-bcd1-aa6f785d2e54"},"vehicle_type_id":"4","last_reported":1729375750,"current_range_meters":16800,"station_id":"ce4bhh12rcd13ifvqff0","pricing_plan_id":"cebpf4jnsgd1na2vs0mg"},{"bike_id":"c20966b6-ffc8-4c6f-bf62-6d2a5e9ebf5e","system_id":"levelo_inurba_marseille","lat":43.28662,"lon":5.36346,"is_reserved":false,"is_disabled":false,"rental_uris":{"android":"levelo://app?vid=c20966b6-ffc8-4c6f-bf62-6d2a5e9ebf5e","ios":"levelo://app?vid=c20966b6-ffc8-4c6f-bf62-6d2a5e9ebf5e"},"vehicle_type_id":"4","last_reported":1729375750,"current_range_meters":31200,"station_id":"ce4bhah2rcd13ifvqej0","pricing_plan_id":"cebpf4jnsgd1na2vs0mg"},{"bike_id":"3275310f-13c2-4828-8d4d-15d251282b8d","system_id":"levelo_inurba_marseille","lat":43.28416,"lon":5.37518,"is_reserved":false,"is_disabled":false,"rental_uris":{"android":"levelo://app?vid=3275310f-13c2-4828-8d4d-15d251282b8d","ios":"levelo://app?vid=3275310f-13c2-4828-8d4d-15d251282b8d"},"vehicle_type_id":"4","last_reported":1729375750,"current_range_meters":28000,"station_id":"ce4bh412rcd13ifvqds0","pricing_plan_id":"cebpf4jnsgd1na2vs0mg"},{"bike_id":"b93101f8-a05a-4fc2-b02f-4d966ae07023","system_id":"levelo_inurba_marseille","lat":43.31176,"lon":5.38707,"is_reserved":false,"is_disabled":false,"rental_uris":{"android":"levelo://app?vid=b93101f8-a05a-4fc2-b02f-4d966ae07023","ios":"levelo://app?vid=b93101f8-a05a-4fc2-b02f-4d966ae07023"},"vehicle_type_id":"4","last_reported":1729375750,"current_range_meters":39200,"station_id":"ce4bgv12rcd13ifvqcp0","pricing_plan_id":"cebpf4jnsgd1na2vs0mg"},{"bike_id":"979c9729-008f-48db-b338-59c5cff0384e","system_id":"levelo_inurba_marseille","lat":43.31345,"lon":5.36721,"is_reserved":false,"is_disabled":false,"rental_uris":{"android":"levelo://app?vid=979c9729-008f-48db-b338-59c5cff0384e","ios":"levelo://app?vid=979c9729-008f-48db-b338-59c5cff0384e"},"vehicle_type_id":"4","last_reported":1729375750,"current_range_meters":38800,"station_id":"ce4bgr92rcd13ifvqc6g","pricing_plan_id":"cebpf4jnsgd1na2vs0mg"},{"bike_id":"1300ab55-ec5b-4567-90f8-31787bbb8409","system_id":"levelo_inurba_marseille","lat":43.30132,"lon":5.38089,"is_reserved":false,"is_disabled":false,"rental_uris":{"android":"levelo://app?vid=1300ab55-ec5b-4567-90f8-31787bbb8409","ios":"levelo://app?vid=1300ab55-ec5b-4567-90f8-31787bbb8409"},"vehicle_type_id":"4","last_reported":1729375750,"current_range_meters":38000,"station_id":"ce4bgjp2rcd13ifvqbh0","pricing_plan_id":"cebpf4jnsgd1na2vs0mg"},{"bike_id":"b42bdfa7-4bae-4e93-be24-5a07837b151f","system_id":"levelo_inurba_marseille","lat":43.29034,"lon":5.38645,"is_reserved":false,"is_disabled":false,"rental_uris":{"android":"levelo://app?vid=b42bdfa7-4bae-4e93-be24-5a07837b151f","ios":"levelo://app?vid=b42bdfa7-4bae-4e93-be24-5a07837b151f"},"vehicle_type_id":"4","last_reported":1729375750,"current_range_meters":4800,"station_id":"ce4bh4p2rcd13ifvqe0g","pricing_plan_id":"cebpf4jnsgd1na2vs0mg"},{"bike_id":"3049b589-f7d6-4889-a21b-17618fe6b55b","system_id":"levelo_inurba_marseille","lat":43.27812,"lon":5.40709,"is_reserved":false,"is_disabled":false,"rental_uris":{"android":"levelo://app?vid=3049b589-f7d6-4889-a21b-17618fe6b55b","ios":"levelo://app?vid=3049b589-f7d6-4889-a21b-17618fe6b55b"},"vehicle_type_id":"4","last_reported":1729375750,"current_range_meters":4800,"station_id":"ce4bhnh2rcd13ifvqgtg","pricing_plan_id":"cebpf4jnsgd1na2vs0mg"},{"bike_id":"fbdac3bf-82a9-48aa-9126-a52507838ce3","system_id":"levelo_inurba_marseille","lat":43.29651,"lon":5.37352,"is_reserved":false,"is_disabled":false,"rental_uris":{"android":"levelo://app?vid=fbdac3bf-82a9-48aa-9126-a52507838ce3","ios":"levelo://app?vid=fbdac3bf-82a9-48aa-9126-a52507838ce3"},"vehicle_type_id":"4","last_reported":1729375750,"current_range_meters":4400,"station_id":"","pricing_plan_id":"cebpf4jnsgd1na2vs0mg"},{"bike_id":"251c2ece-8912-4dfb-9847-d8f9ff013dd6","system_id":"levelo_inurba_marseille","lat":43.24667,"lon":5.3817,"is_reserved":false,"is_disabled":false,"rental_uris":{"android":"levelo://app?vid=251c2ece-8912-4dfb-9847-d8f9ff013dd6","ios":"levelo://app?vid=251c2ece-8912-4dfb-9847-d8f9ff013dd6"},"vehicle_type_id":"4","last_reported":1729375750,"current_range_meters":24800,"station_id":"ce4bhih2rcd13ifvqfr0","pricing_plan_id":"cebpf4jnsgd1na2vs0mg"},{"bike_id":"fcf42103-4b78-4bbb-9107-fb8e6a7cab3a","system_id":"levelo_inurba_marseille","lat":43.31062,"lon":5.38345,"is_reserved":false,"is_disabled":false,"rental_uris":{"android":"levelo://app?vid=fcf42103-4b78-4bbb-9107-fb8e6a7cab3a","ios":"levelo://app?vid=fcf42103-4b78-4bbb-9107-fb8e6a7cab3a"},"vehicle_type_id":"4","last_reported":1729375750,"current_range_meters":36400,"station_id":"ce4bgv92rcd13ifvqcr0","pricing_plan_id":"cebpf4jnsgd1na2vs0mg"},{"bike_id":"831694b9-27d1-4291-a73b-97f20f1db91f","system_id":"levelo_inurba_marseille","lat":43.25084,"lon":5.39529,"is_reserved":false,"is_disabled":false,"rental_uris":{"android":"levelo://app?vid=831694b9-27d1-4291-a73b-97f20f1db91f","ios":"levelo://app?vid=831694b9-27d1-4291-a73b-97f20f1db91f"},"vehicle_type_id":"4","last_reported":1729375750,"current_range_meters":38800,"station_id":"ce4bhm12rcd13ifvqgkg","pricing_plan_id":"cebpf4jnsgd1na2vs0mg"},{"bike_id":"0c4829f6-ddc4-4463-b763-9fb4711c5979","system_id":"levelo_inurba_marseille","lat":43.28573,"lon":5.39498,"is_reserved":false,"is_disabled":false,"rental_uris":{"android":"levelo://app?vid=0c4829f6-ddc4-4463-b763-9fb4711c5979","ios":"levelo://app?vid=0c4829f6-ddc4-4463-b763-9fb4711c5979"},"vehicle_type_id":"4","last_reported":1729375750,"current_range_meters":25200,"station_id":"ce4bh292rcd13ifvqdg0","pricing_plan_id":"cebpf4jnsgd1na2vs0mg"},{"bike_id":"48cfdb9c-e73d-4b76-a21b-179a33e07bed","system_id":"levelo_inurba_marseille","lat":43.27941,"lon":5.4104,"is_reserved":false,"is_disabled":false,"rental_uris":{"android":"levelo://app?vid=48cfdb9c-e73d-4b76-a21b-179a33e07bed","ios":"levelo://app?vid=48cfdb9c-e73d-4b76-a21b-179a33e07bed"},"vehicle_type_id":"4","last_reported":1729375750,"current_range_meters":35200,"station_id":"ce4bhnp2rcd13ifvqh0g","pricing_plan_id":"cebpf4jnsgd1na2vs0mg"},{"bike_id":"d66bd0ae-b590-4029-ae7d-0fa65a35f925","system_id":"levelo_inurba_marseille","lat":43.33602,"lon":5.41026,"is_reserved":false,"is_disabled":false,"rental_uris":{"android":"levelo://app?vid=d66bd0ae-b590-4029-ae7d-0fa65a35f925","ios":"levelo://app?vid=d66bd0ae-b590-4029-ae7d-0fa65a35f925"},"vehicle_type_id":"4","last_reported":1729375750,"current_range_meters":20800,"station_id":"ce4bhqh2rcd13ifvqhmg","pricing_plan_id":"cebpf4jnsgd1na2vs0mg"},{"bike_id":"07791f7e-255c-4a03-aa6d-f8235e1aad4b","system_id":"levelo_inurba_marseille","lat":43.29856,"lon":5.38365,"is_reserved":false,"is_disabled":false,"rental_uris":{"android":"levelo://app?vid=07791f7e-255c-4a03-aa6d-f8235e1aad4b","ios":"levelo://app?vid=07791f7e-255c-4a03-aa6d-f8235e1aad4b"},"vehicle_type_id":"4","last_reported":1729375750,"current_range_meters":2800,"station_id":"","pricing_plan_id":"cebpf4jnsgd1na2vs0mg"},{"bike_id":"7a0b54ba-5cd8-4832-9610-44c3245cc91d","system_id":"levelo_inurba_marseille","lat":43.31712,"lon":5.43702,"is_reserved":false,"is_disabled":false,"rental_uris":{"android":"levelo://app?vid=7a0b54ba-5cd8-4832-9610-44c3245cc91d","ios":"levelo://app?vid=7a0b54ba-5cd8-4832-9610-44c3245cc91d"},"vehicle_type_id":"4","last_reported":1729375750,"current_range_meters":12800,"station_id":"ce4bhp92rcd13ifvqhcg","pricing_plan_id":"cebpf4jnsgd1na2vs0mg"},{"bike_id":"a4c1cd7c-d39c-4f84-be44-a97d0900cd38","system_id":"levelo_inurba_marseille","lat":43.26216,"lon":5.37439,"is_reserved":false,"is_disabled":false,"rental_uris":{"android":"levelo://app?vid=a4c1cd7c-d39c-4f84-be44-a97d0900cd38","ios":"levelo://app?vid=a4c1cd7c-d39c-4f84-be44-a97d0900cd38"},"vehicle_type_id":"4","last_reported":1729375750,"current_range_meters":19200,"station_id":"ce4bhgp2rcd13ifvqfc0","pricing_plan_id":"cebpf4jnsgd1na2vs0mg"},{"bike_id":"02b99d41-0727-45dd-8b05-f76d6d331f44","system_id":"levelo_inurba_marseille","lat":43.28105,"lon":5.37845,"is_reserved":false,"is_disabled":false,"rental_uris":{"android":"levelo://app?vid=02b99d41-0727-45dd-8b05-f76d6d331f44","ios":"levelo://app?vid=02b99d41-0727-45dd-8b05-f76d6d331f44"},"vehicle_type_id":"4","last_reported":1729375750,"current_range_meters":12800,"station_id":"ce4bha12rcd13ifvqee0","pricing_plan_id":"cebpf4jnsgd1na2vs0mg"},{"bike_id":"f3b18d4c-688e-4e02-9104-7f1d559134af","system_id":"levelo_inurba_marseille","lat":43.32103,"lon":5.36765,"is_reserved":false,"is_disabled":false,"rental_uris":{"android":"levelo://app?vid=f3b18d4c-688e-4e02-9104-7f1d559134af","ios":"levelo://app?vid=f3b18d4c-688e-4e02-9104-7f1d559134af"},"vehicle_type_id":"4","last_reported":1729375750,"current_range_meters":38800,"station_id":"ce4bhrh2rcd13ifvqhug","pricing_plan_id":"cebpf4jnsgd1na2vs0mg"},{"bike_id":"40d9bb94-6dca-487f-b5f3-dd0faff73341","system_id":"levelo_inurba_marseille","lat":43.25728,"lon":5.41109,"is_reserved":false,"is_disabled":false,"rental_uris":{"android":"levelo://app?vid=40d9bb94-6dca-487f-b5f3-dd0faff73341","ios":"levelo://app?vid=40d9bb94-6dca-487f-b5f3-dd0faff73341"},"vehicle_type_id":"4","last_reported":1729375750,"current_range_meters":24000,"station_id":"ce4bhkp2rcd13ifvqgd0","pricing_plan_id":"cebpf4jnsgd1na2vs0mg"},{"bike_id":"fc9b3fc1-600b-416a-b916-9cf37562dae6","system_id":"levelo_inurba_marseille","lat":43.31324,"lon":5.39688,"is_reserved":false,"is_disabled":false,"rental_uris":{"android":"levelo://app?vid=fc9b3fc1-600b-416a-b916-9cf37562dae6","ios":"levelo://app?vid=fc9b3fc1-600b-416a-b916-9cf37562dae6"},"vehicle_type_id":"4","last_reported":1729375750,"current_range_meters":37600,"station_id":"ce4bgvp2rcd13ifvqcu0","pricing_plan_id":"cebpf4jnsgd1na2vs0mg"},{"bike_id":"8a61b0d3-96ba-49fc-af75-dd8176297036","system_id":"levelo_inurba_marseille","lat":43.23964,"lon":5.3663,"is_reserved":false,"is_disabled":false,"rental_uris":{"android":"levelo://app?vid=8a61b0d3-96ba-49fc-af75-dd8176297036","ios":"levelo://app?vid=8a61b0d3-96ba-49fc-af75-dd8176297036"},"vehicle_type_id":"4","last_reported":1729375750,"current_range_meters":12400,"station_id":"ce4bhi12rcd13ifvqfp0","pricing_plan_id":"cebpf4jnsgd1na2vs0mg"},{"bike_id":"21b8246f-b96a-449b-ad96-4ee94b9cbb49","system_id":"levelo_inurba_marseille","lat":43.29926,"lon":5.37149,"is_reserved":false,"is_disabled":false,"rental_uris":{"android":"levelo://app?vid=21b8246f-b96a-449b-ad96-4ee94b9cbb49","ios":"levelo://app?vid=21b8246f-b96a-449b-ad96-4ee94b9cbb49"},"vehicle_type_id":"4","last_reported":1729375750,"current_range_meters":31200,"station_id":"","pricing_plan_id":"cebpf4jnsgd1na2vs0mg"},{"bike_id":"36043e0b-7b64-462d-a254-7031cb4a5269","system_id":"levelo_inurba_marseille","lat":43.29531,"lon":5.38534,"is_reserved":false,"is_disabled":false,"rental_uris":{"android":"levelo://app?vid=36043e0b-7b64-462d-a254-7031cb4a5269","ios":"levelo://app?vid=36043e0b-7b64-462d-a254-7031cb4a5269"},"vehicle_type_id":"4","last_reported":1729375750,"current_range_meters":38800,"station_id":"ce4bgih2rcd13ifvqba0","pricing_plan_id":"cebpf4jnsgd1na2vs0mg"},{"bike_id":"85d3ade6-3665-431a-a885-89ce0aed83ce","system_id":"levelo_inurba_marseille","lat":43.33601,"lon":5.41013,"is_reserved":false,"is_disabled":false,"rental_uris":{"android":"levelo://app?vid=85d3ade6-3665-431a-a885-89ce0aed83ce","ios":"levelo://app?vid=85d3ade6-3665-431a-a885-89ce0aed83ce"},"vehicle_type_id":"4","last_reported":1729375750,"current_range_meters":20000,"station_id":"ce4bhqh2rcd13ifvqhmg","pricing_plan_id":"cebpf4jnsgd1na2vs0mg"},{"bike_id":"b655f0e5-9f54-4337-9f8f-e40c329da075","system_id":"levelo_inurba_marseille","lat":43.29335,"lon":5.37516,"is_reserved":false,"is_disabled":false,"rental_uris":{"android":"levelo://app?vid=b655f0e5-9f54-4337-9f8f-e40c329da075","ios":"levelo://app?vid=b655f0e5-9f54-4337-9f8f-e40c329da075"},"vehicle_type_id":"4","last_reported":1729375750,"current_range_meters":4800,"station_id":"","pricing_plan_id":"cebpf4jnsgd1na2vs0mg"},{"bike_id":"cdf4a075-8eed-49b4-b191-fd4b5f8e3f68","system_id":"levelo_inurba_marseille","lat":43.29188,"lon":5.39313,"is_reserved":false,"is_disabled":false,"rental_uris":{"android":"levelo://app?vid=cdf4a075-8eed-49b4-b191-fd4b5f8e3f68","ios":"levelo://app?vid=cdf4a075-8eed-49b4-b191-fd4b5f8e3f68"},"vehicle_type_id":"4","last_reported":1729375750,"current_range_meters":6000,"station_id":"ce4bh192rcd13ifvqdd0","pricing_plan_id":"cebpf4jnsgd1na2vs0mg"},{"bike_id":"d5f34506-4f02-46a0-a244-6623ebf6ba53","system_id":"levelo_inurba_marseille","lat":43.29304,"lon":5.37453,"is_reserved":false,"is_disabled":false,"rental_uris":{"android":"levelo://app?vid=d5f34506-4f02-46a0-a244-6623ebf6ba53","ios":"levelo://app?vid=d5f34506-4f02-46a0-a244-6623ebf6ba53"},"vehicle_type_id":"4","last_reported":1729375750,"current_range_meters":31200,"station_id":"ce4bgi12rcd13ifvqb70","pricing_plan_id":"cebpf4jnsgd1na2vs0mg"},{"bike_id":"3fe0d84a-1539-4a2d-b461-eabcc0e083c1","system_id":"levelo_inurba_marseille","lat":43.27195,"lon":5.40981,"is_reserved":false,"is_disabled":false,"rental_uris":{"android":"levelo://app?vid=3fe0d84a-1539-4a2d-b461-eabcc0e083c1","ios":"levelo://app?vid=3fe0d84a-1539-4a2d-b461-eabcc0e083c1"},"vehicle_type_id":"4","last_reported":1729375750,"current_range_meters":24000,"station_id":"ce4bhl12rcd13ifvqgf0","pricing_plan_id":"cebpf4jnsgd1na2vs0mg"},{"bike_id":"d471351f-a112-4ff7-b234-0d1a60bc7f51","system_id":"levelo_inurba_marseille","lat":43.29004,"lon":5.35614,"is_reserved":false,"is_disabled":false,"rental_uris":{"android":"levelo://app?vid=d471351f-a112-4ff7-b234-0d1a60bc7f51","ios":"levelo://app?vid=d471351f-a112-4ff7-b234-0d1a60bc7f51"},"vehicle_type_id":"4","last_reported":1729375750,"current_range_meters":38800,"station_id":"ce4bhb92rcd13ifvqen0","pricing_plan_id":"cebpf4jnsgd1na2vs0mg"},{"bike_id":"bc9e7384-10a4-41c3-8bc2-b03762ee3e00","system_id":"levelo_inurba_marseille","lat":43.27676,"lon":5.39788,"is_reserved":false,"is_disabled":false,"rental_uris":{"android":"levelo://app?vid=bc9e7384-10a4-41c3-8bc2-b03762ee3e00","ios":"levelo://app?vid=bc9e7384-10a4-41c3-8bc2-b03762ee3e00"},"vehicle_type_id":"4","last_reported":1729375750,"current_range_meters":36400,"station_id":"ce4bhdp2rcd13ifvqf20","pricing_plan_id":"cebpf4jnsgd1na2vs0mg"},{"bike_id":"5f955ab8-0cf9-483c-9dc1-b5cca96e8df1","system_id":"levelo_inurba_marseille","lat":43.31223,"lon":5.36845,"is_reserved":false,"is_disabled":false,"rental_uris":{"android":"levelo://app?vid=5f955ab8-0cf9-483c-9dc1-b5cca96e8df1","ios":"levelo://app?vid=5f955ab8-0cf9-483c-9dc1-b5cca96e8df1"},"vehicle_type_id":"4","last_reported":1729375750,"current_range_meters":38800,"station_id":"ce4bgl92rcd13ifvqbq0","pricing_plan_id":"cebpf4jnsgd1na2vs0mg"},{"bike_id":"4f357a8f-803f-4ef1-b82a-19fa9f305e74","system_id":"levelo_inurba_marseille","lat":43.23192,"lon":5.35559,"is_reserved":false,"is_disabled":false,"rental_uris":{"android":"levelo://app?vid=4f357a8f-803f-4ef1-b82a-19fa9f305e74","ios":"levelo://app?vid=4f357a8f-803f-4ef1-b82a-19fa9f305e74"},"vehicle_type_id":"4","last_reported":1729375750,"current_range_meters":38800,"station_id":"ce4bhu92rcd13ifvqi70","pricing_plan_id":"cebpf4jnsgd1na2vs0mg"},{"bike_id":"838948a7-5ca0-4242-8e63-880c98c2871c","system_id":"levelo_inurba_marseille","lat":43.30805,"lon":5.43524,"is_reserved":false,"is_disabled":false,"rental_uris":{"android":"levelo://app?vid=838948a7-5ca0-4242-8e63-880c98c2871c","ios":"levelo://app?vid=838948a7-5ca0-4242-8e63-880c98c2871c"},"vehicle_type_id":"4","last_reported":1729375750,"current_range_meters":38000,"station_id":"ce4bhph2rcd13ifvqheg","pricing_plan_id":"cebpf4jnsgd1na2vs0mg"},{"bike_id":"5394e624-c4df-478f-8acb-d0dfad33bd36","system_id":"levelo_inurba_marseille","lat":43.290009,"lon":5.356181,"is_reserved":false,"is_disabled":false,"rental_uris":{"android":"levelo://app?vid=5394e624-c4df-478f-8acb-d0dfad33bd36","ios":"levelo://app?vid=5394e624-c4df-478f-8acb-d0dfad33bd36"},"vehicle_type_id":"4","last_reported":1729375750,"current_range_meters":22400,"station_id":"","pricing_plan_id":"cebpf4jnsgd1na2vs0mg"},{"bike_id":"bdaf4cca-3144-4b46-87aa-d2e662c78d1a","system_id":"levelo_inurba_marseille","lat":43.3089,"lon":5.39658,"is_reserved":false,"is_disabled":false,"rental_uris":{"android":"levelo://app?vid=bdaf4cca-3144-4b46-87aa-d2e662c78d1a","ios":"levelo://app?vid=bdaf4cca-3144-4b46-87aa-d2e662c78d1a"},"vehicle_type_id":"4","last_reported":1729375750,"current_range_meters":38800,"station_id":"ce4bh012rcd13ifvqcv0","pricing_plan_id":"cebpf4jnsgd1na2vs0mg"},{"bike_id":"21ae7915-82aa-4065-94ce-21441fecf809","system_id":"levelo_inurba_marseille","lat":43.31114,"lon":5.37772,"is_reserved":false,"is_disabled":false,"rental_uris":{"android":"levelo://app?vid=21ae7915-82aa-4065-94ce-21441fecf809","ios":"levelo://app?vid=21ae7915-82aa-4065-94ce-21441fecf809"},"vehicle_type_id":"4","last_reported":1729375750,"current_range_meters":30800,"station_id":"ce4bgt92rcd13ifvqcg0","pricing_plan_id":"cebpf4jnsgd1na2vs0mg"},{"bike_id":"95a81313-841f-4ab2-9799-feed68ce59b7","system_id":"levelo_inurba_marseille","lat":43.23964,"lon":5.36627,"is_reserved":false,"is_disabled":false,"rental_uris":{"android":"levelo://app?vid=95a81313-841f-4ab2-9799-feed68ce59b7","ios":"levelo://app?vid=95a81313-841f-4ab2-9799-feed68ce59b7"},"vehicle_type_id":"4","last_reported":1729375750,"current_range_meters":38400,"station_id":"ce4bhi12rcd13ifvqfp0","pricing_plan_id":"cebpf4jnsgd1na2vs0mg"},{"bike_id":"91f81752-8770-4b0a-9e40-955fd247e0d8","system_id":"levelo_inurba_marseille","lat":43.2586,"lon":5.39906,"is_reserved":false,"is_disabled":false,"rental_uris":{"android":"levelo://app?vid=91f81752-8770-4b0a-9e40-955fd247e0d8","ios":"levelo://app?vid=91f81752-8770-4b0a-9e40-955fd247e0d8"},"vehicle_type_id":"4","last_reported":1729375750,"current_range_meters":38800,"station_id":"ce4bhl92rcd13ifvqghg","pricing_plan_id":"cebpf4jnsgd1na2vs0mg"},{"bike_id":"35ad3b2b-aed2-40ac-9d12-ceed8d94ee92","system_id":"levelo_inurba_marseille","lat":43.290369,"lon":5.359164,"is_reserved":false,"is_disabled":false,"rental_uris":{"android":"levelo://app?vid=35ad3b2b-aed2-40ac-9d12-ceed8d94ee92","ios":"levelo://app?vid=35ad3b2b-aed2-40ac-9d12-ceed8d94ee92"},"vehicle_type_id":"4","last_reported":1729375750,"current_range_meters":4400,"station_id":"","pricing_plan_id":"cebpf4jnsgd1na2vs0mg"},{"bike_id":"3a08dcf4-1b9e-40d0-b1b9-555a488b2bfd","system_id":"levelo_inurba_marseille","lat":43.31152,"lon":5.387,"is_reserved":false,"is_disabled":false,"rental_uris":{"android":"levelo://app?vid=3a08dcf4-1b9e-40d0-b1b9-555a488b2bfd","ios":"levelo://app?vid=3a08dcf4-1b9e-40d0-b1b9-555a488b2bfd"},"vehicle_type_id":"4","last_reported":1729375750,"current_range_meters":36000,"station_id":"ce4bgv12rcd13ifvqcp0","pricing_plan_id":"cebpf4jnsgd1na2vs0mg"},{"bike_id":"12a13e60-fa80-4ea5-9e90-b03269c2d76b","system_id":"levelo_inurba_marseille","lat":43.27942,"lon":5.41037,"is_reserved":false,"is_disabled":false,"rental_uris":{"android":"levelo://app?vid=12a13e60-fa80-4ea5-9e90-b03269c2d76b","ios":"levelo://app?vid=12a13e60-fa80-4ea5-9e90-b03269c2d76b"},"vehicle_type_id":"4","last_reported":1729375750,"current_range_meters":37600,"station_id":"ce4bhnp2rcd13ifvqh0g","pricing_plan_id":"cebpf4jnsgd1na2vs0mg"},{"bike_id":"3c807220-758f-40c8-b4f1-96669d1b8d8b","system_id":"levelo_inurba_marseille","lat":43.23187,"lon":5.35561,"is_reserved":false,"is_disabled":false,"rental_uris":{"android":"levelo://app?vid=3c807220-758f-40c8-b4f1-96669d1b8d8b","ios":"levelo://app?vid=3c807220-758f-40c8-b4f1-96669d1b8d8b"},"vehicle_type_id":"4","last_reported":1729375750,"current_range_meters":6400,"station_id":"ce4bhu92rcd13ifvqi70","pricing_plan_id":"cebpf4jnsgd1na2vs0mg"},{"bike_id":"00966f37-cbf6-4bb2-9ac9-c42167109b86","system_id":"levelo_inurba_marseille","lat":43.2942,"lon":5.38613,"is_reserved":false,"is_disabled":false,"rental_uris":{"android":"levelo://app?vid=00966f37-cbf6-4bb2-9ac9-c42167109b86","ios":"levelo://app?vid=00966f37-cbf6-4bb2-9ac9-c42167109b86"},"vehicle_type_id":"4","last_reported":1729375750,"current_range_meters":38400,"station_id":"ce4bh2h2rcd13ifvqdh0","pricing_plan_id":"cebpf4jnsgd1na2vs0mg"},{"bike_id":"ee6228ae-8e52-4829-96fb-3849d6cfbd8e","system_id":"levelo_inurba_marseille","lat":43.313622,"lon":5.384928,"is_reserved":false,"is_disabled":false,"rental_uris":{"android":"levelo://app?vid=ee6228ae-8e52-4829-96fb-3849d6cfbd8e","ios":"levelo://app?vid=ee6228ae-8e52-4829-96fb-3849d6cfbd8e"},"vehicle_type_id":"4","last_reported":1729375750,"current_range_meters":22400,"station_id":"ce4bgt92rcd13ifvqcf0","pricing_plan_id":"cebpf4jnsgd1na2vs0mg"},{"bike_id":"c11b0555-b997-4036-8536-79587f1a9f2e","system_id":"levelo_inurba_marseille","lat":43.27672,"lon":5.38923,"is_reserved":false,"is_disabled":false,"rental_uris":{"android":"levelo://app?vid=c11b0555-b997-4036-8536-79587f1a9f2e","ios":"levelo://app?vid=c11b0555-b997-4036-8536-79587f1a9f2e"},"vehicle_type_id":"4","last_reported":1729375750,"current_range_meters":36000,"station_id":"ce4bhi12rcd13ifvqfo0","pricing_plan_id":"cebpf4jnsgd1na2vs0mg"},{"bike_id":"79e577df-2f1c-4782-802a-c75a4bc220f3","system_id":"levelo_inurba_marseille","lat":43.313672,"lon":5.384978,"is_reserved":false,"is_disabled":false,"rental_uris":{"android":"levelo://app?vid=79e577df-2f1c-4782-802a-c75a4bc220f3","ios":"levelo://app?vid=79e577df-2f1c-4782-802a-c75a4bc220f3"},"vehicle_type_id":"4","last_reported":1729375750,"current_range_meters":39200,"station_id":"ce4bgt92rcd13ifvqcf0","pricing_plan_id":"cebpf4jnsgd1na2vs0mg"},{"bike_id":"b5c40a57-fde0-4b3a-8522-4717ef7108e9","system_id":"levelo_inurba_marseille","lat":43.310855,"lon":5.400938,"is_reserved":false,"is_disabled":false,"rental_uris":{"android":"levelo://app?vid=b5c40a57-fde0-4b3a-8522-4717ef7108e9","ios":"levelo://app?vid=b5c40a57-fde0-4b3a-8522-4717ef7108e9"},"vehicle_type_id":"4","last_reported":1729375750,"current_range_meters":6400,"station_id":"","pricing_plan_id":"cebpf4jnsgd1na2vs0mg"},{"bike_id":"22f9bc2f-bea3-43b7-9036-5d25d067187a","system_id":"levelo_inurba_marseille","lat":43.29519,"lon":5.39398,"is_reserved":false,"is_disabled":false,"rental_uris":{"android":"levelo://app?vid=22f9bc2f-bea3-43b7-9036-5d25d067187a","ios":"levelo://app?vid=22f9bc2f-bea3-43b7-9036-5d25d067187a"},"vehicle_type_id":"4","last_reported":1729375750,"current_range_meters":8400,"station_id":"ce4bh292rcd13ifvqdf0","pricing_plan_id":"cebpf4jnsgd1na2vs0mg"},{"bike_id":"2c7b8b0f-0552-47cd-b3c1-cd466a64d7ba","system_id":"levelo_inurba_marseille","lat":43.25726,"lon":5.41108,"is_reserved":false,"is_disabled":false,"rental_uris":{"android":"levelo://app?vid=2c7b8b0f-0552-47cd-b3c1-cd466a64d7ba","ios":"levelo://app?vid=2c7b8b0f-0552-47cd-b3c1-cd466a64d7ba"},"vehicle_type_id":"4","last_reported":1729375750,"current_range_meters":2000,"station_id":"ce4bhkp2rcd13ifvqgd0","pricing_plan_id":"cebpf4jnsgd1na2vs0mg"},{"bike_id":"6aeae220-c119-4c29-b867-ca68236f5609","system_id":"levelo_inurba_marseille","lat":43.29032,"lon":5.38638,"is_reserved":false,"is_disabled":false,"rental_uris":{"android":"levelo://app?vid=6aeae220-c119-4c29-b867-ca68236f5609","ios":"levelo://app?vid=6aeae220-c119-4c29-b867-ca68236f5609"},"vehicle_type_id":"4","last_reported":1729375750,"current_range_meters":8000,"station_id":"ce4bh4p2rcd13ifvqe0g","pricing_plan_id":"cebpf4jnsgd1na2vs0mg"},{"bike_id":"6bed72ee-c698-4ede-9c3c-0992c3f4719b","system_id":"levelo_inurba_marseille","lat":43.308,"lon":5.38158,"is_reserved":false,"is_disabled":false,"rental_uris":{"android":"levelo://app?vid=6bed72ee-c698-4ede-9c3c-0992c3f4719b","ios":"levelo://app?vid=6bed72ee-c698-4ede-9c3c-0992c3f4719b"},"vehicle_type_id":"4","last_reported":1729375750,"current_range_meters":38800,"station_id":"ce4bgt12rcd13ifvqce0","pricing_plan_id":"cebpf4jnsgd1na2vs0mg"},{"bike_id":"4f22358b-b5b0-4215-810f-28894a8670b5","system_id":"levelo_inurba_marseille","lat":43.28482,"lon":5.38416,"is_reserved":false,"is_disabled":false,"rental_uris":{"android":"levelo://app?vid=4f22358b-b5b0-4215-810f-28894a8670b5","ios":"levelo://app?vid=4f22358b-b5b0-4215-810f-28894a8670b5"},"vehicle_type_id":"4","last_reported":1729375750,"current_range_meters":33200,"station_id":"ce4bh512rcd13ifvqe3g","pricing_plan_id":"cebpf4jnsgd1na2vs0mg"},{"bike_id":"d09859b0-53f9-414d-8fb8-8a8e80d6f93d","system_id":"levelo_inurba_marseille","lat":43.2678,"lon":5.39413,"is_reserved":false,"is_disabled":false,"rental_uris":{"android":"levelo://app?vid=d09859b0-53f9-414d-8fb8-8a8e80d6f93d","ios":"levelo://app?vid=d09859b0-53f9-414d-8fb8-8a8e80d6f93d"},"vehicle_type_id":"4","last_reported":1729375750,"current_range_meters":2800,"station_id":"ce4bhh12rcd13ifvqfg0","pricing_plan_id":"cebpf4jnsgd1na2vs0mg"},{"bike_id":"12026b7e-c071-4bb4-b8eb-715d3c8adc6d","system_id":"levelo_inurba_marseille","lat":43.23154,"lon":5.43707,"is_reserved":false,"is_disabled":false,"rental_uris":{"android":"levelo://app?vid=12026b7e-c071-4bb4-b8eb-715d3c8adc6d","ios":"levelo://app?vid=12026b7e-c071-4bb4-b8eb-715d3c8adc6d"},"vehicle_type_id":"4","last_reported":1729375750,"current_range_meters":7200,"station_id":"ce4bhmp2rcd13ifvqgog","pricing_plan_id":"cebpf4jnsgd1na2vs0mg"},{"bike_id":"9e6402e5-b88b-45c0-8b06-f9c7ea9fa3ea","system_id":"levelo_inurba_marseille","lat":43.28419,"lon":5.37509,"is_reserved":false,"is_disabled":false,"rental_uris":{"android":"levelo://app?vid=9e6402e5-b88b-45c0-8b06-f9c7ea9fa3ea","ios":"levelo://app?vid=9e6402e5-b88b-45c0-8b06-f9c7ea9fa3ea"},"vehicle_type_id":"4","last_reported":1729375750,"current_range_meters":28000,"station_id":"ce4bh412rcd13ifvqds0","pricing_plan_id":"cebpf4jnsgd1na2vs0mg"},{"bike_id":"18519ac0-dbf0-4e30-bed4-6b2562b6cb3d","system_id":"levelo_inurba_marseille","lat":43.29967,"lon":5.3718,"is_reserved":false,"is_disabled":false,"rental_uris":{"android":"levelo://app?vid=18519ac0-dbf0-4e30-bed4-6b2562b6cb3d","ios":"levelo://app?vid=18519ac0-dbf0-4e30-bed4-6b2562b6cb3d"},"vehicle_type_id":"4","last_reported":1729375750,"current_range_meters":20800,"station_id":"ce4bgr92rcd13ifvqc7g","pricing_plan_id":"cebpf4jnsgd1na2vs0mg"},{"bike_id":"db2fd001-ff8f-469c-bedd-44daac4c111b","system_id":"levelo_inurba_marseille","lat":43.28855,"lon":5.39314,"is_reserved":false,"is_disabled":false,"rental_uris":{"android":"levelo://app?vid=db2fd001-ff8f-469c-bedd-44daac4c111b","ios":"levelo://app?vid=db2fd001-ff8f-469c-bedd-44daac4c111b"},"vehicle_type_id":"4","last_reported":1729375750,"current_range_meters":10000,"station_id":"ce4bh2p2rcd13ifvqdi0","pricing_plan_id":"cebpf4jnsgd1na2vs0mg"},{"bike_id":"10a173be-a42c-438b-8224-ca0cc61de06d","system_id":"levelo_inurba_marseille","lat":43.28723,"lon":5.37934,"is_reserved":false,"is_disabled":false,"rental_uris":{"android":"levelo://app?vid=10a173be-a42c-438b-8224-ca0cc61de06d","ios":"levelo://app?vid=10a173be-a42c-438b-8224-ca0cc61de06d"},"vehicle_type_id":"4","last_reported":1729375750,"current_range_meters":38400,"station_id":"ce4bh9p2rcd13ifvqec0","pricing_plan_id":"cebpf4jnsgd1na2vs0mg"},{"bike_id":"95d97d21-4bee-4f99-a244-e73ef42f423e","system_id":"levelo_inurba_marseille","lat":43.28726,"lon":5.36089,"is_reserved":false,"is_disabled":false,"rental_uris":{"android":"levelo://app?vid=95d97d21-4bee-4f99-a244-e73ef42f423e","ios":"levelo://app?vid=95d97d21-4bee-4f99-a244-e73ef42f423e"},"vehicle_type_id":"4","last_reported":1729375750,"current_range_meters":37600,"station_id":"cki0cbj6b192h4jlfktg","pricing_plan_id":"cebpf4jnsgd1na2vs0mg"},{"bike_id":"1fad675a-d3e8-4444-a45e-9af37e54e7eb","system_id":"levelo_inurba_marseille","lat":43.28702,"lon":5.37393,"is_reserved":false,"is_disabled":false,"rental_uris":{"android":"levelo://app?vid=1fad675a-d3e8-4444-a45e-9af37e54e7eb","ios":"levelo://app?vid=1fad675a-d3e8-4444-a45e-9af37e54e7eb"},"vehicle_type_id":"4","last_reported":1729375750,"current_range_meters":38800,"station_id":"ce4bh3p2rcd13ifvqdq0","pricing_plan_id":"cebpf4jnsgd1na2vs0mg"},{"bike_id":"06cd8a2e-8360-4d2d-98ad-80696a81ecce","system_id":"levelo_inurba_marseille","lat":43.25118,"lon":5.4032,"is_reserved":false,"is_disabled":false,"rental_uris":{"android":"levelo://app?vid=06cd8a2e-8360-4d2d-98ad-80696a81ecce","ios":"levelo://app?vid=06cd8a2e-8360-4d2d-98ad-80696a81ecce"},"vehicle_type_id":"4","last_reported":1729375750,"current_range_meters":37600,"station_id":"ce4bhlh2rcd13ifvqgig","pricing_plan_id":"cebpf4jnsgd1na2vs0mg"},{"bike_id":"78a55d3a-0ce2-4c91-a1b5-72771673bf58","system_id":"levelo_inurba_marseille","lat":43.27945,"lon":5.41046,"is_reserved":false,"is_disabled":false,"rental_uris":{"android":"levelo://app?vid=78a55d3a-0ce2-4c91-a1b5-72771673bf58","ios":"levelo://app?vid=78a55d3a-0ce2-4c91-a1b5-72771673bf58"},"vehicle_type_id":"4","last_reported":1729375750,"current_range_meters":8000,"station_id":"ce4bhnp2rcd13ifvqh0g","pricing_plan_id":"cebpf4jnsgd1na2vs0mg"},{"bike_id":"b635a787-73d2-4865-b226-354aca00b672","system_id":"levelo_inurba_marseille","lat":43.31327,"lon":5.39695,"is_reserved":false,"is_disabled":false,"rental_uris":{"android":"levelo://app?vid=b635a787-73d2-4865-b226-354aca00b672","ios":"levelo://app?vid=b635a787-73d2-4865-b226-354aca00b672"},"vehicle_type_id":"4","last_reported":1729375750,"current_range_meters":38800,"station_id":"ce4bgvp2rcd13ifvqcu0","pricing_plan_id":"cebpf4jnsgd1na2vs0mg"},{"bike_id":"2d4d859a-6a51-4e5c-a842-75354e6e4217","system_id":"levelo_inurba_marseille","lat":43.33023,"lon":5.3904,"is_reserved":false,"is_disabled":false,"rental_uris":{"android":"levelo://app?vid=2d4d859a-6a51-4e5c-a842-75354e6e4217","ios":"levelo://app?vid=2d4d859a-6a51-4e5c-a842-75354e6e4217"},"vehicle_type_id":"4","last_reported":1729375750,"current_range_meters":9600,"station_id":"ce4bhr92rcd13ifvqhrg","pricing_plan_id":"cebpf4jnsgd1na2vs0mg"},{"bike_id":"ea7192b4-67ed-417a-b311-62002e8c4347","system_id":"levelo_inurba_marseille","lat":43.28409,"lon":5.37507,"is_reserved":false,"is_disabled":false,"rental_uris":{"android":"levelo://app?vid=ea7192b4-67ed-417a-b311-62002e8c4347","ios":"levelo://app?vid=ea7192b4-67ed-417a-b311-62002e8c4347"},"vehicle_type_id":"4","last_reported":1729375750,"current_range_meters":38800,"station_id":"ce4bh412rcd13ifvqds0","pricing_plan_id":"cebpf4jnsgd1na2vs0mg"},{"bike_id":"220589ae-6297-4e26-904d-32292775066a","system_id":"levelo_inurba_marseille","lat":43.28034,"lon":5.36949,"is_reserved":false,"is_disabled":false,"rental_uris":{"android":"levelo://app?vid=220589ae-6297-4e26-904d-32292775066a","ios":"levelo://app?vid=220589ae-6297-4e26-904d-32292775066a"},"vehicle_type_id":"4","last_reported":1729375750,"current_range_meters":4400,"station_id":"ce4bha12rcd13ifvqef0","pricing_plan_id":"cebpf4jnsgd1na2vs0mg"},{"bike_id":"2d9e3df1-0dca-43ea-b82c-f5159aab9faa","system_id":"levelo_inurba_marseille","lat":43.23969,"lon":5.36631,"is_reserved":false,"is_disabled":false,"rental_uris":{"android":"levelo://app?vid=2d9e3df1-0dca-43ea-b82c-f5159aab9faa","ios":"levelo://app?vid=2d9e3df1-0dca-43ea-b82c-f5159aab9faa"},"vehicle_type_id":"4","last_reported":1729375750,"current_range_meters":23200,"station_id":"ce4bhi12rcd13ifvqfp0","pricing_plan_id":"cebpf4jnsgd1na2vs0mg"},{"bike_id":"48a16bc1-29b7-46af-9e05-9a9658f9a83a","system_id":"levelo_inurba_marseille","lat":43.25578,"lon":5.38227,"is_reserved":false,"is_disabled":false,"rental_uris":{"android":"levelo://app?vid=48a16bc1-29b7-46af-9e05-9a9658f9a83a","ios":"levelo://app?vid=48a16bc1-29b7-46af-9e05-9a9658f9a83a"},"vehicle_type_id":"4","last_reported":1729375750,"current_range_meters":22000,"station_id":"ce4bhih2rcd13ifvqfs0","pricing_plan_id":"cebpf4jnsgd1na2vs0mg"},{"bike_id":"9d96017d-4a75-4407-b5cf-97ef6bc0c925","system_id":"levelo_inurba_marseille","lat":43.31363,"lon":5.38493,"is_reserved":false,"is_disabled":false,"rental_uris":{"android":"levelo://app?vid=9d96017d-4a75-4407-b5cf-97ef6bc0c925","ios":"levelo://app?vid=9d96017d-4a75-4407-b5cf-97ef6bc0c925"},"vehicle_type_id":"4","last_reported":1729375750,"current_range_meters":15200,"station_id":"ce4bgt92rcd13ifvqcf0","pricing_plan_id":"cebpf4jnsgd1na2vs0mg"},{"bike_id":"580e4ec5-f8a4-496a-84db-6852e5e16210","system_id":"levelo_inurba_marseille","lat":43.3136,"lon":5.38491,"is_reserved":false,"is_disabled":false,"rental_uris":{"android":"levelo://app?vid=580e4ec5-f8a4-496a-84db-6852e5e16210","ios":"levelo://app?vid=580e4ec5-f8a4-496a-84db-6852e5e16210"},"vehicle_type_id":"4","last_reported":1729375750,"current_range_meters":34000,"station_id":"ce4bgt92rcd13ifvqcf0","pricing_plan_id":"cebpf4jnsgd1na2vs0mg"},{"bike_id":"77c80350-f878-4d00-8bc4-9954d623c724","system_id":"levelo_inurba_marseille","lat":43.22935,"lon":5.35377,"is_reserved":false,"is_disabled":false,"rental_uris":{"android":"levelo://app?vid=77c80350-f878-4d00-8bc4-9954d623c724","ios":"levelo://app?vid=77c80350-f878-4d00-8bc4-9954d623c724"},"vehicle_type_id":"4","last_reported":1729375750,"current_range_meters":38800,"station_id":"cpo3532slgdg3j2ikp40","pricing_plan_id":"cebpf4jnsgd1na2vs0mg"},{"bike_id":"27ef1eeb-fa19-47e3-8296-1f2297289ff1","system_id":"levelo_inurba_marseille","lat":43.29295,"lon":5.37461,"is_reserved":false,"is_disabled":false,"rental_uris":{"android":"levelo://app?vid=27ef1eeb-fa19-47e3-8296-1f2297289ff1","ios":"levelo://app?vid=27ef1eeb-fa19-47e3-8296-1f2297289ff1"},"vehicle_type_id":"4","last_reported":1729375750,"current_range_meters":38000,"station_id":"ce4bgi12rcd13ifvqb70","pricing_plan_id":"cebpf4jnsgd1na2vs0mg"},{"bike_id":"68e7bce1-3e19-436f-a292-48dace7e5091","system_id":"levelo_inurba_marseille","lat":43.2953,"lon":5.38552,"is_reserved":false,"is_disabled":false,"rental_uris":{"android":"levelo://app?vid=68e7bce1-3e19-436f-a292-48dace7e5091","ios":"levelo://app?vid=68e7bce1-3e19-436f-a292-48dace7e5091"},"vehicle_type_id":"4","last_reported":1729375750,"current_range_meters":13600,"station_id":"ce4bgih2rcd13ifvqba0","pricing_plan_id":"cebpf4jnsgd1na2vs0mg"},{"bike_id":"f1decac8-c78e-4c04-8c8f-ad12c30e2320","system_id":"levelo_inurba_marseille","lat":43.29173,"lon":5.37146,"is_reserved":false,"is_disabled":false,"rental_uris":{"android":"levelo://app?vid=f1decac8-c78e-4c04-8c8f-ad12c30e2320","ios":"levelo://app?vid=f1decac8-c78e-4c04-8c8f-ad12c30e2320"},