{"last_updated":1746486585,"ttl":60,"version":"2.2","data":{"bikes":[{"bike_id":"1e3195f6-106c-4dd3-8852-0494cfce0d2f","system_id":"levelo_inurba_marseille","lat":43.28605,"lon":5.37046,"is_reserved":false,"is_disabled":false,"rental_uris":{"android":"levelo://app?vid=1e3195f6-106c-4dd3-8852-0494cfce0d2f","ios":"levelo://app?vid=1e3195f6-106c-4dd3-8852-0494cfce0d2f"},"vehicle_type_id":"4","last_reported":1746486585,"current_range_meters":3600,"station_id":"ce4bht12rcd13ifvqi60","pricing_plan_id":"cebpf4jnsgd1na2vs0mg"},{"bike_id":"0c6712bb-c246-4d03-b305-0f5d0e9a0657","system_id":"levelo_inurba_marseille","lat":43.2466,"lon":5.38155,"is_reserved":false,"is_disabled":false,"rental_uris":{"android":"levelo://app?vid=0c6712bb-c246-4d03-b305-0f5d0e9a0657","ios":"levelo://app?vid=0c6712bb-c246-4d03-b305-0f5d0e9a0657"},"vehicle_type_id":"4","last_reported":1746486585,"current_range_meters":4400,"station_id":"ce4bhih2rcd13ifvqfr0","pricing_plan_id":"cebpf4jnsgd1na2vs0mg"},{"bike_id":"d21a1bf2-ff47-419b-9fda-93647c68b552","system_id":"levelo_inurba_marseille","lat":43.281042,"lon":5.378356,"is_reserved":false,"is_disabled":false,"rental_uris":{"android":"levelo://app?vid=d21a1bf2-ff47-419b-9fda-93647c68b552","ios":"levelo://app?vid=d21a1bf2-ff47-419b-9fda-93647c68b552"},"vehicle_type_id":"4","last_reported":1746486585,"current_range_meters":4400,"station_id":"ce4bha12rcd13ifvqee0","pricing_plan_id":"cebpf4jnsgd1na2vs0mg"},{"bike_id":"19cc5d4a-3669-481b-add7-2079b93dcf06","system_id":"levelo_inurba_marseille","lat":43.279423,"lon":5.410405,"is_reserved":false,"is_disabled":false,"rental_uris":{"android":"levelo://app?vid=19cc5d4a-3669-481b-add7-2079b93dcf06","ios":"levelo://app?vid=19cc5d4a-3669-481b-add7-2079b93dcf06"},"vehicle_type_id":"4","last_reported":1746486585,"current_range_meters":4800,"station_id":"ce4bhnp2rcd13ifvqh0g","pricing_plan_id":"cebpf4jnsgd1na2vs0mg"},{"bike_id":"2f51ff5b-9e12-4b6c-9106-9df85a9d5650","system_id":"levelo_inurba_marseille","lat":43.30153,"lon":5.37421,"is_reserved":false,"is_disabled":true,"rental_uris":{"android":"levelo://app?vid=2f51ff5b-9e12-4b6c-9106-9df85a9d5650","ios":"levelo://app?vid=2f51ff5b-9e12-4b6c-9106-9df85a9d5650"},"vehicle_type_id":"4","last_reported":1746486585,"current_range_meters":4800,"station_id":"ce4bgs92rcd13ifvqcc0","pricing_plan_id":"cebpf4jnsgd1na2vs0mg"},{"bike_id":"640e33c0-8be5-4bb3-b3cb-ef05d0e18d40","system_id":"levelo_inurba_marseille","lat":43.292694,"lon":5.376228,"is_reserved":false,"is_disabled":true,"rental_uris":{"android":"levelo://app?vid=640e33c0-8be5-4bb3-b3cb-ef05d0e18d40","ios":"levelo://app?vid=640e33c0-8be5-4bb3-b3cb-ef05d0e18d40"},"vehicle_type_id":"4","last_reported":1746486585,"current_range_meters":5600,"station_id":"ce4bgi12rcd13ifvqb80","pricing_plan_id":"cebpf4jnsgd1na2vs0mg"},{"bike_id":"66b646b3-6352-44bb-9bfb-21570512e3e5","system_id":"levelo_inurba_marseille","lat":43.281186,"lon":5.403825,"is_reserved":false,"is_disabled":false,"rental_uris":{"android":"levelo://app?vid=66b646b3-6352-44bb-9bfb-21570512e3e5","ios":"levelo://app?vid=66b646b3-6352-44bb-9bfb-21570512e3e5"},"vehicle_type_id":"4","last_reported":1746486585,"current_range_meters":6000,"station_id":"","pricing_plan_id":"cebpf4jnsgd1na2vs0mg"},{"bike_id":"b315a341-1b0c-4a43-901f-7ff8a489a0b3","system_id":"levelo_inurba_marseille","lat":43.276678,"lon":5.38923,"is_reserved":false,"is_disabled":false,"rental_uris":{"android":"levelo://app?vid=b315a341-1b0c-4a43-901f-7ff8a489a0b3","ios":"levelo://app?vid=b315a341-1b0c-4a43-901f-7ff8a489a0b3"},"vehicle_type_id":"4","last_reported":1746486585,"current_range_meters":6000,"station_id":"ce4bhi12rcd13ifvqfo0","pricing_plan_id":"cebpf4jnsgd1na2vs0mg"},{"bike_id":"e8d3c57f-002a-4ddc-8c08-58b239aae800","system_id":"levelo_inurba_marseille","lat":43.262235,"lon":5.404593,"is_reserved":false,"is_disabled":false,"rental_uris":{"android":"levelo://app?vid=e8d3c57f-002a-4ddc-8c08-58b239aae800","ios":"levelo://app?vid=e8d3c57f-002a-4ddc-8c08-58b239aae800"},"vehicle_type_id":"4","last_reported":1746486585,"current_range_meters":6400,"station_id":"ce4bhmh2rcd13ifvqgmg","pricing_plan_id":"cebpf4jnsgd1na2vs0mg"},{"bike_id":"c7569f25-9bc2-4a7b-94d5-25bad92fcfaa","system_id":"levelo_inurba_marseille","lat":43.27931,"lon":5.38259,"is_reserved":false,"is_disabled":false,"rental_uris":{"android":"levelo://app?vid=c7569f25-9bc2-4a7b-94d5-25bad92fcfaa","ios":"levelo://app?vid=c7569f25-9bc2-4a7b-94d5-25bad92fcfaa"},"vehicle_type_id":"4","last_reported":1746486585,"current_range_meters":6400,"station_id":"","pricing_plan_id":"cebpf4jnsgd1na2vs0mg"},{"bike_id":"2c488c66-db1f-4eb1-b8a8-65da619378ac","system_id":"levelo_inurba_marseille","lat":43.299085,"lon":5.38121,"is_reserved":false,"is_disabled":true,"rental_uris":{"android":"levelo://app?vid=2c488c66-db1f-4eb1-b8a8-65da619378ac","ios":"levelo://app?vid=2c488c66-db1f-4eb1-b8a8-65da619378ac"},"vehicle_type_id":"4","last_reported":1746486585,"current_range_meters":6400,"station_id":"ce4bgj12rcd13ifvqbc0","pricing_plan_id":"cebpf4jnsgd1na2vs0mg"},{"bike_id":"5ed25235-2c54-4555-9b77-e5696daaf187","system_id":"levelo_inurba_marseille","lat":43.284126,"lon":5.375114,"is_reserved":false,"is_disabled":false,"rental_uris":{"android":"levelo://app?vid=5ed25235-2c54-4555-9b77-e5696daaf187","ios":"levelo://app?vid=5ed25235-2c54-4555-9b77-e5696daaf187"},"vehicle_type_id":"4","last_reported":1746486585,"current_range_meters":6400,"station_id":"ce4bh412rcd13ifvqds0","pricing_plan_id":"cebpf4jnsgd1na2vs0mg"},{"bike_id":"f4058794-639c-4973-ab5d-8009a25ee731","system_id":"levelo_inurba_marseille","lat":43.23962,"lon":5.36626,"is_reserved":false,"is_disabled":false,"rental_uris":{"android":"levelo://app?vid=f4058794-639c-4973-ab5d-8009a25ee731","ios":"levelo://app?vid=f4058794-639c-4973-ab5d-8009a25ee731"},"vehicle_type_id":"4","last_reported":1746486585,"current_range_meters":6800,"station_id":"ce4bhi12rcd13ifvqfp0","pricing_plan_id":"cebpf4jnsgd1na2vs0mg"},{"bike_id":"f26290d6-f201-4d9e-83cc-5ce13015ceeb","system_id":"levelo_inurba_marseille","lat":43.30601,"lon":5.37219,"is_reserved":false,"is_disabled":false,"rental_uris":{"android":"levelo://app?vid=f26290d6-f201-4d9e-83cc-5ce13015ceeb","ios":"levelo://app?vid=f26290d6-f201-4d9e-83cc-5ce13015ceeb"},"vehicle_type_id":"4","last_reported":1746486585,"current_range_meters":6800,"station_id":"ce4bgqh2rcd13ifvqc4g","pricing_plan_id":"cebpf4jnsgd1na2vs0mg"},{"bike_id":"9064d971-3a4c-4284-ab13-670f9e6ead80","system_id":"levelo_inurba_marseille","lat":43.2396,"lon":5.36643,"is_reserved":false,"is_disabled":false,"rental_uris":{"android":"levelo://app?vid=9064d971-3a4c-4284-ab13-670f9e6ead80","ios":"levelo://app?vid=9064d971-3a4c-4284-ab13-670f9e6ead80"},"vehicle_type_id":"4","last_reported":1746486585,"current_range_meters":6800,"station_id":"ce4bhi12rcd13ifvqfp0","pricing_plan_id":"cebpf4jnsgd1na2vs0mg"},{"bike_id":"1d2a1f80-05b8-4c24-b414-f056b8eb3c7d","system_id":"levelo_inurba_marseille","lat":43.28943,"lon":5.36389,"is_reserved":false,"is_disabled":false,"rental_uris":{"android":"levelo://app?vid=1d2a1f80-05b8-4c24-b414-f056b8eb3c7d","ios":"levelo://app?vid=1d2a1f80-05b8-4c24-b414-f056b8eb3c7d"},"vehicle_type_id":"4","last_reported":1746486585,"current_range_meters":6800,"station_id":"ce4bhc92rcd13ifvqetg","pricing_plan_id":"cebpf4jnsgd1na2vs0mg"},{"bike_id":"9560e695-2cb4-4bfb-b95c-1c8364f718f8","system_id":"levelo_inurba_marseille","lat":43.258216,"lon":5.39434,"is_reserved":false,"is_disabled":false,"rental_uris":{"android":"levelo://app?vid=9560e695-2cb4-4bfb-b95c-1c8364f718f8","ios":"levelo://app?vid=9560e695-2cb4-4bfb-b95c-1c8364f718f8"},"vehicle_type_id":"4","last_reported":1746486585,"current_range_meters":6800,"station_id":"ce4bhip2rcd13ifvqft0","pricing_plan_id":"cebpf4jnsgd1na2vs0mg"},{"bike_id":"10d563a4-424a-4a44-88bc-065a04b5247a","system_id":"levelo_inurba_marseille","lat":43.217493,"lon":5.346016,"is_reserved":false,"is_disabled":true,"rental_uris":{"android":"levelo://app?vid=10d563a4-424a-4a44-88bc-065a04b5247a","ios":"levelo://app?vid=10d563a4-424a-4a44-88bc-065a04b5247a"},"vehicle_type_id":"4","last_reported":1746486585,"current_range_meters":7200,"station_id":"","pricing_plan_id":"cebpf4jnsgd1na2vs0mg"},{"bike_id":"d08e881c-4ac2-413a-af9c-5ff0285ab7f6","system_id":"levelo_inurba_marseille","lat":43.27945,"lon":5.41039,"is_reserved":false,"is_disabled":false,"rental_uris":{"android":"levelo://app?vid=d08e881c-4ac2-413a-af9c-5ff0285ab7f6","ios":"levelo://app?vid=d08e881c-4ac2-413a-af9c-5ff0285ab7f6"},"vehicle_type_id":"4","last_reported":1746486585,"current_range_meters":8000,"station_id":"ce4bhnp2rcd13ifvqh0g","pricing_plan_id":"cebpf4jnsgd1na2vs0mg"},{"bike_id":"75e8ec7b-b97d-4041-ba4c-e6403b45949f","system_id":"levelo_inurba_marseille","lat":43.239653,"lon":5.366276,"is_reserved":false,"is_disabled":false,"rental_uris":{"android":"levelo://app?vid=75e8ec7b-b97d-4041-ba4c-e6403b45949f","ios":"levelo://app?vid=75e8ec7b-b97d-4041-ba4c-e6403b45949f"},"vehicle_type_id":"4","last_reported":1746486585,"current_range_meters":8000,"station_id":"ce4bhi12rcd13ifvqfp0","pricing_plan_id":"cebpf4jnsgd1na2vs0mg"},{"bike_id":"5c7249a3-596f-4101-8dbd-1087a1f3b438","system_id":"levelo_inurba_marseille","lat":43.23198,"lon":5.355798,"is_reserved":false,"is_disabled":false,"rental_uris":{"android":"levelo://app?vid=5c7249a3-596f-4101-8dbd-1087a1f3b438","ios":"levelo://app?vid=5c7249a3-596f-4101-8dbd-1087a1f3b438"},"vehicle_type_id":"4","last_reported":1746486585,"current_range_meters":8400,"station_id":"ce4bhu92rcd13ifvqi70","pricing_plan_id":"cebpf4jnsgd1na2vs0mg"},{"bike_id":"482344f1-460c-48ea-83dd-01b9a385e5cf","system_id":"levelo_inurba_marseille","lat":43.30666,"lon":5.36854,"is_reserved":false,"is_disabled":false,"rental_uris":{"android":"levelo://app?vid=482344f1-460c-48ea-83dd-01b9a385e5cf","ios":"levelo://app?vid=482344f1-460c-48ea-83dd-01b9a385e5cf"},"vehicle_type_id":"4","last_reported":1746486585,"current_range_meters":8400,"station_id":"","pricing_plan_id":"cebpf4jnsgd1na2vs0mg"},{"bike_id":"3f03faa1-aab4-4cbb-9b60-c64d1d19096f","system_id":"levelo_inurba_marseille","lat":43.27899,"lon":5.37997,"is_reserved":false,"is_disabled":false,"rental_uris":{"android":"levelo://app?vid=3f03faa1-aab4-4cbb-9b60-c64d1d19096f","ios":"levelo://app?vid=3f03faa1-aab4-4cbb-9b60-c64d1d19096f"},"vehicle_type_id":"4","last_reported":1746486585,"current_range_meters":8400,"station_id":"ce4bhf92rcd13ifvqf50","pricing_plan_id":"cebpf4jnsgd1na2vs0mg"},{"bike_id":"d9ebccfe-dd7b-4132-a6f6-002262765ed4","system_id":"levelo_inurba_marseille","lat":43.27996,"lon":5.40003,"is_reserved":false,"is_disabled":false,"rental_uris":{"android":"levelo://app?vid=d9ebccfe-dd7b-4132-a6f6-002262765ed4","ios":"levelo://app?vid=d9ebccfe-dd7b-4132-a6f6-002262765ed4"},"vehicle_type_id":"4","last_reported":1746486585,"current_range_meters":8400,"station_id":"ce4bho92rcd13ifvqh4g","pricing_plan_id":"cebpf4jnsgd1na2vs0mg"},{"bike_id":"b73c5f22-57c3-42fb-a428-749049909d64","system_id":"levelo_inurba_marseille","lat":43.279492,"lon":5.410411,"is_reserved":false,"is_disabled":false,"rental_uris":{"android":"levelo://app?vid=b73c5f22-57c3-42fb-a428-749049909d64","ios":"levelo://app?vid=b73c5f22-57c3-42fb-a428-749049909d64"},"vehicle_type_id":"4","last_reported":1746486585,"current_range_meters":8400,"station_id":"ce4bhnp2rcd13ifvqh0g","pricing_plan_id":"cebpf4jnsgd1na2vs0mg"},{"bike_id":"3fe14760-50d4-43a8-b058-218490851f16","system_id":"levelo_inurba_marseille","lat":43.28858,"lon":5.35854,"is_reserved":false,"is_disabled":false,"rental_uris":{"android":"levelo://app?vid=3fe14760-50d4-43a8-b058-218490851f16","ios":"levelo://app?vid=3fe14760-50d4-43a8-b058-218490851f16"},"vehicle_type_id":"4","last_reported":1746486585,"current_range_meters":8400,"station_id":"ce4bhb12rcd13ifvqem0","pricing_plan_id":"cebpf4jnsgd1na2vs0mg"},{"bike_id":"0df6ff4a-d789-4276-8939-264863baa64d","system_id":"levelo_inurba_marseille","lat":43.317566,"lon":5.390148,"is_reserved":false,"is_disabled":false,"rental_uris":{"android":"levelo://app?vid=0df6ff4a-d789-4276-8939-264863baa64d","ios":"levelo://app?vid=0df6ff4a-d789-4276-8939-264863baa64d"},"vehicle_type_id":"4","last_reported":1746486585,"current_range_meters":8800,"station_id":"ce4bhqp2rcd13ifvqhng","pricing_plan_id":"cebpf4jnsgd1na2vs0mg"},{"bike_id":"99791781-d390-4e2d-ae81-dea9cba97e90","system_id":"levelo_inurba_marseille","lat":43.29959,"lon":5.41317,"is_reserved":false,"is_disabled":false,"rental_uris":{"android":"levelo://app?vid=99791781-d390-4e2d-ae81-dea9cba97e90","ios":"levelo://app?vid=99791781-d390-4e2d-ae81-dea9cba97e90"},"vehicle_type_id":"4","last_reported":1746486585,"current_range_meters":8800,"station_id":"ce4bhp12rcd13ifvqh9g","pricing_plan_id":"cebpf4jnsgd1na2vs0mg"},{"bike_id":"a105130d-2c0b-47d7-ad9e-26b35e0360b8","system_id":"levelo_inurba_marseille","lat":43.23965,"lon":5.36638,"is_reserved":false,"is_disabled":false,"rental_uris":{"android":"levelo://app?vid=a105130d-2c0b-47d7-ad9e-26b35e0360b8","ios":"levelo://app?vid=a105130d-2c0b-47d7-ad9e-26b35e0360b8"},"vehicle_type_id":"4","last_reported":1746486585,"current_range_meters":8800,"station_id":"ce4bhi12rcd13ifvqfp0","pricing_plan_id":"cebpf4jnsgd1na2vs0mg"},{"bike_id":"08d06c84-d9e9-43f6-aa7a-603249ac6ecd","system_id":"levelo_inurba_marseille","lat":43.28004,"lon":5.40016,"is_reserved":false,"is_disabled":false,"rental_uris":{"android":"levelo://app?vid=08d06c84-d9e9-43f6-aa7a-603249ac6ecd","ios":"levelo://app?vid=08d06c84-d9e9-43f6-aa7a-603249ac6ecd"},"vehicle_type_id":"4","last_reported":1746486585,"current_range_meters":8800,"station_id":"ce4bho92rcd13ifvqh4g","pricing_plan_id":"cebpf4jnsgd1na2vs0mg"},{"bike_id":"2306010e-85bf-4d9b-a6bc-107f35580834","system_id":"levelo_inurba_marseille","lat":43.258289,"lon":5.394285,"is_reserved":false,"is_disabled":false,"rental_uris":{"android":"levelo://app?vid=2306010e-85bf-4d9b-a6bc-107f35580834","ios":"levelo://app?vid=2306010e-85bf-4d9b-a6bc-107f35580834"},"vehicle_type_id":"4","last_reported":1746486585,"current_range_meters":8800,"station_id":"ce4bhip2rcd13ifvqft0","pricing_plan_id":"cebpf4jnsgd1na2vs0mg"},{"bike_id":"1e84e465-2e14-47ac-91f0-53a839d6422a","system_id":"levelo_inurba_marseille","lat":43.313618,"lon":5.384908,"is_reserved":false,"is_disabled":false,"rental_uris":{"android":"levelo://app?vid=1e84e465-2e14-47ac-91f0-53a839d6422a","ios":"levelo://app?vid=1e84e465-2e14-47ac-91f0-53a839d6422a"},"vehicle_type_id":"4","last_reported":1746486585,"current_range_meters":8800,"station_id":"ce4bgt92rcd13ifvqcf0","pricing_plan_id":"cebpf4jnsgd1na2vs0mg"},{"bike_id":"04b4674b-4434-40e5-9e75-4a7229750edd","system_id":"levelo_inurba_marseille","lat":43.279444,"lon":5.410454,"is_reserved":false,"is_disabled":false,"rental_uris":{"android":"levelo://app?vid=04b4674b-4434-40e5-9e75-4a7229750edd","ios":"levelo://app?vid=04b4674b-4434-40e5-9e75-4a7229750edd"},"vehicle_type_id":"4","last_reported":1746486585,"current_range_meters":9200,"station_id":"ce4bhnp2rcd13ifvqh0g","pricing_plan_id":"cebpf4jnsgd1na2vs0mg"},{"bike_id":"90728acd-507e-4586-8514-7150be18c1a3","system_id":"levelo_inurba_marseille","lat":43.31983,"lon":5.38136,"is_reserved":false,"is_disabled":true,"rental_uris":{"android":"levelo://app?vid=90728acd-507e-4586-8514-7150be18c1a3","ios":"levelo://app?vid=90728acd-507e-4586-8514-7150be18c1a3"},"vehicle_type_id":"4","last_reported":1746486585,"current_range_meters":9200,"station_id":"ce4bhr12rcd13ifvqhpg","pricing_plan_id":"cebpf4jnsgd1na2vs0mg"},{"bike_id":"bda5329c-0ca8-4429-8276-953c6ccd9961","system_id":"levelo_inurba_marseille","lat":43.279956,"lon":5.41662,"is_reserved":false,"is_disabled":false,"rental_uris":{"android":"levelo://app?vid=bda5329c-0ca8-4429-8276-953c6ccd9961","ios":"levelo://app?vid=bda5329c-0ca8-4429-8276-953c6ccd9961"},"vehicle_type_id":"4","last_reported":1746486585,"current_range_meters":9200,"station_id":"ce4bho12rcd13ifvqh1g","pricing_plan_id":"cebpf4jnsgd1na2vs0mg"},{"bike_id":"33e48a61-b681-49b6-9f4c-c501fbecaaba","system_id":"levelo_inurba_marseille","lat":43.31714,"lon":5.43699,"is_reserved":false,"is_disabled":false,"rental_uris":{"android":"levelo://app?vid=33e48a61-b681-49b6-9f4c-c501fbecaaba","ios":"levelo://app?vid=33e48a61-b681-49b6-9f4c-c501fbecaaba"},"vehicle_type_id":"4","last_reported":1746486585,"current_range_meters":9200,"station_id":"ce4bhp92rcd13ifvqhcg","pricing_plan_id":"cebpf4jnsgd1na2vs0mg"},{"bike_id":"7a2589c6-a8c1-46f5-a962-7daecd246db4","system_id":"levelo_inurba_marseille","lat":43.31524,"lon":5.38028,"is_reserved":false,"is_disabled":false,"rental_uris":{"android":"levelo://app?vid=7a2589c6-a8c1-46f5-a962-7daecd246db4","ios":"levelo://app?vid=7a2589c6-a8c1-46f5-a962-7daecd246db4"},"vehicle_type_id":"4","last_reported":1746486585,"current_range_meters":9200,"station_id":"ce4bhsp2rcd13ifvqi50","pricing_plan_id":"cebpf4jnsgd1na2vs0mg"},{"bike_id":"dccab0c5-be19-4968-9ea0-b5a301b5020b","system_id":"levelo_inurba_marseille","lat":43.26809,"lon":5.40263,"is_reserved":false,"is_disabled":false,"rental_uris":{"android":"levelo://app?vid=dccab0c5-be19-4968-9ea0-b5a301b5020b","ios":"levelo://app?vid=dccab0c5-be19-4968-9ea0-b5a301b5020b"},"vehicle_type_id":"4","last_reported":1746486585,"current_range_meters":9600,"station_id":"ce501612rcd8frsf0b60","pricing_plan_id":"cebpf4jnsgd1na2vs0mg"},{"bike_id":"9fc13afb-e947-475e-b143-9f3ee51b87b5","system_id":"levelo_inurba_marseille","lat":43.30297,"lon":5.39208,"is_reserved":false,"is_disabled":true,"rental_uris":{"android":"levelo://app?vid=9fc13afb-e947-475e-b143-9f3ee51b87b5","ios":"levelo://app?vid=9fc13afb-e947-475e-b143-9f3ee51b87b5"},"vehicle_type_id":"4","last_reported":1746486585,"current_range_meters":9600,"station_id":"ce4bgkh2rcd13ifvqbk0","pricing_plan_id":"cebpf4jnsgd1na2vs0mg"},{"bike_id":"18fac1a9-fda6-48d8-9aa6-1f61711dea16","system_id":"levelo_inurba_marseille","lat":43.31356,"lon":5.38486,"is_reserved":false,"is_disabled":false,"rental_uris":{"android":"levelo://app?vid=18fac1a9-fda6-48d8-9aa6-1f61711dea16","ios":"levelo://app?vid=18fac1a9-fda6-48d8-9aa6-1f61711dea16"},"vehicle_type_id":"4","last_reported":1746486585,"current_range_meters":9600,"station_id":"ce4bgt92rcd13ifvqcf0","pricing_plan_id":"cebpf4jnsgd1na2vs0mg"},{"bike_id":"7bac376f-17c2-4484-a95b-9218bce59ef6","system_id":"levelo_inurba_marseille","lat":43.246739,"lon":5.381565,"is_reserved":false,"is_disabled":false,"rental_uris":{"android":"levelo://app?vid=7bac376f-17c2-4484-a95b-9218bce59ef6","ios":"levelo://app?vid=7bac376f-17c2-4484-a95b-9218bce59ef6"},"vehicle_type_id":"4","last_reported":1746486585,"current_range_meters":9600,"station_id":"ce4bhih2rcd13ifvqfr0","pricing_plan_id":"cebpf4jnsgd1na2vs0mg"},{"bike_id":"0516f56f-d6da-4619-b60f-e7bb507cb1e3","system_id":"levelo_inurba_marseille","lat":43.32304,"lon":5.38953,"is_reserved":false,"is_disabled":false,"rental_uris":{"android":"levelo://app?vid=0516f56f-d6da-4619-b60f-e7bb507cb1e3","ios":"levelo://app?vid=0516f56f-d6da-4619-b60f-e7bb507cb1e3"},"vehicle_type_id":"4","last_reported":1746486585,"current_range_meters":9600,"station_id":"ce4bhqp2rcd13ifvqhog","pricing_plan_id":"cebpf4jnsgd1na2vs0mg"},{"bike_id":"3d474589-3acb-400c-8b64-2017d16d7a38","system_id":"levelo_inurba_marseille","lat":43.308,"lon":5.38155,"is_reserved":false,"is_disabled":false,"rental_uris":{"android":"levelo://app?vid=3d474589-3acb-400c-8b64-2017d16d7a38","ios":"levelo://app?vid=3d474589-3acb-400c-8b64-2017d16d7a38"},"vehicle_type_id":"4","last_reported":1746486585,"current_range_meters":9600,"station_id":"ce4bgt12rcd13ifvqce0","pricing_plan_id":"cebpf4jnsgd1na2vs0mg"},{"bike_id":"1858d475-64c1-4a30-a90d-6e80fdac193d","system_id":"levelo_inurba_marseille","lat":43.27939,"lon":5.41026,"is_reserved":false,"is_disabled":false,"rental_uris":{"android":"levelo://app?vid=1858d475-64c1-4a30-a90d-6e80fdac193d","ios":"levelo://app?vid=1858d475-64c1-4a30-a90d-6e80fdac193d"},"vehicle_type_id":"4","last_reported":1746486585,"current_range_meters":10800,"station_id":"ce4bhnp2rcd13ifvqh0g","pricing_plan_id":"cebpf4jnsgd1na2vs0mg"},{"bike_id":"996b6168-a05d-48a0-af5f-f3a95295abf0","system_id":"levelo_inurba_marseille","lat":43.240714,"lon":5.377586,"is_reserved":false,"is_disabled":false,"rental_uris":{"android":"levelo://app?vid=996b6168-a05d-48a0-af5f-f3a95295abf0","ios":"levelo://app?vid=996b6168-a05d-48a0-af5f-f3a95295abf0"},"vehicle_type_id":"4","last_reported":1746486585,"current_range_meters":10000,"station_id":"ce4bhnp2rcd13ifvqgvg","pricing_plan_id":"cebpf4jnsgd1na2vs0mg"},{"bike_id":"2e27de1a-106c-4448-a352-652eb3d746f7","system_id":"levelo_inurba_marseille","lat":43.30139,"lon":5.38771,"is_reserved":false,"is_disabled":false,"rental_uris":{"android":"levelo://app?vid=2e27de1a-106c-4448-a352-652eb3d746f7","ios":"levelo://app?vid=2e27de1a-106c-4448-a352-652eb3d746f7"},"vehicle_type_id":"4","last_reported":1746486585,"current_range_meters":9600,"station_id":"ce4bghh2rcd13ifvqb60","pricing_plan_id":"cebpf4jnsgd1na2vs0mg"},{"bike_id":"45c16268-dcf5-4e4a-b4f6-0b7cb10c71b1","system_id":"levelo_inurba_marseille","lat":43.30583,"lon":5.39349,"is_reserved":false,"is_disabled":false,"rental_uris":{"android":"levelo://app?vid=45c16268-dcf5-4e4a-b4f6-0b7cb10c71b1","ios":"levelo://app?vid=45c16268-dcf5-4e4a-b4f6-0b7cb10c71b1"},"vehicle_type_id":"4","last_reported":1746486585,"current_range_meters":10000,"station_id":"ce4bh0p2rcd13ifvqd80","pricing_plan_id":"cebpf4jnsgd1na2vs0mg"},{"bike_id":"1a56d2e1-6609-455c-8523-959d44394069","system_id":"levelo_inurba_marseille","lat":43.30303,"lon":5.39197,"is_reserved":false,"is_disabled":true,"rental_uris":{"android":"levelo://app?vid=1a56d2e1-6609-455c-8523-959d44394069","ios":"levelo://app?vid=1a56d2e1-6609-455c-8523-959d44394069"},"vehicle_type_id":"4","last_reported":1746486585,"current_range_meters":10800,"station_id":"ce4bgkh2rcd13ifvqbk0","pricing_plan_id":"cebpf4jnsgd1na2vs0mg"},{"bike_id":"f9cec597-af13-4a8a-be1d-b7cf54819d4d","system_id":"levelo_inurba_marseille","lat":43.28958,"lon":5.40718,"is_reserved":false,"is_disabled":false,"rental_uris":{"android":"levelo://app?vid=f9cec597-af13-4a8a-be1d-b7cf54819d4d","ios":"levelo://app?vid=f9cec597-af13-4a8a-be1d-b7cf54819d4d"},"vehicle_type_id":"4","last_reported":1746486585,"current_range_meters":10800,"station_id":"","pricing_plan_id":"cebpf4jnsgd1na2vs0mg"},{"bike_id":"9d4cc952-e455-4fba-8b3f-d5cacd90c8d5","system_id":"levelo_inurba_marseille","lat":43.2509,"lon":5.39517,"is_reserved":false,"is_disabled":false,"rental_uris":{"android":"levelo://app?vid=9d4cc952-e455-4fba-8b3f-d5cacd90c8d5","ios":"levelo://app?vid=9d4cc952-e455-4fba-8b3f-d5cacd90c8d5"},"vehicle_type_id":"4","last_reported":1746486585,"current_range_meters":10800,"station_id":"ce4bhm12rcd13ifvqgkg","pricing_plan_id":"cebpf4jnsgd1na2vs0mg"},{"bike_id":"4567db42-a456-48b6-bc7d-8dd13247fcc0","system_id":"levelo_inurba_marseille","lat":43.27938,"lon":5.41034,"is_reserved":false,"is_disabled":false,"rental_uris":{"android":"levelo://app?vid=4567db42-a456-48b6-bc7d-8dd13247fcc0","ios":"levelo://app?vid=4567db42-a456-48b6-bc7d-8dd13247fcc0"},"vehicle_type_id":"4","last_reported":1746486585,"current_range_meters":10800,"station_id":"ce4bhnp2rcd13ifvqh0g","pricing_plan_id":"cebpf4jnsgd1na2vs0mg"},{"bike_id":"08ff2bcf-7233-4803-aa19-4c645279e28a","system_id":"levelo_inurba_marseille","lat":43.29262,"lon":5.40902,"is_reserved":false,"is_disabled":false,"rental_uris":{"android":"levelo://app?vid=08ff2bcf-7233-4803-aa19-4c645279e28a","ios":"levelo://app?vid=08ff2bcf-7233-4803-aa19-4c645279e28a"},"vehicle_type_id":"4","last_reported":1746486585,"current_range_meters":10800,"station_id":"ce4bh192rcd13ifvqdc0","pricing_plan_id":"cebpf4jnsgd1na2vs0mg"},{"bike_id":"7430e10d-e64d-4cbe-ba63-c381ddcda74a","system_id":"levelo_inurba_marseille","lat":43.312295,"lon":5.368665,"is_reserved":false,"is_disabled":false,"rental_uris":{"android":"levelo://app?vid=7430e10d-e64d-4cbe-ba63-c381ddcda74a","ios":"levelo://app?vid=7430e10d-e64d-4cbe-ba63-c381ddcda74a"},"vehicle_type_id":"4","last_reported":1746486585,"current_range_meters":10000,"station_id":"ce4bgl92rcd13ifvqbq0","pricing_plan_id":"cebpf4jnsgd1na2vs0mg"},{"bike_id":"41aaa1ed-a708-4a9a-b5aa-450e891d24b0","system_id":"levelo_inurba_marseille","lat":43.2651,"lon":5.38969,"is_reserved":false,"is_disabled":true,"rental_uris":{"android":"levelo://app?vid=41aaa1ed-a708-4a9a-b5aa-450e891d24b0","ios":"levelo://app?vid=41aaa1ed-a708-4a9a-b5aa-450e891d24b0"},"vehicle_type_id":"4","last_reported":1746486585,"current_range_meters":10800,"station_id":"","pricing_plan_id":"cebpf4jnsgd1na2vs0mg"},{"bike_id":"7430b6cc-b229-4c9f-aeae-8e2c8fcf43c9","system_id":"levelo_inurba_marseille","lat":43.24184,"lon":5.39716,"is_reserved":false,"is_disabled":false,"rental_uris":{"android":"levelo://app?vid=7430b6cc-b229-4c9f-aeae-8e2c8fcf43c9","ios":"levelo://app?vid=7430b6cc-b229-4c9f-aeae-8e2c8fcf43c9"},"vehicle_type_id":"4","last_reported":1746486585,"current_range_meters":10800,"station_id":"ce4bhn12rcd13ifvqgpg","pricing_plan_id":"cebpf4jnsgd1na2vs0mg"},{"bike_id":"56cf7a7b-c4cf-4873-b5c7-023c9ecc8360","system_id":"levelo_inurba_marseille","lat":43.29776,"lon":5.37111,"is_reserved":false,"is_disabled":false,"rental_uris":{"android":"levelo://app?vid=56cf7a7b-c4cf-4873-b5c7-023c9ecc8360","ios":"levelo://app?vid=56cf7a7b-c4cf-4873-b5c7-023c9ecc8360"},"vehicle_type_id":"4","last_reported":1746486585,"current_range_meters":10000,"station_id":"ce4bgop2rcd13ifvqc1g","pricing_plan_id":"cebpf4jnsgd1na2vs0mg"},{"bike_id":"5b8d1337-a035-4531-8ae9-843647d6f95e","system_id":"levelo_inurba_marseille","lat":43.23177,"lon":5.39975,"is_reserved":false,"is_disabled":false,"rental_uris":{"android":"levelo://app?vid=5b8d1337-a035-4531-8ae9-843647d6f95e","ios":"levelo://app?vid=5b8d1337-a035-4531-8ae9-843647d6f95e"},"vehicle_type_id":"4","last_reported":1746486585,"current_range_meters":11200,"station_id":"ce4bhn12rcd13ifvqgqg","pricing_plan_id":"cebpf4jnsgd1na2vs0mg"},{"bike_id":"46515b8e-2c91-48c1-8869-455cffd3d0b7","system_id":"levelo_inurba_marseille","lat":43.27939,"lon":5.41045,"is_reserved":false,"is_disabled":false,"rental_uris":{"android":"levelo://app?vid=46515b8e-2c91-48c1-8869-455cffd3d0b7","ios":"levelo://app?vid=46515b8e-2c91-48c1-8869-455cffd3d0b7"},"vehicle_type_id":"4","last_reported":1746486585,"current_range_meters":11200,"station_id":"ce4bhnp2rcd13ifvqh0g","pricing_plan_id":"cebpf4jnsgd1na2vs0mg"},{"bike_id":"bd0f5d5e-963b-4fe6-aa82-9fc047b0ac51","system_id":"levelo_inurba_marseille","lat":43.299042,"lon":5.388155,"is_reserved":false,"is_disabled":false,"rental_uris":{"android":"levelo://app?vid=bd0f5d5e-963b-4fe6-aa82-9fc047b0ac51","ios":"levelo://app?vid=bd0f5d5e-963b-4fe6-aa82-9fc047b0ac51"},"vehicle_type_id":"4","last_reported":1746486585,"current_range_meters":11200,"station_id":"","pricing_plan_id":"cebpf4jnsgd1na2vs0mg"},{"bike_id":"9d8f73eb-df09-4699-86a7-d631e2319093","system_id":"levelo_inurba_marseille","lat":43.26269,"lon":5.3742,"is_reserved":false,"is_disabled":false,"rental_uris":{"android":"levelo://app?vid=9d8f73eb-df09-4699-86a7-d631e2319093","ios":"levelo://app?vid=9d8f73eb-df09-4699-86a7-d631e2319093"},"vehicle_type_id":"4","last_reported":1746486585,"current_range_meters":11200,"station_id":"","pricing_plan_id":"cebpf4jnsgd1na2vs0mg"},{"bike_id":"62bfa9fa-531f-4d2b-9e57-eb50b2d48c8c","system_id":"levelo_inurba_marseille","lat":43.242885,"lon":5.38016,"is_reserved":false,"is_disabled":false,"rental_uris":{"android":"levelo://app?vid=62bfa9fa-531f-4d2b-9e57-eb50b2d48c8c","ios":"levelo://app?vid=62bfa9fa-531f-4d2b-9e57-eb50b2d48c8c"},"vehicle_type_id":"4","last_reported":1746486585,"current_range_meters":11200,"station_id":"","pricing_plan_id":"cebpf4jnsgd1na2vs0mg"},{"bike_id":"d690aaf7-832d-40b0-91ff-d0898ba3e8d4","system_id":"levelo_inurba_marseille","lat":43.26567,"lon":5.38992,"is_reserved":false,"is_disabled":false,"rental_uris":{"android":"levelo://app?vid=d690aaf7-832d-40b0-91ff-d0898ba3e8d4","ios":"levelo://app?vid=d690aaf7-832d-40b0-91ff-d0898ba3e8d4"},"vehicle_type_id":"4","last_reported":1746486585,"current_range_meters":11200,"station_id":"ce4bhe12rcd13ifvqf30","pricing_plan_id":"cebpf4jnsgd1na2vs0mg"},{"bike_id":"0cb139c7-ebfc-4316-b1f8-0830598824b5","system_id":"levelo_inurba_marseille","lat":43.29789,"lon":5.39352,"is_reserved":false,"is_disabled":true,"rental_uris":{"android":"levelo://app?vid=0cb139c7-ebfc-4316-b1f8-0830598824b5","ios":"levelo://app?vid=0cb139c7-ebfc-4316-b1f8-0830598824b5"},"vehicle_type_id":"4","last_reported":1746486585,"current_range_meters":11600,"station_id":"chh1huq6cuj3fo74tm60","pricing_plan_id":"cebpf4jnsgd1na2vs0mg"},{"bike_id":"8de468c6-9e73-4fff-9ec1-822aa1e3ad27","system_id":"levelo_inurba_marseille","lat":43.2893,"lon":5.36636,"is_reserved":false,"is_disabled":false,"rental_uris":{"android":"levelo://app?vid=8de468c6-9e73-4fff-9ec1-822aa1e3ad27","ios":"levelo://app?vid=8de468c6-9e73-4fff-9ec1-822aa1e3ad27"},"vehicle_type_id":"4","last_reported":1746486585,"current_range_meters":11600,"station_id":"ce4bhap2rcd13ifvqek0","pricing_plan_id":"cebpf4jnsgd1na2vs0mg"},{"bike_id":"b486f5fd-1209-4352-985e-d268bb97a482","system_id":"levelo_inurba_marseille","lat":43.28432,"lon":5.35008,"is_reserved":false,"is_disabled":false,"rental_uris":{"android":"levelo://app?vid=b486f5fd-1209-4352-985e-d268bb97a482","ios":"levelo://app?vid=b486f5fd-1209-4352-985e-d268bb97a482"},"vehicle_type_id":"4","last_reported":1746486585,"current_range_meters":11600,"station_id":"ce4bhbh2rcd13ifvqepg","pricing_plan_id":"cebpf4jnsgd1na2vs0mg"},{"bike_id":"7c8d8e15-5a3e-4c1b-b912-e8bd98750196","system_id":"levelo_inurba_marseille","lat":43.28155,"lon":5.42625,"is_reserved":false,"is_disabled":false,"rental_uris":{"android":"levelo://app?vid=7c8d8e15-5a3e-4c1b-b912-e8bd98750196","ios":"levelo://app?vid=7c8d8e15-5a3e-4c1b-b912-e8bd98750196"},"vehicle_type_id":"4","last_reported":1746486585,"current_range_meters":11600,"station_id":"ce4bhnh2rcd13ifvqgug","pricing_plan_id":"cebpf4jnsgd1na2vs0mg"},{"bike_id":"fbda12d9-6999-44a5-a236-2a288c2ac07c","system_id":"levelo_inurba_marseille","lat":43.2407,"lon":5.37768,"is_reserved":false,"is_disabled":false,"rental_uris":{"android":"levelo://app?vid=fbda12d9-6999-44a5-a236-2a288c2ac07c","ios":"levelo://app?vid=fbda12d9-6999-44a5-a236-2a288c2ac07c"},"vehicle_type_id":"4","last_reported":1746486585,"current_range_meters":12000,"station_id":"ce4bhnp2rcd13ifvqgvg","pricing_plan_id":"cebpf4jnsgd1na2vs0mg"},{"bike_id":"b60c17f5-436e-489e-8f3c-790e6084ac64","system_id":"levelo_inurba_marseille","lat":43.211918,"lon":5.350778,"is_reserved":false,"is_disabled":false,"rental_uris":{"android":"levelo://app?vid=b60c17f5-436e-489e-8f3c-790e6084ac64","ios":"levelo://app?vid=b60c17f5-436e-489e-8f3c-790e6084ac64"},"vehicle_type_id":"4","last_reported":1746486585,"current_range_meters":12000,"station_id":"st_cvj6sg6p6f1abm77japg","pricing_plan_id":"cebpf4jnsgd1na2vs0mg"},{"bike_id":"5aafa0e8-2833-481f-b309-498bd9c2f500","system_id":"levelo_inurba_marseille","lat":43.27324,"lon":5.39071,"is_reserved":false,"is_disabled":false,"rental_uris":{"android":"levelo://app?vid=5aafa0e8-2833-481f-b309-498bd9c2f500","ios":"levelo://app?vid=5aafa0e8-2833-481f-b309-498bd9c2f500"},"vehicle_type_id":"4","last_reported":1746486585,"current_range_meters":12000,"station_id":"ce4bhgp2rcd13ifvqfe0","pricing_plan_id":"cebpf4jnsgd1na2vs0mg"},{"bike_id":"763c412a-22fd-426f-a46a-b5235da371a1","system_id":"levelo_inurba_marseille","lat":43.2795,"lon":5.41037,"is_reserved":false,"is_disabled":false,"rental_uris":{"android":"levelo://app?vid=763c412a-22fd-426f-a46a-b5235da371a1","ios":"levelo://app?vid=763c412a-22fd-426f-a46a-b5235da371a1"},"vehicle_type_id":"4","last_reported":1746486585,"current_range_meters":12000,"station_id":"ce4bhnp2rcd13ifvqh0g","pricing_plan_id":"cebpf4jnsgd1na2vs0mg"},{"bike_id":"0c377d9d-9a3a-47a7-9944-6039314b5e15","system_id":"levelo_inurba_marseille","lat":43.24588,"lon":5.40469,"is_reserved":false,"is_disabled":false,"rental_uris":{"android":"levelo://app?vid=0c377d9d-9a3a-47a7-9944-6039314b5e15","ios":"levelo://app?vid=0c377d9d-9a3a-47a7-9944-6039314b5e15"},"vehicle_type_id":"4","last_reported":1746486585,"current_range_meters":12000,"station_id":"","pricing_plan_id":"cebpf4jnsgd1na2vs0mg"},{"bike_id":"05a84f69-0592-442a-b098-6253d0b70e9e","system_id":"levelo_inurba_marseille","lat":43.30004,"lon":5.37201,"is_reserved":false,"is_disabled":false,"rental_uris":{"android":"levelo://app?vid=05a84f69-0592-442a-b098-6253d0b70e9e","ios":"levelo://app?vid=05a84f69-0592-442a-b098-6253d0b70e9e"},"vehicle_type_id":"4","last_reported":1746486585,"current_range_meters":12000,"station_id":"ce4bgr92rcd13ifvqc7g","pricing_plan_id":"cebpf4jnsgd1na2vs0mg"},{"bike_id":"287caded-a0eb-4054-a6d8-cf38ef2aac01","system_id":"levelo_inurba_marseille","lat":43.2857,"lon":5.39491,"is_reserved":false,"is_disabled":false,"rental_uris":{"android":"levelo://app?vid=287caded-a0eb-4054-a6d8-cf38ef2aac01","ios":"levelo://app?vid=287caded-a0eb-4054-a6d8-cf38ef2aac01"},"vehicle_type_id":"4","last_reported":1746486585,"current_range_meters":15200,"station_id":"ce4bh292rcd13ifvqdg0","pricing_plan_id":"cebpf4jnsgd1na2vs0mg"},{"bike_id":"5423b67b-7d78-436a-846a-99a9f32bc3c9","system_id":"levelo_inurba_marseille","lat":43.25071,"lon":5.39503,"is_reserved":false,"is_disabled":false,"rental_uris":{"android":"levelo://app?vid=5423b67b-7d78-436a-846a-99a9f32bc3c9","ios":"levelo://app?vid=5423b67b-7d78-436a-846a-99a9f32bc3c9"},"vehicle_type_id":"4","last_reported":1746486585,"current_range_meters":12400,"station_id":"ce4bhm12rcd13ifvqgkg","pricing_plan_id":"cebpf4jnsgd1na2vs0mg"},{"bike_id":"caee4c6c-e344-470b-a22f-cc743641df5c","system_id":"levelo_inurba_marseille","lat":43.289433,"lon":5.366407,"is_reserved":false,"is_disabled":false,"rental_uris":{"android":"levelo://app?vid=caee4c6c-e344-470b-a22f-cc743641df5c","ios":"levelo://app?vid=caee4c6c-e344-470b-a22f-cc743641df5c"},"vehicle_type_id":"4","last_reported":1746486585,"current_range_meters":12000,"station_id":"ce4bhap2rcd13ifvqek0","pricing_plan_id":"cebpf4jnsgd1na2vs0mg"},{"bike_id":"bfd18729-234a-4c72-b47b-2cff574b2dc5","system_id":"levelo_inurba_marseille","lat":43.292402,"lon":5.383034,"is_reserved":false,"is_disabled":false,"rental_uris":{"android":"levelo://app?vid=bfd18729-234a-4c72-b47b-2cff574b2dc5","ios":"levelo://app?vid=bfd18729-234a-4c72-b47b-2cff574b2dc5"},"vehicle_type_id":"4","last_reported":1746486585,"current_range_meters":12400,"station_id":"","pricing_plan_id":"cebpf4jnsgd1na2vs0mg"},{"bike_id":"e59f121e-ba4f-4890-a742-2d0c49eae7d8","system_id":"levelo_inurba_marseille","lat":43.31544,"lon":5.38016,"is_reserved":false,"is_disabled":false,"rental_uris":{"android":"levelo://app?vid=e59f121e-ba4f-4890-a742-2d0c49eae7d8","ios":"levelo://app?vid=e59f121e-ba4f-4890-a742-2d0c49eae7d8"},"vehicle_type_id":"4","last_reported":1746486585,"current_range_meters":12800,"station_id":"ce4bhsp2rcd13ifvqi50","pricing_plan_id":"cebpf4jnsgd1na2vs0mg"},{"bike_id":"68b4d44d-a4a8-499f-928a-a7d376a5d895","system_id":"levelo_inurba_marseille","lat":43.29098,"lon":5.38139,"is_reserved":false,"is_disabled":false,"rental_uris":{"android":"levelo://app?vid=68b4d44d-a4a8-499f-928a-a7d376a5d895","ios":"levelo://app?vid=68b4d44d-a4a8-499f-928a-a7d376a5d895"},"vehicle_type_id":"4","last_reported":1746486585,"current_range_meters":12400,"station_id":"ce4bh512rcd13ifvqe2g","pricing_plan_id":"cebpf4jnsgd1na2vs0mg"},{"bike_id":"a46b5721-597c-404e-8ddb-3ba6469f967d","system_id":"levelo_inurba_marseille","lat":43.23194,"lon":5.35554,"is_reserved":false,"is_disabled":false,"rental_uris":{"android":"levelo://app?vid=a46b5721-597c-404e-8ddb-3ba6469f967d","ios":"levelo://app?vid=a46b5721-597c-404e-8ddb-3ba6469f967d"},"vehicle_type_id":"4","last_reported":1746486585,"current_range_meters":12800,"station_id":"ce4bhu92rcd13ifvqi70","pricing_plan_id":"cebpf4jnsgd1na2vs0mg"},{"bike_id":"ec3ab4d5-4298-47d6-af0f-cfe6418ed1b9","system_id":"levelo_inurba_marseille","lat":43.25116,"lon":5.40338,"is_reserved":false,"is_disabled":false,"rental_uris":{"android":"levelo://app?vid=ec3ab4d5-4298-47d6-af0f-cfe6418ed1b9","ios":"levelo://app?vid=ec3ab4d5-4298-47d6-af0f-cfe6418ed1b9"},"vehicle_type_id":"4","last_reported":1746486585,"current_range_meters":12800,"station_id":"ce4bhlh2rcd13ifvqgig","pricing_plan_id":"cebpf4jnsgd1na2vs0mg"},{"bike_id":"156b2893-1935-4e6b-a870-c55ec5e1824b","system_id":"levelo_inurba_marseille","lat":43.308064,"lon":5.435076,"is_reserved":false,"is_disabled":false,"rental_uris":{"android":"levelo://app?vid=156b2893-1935-4e6b-a870-c55ec5e1824b","ios":"levelo://app?vid=156b2893-1935-4e6b-a870-c55ec5e1824b"},"vehicle_type_id":"4","last_reported":1746486585,"current_range_meters":12800,"station_id":"ce4bhph2rcd13ifvqheg","pricing_plan_id":"cebpf4jnsgd1na2vs0mg"},{"bike_id":"7e7dc147-9fb8-4df0-905e-a56344049728","system_id":"levelo_inurba_marseille","lat":43.29024,"lon":5.38642,"is_reserved":false,"is_disabled":true,"rental_uris":{"android":"levelo://app?vid=7e7dc147-9fb8-4df0-905e-a56344049728","ios":"levelo://app?vid=7e7dc147-9fb8-4df0-905e-a56344049728"},"vehicle_type_id":"4","last_reported":1746486585,"current_range_meters":12800,"station_id":"ce4bh4p2rcd13ifvqe0g","pricing_plan_id":"cebpf4jnsgd1na2vs0mg"},{"bike_id":"db607aba-0db6-423b-a818-c23224727203","system_id":"levelo_inurba_marseille","lat":43.231546,"lon":5.436983,"is_reserved":false,"is_disabled":false,"rental_uris":{"android":"levelo://app?vid=db607aba-0db6-423b-a818-c23224727203","ios":"levelo://app?vid=db607aba-0db6-423b-a818-c23224727203"},"vehicle_type_id":"4","last_reported":1746486585,"current_range_meters":12800,"station_id":"ce4bhmp2rcd13ifvqgog","pricing_plan_id":"cebpf4jnsgd1na2vs0mg"},{"bike_id":"311ec4e0-482e-4b83-a693-e6b86a1abb04","system_id":"levelo_inurba_marseille","lat":43.33134,"lon":5.41382,"is_reserved":false,"is_disabled":false,"rental_uris":{"android":"levelo://app?vid=311ec4e0-482e-4b83-a693-e6b86a1abb04","ios":"levelo://app?vid=311ec4e0-482e-4b83-a693-e6b86a1abb04"},"vehicle_type_id":"4","last_reported":1746486585,"current_range_meters":12800,"station_id":"","pricing_plan_id":"cebpf4jnsgd1na2vs0mg"},{"bike_id":"44d1a496-4f16-46a6-b178-f49cec17003e","system_id":"levelo_inurba_marseille","lat":43.27184,"lon":5.40993,"is_reserved":false,"is_disabled":false,"rental_uris":{"android":"levelo://app?vid=44d1a496-4f16-46a6-b178-f49cec17003e","ios":"levelo://app?vid=44d1a496-4f16-46a6-b178-f49cec17003e"},"vehicle_type_id":"4","last_reported":1746486585,"current_range_meters":14000,"station_id":"ce4bhl12rcd13ifvqgf0","pricing_plan_id":"cebpf4jnsgd1na2vs0mg"},{"bike_id":"13fcfc94-37a5-49a8-a177-77725e8512b6","system_id":"levelo_inurba_marseille","lat":43.304556,"lon":5.379031,"is_reserved":false,"is_disabled":true,"rental_uris":{"android":"levelo://app?vid=13fcfc94-37a5-49a8-a177-77725e8512b6","ios":"levelo://app?vid=13fcfc94-37a5-49a8-a177-77725e8512b6"},"vehicle_type_id":"4","last_reported":1746486585,"current_range_meters":13600,"station_id":"ce4bgup2rcd13ifvqcn0","pricing_plan_id":"cebpf4jnsgd1na2vs0mg"},{"bike_id":"a564814d-612a-4672-a9dd-f9719d2b6023","system_id":"levelo_inurba_marseille","lat":43.28403,"lon":5.37528,"is_reserved":false,"is_disabled":false,"rental_uris":{"android":"levelo://app?vid=a564814d-612a-4672-a9dd-f9719d2b6023","ios":"levelo://app?vid=a564814d-612a-4672-a9dd-f9719d2b6023"},"vehicle_type_id":"4","last_reported":1746486585,"current_range_meters":13600,"station_id":"ce4bh412rcd13ifvqds0","pricing_plan_id":"cebpf4jnsgd1na2vs0mg"},{"bike_id":"936a637d-a079-4ff8-ae5b-41a138df9f05","system_id":"levelo_inurba_marseille","lat":43.27966,"lon":5.38727,"is_reserved":false,"is_disabled":false,"rental_uris":{"android":"levelo://app?vid=936a637d-a079-4ff8-ae5b-41a138df9f05","ios":"levelo://app?vid=936a637d-a079-4ff8-ae5b-41a138df9f05"},"vehicle_type_id":"4","last_reported":1746486585,"current_range_meters":13600,"station_id":"ce4bhg12rcd13ifvqf80","pricing_plan_id":"cebpf4jnsgd1na2vs0mg"},{"bike_id":"adf5dfc5-5664-4b0f-8d86-0129f9858272","system_id":"levelo_inurba_marseille","lat":43.3078,"lon":5.37649,"is_reserved":false,"is_disabled":false,"rental_uris":{"android":"levelo://app?vid=adf5dfc5-5664-4b0f-8d86-0129f9858272","ios":"levelo://app?vid=adf5dfc5-5664-4b0f-8d86-0129f9858272"},"vehicle_type_id":"4","last_reported":1746486585,"current_range_meters":13600,"station_id":"ce4bgv92rcd13ifvqcq0","pricing_plan_id":"cebpf4jnsgd1na2vs0mg"},{"bike_id":"2d3a4e18-5e5c-41fd-a652-c6f84f49b159","system_id":"levelo_inurba_marseille","lat":43.29374,"lon":5.37844,"is_reserved":false,"is_disabled":true,"rental_uris":{"android":"levelo://app?vid=2d3a4e18-5e5c-41fd-a652-c6f84f49b159","ios":"levelo://app?vid=2d3a4e18-5e5c-41fd-a652-c6f84f49b159"},"vehicle_type_id":"4","last_reported":1746486585,"current_range_meters":13600,"station_id":"ce4bgjh2rcd13ifvqbf0","pricing_plan_id":"cebpf4jnsgd1na2vs0mg"},{"bike_id":"ff98988f-b7b5-4b59-aafa-108198aebfdf","system_id":"levelo_inurba_marseille","lat":43.311693,"lon":5.387179,"is_reserved":false,"is_disabled":false,"rental_uris":{"android":"levelo://app?vid=ff98988f-b7b5-4b59-aafa-108198aebfdf","ios":"levelo://app?vid=ff98988f-b7b5-4b59-aafa-108198aebfdf"},"vehicle_type_id":"4","last_reported":1746486585,"current_range_meters":14000,"station_id":"ce4bgv12rcd13ifvqcp0","pricing_plan_id":"cebpf4jnsgd1na2vs0mg"},{"bike_id":"c9592205-9409-4f74-aed1-7c4141a58caa","system_id":"levelo_inurba_marseille","lat":43.27143,"lon":5.36341,"is_reserved":false,"is_disabled":false,"rental_uris":{"android":"levelo://app?vid=c9592205-9409-4f74-aed1-7c4141a58caa","ios":"levelo://app?vid=c9592205-9409-4f74-aed1-7c4141a58caa"},"vehicle_type_id":"4","last_reported":1746486585,"current_range_meters":14000,"station_id":"","pricing_plan_id":"cebpf4jnsgd1na2vs0mg"},{"bike_id":"39aa275e-d157-4bd3-b8c5-b8344765c5be","system_id":"levelo_inurba_marseille","lat":43.287342,"lon":5.36075,"is_reserved":false,"is_disabled":false,"rental_uris":{"android":"levelo://app?vid=39aa275e-d157-4bd3-b8c5-b8344765c5be","ios":"levelo://app?vid=39aa275e-d157-4bd3-b8c5-b8344765c5be"},"vehicle_type_id":"4","last_reported":1746486585,"current_range_meters":14000,"station_id":"cki0cbj6b192h4jlfktg","pricing_plan_id":"cebpf4jnsgd1na2vs0mg"},{"bike_id":"7e86d21d-45f2-4214-8268-1894a29d6870","system_id":"levelo_inurba_marseille","lat":43.27828,"lon":5.40728,"is_reserved":false,"is_disabled":false,"rental_uris":{"android":"levelo://app?vid=7e86d21d-45f2-4214-8268-1894a29d6870","ios":"levelo://app?vid=7e86d21d-45f2-4214-8268-1894a29d6870"},"vehicle_type_id":"4","last_reported":1746486585,"current_range_meters":14000,"station_id":"ce4bhnh2rcd13ifvqgtg","pricing_plan_id":"cebpf4jnsgd1na2vs0mg"},{"bike_id":"a9b78ccc-48f0-4502-b89e-0369c4bf7b0b","system_id":"levelo_inurba_marseille","lat":43.23187,"lon":5.39994,"is_reserved":false,"is_disabled":false,"rental_uris":{"android":"levelo://app?vid=a9b78ccc-48f0-4502-b89e-0369c4bf7b0b","ios":"levelo://app?vid=a9b78ccc-48f0-4502-b89e-0369c4bf7b0b"},"vehicle_type_id":"4","last_reported":1746486585,"current_range_meters":14000,"station_id":"ce4bhn12rcd13ifvqgqg","pricing_plan_id":"cebpf4jnsgd1na2vs0mg"},{"bike_id":"d1aa6e5d-6beb-440c-afb6-1d488c12e5a1","system_id":"levelo_inurba_marseille","lat":43.32074,"lon":5.36758,"is_reserved":false,"is_disabled":false,"rental_uris":{"android":"levelo://app?vid=d1aa6e5d-6beb-440c-afb6-1d488c12e5a1","ios":"levelo://app?vid=d1aa6e5d-6beb-440c-afb6-1d488c12e5a1"},"vehicle_type_id":"4","last_reported":1746486585,"current_range_meters":14000,"station_id":"","pricing_plan_id":"cebpf4jnsgd1na2vs0mg"},{"bike_id":"7b602b1d-e420-4acb-b3b4-4b63bb884ab4","system_id":"levelo_inurba_marseille","lat":43.289339,"lon":5.366352,"is_reserved":false,"is_disabled":false,"rental_uris":{"android":"levelo://app?vid=7b602b1d-e420-4acb-b3b4-4b63bb884ab4","ios":"levelo://app?vid=7b602b1d-e420-4acb-b3b4-4b63bb884ab4"},"vehicle_type_id":"4","last_reported":1746486585,"current_range_meters":14400,"station_id":"ce4bhap2rcd13ifvqek0","pricing_plan_id":"cebpf4jnsgd1na2vs0mg"},{"bike_id":"858bed88-3c9c-4c60-b913-cfc9a1021309","system_id":"levelo_inurba_marseille","lat":43.31767,"lon":5.39023,"is_reserved":false,"is_disabled":true,"rental_uris":{"android":"levelo://app?vid=858bed88-3c9c-4c60-b913-cfc9a1021309","ios":"levelo://app?vid=858bed88-3c9c-4c60-b913-cfc9a1021309"},"vehicle_type_id":"4","last_reported":1746486585,"current_range_meters":14400,"station_id":"ce4bhqp2rcd13ifvqhng","pricing_plan_id":"cebpf4jnsgd1na2vs0mg"},{"bike_id":"7f74578c-ed46-4c70-a4ce-aee5cce42518","system_id":"levelo_inurba_marseille","lat":43.30279,"lon":5.37694,"is_reserved":false,"is_disabled":false,"rental_uris":{"android":"levelo://app?vid=7f74578c-ed46-4c70-a4ce-aee5cce42518","ios":"levelo://app?vid=7f74578c-ed46-4c70-a4ce-aee5cce42518"},"vehicle_type_id":"4","last_reported":1746486585,"current_range_meters":14800,"station_id":"ce4bguh2rcd13ifvqcj0","pricing_plan_id":"cebpf4jnsgd1na2vs0mg"},{"bike_id":"7ae923fd-583b-405f-968d-fb1bcede32b7","system_id":"levelo_inurba_marseille","lat":43.25071,"lon":5.39502,"is_reserved":false,"is_disabled":false,"rental_uris":{"android":"levelo://app?vid=7ae923fd-583b-405f-968d-fb1bcede32b7","ios":"levelo://app?vid=7ae923fd-583b-405f-968d-fb1bcede32b7"},"vehicle_type_id":"4","last_reported":1746486585,"current_range_meters":14800,"station_id":"ce4bhm12rcd13ifvqgkg","pricing_plan_id":"cebpf4jnsgd1na2vs0mg"},{"bike_id":"8dac27be-a00b-4425-aba9-9ad4ebb57a63","system_id":"levelo_inurba_marseille","lat":43.286867,"lon":5.386743,"is_reserved":false,"is_disabled":true,"rental_uris":{"android":"levelo://app?vid=8dac27be-a00b-4425-aba9-9ad4ebb57a63","ios":"levelo://app?vid=8dac27be-a00b-4425-aba9-9ad4ebb57a63"},"vehicle_type_id":"4","last_reported":1746486585,"current_range_meters":14800,"station_id":"ce4bh492rcd13ifvqdug","pricing_plan_id":"cebpf4jnsgd1na2vs0mg"},{"bike_id":"7ca09d8d-51db-4057-abe2-e9c1bdbcdfac","system_id":"levelo_inurba_marseille","lat":43.229278,"lon":5.353766,"is_reserved":false,"is_disabled":true,"rental_uris":{"android":"levelo://app?vid=7ca09d8d-51db-4057-abe2-e9c1bdbcdfac","ios":"levelo://app?vid=7ca09d8d-51db-4057-abe2-e9c1bdbcdfac"},"vehicle_type_id":"4","last_reported":1746486585,"current_range_meters":14800,"station_id":"cpo3532slgdg3j2ikp40","pricing_plan_id":"cebpf4jnsgd1na2vs0mg"},{"bike_id":"34b1efd4-48c2-4719-84d4-6a6a73d11d34","system_id":"levelo_inurba_marseille","lat":43.31494,"lon":5.373,"is_reserved":false,"is_disabled":false,"rental_uris":{"android":"levelo://app?vid=34b1efd4-48c2-4719-84d4-6a6a73d11d34","ios":"levelo://app?vid=34b1efd4-48c2-4719-84d4-6a6a73d11d34"},"vehicle_type_id":"4","last_reported":1746486585,"current_range_meters":14800,"station_id":"ce4bgt12rcd13ifvqcd0","pricing_plan_id":"cebpf4jnsgd1na2vs0mg"},{"bike_id":"f7f685cd-3f69-4e28-b1ba-dd267fb3831d","system_id":"levelo_inurba_marseille","lat":43.2873,"lon":5.36088,"is_reserved":false,"is_disabled":false,"rental_uris":{"android":"levelo://app?vid=f7f685cd-3f69-4e28-b1ba-dd267fb3831d","ios":"levelo://app?vid=f7f685cd-3f69-4e28-b1ba-dd267fb3831d"},"vehicle_type_id":"4","last_reported":1746486585,"current_range_meters":15200,"station_id":"cki0cbj6b192h4jlfktg","pricing_plan_id":"cebpf4jnsgd1na2vs0mg"},{"bike_id":"2df614bf-145f-44cd-b174-f8bd8326963c","system_id":"levelo_inurba_marseille","lat":43.3155,"lon":5.38,"is_reserved":false,"is_disabled":false,"rental_uris":{"android":"levelo://app?vid=2df614bf-145f-44cd-b174-f8bd8326963c","ios":"levelo://app?vid=2df614bf-145f-44cd-b174-f8bd8326963c"},"vehicle_type_id":"4","last_reported":1746486585,"current_range_meters":15200,"station_id":"ce4bhsp2rcd13ifvqi50","pricing_plan_id":"cebpf4jnsgd1na2vs0mg"},{"bike_id":"5a7d2749-ecbc-4351-94f2-8339d95d4c06","system_id":"levelo_inurba_marseille","lat":43.3154,"lon":5.38035,"is_reserved":false,"is_disabled":false,"rental_uris":{"android":"levelo://app?vid=5a7d2749-ecbc-4351-94f2-8339d95d4c06","ios":"levelo://app?vid=5a7d2749-ecbc-4351-94f2-8339d95d4c06"},"vehicle_type_id":"4","last_reported":1746486585,"current_range_meters":15200,"station_id":"ce4bhsp2rcd13ifvqi50","pricing_plan_id":"cebpf4jnsgd1na2vs0mg"},{"bike_id":"3f84d55c-f7b3-443f-a8ba-1f83ba8291a2","system_id":"levelo_inurba_marseille","lat":43.21192,"lon":5.35074,"is_reserved":false,"is_disabled":false,"rental_uris":{"android":"levelo://app?vid=3f84d55c-f7b3-443f-a8ba-1f83ba8291a2","ios":"levelo://app?vid=3f84d55c-f7b3-443f-a8ba-1f83ba8291a2"},"vehicle_type_id":"4","last_reported":1746486585,"current_range_meters":15200,"station_id":"st_cvj6sg6p6f1abm77japg","pricing_plan_id":"cebpf4jnsgd1na2vs0mg"},{"bike_id":"7ed36353-092b-453c-b837-0c3c8d44cb54","system_id":"levelo_inurba_marseille","lat":43.28409,"lon":5.37515,"is_reserved":false,"is_disabled":false,"rental_uris":{"android":"levelo://app?vid=7ed36353-092b-453c-b837-0c3c8d44cb54","ios":"levelo://app?vid=7ed36353-092b-453c-b837-0c3c8d44cb54"},"vehicle_type_id":"4","last_reported":1746486585,"current_range_meters":16000,"station_id":"ce4bh412rcd13ifvqds0","pricing_plan_id":"cebpf4jnsgd1na2vs0mg"},{"bike_id":"bedea05d-d78e-49aa-a496-3f51d4ea594b","system_id":"levelo_inurba_marseille","lat":43.28459,"lon":5.35887,"is_reserved":false,"is_disabled":false,"rental_uris":{"android":"levelo://app?vid=bedea05d-d78e-49aa-a496-3f51d4ea594b","ios":"levelo://app?vid=bedea05d-d78e-49aa-a496-3f51d4ea594b"},"vehicle_type_id":"4","last_reported":1746486585,"current_range_meters":16000,"station_id":"ce4bhah2rcd13ifvqei0","pricing_plan_id":"cebpf4jnsgd1na2vs0mg"},{"bike_id":"99097e50-dd2e-47c3-a879-f48655baf4d9","system_id":"levelo_inurba_marseille","lat":43.24596,"lon":5.40826,"is_reserved":false,"is_disabled":false,"rental_uris":{"android":"levelo://app?vid=99097e50-dd2e-47c3-a879-f48655baf4d9","ios":"levelo://app?vid=99097e50-dd2e-47c3-a879-f48655baf4d9"},"vehicle_type_id":"4","last_reported":1746486585,"current_range_meters":16000,"station_id":"","pricing_plan_id":"cebpf4jnsgd1na2vs0mg"},{"bike_id":"e3bb4c0a-ea28-4d8b-a92a-340ecfdd5f1d","system_id":"levelo_inurba_marseille","lat":43.310623,"lon":5.375473,"is_reserved":false,"is_disabled":false,"rental_uris":{"android":"levelo://app?vid=e3bb4c0a-ea28-4d8b-a92a-340ecfdd5f1d","ios":"levelo://app?vid=e3bb4c0a-ea28-4d8b-a92a-340ecfdd5f1d"},"vehicle_type_id":"4","last_reported":1746486585,"current_range_meters":16000,"station_id":"","pricing_plan_id":"cebpf4jnsgd1na2vs0mg"},{"bike_id":"f923bc7e-7ddd-48e1-9a5c-e4b11899f853","system_id":"levelo_inurba_marseille","lat":43.30891,"lon":5.39659,"is_reserved":false,"is_disabled":false,"rental_uris":{"android":"levelo://app?vid=f923bc7e-7ddd-48e1-9a5c-e4b11899f853","ios":"levelo://app?vid=f923bc7e-7ddd-48e1-9a5c-e4b11899f853"},"vehicle_type_id":"4","last_reported":1746486585,"current_range_meters":16000,"station_id":"ce4bh012rcd13ifvqcv0","pricing_plan_id":"cebpf4jnsgd1na2vs0mg"},{"bike_id":"6029277e-beeb-4ede-96b3-989ee5b8db59","system_id":"levelo_inurba_marseille","lat":43.28003,"lon":5.40006,"is_reserved":false,"is_disabled":false,"rental_uris":{"android":"levelo://app?vid=6029277e-beeb-4ede-96b3-989ee5b8db59","ios":"levelo://app?vid=6029277e-beeb-4ede-96b3-989ee5b8db59"},"vehicle_type_id":"4","last_reported":1746486585,"current_range_meters":15200,"station_id":"ce4bho92rcd13ifvqh4g","pricing_plan_id":"cebpf4jnsgd1na2vs0mg"},{"bike_id":"5cf9bea3-9c42-4bef-a5e8-cfcc39d36971","system_id":"levelo_inurba_marseille","lat":43.31114,"lon":5.37779,"is_reserved":false,"is_disabled":false,"rental_uris":{"android":"levelo://app?vid=5cf9bea3-9c42-4bef-a5e8-cfcc39d36971","ios":"levelo://app?vid=5cf9bea3-9c42-4bef-a5e8-cfcc39d36971"},"vehicle_type_id":"4","last_reported":1746486585,"current_range_meters":16000,"station_id":"ce4bgt92rcd13ifvqcg0","pricing_plan_id":"cebpf4jnsgd1na2vs0mg"},{"bike_id":"bf11d413-33d1-4f11-b796-85c93fbc3104","system_id":"levelo_inurba_marseille","lat":43.307931,"lon":5.376506,"is_reserved":false,"is_disabled":false,"rental_uris":{"android":"levelo://app?vid=bf11d413-33d1-4f11-b796-85c93fbc3104","ios":"levelo://app?vid=bf11d413-33d1-4f11-b796-85c93fbc3104"},"vehicle_type_id":"4","last_reported":1746486585,"current_range_meters":16000,"station_id":"ce4bgv92rcd13ifvqcq0","pricing_plan_id":"cebpf4jnsgd1na2vs0mg"},{"bike_id":"5987d684-ebbc-4e3b-9225-d827a0b9ff39","system_id":"levelo_inurba_marseille","lat":43.23957,"lon":5.36631,"is_reserved":false,"is_disabled":false,"rental_uris":{"android":"levelo://app?vid=5987d684-ebbc-4e3b-9225-d827a0b9ff39","ios":"levelo://app?vid=5987d684-ebbc-4e3b-9225-d827a0b9ff39"},"vehicle_type_id":"4","last_reported":1746486585,"current_range_meters":16400,"station_id":"ce4bhi12rcd13ifvqfp0","pricing_plan_id":"cebpf4jnsgd1na2vs0mg"},{"bike_id":"bfb768d4-db43-4db8-8659-afeb33dd4edd","system_id":"levelo_inurba_marseille","lat":43.30735,"lon":5.42432,"is_reserved":false,"is_disabled":false,"rental_uris":{"android":"levelo://app?vid=bfb768d4-db43-4db8-8659-afeb33dd4edd","ios":"levelo://app?vid=bfb768d4-db43-4db8-8659-afeb33dd4edd"},"vehicle_type_id":"4","last_reported":1746486585,"current_range_meters":16400,"station_id":"st_cvj6ca6bvosntc0bfgr0","pricing_plan_id":"cebpf4jnsgd1na2vs0mg"},{"bike_id":"d80a186c-6cde-48d1-a6c4-cc1ccc278891","system_id":"levelo_inurba_marseille","lat":43.31713,"lon":5.436985,"is_reserved":false,"is_disabled":false,"rental_uris":{"android":"levelo://app?vid=d80a186c-6cde-48d1-a6c4-cc1ccc278891","ios":"levelo://app?vid=d80a186c-6cde-48d1-a6c4-cc1ccc278891"},"vehicle_type_id":"4","last_reported":1746486585,"current_range_meters":16800,"station_id":"ce4bhp92rcd13ifvqhcg","pricing_plan_id":"cebpf4jnsgd1na2vs0mg"},{"bike_id":"68db1e13-3b7e-40af-83a2-a4203eac9c02","system_id":"levelo_inurba_marseille","lat":43.28097,"lon":5.37856,"is_reserved":false,"is_disabled":false,"rental_uris":{"android":"levelo://app?vid=68db1e13-3b7e-40af-83a2-a4203eac9c02","ios":"levelo://app?vid=68db1e13-3b7e-40af-83a2-a4203eac9c02"},"vehicle_type_id":"4","last_reported":1746486585,"current_range_meters":16800,"station_id":"ce4bha12rcd13ifvqee0","pricing_plan_id":"cebpf4jnsgd1na2vs0mg"},{"bike_id":"e96aed38-4a0d-4978-b6c9-65d6ecdea43d","system_id":"levelo_inurba_marseille","lat":43.2939,"lon":5.37845,"is_reserved":false,"is_disabled":true,"rental_uris":{"android":"levelo://app?vid=e96aed38-4a0d-4978-b6c9-65d6ecdea43d","ios":"levelo://app?vid=e96aed38-4a0d-4978-b6c9-65d6ecdea43d"},"vehicle_type_id":"4","last_reported":1746486585,"current_range_meters":16800,"station_id":"ce4bgjh2rcd13ifvqbf0","pricing_plan_id":"cebpf4jnsgd1na2vs0mg"},{"bike_id":"a8a1b1f9-4837-4bd3-b489-a1183a034be7","system_id":"levelo_inurba_marseille","lat":43.28673,"lon":5.36337,"is_reserved":false,"is_disabled":false,"rental_uris":{"android":"levelo://app?vid=a8a1b1f9-4837-4bd3-b489-a1183a034be7","ios":"levelo://app?vid=a8a1b1f9-4837-4bd3-b489-a1183a034be7"},"vehicle_type_id":"4","last_reported":1746486585,"current_range_meters":16800,"station_id":"ce4bhah2rcd13ifvqej0","pricing_plan_id":"cebpf4jnsgd1na2vs0mg"},{"bike_id":"d513f5ec-f86d-479a-93e5-097919a76000","system_id":"levelo_inurba_marseille","lat":43.28704,"lon":5.39986,"is_reserved":false,"is_disabled":false,"rental_uris":{"android":"levelo://app?vid=d513f5ec-f86d-479a-93e5-097919a76000","ios":"levelo://app?vid=d513f5ec-f86d-479a-93e5-097919a76000"},"vehicle_type_id":"4","last_reported":1746486585,"current_range_meters":17200,"station_id":"ce4bho92rcd13ifvqh3g","pricing_plan_id":"cebpf4jnsgd1na2vs0mg"},{"bike_id":"9175d517-3c9f-4a9d-9359-bc5552cd94b8","system_id":"levelo_inurba_marseille","lat":43.2862,"lon":5.35081,"is_reserved":false,"is_disabled":false,"rental_uris":{"android":"levelo://app?vid=9175d517-3c9f-4a9d-9359-bc5552cd94b8","ios":"levelo://app?vid=9175d517-3c9f-4a9d-9359-bc5552cd94b8"},"vehicle_type_id":"4","last_reported":1746486585,"current_range_meters":17200,"station_id":"ce4bhch2rcd13ifvqeug","pricing_plan_id":"cebpf4jnsgd1na2vs0mg"},{"bike_id":"63a15020-6909-43f9-8614-e2fa8f24fa11","system_id":"levelo_inurba_marseille","lat":43.31359,"lon":5.385,"is_reserved":false,"is_disabled":false,"rental_uris":{"android":"levelo://app?vid=63a15020-6909-43f9-8614-e2fa8f24fa11","ios":"levelo://app?vid=63a15020-6909-43f9-8614-e2fa8f24fa11"},"vehicle_type_id":"4","last_reported":1746486585,"current_range_meters":17200,"station_id":"ce4bgt92rcd13ifvqcf0","pricing_plan_id":"cebpf4jnsgd1na2vs0mg"},{"bike_id":"89d3f377-5a64-405e-ad75-45e8469ae3f6","system_id":"levelo_inurba_marseille","lat":43.26947,"lon":5.40299,"is_reserved":false,"is_disabled":true,"rental_uris":{"android":"levelo://app?vid=89d3f377-5a64-405e-ad75-45e8469ae3f6","ios":"levelo://app?vid=89d3f377-5a64-405e-ad75-45e8469ae3f6"},"vehicle_type_id":"4","last_reported":1746486585,"current_range_meters":17200,"station_id":"cjm6bp8fraef2m0cb0m0","pricing_plan_id":"cebpf4jnsgd1na2vs0mg"},{"bike_id":"24616366-4787-4f02-a31b-2241651566f8","system_id":"levelo_inurba_marseille","lat":43.28731,"lon":5.360913,"is_reserved":false,"is_disabled":false,"rental_uris":{"android":"levelo://app?vid=24616366-4787-4f02-a31b-2241651566f8","ios":"levelo://app?vid=24616366-4787-4f02-a31b-2241651566f8"},"vehicle_type_id":"4","last_reported":1746486585,"current_range_meters":17600,"station_id":"cki0cbj6b192h4jlfktg","pricing_plan_id":"cebpf4jnsgd1na2vs0mg"},{"bike_id":"62abd1a7-7a0b-4601-b7d9-44b92d8d2d1e","system_id":"levelo_inurba_marseille","lat":43.28094,"lon":5.37819,"is_reserved":false,"is_disabled":false,"rental_uris":{"android":"levelo://app?vid=62abd1a7-7a0b-4601-b7d9-44b92d8d2d1e","ios":"levelo://app?vid=62abd1a7-7a0b-4601-b7d9-44b92d8d2d1e"},"vehicle_type_id":"4","last_reported":1746486585,"current_range_meters":17600,"station_id":"ce4bha12rcd13ifvqee0","pricing_plan_id":"cebpf4jnsgd1na2vs0mg"},{"bike_id":"e0a20f8e-cd02-4cca-899c-a69a974915d9","system_id":"levelo_inurba_marseille","lat":43.30882,"lon":5.39614,"is_reserved":false,"is_disabled":false,"rental_uris":{"android":"levelo://app?vid=e0a20f8e-cd02-4cca-899c-a69a974915d9","ios":"levelo://app?vid=e0a20f8e-cd02-4cca-899c-a69a974915d9"},"vehicle_type_id":"4","last_reported":1746486585,"current_range_meters":17600,"station_id":"ce4bh012rcd13ifvqcv0","pricing_plan_id":"cebpf4jnsgd1na2vs0mg"},{"bike_id":"03bb5049-51e5-461e-8353-3cc13edfbfb8","system_id":"levelo_inurba_marseille","lat":43.239521,"lon":5.366337,"is_reserved":false,"is_disabled":false,"rental_uris":{"android":"levelo://app?vid=03bb5049-51e5-461e-8353-3cc13edfbfb8","ios":"levelo://app?vid=03bb5049-51e5-461e-8353-3cc13edfbfb8"},"vehicle_type_id":"4","last_reported":1746486585,"current_range_meters":17600,"station_id":"ce4bhi12rcd13ifvqfp0","pricing_plan_id":"cebpf4jnsgd1na2vs0mg"},{"bike_id":"6ddb90f6-4587-4feb-9901-3dcd0e047bc2","system_id":"levelo_inurba_marseille","lat":43.289443,"lon":5.366293,"is_reserved":false,"is_disabled":false,"rental_uris":{"android":"levelo://app?vid=6ddb90f6-4587-4feb-9901-3dcd0e047bc2","ios":"levelo://app?vid=6ddb90f6-4587-4feb-9901-3dcd0e047bc2"},"vehicle_type_id":"4","last_reported":1746486585,"current_range_meters":17600,"station_id":"ce4bhap2rcd13ifvqek0","pricing_plan_id":"cebpf4jnsgd1na2vs0mg"},{"bike_id":"d1783a15-debe-404c-a8f0-9f34baa66f87","system_id":"levelo_inurba_marseille","lat":43.29262,"lon":5.3685,"is_reserved":false,"is_disabled":false,"rental_uris":{"android":"levelo://app?vid=d1783a15-debe-404c-a8f0-9f34baa66f87","ios":"levelo://app?vid=d1783a15-debe-404c-a8f0-9f34baa66f87"},"vehicle_type_id":"4","last_reported":1746486585,"current_range_meters":17600,"station_id":"ce4bhbp2rcd13ifvqesg","pricing_plan_id":"cebpf4jnsgd1na2vs0mg"},{"bike_id":"c8e652cd-1868-43cf-983b-6b08eb08d2f1","system_id":"levelo_inurba_marseille","lat":43.28715,"lon":5.39998,"is_reserved":false,"is_disabled":false,"rental_uris":{"android":"levelo://app?vid=c8e652cd-1868-43cf-983b-6b08eb08d2f1","ios":"levelo://app?vid=c8e652cd-1868-43cf-983b-6b08eb08d2f1"},"vehicle_type_id":"4","last_reported":1746486585,"current_range_meters":17600,"station_id":"ce4bho92rcd13ifvqh3g","pricing_plan_id":"cebpf4jnsgd1na2vs0mg"},{"bike_id":"a327ed7c-cb3d-44b1-bb3d-7951cd226f01","system_id":"levelo_inurba_marseille","lat":43.293396,"lon":5.371296,"is_reserved":false,"is_disabled":false,"rental_uris":{"android":"levelo://app?vid=a327ed7c-cb3d-44b1-bb3d-7951cd226f01","ios":"levelo://app?vid=a327ed7c-cb3d-44b1-bb3d-7951cd226f01"},"vehicle_type_id":"4","last_reported":1746486585,"current_range_meters":17600,"station_id":"","pricing_plan_id":"cebpf4jnsgd1na2vs0mg"},{"bike_id":"6ce81efa-e8f3-477a-b7a1-a1c58c727c56","system_id":"levelo_inurba_marseille","lat":43.21214,"lon":5.35057,"is_reserved":false,"is_disabled":false,"rental_uris":{"android":"levelo://app?vid=6ce81efa-e8f3-477a-b7a1-a1c58c727c56","ios":"levelo://app?vid=6ce81efa-e8f3-477a-b7a1-a1c58c727c56"},"vehicle_type_id":"4","last_reported":1746486585,"current_range_meters":17600,"station_id":"","pricing_plan_id":"cebpf4jnsgd1na2vs0mg"},{"bike_id":"446dabfd-4d47-4fd2-91c9-41b3ec5dde76","system_id":"levelo_inurba_marseille","lat":43.287203,"lon":5.360983,"is_reserved":false,"is_disabled":false,"rental_uris":{"android":"levelo://app?vid=446dabfd-4d47-4fd2-91c9-41b3ec5dde76","ios":"levelo://app?vid=446dabfd-4d47-4fd2-91c9-41b3ec5dde76"},"vehicle_type_id":"4","last_reported":1746486585,"current_range_meters":17600,"station_id":"cki0cbj6b192h4jlfktg","pricing_plan_id":"cebpf4jnsgd1na2vs0mg"},{"bike_id":"f8951e71-e6d6-4079-85a7-64eca3dfb50c","system_id":"levelo_inurba_marseille","lat":43.24172,"lon":5.39769,"is_reserved":false,"is_disabled":false,"rental_uris":{"android":"levelo://app?vid=f8951e71-e6d6-4079-85a7-64eca3dfb50c","ios":"levelo://app?vid=f8951e71-e6d6-4079-85a7-64eca3dfb50c"},"vehicle_type_id":"4","last_reported":1746486585,"current_range_meters":17600,"station_id":"ce4bhn12rcd13ifvqgpg","pricing_plan_id":"cebpf4jnsgd1na2vs0mg"},{"bike_id":"1900e395-19ba-404e-aa6a-262b7656599d","system_id":"levelo_inurba_marseille","lat":43.2888,"lon":5.43707,"is_reserved":false,"is_disabled":false,"rental_uris":{"android":"levelo://app?vid=1900e395-19ba-404e-aa6a-262b7656599d","ios":"levelo://app?vid=1900e395-19ba-404e-aa6a-262b7656599d"},"vehicle_type_id":"4","last_reported":1746486585,"current_range_meters":17600,"station_id":"","pricing_plan_id":"cebpf4jnsgd1na2vs0mg"},{"bike_id":"82f4dc22-101f-465e-a26a-59bc1ffb8cd4","system_id":"levelo_inurba_marseille","lat":43.2841,"lon":5.37518,"is_reserved":false,"is_disabled":false,"rental_uris":{"android":"levelo://app?vid=82f4dc22-101f-465e-a26a-59bc1ffb8cd4","ios":"levelo://app?vid=82f4dc22-101f-465e-a26a-59bc1ffb8cd4"},"vehicle_type_id":"4","last_reported":1746486585,"current_range_meters":18000,"station_id":"ce4bh412rcd13ifvqds0","pricing_plan_id":"cebpf4jnsgd1na2vs0mg"},{"bike_id":"deb02d1f-f1f2-401c-aa11-1dfeb5da56eb","system_id":"levelo_inurba_marseille","lat":43.29553,"lon":5.42291,"is_reserved":false,"is_disabled":false,"rental_uris":{"android":"levelo://app?vid=deb02d1f-f1f2-401c-aa11-1dfeb5da56eb","ios":"levelo://app?vid=deb02d1f-f1f2-401c-aa11-1dfeb5da56eb"},"vehicle_type_id":"4","last_reported":1746486585,"current_range_meters":18000,"station_id":"ce4bhph2rcd13ifvqhdg","pricing_plan_id":"cebpf4jnsgd1na2vs0mg"},{"bike_id":"e0a0fb85-9539-4fb6-b21f-392540fb8a26","system_id":"levelo_inurba_marseille","lat":43.323713,"lon":5.367626,"is_reserved":false,"is_disabled":false,"rental_uris":{"android":"levelo://app?vid=e0a0fb85-9539-4fb6-b21f-392540fb8a26","ios":"levelo://app?vid=e0a0fb85-9539-4fb6-b21f-392540fb8a26"},"vehicle_type_id":"4","last_reported":1746486585,"current_range_meters":18000,"station_id":"ce4bhsh2rcd13ifvqi2g","pricing_plan_id":"cebpf4jnsgd1na2vs0mg"},{"bike_id":"e913cf30-eb5e-4abe-8900-12e0ae6d43b8","system_id":"levelo_inurba_marseille","lat":43.286964,"lon":5.373992,"is_reserved":false,"is_disabled":false,"rental_uris":{"android":"levelo://app?vid=e913cf30-eb5e-4abe-8900-12e0ae6d43b8","ios":"levelo://app?vid=e913cf30-eb5e-4abe-8900-12e0ae6d43b8"},"vehicle_type_id":"4","last_reported":1746486585,"current_range_meters":18000,"station_id":"ce4bh3p2rcd13ifvqdq0","pricing_plan_id":"cebpf4jnsgd1na2vs0mg"},{"bike_id":"ceabe490-1f11-4366-85ad-8996dd4944f3","system_id":"levelo_inurba_marseille","lat":43.29296,"lon":5.37153,"is_reserved":false,"is_disabled":true,"rental_uris":{"android":"levelo://app?vid=ceabe490-1f11-4366-85ad-8996dd4944f3","ios":"levelo://app?vid=ceabe490-1f11-4366-85ad-8996dd4944f3"},"vehicle_type_id":"4","last_reported":1746486585,"current_range_meters":18000,"station_id":"ce4bgh92rcd13ifvqb40","pricing_plan_id":"cebpf4jnsgd1na2vs0mg"},{"bike_id":"48a787ef-bb7e-466c-aebb-ff2a53ecaf1d","system_id":"levelo_inurba_marseille","lat":43.2927,"lon":5.36849,"is_reserved":false,"is_disabled":false,"rental_uris":{"android":"levelo://app?vid=48a787ef-bb7e-466c-aebb-ff2a53ecaf1d","ios":"levelo://app?vid=48a787ef-bb7e-466c-aebb-ff2a53ecaf1d"},"vehicle_type_id":"4","last_reported":1746486585,"current_range_meters":18000,"station_id":"ce4bhbp2rcd13ifvqesg","pricing_plan_id":"cebpf4jnsgd1na2vs0mg"},{"bike_id":"46a428a1-3a45-4310-8fc1-8ac5239110b0","system_id":"levelo_inurba_marseille","lat":43.25821,"lon":5.39439,"is_reserved":false,"is_disabled":false,"rental_uris":{"android":"levelo://app?vid=46a428a1-3a45-4310-8fc1-8ac5239110b0","ios":"levelo://app?vid=46a428a1-3a45-4310-8fc1-8ac5239110b0"},"vehicle_type_id":"4","last_reported":1746486585,"current_range_meters":18000,"station_id":"ce4bhip2rcd13ifvqft0","pricing_plan_id":"cebpf4jnsgd1na2vs0mg"},{"bike_id":"13d72c90-097d-44e3-a161-c92142027aeb","system_id":"levelo_inurba_marseille","lat":43.32113,"lon":5.36747,"is_reserved":false,"is_disabled":false,"rental_uris":{"android":"levelo://app?vid=13d72c90-097d-44e3-a161-c92142027aeb","ios":"levelo://app?vid=13d72c90-097d-44e3-a161-c92142027aeb"},"vehicle_type_id":"4","last_reported":1746486585,"current_range_meters":18000,"station_id":"ce4bhrh2rcd13ifvqhug","pricing_plan_id":"cebpf4jnsgd1na2vs0mg"},{"bike_id":"53244cb6-fb82-4872-b855-d7022e098455","system_id":"levelo_inurba_marseille","lat":43.28938,"lon":5.36628,"is_reserved":false,"is_disabled":false,"rental_uris":{"android":"levelo://app?vid=53244cb6-fb82-4872-b855-d7022e098455","ios":"levelo://app?vid=53244cb6-fb82-4872-b855-d7022e098455"},"vehicle_type_id":"4","last_reported":1746486585,"current_range_meters":18800,"station_id":"ce4bhap2rcd13ifvqek0","pricing_plan_id":"cebpf4jnsgd1na2vs0mg"},{"bike_id":"4bdbfa2a-ffc0-4860-819c-6326869a5a0f","system_id":"levelo_inurba_marseille","lat":43.28726,"lon":5.360866,"is_reserved":false,"is_disabled":false,"rental_uris":{"android":"levelo://app?vid=4bdbfa2a-ffc0-4860-819c-6326869a5a0f","ios":"levelo://app?vid=4bdbfa2a-ffc0-4860-819c-6326869a5a0f"},"vehicle_type_id":"4","last_reported":1746486585,"current_range_meters":18800,"station_id":"cki0cbj6b192h4jlfktg","pricing_plan_id":"cebpf4jnsgd1na2vs0mg"},{"bike_id":"e5d31766-6aa5-44d9-9ddb-73dc8245cc4e","system_id":"levelo_inurba_marseille","lat":43.28716,"lon":5.39957,"is_reserved":false,"is_disabled":false,"rental_uris":{"android":"levelo://app?vid=e5d31766-6aa5-44d9-9ddb-73dc8245cc4e","ios":"levelo://app?vid=e5d31766-6aa5-44d9-9ddb-73dc8245cc4e"},"vehicle_type_id":"4","last_reported":1746486585,"current_range_meters":18800,"station_id":"ce4bho92rcd13ifvqh3g","pricing_plan_id":"cebpf4jnsgd1na2vs0mg"},{"bike_id":"bb57f667-396d-4003-ae12-13bf8f696902","system_id":"levelo_inurba_marseille","lat":43.2794,"lon":5.41035,"is_reserved":false,"is_disabled":false,"rental_uris":{"android":"levelo://app?vid=bb57f667-396d-4003-ae12-13bf8f696902","ios":"levelo://app?vid=bb57f667-396d-4003-ae12-13bf8f696902"},"vehicle_type_id":"4","last_reported":1746486585,"current_range_meters":18800,"station_id":"ce4bhnp2rcd13ifvqh0g","pricing_plan_id":"cebpf4jnsgd1na2vs0mg"},{"bike_id":"ad3e95d1-33fd-4c52-8138-33e1a87f9b95","system_id":"levelo_inurba_marseille","lat":43.231959,"lon":5.355564,"is_reserved":false,"is_disabled":false,"rental_uris":{"android":"levelo://app?vid=ad3e95d1-33fd-4c52-8138-33e1a87f9b95","ios":"levelo://app?vid=ad3e95d1-33fd-4c52-8138-33e1a87f9b95"},"vehicle_type_id":"4","last_reported":1746486585,"current_range_meters":18800,"station_id":"ce4bhu92rcd13ifvqi70","pricing_plan_id":"cebpf4jnsgd1na2vs0mg"},{"bike_id":"27563f88-1268-4b98-bc06-44e98c7ca400","system_id":"levelo_inurba_marseille","lat":43.32093,"lon":5.44077,"is_reserved":false,"is_disabled":false,"rental_uris":{"android":"levelo://app?vid=27563f88-1268-4b98-bc06-44e98c7ca400","ios":"levelo://app?vid=27563f88-1268-4b98-bc06-44e98c7ca400"},"vehicle_type_id":"4","last_reported":1746486585,"current_range_meters":18800,"station_id":"","pricing_plan_id":"cebpf4jnsgd1na2vs0mg"},{"bike_id":"144c51af-426b-42d7-b56e-922177862b14","system_id":"levelo_inurba_marseille","lat":43.31085,"lon":5.38341,"is_reserved":false,"is_disabled":false,"rental_uris":{"android":"levelo://app?vid=144c51af-426b-42d7-b56e-922177862b14","ios":"levelo://app?vid=144c51af-426b-42d7-b56e-922177862b14"},"vehicle_type_id":"4","last_reported":1746486585,"current_range_meters":18800,"station_id":"ce4bgv92rcd13ifvqcr0","pricing_plan_id":"cebpf4jnsgd1na2vs0mg"},{"bike_id":"6f4127eb-374b-4f8f-b349-140704b35e50","system_id":"levelo_inurba_marseille","lat":43.31324,"lon":5.39696,"is_reserved":false,"is_disabled":false,"rental_uris":{"android":"levelo://app?vid=6f4127eb-374b-4f8f-b349-140704b35e50","ios":"levelo://app?vid=6f4127eb-374b-4f8f-b349-140704b35e50"},"vehicle_type_id":"4","last_reported":1746486585,"current_range_meters":18000,"station_id":"ce4bgvp2rcd13ifvqcu0","pricing_plan_id":"cebpf4jnsgd1na2vs0mg"},{"bike_id":"4b5668b0-1b21-42df-bf79-2e3850a6fa60","system_id":"levelo_inurba_marseille","lat":43.28343,"lon":5.381,"is_reserved":false,"is_disabled":false,"rental_uris":{"android":"levelo://app?vid=4b5668b0-1b21-42df-bf79-2e3850a6fa60","ios":"levelo://app?vid=4b5668b0-1b21-42df-bf79-2e3850a6fa60"},"vehicle_type_id":"4","last_reported":1746486585,"current_range_meters":18800,"station_id":"ce4bh412rcd13ifvqdr0","pricing_plan_id":"cebpf4jnsgd1na2vs0mg"},{"bike_id":"9bdb1e25-57b3-48da-80e8-bbc154b7785a","system_id":"levelo_inurba_marseille","lat":43.287237,"lon":5.379353,"is_reserved":false,"is_disabled":false,"rental_uris":{"android":"levelo://app?vid=9bdb1e25-57b3-48da-80e8-bbc154b7785a","ios":"levelo://app?vid=9bdb1e25-57b3-48da-80e8-bbc154b7785a"},"vehicle_type_id":"4","last_reported":1746486585,"current_range_meters":18800,"station_id":"ce4bh9p2rcd13ifvqec0","pricing_plan_id":"cebpf4jnsgd1na2vs0mg"},{"bike_id":"2f25eff5-6c19-4e87-a4b7-84914327c4b4","system_id":"levelo_inurba_marseille","lat":43.30803,"lon":5.38188,"is_reserved":false,"is_disabled":false,"rental_uris":{"android":"levelo://app?vid=2f25eff5-6c19-4e87-a4b7-84914327c4b4","ios":"levelo://app?vid=2f25eff5-6c19-4e87-a4b7-84914327c4b4"},"vehicle_type_id":"4","last_reported":1746486585,"current_range_meters":19200,"station_id":"ce4bgt12rcd13ifvqce0","pricing_plan_id":"cebpf4jnsgd1na2vs0mg"},{"bike_id":"d90bd959-557f-4a4e-9434-872862d9a888","system_id":"levelo_inurba_marseille","lat":43.28846,"lon":5.39325,"is_reserved":false,"is_disabled":false,"rental_uris":{"android":"levelo://app?vid=d90bd959-557f-4a4e-9434-872862d9a888","ios":"levelo://app?vid=d90bd959-557f-4a4e-9434-872862d9a888"},"vehicle_type_id":"4","last_reported":1746486585,"current_range_meters":18800,"station_id":"ce4bh2p2rcd13ifvqdi0","pricing_plan_id":"cebpf4jnsgd1na2vs0mg"},{"bike_id":"c871eee8-0da6-4377-a846-0bf7400cb3c3","system_id":"levelo_inurba_marseille","lat":43.27809,"lon":5.4071,"is_reserved":false,"is_disabled":true,"rental_uris":{"android":"levelo://app?vid=c871eee8-0da6-4377-a846-0bf7400cb3c3","ios":"levelo://app?vid=c871eee8-0da6-4377-a846-0bf7400cb3c3"},"vehicle_type_id":"4","last_reported":1746486585,"current_range_meters":19200,"station_id":"ce4bhnh2rcd13ifvqgtg","pricing_plan_id":"cebpf4jnsgd1na2vs0mg"},{"bike_id":"5188d40d-26c6-4eed-930a-0fff493932e7","system_id":"levelo_inurba_marseille","lat":43.29808,"lon":5.40396,"is_reserved":false,"is_disabled":false,"rental_uris":{"android":"levelo://app?vid=5188d40d-26c6-4eed-930a-0fff493932e7","ios":"levelo://app?vid=5188d40d-26c6-4eed-930a-0fff493932e7"},"vehicle_type_id":"4","last_reported":1746486585,"current_range_meters":19200,"station_id":"ce4bh112rcd13ifvqd90","pricing_plan_id":"cebpf4jnsgd1na2vs0mg"},{"bike_id":"25ff4de7-598e-4258-b035-b19e39066987","system_id":"levelo_inurba_marseille","lat":43.24713,"lon":5.38234,"is_reserved":false,"is_disabled":false,"rental_uris":{"android":"levelo://app?vid=25ff4de7-598e-4258-b035-b19e39066987","ios":"levelo://app?vid=25ff4de7-598e-4258-b035-b19e39066987"},"vehicle_type_id":"4","last_reported":1746486585,"current_range_meters":19200,"station_id":"ce4bhih2rcd13ifvqfr0","pricing_plan_id":"cebpf4jnsgd1na2vs0mg"},{"bike_id":"8089a7f7-6677-45a4-9140-6ad780ae044e","system_id":"levelo_inurba_marseille","lat":43.31368,"lon":5.38489,"is_reserved":false,"is_disabled":false,"rental_uris":{"android":"levelo://app?vid=8089a7f7-6677-45a4-9140-6ad780ae044e","ios":"levelo://app?vid=8089a7f7-6677-45a4-9140-6ad780ae044e"},"vehicle_type_id":"4","last_reported":1746486585,"current_range_meters":19600,"station_id":"ce4bgt92rcd13ifvqcf0","pricing_plan_id":"cebpf4jnsgd1na2vs0mg"},{"bike_id":"6754dd71-95b8-439b-aa68-2ee1fd4c8732","system_id":"levelo_inurba_marseille","lat":43.28712,"lon":5.36069,"is_reserved":false,"is_disabled":false,"rental_uris":{"android":"levelo://app?vid=6754dd71-95b8-439b-aa68-2ee1fd4c8732","ios":"levelo://app?vid=6754dd71-95b8-439b-aa68-2ee1fd4c8732"},"vehicle_type_id":"4","last_reported":1746486585,"current_range_meters":19600,"station_id":"cki0cbj6b192h4jlfktg","pricing_plan_id":"cebpf4jnsgd1na2vs0mg"},{"bike_id":"d0e17230-ce14-4bbf-8173-34c1444b9704","system_id":"levelo_inurba_marseille","lat":43.30116,"lon":5.39869,"is_reserved":false,"is_disabled":true,"rental_uris":{"android":"levelo://app?vid=d0e17230-ce14-4bbf-8173-34c1444b9704","ios":"levelo://app?vid=d0e17230-ce14-4bbf-8173-34c1444b9704"},"vehicle_type_id":"4","last_reported":1746486585,"current_range_meters":19600,"station_id":"ce4bh0h2rcd13ifvqd40","pricing_plan_id":"cebpf4jnsgd1na2vs0mg"},{"bike_id":"c68c6456-dba5-40f7-8477-0cd5b17abb93","system_id":"levelo_inurba_marseille","lat":43.28696,"lon":5.37387,"is_reserved":false,"is_disabled":false,"rental_uris":{"android":"levelo://app?vid=c68c6456-dba5-40f7-8477-0cd5b17abb93","ios":"levelo://app?vid=c68c6456-dba5-40f7-8477-0cd5b17abb93"},"vehicle_type_id":"4","last_reported":1746486585,"current_range_meters":19600,"station_id":"ce4bh3p2rcd13ifvqdq0","pricing_plan_id":"cebpf4jnsgd1na2vs0mg"},{"bike_id":"2714f713-c769-4f6a-ac44-441a635e9cba","system_id":"levelo_inurba_marseille","lat":43.21594,"lon":5.34218,"is_reserved":false,"is_disabled":false,"rental_uris":{"android":"levelo://app?vid=2714f713-c769-4f6a-ac44-441a635e9cba","ios":"levelo://app?vid=2714f713-c769-4f6a-ac44-441a635e9cba"},"vehicle_type_id":"4","last_reported":1746486585,"current_range_meters":19600,"station_id":"","pricing_plan_id":"cebpf4jnsgd1na2vs0mg"},{"bike_id":"6c9b06e6-87f2-45da-a21d-5bea3df86d09","system_id":"levelo_inurba_marseille","lat":43.26941,"lon":5.40251,"is_reserved":false,"is_disabled":false,"rental_uris":{"android":"levelo://app?vid=6c9b06e6-87f2-45da-a21d-5bea3df86d09","ios":"levelo://app?vid=6c9b06e6-87f2-45da-a21d-5bea3df86d09"},"vehicle_type_id":"4","last_reported":1746486585,"current_range_meters":19600,"station_id":"cjm6bp8fraef2m0cb0m0","pricing_plan_id":"cebpf4jnsgd1na2vs0mg"},{"bike_id":"0a0d9773-2c8e-4202-915e-befc3928ea8c","system_id":"levelo_inurba_marseille","lat":43.28845,"lon":5.39327,"is_reserved":false,"is_disabled":true,"rental_uris":{"android":"levelo://app?vid=0a0d9773-2c8e-4202-915e-befc3928ea8c","ios":"levelo://app?vid=0a0d9773-2c8e-4202-915e-befc3928ea8c"},"vehicle_type_id":"4","last_reported":1746486585,"current_range_meters":20000,"station_id":"ce4bh2p2rcd13ifvqdi0","pricing_plan_id":"cebpf4jnsgd1na2vs0mg"},{"bike_id":"b4bac287-3615-423a-bca2-a11fb80cb066","system_id":"levelo_inurba_marseille","lat":43.230524,"lon":5.354999,"is_reserved":false,"is_disabled":false,"rental_uris":{"android":"levelo://app?vid=b4bac287-3615-423a-bca2-a11fb80cb066","ios":"levelo://app?vid=b4bac287-3615-423a-bca2-a11fb80cb066"},"vehicle_type_id":"4","last_reported":1746486585,"current_range_meters":20000,"station_id":"cpo3342slgdg3j2ifvpg","pricing_plan_id":"cebpf4jnsgd1na2vs0mg"},{"bike_id":"4fd6bfff-2fba-4479-9355-04d32eaca128","system_id":"levelo_inurba_marseille","lat":43.23192,"lon":5.35549,"is_reserved":false,"is_disabled":false,"rental_uris":{"android":"levelo://app?vid=4fd6bfff-2fba-4479-9355-04d32eaca128","ios":"levelo://app?vid=4fd6bfff-2fba-4479-9355-04d32eaca128"},"vehicle_type_id":"4","last_reported":1746486585,"current_range_meters":20000,"station_id":"ce4bhu92rcd13ifvqi70","pricing_plan_id":"cebpf4jnsgd1na2vs0mg"},{"bike_id":"f23d3295-21f5-49d0-a5ec-3ef3003e866d","system_id":"levelo_inurba_marseille","lat":43.22923,"lon":5.35385,"is_reserved":false,"is_disabled":false,"rental_uris":{"android":"levelo://app?vid=f23d3295-21f5-49d0-a5ec-3ef3003e866d","ios":"levelo://app?vid=f23d3295-21f5-49d0-a5ec-3ef3003e866d"},"vehicle_type_id":"4","last_reported":1746486585,"current_range_meters":20000,"station_id":"cpo3532slgdg3j2ikp40","pricing_plan_id":"cebpf4jnsgd1na2vs0mg"},{"bike_id":"5a5b350c-dd96-4859-866b-1a6e41e7a8eb","system_id":"levelo_inurba_marseille","lat":43.29259,"lon":5.40908,"is_reserved":false,"is_disabled":false,"rental_uris":{"android":"levelo://app?vid=5a5b350c-dd96-4859-866b-1a6e41e7a8eb","ios":"levelo://app?vid=5a5b350c-dd96-4859-866b-1a6e41e7a8eb"},"vehicle_type_id":"4","last_reported":1746486585,"current_range_meters":20400,"station_id":"ce4bh192rcd13ifvqdc0","pricing_plan_id":"cebpf4jnsgd1na2vs0mg"},{"bike_id":"37cb95bf-ed56-4ab4-a156-dbc654da35df","system_id":"levelo_inurba_marseille","lat":43.259254,"lon":5.408926,"is_reserved":false,"is_disabled":true,"rental_uris":{"android":"levelo://app?vid=37cb95bf-ed56-4ab4-a156-dbc654da35df","ios":"levelo://app?vid=37cb95bf-ed56-4ab4-a156-dbc654da35df"},"vehicle_type_id":"4","last_reported":1746486585,"current_range_meters":20400,"station_id":"ce4bhm92rcd13ifvqglg","pricing_plan_id":"cebpf4jnsgd1na2vs0mg"},{"bike_id":"ac700e2e-c129-4f82-a3c3-f628077933a6","system_id":"levelo_inurba_marseille","lat":43.21207,"lon":5.35083,"is_reserved":false,"is_disabled":false,"rental_uris":{"android":"levelo://app?vid=ac700e2e-c129-4f82-a3c3-f628077933a6","ios":"levelo://app?vid=ac700e2e-c129-4f82-a3c3-f628077933a6"},"vehicle_type_id":"4","last_reported":1746486585,"current_range_meters":20400,"station_id":"st_cvj6sg6p6f1abm77japg","pricing_plan_id":"cebpf4jnsgd1na2vs0mg"},{"bike_id":"fc1a1e9e-6b18-4c53-8817-e89117acabe5","system_id":"levelo_inurba_marseille","lat":43.27175,"lon":5.40994,"is_reserved":false,"is_disabled":false,"rental_uris":{"android":"levelo://app?vid=fc1a1e9e-6b18-4c53-8817-e89117acabe5","ios":"levelo://app?vid=fc1a1e9e-6b18-4c53-8817-e89117acabe5"},"vehicle_type_id":"4","last_reported":1746486585,"current_range_meters":20000,"station_id":"ce4bhl12rcd13ifvqgf0","pricing_plan_id":"cebpf4jnsgd1na2vs0mg"},{"bike_id":"b4216838-733b-46cd-aae7-8693e0287a61","system_id":"levelo_inurba_marseille","lat":43.22929,"lon":5.35377,"is_reserved":false,"is_disabled":false,"rental_uris":{"android":"levelo://app?vid=b4216838-733b-46cd-aae7-8693e0287a61","ios":"levelo://app?vid=b4216838-733b-46cd-aae7-8693e0287a61"},"vehicle_type_id":"4","last_reported":1746486585,"current_range_meters":20800,"station_id":"cpo3532slgdg3j2ikp40","pricing_plan_id":"cebpf4jnsgd1na2vs0mg"},{"bike_id":"c3c639af-4be8-457b-a417-7f6404bf5df0","system_id":"levelo_inurba_marseille","lat":43.25865,"lon":5.39895,"is_reserved":false,"is_disabled":false,"rental_uris":{"android":"levelo://app?vid=c3c639af-4be8-457b-a417-7f6404bf5df0","ios":"levelo://app?vid=c3c639af-4be8-457b-a417-7f6404bf5df0"},"vehicle_type_id":"4","last_reported":1746486585,"current_range_meters":20400,"station_id":"ce4bhl92rcd13ifvqghg","pricing_plan_id":"cebpf4jnsgd1na2vs0mg"},{"bike_id":"c65850d4-e20b-47ef-9a62-21e7d886f9dd","system_id":"levelo_inurba_marseille","lat":43.2467,"lon":5.38155,"is_reserved":false,"is_disabled":false,"rental_uris":{"android":"levelo://app?vid=c65850d4-e20b-47ef-9a62-21e7d886f9dd","ios":"levelo://app?vid=c65850d4-e20b-47ef-9a62-21e7d886f9dd"},"vehicle_type_id":"4","last_reported":1746486585,"current_range_meters":21600,"station_id":"ce4bhih2rcd13ifvqfr0","pricing_plan_id":"cebpf4jnsgd1na2vs0mg"},{"bike_id":"a3dc441c-3dd7-42dc-913a-7db783432e14","system_id":"levelo_inurba_marseille","lat":43.28605,"lon":5.37058,"is_reserved":false,"is_disabled":false,"rental_uris":{"android":"levelo://app?vid=a3dc441c-3dd7-42dc-913a-7db783432e14","ios":"levelo://app?vid=a3dc441c-3dd7-42dc-913a-7db783432e14"},"vehicle_type_id":"4","last_reported":1746486585,"current_range_meters":21600,"station_id":"ce4bht12rcd13ifvqi60","pricing_plan_id":"cebpf4jnsgd1na2vs0mg"},{"bike_id":"8e922058-240f-4ed2-b9c3-806a6a489506","system_id":"levelo_inurba_marseille","lat":43.29855,"lon":5.38897,"is_reserved":false,"is_disabled":false,"rental_uris":{"android":"levelo://app?vid=8e922058-240f-4ed2-b9c3-806a6a489506","ios":"levelo://app?vid=8e922058-240f-4ed2-b9c3-806a6a489506"},"vehicle_type_id":"4","last_reported":1746486585,"current_range_meters":21600,"station_id":"ce4bh392rcd13ifvqdl0","pricing_plan_id":"cebpf4jnsgd1na2vs0mg"},{"bike_id":"8fa70930-3d89-410a-8a0d-ae58e85113d9","system_id":"levelo_inurba_marseille","lat":43.33758,"lon":5.37469,"is_reserved":false,"is_disabled":false,"rental_uris":{"android":"levelo://app?vid=8fa70930-3d89-410a-8a0d-ae58e85113d9","ios":"levelo://app?vid=8fa70930-3d89-410a-8a0d-ae58e85113d9"},"vehicle_type_id":"4","last_reported":1746486585,"current_range_meters":22000,"station_id":"","pricing_plan_id":"cebpf4jnsgd1na2vs0mg"},{"bike_id":"ea4762e8-256b-4c73-a917-b8c3e12612ed","system_id":"levelo_inurba_marseille","lat":43.26117,"lon":5.41482,"is_reserved":false,"is_disabled":false,"rental_uris":{"android":"levelo://app?vid=ea4762e8-256b-4c73-a917-b8c3e12612ed","ios":"levelo://app?vid=ea4762e8-256b-4c73-a917-b8c3e12612ed"},"vehicle_type_id":"4","last_reported":1746486585,"current_range_meters":22000,"station_id":"","pricing_plan_id":"cebpf4jnsgd1na2vs0mg"},{"bike_id":"2c41ce9b-2318-4ef8-a4c8-cb5551a16620","system_id":"levelo_inurba_marseille","lat":43.32364,"lon":5.38882,"is_reserved":false,"is_disabled":false,"rental_uris":{"android":"levelo://app?vid=2c41ce9b-2318-4ef8-a4c8-cb5551a16620","ios":"levelo://app?vid=2c41ce9b-2318-4ef8-a4c8-cb5551a16620"},"vehicle_type_id":"4","last_reported":1746486585,"current_range_meters":22000,"station_id":"ce4bhqp2rcd13ifvqhog","pricing_plan_id":"cebpf4jnsgd1na2vs0mg"},{"bike_id":"438628cd-4f8c-4662-860a-ea0022681b58","system_id":"levelo_inurba_marseille","lat":43.30306,"lon":5.36891,"is_reserved":false,"is_disabled":false,"rental_uris":{"android":"levelo://app?vid=438628cd-4f8c-4662-860a-ea0022681b58","ios":"levelo://app?vid=438628cd-4f8c-4662-860a-ea0022681b58"},"vehicle_type_id":"4","last_reported":1746486585,"current_range_meters":22400,"station_id":"ce4bgqh2rcd13ifvqc5g","pricing_plan_id":"cebpf4jnsgd1na2vs0mg"},{"bike_id":"a3d2e97d-6f54-441d-8409-9a610d1a0c5b","system_id":"levelo_inurba_marseille","lat":43.29857,"lon":5.36285,"is_reserved":false,"is_disabled":false,"rental_uris":{"android":"levelo://app?vid=a3d2e97d-6f54-441d-8409-9a610d1a0c5b","ios":"levelo://app?vid=a3d2e97d-6f54-441d-8409-9a610d1a0c5b"},"vehicle_type_id":"4","last_reported":1746486585,"current_range_meters":22400,"station_id":"ce4bgpp2rcd13ifvqc3g","pricing_plan_id":"cebpf4jnsgd1na2vs0mg"},{"bike_id":"9898ff4b-e01f-4144-93c1-f63d10376eb9","system_id":"levelo_inurba_marseille","lat":43.279997,"lon":5.400061,"is_reserved":false,"is_disabled":false,"rental_uris":{"android":"levelo://app?vid=9898ff4b-e01f-4144-93c1-f63d10376eb9","ios":"levelo://app?vid=9898ff4b-e01f-4144-93c1-f63d10376eb9"},"vehicle_type_id":"4","last_reported":1746486585,"current_range_meters":22400,"station_id":"ce4bho92rcd13ifvqh4g","pricing_plan_id":"cebpf4jnsgd1na2vs0mg"},{"bike_id":"f7b504c4-422a-4703-a869-c236eae5080f","system_id":"levelo_inurba_marseille","lat":43.28152,"lon":5.4264,"is_reserved":false,"is_disabled":false,"rental_uris":{"android":"levelo://app?vid=f7b504c4-422a-4703-a869-c236eae5080f","ios":"levelo://app?vid=f7b504c4-422a-4703-a869-c236eae5080f"},"vehicle_type_id":"4","last_reported":1746486585,"current_range_meters":22400,"station_id":"","pricing_plan_id":"cebpf4jnsgd1na2vs0mg"},{"bike_id":"4fa44a4d-c738-41bc-9022-213fbeae4065","system_id":"levelo_inurba_marseille","lat":43.2318,"lon":5.39985,"is_reserved":false,"is_disabled":false,"rental_uris":{"android":"levelo://app?vid=4fa44a4d-c738-41bc-9022-213fbeae4065","ios":"levelo://app?vid=4fa44a4d-c738-41bc-9022-213fbeae4065"},"vehicle_type_id":"4","last_reported":1746486585,"current_range_meters":22400,"station_id":"ce4bhn12rcd13ifvqgqg","pricing_plan_id":"cebpf4jnsgd1na2vs0mg"},{"bike_id":"2fa0b816-7ec6-4882-9376-089f3a9e406c","system_id":"levelo_inurba_marseille","lat":43.337598,"lon":5.374852,"is_reserved":false,"is_disabled":false,"rental_uris":{"android":"levelo://app?vid=2fa0b816-7ec6-4882-9376-089f3a9e406c","ios":"levelo://app?vid=2fa0b816-7ec6-4882-9376-089f3a9e406c"},"vehicle_type_id":"4","last_reported":1746486585,"current_range_meters":22400,"station_id":"","pricing_plan_id":"cebpf4jnsgd1na2vs0mg"},{"bike_id":"3b1a86b6-0608-4c2a-8a0c-81b34e73a5c5","system_id":"levelo_inurba_marseille","lat":43.30303,"lon":5.36883,"is_reserved":false,"is_disabled":false,"rental_uris":{"android":"levelo://app?vid=3b1a86b6-0608-4c2a-8a0c-81b34e73a5c5","ios":"levelo://app?vid=3b1a86b6-0608-4c2a-8a0c-81b34e73a5c5"},"vehicle_type_id":"4","last_reported":1746486585,"current_range_meters":22400,"station_id":"ce4bgqh2rcd13ifvqc5g","pricing_plan_id":"cebpf4jnsgd1na2vs0mg"},{"bike_id":"197b6bfa-4958-45f1-827f-50f81cbef7b8","system_id":"levelo_inurba_marseille","lat":43.24678,"lon":5.381512,"is_reserved":false,"is_disabled":false,"rental_uris":{"android":"levelo://app?vid=197b6bfa-4958-45f1-827f-50f81cbef7b8","ios":"levelo://app?vid=197b6bfa-4958-45f1-827f-50f81cbef7b8"},"vehicle_type_id":"4","last_reported":1746486585,"current_range_meters":22800,"station_id":"ce4bhih2rcd13ifvqfr0","pricing_plan_id":"cebpf4jnsgd1na2vs0mg"},{"bike_id":"7ea9b8bc-827d-4aed-92c9-7aeee53fcbcd","system_id":"levelo_inurba_marseille","lat":43.262258,"lon":5.40448,"is_reserved":false,"is_disabled":false,"rental_uris":{"android":"levelo://app?vid=7ea9b8bc-827d-4aed-92c9-7aeee53fcbcd","ios":"levelo://app?vid=7ea9b8bc-827d-4aed-92c9-7aeee53fcbcd"},"vehicle_type_id":"4","last_reported":1746486585,"current_range_meters":22800,"station_id":"ce4bhmh2rcd13ifvqgmg","pricing_plan_id":"cebpf4jnsgd1na2vs0mg"},{"bike_id":"fb1c0e5c-3aff-4a48-bb4e-0e94904bafc4","system_id":"levelo_inurba_marseille","lat":43.298526,"lon":5.362833,"is_reserved":false,"is_disabled":true,"rental_uris":{"android":"levelo://app?vid=fb1c0e5c-3aff-4a48-bb4e-0e94904bafc4","ios":"levelo://app?vid=fb1c0e5c-3aff-4a48-bb4e-0e94904bafc4"},"vehicle_type_id":"4","last_reported":1746486585,"current_range_meters":22800,"station_id":"ce4bgpp2rcd13ifvqc3g","pricing_plan_id":"cebpf4jnsgd1na2vs0mg"},{"bike_id":"08729567-1803-4a3a-b335-fdd95b127ecd","system_id":"levelo_inurba_marseille","lat":43.31174,"lon":5.38715,"is_reserved":false,"is_disabled":false,"rental_uris":{"android":"levelo://app?vid=08729567-1803-4a3a-b335-fdd95b127ecd","ios":"levelo://app?vid=08729567-1803-4a3a-b335-fdd95b127ecd"},"vehicle_type_id":"4","last_reported":1746486585,"current_range_meters":22800,"station_id":"ce4bgv12rcd13ifvqcp0","pricing_plan_id":"cebpf4jnsgd1na2vs0mg"},{"bike_id":"d912aaf0-9efd-4ef0-b1ab-763b2afabfe0","system_id":"levelo_inurba_marseille","lat":43.29078,"lon":5.37161,"is_reserved":false,"is_disabled":false,"rental_uris":{"android":"levelo://app?vid=d912aaf0-9efd-4ef0-b1ab-763b2afabfe0","ios":"levelo://app?vid=d912aaf0-9efd-4ef0-b1ab-763b2afabfe0"},"vehicle_type_id":"4","last_reported":1746486585,"current_range_meters":22800,"station_id":"ce4bh5p2rcd13ifvqe4g","pricing_plan_id":"cebpf4jnsgd1na2vs0mg"},{"bike_id":"4fd0a572-09cc-480d-b88e-e1d7dc554ab9","system_id":"levelo_inurba_marseille","lat":43.23967,"lon":5.36631,"is_reserved":false,"is_disabled":false,"rental_uris":{"android":"levelo://app?vid=4fd0a572-09cc-480d-b88e-e1d7dc554ab9","ios":"levelo://app?vid=4fd0a572-09cc-480d-b88e-e1d7dc554ab9"},"vehicle_type_id":"4","last_reported":1746486585,"current_range_meters":22800,"station_id":"ce4bhi12rcd13ifvqfp0","pricing_plan_id":"cebpf4jnsgd1na2vs0mg"},{"bike_id":"afac6972-47be-44a9-9b16-e544ef1aba9d","system_id":"levelo_inurba_marseille","lat":43.23189,"lon":5.39982,"is_reserved":false,"is_disabled":false,"rental_uris":{"android":"levelo://app?vid=afac6972-47be-44a9-9b16-e544ef1aba9d","ios":"levelo://app?vid=afac6972-47be-44a9-9b16-e544ef1aba9d"},"vehicle_type_id":"4","last_reported":1746486585,"current_range_meters":22800,"station_id":"ce4bhn12rcd13ifvqgqg","pricing_plan_id":"cebpf4jnsgd1na2vs0mg"},{"bike_id":"a0fcebb9-adb3-4214-a4cd-919fcb7c5c33","system_id":"levelo_inurba_marseille","lat":43.28617,"lon":5.35097,"is_reserved":false,"is_disabled":false,"rental_uris":{"android":"levelo://app?vid=a0fcebb9-adb3-4214-a4cd-919fcb7c5c33","ios":"levelo://app?vid=a0fcebb9-adb3-4214-a4cd-919fcb7c5c33"},"vehicle_type_id":"4","last_reported":1746486585,"current_range_meters":22800,"station_id":"ce4bhch2rcd13ifvqeug","pricing_plan_id":"cebpf4jnsgd1na2vs0mg"},{"bike_id":"1b5c9130-7e5c-4d9e-b45d-e358c3f71ba5","system_id":"levelo_inurba_marseille","lat":43.288539,"lon":5.358463,"is_reserved":false,"is_disabled":false,"rental_uris":{"android":"levelo://app?vid=1b5c9130-7e5c-4d9e-b45d-e358c3f71ba5","ios":"levelo://app?vid=1b5c9130-7e5c-4d9e-b45d-e358c3f71ba5"},"vehicle_type_id":"4","last_reported":1746486585,"current_range_meters":22800,"station_id":"ce4bhb12rcd13ifvqem0","pricing_plan_id":"cebpf4jnsgd1na2vs0mg"},{"bike_id":"4cb897d4-7593-4a4f-9952-02dc8b791be9","system_id":"levelo_inurba_marseille","lat":43.290945,"lon":5.38152,"is_reserved":false,"is_disabled":true,"rental_uris":{"android":"levelo://app?vid=4cb897d4-7593-4a4f-9952-02dc8b791be9","ios":"levelo://app?vid=4cb897d4-7593-4a4f-9952-02dc8b791be9"},"vehicle_type_id":"4","last_reported":1746486585,"current_range_meters":23200,"station_id":"ce4bh512rcd13ifvqe2g","pricing_plan_id":"cebpf4jnsgd1na2vs0mg"},{"bike_id":"d5ef6ad8-1242-44b6-9125-49309ae65236","system_id":"levelo_inurba_marseille","lat":43.30928,"lon":5.40139,"is_reserved":false,"is_disabled":false,"rental_uris":{"android":"levelo://app?vid=d5ef6ad8-1242-44b6-9125-49309ae65236","ios":"levelo://app?vid=d5ef6ad8-1242-44b6-9125-49309ae65236"},"vehicle_type_id":"4","last_reported":1746486585,"current_range_meters":23200,"station_id":"ce4bgvp2rcd13ifvqct0","pricing_plan_id":"cebpf4jnsgd1na2vs0mg"},{"bike_id":"23b77e56-02cd-4338-917c-a93e4464a727","system_id":"levelo_inurba_marseille","lat":43.28694,"lon":5.38692,"is_reserved":false,"is_disabled":true,"rental_uris":{"android":"levelo://app?vid=23b77e56-02cd-4338-917c-a93e4464a727","ios":"levelo://app?vid=23b77e56-02cd-4338-917c-a93e4464a727"},"vehicle_type_id":"4","last_reported":1746486585,"current_range_meters":23200,"station_id":"ce4bh492rcd13ifvqdug","pricing_plan_id":"cebpf4jnsgd1na2vs0mg"},{"bike_id":"a5d08c19-89ab-4a14-9c94-d1a9b38474c3","system_id":"levelo_inurba_marseille","lat":43.29032,"lon":5.39962,"is_reserved":false,"is_disabled":false,"rental_uris":{"android":"levelo://app?vid=a5d08c19-89ab-4a14-9c94-d1a9b38474c3","ios":"levelo://app?vid=a5d08c19-89ab-4a14-9c94-d1a9b38474c3"},"vehicle_type_id":"4","last_reported":1746486585,"current_range_meters":22800,"station_id":"ce4bh392rcd13ifvqdm0","pricing_plan_id":"cebpf4jnsgd1na2vs0mg"},{"bike_id":"72c51981-9a26-4763-8f01-8b65c8314524","system_id":"levelo_inurba_marseille","lat":43.29628,"lon":5.40604,"is_reserved":false,"is_disabled":false,"rental_uris":{"android":"levelo://app?vid=72c51981-9a26-4763-8f01-8b65c8314524","ios":"levelo://app?vid=72c51981-9a26-4763-8f01-8b65c8314524"},"vehicle_type_id":"4","last_reported":1746486585,"current_range_meters":23200,"station_id":"ce4bh0h2rcd13ifvqd60","pricing_plan_id":"cebpf4jnsgd1na2vs0mg"},{"bike_id":"cea70e1d-1987-460b-8f27-968c4814a0c8","system_id":"levelo_inurba_marseille","lat":43.29294,"lon":5.40106,"is_reserved":false,"is_disabled":false,"rental_uris":{"android":"levelo://app?vid=cea70e1d-1987-460b-8f27-968c4814a0c8","ios":"levelo://app?vid=cea70e1d-1987-460b-8f27-968c4814a0c8"},"vehicle_type_id":"4","last_reported":1746486585,"current_range_meters":23200,"station_id":"ce4bh312rcd13ifvqdk0","pricing_plan_id":"cebpf4jnsgd1na2vs0mg"},{"bike_id":"249a255a-a762-4d7c-91d1-e38b413ba4f5","system_id":"levelo_inurba_marseille","lat":43.28459,"lon":5.35885,"is_reserved":false,"is_disabled":false,"rental_uris":{"android":"levelo://app?vid=249a255a-a762-4d7c-91d1-e38b413ba4f5","ios":"levelo://app?vid=249a255a-a762-4d7c-91d1-e38b413ba4f5"},"vehicle_type_id":"4","last_reported":1746486585,"current_range_meters":23200,"station_id":"ce4bhah2rcd13ifvqei0","pricing_plan_id":"cebpf4jnsgd1na2vs0mg"},{"bike_id":"722c1cb3-31f6-49fd-8369-b5e0a7a256b2","system_id":"levelo_inurba_marseille","lat":43.28094,"lon":5.37847,"is_reserved":false,"is_disabled":false,"rental_uris":{"android":"levelo://app?vid=722c1cb3-31f6-49fd-8369-b5e0a7a256b2","ios":"levelo://app?vid=722c1cb3-31f6-49fd-8369-b5e0a7a256b2"},"vehicle_type_id":"4","last_reported":1746486585,"current_range_meters":23200,"station_id":"ce4bha12rcd13ifvqee0","pricing_plan_id":"cebpf4jnsgd1na2vs0mg"},{"bike_id":"620356b3-df98-4c51-b6b9-abb03536f4b2","system_id":"levelo_inurba_marseille","lat":43.280013,"lon":5.40008,"is_reserved":false,"is_disabled":false,"rental_uris":{"android":"levelo://app?vid=620356b3-df98-4c51-b6b9-abb03536f4b2","ios":"levelo://app?vid=620356b3-df98-4c51-b6b9-abb03536f4b2"},"vehicle_type_id":"4","last_reported":1746486585,"current_range_meters":23200,"station_id":"ce4bho92rcd13ifvqh4g","pricing_plan_id":"cebpf4jnsgd1na2vs0mg"},{"bike_id":"8a4b30e0-b491-4f8b-b56b-65294a62c555","system_id":"levelo_inurba_marseille","lat":43.2546,"lon":5.41864,"is_reserved":false,"is_disabled":false,"rental_uris":{"android":"levelo://app?vid=8a4b30e0-b491-4f8b-b56b-65294a62c555","ios":"levelo://app?vid=8a4b30e0-b491-4f8b-b56b-65294a62c555"},"vehicle_type_id":"4","last_reported":1746486585,"current_range_meters":23200,"station_id":"","pricing_plan_id":"cebpf4jnsgd1na2vs0mg"},{"bike_id":"2e656d16-02e6-4eba-9b70-3abb7c377d6f","system_id":"levelo_inurba_marseille","lat":43.28464,"lon":5.35883,"is_reserved":false,"is_disabled":false,"rental_uris":{"android":"levelo://app?vid=2e656d16-02e6-4eba-9b70-3abb7c377d6f","ios":"levelo://app?vid=2e656d16-02e6-4eba-9b70-3abb7c377d6f"},"vehicle_type_id":"4","last_reported":1746486585,"current_range_meters":24000,"station_id":"ce4bhah2rcd13ifvqei0","pricing_plan_id":"cebpf4jnsgd1na2vs0mg"},{"bike_id":"82c351f2-0a87-4ed5-8186-0739698298e9","system_id":"levelo_inurba_marseille","lat":43.272,"lon":5.364845,"is_reserved":false,"is_disabled":false,"rental_uris":{"android":"levelo://app?vid=82c351f2-0a87-4ed5-8186-0739698298e9","ios":"levelo://app?vid=82c351f2-0a87-4ed5-8186-0739698298e9"},"vehicle_type_id":"4","last_reported":1746486585,"current_range_meters":24000,"station_id":"","pricing_plan_id":"cebpf4jnsgd1na2vs0mg"},{"bike_id":"1933fafe-49a1-43e7-8ab7-588a3f081fb2","system_id":"levelo_inurba_marseille","lat":43.27911,"lon":5.39583,"is_reserved":false,"is_disabled":false,"rental_uris":{"android":"levelo://app?vid=1933fafe-49a1-43e7-8ab7-588a3f081fb2","ios":"levelo://app?vid=1933fafe-49a1-43e7-8ab7-588a3f081fb2"},"vehicle_type_id":"4","last_reported":1746486585,"current_range_meters":24000,"station_id":"ce4bhf92rcd13ifvqf40","pricing_plan_id":"cebpf4jnsgd1na2vs0mg"},{"bike_id":"f5774a0b-ba08-4a39-beee-b3ec8dcb2483","system_id":"levelo_inurba_marseille","lat":43.23966,"lon":5.36629,"is_reserved":false,"is_disabled":false,"rental_uris":{"android":"levelo://app?vid=f5774a0b-ba08-4a39-beee-b3ec8dcb2483","ios":"levelo://app?vid=f5774a0b-ba08-4a39-beee-b3ec8dcb2483"},"vehicle_type_id":"4","last_reported":1746486585,"current_range_meters":24000,"station_id":"ce4bhi12rcd13ifvqfp0","pricing_plan_id":"cebpf4jnsgd1na2vs0mg"},{"bike_id":"881ffd31-6516-4250-b69a-6fcacc9a3445","system_id":"levelo_inurba_marseille","lat":43.31489,"lon":5.37308,"is_reserved":false,"is_disabled":false,"rental_uris":{"android":"levelo://app?vid=881ffd31-6516-4250-b69a-6fcacc9a3445","ios":"levelo://app?vid=881ffd31-6516-4250-b69a-6fcacc9a3445"},"vehicle_type_id":"4","last_reported":1746486585,"current_range_meters":24000,"station_id":"ce4bgt12rcd13ifvqcd0","pricing_plan_id":"cebpf4jnsgd1na2vs0mg"},{"bike_id":"1d4ad047-6a0f-405c-ba0b-262195f4889b","system_id":"levelo_inurba_marseille","lat":43.30447,"lon":5.39744,"is_reserved":false,"is_disabled":false,"rental_uris":{"android":"levelo://app?vid=1d4ad047-6a0f-405c-ba0b-262195f4889b","ios":"levelo://app?vid=1d4ad047-6a0f-405c-ba0b-262195f4889b"},"vehicle_type_id":"4","last_reported":1746486585,"current_range_meters":24400,"station_id":"ce4bh092rcd13ifvqd20","pricing_plan_id":"cebpf4jnsgd1na2vs0mg"},{"bike_id":"0b3d0fc5-86da-4eb8-9b5c-e46cb3efb992","system_id":"levelo_inurba_marseille","lat":43.25394,"lon":5.41851,"is_reserved":false,"is_disabled":false,"rental_uris":{"android":"levelo://app?vid=0b3d0fc5-86da-4eb8-9b5c-e46cb3efb992","ios":"levelo://app?vid=0b3d0fc5-86da-4eb8-9b5c-e46cb3efb992"},"vehicle_type_id":"4","last_reported":1746486585,"current_range_meters":24400,"station_id":"","pricing_plan_id":"cebpf4jnsgd1na2vs0mg"},{"bike_id":"85fe12a7-92f0-41fa-ae12-56154e1eae9f","system_id":"levelo_inurba_marseille","lat":43.28155,"lon":5.4264,"is_reserved":false,"is_disabled":false,"rental_uris":{"android":"levelo://app?vid=85fe12a7-92f0-41fa-ae12-56154e1eae9f","ios":"levelo://app?vid=85fe12a7-92f0-41fa-ae12-56154e1eae9f"},"vehicle_type_id":"4","last_reported":1746486585,"current_range_meters":24400,"station_id":"ce4bhnh2rcd13ifvqgug","pricing_plan_id":"cebpf4jnsgd1na2vs0mg"},{"bike_id":"a499126d-8bc5-46d1-aede-7b24c6e9618d","system_id":"levelo_inurba_marseille","lat":43.28936,"lon":5.36631,"is_reserved":false,"is_disabled":false,"rental_uris":{"android":"levelo://app?vid=a499126d-8bc5-46d1-aede-7b24c6e9618d","ios":"levelo://app?vid=a499126d-8bc5-46d1-aede-7b24c6e9618d"},"vehicle_type_id":"4","last_reported":1746486585,"current_range_meters":24800,"station_id":"ce4bhap2rcd13ifvqek0","pricing_plan_id":"cebpf4jnsgd1na2vs0mg"},{"bike_id":"e2b2fa55-386f-4fbb-991b-cc2b8bf7afac","system_id":"levelo_inurba_marseille","lat":43.279459,"lon":5.410377,"is_reserved":false,"is_disabled":false,"rental_uris":{"android":"levelo://app?vid=e2b2fa55-386f-4fbb-991b-cc2b8bf7afac","ios":"levelo://app?vid=e2b2fa55-386f-4fbb-991b-cc2b8bf7afac"},"vehicle_type_id":"4","last_reported":1746486585,"current_range_meters":24800,"station_id":"ce4bhnp2rcd13ifvqh0g","pricing_plan_id":"cebpf4jnsgd1na2vs0mg"},{"bike_id":"ebad895e-16ab-4861-af58-e61a781cbe8d","system_id":"levelo_inurba_marseille","lat":43.26062,"lon":5.3939,"is_reserved":false,"is_disabled":false,"rental_uris":{"android":"levelo://app?vid=ebad895e-16ab-4861-af58-e61a781cbe8d","ios":"levelo://app?vid=ebad895e-16ab-4861-af58-e61a781cbe8d"},"vehicle_type_id":"4","last_reported":1746486585,"current_range_meters":24800,"station_id":"ce4bhh92rcd13ifvqfj0","pricing_plan_id":"cebpf4jnsgd1na2vs0mg"},{"bike_id":"1057df73-4c4a-470d-8739-95739c87ed08","system_id":"levelo_inurba_marseille","lat":43.28861,"lon":5.39318,"is_reserved":false,"is_disabled":true,"rental_uris":{"android":"levelo://app?vid=1057df73-4c4a-470d-8739-95739c87ed08","ios":"levelo://app?vid=1057df73-4c4a-470d-8739-95739c87ed08"},