{"last_updated":1680026943,"ttl":30,"version":"2.2","data":{"bikes":[{"bike_id":"f8969f0d-0b89-463e-adba-213c7cd7bd16","system_id":"levelo_inurba_marseille","lat":43.309076,"lon":5.368465,"is_reserved":false,"is_disabled":false,"rental_uris":{"android":"levelo://app?vid=f8969f0d-0b89-463e-adba-213c7cd7bd16","ios":"levelo://app?vid=f8969f0d-0b89-463e-adba-213c7cd7bd16"},"vehicle_type_id":"4","last_reported":1680026943,"current_range_meters":0,"station_id":"ce4bgn92rcd13ifvqbvg","pricing_plan_id":"free"},{"bike_id":"b69f6a47-d5cc-4380-9ee3-4d807dc38405","system_id":"levelo_inurba_marseille","lat":43.308944,"lon":5.371846,"is_reserved":false,"is_disabled":false,"rental_uris":{"android":"levelo://app?vid=b69f6a47-d5cc-4380-9ee3-4d807dc38405","ios":"levelo://app?vid=b69f6a47-d5cc-4380-9ee3-4d807dc38405"},"vehicle_type_id":"4","last_reported":1680026943,"current_range_meters":4000,"station_id":"","pricing_plan_id":"free"},{"bike_id":"8a0b082d-6efe-49d3-9424-a823ea0e69c7","system_id":"levelo_inurba_marseille","lat":43.305989,"lon":5.37225,"is_reserved":false,"is_disabled":false,"rental_uris":{"android":"levelo://app?vid=8a0b082d-6efe-49d3-9424-a823ea0e69c7","ios":"levelo://app?vid=8a0b082d-6efe-49d3-9424-a823ea0e69c7"},"vehicle_type_id":"4","last_reported":1680026943,"current_range_meters":4000,"station_id":"ce4bgqh2rcd13ifvqc4g","pricing_plan_id":"free"},{"bike_id":"6a087cec-3f6a-47e6-92ea-6e3481eaebcd","system_id":"levelo_inurba_marseille","lat":43.3153,"lon":5.38038,"is_reserved":false,"is_disabled":false,"rental_uris":{"android":"levelo://app?vid=6a087cec-3f6a-47e6-92ea-6e3481eaebcd","ios":"levelo://app?vid=6a087cec-3f6a-47e6-92ea-6e3481eaebcd"},"vehicle_type_id":"4","last_reported":1680026943,"current_range_meters":19200,"station_id":"","pricing_plan_id":"free"},{"bike_id":"29bcc009-f938-4633-8aa4-9ec890440106","system_id":"levelo_inurba_marseille","lat":43.31474,"lon":5.381275,"is_reserved":false,"is_disabled":false,"rental_uris":{"android":"levelo://app?vid=29bcc009-f938-4633-8aa4-9ec890440106","ios":"levelo://app?vid=29bcc009-f938-4633-8aa4-9ec890440106"},"vehicle_type_id":"4","last_reported":1680026943,"current_range_meters":18800,"station_id":"ce4bhsp2rcd13ifvqi50","pricing_plan_id":"free"},{"bike_id":"cdab2dba-ce19-4ae6-9f3f-122829c3e878","system_id":"levelo_inurba_marseille","lat":43.301939,"lon":5.366286,"is_reserved":false,"is_disabled":false,"rental_uris":{"android":"levelo://app?vid=cdab2dba-ce19-4ae6-9f3f-122829c3e878","ios":"levelo://app?vid=cdab2dba-ce19-4ae6-9f3f-122829c3e878"},"vehicle_type_id":"4","last_reported":1680026943,"current_range_meters":0,"station_id":"ce4bgrh2rcd13ifvqc8g","pricing_plan_id":"free"},{"bike_id":"5befe6b9-2584-434f-9c3e-150ac161985b","system_id":"levelo_inurba_marseille","lat":43.316467,"lon":5.38339,"is_reserved":false,"is_disabled":false,"rental_uris":{"android":"levelo://app?vid=5befe6b9-2584-434f-9c3e-150ac161985b","ios":"levelo://app?vid=5befe6b9-2584-434f-9c3e-150ac161985b"},"vehicle_type_id":"4","last_reported":1680026943,"current_range_meters":30400,"station_id":"ce4bgt92rcd13ifvqcf0","pricing_plan_id":"free"},{"bike_id":"3cc2099f-f32e-466e-af31-2a1d115486f2","system_id":"levelo_inurba_marseille","lat":43.313708,"lon":5.384902,"is_reserved":false,"is_disabled":false,"rental_uris":{"android":"levelo://app?vid=3cc2099f-f32e-466e-af31-2a1d115486f2","ios":"levelo://app?vid=3cc2099f-f32e-466e-af31-2a1d115486f2"},"vehicle_type_id":"4","last_reported":1680026943,"current_range_meters":0,"station_id":"","pricing_plan_id":"free"},{"bike_id":"fee28ae7-d3d8-4401-a2c2-386dfcb6ae67","system_id":"levelo_inurba_marseille","lat":43.313571,"lon":5.384829,"is_reserved":false,"is_disabled":false,"rental_uris":{"android":"levelo://app?vid=fee28ae7-d3d8-4401-a2c2-386dfcb6ae67","ios":"levelo://app?vid=fee28ae7-d3d8-4401-a2c2-386dfcb6ae67"},"vehicle_type_id":"4","last_reported":1680026943,"current_range_meters":28800,"station_id":"ce4bgt92rcd13ifvqcf0","pricing_plan_id":"free"},{"bike_id":"07315622-28e5-457e-9c55-4c31b95501df","system_id":"levelo_inurba_marseille","lat":43.3137,"lon":5.38493,"is_reserved":false,"is_disabled":false,"rental_uris":{"android":"levelo://app?vid=07315622-28e5-457e-9c55-4c31b95501df","ios":"levelo://app?vid=07315622-28e5-457e-9c55-4c31b95501df"},"vehicle_type_id":"4","last_reported":1680026943,"current_range_meters":3200,"station_id":"ce4bgt92rcd13ifvqcf0","pricing_plan_id":"free"},{"bike_id":"265822a5-80f7-425c-9451-fdd448418e6d","system_id":"levelo_inurba_marseille","lat":43.313571,"lon":5.384829,"is_reserved":false,"is_disabled":false,"rental_uris":{"android":"levelo://app?vid=265822a5-80f7-425c-9451-fdd448418e6d","ios":"levelo://app?vid=265822a5-80f7-425c-9451-fdd448418e6d"},"vehicle_type_id":"4","last_reported":1680026943,"current_range_meters":11200,"station_id":"ce4bgt92rcd13ifvqcf0","pricing_plan_id":"free"},{"bike_id":"eccb8d2b-28a2-4cc0-ac43-60aa4b0fb2b6","system_id":"levelo_inurba_marseille","lat":43.31386,"lon":5.38541,"is_reserved":false,"is_disabled":false,"rental_uris":{"android":"levelo://app?vid=eccb8d2b-28a2-4cc0-ac43-60aa4b0fb2b6","ios":"levelo://app?vid=eccb8d2b-28a2-4cc0-ac43-60aa4b0fb2b6"},"vehicle_type_id":"4","last_reported":1680026943,"current_range_meters":19600,"station_id":"ce4bgt92rcd13ifvqcf0","pricing_plan_id":"free"},{"bike_id":"16dc7832-303d-41d9-8962-dc476390667b","system_id":"levelo_inurba_marseille","lat":43.299243,"lon":5.374807,"is_reserved":false,"is_disabled":false,"rental_uris":{"android":"levelo://app?vid=16dc7832-303d-41d9-8962-dc476390667b","ios":"levelo://app?vid=16dc7832-303d-41d9-8962-dc476390667b"},"vehicle_type_id":"4","last_reported":1680026943,"current_range_meters":0,"station_id":"ce4bgjh2rcd13ifvqbg0","pricing_plan_id":"free"},{"bike_id":"7e685e8a-3c23-4e9c-a820-6d870d96ac32","system_id":"levelo_inurba_marseille","lat":43.311722,"lon":5.387247,"is_reserved":false,"is_disabled":false,"rental_uris":{"android":"levelo://app?vid=7e685e8a-3c23-4e9c-a820-6d870d96ac32","ios":"levelo://app?vid=7e685e8a-3c23-4e9c-a820-6d870d96ac32"},"vehicle_type_id":"4","last_reported":1680026943,"current_range_meters":19600,"station_id":"ce4bgv12rcd13ifvqcp0","pricing_plan_id":"free"},{"bike_id":"5c7bed6a-7e4d-4750-bb8a-3eceb9ae281c","system_id":"levelo_inurba_marseille","lat":43.311722,"lon":5.387247,"is_reserved":false,"is_disabled":false,"rental_uris":{"android":"levelo://app?vid=5c7bed6a-7e4d-4750-bb8a-3eceb9ae281c","ios":"levelo://app?vid=5c7bed6a-7e4d-4750-bb8a-3eceb9ae281c"},"vehicle_type_id":"4","last_reported":1680026943,"current_range_meters":6400,"station_id":"ce4bgv12rcd13ifvqcp0","pricing_plan_id":"free"},{"bike_id":"7672e906-0c9f-4455-87a4-4bf1e4aeb257","system_id":"levelo_inurba_marseille","lat":43.297794,"lon":5.370888,"is_reserved":false,"is_disabled":false,"rental_uris":{"android":"levelo://app?vid=7672e906-0c9f-4455-87a4-4bf1e4aeb257","ios":"levelo://app?vid=7672e906-0c9f-4455-87a4-4bf1e4aeb257"},"vehicle_type_id":"4","last_reported":1680026943,"current_range_meters":400,"station_id":"ce4bgop2rcd13ifvqc1g","pricing_plan_id":"free"},{"bike_id":"5d4f07dd-d313-4803-bae6-c7203e57208d","system_id":"levelo_inurba_marseille","lat":43.32828,"lon":5.36695,"is_reserved":false,"is_disabled":false,"rental_uris":{"android":"levelo://app?vid=5d4f07dd-d313-4803-bae6-c7203e57208d","ios":"levelo://app?vid=5d4f07dd-d313-4803-bae6-c7203e57208d"},"vehicle_type_id":"4","last_reported":1680026943,"current_range_meters":0,"station_id":"ce4bhs92rcd13ifvqi0g","pricing_plan_id":"free"},{"bike_id":"0a6f9038-e349-42d5-aee4-2ba333388edc","system_id":"levelo_inurba_marseille","lat":43.295875,"lon":5.367518,"is_reserved":false,"is_disabled":false,"rental_uris":{"android":"levelo://app?vid=0a6f9038-e349-42d5-aee4-2ba333388edc","ios":"levelo://app?vid=0a6f9038-e349-42d5-aee4-2ba333388edc"},"vehicle_type_id":"4","last_reported":1680026943,"current_range_meters":0,"station_id":"ce4bgph2rcd13ifvqc2g","pricing_plan_id":"free"},{"bike_id":"57241c3d-ae7b-4453-b86e-eeab02dd0380","system_id":"levelo_inurba_marseille","lat":43.296921,"lon":5.376579,"is_reserved":false,"is_disabled":false,"rental_uris":{"android":"levelo://app?vid=57241c3d-ae7b-4453-b86e-eeab02dd0380","ios":"levelo://app?vid=57241c3d-ae7b-4453-b86e-eeab02dd0380"},"vehicle_type_id":"4","last_reported":1680026943,"current_range_meters":0,"station_id":"ce4bgkh2rcd13ifvqbl0","pricing_plan_id":"free"},{"bike_id":"76778d54-78c1-4b3f-951f-f0c152cd545e","system_id":"levelo_inurba_marseille","lat":43.296921,"lon":5.376579,"is_reserved":false,"is_disabled":false,"rental_uris":{"android":"levelo://app?vid=76778d54-78c1-4b3f-951f-f0c152cd545e","ios":"levelo://app?vid=76778d54-78c1-4b3f-951f-f0c152cd545e"},"vehicle_type_id":"4","last_reported":1680026943,"current_range_meters":11600,"station_id":"ce4bgkh2rcd13ifvqbl0","pricing_plan_id":"free"},{"bike_id":"899efe37-1289-4eb0-beeb-e7a3ab55331d","system_id":"levelo_inurba_marseille","lat":43.317557,"lon":5.390072,"is_reserved":false,"is_disabled":false,"rental_uris":{"android":"levelo://app?vid=899efe37-1289-4eb0-beeb-e7a3ab55331d","ios":"levelo://app?vid=899efe37-1289-4eb0-beeb-e7a3ab55331d"},"vehicle_type_id":"4","last_reported":1680026943,"current_range_meters":14800,"station_id":"","pricing_plan_id":"free"},{"bike_id":"54322f57-4062-4dff-9415-0d72aae9a0be","system_id":"levelo_inurba_marseille","lat":43.317557,"lon":5.390173,"is_reserved":false,"is_disabled":false,"rental_uris":{"android":"levelo://app?vid=54322f57-4062-4dff-9415-0d72aae9a0be","ios":"levelo://app?vid=54322f57-4062-4dff-9415-0d72aae9a0be"},"vehicle_type_id":"4","last_reported":1680026943,"current_range_meters":1600,"station_id":"ce4bhqp2rcd13ifvqhng","pricing_plan_id":"free"},{"bike_id":"5059c403-d4c0-41cb-ad1c-6e2e22bc64a9","system_id":"levelo_inurba_marseille","lat":43.317565,"lon":5.390153,"is_reserved":false,"is_disabled":false,"rental_uris":{"android":"levelo://app?vid=5059c403-d4c0-41cb-ad1c-6e2e22bc64a9","ios":"levelo://app?vid=5059c403-d4c0-41cb-ad1c-6e2e22bc64a9"},"vehicle_type_id":"4","last_reported":1680026943,"current_range_meters":31600,"station_id":"ce4bhqp2rcd13ifvqhng","pricing_plan_id":"free"},{"bike_id":"a84d7664-a132-4b72-9207-8d7155fc809f","system_id":"levelo_inurba_marseille","lat":43.317584,"lon":5.390191,"is_reserved":false,"is_disabled":false,"rental_uris":{"android":"levelo://app?vid=a84d7664-a132-4b72-9207-8d7155fc809f","ios":"levelo://app?vid=a84d7664-a132-4b72-9207-8d7155fc809f"},"vehicle_type_id":"4","last_reported":1680026943,"current_range_meters":31600,"station_id":"ce4bhqp2rcd13ifvqhng","pricing_plan_id":"free"},{"bike_id":"4d3baec8-15e2-4d34-93f9-82d751f0f991","system_id":"levelo_inurba_marseille","lat":43.29584,"lon":5.37548,"is_reserved":false,"is_disabled":false,"rental_uris":{"android":"levelo://app?vid=4d3baec8-15e2-4d34-93f9-82d751f0f991","ios":"levelo://app?vid=4d3baec8-15e2-4d34-93f9-82d751f0f991"},"vehicle_type_id":"4","last_reported":1680026943,"current_range_meters":0,"station_id":"ce4bgh92rcd13ifvqb50","pricing_plan_id":"free"},{"bike_id":"1fff67b6-483e-4be3-8e86-11aba021e4fe","system_id":"levelo_inurba_marseille","lat":43.298037,"lon":5.381066,"is_reserved":false,"is_disabled":false,"rental_uris":{"android":"levelo://app?vid=1fff67b6-483e-4be3-8e86-11aba021e4fe","ios":"levelo://app?vid=1fff67b6-483e-4be3-8e86-11aba021e4fe"},"vehicle_type_id":"4","last_reported":1680026943,"current_range_meters":20000,"station_id":"ce4bgip2rcd13ifvqbb0","pricing_plan_id":"free"},{"bike_id":"ef8b451d-155f-4aec-be9d-a7604e8a58d4","system_id":"levelo_inurba_marseille","lat":43.29776,"lon":5.381145,"is_reserved":false,"is_disabled":false,"rental_uris":{"android":"levelo://app?vid=ef8b451d-155f-4aec-be9d-a7604e8a58d4","ios":"levelo://app?vid=ef8b451d-155f-4aec-be9d-a7604e8a58d4"},"vehicle_type_id":"4","last_reported":1680026943,"current_range_meters":0,"station_id":"","pricing_plan_id":"free"},{"bike_id":"22e3b727-4141-4fe9-9d96-6d8ff153c4a9","system_id":"levelo_inurba_marseille","lat":43.296277,"lon":5.377108,"is_reserved":false,"is_disabled":false,"rental_uris":{"android":"levelo://app?vid=22e3b727-4141-4fe9-9d96-6d8ff153c4a9","ios":"levelo://app?vid=22e3b727-4141-4fe9-9d96-6d8ff153c4a9"},"vehicle_type_id":"4","last_reported":1680026943,"current_range_meters":0,"station_id":"ce4bgi92rcd13ifvqb90","pricing_plan_id":"free"},{"bike_id":"7ae05f50-7adb-446d-b631-f35bc97e1ab9","system_id":"levelo_inurba_marseille","lat":43.323775,"lon":5.38709,"is_reserved":false,"is_disabled":false,"rental_uris":{"android":"levelo://app?vid=7ae05f50-7adb-446d-b631-f35bc97e1ab9","ios":"levelo://app?vid=7ae05f50-7adb-446d-b631-f35bc97e1ab9"},"vehicle_type_id":"4","last_reported":1680026943,"current_range_meters":20800,"station_id":"ce4bhqp2rcd13ifvqhog","pricing_plan_id":"free"},{"bike_id":"e3916860-2b97-4921-85b3-94b09c2d24f8","system_id":"levelo_inurba_marseille","lat":43.299779,"lon":5.384818,"is_reserved":false,"is_disabled":false,"rental_uris":{"android":"levelo://app?vid=e3916860-2b97-4921-85b3-94b09c2d24f8","ios":"levelo://app?vid=e3916860-2b97-4921-85b3-94b09c2d24f8"},"vehicle_type_id":"4","last_reported":1680026943,"current_range_meters":1200,"station_id":"","pricing_plan_id":"free"},{"bike_id":"0dcb26cf-ecbc-441d-8829-030e3cc8816d","system_id":"levelo_inurba_marseille","lat":43.299707,"lon":5.384859,"is_reserved":false,"is_disabled":false,"rental_uris":{"android":"levelo://app?vid=0dcb26cf-ecbc-441d-8829-030e3cc8816d","ios":"levelo://app?vid=0dcb26cf-ecbc-441d-8829-030e3cc8816d"},"vehicle_type_id":"4","last_reported":1680026943,"current_range_meters":24800,"station_id":"ce4bgj92rcd13ifvqbd0","pricing_plan_id":"free"},{"bike_id":"e90f4ae9-ee8e-401d-bc86-7ee0eac70959","system_id":"levelo_inurba_marseille","lat":43.299717,"lon":5.384845,"is_reserved":false,"is_disabled":false,"rental_uris":{"android":"levelo://app?vid=e90f4ae9-ee8e-401d-bc86-7ee0eac70959","ios":"levelo://app?vid=e90f4ae9-ee8e-401d-bc86-7ee0eac70959"},"vehicle_type_id":"4","last_reported":1680026943,"current_range_meters":14400,"station_id":"ce4bgj92rcd13ifvqbd0","pricing_plan_id":"free"},{"bike_id":"053a313b-c3f9-43a0-ba22-34aa498b0ded","system_id":"levelo_inurba_marseille","lat":43.299724,"lon":5.384848,"is_reserved":false,"is_disabled":false,"rental_uris":{"android":"levelo://app?vid=053a313b-c3f9-43a0-ba22-34aa498b0ded","ios":"levelo://app?vid=053a313b-c3f9-43a0-ba22-34aa498b0ded"},"vehicle_type_id":"4","last_reported":1680026943,"current_range_meters":2000,"station_id":"ce4bgj92rcd13ifvqbd0","pricing_plan_id":"free"},{"bike_id":"aae18ac5-5655-488a-8ffa-3c3f8ed8d6e3","system_id":"levelo_inurba_marseille","lat":43.295279,"lon":5.375048,"is_reserved":false,"is_disabled":false,"rental_uris":{"android":"levelo://app?vid=aae18ac5-5655-488a-8ffa-3c3f8ed8d6e3","ios":"levelo://app?vid=aae18ac5-5655-488a-8ffa-3c3f8ed8d6e3"},"vehicle_type_id":"4","last_reported":1680026943,"current_range_meters":0,"station_id":"ce4bgkp2rcd13ifvqbmg","pricing_plan_id":"free"},{"bike_id":"75c9b309-8a18-4f00-bd9e-4f04cfb52d2d","system_id":"levelo_inurba_marseille","lat":43.32519,"lon":5.386,"is_reserved":false,"is_disabled":false,"rental_uris":{"android":"levelo://app?vid=75c9b309-8a18-4f00-bd9e-4f04cfb52d2d","ios":"levelo://app?vid=75c9b309-8a18-4f00-bd9e-4f04cfb52d2d"},"vehicle_type_id":"4","last_reported":1680026943,"current_range_meters":18800,"station_id":"","pricing_plan_id":"free"},{"bike_id":"f1ae33ba-54de-4697-85c2-6f2454ebec3a","system_id":"levelo_inurba_marseille","lat":43.32538,"lon":5.38598,"is_reserved":false,"is_disabled":false,"rental_uris":{"android":"levelo://app?vid=f1ae33ba-54de-4697-85c2-6f2454ebec3a","ios":"levelo://app?vid=f1ae33ba-54de-4697-85c2-6f2454ebec3a"},"vehicle_type_id":"4","last_reported":1680026943,"current_range_meters":18800,"station_id":"","pricing_plan_id":"free"},{"bike_id":"8955286a-2307-4abb-b20b-f5d990b9f064","system_id":"levelo_inurba_marseille","lat":43.32906,"lon":5.37977,"is_reserved":false,"is_disabled":false,"rental_uris":{"android":"levelo://app?vid=8955286a-2307-4abb-b20b-f5d990b9f064","ios":"levelo://app?vid=8955286a-2307-4abb-b20b-f5d990b9f064"},"vehicle_type_id":"4","last_reported":1680026943,"current_range_meters":16000,"station_id":"","pricing_plan_id":"free"},{"bike_id":"14a601b7-e918-4763-905d-d52c3dc76340","system_id":"levelo_inurba_marseille","lat":43.299724,"lon":5.384848,"is_reserved":false,"is_disabled":false,"rental_uris":{"android":"levelo://app?vid=14a601b7-e918-4763-905d-d52c3dc76340","ios":"levelo://app?vid=14a601b7-e918-4763-905d-d52c3dc76340"},"vehicle_type_id":"4","last_reported":1680026943,"current_range_meters":11200,"station_id":"ce4bgj92rcd13ifvqbd0","pricing_plan_id":"free"},{"bike_id":"3a25d833-a294-4095-b056-e4b1af1ac82c","system_id":"levelo_inurba_marseille","lat":43.32364,"lon":5.38877,"is_reserved":false,"is_disabled":false,"rental_uris":{"android":"levelo://app?vid=3a25d833-a294-4095-b056-e4b1af1ac82c","ios":"levelo://app?vid=3a25d833-a294-4095-b056-e4b1af1ac82c"},"vehicle_type_id":"4","last_reported":1680026943,"current_range_meters":800,"station_id":"","pricing_plan_id":"free"},{"bike_id":"5abe2da0-af64-41ba-8174-c64941cf637a","system_id":"levelo_inurba_marseille","lat":43.3237,"lon":5.3888,"is_reserved":false,"is_disabled":false,"rental_uris":{"android":"levelo://app?vid=5abe2da0-af64-41ba-8174-c64941cf637a","ios":"levelo://app?vid=5abe2da0-af64-41ba-8174-c64941cf637a"},"vehicle_type_id":"4","last_reported":1680026943,"current_range_meters":400,"station_id":"ce4bhqp2rcd13ifvqhog","pricing_plan_id":"free"},{"bike_id":"04fa1b00-f5e1-4746-bdff-1bc082f002d8","system_id":"levelo_inurba_marseille","lat":43.3237,"lon":5.38881,"is_reserved":false,"is_disabled":false,"rental_uris":{"android":"levelo://app?vid=04fa1b00-f5e1-4746-bdff-1bc082f002d8","ios":"levelo://app?vid=04fa1b00-f5e1-4746-bdff-1bc082f002d8"},"vehicle_type_id":"4","last_reported":1680026943,"current_range_meters":0,"station_id":"ce4bhqp2rcd13ifvqhog","pricing_plan_id":"free"},{"bike_id":"5610d055-36b9-4c8a-a524-0788480338f4","system_id":"levelo_inurba_marseille","lat":43.32367,"lon":5.388836,"is_reserved":false,"is_disabled":false,"rental_uris":{"android":"levelo://app?vid=5610d055-36b9-4c8a-a524-0788480338f4","ios":"levelo://app?vid=5610d055-36b9-4c8a-a524-0788480338f4"},"vehicle_type_id":"4","last_reported":1680026943,"current_range_meters":4400,"station_id":"ce4bhqp2rcd13ifvqhog","pricing_plan_id":"free"},{"bike_id":"369d6a3f-3b04-46bf-83eb-90d58162cb2c","system_id":"levelo_inurba_marseille","lat":43.32367,"lon":5.388836,"is_reserved":false,"is_disabled":false,"rental_uris":{"android":"levelo://app?vid=369d6a3f-3b04-46bf-83eb-90d58162cb2c","ios":"levelo://app?vid=369d6a3f-3b04-46bf-83eb-90d58162cb2c"},"vehicle_type_id":"4","last_reported":1680026943,"current_range_meters":19200,"station_id":"ce4bhqp2rcd13ifvqhog","pricing_plan_id":"free"},{"bike_id":"36f16f0d-9174-4c33-b04a-ec6b26cb4fea","system_id":"levelo_inurba_marseille","lat":43.293249,"lon":5.371578,"is_reserved":false,"is_disabled":false,"rental_uris":{"android":"levelo://app?vid=36f16f0d-9174-4c33-b04a-ec6b26cb4fea","ios":"levelo://app?vid=36f16f0d-9174-4c33-b04a-ec6b26cb4fea"},"vehicle_type_id":"4","last_reported":1680026943,"current_range_meters":20000,"station_id":"ce4bgh92rcd13ifvqb40","pricing_plan_id":"free"},{"bike_id":"733daaff-08c9-4b1b-9f57-c6a3e720a38a","system_id":"levelo_inurba_marseille","lat":43.293249,"lon":5.371578,"is_reserved":false,"is_disabled":false,"rental_uris":{"android":"levelo://app?vid=733daaff-08c9-4b1b-9f57-c6a3e720a38a","ios":"levelo://app?vid=733daaff-08c9-4b1b-9f57-c6a3e720a38a"},"vehicle_type_id":"4","last_reported":1680026943,"current_range_meters":0,"station_id":"ce4bgh92rcd13ifvqb40","pricing_plan_id":"free"},{"bike_id":"ceafb6ff-bb34-42ef-9dc7-cc31b4478c92","system_id":"levelo_inurba_marseille","lat":43.305994,"lon":5.393687,"is_reserved":false,"is_disabled":false,"rental_uris":{"android":"levelo://app?vid=ceafb6ff-bb34-42ef-9dc7-cc31b4478c92","ios":"levelo://app?vid=ceafb6ff-bb34-42ef-9dc7-cc31b4478c92"},"vehicle_type_id":"4","last_reported":1680026943,"current_range_meters":0,"station_id":"ce4bh0p2rcd13ifvqd80","pricing_plan_id":"free"},{"bike_id":"93183331-cb7f-47d4-b640-9d644577d676","system_id":"levelo_inurba_marseille","lat":43.2936,"lon":5.37835,"is_reserved":false,"is_disabled":false,"rental_uris":{"android":"levelo://app?vid=93183331-cb7f-47d4-b640-9d644577d676","ios":"levelo://app?vid=93183331-cb7f-47d4-b640-9d644577d676"},"vehicle_type_id":"4","last_reported":1680026943,"current_range_meters":18000,"station_id":"ce4bgjh2rcd13ifvqbf0","pricing_plan_id":"free"},{"bike_id":"16f3af5c-69cc-42ab-a66d-cc05b476ca6b","system_id":"levelo_inurba_marseille","lat":43.292311,"lon":5.360731,"is_reserved":false,"is_disabled":false,"rental_uris":{"android":"levelo://app?vid=16f3af5c-69cc-42ab-a66d-cc05b476ca6b","ios":"levelo://app?vid=16f3af5c-69cc-42ab-a66d-cc05b476ca6b"},"vehicle_type_id":"4","last_reported":1680026943,"current_range_meters":2000,"station_id":"ce4bhbh2rcd13ifvqeqg","pricing_plan_id":"free"},{"bike_id":"94486b20-5e1a-4ca2-973a-df375448f0a5","system_id":"levelo_inurba_marseille","lat":43.2936,"lon":5.37835,"is_reserved":false,"is_disabled":false,"rental_uris":{"android":"levelo://app?vid=94486b20-5e1a-4ca2-973a-df375448f0a5","ios":"levelo://app?vid=94486b20-5e1a-4ca2-973a-df375448f0a5"},"vehicle_type_id":"4","last_reported":1680026943,"current_range_meters":27200,"station_id":"ce4bgjh2rcd13ifvqbf0","pricing_plan_id":"free"},{"bike_id":"8e3b2409-5b8b-408a-8f9e-9ed1d7cfe851","system_id":"levelo_inurba_marseille","lat":43.300852,"lon":5.390859,"is_reserved":false,"is_disabled":false,"rental_uris":{"android":"levelo://app?vid=8e3b2409-5b8b-408a-8f9e-9ed1d7cfe851","ios":"levelo://app?vid=8e3b2409-5b8b-408a-8f9e-9ed1d7cfe851"},"vehicle_type_id":"4","last_reported":1680026943,"current_range_meters":0,"station_id":"ce4bh192rcd13ifvqdb0","pricing_plan_id":"free"},{"bike_id":"5ef1f863-0682-4784-a3d0-afed501e908a","system_id":"levelo_inurba_marseille","lat":43.30085,"lon":5.390856,"is_reserved":false,"is_disabled":false,"rental_uris":{"android":"levelo://app?vid=5ef1f863-0682-4784-a3d0-afed501e908a","ios":"levelo://app?vid=5ef1f863-0682-4784-a3d0-afed501e908a"},"vehicle_type_id":"4","last_reported":1680026943,"current_range_meters":0,"station_id":"ce4bh192rcd13ifvqdb0","pricing_plan_id":"free"},{"bike_id":"5c9a8778-68f5-4215-b35b-b664149f63de","system_id":"levelo_inurba_marseille","lat":43.29348,"lon":5.37842,"is_reserved":false,"is_disabled":false,"rental_uris":{"android":"levelo://app?vid=5c9a8778-68f5-4215-b35b-b664149f63de","ios":"levelo://app?vid=5c9a8778-68f5-4215-b35b-b664149f63de"},"vehicle_type_id":"4","last_reported":1680026943,"current_range_meters":11600,"station_id":"ce4bgjh2rcd13ifvqbf0","pricing_plan_id":"free"},{"bike_id":"fbe56185-74df-4450-be16-cee917a48feb","system_id":"levelo_inurba_marseille","lat":43.305994,"lon":5.393687,"is_reserved":false,"is_disabled":false,"rental_uris":{"android":"levelo://app?vid=fbe56185-74df-4450-be16-cee917a48feb","ios":"levelo://app?vid=fbe56185-74df-4450-be16-cee917a48feb"},"vehicle_type_id":"4","last_reported":1680026943,"current_range_meters":0,"station_id":"ce4bh0p2rcd13ifvqd80","pricing_plan_id":"free"},{"bike_id":"8154e34d-0c92-4d28-9b06-95e025fdb257","system_id":"levelo_inurba_marseille","lat":43.305994,"lon":5.393687,"is_reserved":false,"is_disabled":false,"rental_uris":{"android":"levelo://app?vid=8154e34d-0c92-4d28-9b06-95e025fdb257","ios":"levelo://app?vid=8154e34d-0c92-4d28-9b06-95e025fdb257"},"vehicle_type_id":"4","last_reported":1680026943,"current_range_meters":9600,"station_id":"ce4bh0p2rcd13ifvqd80","pricing_plan_id":"free"},{"bike_id":"0000d995-82a4-420e-aa88-759b18f0a12d","system_id":"levelo_inurba_marseille","lat":43.305994,"lon":5.393687,"is_reserved":false,"is_disabled":false,"rental_uris":{"android":"levelo://app?vid=0000d995-82a4-420e-aa88-759b18f0a12d","ios":"levelo://app?vid=0000d995-82a4-420e-aa88-759b18f0a12d"},"vehicle_type_id":"4","last_reported":1680026943,"current_range_meters":7200,"station_id":"ce4bh0p2rcd13ifvqd80","pricing_plan_id":"free"},{"bike_id":"667e50ec-bbf5-4dda-9a7e-eb0924dc0215","system_id":"levelo_inurba_marseille","lat":43.305994,"lon":5.393687,"is_reserved":false,"is_disabled":false,"rental_uris":{"android":"levelo://app?vid=667e50ec-bbf5-4dda-9a7e-eb0924dc0215","ios":"levelo://app?vid=667e50ec-bbf5-4dda-9a7e-eb0924dc0215"},"vehicle_type_id":"4","last_reported":1680026943,"current_range_meters":12400,"station_id":"ce4bh0p2rcd13ifvqd80","pricing_plan_id":"free"},{"bike_id":"d7276dc5-08be-475e-8c7c-e2b5515f5bbc","system_id":"levelo_inurba_marseille","lat":43.29529,"lon":5.385581,"is_reserved":false,"is_disabled":false,"rental_uris":{"android":"levelo://app?vid=d7276dc5-08be-475e-8c7c-e2b5515f5bbc","ios":"levelo://app?vid=d7276dc5-08be-475e-8c7c-e2b5515f5bbc"},"vehicle_type_id":"4","last_reported":1680026943,"current_range_meters":2800,"station_id":"ce4bgih2rcd13ifvqba0","pricing_plan_id":"free"},{"bike_id":"688b0e31-7023-4c91-aee8-580fa2a7d7b0","system_id":"levelo_inurba_marseille","lat":43.29538,"lon":5.3855,"is_reserved":false,"is_disabled":false,"rental_uris":{"android":"levelo://app?vid=688b0e31-7023-4c91-aee8-580fa2a7d7b0","ios":"levelo://app?vid=688b0e31-7023-4c91-aee8-580fa2a7d7b0"},"vehicle_type_id":"4","last_reported":1680026943,"current_range_meters":0,"station_id":"ce4bgih2rcd13ifvqba0","pricing_plan_id":"free"},{"bike_id":"6734a549-f6c6-45fa-b3ff-8c86c20a549c","system_id":"levelo_inurba_marseille","lat":43.32258,"lon":5.39446,"is_reserved":false,"is_disabled":false,"rental_uris":{"android":"levelo://app?vid=6734a549-f6c6-45fa-b3ff-8c86c20a549c","ios":"levelo://app?vid=6734a549-f6c6-45fa-b3ff-8c86c20a549c"},"vehicle_type_id":"4","last_reported":1680026943,"current_range_meters":0,"station_id":"","pricing_plan_id":"free"},{"bike_id":"063c3d5b-8797-4fe5-a12d-78659e750c6f","system_id":"levelo_inurba_marseille","lat":43.290779,"lon":5.371482,"is_reserved":false,"is_disabled":false,"rental_uris":{"android":"levelo://app?vid=063c3d5b-8797-4fe5-a12d-78659e750c6f","ios":"levelo://app?vid=063c3d5b-8797-4fe5-a12d-78659e750c6f"},"vehicle_type_id":"4","last_reported":1680026943,"current_range_meters":2800,"station_id":"ce4bh5p2rcd13ifvqe4g","pricing_plan_id":"free"},{"bike_id":"f9c5cd58-df04-40a5-811c-049af0a6f653","system_id":"levelo_inurba_marseille","lat":43.330442,"lon":5.389148,"is_reserved":false,"is_disabled":false,"rental_uris":{"android":"levelo://app?vid=f9c5cd58-df04-40a5-811c-049af0a6f653","ios":"levelo://app?vid=f9c5cd58-df04-40a5-811c-049af0a6f653"},"vehicle_type_id":"4","last_reported":1680026943,"current_range_meters":0,"station_id":"ce4bhr92rcd13ifvqhrg","pricing_plan_id":"free"},{"bike_id":"ee1d134e-40ef-4eba-8123-ae0cc3839fdf","system_id":"levelo_inurba_marseille","lat":43.294162,"lon":5.386292,"is_reserved":false,"is_disabled":false,"rental_uris":{"android":"levelo://app?vid=ee1d134e-40ef-4eba-8123-ae0cc3839fdf","ios":"levelo://app?vid=ee1d134e-40ef-4eba-8123-ae0cc3839fdf"},"vehicle_type_id":"4","last_reported":1680026943,"current_range_meters":1600,"station_id":"ce4bh2h2rcd13ifvqdh0","pricing_plan_id":"free"},{"bike_id":"4afe660f-fe28-4d63-bde8-47873d33546a","system_id":"levelo_inurba_marseille","lat":43.29411,"lon":5.386265,"is_reserved":false,"is_disabled":false,"rental_uris":{"android":"levelo://app?vid=4afe660f-fe28-4d63-bde8-47873d33546a","ios":"levelo://app?vid=4afe660f-fe28-4d63-bde8-47873d33546a"},"vehicle_type_id":"4","last_reported":1680026943,"current_range_meters":0,"station_id":"ce4bh2h2rcd13ifvqdh0","pricing_plan_id":"free"},{"bike_id":"97467c82-9caf-41f5-9d90-85e32a7ac500","system_id":"levelo_inurba_marseille","lat":43.329612,"lon":5.3893,"is_reserved":false,"is_disabled":false,"rental_uris":{"android":"levelo://app?vid=97467c82-9caf-41f5-9d90-85e32a7ac500","ios":"levelo://app?vid=97467c82-9caf-41f5-9d90-85e32a7ac500"},"vehicle_type_id":"4","last_reported":1680026943,"current_range_meters":15200,"station_id":"ce4bhr92rcd13ifvqhrg","pricing_plan_id":"free"},{"bike_id":"ebefef29-da5d-4666-9eca-331a58c43847","system_id":"levelo_inurba_marseille","lat":43.292644,"lon":5.384257,"is_reserved":false,"is_disabled":false,"rental_uris":{"android":"levelo://app?vid=ebefef29-da5d-4666-9eca-331a58c43847","ios":"levelo://app?vid=ebefef29-da5d-4666-9eca-331a58c43847"},"vehicle_type_id":"4","last_reported":1680026943,"current_range_meters":0,"station_id":"ce4bh692rcd13ifvqea0","pricing_plan_id":"free"},{"bike_id":"7af344bb-6a3e-4e30-b5b8-8385b1383a66","system_id":"levelo_inurba_marseille","lat":43.330442,"lon":5.389148,"is_reserved":false,"is_disabled":false,"rental_uris":{"android":"levelo://app?vid=7af344bb-6a3e-4e30-b5b8-8385b1383a66","ios":"levelo://app?vid=7af344bb-6a3e-4e30-b5b8-8385b1383a66"},"vehicle_type_id":"4","last_reported":1680026943,"current_range_meters":31600,"station_id":"ce4bhr92rcd13ifvqhrg","pricing_plan_id":"free"},{"bike_id":"2f86dca1-b448-452e-ad79-dedc6bef2ef1","system_id":"levelo_inurba_marseille","lat":43.33043,"lon":5.38916,"is_reserved":false,"is_disabled":false,"rental_uris":{"android":"levelo://app?vid=2f86dca1-b448-452e-ad79-dedc6bef2ef1","ios":"levelo://app?vid=2f86dca1-b448-452e-ad79-dedc6bef2ef1"},"vehicle_type_id":"4","last_reported":1680026943,"current_range_meters":17600,"station_id":"ce4bhr92rcd13ifvqhrg","pricing_plan_id":"free"},{"bike_id":"ea4c4541-5fe6-4ea3-bd18-cc3cc7711253","system_id":"levelo_inurba_marseille","lat":43.33042,"lon":5.38919,"is_reserved":false,"is_disabled":false,"rental_uris":{"android":"levelo://app?vid=ea4c4541-5fe6-4ea3-bd18-cc3cc7711253","ios":"levelo://app?vid=ea4c4541-5fe6-4ea3-bd18-cc3cc7711253"},"vehicle_type_id":"4","last_reported":1680026943,"current_range_meters":4800,"station_id":"ce4bhr92rcd13ifvqhrg","pricing_plan_id":"free"},{"bike_id":"1b2f6228-0f0f-45e8-8a5f-07bd6fe9a8b6","system_id":"levelo_inurba_marseille","lat":43.33043,"lon":5.38918,"is_reserved":false,"is_disabled":false,"rental_uris":{"android":"levelo://app?vid=1b2f6228-0f0f-45e8-8a5f-07bd6fe9a8b6","ios":"levelo://app?vid=1b2f6228-0f0f-45e8-8a5f-07bd6fe9a8b6"},"vehicle_type_id":"4","last_reported":1680026943,"current_range_meters":3600,"station_id":"ce4bhr92rcd13ifvqhrg","pricing_plan_id":"free"},{"bike_id":"f90a7402-2ca3-44fc-bd22-fa005743efcd","system_id":"levelo_inurba_marseille","lat":43.330442,"lon":5.389148,"is_reserved":false,"is_disabled":false,"rental_uris":{"android":"levelo://app?vid=f90a7402-2ca3-44fc-bd22-fa005743efcd","ios":"levelo://app?vid=f90a7402-2ca3-44fc-bd22-fa005743efcd"},"vehicle_type_id":"4","last_reported":1680026943,"current_range_meters":4000,"station_id":"ce4bhr92rcd13ifvqhrg","pricing_plan_id":"free"},{"bike_id":"ef0c3270-ed88-460a-b0f0-20eedc921639","system_id":"levelo_inurba_marseille","lat":43.33044,"lon":5.3892,"is_reserved":false,"is_disabled":false,"rental_uris":{"android":"levelo://app?vid=ef0c3270-ed88-460a-b0f0-20eedc921639","ios":"levelo://app?vid=ef0c3270-ed88-460a-b0f0-20eedc921639"},"vehicle_type_id":"4","last_reported":1680026943,"current_range_meters":2000,"station_id":"ce4bhr92rcd13ifvqhrg","pricing_plan_id":"free"},{"bike_id":"64addd79-0dbe-47d6-999c-293901e3162a","system_id":"levelo_inurba_marseille","lat":43.33045,"lon":5.3892,"is_reserved":false,"is_disabled":false,"rental_uris":{"android":"levelo://app?vid=64addd79-0dbe-47d6-999c-293901e3162a","ios":"levelo://app?vid=64addd79-0dbe-47d6-999c-293901e3162a"},"vehicle_type_id":"4","last_reported":1680026943,"current_range_meters":5200,"station_id":"ce4bhr92rcd13ifvqhrg","pricing_plan_id":"free"},{"bike_id":"3eb4f166-d5c8-460d-8ccd-2cd66554ca79","system_id":"levelo_inurba_marseille","lat":43.330442,"lon":5.389148,"is_reserved":false,"is_disabled":false,"rental_uris":{"android":"levelo://app?vid=3eb4f166-d5c8-460d-8ccd-2cd66554ca79","ios":"levelo://app?vid=3eb4f166-d5c8-460d-8ccd-2cd66554ca79"},"vehicle_type_id":"4","last_reported":1680026943,"current_range_meters":19200,"station_id":"ce4bhr92rcd13ifvqhrg","pricing_plan_id":"free"},{"bike_id":"79b42a6c-fd33-4d61-9661-42f685e52dd0","system_id":"levelo_inurba_marseille","lat":43.330451,"lon":5.38923,"is_reserved":false,"is_disabled":false,"rental_uris":{"android":"levelo://app?vid=79b42a6c-fd33-4d61-9661-42f685e52dd0","ios":"levelo://app?vid=79b42a6c-fd33-4d61-9661-42f685e52dd0"},"vehicle_type_id":"4","last_reported":1680026943,"current_range_meters":20400,"station_id":"ce4bhr92rcd13ifvqhrg","pricing_plan_id":"free"},{"bike_id":"61f66510-91ac-4b2c-9553-2c9d6d4d2314","system_id":"levelo_inurba_marseille","lat":43.2936,"lon":5.37835,"is_reserved":false,"is_disabled":false,"rental_uris":{"android":"levelo://app?vid=61f66510-91ac-4b2c-9553-2c9d6d4d2314","ios":"levelo://app?vid=61f66510-91ac-4b2c-9553-2c9d6d4d2314"},"vehicle_type_id":"4","last_reported":1680026943,"current_range_meters":8400,"station_id":"ce4bgjh2rcd13ifvqbf0","pricing_plan_id":"free"},{"bike_id":"e7503296-2d90-43dd-bd4d-d08bc06c0a62","system_id":"levelo_inurba_marseille","lat":43.295169,"lon":5.390426,"is_reserved":false,"is_disabled":false,"rental_uris":{"android":"levelo://app?vid=e7503296-2d90-43dd-bd4d-d08bc06c0a62","ios":"levelo://app?vid=e7503296-2d90-43dd-bd4d-d08bc06c0a62"},"vehicle_type_id":"4","last_reported":1680026943,"current_range_meters":13200,"station_id":"ce4bh3p2rcd13ifvqdp0","pricing_plan_id":"free"},{"bike_id":"e0720e05-635e-459d-af67-0a1d6de6ca24","system_id":"levelo_inurba_marseille","lat":43.29513,"lon":5.39046,"is_reserved":false,"is_disabled":false,"rental_uris":{"android":"levelo://app?vid=e0720e05-635e-459d-af67-0a1d6de6ca24","ios":"levelo://app?vid=e0720e05-635e-459d-af67-0a1d6de6ca24"},"vehicle_type_id":"4","last_reported":1680026943,"current_range_meters":0,"station_id":"ce4bh3p2rcd13ifvqdp0","pricing_plan_id":"free"},{"bike_id":"059020e5-f196-4f54-98d4-932901c32840","system_id":"levelo_inurba_marseille","lat":43.309314,"lon":5.400459,"is_reserved":false,"is_disabled":false,"rental_uris":{"android":"levelo://app?vid=059020e5-f196-4f54-98d4-932901c32840","ios":"levelo://app?vid=059020e5-f196-4f54-98d4-932901c32840"},"vehicle_type_id":"4","last_reported":1680026943,"current_range_meters":5600,"station_id":"","pricing_plan_id":"free"},{"bike_id":"cd8082d5-7b45-416b-b236-e9742a1eed48","system_id":"levelo_inurba_marseille","lat":43.33787,"lon":5.37457,"is_reserved":false,"is_disabled":false,"rental_uris":{"android":"levelo://app?vid=cd8082d5-7b45-416b-b236-e9742a1eed48","ios":"levelo://app?vid=cd8082d5-7b45-416b-b236-e9742a1eed48"},"vehicle_type_id":"4","last_reported":1680026943,"current_range_meters":20800,"station_id":"","pricing_plan_id":"free"},{"bike_id":"a0425f62-d326-4055-88df-3aadf3d4ccf8","system_id":"levelo_inurba_marseille","lat":43.29866,"lon":5.39742,"is_reserved":false,"is_disabled":false,"rental_uris":{"android":"levelo://app?vid=a0425f62-d326-4055-88df-3aadf3d4ccf8","ios":"levelo://app?vid=a0425f62-d326-4055-88df-3aadf3d4ccf8"},"vehicle_type_id":"4","last_reported":1680026943,"current_range_meters":22000,"station_id":"ce4bh0h2rcd13ifvqd50","pricing_plan_id":"free"},{"bike_id":"223268ea-c81f-40fa-b0c3-0f02a863bff6","system_id":"levelo_inurba_marseille","lat":43.295196,"lon":5.39397,"is_reserved":false,"is_disabled":false,"rental_uris":{"android":"levelo://app?vid=223268ea-c81f-40fa-b0c3-0f02a863bff6","ios":"levelo://app?vid=223268ea-c81f-40fa-b0c3-0f02a863bff6"},"vehicle_type_id":"4","last_reported":1680026943,"current_range_meters":800,"station_id":"ce4bh292rcd13ifvqdf0","pricing_plan_id":"free"},{"bike_id":"96cfeb5c-f278-483a-8c3e-00879aabbf93","system_id":"levelo_inurba_marseille","lat":43.29013,"lon":5.3864,"is_reserved":false,"is_disabled":false,"rental_uris":{"android":"levelo://app?vid=96cfeb5c-f278-483a-8c3e-00879aabbf93","ios":"levelo://app?vid=96cfeb5c-f278-483a-8c3e-00879aabbf93"},"vehicle_type_id":"4","last_reported":1680026943,"current_range_meters":2800,"station_id":"","pricing_plan_id":"free"},{"bike_id":"fc82eb6d-1326-4f36-b778-72adb990a2d5","system_id":"levelo_inurba_marseille","lat":43.286039,"lon":5.370679,"is_reserved":false,"is_disabled":false,"rental_uris":{"android":"levelo://app?vid=fc82eb6d-1326-4f36-b778-72adb990a2d5","ios":"levelo://app?vid=fc82eb6d-1326-4f36-b778-72adb990a2d5"},"vehicle_type_id":"4","last_reported":1680026943,"current_range_meters":10400,"station_id":"ce4bht12rcd13ifvqi60","pricing_plan_id":"free"},{"bike_id":"dc11479b-3816-468f-b688-639a6e794a17","system_id":"levelo_inurba_marseille","lat":43.2872,"lon":5.3793,"is_reserved":false,"is_disabled":false,"rental_uris":{"android":"levelo://app?vid=dc11479b-3816-468f-b688-639a6e794a17","ios":"levelo://app?vid=dc11479b-3816-468f-b688-639a6e794a17"},"vehicle_type_id":"4","last_reported":1680026943,"current_range_meters":10400,"station_id":"ce4bh9p2rcd13ifvqec0","pricing_plan_id":"free"},{"bike_id":"2b8a0f18-63bc-41c5-8ad7-58655d9b7d1b","system_id":"levelo_inurba_marseille","lat":43.28712,"lon":5.37936,"is_reserved":false,"is_disabled":false,"rental_uris":{"android":"levelo://app?vid=2b8a0f18-63bc-41c5-8ad7-58655d9b7d1b","ios":"levelo://app?vid=2b8a0f18-63bc-41c5-8ad7-58655d9b7d1b"},"vehicle_type_id":"4","last_reported":1680026943,"current_range_meters":0,"station_id":"ce4bh9p2rcd13ifvqec0","pricing_plan_id":"free"},{"bike_id":"e43c375e-20a0-4331-9212-ddfed97fe2a8","system_id":"levelo_inurba_marseille","lat":43.31645,"lon":5.40441,"is_reserved":false,"is_disabled":false,"rental_uris":{"android":"levelo://app?vid=e43c375e-20a0-4331-9212-ddfed97fe2a8","ios":"levelo://app?vid=e43c375e-20a0-4331-9212-ddfed97fe2a8"},"vehicle_type_id":"4","last_reported":1680026943,"current_range_meters":19200,"station_id":"","pricing_plan_id":"free"},{"bike_id":"b3d0faa4-fe26-44a6-946c-3a68edd5e7c6","system_id":"levelo_inurba_marseille","lat":43.284534,"lon":5.358662,"is_reserved":false,"is_disabled":false,"rental_uris":{"android":"levelo://app?vid=b3d0faa4-fe26-44a6-946c-3a68edd5e7c6","ios":"levelo://app?vid=b3d0faa4-fe26-44a6-946c-3a68edd5e7c6"},"vehicle_type_id":"4","last_reported":1680026943,"current_range_meters":19200,"station_id":"ce4bhah2rcd13ifvqei0","pricing_plan_id":"free"},{"bike_id":"f2561e01-0d8e-4f5d-808d-50e9103c11f6","system_id":"levelo_inurba_marseille","lat":43.295713,"lon":5.399639,"is_reserved":false,"is_disabled":false,"rental_uris":{"android":"levelo://app?vid=f2561e01-0d8e-4f5d-808d-50e9103c11f6","ios":"levelo://app?vid=f2561e01-0d8e-4f5d-808d-50e9103c11f6"},"vehicle_type_id":"4","last_reported":1680026943,"current_range_meters":5200,"station_id":"ce4bh312rcd13ifvqdj0","pricing_plan_id":"free"},{"bike_id":"ffec6938-31d2-49da-829c-78738cb2e557","system_id":"levelo_inurba_marseille","lat":43.28658,"lon":5.38668,"is_reserved":false,"is_disabled":false,"rental_uris":{"android":"levelo://app?vid=ffec6938-31d2-49da-829c-78738cb2e557","ios":"levelo://app?vid=ffec6938-31d2-49da-829c-78738cb2e557"},"vehicle_type_id":"4","last_reported":1680026943,"current_range_meters":0,"station_id":"","pricing_plan_id":"free"},{"bike_id":"6af4d27a-516a-4be6-b503-0bbecc57195a","system_id":"levelo_inurba_marseille","lat":43.337168,"lon":5.391825,"is_reserved":false,"is_disabled":false,"rental_uris":{"android":"levelo://app?vid=6af4d27a-516a-4be6-b503-0bbecc57195a","ios":"levelo://app?vid=6af4d27a-516a-4be6-b503-0bbecc57195a"},"vehicle_type_id":"4","last_reported":1680026943,"current_range_meters":10800,"station_id":"ce4bhr92rcd13ifvqhsg","pricing_plan_id":"free"},{"bike_id":"be4f4ff8-6434-44ea-91de-c25c511d3812","system_id":"levelo_inurba_marseille","lat":43.337168,"lon":5.391825,"is_reserved":false,"is_disabled":false,"rental_uris":{"android":"levelo://app?vid=be4f4ff8-6434-44ea-91de-c25c511d3812","ios":"levelo://app?vid=be4f4ff8-6434-44ea-91de-c25c511d3812"},"vehicle_type_id":"4","last_reported":1680026943,"current_range_meters":12400,"station_id":"ce4bhr92rcd13ifvqhsg","pricing_plan_id":"free"},{"bike_id":"8b30aa65-37d3-4a0f-9050-4a9105102167","system_id":"levelo_inurba_marseille","lat":43.337168,"lon":5.391825,"is_reserved":false,"is_disabled":false,"rental_uris":{"android":"levelo://app?vid=8b30aa65-37d3-4a0f-9050-4a9105102167","ios":"levelo://app?vid=8b30aa65-37d3-4a0f-9050-4a9105102167"},"vehicle_type_id":"4","last_reported":1680026943,"current_range_meters":400,"station_id":"ce4bhr92rcd13ifvqhsg","pricing_plan_id":"free"},{"bike_id":"78ab03af-c76a-45fe-99f6-8ef0477a598d","system_id":"levelo_inurba_marseille","lat":43.33717,"lon":5.391857,"is_reserved":false,"is_disabled":false,"rental_uris":{"android":"levelo://app?vid=78ab03af-c76a-45fe-99f6-8ef0477a598d","ios":"levelo://app?vid=78ab03af-c76a-45fe-99f6-8ef0477a598d"},"vehicle_type_id":"4","last_reported":1680026943,"current_range_meters":400,"station_id":"ce4bhr92rcd13ifvqhsg","pricing_plan_id":"free"},{"bike_id":"14f04375-9b69-4899-8728-a7b2a1ba12f3","system_id":"levelo_inurba_marseille","lat":43.323464,"lon":5.406297,"is_reserved":false,"is_disabled":false,"rental_uris":{"android":"levelo://app?vid=14f04375-9b69-4899-8728-a7b2a1ba12f3","ios":"levelo://app?vid=14f04375-9b69-4899-8728-a7b2a1ba12f3"},"vehicle_type_id":"4","last_reported":1680026943,"current_range_meters":30000,"station_id":"ce4bhq92rcd13ifvqhjg","pricing_plan_id":"free"},{"bike_id":"194c5d06-e65b-4be6-8931-07ab620ae5f3","system_id":"levelo_inurba_marseille","lat":43.323464,"lon":5.406297,"is_reserved":false,"is_disabled":false,"rental_uris":{"android":"levelo://app?vid=194c5d06-e65b-4be6-8931-07ab620ae5f3","ios":"levelo://app?vid=194c5d06-e65b-4be6-8931-07ab620ae5f3"},"vehicle_type_id":"4","last_reported":1680026943,"current_range_meters":10400,"station_id":"ce4bhq92rcd13ifvqhjg","pricing_plan_id":"free"},{"bike_id":"fac648d6-e0e1-465c-9b06-f4cbc1f2b9b8","system_id":"levelo_inurba_marseille","lat":43.284793,"lon":5.384119,"is_reserved":false,"is_disabled":false,"rental_uris":{"android":"levelo://app?vid=fac648d6-e0e1-465c-9b06-f4cbc1f2b9b8","ios":"levelo://app?vid=fac648d6-e0e1-465c-9b06-f4cbc1f2b9b8"},"vehicle_type_id":"4","last_reported":1680026943,"current_range_meters":0,"station_id":"ce4bh512rcd13ifvqe3g","pricing_plan_id":"free"},{"bike_id":"6d10b4cd-d1cb-4317-8a55-1656db3d80ad","system_id":"levelo_inurba_marseille","lat":43.284793,"lon":5.384119,"is_reserved":false,"is_disabled":false,"rental_uris":{"android":"levelo://app?vid=6d10b4cd-d1cb-4317-8a55-1656db3d80ad","ios":"levelo://app?vid=6d10b4cd-d1cb-4317-8a55-1656db3d80ad"},"vehicle_type_id":"4","last_reported":1680026943,"current_range_meters":400,"station_id":"ce4bh512rcd13ifvqe3g","pricing_plan_id":"free"},{"bike_id":"4720fc46-3587-47aa-9d61-a282e8b0cdba","system_id":"levelo_inurba_marseille","lat":43.2836,"lon":5.38098,"is_reserved":false,"is_disabled":false,"rental_uris":{"android":"levelo://app?vid=4720fc46-3587-47aa-9d61-a282e8b0cdba","ios":"levelo://app?vid=4720fc46-3587-47aa-9d61-a282e8b0cdba"},"vehicle_type_id":"4","last_reported":1680026943,"current_range_meters":0,"station_id":"","pricing_plan_id":"free"},{"bike_id":"a8cf6a8b-ae69-4515-86c3-d929e8243329","system_id":"levelo_inurba_marseille","lat":43.284219,"lon":5.3497,"is_reserved":false,"is_disabled":false,"rental_uris":{"android":"levelo://app?vid=a8cf6a8b-ae69-4515-86c3-d929e8243329","ios":"levelo://app?vid=a8cf6a8b-ae69-4515-86c3-d929e8243329"},"vehicle_type_id":"4","last_reported":1680026943,"current_range_meters":7200,"station_id":"ce4bhbh2rcd13ifvqepg","pricing_plan_id":"free"},{"bike_id":"2cff5de0-a9a9-4cb9-aef2-e21db9318e3d","system_id":"levelo_inurba_marseille","lat":43.28941,"lon":5.39633,"is_reserved":false,"is_disabled":false,"rental_uris":{"android":"levelo://app?vid=2cff5de0-a9a9-4cb9-aef2-e21db9318e3d","ios":"levelo://app?vid=2cff5de0-a9a9-4cb9-aef2-e21db9318e3d"},"vehicle_type_id":"4","last_reported":1680026943,"current_range_meters":26000,"station_id":"","pricing_plan_id":"free"},{"bike_id":"1f37df45-e094-46c0-b39b-45858433a407","system_id":"levelo_inurba_marseille","lat":43.289363,"lon":5.396322,"is_reserved":false,"is_disabled":false,"rental_uris":{"android":"levelo://app?vid=1f37df45-e094-46c0-b39b-45858433a407","ios":"levelo://app?vid=1f37df45-e094-46c0-b39b-45858433a407"},"vehicle_type_id":"4","last_reported":1680026943,"current_range_meters":23600,"station_id":"ce4bh3h2rcd13ifvqdn0","pricing_plan_id":"free"},{"bike_id":"b8193991-8361-41c7-ae03-0282ae046990","system_id":"levelo_inurba_marseille","lat":43.292724,"lon":5.401131,"is_reserved":false,"is_disabled":false,"rental_uris":{"android":"levelo://app?vid=b8193991-8361-41c7-ae03-0282ae046990","ios":"levelo://app?vid=b8193991-8361-41c7-ae03-0282ae046990"},"vehicle_type_id":"4","last_reported":1680026943,"current_range_meters":6400,"station_id":"ce4bh312rcd13ifvqdk0","pricing_plan_id":"free"},{"bike_id":"f489761c-d12e-4438-a1f4-2e6c9b37a456","system_id":"levelo_inurba_marseille","lat":43.292724,"lon":5.401131,"is_reserved":false,"is_disabled":false,"rental_uris":{"android":"levelo://app?vid=f489761c-d12e-4438-a1f4-2e6c9b37a456","ios":"levelo://app?vid=f489761c-d12e-4438-a1f4-2e6c9b37a456"},"vehicle_type_id":"4","last_reported":1680026943,"current_range_meters":2400,"station_id":"ce4bh312rcd13ifvqdk0","pricing_plan_id":"free"},{"bike_id":"147e3bf8-e3e2-4160-b873-0294df3a6042","system_id":"levelo_inurba_marseille","lat":43.282754,"lon":5.350519,"is_reserved":false,"is_disabled":false,"rental_uris":{"android":"levelo://app?vid=147e3bf8-e3e2-4160-b873-0294df3a6042","ios":"levelo://app?vid=147e3bf8-e3e2-4160-b873-0294df3a6042"},"vehicle_type_id":"4","last_reported":1680026943,"current_range_meters":400,"station_id":"ce4bhbp2rcd13ifvqerg","pricing_plan_id":"free"},{"bike_id":"b84a9a25-1884-453f-a3fb-f35f8fc96ec5","system_id":"levelo_inurba_marseille","lat":43.28039,"lon":5.369297,"is_reserved":false,"is_disabled":false,"rental_uris":{"android":"levelo://app?vid=b84a9a25-1884-453f-a3fb-f35f8fc96ec5","ios":"levelo://app?vid=b84a9a25-1884-453f-a3fb-f35f8fc96ec5"},"vehicle_type_id":"4","last_reported":1680026943,"current_range_meters":25600,"station_id":"ce4bha12rcd13ifvqef0","pricing_plan_id":"free"},{"bike_id":"3a5cdc53-4168-48e8-9182-0046bce92095","system_id":"levelo_inurba_marseille","lat":43.281097,"lon":5.378366,"is_reserved":false,"is_disabled":false,"rental_uris":{"android":"levelo://app?vid=3a5cdc53-4168-48e8-9182-0046bce92095","ios":"levelo://app?vid=3a5cdc53-4168-48e8-9182-0046bce92095"},"vehicle_type_id":"4","last_reported":1680026943,"current_range_meters":1200,"station_id":"ce4bha12rcd13ifvqee0","pricing_plan_id":"free"},{"bike_id":"d46d7d9f-fc9a-4323-ab1d-729a7eea780d","system_id":"levelo_inurba_marseille","lat":43.28107,"lon":5.37844,"is_reserved":false,"is_disabled":false,"rental_uris":{"android":"levelo://app?vid=d46d7d9f-fc9a-4323-ab1d-729a7eea780d","ios":"levelo://app?vid=d46d7d9f-fc9a-4323-ab1d-729a7eea780d"},"vehicle_type_id":"4","last_reported":1680026943,"current_range_meters":9600,"station_id":"ce4bha12rcd13ifvqee0","pricing_plan_id":"free"},{"bike_id":"a5ee1302-be81-4df5-a8b9-bccba4f42efc","system_id":"levelo_inurba_marseille","lat":43.296263,"lon":5.40601,"is_reserved":false,"is_disabled":false,"rental_uris":{"android":"levelo://app?vid=a5ee1302-be81-4df5-a8b9-bccba4f42efc","ios":"levelo://app?vid=a5ee1302-be81-4df5-a8b9-bccba4f42efc"},"vehicle_type_id":"4","last_reported":1680026943,"current_range_meters":400,"station_id":"ce4bh0h2rcd13ifvqd60","pricing_plan_id":"free"},{"bike_id":"b9079858-f828-4d75-982f-94837c4972b7","system_id":"levelo_inurba_marseille","lat":43.284462,"lon":5.392121,"is_reserved":false,"is_disabled":false,"rental_uris":{"android":"levelo://app?vid=b9079858-f828-4d75-982f-94837c4972b7","ios":"levelo://app?vid=b9079858-f828-4d75-982f-94837c4972b7"},"vehicle_type_id":"4","last_reported":1680026943,"current_range_meters":8400,"station_id":"ce4bhoh2rcd13ifvqh5g","pricing_plan_id":"free"},{"bike_id":"c37d6037-6d80-451c-bec6-1b451b4aaa8e","system_id":"levelo_inurba_marseille","lat":43.27958,"lon":5.3873,"is_reserved":false,"is_disabled":false,"rental_uris":{"android":"levelo://app?vid=c37d6037-6d80-451c-bec6-1b451b4aaa8e","ios":"levelo://app?vid=c37d6037-6d80-451c-bec6-1b451b4aaa8e"},"vehicle_type_id":"4","last_reported":1680026943,"current_range_meters":11600,"station_id":"","pricing_plan_id":"free"},{"bike_id":"3391c685-54f6-4b35-8573-9b1abcbeb0d3","system_id":"levelo_inurba_marseille","lat":43.32048,"lon":5.41577,"is_reserved":false,"is_disabled":false,"rental_uris":{"android":"levelo://app?vid=3391c685-54f6-4b35-8573-9b1abcbeb0d3","ios":"levelo://app?vid=3391c685-54f6-4b35-8573-9b1abcbeb0d3"},"vehicle_type_id":"4","last_reported":1680026943,"current_range_meters":14000,"station_id":"","pricing_plan_id":"free"},{"bike_id":"2fba2d46-0490-429d-8231-02b357d4343a","system_id":"levelo_inurba_marseille","lat":43.292571,"lon":5.409107,"is_reserved":false,"is_disabled":false,"rental_uris":{"android":"levelo://app?vid=2fba2d46-0490-429d-8231-02b357d4343a","ios":"levelo://app?vid=2fba2d46-0490-429d-8231-02b357d4343a"},"vehicle_type_id":"4","last_reported":1680026943,"current_range_meters":0,"station_id":"ce4bh192rcd13ifvqdc0","pricing_plan_id":"free"},{"bike_id":"44566e3f-660b-4bdc-b8d3-f52108cb06e3","system_id":"levelo_inurba_marseille","lat":43.325233,"lon":5.414318,"is_reserved":false,"is_disabled":false,"rental_uris":{"android":"levelo://app?vid=44566e3f-660b-4bdc-b8d3-f52108cb06e3","ios":"levelo://app?vid=44566e3f-660b-4bdc-b8d3-f52108cb06e3"},"vehicle_type_id":"4","last_reported":1680026943,"current_range_meters":9600,"station_id":"ce4bhq12rcd13ifvqhhg","pricing_plan_id":"free"},{"bike_id":"124cc224-afbe-405e-859c-2a2b6adbb01f","system_id":"levelo_inurba_marseille","lat":43.32535,"lon":5.41429,"is_reserved":false,"is_disabled":false,"rental_uris":{"android":"levelo://app?vid=124cc224-afbe-405e-859c-2a2b6adbb01f","ios":"levelo://app?vid=124cc224-afbe-405e-859c-2a2b6adbb01f"},"vehicle_type_id":"4","last_reported":1680026943,"current_range_meters":0,"station_id":"ce4bhq12rcd13ifvqhhg","pricing_plan_id":"free"},{"bike_id":"fe06e381-2ae9-40bb-b810-1e6ff39514b9","system_id":"levelo_inurba_marseille","lat":43.32541,"lon":5.41426,"is_reserved":false,"is_disabled":false,"rental_uris":{"android":"levelo://app?vid=fe06e381-2ae9-40bb-b810-1e6ff39514b9","ios":"levelo://app?vid=fe06e381-2ae9-40bb-b810-1e6ff39514b9"},"vehicle_type_id":"4","last_reported":1680026943,"current_range_meters":14400,"station_id":"","pricing_plan_id":"free"},{"bike_id":"f58d9dae-afae-4013-89f2-8e7a43608d2d","system_id":"levelo_inurba_marseille","lat":43.292571,"lon":5.409107,"is_reserved":false,"is_disabled":false,"rental_uris":{"android":"levelo://app?vid=f58d9dae-afae-4013-89f2-8e7a43608d2d","ios":"levelo://app?vid=f58d9dae-afae-4013-89f2-8e7a43608d2d"},"vehicle_type_id":"4","last_reported":1680026943,"current_range_meters":0,"station_id":"ce4bh192rcd13ifvqdc0","pricing_plan_id":"free"},{"bike_id":"288dbdf0-fa23-43a5-94f1-3f3238129a60","system_id":"levelo_inurba_marseille","lat":43.32514,"lon":5.414705,"is_reserved":false,"is_disabled":false,"rental_uris":{"android":"levelo://app?vid=288dbdf0-fa23-43a5-94f1-3f3238129a60","ios":"levelo://app?vid=288dbdf0-fa23-43a5-94f1-3f3238129a60"},"vehicle_type_id":"4","last_reported":1680026943,"current_range_meters":18400,"station_id":"ce4bhq12rcd13ifvqhhg","pricing_plan_id":"free"},{"bike_id":"2317dabe-5e0b-4c8b-9bba-e5093df67ec1","system_id":"levelo_inurba_marseille","lat":43.33612,"lon":5.410321,"is_reserved":false,"is_disabled":false,"rental_uris":{"android":"levelo://app?vid=2317dabe-5e0b-4c8b-9bba-e5093df67ec1","ios":"levelo://app?vid=2317dabe-5e0b-4c8b-9bba-e5093df67ec1"},"vehicle_type_id":"4","last_reported":1680026943,"current_range_meters":21600,"station_id":"ce4bhqh2rcd13ifvqhmg","pricing_plan_id":"free"},{"bike_id":"10a27d9a-0c65-4ca4-81ae-d54cbeb5b213","system_id":"levelo_inurba_marseille","lat":43.33612,"lon":5.410321,"is_reserved":false,"is_disabled":false,"rental_uris":{"android":"levelo://app?vid=10a27d9a-0c65-4ca4-81ae-d54cbeb5b213","ios":"levelo://app?vid=10a27d9a-0c65-4ca4-81ae-d54cbeb5b213"},"vehicle_type_id":"4","last_reported":1680026943,"current_range_meters":22000,"station_id":"ce4bhqh2rcd13ifvqhmg","pricing_plan_id":"free"},{"bike_id":"9e7cd36a-4cae-4639-9e5c-8bb4c7ba9dec","system_id":"levelo_inurba_marseille","lat":43.33606,"lon":5.4103,"is_reserved":false,"is_disabled":false,"rental_uris":{"android":"levelo://app?vid=9e7cd36a-4cae-4639-9e5c-8bb4c7ba9dec","ios":"levelo://app?vid=9e7cd36a-4cae-4639-9e5c-8bb4c7ba9dec"},"vehicle_type_id":"4","last_reported":1680026943,"current_range_meters":23600,"station_id":"ce4bhqh2rcd13ifvqhmg","pricing_plan_id":"free"},{"bike_id":"b8c7e5d9-f70c-4349-8f16-f41a5252b090","system_id":"levelo_inurba_marseille","lat":43.33612,"lon":5.410321,"is_reserved":false,"is_disabled":false,"rental_uris":{"android":"levelo://app?vid=b8c7e5d9-f70c-4349-8f16-f41a5252b090","ios":"levelo://app?vid=b8c7e5d9-f70c-4349-8f16-f41a5252b090"},"vehicle_type_id":"4","last_reported":1680026943,"current_range_meters":3600,"station_id":"ce4bhqh2rcd13ifvqhmg","pricing_plan_id":"free"},{"bike_id":"dba0b2a3-0b6f-4546-860b-cb49aea9730c","system_id":"levelo_inurba_marseille","lat":43.336134,"lon":5.410341,"is_reserved":false,"is_disabled":false,"rental_uris":{"android":"levelo://app?vid=dba0b2a3-0b6f-4546-860b-cb49aea9730c","ios":"levelo://app?vid=dba0b2a3-0b6f-4546-860b-cb49aea9730c"},"vehicle_type_id":"4","last_reported":1680026943,"current_range_meters":10000,"station_id":"ce4bhqh2rcd13ifvqhmg","pricing_plan_id":"free"},{"bike_id":"ae15b7f5-a7bd-4920-81d6-ff52ffddbf4d","system_id":"levelo_inurba_marseille","lat":43.33606,"lon":5.41034,"is_reserved":false,"is_disabled":false,"rental_uris":{"android":"levelo://app?vid=ae15b7f5-a7bd-4920-81d6-ff52ffddbf4d","ios":"levelo://app?vid=ae15b7f5-a7bd-4920-81d6-ff52ffddbf4d"},"vehicle_type_id":"4","last_reported":1680026943,"current_range_meters":2800,"station_id":"ce4bhqh2rcd13ifvqhmg","pricing_plan_id":"free"},{"bike_id":"9eb9f0db-a4d8-4698-b83f-e293c7770ca2","system_id":"levelo_inurba_marseille","lat":43.33612,"lon":5.410321,"is_reserved":false,"is_disabled":false,"rental_uris":{"android":"levelo://app?vid=9eb9f0db-a4d8-4698-b83f-e293c7770ca2","ios":"levelo://app?vid=9eb9f0db-a4d8-4698-b83f-e293c7770ca2"},"vehicle_type_id":"4","last_reported":1680026943,"current_range_meters":23200,"station_id":"ce4bhqh2rcd13ifvqhmg","pricing_plan_id":"free"},{"bike_id":"d30a67f6-0f01-4756-b3c8-7f78ca008d5c","system_id":"levelo_inurba_marseille","lat":43.31078,"lon":5.42429,"is_reserved":false,"is_disabled":false,"rental_uris":{"android":"levelo://app?vid=d30a67f6-0f01-4756-b3c8-7f78ca008d5c","ios":"levelo://app?vid=d30a67f6-0f01-4756-b3c8-7f78ca008d5c"},"vehicle_type_id":"4","last_reported":1680026943,"current_range_meters":0,"station_id":"","pricing_plan_id":"free"},{"bike_id":"425ee78a-aa96-4bcf-b1e7-358f57ac2ef2","system_id":"levelo_inurba_marseille","lat":43.317121,"lon":5.423936,"is_reserved":false,"is_disabled":false,"rental_uris":{"android":"levelo://app?vid=425ee78a-aa96-4bcf-b1e7-358f57ac2ef2","ios":"levelo://app?vid=425ee78a-aa96-4bcf-b1e7-358f57ac2ef2"},"vehicle_type_id":"4","last_reported":1680026943,"current_range_meters":30800,"station_id":"ce4bhp92rcd13ifvqhbg","pricing_plan_id":"free"},{"bike_id":"22ea4db5-9146-4707-b3f6-3663e81445ef","system_id":"levelo_inurba_marseille","lat":43.272116,"lon":5.391747,"is_reserved":false,"is_disabled":false,"rental_uris":{"android":"levelo://app?vid=22ea4db5-9146-4707-b3f6-3663e81445ef","ios":"levelo://app?vid=22ea4db5-9146-4707-b3f6-3663e81445ef"},"vehicle_type_id":"4","last_reported":1680026943,"current_range_meters":800,"station_id":"ce4bhhp2rcd13ifvqfm0","pricing_plan_id":"free"},{"bike_id":"70d306d9-1799-47a4-b45b-7fe897adcf7e","system_id":"levelo_inurba_marseille","lat":43.278128,"lon":5.407195,"is_reserved":false,"is_disabled":false,"rental_uris":{"android":"levelo://app?vid=70d306d9-1799-47a4-b45b-7fe897adcf7e","ios":"levelo://app?vid=70d306d9-1799-47a4-b45b-7fe897adcf7e"},"vehicle_type_id":"4","last_reported":1680026943,"current_range_meters":11600,"station_id":"ce4bhnh2rcd13ifvqgtg","pricing_plan_id":"free"},{"bike_id":"ec7feb3a-54a4-404c-8c56-5ee4a94e9d9e","system_id":"levelo_inurba_marseille","lat":43.278128,"lon":5.407195,"is_reserved":false,"is_disabled":false,"rental_uris":{"android":"levelo://app?vid=ec7feb3a-54a4-404c-8c56-5ee4a94e9d9e","ios":"levelo://app?vid=ec7feb3a-54a4-404c-8c56-5ee4a94e9d9e"},"vehicle_type_id":"4","last_reported":1680026943,"current_range_meters":4000,"station_id":"ce4bhnh2rcd13ifvqgtg","pricing_plan_id":"free"},{"bike_id":"2c5bd3fc-6874-4a12-8f45-9f890028bd5a","system_id":"levelo_inurba_marseille","lat":43.278128,"lon":5.407195,"is_reserved":false,"is_disabled":false,"rental_uris":{"android":"levelo://app?vid=2c5bd3fc-6874-4a12-8f45-9f890028bd5a","ios":"levelo://app?vid=2c5bd3fc-6874-4a12-8f45-9f890028bd5a"},"vehicle_type_id":"4","last_reported":1680026943,"current_range_meters":1600,"station_id":"ce4bhnh2rcd13ifvqgtg","pricing_plan_id":"free"},{"bike_id":"a0902e04-2a60-4325-ac02-ed0e2141ed8d","system_id":"levelo_inurba_marseille","lat":43.278128,"lon":5.407195,"is_reserved":false,"is_disabled":false,"rental_uris":{"android":"levelo://app?vid=a0902e04-2a60-4325-ac02-ed0e2141ed8d","ios":"levelo://app?vid=a0902e04-2a60-4325-ac02-ed0e2141ed8d"},"vehicle_type_id":"4","last_reported":1680026943,"current_range_meters":30000,"station_id":"ce4bhnh2rcd13ifvqgtg","pricing_plan_id":"free"},{"bike_id":"5e3a44f1-0624-41ce-8d0e-77e73dccc04e","system_id":"levelo_inurba_marseille","lat":43.26553,"lon":5.372887,"is_reserved":false,"is_disabled":false,"rental_uris":{"android":"levelo://app?vid=5e3a44f1-0624-41ce-8d0e-77e73dccc04e","ios":"levelo://app?vid=5e3a44f1-0624-41ce-8d0e-77e73dccc04e"},"vehicle_type_id":"4","last_reported":1680026943,"current_range_meters":0,"station_id":"ce4bhg12rcd13ifvqf70","pricing_plan_id":"free"},{"bike_id":"d7606258-92ae-4f78-9315-9dce856c2b57","system_id":"levelo_inurba_marseille","lat":43.27996,"lon":5.416624,"is_reserved":false,"is_disabled":false,"rental_uris":{"android":"levelo://app?vid=d7606258-92ae-4f78-9315-9dce856c2b57","ios":"levelo://app?vid=d7606258-92ae-4f78-9315-9dce856c2b57"},"vehicle_type_id":"4","last_reported":1680026943,"current_range_meters":0,"station_id":"ce4bho12rcd13ifvqh1g","pricing_plan_id":"free"},{"bike_id":"36b62db2-8f07-48e6-a37f-e9808d67c1ad","system_id":"levelo_inurba_marseille","lat":43.267966,"lon":5.393976,"is_reserved":false,"is_disabled":false,"rental_uris":{"android":"levelo://app?vid=36b62db2-8f07-48e6-a37f-e9808d67c1ad","ios":"levelo://app?vid=36b62db2-8f07-48e6-a37f-e9808d67c1ad"},"vehicle_type_id":"4","last_reported":1680026943,"current_range_meters":10400,"station_id":"ce4bhh12rcd13ifvqfg0","pricing_plan_id":"free"},{"bike_id":"3c043c46-5c9d-4689-b65e-a927d49fc926","system_id":"levelo_inurba_marseille","lat":43.267966,"lon":5.393976,"is_reserved":false,"is_disabled":false,"rental_uris":{"android":"levelo://app?vid=3c043c46-5c9d-4689-b65e-a927d49fc926","ios":"levelo://app?vid=3c043c46-5c9d-4689-b65e-a927d49fc926"},"vehicle_type_id":"4","last_reported":1680026943,"current_range_meters":6800,"station_id":"ce4bhh12rcd13ifvqfg0","pricing_plan_id":"free"},{"bike_id":"c189a76a-2bef-40f3-be75-97b4023e72ac","system_id":"levelo_inurba_marseille","lat":43.267966,"lon":5.393976,"is_reserved":false,"is_disabled":false,"rental_uris":{"android":"levelo://app?vid=c189a76a-2bef-40f3-be75-97b4023e72ac","ios":"levelo://app?vid=c189a76a-2bef-40f3-be75-97b4023e72ac"},"vehicle_type_id":"4","last_reported":1680026943,"current_range_meters":0,"station_id":"ce4bhh12rcd13ifvqfg0","pricing_plan_id":"free"},{"bike_id":"54d1d814-ded6-4d65-adc0-6ebd1325a2b4","system_id":"levelo_inurba_marseille","lat":43.331864,"lon":5.431794,"is_reserved":false,"is_disabled":false,"rental_uris":{"android":"levelo://app?vid=54d1d814-ded6-4d65-adc0-6ebd1325a2b4","ios":"levelo://app?vid=54d1d814-ded6-4d65-adc0-6ebd1325a2b4"},"vehicle_type_id":"4","last_reported":1680026943,"current_range_meters":0,"station_id":"","pricing_plan_id":"free"},{"bike_id":"f3af515e-d56e-407c-8520-d57217b5391c","system_id":"levelo_inurba_marseille","lat":43.267959,"lon":5.402687,"is_reserved":false,"is_disabled":false,"rental_uris":{"android":"levelo://app?vid=f3af515e-d56e-407c-8520-d57217b5391c","ios":"levelo://app?vid=f3af515e-d56e-407c-8520-d57217b5391c"},"vehicle_type_id":"4","last_reported":1680026943,"current_range_meters":5200,"station_id":"ce501612rcd8frsf0b60","pricing_plan_id":"free"},{"bike_id":"bead26f2-3d88-4273-ae5a-49cfb8759a2b","system_id":"levelo_inurba_marseille","lat":43.298935,"lon":5.43665,"is_reserved":false,"is_disabled":false,"rental_uris":{"android":"levelo://app?vid=bead26f2-3d88-4273-ae5a-49cfb8759a2b","ios":"levelo://app?vid=bead26f2-3d88-4273-ae5a-49cfb8759a2b"},"vehicle_type_id":"4","last_reported":1680026943,"current_range_meters":14400,"station_id":"","pricing_plan_id":"free"},{"bike_id":"f893f892-fb8d-40e7-8122-2697cffa37d6","system_id":"levelo_inurba_marseille","lat":43.26641,"lon":5.40729,"is_reserved":false,"is_disabled":false,"rental_uris":{"android":"levelo://app?vid=f893f892-fb8d-40e7-8122-2697cffa37d6","ios":"levelo://app?vid=f893f892-fb8d-40e7-8122-2697cffa37d6"},"vehicle_type_id":"4","last_reported":1680026943,"current_range_meters":5200,"station_id":"","pricing_plan_id":"free"},{"bike_id":"eb57fef0-afeb-4689-a93f-3e8d0252607a","system_id":"levelo_inurba_marseille","lat":43.2607,"lon":5.393983,"is_reserved":false,"is_disabled":false,"rental_uris":{"android":"levelo://app?vid=eb57fef0-afeb-4689-a93f-3e8d0252607a","ios":"levelo://app?vid=eb57fef0-afeb-4689-a93f-3e8d0252607a"},"vehicle_type_id":"4","last_reported":1680026943,"current_range_meters":16000,"station_id":"ce4bhh92rcd13ifvqfj0","pricing_plan_id":"free"},{"bike_id":"d590291b-90f8-451a-9910-109c69d29844","system_id":"levelo_inurba_marseille","lat":43.2607,"lon":5.393983,"is_reserved":false,"is_disabled":false,"rental_uris":{"android":"levelo://app?vid=d590291b-90f8-451a-9910-109c69d29844","ios":"levelo://app?vid=d590291b-90f8-451a-9910-109c69d29844"},"vehicle_type_id":"4","last_reported":1680026943,"current_range_meters":1200,"station_id":"ce4bhh92rcd13ifvqfj0","pricing_plan_id":"free"},{"bike_id":"eff52741-2ad6-4d2a-bb30-c3f90ff70a7b","system_id":"levelo_inurba_marseille","lat":43.260909,"lon":5.397591,"is_reserved":false,"is_disabled":false,"rental_uris":{"android":"levelo://app?vid=eff52741-2ad6-4d2a-bb30-c3f90ff70a7b","ios":"levelo://app?vid=eff52741-2ad6-4d2a-bb30-c3f90ff70a7b"},"vehicle_type_id":"4","last_reported":1680026943,"current_range_meters":0,"station_id":"ce4bhi12rcd13ifvqfq0","pricing_plan_id":"free"},{"bike_id":"b61c8e32-1619-451c-b571-28dcfc0085ef","system_id":"levelo_inurba_marseille","lat":43.255875,"lon":5.382222,"is_reserved":false,"is_disabled":false,"rental_uris":{"android":"levelo://app?vid=b61c8e32-1619-451c-b571-28dcfc0085ef","ios":"levelo://app?vid=b61c8e32-1619-451c-b571-28dcfc0085ef"},"vehicle_type_id":"4","last_reported":1680026943,"current_range_meters":4800,"station_id":"ce4bhih2rcd13ifvqfs0","pricing_plan_id":"free"},{"bike_id":"9c90aa12-100a-4098-9dd2-b532c8779dcb","system_id":"levelo_inurba_marseille","lat":43.2558,"lon":5.38231,"is_reserved":false,"is_disabled":false,"rental_uris":{"android":"levelo://app?vid=9c90aa12-100a-4098-9dd2-b532c8779dcb","ios":"levelo://app?vid=9c90aa12-100a-4098-9dd2-b532c8779dcb"},"vehicle_type_id":"4","last_reported":1680026943,"current_range_meters":4800,"station_id":"ce4bhih2rcd13ifvqfs0","pricing_plan_id":"free"},{"bike_id":"2043f004-c08d-4dc9-ab10-145a9e240bb1","system_id":"levelo_inurba_marseille","lat":43.254947,"lon":5.376454,"is_reserved":false,"is_disabled":false,"rental_uris":{"android":"levelo://app?vid=2043f004-c08d-4dc9-ab10-145a9e240bb1","ios":"levelo://app?vid=2043f004-c08d-4dc9-ab10-145a9e240bb1"},"vehicle_type_id":"4","last_reported":1680026943,"current_range_meters":1600,"station_id":"ce4bhh12rcd13ifvqff0","pricing_plan_id":"free"},{"bike_id":"ecd8c598-c27f-4db6-b662-54735341f25b","system_id":"levelo_inurba_marseille","lat":43.270721,"lon":5.422764,"is_reserved":false,"is_disabled":false,"rental_uris":{"android":"levelo://app?vid=ecd8c598-c27f-4db6-b662-54735341f25b","ios":"levelo://app?vid=ecd8c598-c27f-4db6-b662-54735341f25b"},"vehicle_type_id":"4","last_reported":1680026943,"current_range_meters":2000,"station_id":"ce4bhk92rcd13ifvqgb0","pricing_plan_id":"free"},{"bike_id":"fbe82331-c2a3-459f-8a49-8fe77864b651","system_id":"levelo_inurba_marseille","lat":43.24802,"lon":5.37458,"is_reserved":false,"is_disabled":false,"rental_uris":{"android":"levelo://app?vid=fbe82331-c2a3-459f-8a49-8fe77864b651","ios":"levelo://app?vid=fbe82331-c2a3-459f-8a49-8fe77864b651"},"vehicle_type_id":"4","last_reported":1680026943,"current_range_meters":26400,"station_id":"ce4bhgh2rcd13ifvqfb0","pricing_plan_id":"free"},{"bike_id":"07a22d89-c301-4ee0-bf7f-316014f11c0e","system_id":"levelo_inurba_marseille","lat":43.250966,"lon":5.395186,"is_reserved":false,"is_disabled":false,"rental_uris":{"android":"levelo://app?vid=07a22d89-c301-4ee0-bf7f-316014f11c0e","ios":"levelo://app?vid=07a22d89-c301-4ee0-bf7f-316014f11c0e"},"vehicle_type_id":"4","last_reported":1680026943,"current_range_meters":10000,"station_id":"ce4bhm12rcd13ifvqgkg","pricing_plan_id":"free"},{"bike_id":"8225bb61-7747-48c4-9c21-d3960a4f8984","system_id":"levelo_inurba_marseille","lat":43.25126,"lon":5.40316,"is_reserved":false,"is_disabled":false,"rental_uris":{"android":"levelo://app?vid=8225bb61-7747-48c4-9c21-d3960a4f8984","ios":"levelo://app?vid=8225bb61-7747-48c4-9c21-d3960a4f8984"},"vehicle_type_id":"4","last_reported":1680026943,"current_range_meters":8400,"station_id":"","pricing_plan_id":"free"},{"bike_id":"0b3c8d01-91ce-43a3-996f-e71c9972a988","system_id":"levelo_inurba_marseille","lat":43.24665,"lon":5.38171,"is_reserved":false,"is_disabled":false,"rental_uris":{"android":"levelo://app?vid=0b3c8d01-91ce-43a3-996f-e71c9972a988","ios":"levelo://app?vid=0b3c8d01-91ce-43a3-996f-e71c9972a988"},"vehicle_type_id":"4","last_reported":1680026943,"current_range_meters":24000,"station_id":"","pricing_plan_id":"free"},{"bike_id":"59ef8be7-2d8c-4b01-a301-746b37d7b2ad","system_id":"levelo_inurba_marseille","lat":43.25119,"lon":5.40317,"is_reserved":false,"is_disabled":false,"rental_uris":{"android":"levelo://app?vid=59ef8be7-2d8c-4b01-a301-746b37d7b2ad","ios":"levelo://app?vid=59ef8be7-2d8c-4b01-a301-746b37d7b2ad"},"vehicle_type_id":"4","last_reported":1680026943,"current_range_meters":12000,"station_id":"","pricing_plan_id":"free"},{"bike_id":"91f43979-2c3c-443d-a41a-1371be7a07f7","system_id":"levelo_inurba_marseille","lat":43.24693,"lon":5.382096,"is_reserved":false,"is_disabled":false,"rental_uris":{"android":"levelo://app?vid=91f43979-2c3c-443d-a41a-1371be7a07f7","ios":"levelo://app?vid=91f43979-2c3c-443d-a41a-1371be7a07f7"},"vehicle_type_id":"4","last_reported":1680026943,"current_range_meters":20800,"station_id":"ce4bhih2rcd13ifvqfr0","pricing_plan_id":"free"},{"bike_id":"8a37ca0f-42a3-47bc-b6d4-59fc853bee8c","system_id":"levelo_inurba_marseille","lat":43.25102,"lon":5.403214,"is_reserved":false,"is_disabled":false,"rental_uris":{"android":"levelo://app?vid=8a37ca0f-42a3-47bc-b6d4-59fc853bee8c","ios":"levelo://app?vid=8a37ca0f-42a3-47bc-b6d4-59fc853bee8c"},"vehicle_type_id":"4","last_reported":1680026943,"current_range_meters":3200,"station_id":"ce4bhlh2rcd13ifvqgig","pricing_plan_id":"free"},{"bike_id":"7f38c8f0-49bb-4f9c-905a-309b4875e13d","system_id":"levelo_inurba_marseille","lat":43.25102,"lon":5.403214,"is_reserved":false,"is_disabled":false,"rental_uris":{"android":"levelo://app?vid=7f38c8f0-49bb-4f9c-905a-309b4875e13d","ios":"levelo://app?vid=7f38c8f0-49bb-4f9c-905a-309b4875e13d"},"vehicle_type_id":"4","last_reported":1680026943,"current_range_meters":5200,"station_id":"ce4bhlh2rcd13ifvqgig","pricing_plan_id":"free"},{"bike_id":"3ed955a2-a081-4aeb-9a6a-ea3bed6c791b","system_id":"levelo_inurba_marseille","lat":43.25102,"lon":5.403214,"is_reserved":false,"is_disabled":false,"rental_uris":{"android":"levelo://app?vid=3ed955a2-a081-4aeb-9a6a-ea3bed6c791b","ios":"levelo://app?vid=3ed955a2-a081-4aeb-9a6a-ea3bed6c791b"},"vehicle_type_id":"4","last_reported":1680026943,"current_range_meters":25200,"station_id":"ce4bhlh2rcd13ifvqgig","pricing_plan_id":"free"},{"bike_id":"d3cc1b7a-658b-4f08-84db-811e4a8ea45a","system_id":"levelo_inurba_marseille","lat":43.24654,"lon":5.38894,"is_reserved":false,"is_disabled":false,"rental_uris":{"android":"levelo://app?vid=d3cc1b7a-658b-4f08-84db-811e4a8ea45a","ios":"levelo://app?vid=d3cc1b7a-658b-4f08-84db-811e4a8ea45a"},"vehicle_type_id":"4","last_reported":1680026943,"current_range_meters":1600,"station_id":"ce4bhg12rcd13ifvqf60","pricing_plan_id":"free"},{"bike_id":"5fe57790-1b29-45db-baa4-3a16192b7937","system_id":"levelo_inurba_marseille","lat":43.246467,"lon":5.388984,"is_reserved":false,"is_disabled":false,"rental_uris":{"android":"levelo://app?vid=5fe57790-1b29-45db-baa4-3a16192b7937","ios":"levelo://app?vid=5fe57790-1b29-45db-baa4-3a16192b7937"},"vehicle_type_id":"4","last_reported":1680026943,"current_range_meters":22000,"station_id":"ce4bhg12rcd13ifvqf60","pricing_plan_id":"free"},{"bike_id":"fbec3828-cbd0-49fa-935c-81cf478cc93f","system_id":"levelo_inurba_marseille","lat":43.28628,"lon":5.458517,"is_reserved":false,"is_disabled":false,"rental_uris":{"android":"levelo://app?vid=fbec3828-cbd0-49fa-935c-81cf478cc93f","ios":"levelo://app?vid=fbec3828-cbd0-49fa-935c-81cf478cc93f"},"vehicle_type_id":"4","last_reported":1680026943,"current_range_meters":16000,"station_id":"","pricing_plan_id":"free"},{"bike_id":"68e95d69-c5a1-448f-897f-f789059b4331","system_id":"levelo_inurba_marseille","lat":43.240618,"lon":5.377636,"is_reserved":false,"is_disabled":false,"rental_uris":{"android":"levelo://app?vid=68e95d69-c5a1-448f-897f-f789059b4331","ios":"levelo://app?vid=68e95d69-c5a1-448f-897f-f789059b4331"},"vehicle_type_id":"4","last_reported":1680026943,"current_range_meters":5600,"station_id":"ce4bhnp2rcd13ifvqgvg","pricing_plan_id":"free"},{"bike_id":"0bb1b952-31c2-4452-82df-62f9cbbbc393","system_id":"levelo_inurba_marseille","lat":43.239588,"lon":5.366238,"is_reserved":false,"is_disabled":false,"rental_uris":{"android":"levelo://app?vid=0bb1b952-31c2-4452-82df-62f9cbbbc393","ios":"levelo://app?vid=0bb1b952-31c2-4452-82df-62f9cbbbc393"},"vehicle_type_id":"4","last_reported":1680026943,"current_range_meters":11200,"station_id":"ce4bhi12rcd13ifvqfp0","pricing_plan_id":"free"},{"bike_id":"169dad92-7fff-4eef-9af3-ca67f1843622","system_id":"levelo_inurba_marseille","lat":43.239588,"lon":5.366238,"is_reserved":false,"is_disabled":false,"rental_uris":{"android":"levelo://app?vid=169dad92-7fff-4eef-9af3-ca67f1843622","ios":"levelo://app?vid=169dad92-7fff-4eef-9af3-ca67f1843622"},"vehicle_type_id":"4","last_reported":1680026943,"current_range_meters":3600,"station_id":"ce4bhi12rcd13ifvqfp0","pricing_plan_id":"free"},{"bike_id":"d85067be-331a-4730-8cc0-d151e3cb52b5","system_id":"levelo_inurba_marseille","lat":43.239588,"lon":5.366238,"is_reserved":false,"is_disabled":false,"rental_uris":{"android":"levelo://app?vid=d85067be-331a-4730-8cc0-d151e3cb52b5","ios":"levelo://app?vid=d85067be-331a-4730-8cc0-d151e3cb52b5"},"vehicle_type_id":"4","last_reported":1680026943,"current_range_meters":2000,"station_id":"ce4bhi12rcd13ifvqfp0","pricing_plan_id":"free"},{"bike_id":"27e57797-6a2e-48ca-ba4f-aba467fab020","system_id":"levelo_inurba_marseille","lat":43.24419,"lon":5.40346,"is_reserved":false,"is_disabled":false,"rental_uris":{"android":"levelo://app?vid=27e57797-6a2e-48ca-ba4f-aba467fab020","ios":"levelo://app?vid=27e57797-6a2e-48ca-ba4f-aba467fab020"},"vehicle_type_id":"4","last_reported":1680026943,"current_range_meters":0,"station_id":"","pricing_plan_id":"free"},{"bike_id":"bc126bff-078a-434d-b04b-b1ee3cef5a29","system_id":"levelo_inurba_marseille","lat":43.243811,"lon":5.402993,"is_reserved":false,"is_disabled":false,"rental_uris":{"android":"levelo://app?vid=bc126bff-078a-434d-b04b-b1ee3cef5a29","ios":"levelo://app?vid=bc126bff-078a-434d-b04b-b1ee3cef5a29"},"vehicle_type_id":"4","last_reported":1680026943,"current_range_meters":2000,"station_id":"","pricing_plan_id":"free"},{"bike_id":"afa32105-5409-41a9-b0fe-d2fac594821b","system_id":"levelo_inurba_marseille","lat":43.288107,"lon":5.466367,"is_reserved":false,"is_disabled":false,"rental_uris":{"android":"levelo://app?vid=afa32105-5409-41a9-b0fe-d2fac594821b","ios":"levelo://app?vid=afa32105-5409-41a9-b0fe-d2fac594821b"},"vehicle_type_id":"4","last_reported":1680026943,"current_range_meters":0,"station_id":"","pricing_plan_id":"free"},{"bike_id":"15ca304b-77d2-4187-b0d4-f1676325e7d3","system_id":"levelo_inurba_marseille","lat":43.231919,"lon":5.355532,"is_reserved":false,"is_disabled":false,"rental_uris":{"android":"levelo://app?vid=15ca304b-77d2-4187-b0d4-f1676325e7d3","ios":"levelo://app?vid=15ca304b-77d2-4187-b0d4-f1676325e7d3"},"vehicle_type_id":"4","last_reported":1680026943,"current_range_meters":11200,"station_id":"ce4bhu92rcd13ifvqi70","pricing_plan_id":"free"},{"bike_id":"19eeff66-4e69-4de8-806b-b8f9ed601c34","system_id":"levelo_inurba_marseille","lat":43.231923,"lon":5.355545,"is_reserved":false,"is_disabled":false,"rental_uris":{"android":"levelo://app?vid=19eeff66-4e69-4de8-806b-b8f9ed601c34","ios":"levelo://app?vid=19eeff66-4e69-4de8-806b-b8f9ed601c34"},"vehicle_type_id":"4","last_reported":1680026943,"current_range_meters":28400,"station_id":"ce4bhu92rcd13ifvqi70","pricing_plan_id":"free"},{"bike_id":"e4f8c274-36d7-4111-80af-756b54d4a4ef","system_id":"levelo_inurba_marseille","lat":43.231923,"lon":5.355545,"is_reserved":false,"is_disabled":false,"rental_uris":{"android":"levelo://app?vid=e4f8c274-36d7-4111-80af-756b54d4a4ef","ios":"levelo://app?vid=e4f8c274-36d7-4111-80af-756b54d4a4ef"},"vehicle_type_id":"4","last_reported":1680026943,"current_range_meters":25200,"station_id":"ce4bhu92rcd13ifvqi70","pricing_plan_id":"free"},{"bike_id":"0594c822-83df-4926-987a-d6ba87f26397","system_id":"levelo_inurba_marseille","lat":43.231919,"lon":5.355532,"is_reserved":false,"is_disabled":false,"rental_uris":{"android":"levelo://app?vid=0594c822-83df-4926-987a-d6ba87f26397","ios":"levelo://app?vid=0594c822-83df-4926-987a-d6ba87f26397"},"vehicle_type_id":"4","last_reported":1680026943,"current_range_meters":400,"station_id":"ce4bhu92rcd13ifvqi70","pricing_plan_id":"free"},{"bike_id":"8f9acbac-87f4-4f83-8544-4862dc7c30bd","system_id":"levelo_inurba_marseille","lat":43.231923,"lon":5.355545,"is_reserved":false,"is_disabled":false,"rental_uris":{"android":"levelo://app?vid=8f9acbac-87f4-4f83-8544-4862dc7c30bd","ios":"levelo://app?vid=8f9acbac-87f4-4f83-8544-4862dc7c30bd"},"vehicle_type_id":"4","last_reported":1680026943,"current_range_meters":5600,"station_id":"ce4bhu92rcd13ifvqi70","pricing_plan_id":"free"},{"bike_id":"eba12d81-c0d7-4ae6-bbb9-fa221825e389","system_id":"levelo_inurba_marseille","lat":43.284621,"lon":5.486921,"is_reserved":false,"is_disabled":false,"rental_uris":{"android":"levelo://app?vid=eba12d81-c0d7-4ae6-bbb9-fa221825e389","ios":"levelo://app?vid=eba12d81-c0d7-4ae6-bbb9-fa221825e389"},"vehicle_type_id":"4","last_reported":1680026943,"current_range_meters":0,"station_id":"","pricing_plan_id":"free"}]}}