{"last_updated":1734355305,"ttl":60,"version":"2.2","data":{"bikes":[{"bike_id":"61d772b3-e172-4f5d-8778-5fb43be913c2","system_id":"levelo_inurba_marseille","lat":43.27069,"lon":5.42279,"is_reserved":false,"is_disabled":false,"rental_uris":{"android":"levelo://app?vid=61d772b3-e172-4f5d-8778-5fb43be913c2","ios":"levelo://app?vid=61d772b3-e172-4f5d-8778-5fb43be913c2"},"vehicle_type_id":"4","last_reported":1734355305,"current_range_meters":37600,"station_id":"ce4bhk92rcd13ifvqgb0","pricing_plan_id":"cebpf4jnsgd1na2vs0mg"},{"bike_id":"2d8d0d7b-8b60-4ffd-95db-348f70eba40e","system_id":"levelo_inurba_marseille","lat":43.24383,"lon":5.37058,"is_reserved":false,"is_disabled":false,"rental_uris":{"android":"levelo://app?vid=2d8d0d7b-8b60-4ffd-95db-348f70eba40e","ios":"levelo://app?vid=2d8d0d7b-8b60-4ffd-95db-348f70eba40e"},"vehicle_type_id":"4","last_reported":1734355305,"current_range_meters":35200,"station_id":"ce4bhhh2rcd13ifvqfk0","pricing_plan_id":"cebpf4jnsgd1na2vs0mg"},{"bike_id":"95103549-a524-4af1-b7f4-c8cb670ffb4b","system_id":"levelo_inurba_marseille","lat":43.24074,"lon":5.37753,"is_reserved":false,"is_disabled":false,"rental_uris":{"android":"levelo://app?vid=95103549-a524-4af1-b7f4-c8cb670ffb4b","ios":"levelo://app?vid=95103549-a524-4af1-b7f4-c8cb670ffb4b"},"vehicle_type_id":"4","last_reported":1734355305,"current_range_meters":28400,"station_id":"ce4bhnp2rcd13ifvqgvg","pricing_plan_id":"cebpf4jnsgd1na2vs0mg"},{"bike_id":"6b6f81c7-d9fa-4a2b-ace0-a3d3bae6341c","system_id":"levelo_inurba_marseille","lat":43.30163,"lon":5.36637,"is_reserved":false,"is_disabled":false,"rental_uris":{"android":"levelo://app?vid=6b6f81c7-d9fa-4a2b-ace0-a3d3bae6341c","ios":"levelo://app?vid=6b6f81c7-d9fa-4a2b-ace0-a3d3bae6341c"},"vehicle_type_id":"4","last_reported":1734355305,"current_range_meters":10000,"station_id":"ce4bgrh2rcd13ifvqc8g","pricing_plan_id":"cebpf4jnsgd1na2vs0mg"},{"bike_id":"49735576-98af-4537-b127-26ad7906beaf","system_id":"levelo_inurba_marseille","lat":43.26052,"lon":5.39399,"is_reserved":false,"is_disabled":false,"rental_uris":{"android":"levelo://app?vid=49735576-98af-4537-b127-26ad7906beaf","ios":"levelo://app?vid=49735576-98af-4537-b127-26ad7906beaf"},"vehicle_type_id":"4","last_reported":1734355305,"current_range_meters":26000,"station_id":"ce4bhh92rcd13ifvqfj0","pricing_plan_id":"cebpf4jnsgd1na2vs0mg"},{"bike_id":"e9e03a98-b8ca-4a16-b3ec-509cc4932a33","system_id":"levelo_inurba_marseille","lat":43.29799,"lon":5.38094,"is_reserved":false,"is_disabled":false,"rental_uris":{"android":"levelo://app?vid=e9e03a98-b8ca-4a16-b3ec-509cc4932a33","ios":"levelo://app?vid=e9e03a98-b8ca-4a16-b3ec-509cc4932a33"},"vehicle_type_id":"4","last_reported":1734355305,"current_range_meters":5600,"station_id":"ce4bgip2rcd13ifvqbb0","pricing_plan_id":"cebpf4jnsgd1na2vs0mg"},{"bike_id":"c502f606-0c13-49c8-b42f-08ae57c6da28","system_id":"levelo_inurba_marseille","lat":43.24071,"lon":5.37747,"is_reserved":false,"is_disabled":false,"rental_uris":{"android":"levelo://app?vid=c502f606-0c13-49c8-b42f-08ae57c6da28","ios":"levelo://app?vid=c502f606-0c13-49c8-b42f-08ae57c6da28"},"vehicle_type_id":"4","last_reported":1734355305,"current_range_meters":39200,"station_id":"ce4bhnp2rcd13ifvqgvg","pricing_plan_id":"cebpf4jnsgd1na2vs0mg"},{"bike_id":"2a2dfee7-e8bd-4670-b2f4-34d6ff663d8b","system_id":"levelo_inurba_marseille","lat":43.28523,"lon":5.38025,"is_reserved":false,"is_disabled":true,"rental_uris":{"android":"levelo://app?vid=2a2dfee7-e8bd-4670-b2f4-34d6ff663d8b","ios":"levelo://app?vid=2a2dfee7-e8bd-4670-b2f4-34d6ff663d8b"},"vehicle_type_id":"4","last_reported":1734355305,"current_range_meters":24800,"station_id":"","pricing_plan_id":"cebpf4jnsgd1na2vs0mg"},{"bike_id":"84fbcc9e-d5e8-4a22-a782-921b34bb6a0a","system_id":"levelo_inurba_marseille","lat":43.29716,"lon":5.36627,"is_reserved":false,"is_disabled":false,"rental_uris":{"android":"levelo://app?vid=84fbcc9e-d5e8-4a22-a782-921b34bb6a0a","ios":"levelo://app?vid=84fbcc9e-d5e8-4a22-a782-921b34bb6a0a"},"vehicle_type_id":"4","last_reported":1734355305,"current_range_meters":37600,"station_id":"ce4bgn12rcd13ifvqbt0","pricing_plan_id":"cebpf4jnsgd1na2vs0mg"},{"bike_id":"01cd336e-0d0d-4252-b249-bfd3753a9ae2","system_id":"levelo_inurba_marseille","lat":43.3001,"lon":5.37722,"is_reserved":false,"is_disabled":true,"rental_uris":{"android":"levelo://app?vid=01cd336e-0d0d-4252-b249-bfd3753a9ae2","ios":"levelo://app?vid=01cd336e-0d0d-4252-b249-bfd3753a9ae2"},"vehicle_type_id":"4","last_reported":1734355305,"current_range_meters":10000,"station_id":"","pricing_plan_id":"cebpf4jnsgd1na2vs0mg"},{"bike_id":"68318da2-404d-4277-bcad-71c1cc0f38c8","system_id":"levelo_inurba_marseille","lat":43.27225,"lon":5.39202,"is_reserved":false,"is_disabled":false,"rental_uris":{"android":"levelo://app?vid=68318da2-404d-4277-bcad-71c1cc0f38c8","ios":"levelo://app?vid=68318da2-404d-4277-bcad-71c1cc0f38c8"},"vehicle_type_id":"4","last_reported":1734355305,"current_range_meters":16800,"station_id":"ce4bhhp2rcd13ifvqfm0","pricing_plan_id":"cebpf4jnsgd1na2vs0mg"},{"bike_id":"c8df81c4-c005-46f0-96a4-0d7a47738bee","system_id":"levelo_inurba_marseille","lat":43.25935,"lon":5.40901,"is_reserved":false,"is_disabled":false,"rental_uris":{"android":"levelo://app?vid=c8df81c4-c005-46f0-96a4-0d7a47738bee","ios":"levelo://app?vid=c8df81c4-c005-46f0-96a4-0d7a47738bee"},"vehicle_type_id":"4","last_reported":1734355305,"current_range_meters":38800,"station_id":"ce4bhm92rcd13ifvqglg","pricing_plan_id":"cebpf4jnsgd1na2vs0mg"},{"bike_id":"2aabb9e3-ae45-4b17-b10d-af50e235d80a","system_id":"levelo_inurba_marseille","lat":43.26786,"lon":5.39929,"is_reserved":false,"is_disabled":true,"rental_uris":{"android":"levelo://app?vid=2aabb9e3-ae45-4b17-b10d-af50e235d80a","ios":"levelo://app?vid=2aabb9e3-ae45-4b17-b10d-af50e235d80a"},"vehicle_type_id":"4","last_reported":1734355305,"current_range_meters":0,"station_id":"","pricing_plan_id":"cebpf4jnsgd1na2vs0mg"},{"bike_id":"c7bab647-3db4-4864-b905-5cb5e805eae3","system_id":"levelo_inurba_marseille","lat":43.27052,"lon":5.40261,"is_reserved":false,"is_disabled":true,"rental_uris":{"android":"levelo://app?vid=c7bab647-3db4-4864-b905-5cb5e805eae3","ios":"levelo://app?vid=c7bab647-3db4-4864-b905-5cb5e805eae3"},"vehicle_type_id":"4","last_reported":1734355305,"current_range_meters":0,"station_id":"ce4bhk92rcd13ifvqgc0","pricing_plan_id":"cebpf4jnsgd1na2vs0mg"},{"bike_id":"fa2e65c9-0662-4573-af76-4403fbb12936","system_id":"levelo_inurba_marseille","lat":43.28505,"lon":5.35075,"is_reserved":false,"is_disabled":false,"rental_uris":{"android":"levelo://app?vid=fa2e65c9-0662-4573-af76-4403fbb12936","ios":"levelo://app?vid=fa2e65c9-0662-4573-af76-4403fbb12936"},"vehicle_type_id":"4","last_reported":1734355305,"current_range_meters":33600,"station_id":"","pricing_plan_id":"cebpf4jnsgd1na2vs0mg"},{"bike_id":"e4ed19cb-ad40-45e1-96c0-b543d3e0a25d","system_id":"levelo_inurba_marseille","lat":43.28931,"lon":5.36407,"is_reserved":false,"is_disabled":false,"rental_uris":{"android":"levelo://app?vid=e4ed19cb-ad40-45e1-96c0-b543d3e0a25d","ios":"levelo://app?vid=e4ed19cb-ad40-45e1-96c0-b543d3e0a25d"},"vehicle_type_id":"4","last_reported":1734355305,"current_range_meters":20800,"station_id":"ce4bhc92rcd13ifvqetg","pricing_plan_id":"cebpf4jnsgd1na2vs0mg"},{"bike_id":"c1d8c97e-0aee-4485-b1e2-5c3c6bb42d47","system_id":"levelo_inurba_marseille","lat":43.27918,"lon":5.39589,"is_reserved":false,"is_disabled":false,"rental_uris":{"android":"levelo://app?vid=c1d8c97e-0aee-4485-b1e2-5c3c6bb42d47","ios":"levelo://app?vid=c1d8c97e-0aee-4485-b1e2-5c3c6bb42d47"},"vehicle_type_id":"4","last_reported":1734355305,"current_range_meters":36800,"station_id":"ce4bhf92rcd13ifvqf40","pricing_plan_id":"cebpf4jnsgd1na2vs0mg"},{"bike_id":"b97817f0-2dad-46f6-95f8-44c839ef9d31","system_id":"levelo_inurba_marseille","lat":43.29619,"lon":5.37161,"is_reserved":false,"is_disabled":false,"rental_uris":{"android":"levelo://app?vid=b97817f0-2dad-46f6-95f8-44c839ef9d31","ios":"levelo://app?vid=b97817f0-2dad-46f6-95f8-44c839ef9d31"},"vehicle_type_id":"4","last_reported":1734355305,"current_range_meters":38000,"station_id":"ce4bgnh2rcd13ifvqc0g","pricing_plan_id":"cebpf4jnsgd1na2vs0mg"},{"bike_id":"7bec5294-99b2-4c08-a2d1-86eb07092a91","system_id":"levelo_inurba_marseille","lat":43.28097,"lon":5.37854,"is_reserved":false,"is_disabled":false,"rental_uris":{"android":"levelo://app?vid=7bec5294-99b2-4c08-a2d1-86eb07092a91","ios":"levelo://app?vid=7bec5294-99b2-4c08-a2d1-86eb07092a91"},"vehicle_type_id":"4","last_reported":1734355305,"current_range_meters":38800,"station_id":"ce4bha12rcd13ifvqee0","pricing_plan_id":"cebpf4jnsgd1na2vs0mg"},{"bike_id":"08919507-6ebe-4cdd-8968-ef92be2d0f4d","system_id":"levelo_inurba_marseille","lat":43.3123,"lon":5.36839,"is_reserved":false,"is_disabled":false,"rental_uris":{"android":"levelo://app?vid=08919507-6ebe-4cdd-8968-ef92be2d0f4d","ios":"levelo://app?vid=08919507-6ebe-4cdd-8968-ef92be2d0f4d"},"vehicle_type_id":"4","last_reported":1734355305,"current_range_meters":16400,"station_id":"ce4bgl92rcd13ifvqbq0","pricing_plan_id":"cebpf4jnsgd1na2vs0mg"},{"bike_id":"6dbf5ad5-d144-4d56-9e8f-ac8d59dc4a56","system_id":"levelo_inurba_marseille","lat":43.29904,"lon":5.37485,"is_reserved":false,"is_disabled":false,"rental_uris":{"android":"levelo://app?vid=6dbf5ad5-d144-4d56-9e8f-ac8d59dc4a56","ios":"levelo://app?vid=6dbf5ad5-d144-4d56-9e8f-ac8d59dc4a56"},"vehicle_type_id":"4","last_reported":1734355305,"current_range_meters":8800,"station_id":"ce4bgjh2rcd13ifvqbg0","pricing_plan_id":"cebpf4jnsgd1na2vs0mg"},{"bike_id":"cad7719d-6bdb-48ae-8920-e62428891cbb","system_id":"levelo_inurba_marseille","lat":43.28027,"lon":5.44111,"is_reserved":false,"is_disabled":true,"rental_uris":{"android":"levelo://app?vid=cad7719d-6bdb-48ae-8920-e62428891cbb","ios":"levelo://app?vid=cad7719d-6bdb-48ae-8920-e62428891cbb"},"vehicle_type_id":"4","last_reported":1734355305,"current_range_meters":0,"station_id":"","pricing_plan_id":"cebpf4jnsgd1na2vs0mg"},{"bike_id":"5ac93bb9-59e7-46f2-8996-199188cdbf4b","system_id":"levelo_inurba_marseille","lat":43.305483,"lon":5.365481,"is_reserved":false,"is_disabled":false,"rental_uris":{"android":"levelo://app?vid=5ac93bb9-59e7-46f2-8996-199188cdbf4b","ios":"levelo://app?vid=5ac93bb9-59e7-46f2-8996-199188cdbf4b"},"vehicle_type_id":"4","last_reported":1734355305,"current_range_meters":36400,"station_id":"ce4bgs12rcd13ifvqcag","pricing_plan_id":"cebpf4jnsgd1na2vs0mg"},{"bike_id":"8b266861-ab5e-46e4-8cc3-061a8bc3872d","system_id":"levelo_inurba_marseille","lat":43.24664,"lon":5.3816,"is_reserved":false,"is_disabled":false,"rental_uris":{"android":"levelo://app?vid=8b266861-ab5e-46e4-8cc3-061a8bc3872d","ios":"levelo://app?vid=8b266861-ab5e-46e4-8cc3-061a8bc3872d"},"vehicle_type_id":"4","last_reported":1734355305,"current_range_meters":26000,"station_id":"ce4bhih2rcd13ifvqfr0","pricing_plan_id":"cebpf4jnsgd1na2vs0mg"},{"bike_id":"8c661a81-aa0f-4e45-ab1f-653e920751fb","system_id":"levelo_inurba_marseille","lat":43.30909,"lon":5.3684,"is_reserved":false,"is_disabled":false,"rental_uris":{"android":"levelo://app?vid=8c661a81-aa0f-4e45-ab1f-653e920751fb","ios":"levelo://app?vid=8c661a81-aa0f-4e45-ab1f-653e920751fb"},"vehicle_type_id":"4","last_reported":1734355305,"current_range_meters":22800,"station_id":"ce4bgn92rcd13ifvqbvg","pricing_plan_id":"cebpf4jnsgd1na2vs0mg"},{"bike_id":"a4d60c42-6073-4a60-b1b2-df5e82d47efa","system_id":"levelo_inurba_marseille","lat":43.27167,"lon":5.41001,"is_reserved":false,"is_disabled":false,"rental_uris":{"android":"levelo://app?vid=a4d60c42-6073-4a60-b1b2-df5e82d47efa","ios":"levelo://app?vid=a4d60c42-6073-4a60-b1b2-df5e82d47efa"},"vehicle_type_id":"4","last_reported":1734355305,"current_range_meters":36800,"station_id":"ce4bhl12rcd13ifvqgf0","pricing_plan_id":"cebpf4jnsgd1na2vs0mg"},{"bike_id":"215c011f-dabf-4b06-a7fd-2279d6590f33","system_id":"levelo_inurba_marseille","lat":43.26555,"lon":5.3729,"is_reserved":false,"is_disabled":false,"rental_uris":{"android":"levelo://app?vid=215c011f-dabf-4b06-a7fd-2279d6590f33","ios":"levelo://app?vid=215c011f-dabf-4b06-a7fd-2279d6590f33"},"vehicle_type_id":"4","last_reported":1734355305,"current_range_meters":36400,"station_id":"ce4bhg12rcd13ifvqf70","pricing_plan_id":"cebpf4jnsgd1na2vs0mg"},{"bike_id":"4deb15ef-079e-44d5-9289-1d9084b509a7","system_id":"levelo_inurba_marseille","lat":43.31301,"lon":5.36955,"is_reserved":false,"is_disabled":false,"rental_uris":{"android":"levelo://app?vid=4deb15ef-079e-44d5-9289-1d9084b509a7","ios":"levelo://app?vid=4deb15ef-079e-44d5-9289-1d9084b509a7"},"vehicle_type_id":"4","last_reported":1734355305,"current_range_meters":37600,"station_id":"","pricing_plan_id":"cebpf4jnsgd1na2vs0mg"},{"bike_id":"d5c89c1f-3bad-4af2-9449-e04c277a4696","system_id":"levelo_inurba_marseille","lat":43.29957,"lon":5.41338,"is_reserved":false,"is_disabled":true,"rental_uris":{"android":"levelo://app?vid=d5c89c1f-3bad-4af2-9449-e04c277a4696","ios":"levelo://app?vid=d5c89c1f-3bad-4af2-9449-e04c277a4696"},"vehicle_type_id":"4","last_reported":1734355305,"current_range_meters":34800,"station_id":"ce4bhp12rcd13ifvqh9g","pricing_plan_id":"cebpf4jnsgd1na2vs0mg"},{"bike_id":"fd31a5dc-7bc2-4416-b1c0-1fbc9c5dd24c","system_id":"levelo_inurba_marseille","lat":43.273258,"lon":5.39058,"is_reserved":false,"is_disabled":false,"rental_uris":{"android":"levelo://app?vid=fd31a5dc-7bc2-4416-b1c0-1fbc9c5dd24c","ios":"levelo://app?vid=fd31a5dc-7bc2-4416-b1c0-1fbc9c5dd24c"},"vehicle_type_id":"4","last_reported":1734355305,"current_range_meters":38800,"station_id":"ce4bhgp2rcd13ifvqfe0","pricing_plan_id":"cebpf4jnsgd1na2vs0mg"},{"bike_id":"7375be9c-7b03-4ee6-b6c9-51205081fc00","system_id":"levelo_inurba_marseille","lat":43.32558,"lon":5.41445,"is_reserved":false,"is_disabled":true,"rental_uris":{"android":"levelo://app?vid=7375be9c-7b03-4ee6-b6c9-51205081fc00","ios":"levelo://app?vid=7375be9c-7b03-4ee6-b6c9-51205081fc00"},"vehicle_type_id":"4","last_reported":1734355305,"current_range_meters":36800,"station_id":"ce4bhq12rcd13ifvqhhg","pricing_plan_id":"cebpf4jnsgd1na2vs0mg"},{"bike_id":"00470025-0594-4fc8-bb13-03b023b393ad","system_id":"levelo_inurba_marseille","lat":43.23061,"lon":5.35496,"is_reserved":false,"is_disabled":false,"rental_uris":{"android":"levelo://app?vid=00470025-0594-4fc8-bb13-03b023b393ad","ios":"levelo://app?vid=00470025-0594-4fc8-bb13-03b023b393ad"},"vehicle_type_id":"4","last_reported":1734355305,"current_range_meters":27600,"station_id":"cpo3342slgdg3j2ifvpg","pricing_plan_id":"cebpf4jnsgd1na2vs0mg"},{"bike_id":"645234d5-1ba6-47d0-a264-332279a70988","system_id":"levelo_inurba_marseille","lat":43.30801,"lon":5.38009,"is_reserved":false,"is_disabled":false,"rental_uris":{"android":"levelo://app?vid=645234d5-1ba6-47d0-a264-332279a70988","ios":"levelo://app?vid=645234d5-1ba6-47d0-a264-332279a70988"},"vehicle_type_id":"4","last_reported":1734355305,"current_range_meters":12800,"station_id":"","pricing_plan_id":"cebpf4jnsgd1na2vs0mg"},{"bike_id":"e209b4cc-b597-4646-9ecd-9f5a1bd9a464","system_id":"levelo_inurba_marseille","lat":43.33785,"lon":5.42104,"is_reserved":false,"is_disabled":true,"rental_uris":{"android":"levelo://app?vid=e209b4cc-b597-4646-9ecd-9f5a1bd9a464","ios":"levelo://app?vid=e209b4cc-b597-4646-9ecd-9f5a1bd9a464"},"vehicle_type_id":"4","last_reported":1734355305,"current_range_meters":800,"station_id":"","pricing_plan_id":"cebpf4jnsgd1na2vs0mg"},{"bike_id":"bb1e5e2b-563b-4087-8f77-4e42968cd1fc","system_id":"levelo_inurba_marseille","lat":43.2345,"lon":5.43623,"is_reserved":false,"is_disabled":false,"rental_uris":{"android":"levelo://app?vid=bb1e5e2b-563b-4087-8f77-4e42968cd1fc","ios":"levelo://app?vid=bb1e5e2b-563b-4087-8f77-4e42968cd1fc"},"vehicle_type_id":"4","last_reported":1734355305,"current_range_meters":24000,"station_id":"","pricing_plan_id":"cebpf4jnsgd1na2vs0mg"},{"bike_id":"d32933c0-3f34-461b-87d7-5d7f77249757","system_id":"levelo_inurba_marseille","lat":43.30126,"lon":5.37425,"is_reserved":false,"is_disabled":false,"rental_uris":{"android":"levelo://app?vid=d32933c0-3f34-461b-87d7-5d7f77249757","ios":"levelo://app?vid=d32933c0-3f34-461b-87d7-5d7f77249757"},"vehicle_type_id":"4","last_reported":1734355305,"current_range_meters":32000,"station_id":"ce4bgs92rcd13ifvqcc0","pricing_plan_id":"cebpf4jnsgd1na2vs0mg"},{"bike_id":"319a3701-b684-4758-bf5d-fed38e475d1c","system_id":"levelo_inurba_marseille","lat":43.25087,"lon":5.39512,"is_reserved":false,"is_disabled":true,"rental_uris":{"android":"levelo://app?vid=319a3701-b684-4758-bf5d-fed38e475d1c","ios":"levelo://app?vid=319a3701-b684-4758-bf5d-fed38e475d1c"},"vehicle_type_id":"4","last_reported":1734355305,"current_range_meters":33200,"station_id":"ce4bhm12rcd13ifvqgkg","pricing_plan_id":"cebpf4jnsgd1na2vs0mg"},{"bike_id":"90840894-71d3-4480-8ec2-a1662590942a","system_id":"levelo_inurba_marseille","lat":43.28935,"lon":5.36631,"is_reserved":false,"is_disabled":true,"rental_uris":{"android":"levelo://app?vid=90840894-71d3-4480-8ec2-a1662590942a","ios":"levelo://app?vid=90840894-71d3-4480-8ec2-a1662590942a"},"vehicle_type_id":"4","last_reported":1734355305,"current_range_meters":0,"station_id":"ce4bhap2rcd13ifvqek0","pricing_plan_id":"cebpf4jnsgd1na2vs0mg"},{"bike_id":"29cc7253-7f35-4a45-87d9-55fd62645ea1","system_id":"levelo_inurba_marseille","lat":43.30276,"lon":5.37711,"is_reserved":false,"is_disabled":false,"rental_uris":{"android":"levelo://app?vid=29cc7253-7f35-4a45-87d9-55fd62645ea1","ios":"levelo://app?vid=29cc7253-7f35-4a45-87d9-55fd62645ea1"},"vehicle_type_id":"4","last_reported":1734355305,"current_range_meters":27200,"station_id":"ce4bguh2rcd13ifvqcj0","pricing_plan_id":"cebpf4jnsgd1na2vs0mg"},{"bike_id":"9fd70b66-3006-4e3f-b697-c7eb4fff79ae","system_id":"levelo_inurba_marseille","lat":43.28096,"lon":5.37844,"is_reserved":false,"is_disabled":false,"rental_uris":{"android":"levelo://app?vid=9fd70b66-3006-4e3f-b697-c7eb4fff79ae","ios":"levelo://app?vid=9fd70b66-3006-4e3f-b697-c7eb4fff79ae"},"vehicle_type_id":"4","last_reported":1734355305,"current_range_meters":24000,"station_id":"ce4bha12rcd13ifvqee0","pricing_plan_id":"cebpf4jnsgd1na2vs0mg"},{"bike_id":"0dc9c57d-cee6-427b-8f00-d9d81f8f836e","system_id":"levelo_inurba_marseille","lat":43.23185,"lon":5.39985,"is_reserved":false,"is_disabled":false,"rental_uris":{"android":"levelo://app?vid=0dc9c57d-cee6-427b-8f00-d9d81f8f836e","ios":"levelo://app?vid=0dc9c57d-cee6-427b-8f00-d9d81f8f836e"},"vehicle_type_id":"4","last_reported":1734355305,"current_range_meters":33200,"station_id":"ce4bhn12rcd13ifvqgqg","pricing_plan_id":"cebpf4jnsgd1na2vs0mg"},{"bike_id":"e3ce1f04-3f88-431a-ab9f-947d6e2f270c","system_id":"levelo_inurba_marseille","lat":43.3372,"lon":5.39187,"is_reserved":false,"is_disabled":false,"rental_uris":{"android":"levelo://app?vid=e3ce1f04-3f88-431a-ab9f-947d6e2f270c","ios":"levelo://app?vid=e3ce1f04-3f88-431a-ab9f-947d6e2f270c"},"vehicle_type_id":"4","last_reported":1734355305,"current_range_meters":39200,"station_id":"ce4bhr92rcd13ifvqhsg","pricing_plan_id":"cebpf4jnsgd1na2vs0mg"},{"bike_id":"40bb8414-eac1-490f-aaaf-95fb0f2b06a2","system_id":"levelo_inurba_marseille","lat":43.31342,"lon":5.36709,"is_reserved":false,"is_disabled":false,"rental_uris":{"android":"levelo://app?vid=40bb8414-eac1-490f-aaaf-95fb0f2b06a2","ios":"levelo://app?vid=40bb8414-eac1-490f-aaaf-95fb0f2b06a2"},"vehicle_type_id":"4","last_reported":1734355305,"current_range_meters":15200,"station_id":"ce4bgr92rcd13ifvqc6g","pricing_plan_id":"cebpf4jnsgd1na2vs0mg"},{"bike_id":"e4445775-7d48-4b97-a7d4-cc20c4ccd0d8","system_id":"levelo_inurba_marseille","lat":43.31185,"lon":5.37223,"is_reserved":false,"is_disabled":false,"rental_uris":{"android":"levelo://app?vid=e4445775-7d48-4b97-a7d4-cc20c4ccd0d8","ios":"levelo://app?vid=e4445775-7d48-4b97-a7d4-cc20c4ccd0d8"},"vehicle_type_id":"4","last_reported":1734355305,"current_range_meters":36400,"station_id":"","pricing_plan_id":"cebpf4jnsgd1na2vs0mg"},{"bike_id":"2dffbbaa-0c94-43eb-9670-ed3959c2eb0d","system_id":"levelo_inurba_marseille","lat":43.30547,"lon":5.36538,"is_reserved":false,"is_disabled":false,"rental_uris":{"android":"levelo://app?vid=2dffbbaa-0c94-43eb-9670-ed3959c2eb0d","ios":"levelo://app?vid=2dffbbaa-0c94-43eb-9670-ed3959c2eb0d"},"vehicle_type_id":"4","last_reported":1734355305,"current_range_meters":8800,"station_id":"ce4bgs12rcd13ifvqcag","pricing_plan_id":"cebpf4jnsgd1na2vs0mg"},{"bike_id":"8e24cb6d-8393-4664-8e69-5202e693624e","system_id":"levelo_inurba_marseille","lat":43.24082,"lon":5.37745,"is_reserved":false,"is_disabled":false,"rental_uris":{"android":"levelo://app?vid=8e24cb6d-8393-4664-8e69-5202e693624e","ios":"levelo://app?vid=8e24cb6d-8393-4664-8e69-5202e693624e"},"vehicle_type_id":"4","last_reported":1734355305,"current_range_meters":14400,"station_id":"ce4bhnp2rcd13ifvqgvg","pricing_plan_id":"cebpf4jnsgd1na2vs0mg"},{"bike_id":"4d3bb010-ebb5-4f15-bd04-2b6f47daf220","system_id":"levelo_inurba_marseille","lat":43.29301,"lon":5.37162,"is_reserved":false,"is_disabled":true,"rental_uris":{"android":"levelo://app?vid=4d3bb010-ebb5-4f15-bd04-2b6f47daf220","ios":"levelo://app?vid=4d3bb010-ebb5-4f15-bd04-2b6f47daf220"},"vehicle_type_id":"4","last_reported":1734355305,"current_range_meters":22000,"station_id":"ce4bgh92rcd13ifvqb40","pricing_plan_id":"cebpf4jnsgd1na2vs0mg"},{"bike_id":"e638f806-6dc7-40f3-ba4e-4f249b00ca01","system_id":"levelo_inurba_marseille","lat":43.27013,"lon":5.40281,"is_reserved":false,"is_disabled":false,"rental_uris":{"android":"levelo://app?vid=e638f806-6dc7-40f3-ba4e-4f249b00ca01","ios":"levelo://app?vid=e638f806-6dc7-40f3-ba4e-4f249b00ca01"},"vehicle_type_id":"4","last_reported":1734355305,"current_range_meters":38800,"station_id":"ce4bhk92rcd13ifvqgc0","pricing_plan_id":"cebpf4jnsgd1na2vs0mg"},{"bike_id":"7b107786-ef2d-4349-9c5c-3d62601d11e6","system_id":"levelo_inurba_marseille","lat":43.28925,"lon":5.37911,"is_reserved":false,"is_disabled":true,"rental_uris":{"android":"levelo://app?vid=7b107786-ef2d-4349-9c5c-3d62601d11e6","ios":"levelo://app?vid=7b107786-ef2d-4349-9c5c-3d62601d11e6"},"vehicle_type_id":"4","last_reported":1734355305,"current_range_meters":32000,"station_id":"","pricing_plan_id":"cebpf4jnsgd1na2vs0mg"},{"bike_id":"c864a9f0-28fd-4918-9cdf-7db93b288094","system_id":"levelo_inurba_marseille","lat":43.32454,"lon":5.36594,"is_reserved":false,"is_disabled":false,"rental_uris":{"android":"levelo://app?vid=c864a9f0-28fd-4918-9cdf-7db93b288094","ios":"levelo://app?vid=c864a9f0-28fd-4918-9cdf-7db93b288094"},"vehicle_type_id":"4","last_reported":1734355305,"current_range_meters":16400,"station_id":"ce4bhs12rcd13ifvqhvg","pricing_plan_id":"cebpf4jnsgd1na2vs0mg"},{"bike_id":"142f7e33-dd37-42e4-a17a-6ed3e5d58da8","system_id":"levelo_inurba_marseille","lat":43.29884,"lon":5.43665,"is_reserved":false,"is_disabled":false,"rental_uris":{"android":"levelo://app?vid=142f7e33-dd37-42e4-a17a-6ed3e5d58da8","ios":"levelo://app?vid=142f7e33-dd37-42e4-a17a-6ed3e5d58da8"},"vehicle_type_id":"4","last_reported":1734355305,"current_range_meters":3200,"station_id":"ce4bhpp2rcd13ifvqhfg","pricing_plan_id":"cebpf4jnsgd1na2vs0mg"},{"bike_id":"5634aa08-315a-4974-82e7-b5404a32f13a","system_id":"levelo_inurba_marseille","lat":43.30796,"lon":5.43527,"is_reserved":false,"is_disabled":false,"rental_uris":{"android":"levelo://app?vid=5634aa08-315a-4974-82e7-b5404a32f13a","ios":"levelo://app?vid=5634aa08-315a-4974-82e7-b5404a32f13a"},"vehicle_type_id":"4","last_reported":1734355305,"current_range_meters":35200,"station_id":"ce4bhph2rcd13ifvqheg","pricing_plan_id":"cebpf4jnsgd1na2vs0mg"},{"bike_id":"0b491167-5596-40d4-917d-a5cebc43ed1b","system_id":"levelo_inurba_marseille","lat":43.30593,"lon":5.3722,"is_reserved":false,"is_disabled":false,"rental_uris":{"android":"levelo://app?vid=0b491167-5596-40d4-917d-a5cebc43ed1b","ios":"levelo://app?vid=0b491167-5596-40d4-917d-a5cebc43ed1b"},"vehicle_type_id":"4","last_reported":1734355305,"current_range_meters":38800,"station_id":"ce4bgqh2rcd13ifvqc4g","pricing_plan_id":"cebpf4jnsgd1na2vs0mg"},{"bike_id":"d22e8691-6ee4-4638-8bf5-82b67a2e4044","system_id":"levelo_inurba_marseille","lat":43.28101,"lon":5.37852,"is_reserved":false,"is_disabled":false,"rental_uris":{"android":"levelo://app?vid=d22e8691-6ee4-4638-8bf5-82b67a2e4044","ios":"levelo://app?vid=d22e8691-6ee4-4638-8bf5-82b67a2e4044"},"vehicle_type_id":"4","last_reported":1734355305,"current_range_meters":37600,"station_id":"ce4bha12rcd13ifvqee0","pricing_plan_id":"cebpf4jnsgd1na2vs0mg"},{"bike_id":"fd0c3294-ed71-4efd-afe4-3b934fef7db5","system_id":"levelo_inurba_marseille","lat":43.32531,"lon":5.41446,"is_reserved":false,"is_disabled":false,"rental_uris":{"android":"levelo://app?vid=fd0c3294-ed71-4efd-afe4-3b934fef7db5","ios":"levelo://app?vid=fd0c3294-ed71-4efd-afe4-3b934fef7db5"},"vehicle_type_id":"4","last_reported":1734355305,"current_range_meters":27600,"station_id":"ce4bhq12rcd13ifvqhhg","pricing_plan_id":"cebpf4jnsgd1na2vs0mg"},{"bike_id":"d22d493a-7b6f-4531-9603-34795fb86321","system_id":"levelo_inurba_marseille","lat":43.30294,"lon":5.3771,"is_reserved":false,"is_disabled":false,"rental_uris":{"android":"levelo://app?vid=d22d493a-7b6f-4531-9603-34795fb86321","ios":"levelo://app?vid=d22d493a-7b6f-4531-9603-34795fb86321"},"vehicle_type_id":"4","last_reported":1734355305,"current_range_meters":16800,"station_id":"ce4bguh2rcd13ifvqcj0","pricing_plan_id":"cebpf4jnsgd1na2vs0mg"},{"bike_id":"5be78cc2-d386-42ea-a601-8ec47460ad21","system_id":"levelo_inurba_marseille","lat":43.2408,"lon":5.37737,"is_reserved":false,"is_disabled":false,"rental_uris":{"android":"levelo://app?vid=5be78cc2-d386-42ea-a601-8ec47460ad21","ios":"levelo://app?vid=5be78cc2-d386-42ea-a601-8ec47460ad21"},"vehicle_type_id":"4","last_reported":1734355305,"current_range_meters":32400,"station_id":"ce4bhnp2rcd13ifvqgvg","pricing_plan_id":"cebpf4jnsgd1na2vs0mg"},{"bike_id":"5203caa2-32ed-4477-96a0-f2538c210e8c","system_id":"levelo_inurba_marseille","lat":43.27068,"lon":5.42285,"is_reserved":false,"is_disabled":false,"rental_uris":{"android":"levelo://app?vid=5203caa2-32ed-4477-96a0-f2538c210e8c","ios":"levelo://app?vid=5203caa2-32ed-4477-96a0-f2538c210e8c"},"vehicle_type_id":"4","last_reported":1734355305,"current_range_meters":18000,"station_id":"ce4bhk92rcd13ifvqgb0","pricing_plan_id":"cebpf4jnsgd1na2vs0mg"},{"bike_id":"06b83767-1331-463f-b196-c1f90aae2367","system_id":"levelo_inurba_marseille","lat":43.23183,"lon":5.39986,"is_reserved":false,"is_disabled":false,"rental_uris":{"android":"levelo://app?vid=06b83767-1331-463f-b196-c1f90aae2367","ios":"levelo://app?vid=06b83767-1331-463f-b196-c1f90aae2367"},"vehicle_type_id":"4","last_reported":1734355305,"current_range_meters":38400,"station_id":"ce4bhn12rcd13ifvqgqg","pricing_plan_id":"cebpf4jnsgd1na2vs0mg"},{"bike_id":"e9b36da7-c433-4e83-94a1-2ca2c02e8e59","system_id":"levelo_inurba_marseille","lat":43.25848,"lon":5.39405,"is_reserved":false,"is_disabled":true,"rental_uris":{"android":"levelo://app?vid=e9b36da7-c433-4e83-94a1-2ca2c02e8e59","ios":"levelo://app?vid=e9b36da7-c433-4e83-94a1-2ca2c02e8e59"},"vehicle_type_id":"4","last_reported":1734355305,"current_range_meters":38800,"station_id":"ce4bhip2rcd13ifvqft0","pricing_plan_id":"cebpf4jnsgd1na2vs0mg"},{"bike_id":"c98abf17-3c7c-464a-825d-c14121c59c79","system_id":"levelo_inurba_marseille","lat":43.3065,"lon":5.40104,"is_reserved":false,"is_disabled":false,"rental_uris":{"android":"levelo://app?vid=c98abf17-3c7c-464a-825d-c14121c59c79","ios":"levelo://app?vid=c98abf17-3c7c-464a-825d-c14121c59c79"},"vehicle_type_id":"4","last_reported":1734355305,"current_range_meters":30800,"station_id":"ce4bh112rcd13ifvqda0","pricing_plan_id":"cebpf4jnsgd1na2vs0mg"},{"bike_id":"e0831d6f-8f95-43df-a158-4a0ca5694064","system_id":"levelo_inurba_marseille","lat":43.28147,"lon":5.42646,"is_reserved":false,"is_disabled":false,"rental_uris":{"android":"levelo://app?vid=e0831d6f-8f95-43df-a158-4a0ca5694064","ios":"levelo://app?vid=e0831d6f-8f95-43df-a158-4a0ca5694064"},"vehicle_type_id":"4","last_reported":1734355305,"current_range_meters":22800,"station_id":"ce4bhnh2rcd13ifvqgug","pricing_plan_id":"cebpf4jnsgd1na2vs0mg"},{"bike_id":"e819ae6a-d2ca-4fed-a607-5b91827a0819","system_id":"levelo_inurba_marseille","lat":43.23188,"lon":5.35558,"is_reserved":false,"is_disabled":false,"rental_uris":{"android":"levelo://app?vid=e819ae6a-d2ca-4fed-a607-5b91827a0819","ios":"levelo://app?vid=e819ae6a-d2ca-4fed-a607-5b91827a0819"},"vehicle_type_id":"4","last_reported":1734355305,"current_range_meters":26800,"station_id":"ce4bhu92rcd13ifvqi70","pricing_plan_id":"cebpf4jnsgd1na2vs0mg"},{"bike_id":"f78b5741-f2fa-4fff-800c-1e9860589e59","system_id":"levelo_inurba_marseille","lat":43.29037,"lon":5.39969,"is_reserved":false,"is_disabled":false,"rental_uris":{"android":"levelo://app?vid=f78b5741-f2fa-4fff-800c-1e9860589e59","ios":"levelo://app?vid=f78b5741-f2fa-4fff-800c-1e9860589e59"},"vehicle_type_id":"4","last_reported":1734355305,"current_range_meters":29600,"station_id":"ce4bh392rcd13ifvqdm0","pricing_plan_id":"cebpf4jnsgd1na2vs0mg"},{"bike_id":"e3a3d1f3-38e8-42e4-b2ca-ad023db34801","system_id":"levelo_inurba_marseille","lat":43.30209,"lon":5.39463,"is_reserved":false,"is_disabled":true,"rental_uris":{"android":"levelo://app?vid=e3a3d1f3-38e8-42e4-b2ca-ad023db34801","ios":"levelo://app?vid=e3a3d1f3-38e8-42e4-b2ca-ad023db34801"},"vehicle_type_id":"4","last_reported":1734355305,"current_range_meters":38000,"station_id":"ce4bh0p2rcd13ifvqd70","pricing_plan_id":"cebpf4jnsgd1na2vs0mg"},{"bike_id":"52e6d5df-fcd8-4217-aca4-f03c78ac71a7","system_id":"levelo_inurba_marseille","lat":43.29034,"lon":5.3996,"is_reserved":false,"is_disabled":false,"rental_uris":{"android":"levelo://app?vid=52e6d5df-fcd8-4217-aca4-f03c78ac71a7","ios":"levelo://app?vid=52e6d5df-fcd8-4217-aca4-f03c78ac71a7"},"vehicle_type_id":"4","last_reported":1734355305,"current_range_meters":36000,"station_id":"ce4bh392rcd13ifvqdm0","pricing_plan_id":"cebpf4jnsgd1na2vs0mg"},{"bike_id":"d0f5c301-ea67-44a6-a393-d8edff888eb2","system_id":"levelo_inurba_marseille","lat":43.30109,"lon":5.39079,"is_reserved":false,"is_disabled":true,"rental_uris":{"android":"levelo://app?vid=d0f5c301-ea67-44a6-a393-d8edff888eb2","ios":"levelo://app?vid=d0f5c301-ea67-44a6-a393-d8edff888eb2"},"vehicle_type_id":"4","last_reported":1734355305,"current_range_meters":38400,"station_id":"ce4bh192rcd13ifvqdb0","pricing_plan_id":"cebpf4jnsgd1na2vs0mg"},{"bike_id":"e44d5c0d-9b3c-41c9-aba3-e0f6cbf1cb50","system_id":"levelo_inurba_marseille","lat":43.27061,"lon":5.40258,"is_reserved":false,"is_disabled":false,"rental_uris":{"android":"levelo://app?vid=e44d5c0d-9b3c-41c9-aba3-e0f6cbf1cb50","ios":"levelo://app?vid=e44d5c0d-9b3c-41c9-aba3-e0f6cbf1cb50"},"vehicle_type_id":"4","last_reported":1734355305,"current_range_meters":30000,"station_id":"ce4bhk92rcd13ifvqgc0","pricing_plan_id":"cebpf4jnsgd1na2vs0mg"},{"bike_id":"c9db4ddf-3c06-4801-9b96-05ffe5a3c14d","system_id":"levelo_inurba_marseille","lat":43.337444,"lon":5.374475,"is_reserved":false,"is_disabled":true,"rental_uris":{"android":"levelo://app?vid=c9db4ddf-3c06-4801-9b96-05ffe5a3c14d","ios":"levelo://app?vid=c9db4ddf-3c06-4801-9b96-05ffe5a3c14d"},"vehicle_type_id":"4","last_reported":1734355305,"current_range_meters":0,"station_id":"","pricing_plan_id":"cebpf4jnsgd1na2vs0mg"},{"bike_id":"15fa192e-cf59-429f-9043-a5aef3fe0a0e","system_id":"levelo_inurba_marseille","lat":43.28351,"lon":5.38111,"is_reserved":false,"is_disabled":false,"rental_uris":{"android":"levelo://app?vid=15fa192e-cf59-429f-9043-a5aef3fe0a0e","ios":"levelo://app?vid=15fa192e-cf59-429f-9043-a5aef3fe0a0e"},"vehicle_type_id":"4","last_reported":1734355305,"current_range_meters":28000,"station_id":"ce4bh412rcd13ifvqdr0","pricing_plan_id":"cebpf4jnsgd1na2vs0mg"},{"bike_id":"80f2d35a-a484-4539-92a2-b43ec8a1b560","system_id":"levelo_inurba_marseille","lat":43.30009,"lon":5.37081,"is_reserved":false,"is_disabled":false,"rental_uris":{"android":"levelo://app?vid=80f2d35a-a484-4539-92a2-b43ec8a1b560","ios":"levelo://app?vid=80f2d35a-a484-4539-92a2-b43ec8a1b560"},"vehicle_type_id":"4","last_reported":1734355305,"current_range_meters":26800,"station_id":"","pricing_plan_id":"cebpf4jnsgd1na2vs0mg"},{"bike_id":"f7e560e2-91ed-4d5c-903a-e767d7cc5557","system_id":"levelo_inurba_marseille","lat":43.296334,"lon":5.371317,"is_reserved":false,"is_disabled":false,"rental_uris":{"android":"levelo://app?vid=f7e560e2-91ed-4d5c-903a-e767d7cc5557","ios":"levelo://app?vid=f7e560e2-91ed-4d5c-903a-e767d7cc5557"},"vehicle_type_id":"4","last_reported":1734355305,"current_range_meters":38800,"station_id":"ce4bgnh2rcd13ifvqc0g","pricing_plan_id":"cebpf4jnsgd1na2vs0mg"},{"bike_id":"9ad311dd-c450-4f09-933a-ef53d4559dc3","system_id":"levelo_inurba_marseille","lat":43.26978,"lon":5.39876,"is_reserved":false,"is_disabled":false,"rental_uris":{"android":"levelo://app?vid=9ad311dd-c450-4f09-933a-ef53d4559dc3","ios":"levelo://app?vid=9ad311dd-c450-4f09-933a-ef53d4559dc3"},"vehicle_type_id":"4","last_reported":1734355305,"current_range_meters":16800,"station_id":"","pricing_plan_id":"cebpf4jnsgd1na2vs0mg"},{"bike_id":"0f53ec97-7675-4aa3-8f61-9d5549be8b36","system_id":"levelo_inurba_marseille","lat":43.304633,"lon":5.379156,"is_reserved":false,"is_disabled":true,"rental_uris":{"android":"levelo://app?vid=0f53ec97-7675-4aa3-8f61-9d5549be8b36","ios":"levelo://app?vid=0f53ec97-7675-4aa3-8f61-9d5549be8b36"},"vehicle_type_id":"4","last_reported":1734355305,"current_range_meters":22400,"station_id":"ce4bgup2rcd13ifvqcn0","pricing_plan_id":"cebpf4jnsgd1na2vs0mg"},{"bike_id":"8b67dd20-a507-4375-b968-6678bc600c03","system_id":"levelo_inurba_marseille","lat":43.303,"lon":5.3686,"is_reserved":false,"is_disabled":false,"rental_uris":{"android":"levelo://app?vid=8b67dd20-a507-4375-b968-6678bc600c03","ios":"levelo://app?vid=8b67dd20-a507-4375-b968-6678bc600c03"},"vehicle_type_id":"4","last_reported":1734355305,"current_range_meters":25200,"station_id":"ce4bgqh2rcd13ifvqc5g","pricing_plan_id":"cebpf4jnsgd1na2vs0mg"},{"bike_id":"3217b3c7-c781-4a41-88b7-4182d93dd02e","system_id":"levelo_inurba_marseille","lat":43.24075,"lon":5.37761,"is_reserved":false,"is_disabled":false,"rental_uris":{"android":"levelo://app?vid=3217b3c7-c781-4a41-88b7-4182d93dd02e","ios":"levelo://app?vid=3217b3c7-c781-4a41-88b7-4182d93dd02e"},"vehicle_type_id":"4","last_reported":1734355305,"current_range_meters":26000,"station_id":"ce4bhnp2rcd13ifvqgvg","pricing_plan_id":"cebpf4jnsgd1na2vs0mg"},{"bike_id":"f0c3581b-ec9c-4692-8fb4-7eab5f559d5f","system_id":"levelo_inurba_marseille","lat":43.29881,"lon":5.39739,"is_reserved":false,"is_disabled":false,"rental_uris":{"android":"levelo://app?vid=f0c3581b-ec9c-4692-8fb4-7eab5f559d5f","ios":"levelo://app?vid=f0c3581b-ec9c-4692-8fb4-7eab5f559d5f"},"vehicle_type_id":"4","last_reported":1734355305,"current_range_meters":39200,"station_id":"ce4bh0h2rcd13ifvqd50","pricing_plan_id":"cebpf4jnsgd1na2vs0mg"},{"bike_id":"131dac97-7bcf-4e01-a2a2-130488990973","system_id":"levelo_inurba_marseille","lat":43.2499,"lon":5.38953,"is_reserved":false,"is_disabled":false,"rental_uris":{"android":"levelo://app?vid=131dac97-7bcf-4e01-a2a2-130488990973","ios":"levelo://app?vid=131dac97-7bcf-4e01-a2a2-130488990973"},"vehicle_type_id":"4","last_reported":1734355305,"current_range_meters":36800,"station_id":"ce4bhgp2rcd13ifvqfd0","pricing_plan_id":"cebpf4jnsgd1na2vs0mg"},{"bike_id":"af67ac53-ba21-4ff0-8334-95679e9ff2cc","system_id":"levelo_inurba_marseille","lat":43.278805,"lon":5.388003,"is_reserved":false,"is_disabled":true,"rental_uris":{"android":"levelo://app?vid=af67ac53-ba21-4ff0-8334-95679e9ff2cc","ios":"levelo://app?vid=af67ac53-ba21-4ff0-8334-95679e9ff2cc"},"vehicle_type_id":"4","last_reported":1734355305,"current_range_meters":0,"station_id":"","pricing_plan_id":"cebpf4jnsgd1na2vs0mg"},{"bike_id":"ac12fb4e-3874-4ff3-bf0b-39ed8484910e","system_id":"levelo_inurba_marseille","lat":43.26486,"lon":5.39556,"is_reserved":false,"is_disabled":true,"rental_uris":{"android":"levelo://app?vid=ac12fb4e-3874-4ff3-bf0b-39ed8484910e","ios":"levelo://app?vid=ac12fb4e-3874-4ff3-bf0b-39ed8484910e"},"vehicle_type_id":"4","last_reported":1734355305,"current_range_meters":38800,"station_id":"ce4bhi12rcd13ifvqfq0","pricing_plan_id":"cebpf4jnsgd1na2vs0mg"},{"bike_id":"78adf787-e371-4204-b571-f4e0ee80dedd","system_id":"levelo_inurba_marseille","lat":43.24671,"lon":5.38163,"is_reserved":false,"is_disabled":false,"rental_uris":{"android":"levelo://app?vid=78adf787-e371-4204-b571-f4e0ee80dedd","ios":"levelo://app?vid=78adf787-e371-4204-b571-f4e0ee80dedd"},"vehicle_type_id":"4","last_reported":1734355305,"current_range_meters":36400,"station_id":"ce4bhih2rcd13ifvqfr0","pricing_plan_id":"cebpf4jnsgd1na2vs0mg"},{"bike_id":"c69ff6d7-f81b-4bd0-994f-52b9dca18c0a","system_id":"levelo_inurba_marseille","lat":43.30717,"lon":5.36823,"is_reserved":false,"is_disabled":false,"rental_uris":{"android":"levelo://app?vid=c69ff6d7-f81b-4bd0-994f-52b9dca18c0a","ios":"levelo://app?vid=c69ff6d7-f81b-4bd0-994f-52b9dca18c0a"},"vehicle_type_id":"4","last_reported":1734355305,"current_range_meters":22800,"station_id":"","pricing_plan_id":"cebpf4jnsgd1na2vs0mg"},{"bike_id":"2ee47aba-edd0-4d53-a17e-e6f65b10c35f","system_id":"levelo_inurba_marseille","lat":43.30127,"lon":5.39094,"is_reserved":false,"is_disabled":true,"rental_uris":{"android":"levelo://app?vid=2ee47aba-edd0-4d53-a17e-e6f65b10c35f","ios":"levelo://app?vid=2ee47aba-edd0-4d53-a17e-e6f65b10c35f"},"vehicle_type_id":"4","last_reported":1734355305,"current_range_meters":16400,"station_id":"ce4bh192rcd13ifvqdb0","pricing_plan_id":"cebpf4jnsgd1na2vs0mg"},{"bike_id":"2b60b894-4360-4b1e-8e59-f3cf6eb9faba","system_id":"levelo_inurba_marseille","lat":43.29365,"lon":5.37844,"is_reserved":false,"is_disabled":false,"rental_uris":{"android":"levelo://app?vid=2b60b894-4360-4b1e-8e59-f3cf6eb9faba","ios":"levelo://app?vid=2b60b894-4360-4b1e-8e59-f3cf6eb9faba"},"vehicle_type_id":"4","last_reported":1734355305,"current_range_meters":22800,"station_id":"ce4bgjh2rcd13ifvqbf0","pricing_plan_id":"cebpf4jnsgd1na2vs0mg"},{"bike_id":"8bb11937-f0d1-4793-a554-a2aa309dcabd","system_id":"levelo_inurba_marseille","lat":43.24648,"lon":5.3891,"is_reserved":false,"is_disabled":false,"rental_uris":{"android":"levelo://app?vid=8bb11937-f0d1-4793-a554-a2aa309dcabd","ios":"levelo://app?vid=8bb11937-f0d1-4793-a554-a2aa309dcabd"},"vehicle_type_id":"4","last_reported":1734355305,"current_range_meters":32800,"station_id":"ce4bhg12rcd13ifvqf60","pricing_plan_id":"cebpf4jnsgd1na2vs0mg"},{"bike_id":"ae67b92e-e07b-46b6-a10a-fe976fc2be6b","system_id":"levelo_inurba_marseille","lat":43.30272,"lon":5.37707,"is_reserved":false,"is_disabled":false,"rental_uris":{"android":"levelo://app?vid=ae67b92e-e07b-46b6-a10a-fe976fc2be6b","ios":"levelo://app?vid=ae67b92e-e07b-46b6-a10a-fe976fc2be6b"},"vehicle_type_id":"4","last_reported":1734355305,"current_range_meters":20800,"station_id":"ce4bguh2rcd13ifvqcj0","pricing_plan_id":"cebpf4jnsgd1na2vs0mg"},{"bike_id":"754a963d-36db-49a8-a6a9-1278d8a81e99","system_id":"levelo_inurba_marseille","lat":43.27494,"lon":5.42455,"is_reserved":false,"is_disabled":false,"rental_uris":{"android":"levelo://app?vid=754a963d-36db-49a8-a6a9-1278d8a81e99","ios":"levelo://app?vid=754a963d-36db-49a8-a6a9-1278d8a81e99"},"vehicle_type_id":"4","last_reported":1734355305,"current_range_meters":26000,"station_id":"ce4bhn92rcd13ifvqgrg","pricing_plan_id":"cebpf4jnsgd1na2vs0mg"},{"bike_id":"ad9e0e56-b232-4761-8766-3140462fc53b","system_id":"levelo_inurba_marseille","lat":43.265463,"lon":5.372843,"is_reserved":false,"is_disabled":true,"rental_uris":{"android":"levelo://app?vid=ad9e0e56-b232-4761-8766-3140462fc53b","ios":"levelo://app?vid=ad9e0e56-b232-4761-8766-3140462fc53b"},"vehicle_type_id":"4","last_reported":1734355305,"current_range_meters":23200,"station_id":"ce4bhg12rcd13ifvqf70","pricing_plan_id":"cebpf4jnsgd1na2vs0mg"},{"bike_id":"1d7034d3-38aa-4743-8f5d-2da4802e206b","system_id":"levelo_inurba_marseille","lat":43.28726,"lon":5.38285,"is_reserved":false,"is_disabled":true,"rental_uris":{"android":"levelo://app?vid=1d7034d3-38aa-4743-8f5d-2da4802e206b","ios":"levelo://app?vid=1d7034d3-38aa-4743-8f5d-2da4802e206b"},"vehicle_type_id":"4","last_reported":1734355305,"current_range_meters":0,"station_id":"","pricing_plan_id":"cebpf4jnsgd1na2vs0mg"},{"bike_id":"656d8740-9b85-4a93-86ce-9d32a0e761f7","system_id":"levelo_inurba_marseille","lat":43.3107,"lon":5.3835,"is_reserved":false,"is_disabled":true,"rental_uris":{"android":"levelo://app?vid=656d8740-9b85-4a93-86ce-9d32a0e761f7","ios":"levelo://app?vid=656d8740-9b85-4a93-86ce-9d32a0e761f7"},"vehicle_type_id":"4","last_reported":1734355305,"current_range_meters":0,"station_id":"ce4bgv92rcd13ifvqcr0","pricing_plan_id":"cebpf4jnsgd1na2vs0mg"},{"bike_id":"30b09c14-5db6-4bdd-8ec0-8d8fd355bef3","system_id":"levelo_inurba_marseille","lat":43.29921,"lon":5.39761,"is_reserved":false,"is_disabled":true,"rental_uris":{"android":"levelo://app?vid=30b09c14-5db6-4bdd-8ec0-8d8fd355bef3","ios":"levelo://app?vid=30b09c14-5db6-4bdd-8ec0-8d8fd355bef3"},"vehicle_type_id":"4","last_reported":1734355305,"current_range_meters":36400,"station_id":"ce4bh0h2rcd13ifvqd50","pricing_plan_id":"cebpf4jnsgd1na2vs0mg"},{"bike_id":"f08c808c-af08-40b8-81c3-97739c995b77","system_id":"levelo_inurba_marseille","lat":43.3016,"lon":5.39894,"is_reserved":false,"is_disabled":true,"rental_uris":{"android":"levelo://app?vid=f08c808c-af08-40b8-81c3-97739c995b77","ios":"levelo://app?vid=f08c808c-af08-40b8-81c3-97739c995b77"},"vehicle_type_id":"4","last_reported":1734355305,"current_range_meters":6800,"station_id":"ce4bh0h2rcd13ifvqd40","pricing_plan_id":"cebpf4jnsgd1na2vs0mg"},{"bike_id":"f90ff546-7eaf-44fc-8734-244de261bfe1","system_id":"levelo_inurba_marseille","lat":43.30242,"lon":5.40066,"is_reserved":false,"is_disabled":true,"rental_uris":{"android":"levelo://app?vid=f90ff546-7eaf-44fc-8734-244de261bfe1","ios":"levelo://app?vid=f90ff546-7eaf-44fc-8734-244de261bfe1"},"vehicle_type_id":"4","last_reported":1734355305,"current_range_meters":20400,"station_id":"ce4bgvh2rcd13ifvqcs0","pricing_plan_id":"cebpf4jnsgd1na2vs0mg"},{"bike_id":"05024602-c4d4-46a7-86a1-456de6416434","system_id":"levelo_inurba_marseille","lat":43.29414,"lon":5.38637,"is_reserved":false,"is_disabled":false,"rental_uris":{"android":"levelo://app?vid=05024602-c4d4-46a7-86a1-456de6416434","ios":"levelo://app?vid=05024602-c4d4-46a7-86a1-456de6416434"},"vehicle_type_id":"4","last_reported":1734355305,"current_range_meters":39200,"station_id":"ce4bh2h2rcd13ifvqdh0","pricing_plan_id":"cebpf4jnsgd1na2vs0mg"},{"bike_id":"43a2fa1d-314c-4a4d-b7c9-aa2f198eb73b","system_id":"levelo_inurba_marseille","lat":43.30137,"lon":5.38782,"is_reserved":false,"is_disabled":true,"rental_uris":{"android":"levelo://app?vid=43a2fa1d-314c-4a4d-b7c9-aa2f198eb73b","ios":"levelo://app?vid=43a2fa1d-314c-4a4d-b7c9-aa2f198eb73b"},"vehicle_type_id":"4","last_reported":1734355305,"current_range_meters":26800,"station_id":"ce4bghh2rcd13ifvqb60","pricing_plan_id":"cebpf4jnsgd1na2vs0mg"},{"bike_id":"b40e45d2-4b27-42af-bdd9-952252e9f1dc","system_id":"levelo_inurba_marseille","lat":43.28578,"lon":5.39498,"is_reserved":false,"is_disabled":false,"rental_uris":{"android":"levelo://app?vid=b40e45d2-4b27-42af-bdd9-952252e9f1dc","ios":"levelo://app?vid=b40e45d2-4b27-42af-bdd9-952252e9f1dc"},"vehicle_type_id":"4","last_reported":1734355305,"current_range_meters":36800,"station_id":"ce4bh292rcd13ifvqdg0","pricing_plan_id":"cebpf4jnsgd1na2vs0mg"},{"bike_id":"3f1dccbb-9ecd-41b7-a718-cb48d62d20ba","system_id":"levelo_inurba_marseille","lat":43.32542,"lon":5.41429,"is_reserved":false,"is_disabled":false,"rental_uris":{"android":"levelo://app?vid=3f1dccbb-9ecd-41b7-a718-cb48d62d20ba","ios":"levelo://app?vid=3f1dccbb-9ecd-41b7-a718-cb48d62d20ba"},"vehicle_type_id":"4","last_reported":1734355305,"current_range_meters":24400,"station_id":"ce4bhq12rcd13ifvqhhg","pricing_plan_id":"cebpf4jnsgd1na2vs0mg"},{"bike_id":"669039fa-27fb-45a0-9901-6c6bf37eed00","system_id":"levelo_inurba_marseille","lat":43.28155,"lon":5.42645,"is_reserved":false,"is_disabled":false,"rental_uris":{"android":"levelo://app?vid=669039fa-27fb-45a0-9901-6c6bf37eed00","ios":"levelo://app?vid=669039fa-27fb-45a0-9901-6c6bf37eed00"},"vehicle_type_id":"4","last_reported":1734355305,"current_range_meters":23200,"station_id":"ce4bhnh2rcd13ifvqgug","pricing_plan_id":"cebpf4jnsgd1na2vs0mg"},{"bike_id":"88ee33b6-c14b-4bcd-be03-50d90eb7a4be","system_id":"levelo_inurba_marseille","lat":43.3229,"lon":5.38272,"is_reserved":false,"is_disabled":false,"rental_uris":{"android":"levelo://app?vid=88ee33b6-c14b-4bcd-be03-50d90eb7a4be","ios":"levelo://app?vid=88ee33b6-c14b-4bcd-be03-50d90eb7a4be"},"vehicle_type_id":"4","last_reported":1734355305,"current_range_meters":37600,"station_id":"ce4bhr12rcd13ifvqhqg","pricing_plan_id":"cebpf4jnsgd1na2vs0mg"},{"bike_id":"08cee0db-94b4-4298-bfcb-8531f0ed5faf","system_id":"levelo_inurba_marseille","lat":43.279745,"lon":5.387345,"is_reserved":false,"is_disabled":false,"rental_uris":{"android":"levelo://app?vid=08cee0db-94b4-4298-bfcb-8531f0ed5faf","ios":"levelo://app?vid=08cee0db-94b4-4298-bfcb-8531f0ed5faf"},"vehicle_type_id":"4","last_reported":1734355305,"current_range_meters":22400,"station_id":"ce4bhg12rcd13ifvqf80","pricing_plan_id":"cebpf4jnsgd1na2vs0mg"},{"bike_id":"0810675e-0ec1-421a-b95a-82de5ccce9b2","system_id":"levelo_inurba_marseille","lat":43.24194,"lon":5.39725,"is_reserved":false,"is_disabled":true,"rental_uris":{"android":"levelo://app?vid=0810675e-0ec1-421a-b95a-82de5ccce9b2","ios":"levelo://app?vid=0810675e-0ec1-421a-b95a-82de5ccce9b2"},"vehicle_type_id":"4","last_reported":1734355305,"current_range_meters":17600,"station_id":"ce4bhn12rcd13ifvqgpg","pricing_plan_id":"cebpf4jnsgd1na2vs0mg"},{"bike_id":"658b701e-1546-4ee7-a5a3-c849cfed5179","system_id":"levelo_inurba_marseille","lat":43.29615,"lon":5.37723,"is_reserved":false,"is_disabled":true,"rental_uris":{"android":"levelo://app?vid=658b701e-1546-4ee7-a5a3-c849cfed5179","ios":"levelo://app?vid=658b701e-1546-4ee7-a5a3-c849cfed5179"},"vehicle_type_id":"4","last_reported":1734355305,"current_range_meters":0,"station_id":"ce4bgi92rcd13ifvqb90","pricing_plan_id":"cebpf4jnsgd1na2vs0mg"},{"bike_id":"5f4bebd3-12b2-4b1a-b8a6-27fe62ea266b","system_id":"levelo_inurba_marseille","lat":43.29912,"lon":5.3748,"is_reserved":false,"is_disabled":false,"rental_uris":{"android":"levelo://app?vid=5f4bebd3-12b2-4b1a-b8a6-27fe62ea266b","ios":"levelo://app?vid=5f4bebd3-12b2-4b1a-b8a6-27fe62ea266b"},"vehicle_type_id":"4","last_reported":1734355305,"current_range_meters":39200,"station_id":"ce4bgjh2rcd13ifvqbg0","pricing_plan_id":"cebpf4jnsgd1na2vs0mg"},{"bike_id":"912bfd66-9675-499a-8dcf-320588ba58c4","system_id":"levelo_inurba_marseille","lat":43.28137,"lon":5.4264,"is_reserved":false,"is_disabled":false,"rental_uris":{"android":"levelo://app?vid=912bfd66-9675-499a-8dcf-320588ba58c4","ios":"levelo://app?vid=912bfd66-9675-499a-8dcf-320588ba58c4"},"vehicle_type_id":"4","last_reported":1734355305,"current_range_meters":13600,"station_id":"ce4bhnh2rcd13ifvqgug","pricing_plan_id":"cebpf4jnsgd1na2vs0mg"},{"bike_id":"4b0bfe2c-c30b-4a6e-b32c-90d6eeb0c436","system_id":"levelo_inurba_marseille","lat":43.27824,"lon":5.39213,"is_reserved":false,"is_disabled":false,"rental_uris":{"android":"levelo://app?vid=4b0bfe2c-c30b-4a6e-b32c-90d6eeb0c436","ios":"levelo://app?vid=4b0bfe2c-c30b-4a6e-b32c-90d6eeb0c436"},"vehicle_type_id":"4","last_reported":1734355305,"current_range_meters":35200,"station_id":"ce4bhjp2rcd13ifvqga0","pricing_plan_id":"cebpf4jnsgd1na2vs0mg"},{"bike_id":"ed479c7a-06f1-4684-ad77-615717175753","system_id":"levelo_inurba_marseille","lat":43.28709,"lon":5.39997,"is_reserved":false,"is_disabled":true,"rental_uris":{"android":"levelo://app?vid=ed479c7a-06f1-4684-ad77-615717175753","ios":"levelo://app?vid=ed479c7a-06f1-4684-ad77-615717175753"},"vehicle_type_id":"4","last_reported":1734355305,"current_range_meters":0,"station_id":"ce4bho92rcd13ifvqh3g","pricing_plan_id":"cebpf4jnsgd1na2vs0mg"},{"bike_id":"582fb55d-33d3-4a09-8dc2-e4a52773b000","system_id":"levelo_inurba_marseille","lat":43.298,"lon":5.38109,"is_reserved":false,"is_disabled":false,"rental_uris":{"android":"levelo://app?vid=582fb55d-33d3-4a09-8dc2-e4a52773b000","ios":"levelo://app?vid=582fb55d-33d3-4a09-8dc2-e4a52773b000"},"vehicle_type_id":"4","last_reported":1734355305,"current_range_meters":22400,"station_id":"ce4bgip2rcd13ifvqbb0","pricing_plan_id":"cebpf4jnsgd1na2vs0mg"},{"bike_id":"458c56c8-42dd-4540-9e14-c3527b1b6c85","system_id":"levelo_inurba_marseille","lat":43.25943,"lon":5.40891,"is_reserved":false,"is_disabled":false,"rental_uris":{"android":"levelo://app?vid=458c56c8-42dd-4540-9e14-c3527b1b6c85","ios":"levelo://app?vid=458c56c8-42dd-4540-9e14-c3527b1b6c85"},"vehicle_type_id":"4","last_reported":1734355305,"current_range_meters":10000,"station_id":"ce4bhm92rcd13ifvqglg","pricing_plan_id":"cebpf4jnsgd1na2vs0mg"},{"bike_id":"8b135e9e-ffef-4366-9100-fd182f024a7e","system_id":"levelo_inurba_marseille","lat":43.28154,"lon":5.42647,"is_reserved":false,"is_disabled":true,"rental_uris":{"android":"levelo://app?vid=8b135e9e-ffef-4366-9100-fd182f024a7e","ios":"levelo://app?vid=8b135e9e-ffef-4366-9100-fd182f024a7e"},"vehicle_type_id":"4","last_reported":1734355305,"current_range_meters":0,"station_id":"ce4bhnh2rcd13ifvqgug","pricing_plan_id":"cebpf4jnsgd1na2vs0mg"},{"bike_id":"68844ef4-f552-4f3e-8a53-7ef704e3362c","system_id":"levelo_inurba_marseille","lat":43.30601,"lon":5.37226,"is_reserved":false,"is_disabled":false,"rental_uris":{"android":"levelo://app?vid=68844ef4-f552-4f3e-8a53-7ef704e3362c","ios":"levelo://app?vid=68844ef4-f552-4f3e-8a53-7ef704e3362c"},"vehicle_type_id":"4","last_reported":1734355305,"current_range_meters":24800,"station_id":"ce4bgqh2rcd13ifvqc4g","pricing_plan_id":"cebpf4jnsgd1na2vs0mg"},{"bike_id":"fe6221bc-7cd7-4dba-be52-97dfdc016c80","system_id":"levelo_inurba_marseille","lat":43.28277,"lon":5.35063,"is_reserved":false,"is_disabled":false,"rental_uris":{"android":"levelo://app?vid=fe6221bc-7cd7-4dba-be52-97dfdc016c80","ios":"levelo://app?vid=fe6221bc-7cd7-4dba-be52-97dfdc016c80"},"vehicle_type_id":"4","last_reported":1734355305,"current_range_meters":20400,"station_id":"ce4bhbp2rcd13ifvqerg","pricing_plan_id":"cebpf4jnsgd1na2vs0mg"},{"bike_id":"50a2f01c-cd46-47e7-8f78-87ccc112a2eb","system_id":"levelo_inurba_marseille","lat":43.28672,"lon":5.38666,"is_reserved":false,"is_disabled":false,"rental_uris":{"android":"levelo://app?vid=50a2f01c-cd46-47e7-8f78-87ccc112a2eb","ios":"levelo://app?vid=50a2f01c-cd46-47e7-8f78-87ccc112a2eb"},"vehicle_type_id":"4","last_reported":1734355305,"current_range_meters":22000,"station_id":"ce4bh492rcd13ifvqdug","pricing_plan_id":"cebpf4jnsgd1na2vs0mg"},{"bike_id":"22b68899-8b56-4d5b-a525-250826f94187","system_id":"levelo_inurba_marseille","lat":43.30523,"lon":5.36738,"is_reserved":false,"is_disabled":true,"rental_uris":{"android":"levelo://app?vid=22b68899-8b56-4d5b-a525-250826f94187","ios":"levelo://app?vid=22b68899-8b56-4d5b-a525-250826f94187"},"vehicle_type_id":"4","last_reported":1734355305,"current_range_meters":38800,"station_id":"ce4bgrp2rcd13ifvqc9g","pricing_plan_id":"cebpf4jnsgd1na2vs0mg"},{"bike_id":"d05ffe79-6081-4080-a41a-e4ff30fe2019","system_id":"levelo_inurba_marseille","lat":43.29982,"lon":5.37194,"is_reserved":false,"is_disabled":false,"rental_uris":{"android":"levelo://app?vid=d05ffe79-6081-4080-a41a-e4ff30fe2019","ios":"levelo://app?vid=d05ffe79-6081-4080-a41a-e4ff30fe2019"},"vehicle_type_id":"4","last_reported":1734355305,"current_range_meters":28400,"station_id":"ce4bgr92rcd13ifvqc7g","pricing_plan_id":"cebpf4jnsgd1na2vs0mg"},{"bike_id":"83e5b1f9-e512-4755-8dfd-f85222a054ac","system_id":"levelo_inurba_marseille","lat":43.26861,"lon":5.39633,"is_reserved":false,"is_disabled":false,"rental_uris":{"android":"levelo://app?vid=83e5b1f9-e512-4755-8dfd-f85222a054ac","ios":"levelo://app?vid=83e5b1f9-e512-4755-8dfd-f85222a054ac"},"vehicle_type_id":"4","last_reported":1734355305,"current_range_meters":10800,"station_id":"","pricing_plan_id":"cebpf4jnsgd1na2vs0mg"},{"bike_id":"7000b580-392e-4af6-8541-fd3d83dd5a5b","system_id":"levelo_inurba_marseille","lat":43.27834,"lon":5.39212,"is_reserved":false,"is_disabled":false,"rental_uris":{"android":"levelo://app?vid=7000b580-392e-4af6-8541-fd3d83dd5a5b","ios":"levelo://app?vid=7000b580-392e-4af6-8541-fd3d83dd5a5b"},"vehicle_type_id":"4","last_reported":1734355305,"current_range_meters":8000,"station_id":"ce4bhjp2rcd13ifvqga0","pricing_plan_id":"cebpf4jnsgd1na2vs0mg"},{"bike_id":"1f9f2344-774c-4681-a39f-5ccd15c769b1","system_id":"levelo_inurba_marseille","lat":43.28615,"lon":5.35099,"is_reserved":false,"is_disabled":true,"rental_uris":{"android":"levelo://app?vid=1f9f2344-774c-4681-a39f-5ccd15c769b1","ios":"levelo://app?vid=1f9f2344-774c-4681-a39f-5ccd15c769b1"},"vehicle_type_id":"4","last_reported":1734355305,"current_range_meters":26800,"station_id":"ce4bhch2rcd13ifvqeug","pricing_plan_id":"cebpf4jnsgd1na2vs0mg"},{"bike_id":"a1e87f39-a169-437c-996c-14d84743b37e","system_id":"levelo_inurba_marseille","lat":43.23059,"lon":5.35483,"is_reserved":false,"is_disabled":false,"rental_uris":{"android":"levelo://app?vid=a1e87f39-a169-437c-996c-14d84743b37e","ios":"levelo://app?vid=a1e87f39-a169-437c-996c-14d84743b37e"},"vehicle_type_id":"4","last_reported":1734355305,"current_range_meters":37600,"station_id":"cpo3342slgdg3j2ifvpg","pricing_plan_id":"cebpf4jnsgd1na2vs0mg"},{"bike_id":"025fd450-3d1f-4997-8249-522804445b6d","system_id":"levelo_inurba_marseille","lat":43.28468,"lon":5.38414,"is_reserved":false,"is_disabled":false,"rental_uris":{"android":"levelo://app?vid=025fd450-3d1f-4997-8249-522804445b6d","ios":"levelo://app?vid=025fd450-3d1f-4997-8249-522804445b6d"},"vehicle_type_id":"4","last_reported":1734355305,"current_range_meters":30400,"station_id":"ce4bh512rcd13ifvqe3g","pricing_plan_id":"cebpf4jnsgd1na2vs0mg"},{"bike_id":"a4201bad-2952-479e-bfa8-345091f5dd8e","system_id":"levelo_inurba_marseille","lat":43.24653,"lon":5.38899,"is_reserved":false,"is_disabled":false,"rental_uris":{"android":"levelo://app?vid=a4201bad-2952-479e-bfa8-345091f5dd8e","ios":"levelo://app?vid=a4201bad-2952-479e-bfa8-345091f5dd8e"},"vehicle_type_id":"4","last_reported":1734355305,"current_range_meters":18000,"station_id":"ce4bhg12rcd13ifvqf60","pricing_plan_id":"cebpf4jnsgd1na2vs0mg"},{"bike_id":"9b7bd68c-b402-4fe0-bba9-12b73c77eeac","system_id":"levelo_inurba_marseille","lat":43.2975,"lon":5.39362,"is_reserved":false,"is_disabled":false,"rental_uris":{"android":"levelo://app?vid=9b7bd68c-b402-4fe0-bba9-12b73c77eeac","ios":"levelo://app?vid=9b7bd68c-b402-4fe0-bba9-12b73c77eeac"},"vehicle_type_id":"4","last_reported":1734355305,"current_range_meters":2800,"station_id":"chh1huq6cuj3fo74tm60","pricing_plan_id":"cebpf4jnsgd1na2vs0mg"},{"bike_id":"c76de74b-f745-43b4-b5cf-f1c3c6c2de11","system_id":"levelo_inurba_marseille","lat":43.24658,"lon":5.38165,"is_reserved":false,"is_disabled":true,"rental_uris":{"android":"levelo://app?vid=c76de74b-f745-43b4-b5cf-f1c3c6c2de11","ios":"levelo://app?vid=c76de74b-f745-43b4-b5cf-f1c3c6c2de11"},"vehicle_type_id":"4","last_reported":1734355305,"current_range_meters":39200,"station_id":"ce4bhih2rcd13ifvqfr0","pricing_plan_id":"cebpf4jnsgd1na2vs0mg"},{"bike_id":"90fdbe4f-cb5a-407c-9503-1ec303e90772","system_id":"levelo_inurba_marseille","lat":43.30144,"lon":5.38805,"is_reserved":false,"is_disabled":true,"rental_uris":{"android":"levelo://app?vid=90fdbe4f-cb5a-407c-9503-1ec303e90772","ios":"levelo://app?vid=90fdbe4f-cb5a-407c-9503-1ec303e90772"},"vehicle_type_id":"4","last_reported":1734355305,"current_range_meters":20400,"station_id":"ce4bghh2rcd13ifvqb60","pricing_plan_id":"cebpf4jnsgd1na2vs0mg"},{"bike_id":"a42ee201-0bdc-45b8-a41c-7f420b06452e","system_id":"levelo_inurba_marseille","lat":43.2799,"lon":5.40027,"is_reserved":false,"is_disabled":false,"rental_uris":{"android":"levelo://app?vid=a42ee201-0bdc-45b8-a41c-7f420b06452e","ios":"levelo://app?vid=a42ee201-0bdc-45b8-a41c-7f420b06452e"},"vehicle_type_id":"4","last_reported":1734355305,"current_range_meters":30800,"station_id":"ce4bho92rcd13ifvqh4g","pricing_plan_id":"cebpf4jnsgd1na2vs0mg"},{"bike_id":"3dda5d42-46c4-4662-8667-d51283eab8a5","system_id":"levelo_inurba_marseille","lat":43.26488,"lon":5.39555,"is_reserved":false,"is_disabled":false,"rental_uris":{"android":"levelo://app?vid=3dda5d42-46c4-4662-8667-d51283eab8a5","ios":"levelo://app?vid=3dda5d42-46c4-4662-8667-d51283eab8a5"},"vehicle_type_id":"4","last_reported":1734355305,"current_range_meters":39200,"station_id":"ce4bhi12rcd13ifvqfq0","pricing_plan_id":"cebpf4jnsgd1na2vs0mg"},{"bike_id":"ddbb3a7c-2665-4ce3-9848-3cccae19d989","system_id":"levelo_inurba_marseille","lat":43.27676,"lon":5.3892,"is_reserved":false,"is_disabled":true,"rental_uris":{"android":"levelo://app?vid=ddbb3a7c-2665-4ce3-9848-3cccae19d989","ios":"levelo://app?vid=ddbb3a7c-2665-4ce3-9848-3cccae19d989"},"vehicle_type_id":"4","last_reported":1734355305,"current_range_meters":35600,"station_id":"","pricing_plan_id":"cebpf4jnsgd1na2vs0mg"},{"bike_id":"bde54dc7-9395-46d6-bc6e-42ecf2cbe5bd","system_id":"levelo_inurba_marseille","lat":43.30459,"lon":5.37909,"is_reserved":false,"is_disabled":true,"rental_uris":{"android":"levelo://app?vid=bde54dc7-9395-46d6-bc6e-42ecf2cbe5bd","ios":"levelo://app?vid=bde54dc7-9395-46d6-bc6e-42ecf2cbe5bd"},"vehicle_type_id":"4","last_reported":1734355305,"current_range_meters":0,"station_id":"ce4bgup2rcd13ifvqcn0","pricing_plan_id":"cebpf4jnsgd1na2vs0mg"},{"bike_id":"4e3eebec-f009-4887-809b-5f30495d5092","system_id":"levelo_inurba_marseille","lat":43.28715,"lon":5.37392,"is_reserved":false,"is_disabled":true,"rental_uris":{"android":"levelo://app?vid=4e3eebec-f009-4887-809b-5f30495d5092","ios":"levelo://app?vid=4e3eebec-f009-4887-809b-5f30495d5092"},"vehicle_type_id":"4","last_reported":1734355305,"current_range_meters":11600,"station_id":"ce4bh3p2rcd13ifvqdq0","pricing_plan_id":"cebpf4jnsgd1na2vs0mg"},{"bike_id":"b5091e45-09e1-4ff4-8c41-6505f52caa85","system_id":"levelo_inurba_marseille","lat":43.251112,"lon":5.403261,"is_reserved":false,"is_disabled":false,"rental_uris":{"android":"levelo://app?vid=b5091e45-09e1-4ff4-8c41-6505f52caa85","ios":"levelo://app?vid=b5091e45-09e1-4ff4-8c41-6505f52caa85"},"vehicle_type_id":"4","last_reported":1734355305,"current_range_meters":38800,"station_id":"ce4bhlh2rcd13ifvqgig","pricing_plan_id":"cebpf4jnsgd1na2vs0mg"},{"bike_id":"61b1ce0a-40a0-4726-b7aa-9b61ac7a4c38","system_id":"levelo_inurba_marseille","lat":43.28411,"lon":5.37545,"is_reserved":false,"is_disabled":false,"rental_uris":{"android":"levelo://app?vid=61b1ce0a-40a0-4726-b7aa-9b61ac7a4c38","ios":"levelo://app?vid=61b1ce0a-40a0-4726-b7aa-9b61ac7a4c38"},"vehicle_type_id":"4","last_reported":1734355305,"current_range_meters":8800,"station_id":"ce4bh412rcd13ifvqds0","pricing_plan_id":"cebpf4jnsgd1na2vs0mg"},{"bike_id":"5cb2253b-15ad-4ce2-af15-ca4a67df4526","system_id":"levelo_inurba_marseille","lat":43.31431,"lon":5.37037,"is_reserved":false,"is_disabled":false,"rental_uris":{"android":"levelo://app?vid=5cb2253b-15ad-4ce2-af15-ca4a67df4526","ios":"levelo://app?vid=5cb2253b-15ad-4ce2-af15-ca4a67df4526"},"vehicle_type_id":"4","last_reported":1734355305,"current_range_meters":16400,"station_id":"","pricing_plan_id":"cebpf4jnsgd1na2vs0mg"},{"bike_id":"12da31a3-7a5a-4f50-bce7-5a39b05fb897","system_id":"levelo_inurba_marseille","lat":43.2619,"lon":5.37447,"is_reserved":false,"is_disabled":false,"rental_uris":{"android":"levelo://app?vid=12da31a3-7a5a-4f50-bce7-5a39b05fb897","ios":"levelo://app?vid=12da31a3-7a5a-4f50-bce7-5a39b05fb897"},"vehicle_type_id":"4","last_reported":1734355305,"current_range_meters":38800,"station_id":"ce4bhgp2rcd13ifvqfc0","pricing_plan_id":"cebpf4jnsgd1na2vs0mg"},{"bike_id":"ffae4435-15e1-44d4-8d68-1421d55bd80a","system_id":"levelo_inurba_marseille","lat":43.29793,"lon":5.381,"is_reserved":false,"is_disabled":false,"rental_uris":{"android":"levelo://app?vid=ffae4435-15e1-44d4-8d68-1421d55bd80a","ios":"levelo://app?vid=ffae4435-15e1-44d4-8d68-1421d55bd80a"},"vehicle_type_id":"4","last_reported":1734355305,"current_range_meters":9200,"station_id":"ce4bgip2rcd13ifvqbb0","pricing_plan_id":"cebpf4jnsgd1na2vs0mg"},{"bike_id":"4577876d-7130-4c2f-b0b1-6070b22d42f9","system_id":"levelo_inurba_marseille","lat":43.25569,"lon":5.38253,"is_reserved":false,"is_disabled":false,"rental_uris":{"android":"levelo://app?vid=4577876d-7130-4c2f-b0b1-6070b22d42f9","ios":"levelo://app?vid=4577876d-7130-4c2f-b0b1-6070b22d42f9"},"vehicle_type_id":"4","last_reported":1734355305,"current_range_meters":14000,"station_id":"ce4bhih2rcd13ifvqfs0","pricing_plan_id":"cebpf4jnsgd1na2vs0mg"},{"bike_id":"ea2f56a5-2af6-4b2f-9b06-4493d536b453","system_id":"levelo_inurba_marseille","lat":43.27966,"lon":5.38737,"is_reserved":false,"is_disabled":false,"rental_uris":{"android":"levelo://app?vid=ea2f56a5-2af6-4b2f-9b06-4493d536b453","ios":"levelo://app?vid=ea2f56a5-2af6-4b2f-9b06-4493d536b453"},"vehicle_type_id":"4","last_reported":1734355305,"current_range_meters":27600,"station_id":"ce4bhg12rcd13ifvqf80","pricing_plan_id":"cebpf4jnsgd1na2vs0mg"},{"bike_id":"989664e1-2615-4d65-9c6b-db676949f101","system_id":"levelo_inurba_marseille","lat":43.28176,"lon":5.42647,"is_reserved":false,"is_disabled":false,"rental_uris":{"android":"levelo://app?vid=989664e1-2615-4d65-9c6b-db676949f101","ios":"levelo://app?vid=989664e1-2615-4d65-9c6b-db676949f101"},"vehicle_type_id":"4","last_reported":1734355305,"current_range_meters":8800,"station_id":"ce4bhnh2rcd13ifvqgug","pricing_plan_id":"cebpf4jnsgd1na2vs0mg"},{"bike_id":"555804e5-a685-46d0-8950-48aec0f97f9b","system_id":"levelo_inurba_marseille","lat":43.28846,"lon":5.35857,"is_reserved":false,"is_disabled":true,"rental_uris":{"android":"levelo://app?vid=555804e5-a685-46d0-8950-48aec0f97f9b","ios":"levelo://app?vid=555804e5-a685-46d0-8950-48aec0f97f9b"},"vehicle_type_id":"4","last_reported":1734355305,"current_range_meters":1200,"station_id":"ce4bhb12rcd13ifvqem0","pricing_plan_id":"cebpf4jnsgd1na2vs0mg"},{"bike_id":"37a33cc5-7a0c-4f45-9365-698820bb13b8","system_id":"levelo_inurba_marseille","lat":43.27427,"lon":5.39435,"is_reserved":false,"is_disabled":false,"rental_uris":{"android":"levelo://app?vid=37a33cc5-7a0c-4f45-9365-698820bb13b8","ios":"levelo://app?vid=37a33cc5-7a0c-4f45-9365-698820bb13b8"},"vehicle_type_id":"4","last_reported":1734355305,"current_range_meters":37600,"station_id":"ce4bhdp2rcd13ifvqf20","pricing_plan_id":"cebpf4jnsgd1na2vs0mg"},{"bike_id":"230e9a8a-c8f7-40a1-b317-d4afa1935b21","system_id":"levelo_inurba_marseille","lat":43.31722,"lon":5.40454,"is_reserved":false,"is_disabled":true,"rental_uris":{"android":"levelo://app?vid=230e9a8a-c8f7-40a1-b317-d4afa1935b21","ios":"levelo://app?vid=230e9a8a-c8f7-40a1-b317-d4afa1935b21"},"vehicle_type_id":"4","last_reported":1734355305,"current_range_meters":37600,"station_id":"ce4bh012rcd13ifvqd00","pricing_plan_id":"cebpf4jnsgd1na2vs0mg"},{"bike_id":"680bc8ce-2061-4d43-9cf7-a70eeccaf369","system_id":"levelo_inurba_marseille","lat":43.31404,"lon":5.36712,"is_reserved":false,"is_disabled":true,"rental_uris":{"android":"levelo://app?vid=680bc8ce-2061-4d43-9cf7-a70eeccaf369","ios":"levelo://app?vid=680bc8ce-2061-4d43-9cf7-a70eeccaf369"},"vehicle_type_id":"4","last_reported":1734355305,"current_range_meters":37600,"station_id":"ce4bgr92rcd13ifvqc6g","pricing_plan_id":"cebpf4jnsgd1na2vs0mg"},{"bike_id":"683a9ad3-de61-4837-8bfa-fd2fa377113b","system_id":"levelo_inurba_marseille","lat":43.30527,"lon":5.36707,"is_reserved":false,"is_disabled":true,"rental_uris":{"android":"levelo://app?vid=683a9ad3-de61-4837-8bfa-fd2fa377113b","ios":"levelo://app?vid=683a9ad3-de61-4837-8bfa-fd2fa377113b"},"vehicle_type_id":"4","last_reported":1734355305,"current_range_meters":39200,"station_id":"ce4bgrp2rcd13ifvqc9g","pricing_plan_id":"cebpf4jnsgd1na2vs0mg"},{"bike_id":"f8f760c0-d185-4a46-9aba-8c2df7512b2d","system_id":"levelo_inurba_marseille","lat":43.27488,"lon":5.42459,"is_reserved":false,"is_disabled":false,"rental_uris":{"android":"levelo://app?vid=f8f760c0-d185-4a46-9aba-8c2df7512b2d","ios":"levelo://app?vid=f8f760c0-d185-4a46-9aba-8c2df7512b2d"},"vehicle_type_id":"4","last_reported":1734355305,"current_range_meters":37600,"station_id":"ce4bhn92rcd13ifvqgrg","pricing_plan_id":"cebpf4jnsgd1na2vs0mg"},{"bike_id":"08c27f01-bee4-4f80-ac9c-e2c9a776d9b8","system_id":"levelo_inurba_marseille","lat":43.265,"lon":5.39538,"is_reserved":false,"is_disabled":false,"rental_uris":{"android":"levelo://app?vid=08c27f01-bee4-4f80-ac9c-e2c9a776d9b8","ios":"levelo://app?vid=08c27f01-bee4-4f80-ac9c-e2c9a776d9b8"},"vehicle_type_id":"4","last_reported":1734355305,"current_range_meters":26000,"station_id":"ce4bhi12rcd13ifvqfq0","pricing_plan_id":"cebpf4jnsgd1na2vs0mg"},{"bike_id":"a170ba40-17b7-4bf6-90f8-c07a5cf55709","system_id":"levelo_inurba_marseille","lat":43.24639,"lon":5.38912,"is_reserved":false,"is_disabled":false,"rental_uris":{"android":"levelo://app?vid=a170ba40-17b7-4bf6-90f8-c07a5cf55709","ios":"levelo://app?vid=a170ba40-17b7-4bf6-90f8-c07a5cf55709"},"vehicle_type_id":"4","last_reported":1734355305,"current_range_meters":34000,"station_id":"ce4bhg12rcd13ifvqf60","pricing_plan_id":"cebpf4jnsgd1na2vs0mg"},{"bike_id":"06eb94fd-69b5-42bb-9a93-3989c149a585","system_id":"levelo_inurba_marseille","lat":43.29458,"lon":5.3624,"is_reserved":false,"is_disabled":false,"rental_uris":{"android":"levelo://app?vid=06eb94fd-69b5-42bb-9a93-3989c149a585","ios":"levelo://app?vid=06eb94fd-69b5-42bb-9a93-3989c149a585"},"vehicle_type_id":"4","last_reported":1734355305,"current_range_meters":6400,"station_id":"","pricing_plan_id":"cebpf4jnsgd1na2vs0mg"},{"bike_id":"d9977418-8393-49f5-a40b-c871898e58ed","system_id":"levelo_inurba_marseille","lat":43.32485,"lon":5.36571,"is_reserved":false,"is_disabled":false,"rental_uris":{"android":"levelo://app?vid=d9977418-8393-49f5-a40b-c871898e58ed","ios":"levelo://app?vid=d9977418-8393-49f5-a40b-c871898e58ed"},"vehicle_type_id":"4","last_reported":1734355305,"current_range_meters":19600,"station_id":"ce4bhs12rcd13ifvqhvg","pricing_plan_id":"cebpf4jnsgd1na2vs0mg"},{"bike_id":"05e3f33b-950b-4ea8-be75-2c3dc577d89a","system_id":"levelo_inurba_marseille","lat":43.30781,"lon":5.43524,"is_reserved":false,"is_disabled":true,"rental_uris":{"android":"levelo://app?vid=05e3f33b-950b-4ea8-be75-2c3dc577d89a","ios":"levelo://app?vid=05e3f33b-950b-4ea8-be75-2c3dc577d89a"},"vehicle_type_id":"4","last_reported":1734355305,"current_range_meters":800,"station_id":"ce4bhph2rcd13ifvqheg","pricing_plan_id":"cebpf4jnsgd1na2vs0mg"},{"bike_id":"a65c383f-3385-42a4-b545-47ef069d8255","system_id":"levelo_inurba_marseille","lat":43.29795,"lon":5.38111,"is_reserved":false,"is_disabled":false,"rental_uris":{"android":"levelo://app?vid=a65c383f-3385-42a4-b545-47ef069d8255","ios":"levelo://app?vid=a65c383f-3385-42a4-b545-47ef069d8255"},"vehicle_type_id":"4","last_reported":1734355305,"current_range_meters":20000,"station_id":"ce4bgip2rcd13ifvqbb0","pricing_plan_id":"cebpf4jnsgd1na2vs0mg"},{"bike_id":"bdb3d244-a812-4ee6-8f1f-28791fba811a","system_id":"levelo_inurba_marseille","lat":43.23148,"lon":5.43727,"is_reserved":false,"is_disabled":false,"rental_uris":{"android":"levelo://app?vid=bdb3d244-a812-4ee6-8f1f-28791fba811a","ios":"levelo://app?vid=bdb3d244-a812-4ee6-8f1f-28791fba811a"},"vehicle_type_id":"4","last_reported":1734355305,"current_range_meters":28000,"station_id":"ce4bhmp2rcd13ifvqgog","pricing_plan_id":"cebpf4jnsgd1na2vs0mg"},{"bike_id":"57be658c-fd2e-472e-bca9-6467dc4b0d20","system_id":"levelo_inurba_marseille","lat":43.26503,"lon":5.39545,"is_reserved":false,"is_disabled":false,"rental_uris":{"android":"levelo://app?vid=57be658c-fd2e-472e-bca9-6467dc4b0d20","ios":"levelo://app?vid=57be658c-fd2e-472e-bca9-6467dc4b0d20"},"vehicle_type_id":"4","last_reported":1734355305,"current_range_meters":32000,"station_id":"ce4bhi12rcd13ifvqfq0","pricing_plan_id":"cebpf4jnsgd1na2vs0mg"},{"bike_id":"c0d6a234-928d-47ee-b103-1d91f354d353","system_id":"levelo_inurba_marseille","lat":43.30591,"lon":5.37227,"is_reserved":false,"is_disabled":false,"rental_uris":{"android":"levelo://app?vid=c0d6a234-928d-47ee-b103-1d91f354d353","ios":"levelo://app?vid=c0d6a234-928d-47ee-b103-1d91f354d353"},"vehicle_type_id":"4","last_reported":1734355305,"current_range_meters":28800,"station_id":"ce4bgqh2rcd13ifvqc4g","pricing_plan_id":"cebpf4jnsgd1na2vs0mg"},{"bike_id":"79f94394-dd94-4558-9a5a-505339b4fb18","system_id":"levelo_inurba_marseille","lat":43.24078,"lon":5.37757,"is_reserved":false,"is_disabled":false,"rental_uris":{"android":"levelo://app?vid=79f94394-dd94-4558-9a5a-505339b4fb18","ios":"levelo://app?vid=79f94394-dd94-4558-9a5a-505339b4fb18"},"vehicle_type_id":"4","last_reported":1734355305,"current_range_meters":31200,"station_id":"ce4bhnp2rcd13ifvqgvg","pricing_plan_id":"cebpf4jnsgd1na2vs0mg"},{"bike_id":"daa963a2-7035-4945-ad97-66cb524cc924","system_id":"levelo_inurba_marseille","lat":43.26206,"lon":5.37445,"is_reserved":false,"is_disabled":false,"rental_uris":{"android":"levelo://app?vid=daa963a2-7035-4945-ad97-66cb524cc924","ios":"levelo://app?vid=daa963a2-7035-4945-ad97-66cb524cc924"},"vehicle_type_id":"4","last_reported":1734355305,"current_range_meters":14800,"station_id":"ce4bhgp2rcd13ifvqfc0","pricing_plan_id":"cebpf4jnsgd1na2vs0mg"},{"bike_id":"a5aa0af9-a665-4fc3-ad19-810d6ab62dee","system_id":"levelo_inurba_marseille","lat":43.29214,"lon":5.36049,"is_reserved":false,"is_disabled":false,"rental_uris":{"android":"levelo://app?vid=a5aa0af9-a665-4fc3-ad19-810d6ab62dee","ios":"levelo://app?vid=a5aa0af9-a665-4fc3-ad19-810d6ab62dee"},"vehicle_type_id":"4","last_reported":1734355305,"current_range_meters":32800,"station_id":"ce4bhbh2rcd13ifvqeqg","pricing_plan_id":"cebpf4jnsgd1na2vs0mg"},{"bike_id":"52d0fa06-64d1-499e-bba9-979a7af8f51a","system_id":"levelo_inurba_marseille","lat":43.24661,"lon":5.38181,"is_reserved":false,"is_disabled":false,"rental_uris":{"android":"levelo://app?vid=52d0fa06-64d1-499e-bba9-979a7af8f51a","ios":"levelo://app?vid=52d0fa06-64d1-499e-bba9-979a7af8f51a"},"vehicle_type_id":"4","last_reported":1734355305,"current_range_meters":21600,"station_id":"ce4bhih2rcd13ifvqfr0","pricing_plan_id":"cebpf4jnsgd1na2vs0mg"},{"bike_id":"bdb451e6-a9cc-4ec8-acbc-0694c61e0335","system_id":"levelo_inurba_marseille","lat":43.29771,"lon":5.37106,"is_reserved":false,"is_disabled":false,"rental_uris":{"android":"levelo://app?vid=bdb451e6-a9cc-4ec8-acbc-0694c61e0335","ios":"levelo://app?vid=bdb451e6-a9cc-4ec8-acbc-0694c61e0335"},"vehicle_type_id":"4","last_reported":1734355305,"current_range_meters":24800,"station_id":"ce4bgop2rcd13ifvqc1g","pricing_plan_id":"cebpf4jnsgd1na2vs0mg"},{"bike_id":"119666ee-7528-4e52-89f1-c99509e02f6e","system_id":"levelo_inurba_marseille","lat":43.30531,"lon":5.36548,"is_reserved":false,"is_disabled":false,"rental_uris":{"android":"levelo://app?vid=119666ee-7528-4e52-89f1-c99509e02f6e","ios":"levelo://app?vid=119666ee-7528-4e52-89f1-c99509e02f6e"},"vehicle_type_id":"4","last_reported":1734355305,"current_range_meters":36400,"station_id":"ce4bgs12rcd13ifvqcag","pricing_plan_id":"cebpf4jnsgd1na2vs0mg"},{"bike_id":"0d253baf-5864-4b49-8429-1468e72a0132","system_id":"levelo_inurba_marseille","lat":43.28098,"lon":5.37846,"is_reserved":false,"is_disabled":false,"rental_uris":{"android":"levelo://app?vid=0d253baf-5864-4b49-8429-1468e72a0132","ios":"levelo://app?vid=0d253baf-5864-4b49-8429-1468e72a0132"},"vehicle_type_id":"4","last_reported":1734355305,"current_range_meters":25600,"station_id":"ce4bha12rcd13ifvqee0","pricing_plan_id":"cebpf4jnsgd1na2vs0mg"},{"bike_id":"96ab6859-2778-4498-a228-c3abdc7ea012","system_id":"levelo_inurba_marseille","lat":43.2465,"lon":5.38906,"is_reserved":false,"is_disabled":false,"rental_uris":{"android":"levelo://app?vid=96ab6859-2778-4498-a228-c3abdc7ea012","ios":"levelo://app?vid=96ab6859-2778-4498-a228-c3abdc7ea012"},"vehicle_type_id":"4","last_reported":1734355305,"current_range_meters":16800,"station_id":"ce4bhg12rcd13ifvqf60","pricing_plan_id":"cebpf4jnsgd1na2vs0mg"},{"bike_id":"fe30af20-c1ca-4d3a-9343-a7c26e195096","system_id":"levelo_inurba_marseille","lat":43.30459,"lon":5.37919,"is_reserved":false,"is_disabled":false,"rental_uris":{"android":"levelo://app?vid=fe30af20-c1ca-4d3a-9343-a7c26e195096","ios":"levelo://app?vid=fe30af20-c1ca-4d3a-9343-a7c26e195096"},"vehicle_type_id":"4","last_reported":1734355305,"current_range_meters":38000,"station_id":"ce4bgup2rcd13ifvqcn0","pricing_plan_id":"cebpf4jnsgd1na2vs0mg"},{"bike_id":"31521689-5667-40bd-b73e-63b1ae05560e","system_id":"levelo_inurba_marseille","lat":43.28698,"lon":5.39981,"is_reserved":false,"is_disabled":false,"rental_uris":{"android":"levelo://app?vid=31521689-5667-40bd-b73e-63b1ae05560e","ios":"levelo://app?vid=31521689-5667-40bd-b73e-63b1ae05560e"},"vehicle_type_id":"4","last_reported":1734355305,"current_range_meters":18000,"station_id":"ce4bho92rcd13ifvqh3g","pricing_plan_id":"cebpf4jnsgd1na2vs0mg"},{"bike_id":"61f9b9ba-3c7d-4013-929e-def7239ad41f","system_id":"levelo_inurba_marseille","lat":43.2831,"lon":5.38084,"is_reserved":false,"is_disabled":false,"rental_uris":{"android":"levelo://app?vid=61f9b9ba-3c7d-4013-929e-def7239ad41f","ios":"levelo://app?vid=61f9b9ba-3c7d-4013-929e-def7239ad41f"},"vehicle_type_id":"4","last_reported":1734355305,"current_range_meters":38800,"station_id":"ce4bh412rcd13ifvqdr0","pricing_plan_id":"cebpf4jnsgd1na2vs0mg"},{"bike_id":"63eaffe0-9361-4ff6-ab19-8007100ee7ae","system_id":"levelo_inurba_marseille","lat":43.24153,"lon":5.3971,"is_reserved":false,"is_disabled":false,"rental_uris":{"android":"levelo://app?vid=63eaffe0-9361-4ff6-ab19-8007100ee7ae","ios":"levelo://app?vid=63eaffe0-9361-4ff6-ab19-8007100ee7ae"},"vehicle_type_id":"4","last_reported":1734355305,"current_range_meters":33200,"station_id":"ce4bhn12rcd13ifvqgpg","pricing_plan_id":"cebpf4jnsgd1na2vs0mg"},{"bike_id":"029a988f-b396-4765-a71e-c0a384c95956","system_id":"levelo_inurba_marseille","lat":43.2407,"lon":5.37742,"is_reserved":false,"is_disabled":false,"rental_uris":{"android":"levelo://app?vid=029a988f-b396-4765-a71e-c0a384c95956","ios":"levelo://app?vid=029a988f-b396-4765-a71e-c0a384c95956"},"vehicle_type_id":"4","last_reported":1734355305,"current_range_meters":33600,"station_id":"ce4bhnp2rcd13ifvqgvg","pricing_plan_id":"cebpf4jnsgd1na2vs0mg"},{"bike_id":"40a1a0fc-054a-4c89-9d64-d11f64793c7c","system_id":"levelo_inurba_marseille","lat":43.25939,"lon":5.40905,"is_reserved":false,"is_disabled":false,"rental_uris":{"android":"levelo://app?vid=40a1a0fc-054a-4c89-9d64-d11f64793c7c","ios":"levelo://app?vid=40a1a0fc-054a-4c89-9d64-d11f64793c7c"},"vehicle_type_id":"4","last_reported":1734355305,"current_range_meters":37600,"station_id":"ce4bhm92rcd13ifvqglg","pricing_plan_id":"cebpf4jnsgd1na2vs0mg"},{"bike_id":"5eafd27a-eea6-48f3-94ef-5cc31e2a4cd6","system_id":"levelo_inurba_marseille","lat":43.30806,"lon":5.37651,"is_reserved":false,"is_disabled":true,"rental_uris":{"android":"levelo://app?vid=5eafd27a-eea6-48f3-94ef-5cc31e2a4cd6","ios":"levelo://app?vid=5eafd27a-eea6-48f3-94ef-5cc31e2a4cd6"},"vehicle_type_id":"4","last_reported":1734355305,"current_range_meters":800,"station_id":"ce4bgv92rcd13ifvqcq0","pricing_plan_id":"cebpf4jnsgd1na2vs0mg"},{"bike_id":"3650d84c-d2fd-4728-abeb-b9accdfa7210","system_id":"levelo_inurba_marseille","lat":43.3024,"lon":5.40072,"is_reserved":false,"is_disabled":true,"rental_uris":{"android":"levelo://app?vid=3650d84c-d2fd-4728-abeb-b9accdfa7210","ios":"levelo://app?vid=3650d84c-d2fd-4728-abeb-b9accdfa7210"},"vehicle_type_id":"4","last_reported":1734355305,"current_range_meters":16000,"station_id":"ce4bgvh2rcd13ifvqcs0","pricing_plan_id":"cebpf4jnsgd1na2vs0mg"},{"bike_id":"6065461c-b945-4352-9c9d-0ba55c850d71","system_id":"levelo_inurba_marseille","lat":43.28272,"lon":5.35077,"is_reserved":false,"is_disabled":true,"rental_uris":{"android":"levelo://app?vid=6065461c-b945-4352-9c9d-0ba55c850d71","ios":"levelo://app?vid=6065461c-b945-4352-9c9d-0ba55c850d71"},"vehicle_type_id":"4","last_reported":1734355305,"current_range_meters":1600,"station_id":"ce4bhbp2rcd13ifvqerg","pricing_plan_id":"cebpf4jnsgd1na2vs0mg"},{"bike_id":"4f9d4424-480d-4104-9e59-9da124647ecc","system_id":"levelo_inurba_marseille","lat":43.26528,"lon":5.39535,"is_reserved":false,"is_disabled":false,"rental_uris":{"android":"levelo://app?vid=4f9d4424-480d-4104-9e59-9da124647ecc","ios":"levelo://app?vid=4f9d4424-480d-4104-9e59-9da124647ecc"},"vehicle_type_id":"4","last_reported":1734355305,"current_range_meters":18000,"station_id":"ce4bhi12rcd13ifvqfq0","pricing_plan_id":"cebpf4jnsgd1na2vs0mg"},{"bike_id":"0feb97aa-d411-47b8-9948-4eb3aeb1e7b6","system_id":"levelo_inurba_marseille","lat":43.28681,"lon":5.39987,"is_reserved":false,"is_disabled":false,"rental_uris":{"android":"levelo://app?vid=0feb97aa-d411-47b8-9948-4eb3aeb1e7b6","ios":"levelo://app?vid=0feb97aa-d411-47b8-9948-4eb3aeb1e7b6"},"vehicle_type_id":"4","last_reported":1734355305,"current_range_meters":24400,"station_id":"ce4bho92rcd13ifvqh3g","pricing_plan_id":"cebpf4jnsgd1na2vs0mg"},{"bike_id":"e818fc7c-9a6d-4d38-8ae5-965eb3482d76","system_id":"levelo_inurba_marseille","lat":43.29789,"lon":5.38119,"is_reserved":false,"is_disabled":false,"rental_uris":{"android":"levelo://app?vid=e818fc7c-9a6d-4d38-8ae5-965eb3482d76","ios":"levelo://app?vid=e818fc7c-9a6d-4d38-8ae5-965eb3482d76"},"vehicle_type_id":"4","last_reported":1734355305,"current_range_meters":12400,"station_id":"ce4bgip2rcd13ifvqbb0","pricing_plan_id":"cebpf4jnsgd1na2vs0mg"},{"bike_id":"cbea9c19-6dec-4267-92f2-d35631ac12f3","system_id":"levelo_inurba_marseille","lat":43.27997,"lon":5.40021,"is_reserved":false,"is_disabled":false,"rental_uris":{"android":"levelo://app?vid=cbea9c19-6dec-4267-92f2-d35631ac12f3","ios":"levelo://app?vid=cbea9c19-6dec-4267-92f2-d35631ac12f3"},"vehicle_type_id":"4","last_reported":1734355305,"current_range_meters":38800,"station_id":"ce4bho92rcd13ifvqh4g","pricing_plan_id":"cebpf4jnsgd1na2vs0mg"},{"bike_id":"76805181-b86b-42c5-9eb1-0613fe81a89e","system_id":"levelo_inurba_marseille","lat":43.23192,"lon":5.35565,"is_reserved":false,"is_disabled":false,"rental_uris":{"android":"levelo://app?vid=76805181-b86b-42c5-9eb1-0613fe81a89e","ios":"levelo://app?vid=76805181-b86b-42c5-9eb1-0613fe81a89e"},"vehicle_type_id":"4","last_reported":1734355305,"current_range_meters":36400,"station_id":"ce4bhu92rcd13ifvqi70","pricing_plan_id":"cebpf4jnsgd1na2vs0mg"},{"bike_id":"0173de07-b9ca-4d90-8466-c9e9062f1a7d","system_id":"levelo_inurba_marseille","lat":43.29777,"lon":5.37683,"is_reserved":false,"is_disabled":false,"rental_uris":{"android":"levelo://app?vid=0173de07-b9ca-4d90-8466-c9e9062f1a7d","ios":"levelo://app?vid=0173de07-b9ca-4d90-8466-c9e9062f1a7d"},"vehicle_type_id":"4","last_reported":1734355305,"current_range_meters":29600,"station_id":"","pricing_plan_id":"cebpf4jnsgd1na2vs0mg"},{"bike_id":"a0becf1f-1b35-4e7a-9826-eb0b47fadea7","system_id":"levelo_inurba_marseille","lat":43.30786,"lon":5.37659,"is_reserved":false,"is_disabled":false,"rental_uris":{"android":"levelo://app?vid=a0becf1f-1b35-4e7a-9826-eb0b47fadea7","ios":"levelo://app?vid=a0becf1f-1b35-4e7a-9826-eb0b47fadea7"},"vehicle_type_id":"4","last_reported":1734355305,"current_range_meters":24000,"station_id":"ce4bgv92rcd13ifvqcq0","pricing_plan_id":"cebpf4jnsgd1na2vs0mg"},{"bike_id":"60ae7bde-201d-4827-b7df-8b228b9a47e3","system_id":"levelo_inurba_marseille","lat":43.239873,"lon":5.366472,"is_reserved":false,"is_disabled":false,"rental_uris":{"android":"levelo://app?vid=60ae7bde-201d-4827-b7df-8b228b9a47e3","ios":"levelo://app?vid=60ae7bde-201d-4827-b7df-8b228b9a47e3"},"vehicle_type_id":"4","last_reported":1734355305,"current_range_meters":16800,"station_id":"ce4bhi12rcd13ifvqfp0","pricing_plan_id":"cebpf4jnsgd1na2vs0mg"},{"bike_id":"ce3d3139-e402-4f9f-8ced-a1731c7f2831","system_id":"levelo_inurba_marseille","lat":43.2558,"lon":5.3824,"is_reserved":false,"is_disabled":false,"rental_uris":{"android":"levelo://app?vid=ce3d3139-e402-4f9f-8ced-a1731c7f2831","ios":"levelo://app?vid=ce3d3139-e402-4f9f-8ced-a1731c7f2831"},"vehicle_type_id":"4","last_reported":1734355305,"current_range_meters":38000,"station_id":"ce4bhih2rcd13ifvqfs0","pricing_plan_id":"cebpf4jnsgd1na2vs0mg"},{"bike_id":"f3a90fb9-fc0a-4122-8133-344d6f87d8ba","system_id":"levelo_inurba_marseille","lat":43.31482,"lon":5.37307,"is_reserved":false,"is_disabled":false,"rental_uris":{"android":"levelo://app?vid=f3a90fb9-fc0a-4122-8133-344d6f87d8ba","ios":"levelo://app?vid=f3a90fb9-fc0a-4122-8133-344d6f87d8ba"},"vehicle_type_id":"4","last_reported":1734355305,"current_range_meters":22400,"station_id":"ce4bgt12rcd13ifvqcd0","pricing_plan_id":"cebpf4jnsgd1na2vs0mg"},{"bike_id":"a9061c8b-ef71-4fa5-88c1-006310ec3723","system_id":"levelo_inurba_marseille","lat":43.25708,"lon":5.39431,"is_reserved":false,"is_disabled":false,"rental_uris":{"android":"levelo://app?vid=a9061c8b-ef71-4fa5-88c1-006310ec3723","ios":"levelo://app?vid=a9061c8b-ef71-4fa5-88c1-006310ec3723"},"vehicle_type_id":"4","last_reported":1734355305,"current_range_meters":5600,"station_id":"ce4bhg12rcd13ifvqf60","pricing_plan_id":"cebpf4jnsgd1na2vs0mg"},{"bike_id":"25dcbd86-9328-4fc2-9ec4-ed691c623b1b","system_id":"levelo_inurba_marseille","lat":43.30539,"lon":5.36546,"is_reserved":false,"is_disabled":false,"rental_uris":{"android":"levelo://app?vid=25dcbd86-9328-4fc2-9ec4-ed691c623b1b","ios":"levelo://app?vid=25dcbd86-9328-4fc2-9ec4-ed691c623b1b"},"vehicle_type_id":"4","last_reported":1734355305,"current_range_meters":22400,"station_id":"ce4bgs12rcd13ifvqcag","pricing_plan_id":"cebpf4jnsgd1na2vs0mg"},{"bike_id":"02b92c31-0e08-4914-a6d9-ac380cc9c6e4","system_id":"levelo_inurba_marseille","lat":43.284255,"lon":5.39203,"is_reserved":false,"is_disabled":false,"rental_uris":{"android":"levelo://app?vid=02b92c31-0e08-4914-a6d9-ac380cc9c6e4","ios":"levelo://app?vid=02b92c31-0e08-4914-a6d9-ac380cc9c6e4"},"vehicle_type_id":"4","last_reported":1734355305,"current_range_meters":39200,"station_id":"ce4bhoh2rcd13ifvqh5g","pricing_plan_id":"cebpf4jnsgd1na2vs0mg"},{"bike_id":"9322b5b3-d00a-47e0-ad02-605fd232e778","system_id":"levelo_inurba_marseille","lat":43.25105,"lon":5.40323,"is_reserved":false,"is_disabled":false,"rental_uris":{"android":"levelo://app?vid=9322b5b3-d00a-47e0-ad02-605fd232e778","ios":"levelo://app?vid=9322b5b3-d00a-47e0-ad02-605fd232e778"},"vehicle_type_id":"4","last_reported":1734355305,"current_range_meters":24000,"station_id":"ce4bhlh2rcd13ifvqgig","pricing_plan_id":"cebpf4jnsgd1na2vs0mg"},{"bike_id":"abfe5477-54e0-4c68-9f86-fdbaa8d0bb88","system_id":"levelo_inurba_marseille","lat":43.26206,"lon":5.37454,"is_reserved":false,"is_disabled":false,"rental_uris":{"android":"levelo://app?vid=abfe5477-54e0-4c68-9f86-fdbaa8d0bb88","ios":"levelo://app?vid=abfe5477-54e0-4c68-9f86-fdbaa8d0bb88"},"vehicle_type_id":"4","last_reported":1734355305,"current_range_meters":37600,"station_id":"ce4bhgp2rcd13ifvqfc0","pricing_plan_id":"cebpf4jnsgd1na2vs0mg"},{"bike_id":"3541095f-5006-48c0-851c-9ab7d8f6b0e2","system_id":"levelo_inurba_marseille","lat":43.31754,"lon":5.39019,"is_reserved":false,"is_disabled":false,"rental_uris":{"android":"levelo://app?vid=3541095f-5006-48c0-851c-9ab7d8f6b0e2","ios":"levelo://app?vid=3541095f-5006-48c0-851c-9ab7d8f6b0e2"},"vehicle_type_id":"4","last_reported":1734355305,"current_range_meters":36000,"station_id":"ce4bhqp2rcd13ifvqhng","pricing_plan_id":"cebpf4jnsgd1na2vs0mg"},{"bike_id":"75245538-587b-460b-b26e-b829c3a321a5","system_id":"levelo_inurba_marseille","lat":43.24066,"lon":5.37761,"is_reserved":false,"is_disabled":false,"rental_uris":{"android":"levelo://app?vid=75245538-587b-460b-b26e-b829c3a321a5","ios":"levelo://app?vid=75245538-587b-460b-b26e-b829c3a321a5"},"vehicle_type_id":"4","last_reported":1734355305,"current_range_meters":8800,"station_id":"ce4bhnp2rcd13ifvqgvg","pricing_plan_id":"cebpf4jnsgd1na2vs0mg"},{"bike_id":"283ec910-2b59-4ffd-bbff-9867d116f826","system_id":"levelo_inurba_marseille","lat":43.337444,"lon":5.374475,"is_reserved":false,"is_disabled":true,"rental_uris":{"android":"levelo://app?vid=283ec910-2b59-4ffd-bbff-9867d116f826","ios":"levelo://app?vid=283ec910-2b59-4ffd-bbff-9867d116f826"},"vehicle_type_id":"4","last_reported":1734355305,"current_range_meters":0,"station_id":"","pricing_plan_id":"cebpf4jnsgd1na2vs0mg"},{"bike_id":"5b6b9c4d-7037-4e6d-8553-93cd4d228e33","system_id":"levelo_inurba_marseille","lat":43.3089,"lon":5.37194,"is_reserved":false,"is_disabled":false,"rental_uris":{"android":"levelo://app?vid=5b6b9c4d-7037-4e6d-8553-93cd4d228e33","ios":"levelo://app?vid=5b6b9c4d-7037-4e6d-8553-93cd4d228e33"},"vehicle_type_id":"4","last_reported":1734355305,"current_range_meters":20000,"station_id":"ce4bguh2rcd13ifvqckg","pricing_plan_id":"cebpf4jnsgd1na2vs0mg"},{"bike_id":"ad857147-75ea-4fa8-8a24-2a5b1b443a29","system_id":"levelo_inurba_marseille","lat":43.29191,"lon":5.39337,"is_reserved":false,"is_disabled":true,"rental_uris":{"android":"levelo://app?vid=ad857147-75ea-4fa8-8a24-2a5b1b443a29","ios":"levelo://app?vid=ad857147-75ea-4fa8-8a24-2a5b1b443a29"},"vehicle_type_id":"4","last_reported":1734355305,"current_range_meters":12400,"station_id":"ce4bh192rcd13ifvqdd0","pricing_plan_id":"cebpf4jnsgd1na2vs0mg"},{"bike_id":"0dd4bf6c-16f6-4030-a6b4-633aa63fc756","system_id":"levelo_inurba_marseille","lat":43.32037,"lon":5.41572,"is_reserved":false,"is_disabled":false,"rental_uris":{"android":"levelo://app?vid=0dd4bf6c-16f6-4030-a6b4-633aa63fc756","ios":"levelo://app?vid=0dd4bf6c-16f6-4030-a6b4-633aa63fc756"},"vehicle_type_id":"4","last_reported":1734355305,"current_range_meters":22800,"station_id":"ce4bhq92rcd13ifvqhkg","pricing_plan_id":"cebpf4jnsgd1na2vs0mg"},{"bike_id":"bbffd889-750b-4762-ae94-78458d50ea91","system_id":"levelo_inurba_marseille","lat":43.3372,"lon":5.39193,"is_reserved":false,"is_disabled":false,"rental_uris":{"android":"levelo://app?vid=bbffd889-750b-4762-ae94-78458d50ea91","ios":"levelo://app?vid=bbffd889-750b-4762-ae94-78458d50ea91"},"vehicle_type_id":"4","last_reported":1734355305,"current_range_meters":39200,"station_id":"ce4bhr92rcd13ifvqhsg","pricing_plan_id":"cebpf4jnsgd1na2vs0mg"},{"bike_id":"c51beac4-adb3-42ef-9106-c0040e40a7d2","system_id":"levelo_inurba_marseille","lat":43.30533,"lon":5.36719,"is_reserved":false,"is_disabled":false,"rental_uris":{"android":"levelo://app?vid=c51beac4-adb3-42ef-9106-c0040e40a7d2","ios":"levelo://app?vid=c51beac4-adb3-42ef-9106-c0040e40a7d2"},"vehicle_type_id":"4","last_reported":1734355305,"current_range_meters":17600,"station_id":"ce4bgrp2rcd13ifvqc9g","pricing_plan_id":"cebpf4jnsgd1na2vs0mg"},{"bike_id":"d27448c5-97c5-43db-b4ca-6e9efcde6100","system_id":"levelo_inurba_marseille","lat":43.24648,"lon":5.38907,"is_reserved":false,"is_disabled":false,"rental_uris":{"android":"levelo://app?vid=d27448c5-97c5-43db-b4ca-6e9efcde6100","ios":"levelo://app?vid=d27448c5-97c5-43db-b4ca-6e9efcde6100"},"vehicle_type_id":"4","last_reported":1734355305,"current_range_meters":22000,"station_id":"ce4bhg12rcd13ifvqf60","pricing_plan_id":"cebpf4jnsgd1na2vs0mg"},{"bike_id":"44d4e17a-b666-46b4-a605-b9806c360661","system_id":"levelo_inurba_marseille","lat":43.26944,"lon":5.38637,"is_reserved":false,"is_disabled":false,"rental_uris":{"android":"levelo://app?vid=44d4e17a-b666-46b4-a605-b9806c360661","ios":"levelo://app?vid=44d4e17a-b666-46b4-a605-b9806c360661"},"vehicle_type_id":"4","last_reported":1734355305,"current_range_meters":17600,"station_id":"ce4bhh92rcd13ifvqfh0","pricing_plan_id":"cebpf4jnsgd1na2vs0mg"},{"bike_id":"285c6471-6f32-4595-88da-356f689cb7ed","system_id":"levelo_inurba_marseille","lat":43.29029,"lon":5.38641,"is_reserved":false,"is_disabled":false,"rental_uris":{"android":"levelo://app?vid=285c6471-6f32-4595-88da-356f689cb7ed","ios":"levelo://app?vid=285c6471-6f32-4595-88da-356f689cb7ed"},"vehicle_type_id":"4","last_reported":1734355305,"current_range_meters":38800,"station_id":"ce4bh4p2rcd13ifvqe0g","pricing_plan_id":"cebpf4jnsgd1na2vs0mg"},{"bike_id":"ec166c4d-2d91-4049-8ddf-93d8bdd9e169","system_id":"levelo_inurba_marseille","lat":43.26945,"lon":5.38628,"is_reserved":false,"is_disabled":true,"rental_uris":{"android":"levelo://app?vid=ec166c4d-2d91-4049-8ddf-93d8bdd9e169","ios":"levelo://app?vid=ec166c4d-2d91-4049-8ddf-93d8bdd9e169"},"vehicle_type_id":"4","last_reported":1734355305,"current_range_meters":0,"station_id":"ce4bhh92rcd13ifvqfh0","pricing_plan_id":"cebpf4jnsgd1na2vs0mg"},{"bike_id":"82e3d915-2702-4ee2-b7ff-cc50912345a6","system_id":"levelo_inurba_marseille","lat":43.28359,"lon":5.38634,"is_reserved":false,"is_disabled":false,"rental_uris":{"android":"levelo://app?vid=82e3d915-2702-4ee2-b7ff-cc50912345a6","ios":"levelo://app?vid=82e3d915-2702-4ee2-b7ff-cc50912345a6"},"vehicle_type_id":"4","last_reported":1734355305,"current_range_meters":8000,"station_id":"ce4bh492rcd13ifvqdvg","pricing_plan_id":"cebpf4jnsgd1na2vs0mg"},{"bike_id":"a1a7695d-1433-4a15-ba0e-0d37d74f199f","system_id":"levelo_inurba_marseille","lat":43.27429,"lon":5.3941,"is_reserved":false,"is_disabled":false,"rental_uris":{"android":"levelo://app?vid=a1a7695d-1433-4a15-ba0e-0d37d74f199f","ios":"levelo://app?vid=a1a7695d-1433-4a15-ba0e-0d37d74f199f"},"vehicle_type_id":"4","last_reported":1734355305,"current_range_meters":37600,"station_id":"ce4bhdp2rcd13ifvqf20","pricing_plan_id":"cebpf4jnsgd1na2vs0mg"},{"bike_id":"64d599a0-e542-4563-ae87-4a9ff44fcddd","system_id":"levelo_inurba_marseille","lat":43.24635,"lon":5.38924,"is_reserved":false,"is_disabled":false,"rental_uris":{"android":"levelo://app?vid=64d599a0-e542-4563-ae87-4a9ff44fcddd","ios":"levelo://app?vid=64d599a0-e542-4563-ae87-4a9ff44fcddd"},"vehicle_type_id":"4","last_reported":1734355305,"current_range_meters":19200,"station_id":"ce4bhg12rcd13ifvqf60","pricing_plan_id":"cebpf4jnsgd1na2vs0mg"},{"bike_id":"fdc60b6c-9ca0-4219-ab5c-766490a5cd88","system_id":"levelo_inurba_marseille","lat":43.33583,"lon":5.40956,"is_reserved":false,"is_disabled":true,"rental_uris":{"android":"levelo://app?vid=fdc60b6c-9ca0-4219-ab5c-766490a5cd88","ios":"levelo://app?vid=fdc60b6c-9ca0-4219-ab5c-766490a5cd88"},"vehicle_type_id":"4","last_reported":1734355305,"current_range_meters":38800,"station_id":"ce4bhqh2rcd13ifvqhmg","pricing_plan_id":"cebpf4jnsgd1na2vs0mg"},{"bike_id":"c930ddbe-5d83-40f5-9cce-5ddffec9e772","system_id":"levelo_inurba_marseille","lat":43.23162,"lon":5.43677,"is_reserved":false,"is_disabled":true,"rental_uris":{"android":"levelo://app?vid=c930ddbe-5d83-40f5-9cce-5ddffec9e772","ios":"levelo://app?vid=c930ddbe-5d83-40f5-9cce-5ddffec9e772"},"vehicle_type_id":"4","last_reported":1734355305,"current_range_meters":0,"station_id":"ce4bhmp2rcd13ifvqgog","pricing_plan_id":"cebpf4jnsgd1na2vs0mg"},{"bike_id":"5087b8f4-94e9-4b5d-a4dc-4b3c2e7214cf","system_id":"levelo_inurba_marseille","lat":43.25717,"lon":5.41112,"is_reserved":false,"is_disabled":false,"rental_uris":{"android":"levelo://app?vid=5087b8f4-94e9-4b5d-a4dc-4b3c2e7214cf","ios":"levelo://app?vid=5087b8f4-94e9-4b5d-a4dc-4b3c2e7214cf"},"vehicle_type_id":"4","last_reported":1734355305,"current_range_meters":27600,"station_id":"ce4bhkp2rcd13ifvqgd0","pricing_plan_id":"cebpf4jnsgd1na2vs0mg"},{"bike_id":"74e80a21-c471-4a17-bf5c-e35576de7d34","system_id":"levelo_inurba_marseille","lat":43.23968,"lon":5.36632,"is_reserved":false,"is_disabled":false,"rental_uris":{"android":"levelo://app?vid=74e80a21-c471-4a17-bf5c-e35576de7d34","ios":"levelo://app?vid=74e80a21-c471-4a17-bf5c-e35576de7d34"},"vehicle_type_id":"4","last_reported":1734355305,"current_range_meters":38800,"station_id":"ce4bhi12rcd13ifvqfp0","pricing_plan_id":"cebpf4jnsgd1na2vs0mg"},{"bike_id":"b103cdff-3824-4aad-bc10-26ceb128587a","system_id":"levelo_inurba_marseille","lat":43.32408,"lon":5.36599,"is_reserved":false,"is_disabled":false,"rental_uris":{"android":"levelo://app?vid=b103cdff-3824-4aad-bc10-26ceb128587a","ios":"levelo://app?vid=b103cdff-3824-4aad-bc10-26ceb128587a"},"vehicle_type_id":"4","last_reported":1734355305,"current_range_meters":30000,"station_id":"ce4bhs12rcd13ifvqhvg","pricing_plan_id":"cebpf4jnsgd1na2vs0mg"},{"bike_id":"616140fb-8c23-460c-ba60-117d54214454","system_id":"levelo_inurba_marseille","lat":43.29896,"lon":5.43674,"is_reserved":false,"is_disabled":false,"rental_uris":{"android":"levelo://app?vid=616140fb-8c23-460c-ba60-117d54214454","ios":"levelo://app?vid=616140fb-8c23-460c-ba60-117d54214454"},"vehicle_type_id":"4","last_reported":1734355305,"current_range_meters":8800,"station_id":"ce4bhpp2rcd13ifvqhfg","pricing_plan_id":"cebpf4jnsgd1na2vs0mg"},{"bike_id":"ca5e9aaf-367d-4b58-b046-ac52b35a94a3","system_id":"levelo_inurba_marseille","lat":43.27498,"lon":5.42453,"is_reserved":false,"is_disabled":false,"rental_uris":{"android":"levelo://app?vid=ca5e9aaf-367d-4b58-b046-ac52b35a94a3","ios":"levelo://app?vid=ca5e9aaf-367d-4b58-b046-ac52b35a94a3"},"vehicle_type_id":"4","last_reported":1734355305,"current_range_meters":6800,"station_id":"ce4bhn92rcd13ifvqgrg","pricing_plan_id":"cebpf4jnsgd1na2vs0mg"},{"bike_id":"d09f9722-bb8a-4497-a3dd-86197b740ff1","system_id":"levelo_inurba_marseille","lat":43.29841,"lon":5.36271,"is_reserved":false,"is_disabled":false,"rental_uris":{"android":"levelo://app?vid=d09f9722-bb8a-4497-a3dd-86197b740ff1","ios":"levelo://app?vid=d09f9722-bb8a-4497-a3dd-86197b740ff1"},"vehicle_type_id":"4","last_reported":1734355305,"current_range_meters":38400,"station_id":"ce4bgpp2rcd13ifvqc3g","pricing_plan_id":"cebpf4jnsgd1na2vs0mg"},{"bike_id":"b72dfed9-279a-475a-89bc-bf60814a3d67","system_id":"levelo_inurba_marseille","lat":43.30209,"lon":5.39493,"is_reserved":false,"is_disabled":false,"rental_uris":{"android":"levelo://app?vid=b72dfed9-279a-475a-89bc-bf60814a3d67","ios":"levelo://app?vid=b72dfed9-279a-475a-89bc-bf60814a3d67"},"vehicle_type_id":"4","last_reported":1734355305,"current_range_meters":17200,"station_id":"ce4bh0p2rcd13ifvqd70","pricing_plan_id":"cebpf4jnsgd1na2vs0mg"},{"bike_id":"85badd7d-0c70-4033-a7d7-e06bf65183ae","system_id":"levelo_inurba_marseille","lat":43.2798,"lon":5.38741,"is_reserved":false,"is_disabled":false,"rental_uris":{"android":"levelo://app?vid=85badd7d-0c70-4033-a7d7-e06bf65183ae","ios":"levelo://app?vid=85badd7d-0c70-4033-a7d7-e06bf65183ae"},"vehicle_type_id":"4","last_reported":1734355305,"current_range_meters":39200,"station_id":"ce4bhg12rcd13ifvqf80","pricing_plan_id":"cebpf4jnsgd1na2vs0mg"},{"bike_id":"47b805ae-4b3c-4674-838c-11f74b39304f","system_id":"levelo_inurba_marseille","lat":43.29537,"lon":5.3903,"is_reserved":false,"is_disabled":false,"rental_uris":{"android":"levelo://app?vid=47b805ae-4b3c-4674-838c-11f74b39304f","ios":"levelo://app?vid=47b805ae-4b3c-4674-838c-11f74b39304f"},"vehicle_type_id":"4","last_reported":1734355305,"current_range_meters":17200,"station_id":"ce4bh3p2rcd13ifvqdp0","pricing_plan_id":"cebpf4jnsgd1na2vs0mg"},{"bike_id":"72a78e1a-50a0-4faf-a489-271a82764aae","system_id":"levelo_inurba_marseille","lat":43.27492,"lon":5.42456,"is_reserved":false,"is_disabled":false,"rental_uris":{"android":"levelo://app?vid=72a78e1a-50a0-4faf-a489-271a82764aae","ios":"levelo://app?vid=72a78e1a-50a0-4faf-a489-271a82764aae"},"vehicle_type_id":"4","last_reported":1734355305,"current_range_meters":20400,"station_id":"ce4bhn92rcd13ifvqgrg","pricing_plan_id":"cebpf4jnsgd1na2vs0mg"},{"bike_id":"a1ad1281-5ae5-49b2-898f-2e44f25bbb3b","system_id":"levelo_inurba_marseille","lat":43.33602,"lon":5.41035,"is_reserved":false,"is_disabled":false,"rental_uris":{"android":"levelo://app?vid=a1ad1281-5ae5-49b2-898f-2e44f25bbb3b","ios":"levelo://app?vid=a1ad1281-5ae5-49b2-898f-2e44f25bbb3b"},"vehicle_type_id":"4","last_reported":1734355305,"current_range_meters":8400,"station_id":"ce4bhqh2rcd13ifvqhmg","pricing_plan_id":"cebpf4jnsgd1na2vs0mg"},{"bike_id":"44e53cbc-6e88-4595-ac99-024671fdaa83","system_id":"levelo_inurba_marseille","lat":43.29034,"lon":5.37563,"is_reserved":false,"is_disabled":false,"rental_uris":{"android":"levelo://app?vid=44e53cbc-6e88-4595-ac99-024671fdaa83","ios":"levelo://app?vid=44e53cbc-6e88-4595-ac99-024671fdaa83"},"vehicle_type_id":"4","last_reported":1734355305,"current_range_meters":16000,"station_id":"ce4bh692rcd13ifvqe90","pricing_plan_id":"cebpf4jnsgd1na2vs0mg"},{"bike_id":"19a58893-8ab8-4d65-bcfd-31ef2e74fd4b","system_id":"levelo_inurba_marseille","lat":43.293,"lon":5.37173,"is_reserved":false,"is_disabled":false,"rental_uris":{"android":"levelo://app?vid=19a58893-8ab8-4d65-bcfd-31ef2e74fd4b","ios":"levelo://app?vid=19a58893-8ab8-4d65-bcfd-31ef2e74fd4b"},"vehicle_type_id":"4","last_reported":1734355305,"current_range_meters":38000,"station_id":"ce4bgh92rcd13ifvqb40","pricing_plan_id":"cebpf4jnsgd1na2vs0mg"},{"bike_id":"bb3b068a-3841-45aa-a3ff-96022166fe96","system_id":"levelo_inurba_marseille","lat":43.28106,"lon":5.3772,"is_reserved":false,"is_disabled":false,"rental_uris":{"android":"levelo://app?vid=bb3b068a-3841-45aa-a3ff-96022166fe96","ios":"levelo://app?vid=bb3b068a-3841-45aa-a3ff-96022166fe96"},"vehicle_type_id":"4","last_reported":1734355305,"current_range_meters":27200,"station_id":"","pricing_plan_id":"cebpf4jnsgd1na2vs0mg"},{"bike_id":"b796ad08-a20d-4a8c-a695-f836bdea1141","system_id":"levelo_inurba_marseille","lat":43.2942,"lon":5.38629,"is_reserved":false,"is_disabled":false,"rental_uris":{"android":"levelo://app?vid=b796ad08-a20d-4a8c-a695-f836bdea1141","ios":"levelo://app?vid=b796ad08-a20d-4a8c-a695-f836bdea1141"},"vehicle_type_id":"4","last_reported":1734355305,"current_range_meters":38000,"station_id":"ce4bh2h2rcd13ifvqdh0","pricing_plan_id":"cebpf4jnsgd1na2vs0mg"},{"bike_id":"20b9e2ea-aa94-4032-922b-8597a859bcc3","system_id":"levelo_inurba_marseille","lat":43.29017,"lon":5.39991,"is_reserved":false,"is_disabled":false,"rental_uris":{"android":"levelo://app?vid=20b9e2ea-aa94-4032-922b-8597a859bcc3","ios":"levelo://app?vid=20b9e2ea-aa94-4032-922b-8597a859bcc3"},"vehicle_type_id":"4","last_reported":1734355305,"current_range_meters":38800,"station_id":"ce4bh392rcd13ifvqdm0","pricing_plan_id":"cebpf4jnsgd1na2vs0mg"},{"bike_id":"cdaaebde-d6ff-468d-a6da-0e02e4f3fa84","system_id":"levelo_inurba_marseille","lat":43.2834,"lon":5.38106,"is_reserved":false,"is_disabled":false,"rental_uris":{"android":"levelo://app?vid=cdaaebde-d6ff-468d-a6da-0e02e4f3fa84","ios":"levelo://app?vid=cdaaebde-d6ff-468d-a6da-0e02e4f3fa84"},"vehicle_type_id":"4","last_reported":1734355305,"current_range_meters":24400,"station_id":"ce4bh412rcd13ifvqdr0","pricing_plan_id":"cebpf4jnsgd1na2vs0mg"},{"bike_id":"d2a40087-36f0-4920-b4f5-999bab8e305f","system_id":"levelo_inurba_marseille","lat":43.30568,"lon":5.37228,"is_reserved":false,"is_disabled":false,"rental_uris":{"android":"levelo://app?vid=d2a40087-36f0-4920-b4f5-999bab8e305f","ios":"levelo://app?vid=d2a40087-36f0-4920-b4f5-999bab8e305f"},"vehicle_type_id":"4","last_reported":1734355305,"current_range_meters":9600,"station_id":"ce4bgqh2rcd13ifvqc4g","pricing_plan_id":"cebpf4jnsgd1na2vs0mg"},{"bike_id":"89837474-4482-4d91-b65f-666133b2f769","system_id":"levelo_inurba_marseille","lat":43.28157,"lon":5.42639,"is_reserved":false,"is_disabled":false,"rental_uris":{"android":"levelo://app?vid=89837474-4482-4d91-b65f-666133b2f769","ios":"levelo://app?vid=89837474-4482-4d91-b65f-666133b2f769"},"vehicle_type_id":"4","last_reported":1734355305,"current_range_meters":6400,"station_id":"ce4bhnh2rcd13ifvqgug","pricing_plan_id":"cebpf4jnsgd1na2vs0mg"},{"bike_id":"253743f7-9aa5-4b03-8f64-a36cd1608afe","system_id":"levelo_inurba_marseille","lat":43.25935,"lon":5.40911,"is_reserved":false,"is_disabled":false,"rental_uris":{"android":"levelo://app?vid=253743f7-9aa5-4b03-8f64-a36cd1608afe","ios":"levelo://app?vid=253743f7-9aa5-4b03-8f64-a36cd1608afe"},"vehicle_type_id":"4","last_reported":1734355305,"current_range_meters":27600,"station_id":"ce4bhm92rcd13ifvqglg","pricing_plan_id":"cebpf4jnsgd1na2vs0mg"},