{"last_updated":1767795310,"ttl":60,"version":"2.2","data":{"bikes":[{"bike_id":"f7266f96-97df-4d00-8894-b574c422868e","system_id":"levelo_inurba_marseille","lat":43.2871,"lon":5.36113,"is_reserved":false,"is_disabled":false,"rental_uris":{"android":"levelo://app?vid=f7266f96-97df-4d00-8894-b574c422868e","ios":"levelo://app?vid=f7266f96-97df-4d00-8894-b574c422868e"},"vehicle_type_id":"4","last_reported":1767795311,"current_range_meters":2800,"station_id":"cki0cbj6b192h4jlfktg","pricing_plan_id":"cebpf4jnsgd1na2vs0mg"},{"bike_id":"9543aad1-f2c5-4f3f-ab6a-e1b8918ce8ce","system_id":"levelo_inurba_marseille","lat":43.29899,"lon":5.38499,"is_reserved":false,"is_disabled":false,"rental_uris":{"android":"levelo://app?vid=9543aad1-f2c5-4f3f-ab6a-e1b8918ce8ce","ios":"levelo://app?vid=9543aad1-f2c5-4f3f-ab6a-e1b8918ce8ce"},"vehicle_type_id":"4","last_reported":1767795311,"current_range_meters":2800,"station_id":"","pricing_plan_id":"cebpf4jnsgd1na2vs0mg"},{"bike_id":"f65f63eb-ce83-4fca-92d7-e8ed23681f0c","system_id":"levelo_inurba_marseille","lat":43.29534,"lon":5.38545,"is_reserved":false,"is_disabled":false,"rental_uris":{"android":"levelo://app?vid=f65f63eb-ce83-4fca-92d7-e8ed23681f0c","ios":"levelo://app?vid=f65f63eb-ce83-4fca-92d7-e8ed23681f0c"},"vehicle_type_id":"4","last_reported":1767795311,"current_range_meters":2800,"station_id":"ce4bgih2rcd13ifvqba0","pricing_plan_id":"cebpf4jnsgd1na2vs0mg"},{"bike_id":"565f99b7-e9e2-4b44-8331-6450d9ae6732","system_id":"levelo_inurba_marseille","lat":43.32095,"lon":5.36795,"is_reserved":false,"is_disabled":false,"rental_uris":{"android":"levelo://app?vid=565f99b7-e9e2-4b44-8331-6450d9ae6732","ios":"levelo://app?vid=565f99b7-e9e2-4b44-8331-6450d9ae6732"},"vehicle_type_id":"4","last_reported":1767795311,"current_range_meters":2800,"station_id":"ce4bhrh2rcd13ifvqhug","pricing_plan_id":"cebpf4jnsgd1na2vs0mg"},{"bike_id":"fad68b58-3feb-4a99-9f33-50e6502be28a","system_id":"levelo_inurba_marseille","lat":43.32922,"lon":5.37552,"is_reserved":false,"is_disabled":false,"rental_uris":{"android":"levelo://app?vid=fad68b58-3feb-4a99-9f33-50e6502be28a","ios":"levelo://app?vid=fad68b58-3feb-4a99-9f33-50e6502be28a"},"vehicle_type_id":"4","last_reported":1767795311,"current_range_meters":2800,"station_id":"","pricing_plan_id":"cebpf4jnsgd1na2vs0mg"},{"bike_id":"c773f61c-a83f-41d9-bdd4-df8791dcab70","system_id":"levelo_inurba_marseille","lat":43.29795,"lon":5.37744,"is_reserved":false,"is_disabled":false,"rental_uris":{"android":"levelo://app?vid=c773f61c-a83f-41d9-bdd4-df8791dcab70","ios":"levelo://app?vid=c773f61c-a83f-41d9-bdd4-df8791dcab70"},"vehicle_type_id":"4","last_reported":1767795311,"current_range_meters":2800,"station_id":"","pricing_plan_id":"cebpf4jnsgd1na2vs0mg"},{"bike_id":"e271dcd8-0584-4ad8-9c29-480ecfdaeef5","system_id":"levelo_inurba_marseille","lat":43.337444,"lon":5.374475,"is_reserved":false,"is_disabled":false,"rental_uris":{"android":"levelo://app?vid=e271dcd8-0584-4ad8-9c29-480ecfdaeef5","ios":"levelo://app?vid=e271dcd8-0584-4ad8-9c29-480ecfdaeef5"},"vehicle_type_id":"4","last_reported":1767795311,"current_range_meters":2800,"station_id":"","pricing_plan_id":"cebpf4jnsgd1na2vs0mg"},{"bike_id":"bf0a0489-ec91-406d-a7a0-4b4e36bfc3bb","system_id":"levelo_inurba_marseille","lat":43.229333,"lon":5.353798,"is_reserved":false,"is_disabled":false,"rental_uris":{"android":"levelo://app?vid=bf0a0489-ec91-406d-a7a0-4b4e36bfc3bb","ios":"levelo://app?vid=bf0a0489-ec91-406d-a7a0-4b4e36bfc3bb"},"vehicle_type_id":"4","last_reported":1767795311,"current_range_meters":2800,"station_id":"cpo3532slgdg3j2ikp40","pricing_plan_id":"cebpf4jnsgd1na2vs0mg"},{"bike_id":"79050b2d-51dd-4422-b5f7-33cfc5837f53","system_id":"levelo_inurba_marseille","lat":43.31276,"lon":5.37752,"is_reserved":false,"is_disabled":false,"rental_uris":{"android":"levelo://app?vid=79050b2d-51dd-4422-b5f7-33cfc5837f53","ios":"levelo://app?vid=79050b2d-51dd-4422-b5f7-33cfc5837f53"},"vehicle_type_id":"4","last_reported":1767795311,"current_range_meters":2800,"station_id":"","pricing_plan_id":"cebpf4jnsgd1na2vs0mg"},{"bike_id":"8015c7a3-ca99-4bed-b795-854d89867176","system_id":"levelo_inurba_marseille","lat":43.300345,"lon":5.373509,"is_reserved":false,"is_disabled":false,"rental_uris":{"android":"levelo://app?vid=8015c7a3-ca99-4bed-b795-854d89867176","ios":"levelo://app?vid=8015c7a3-ca99-4bed-b795-854d89867176"},"vehicle_type_id":"4","last_reported":1767795311,"current_range_meters":2800,"station_id":"","pricing_plan_id":"cebpf4jnsgd1na2vs0mg"},{"bike_id":"999e74f3-d4b2-444d-89bc-239d909db7d5","system_id":"levelo_inurba_marseille","lat":43.30146,"lon":5.36943,"is_reserved":false,"is_disabled":false,"rental_uris":{"android":"levelo://app?vid=999e74f3-d4b2-444d-89bc-239d909db7d5","ios":"levelo://app?vid=999e74f3-d4b2-444d-89bc-239d909db7d5"},"vehicle_type_id":"4","last_reported":1767795311,"current_range_meters":2800,"station_id":"","pricing_plan_id":"cebpf4jnsgd1na2vs0mg"},{"bike_id":"93e168c7-21ff-4b6f-b601-03a989e84e40","system_id":"levelo_inurba_marseille","lat":43.28936,"lon":5.364,"is_reserved":false,"is_disabled":false,"rental_uris":{"android":"levelo://app?vid=93e168c7-21ff-4b6f-b601-03a989e84e40","ios":"levelo://app?vid=93e168c7-21ff-4b6f-b601-03a989e84e40"},"vehicle_type_id":"4","last_reported":1767795311,"current_range_meters":2800,"station_id":"ce4bhc92rcd13ifvqetg","pricing_plan_id":"cebpf4jnsgd1na2vs0mg"},{"bike_id":"c92f9eb1-4edf-4277-a16e-c93cc6295b90","system_id":"levelo_inurba_marseille","lat":43.31436,"lon":5.40426,"is_reserved":false,"is_disabled":false,"rental_uris":{"android":"levelo://app?vid=c92f9eb1-4edf-4277-a16e-c93cc6295b90","ios":"levelo://app?vid=c92f9eb1-4edf-4277-a16e-c93cc6295b90"},"vehicle_type_id":"4","last_reported":1767795311,"current_range_meters":2800,"station_id":"","pricing_plan_id":"cebpf4jnsgd1na2vs0mg"},{"bike_id":"d6d8198e-924c-4296-be9b-ce9826e86fff","system_id":"levelo_inurba_marseille","lat":43.29713,"lon":5.37688,"is_reserved":false,"is_disabled":false,"rental_uris":{"android":"levelo://app?vid=d6d8198e-924c-4296-be9b-ce9826e86fff","ios":"levelo://app?vid=d6d8198e-924c-4296-be9b-ce9826e86fff"},"vehicle_type_id":"4","last_reported":1767795311,"current_range_meters":2800,"station_id":"ce4bgkh2rcd13ifvqbl0","pricing_plan_id":"cebpf4jnsgd1na2vs0mg"},{"bike_id":"e39e909d-a3c5-43e0-be4e-6cfc87e9605c","system_id":"levelo_inurba_marseille","lat":43.2768,"lon":5.38863,"is_reserved":false,"is_disabled":false,"rental_uris":{"android":"levelo://app?vid=e39e909d-a3c5-43e0-be4e-6cfc87e9605c","ios":"levelo://app?vid=e39e909d-a3c5-43e0-be4e-6cfc87e9605c"},"vehicle_type_id":"4","last_reported":1767795311,"current_range_meters":2800,"station_id":"ce4bhi12rcd13ifvqfo0","pricing_plan_id":"cebpf4jnsgd1na2vs0mg"},{"bike_id":"8fb137c6-4291-427c-b07f-6302d17aa88c","system_id":"levelo_inurba_marseille","lat":43.305328,"lon":5.367108,"is_reserved":false,"is_disabled":false,"rental_uris":{"android":"levelo://app?vid=8fb137c6-4291-427c-b07f-6302d17aa88c","ios":"levelo://app?vid=8fb137c6-4291-427c-b07f-6302d17aa88c"},"vehicle_type_id":"4","last_reported":1767795311,"current_range_meters":2800,"station_id":"ce4bgrp2rcd13ifvqc9g","pricing_plan_id":"cebpf4jnsgd1na2vs0mg"},{"bike_id":"46fbaf80-e730-48c7-81c2-ddbf9fe8fea7","system_id":"levelo_inurba_marseille","lat":43.26786,"lon":5.39418,"is_reserved":false,"is_disabled":false,"rental_uris":{"android":"levelo://app?vid=46fbaf80-e730-48c7-81c2-ddbf9fe8fea7","ios":"levelo://app?vid=46fbaf80-e730-48c7-81c2-ddbf9fe8fea7"},"vehicle_type_id":"4","last_reported":1767795311,"current_range_meters":2800,"station_id":"ce4bhh12rcd13ifvqfg0","pricing_plan_id":"cebpf4jnsgd1na2vs0mg"},{"bike_id":"eb803557-4827-404f-bef7-8a559750584d","system_id":"levelo_inurba_marseille","lat":43.322921,"lon":5.382724,"is_reserved":false,"is_disabled":false,"rental_uris":{"android":"levelo://app?vid=eb803557-4827-404f-bef7-8a559750584d","ios":"levelo://app?vid=eb803557-4827-404f-bef7-8a559750584d"},"vehicle_type_id":"4","last_reported":1767795311,"current_range_meters":2800,"station_id":"ce4bhr12rcd13ifvqhqg","pricing_plan_id":"cebpf4jnsgd1na2vs0mg"},{"bike_id":"0c06ee89-a23c-4de7-ad02-722fd9dfce80","system_id":"levelo_inurba_marseille","lat":43.23151,"lon":5.43713,"is_reserved":false,"is_disabled":false,"rental_uris":{"android":"levelo://app?vid=0c06ee89-a23c-4de7-ad02-722fd9dfce80","ios":"levelo://app?vid=0c06ee89-a23c-4de7-ad02-722fd9dfce80"},"vehicle_type_id":"4","last_reported":1767795311,"current_range_meters":3200,"station_id":"ce4bhmp2rcd13ifvqgog","pricing_plan_id":"cebpf4jnsgd1na2vs0mg"},{"bike_id":"d599e143-3cfd-4dd2-ba0d-054f2e412eda","system_id":"levelo_inurba_marseille","lat":43.28263,"lon":5.35085,"is_reserved":false,"is_disabled":false,"rental_uris":{"android":"levelo://app?vid=d599e143-3cfd-4dd2-ba0d-054f2e412eda","ios":"levelo://app?vid=d599e143-3cfd-4dd2-ba0d-054f2e412eda"},"vehicle_type_id":"4","last_reported":1767795311,"current_range_meters":3200,"station_id":"ce4bhbp2rcd13ifvqerg","pricing_plan_id":"cebpf4jnsgd1na2vs0mg"},{"bike_id":"5c78052d-8b4f-4e51-8ddb-87be6fb225ca","system_id":"levelo_inurba_marseille","lat":43.23197,"lon":5.35564,"is_reserved":false,"is_disabled":false,"rental_uris":{"android":"levelo://app?vid=5c78052d-8b4f-4e51-8ddb-87be6fb225ca","ios":"levelo://app?vid=5c78052d-8b4f-4e51-8ddb-87be6fb225ca"},"vehicle_type_id":"4","last_reported":1767795311,"current_range_meters":3200,"station_id":"ce4bhu92rcd13ifvqi70","pricing_plan_id":"cebpf4jnsgd1na2vs0mg"},{"bike_id":"6c497e6d-f387-4486-b6c4-b3361d5d69f2","system_id":"levelo_inurba_marseille","lat":43.26788,"lon":5.3942,"is_reserved":false,"is_disabled":false,"rental_uris":{"android":"levelo://app?vid=6c497e6d-f387-4486-b6c4-b3361d5d69f2","ios":"levelo://app?vid=6c497e6d-f387-4486-b6c4-b3361d5d69f2"},"vehicle_type_id":"4","last_reported":1767795311,"current_range_meters":3200,"station_id":"ce4bhh12rcd13ifvqfg0","pricing_plan_id":"cebpf4jnsgd1na2vs0mg"},{"bike_id":"51bab64f-1b87-4acc-8f72-1bf6c05e5090","system_id":"levelo_inurba_marseille","lat":43.231917,"lon":5.355514,"is_reserved":false,"is_disabled":false,"rental_uris":{"android":"levelo://app?vid=51bab64f-1b87-4acc-8f72-1bf6c05e5090","ios":"levelo://app?vid=51bab64f-1b87-4acc-8f72-1bf6c05e5090"},"vehicle_type_id":"4","last_reported":1767795311,"current_range_meters":3200,"station_id":"ce4bhu92rcd13ifvqi70","pricing_plan_id":"cebpf4jnsgd1na2vs0mg"},{"bike_id":"24eff3ca-3a97-4612-a453-75ba4f322897","system_id":"levelo_inurba_marseille","lat":43.28332,"lon":5.38084,"is_reserved":false,"is_disabled":false,"rental_uris":{"android":"levelo://app?vid=24eff3ca-3a97-4612-a453-75ba4f322897","ios":"levelo://app?vid=24eff3ca-3a97-4612-a453-75ba4f322897"},"vehicle_type_id":"4","last_reported":1767795311,"current_range_meters":3200,"station_id":"ce4bh412rcd13ifvqdr0","pricing_plan_id":"cebpf4jnsgd1na2vs0mg"},{"bike_id":"57e5ec53-6513-434d-8865-33ca23338b5c","system_id":"levelo_inurba_marseille","lat":43.27074,"lon":5.42276,"is_reserved":false,"is_disabled":false,"rental_uris":{"android":"levelo://app?vid=57e5ec53-6513-434d-8865-33ca23338b5c","ios":"levelo://app?vid=57e5ec53-6513-434d-8865-33ca23338b5c"},"vehicle_type_id":"4","last_reported":1767795311,"current_range_meters":3200,"station_id":"ce4bhk92rcd13ifvqgb0","pricing_plan_id":"cebpf4jnsgd1na2vs0mg"},{"bike_id":"1b240573-af7c-4639-b255-1918d3ddd5a2","system_id":"levelo_inurba_marseille","lat":43.30541,"lon":5.36544,"is_reserved":false,"is_disabled":false,"rental_uris":{"android":"levelo://app?vid=1b240573-af7c-4639-b255-1918d3ddd5a2","ios":"levelo://app?vid=1b240573-af7c-4639-b255-1918d3ddd5a2"},"vehicle_type_id":"4","last_reported":1767795311,"current_range_meters":3200,"station_id":"ce4bgs12rcd13ifvqcag","pricing_plan_id":"cebpf4jnsgd1na2vs0mg"},{"bike_id":"d2d5c922-3ec7-47cf-bb49-4d3b2b6af0f3","system_id":"levelo_inurba_marseille","lat":43.27685,"lon":5.38927,"is_reserved":false,"is_disabled":false,"rental_uris":{"android":"levelo://app?vid=d2d5c922-3ec7-47cf-bb49-4d3b2b6af0f3","ios":"levelo://app?vid=d2d5c922-3ec7-47cf-bb49-4d3b2b6af0f3"},"vehicle_type_id":"4","last_reported":1767795311,"current_range_meters":3200,"station_id":"ce4bhi12rcd13ifvqfo0","pricing_plan_id":"cebpf4jnsgd1na2vs0mg"},{"bike_id":"9265da08-af6b-41f8-a564-a7a5e4a8d66e","system_id":"levelo_inurba_marseille","lat":43.28463,"lon":5.48375,"is_reserved":false,"is_disabled":false,"rental_uris":{"android":"levelo://app?vid=9265da08-af6b-41f8-a564-a7a5e4a8d66e","ios":"levelo://app?vid=9265da08-af6b-41f8-a564-a7a5e4a8d66e"},"vehicle_type_id":"4","last_reported":1767795311,"current_range_meters":3200,"station_id":"","pricing_plan_id":"cebpf4jnsgd1na2vs0mg"},{"bike_id":"3bc88049-fe85-4f81-88f2-4fe0073c7893","system_id":"levelo_inurba_marseille","lat":43.29819,"lon":5.3904,"is_reserved":false,"is_disabled":false,"rental_uris":{"android":"levelo://app?vid=3bc88049-fe85-4f81-88f2-4fe0073c7893","ios":"levelo://app?vid=3bc88049-fe85-4f81-88f2-4fe0073c7893"},"vehicle_type_id":"4","last_reported":1767795311,"current_range_meters":3200,"station_id":"ce4bgqh2rcd13ifvqc5g","pricing_plan_id":"cebpf4jnsgd1na2vs0mg"},{"bike_id":"4894252c-b3d9-46c9-84bb-6beb79250df2","system_id":"levelo_inurba_marseille","lat":43.295197,"lon":5.394021,"is_reserved":false,"is_disabled":false,"rental_uris":{"android":"levelo://app?vid=4894252c-b3d9-46c9-84bb-6beb79250df2","ios":"levelo://app?vid=4894252c-b3d9-46c9-84bb-6beb79250df2"},"vehicle_type_id":"4","last_reported":1767795311,"current_range_meters":3200,"station_id":"ce4bh292rcd13ifvqdf0","pricing_plan_id":"cebpf4jnsgd1na2vs0mg"},{"bike_id":"b47c1d8d-c2d6-4151-a07a-b5fb9b39922b","system_id":"levelo_inurba_marseille","lat":43.294054,"lon":5.374276,"is_reserved":false,"is_disabled":false,"rental_uris":{"android":"levelo://app?vid=b47c1d8d-c2d6-4151-a07a-b5fb9b39922b","ios":"levelo://app?vid=b47c1d8d-c2d6-4151-a07a-b5fb9b39922b"},"vehicle_type_id":"4","last_reported":1767795311,"current_range_meters":3200,"station_id":"ce4bgi12rcd13ifvqb70","pricing_plan_id":"cebpf4jnsgd1na2vs0mg"},{"bike_id":"69fa1287-3b4c-43a4-a734-74dc488adad2","system_id":"levelo_inurba_marseille","lat":43.25733,"lon":5.41105,"is_reserved":false,"is_disabled":false,"rental_uris":{"android":"levelo://app?vid=69fa1287-3b4c-43a4-a734-74dc488adad2","ios":"levelo://app?vid=69fa1287-3b4c-43a4-a734-74dc488adad2"},"vehicle_type_id":"4","last_reported":1767795311,"current_range_meters":3200,"station_id":"ce4bhkp2rcd13ifvqgd0","pricing_plan_id":"cebpf4jnsgd1na2vs0mg"},{"bike_id":"12c5f871-be2d-45b3-8403-73dcbd963733","system_id":"levelo_inurba_marseille","lat":43.265679,"lon":5.39011,"is_reserved":false,"is_disabled":false,"rental_uris":{"android":"levelo://app?vid=12c5f871-be2d-45b3-8403-73dcbd963733","ios":"levelo://app?vid=12c5f871-be2d-45b3-8403-73dcbd963733"},"vehicle_type_id":"4","last_reported":1767795311,"current_range_meters":3600,"station_id":"ce4bhe12rcd13ifvqf30","pricing_plan_id":"cebpf4jnsgd1na2vs0mg"},{"bike_id":"9429cadb-a739-4f5f-8c2b-cc91a27439eb","system_id":"levelo_inurba_marseille","lat":43.27667,"lon":5.4206,"is_reserved":false,"is_disabled":false,"rental_uris":{"android":"levelo://app?vid=9429cadb-a739-4f5f-8c2b-cc91a27439eb","ios":"levelo://app?vid=9429cadb-a739-4f5f-8c2b-cc91a27439eb"},"vehicle_type_id":"4","last_reported":1767795311,"current_range_meters":3600,"station_id":"","pricing_plan_id":"cebpf4jnsgd1na2vs0mg"},{"bike_id":"65adcb48-fd70-4e3a-9d63-9c88a9b10948","system_id":"levelo_inurba_marseille","lat":43.290077,"lon":5.35616,"is_reserved":false,"is_disabled":false,"rental_uris":{"android":"levelo://app?vid=65adcb48-fd70-4e3a-9d63-9c88a9b10948","ios":"levelo://app?vid=65adcb48-fd70-4e3a-9d63-9c88a9b10948"},"vehicle_type_id":"4","last_reported":1767795311,"current_range_meters":3600,"station_id":"ce4bhb92rcd13ifvqen0","pricing_plan_id":"cebpf4jnsgd1na2vs0mg"},{"bike_id":"a3da1827-148b-41c2-bd04-cbeb3bb21a64","system_id":"levelo_inurba_marseille","lat":43.2796,"lon":5.38734,"is_reserved":false,"is_disabled":false,"rental_uris":{"android":"levelo://app?vid=a3da1827-148b-41c2-bd04-cbeb3bb21a64","ios":"levelo://app?vid=a3da1827-148b-41c2-bd04-cbeb3bb21a64"},"vehicle_type_id":"4","last_reported":1767795311,"current_range_meters":3600,"station_id":"ce4bhg12rcd13ifvqf80","pricing_plan_id":"cebpf4jnsgd1na2vs0mg"},{"bike_id":"27d9b984-914c-44c6-abe9-2fee68ccfc43","system_id":"levelo_inurba_marseille","lat":43.33108,"lon":5.37666,"is_reserved":false,"is_disabled":false,"rental_uris":{"android":"levelo://app?vid=27d9b984-914c-44c6-abe9-2fee68ccfc43","ios":"levelo://app?vid=27d9b984-914c-44c6-abe9-2fee68ccfc43"},"vehicle_type_id":"4","last_reported":1767795311,"current_range_meters":3600,"station_id":"","pricing_plan_id":"cebpf4jnsgd1na2vs0mg"},{"bike_id":"2b249141-87e2-4eaa-8d21-183c28a1a8bb","system_id":"levelo_inurba_marseille","lat":43.29733,"lon":5.42801,"is_reserved":false,"is_disabled":false,"rental_uris":{"android":"levelo://app?vid=2b249141-87e2-4eaa-8d21-183c28a1a8bb","ios":"levelo://app?vid=2b249141-87e2-4eaa-8d21-183c28a1a8bb"},"vehicle_type_id":"4","last_reported":1767795311,"current_range_meters":3600,"station_id":"st_d3md5207bmas73dh9klg","pricing_plan_id":"cebpf4jnsgd1na2vs0mg"},{"bike_id":"6a37a502-8a4f-4bc7-83bd-16348e8cf97e","system_id":"levelo_inurba_marseille","lat":43.32086,"lon":5.36763,"is_reserved":false,"is_disabled":false,"rental_uris":{"android":"levelo://app?vid=6a37a502-8a4f-4bc7-83bd-16348e8cf97e","ios":"levelo://app?vid=6a37a502-8a4f-4bc7-83bd-16348e8cf97e"},"vehicle_type_id":"4","last_reported":1767795311,"current_range_meters":4000,"station_id":"ce4bhrh2rcd13ifvqhug","pricing_plan_id":"cebpf4jnsgd1na2vs0mg"},{"bike_id":"2af0ce7c-ca3c-4dfe-9ab3-190f23e26597","system_id":"levelo_inurba_marseille","lat":43.238731,"lon":5.365227,"is_reserved":false,"is_disabled":false,"rental_uris":{"android":"levelo://app?vid=2af0ce7c-ca3c-4dfe-9ab3-190f23e26597","ios":"levelo://app?vid=2af0ce7c-ca3c-4dfe-9ab3-190f23e26597"},"vehicle_type_id":"4","last_reported":1767795311,"current_range_meters":4000,"station_id":"","pricing_plan_id":"cebpf4jnsgd1na2vs0mg"},{"bike_id":"1cc14a4e-8f2c-4bea-9c25-f855a4eff001","system_id":"levelo_inurba_marseille","lat":43.286156,"lon":5.351033,"is_reserved":false,"is_disabled":false,"rental_uris":{"android":"levelo://app?vid=1cc14a4e-8f2c-4bea-9c25-f855a4eff001","ios":"levelo://app?vid=1cc14a4e-8f2c-4bea-9c25-f855a4eff001"},"vehicle_type_id":"4","last_reported":1767795311,"current_range_meters":4000,"station_id":"ce4bhch2rcd13ifvqeug","pricing_plan_id":"cebpf4jnsgd1na2vs0mg"},{"bike_id":"b2bf8f93-af04-463d-b424-98c34e1a8754","system_id":"levelo_inurba_marseille","lat":43.31348,"lon":5.36704,"is_reserved":false,"is_disabled":false,"rental_uris":{"android":"levelo://app?vid=b2bf8f93-af04-463d-b424-98c34e1a8754","ios":"levelo://app?vid=b2bf8f93-af04-463d-b424-98c34e1a8754"},"vehicle_type_id":"4","last_reported":1767795311,"current_range_meters":4000,"station_id":"ce4bgr92rcd13ifvqc6g","pricing_plan_id":"cebpf4jnsgd1na2vs0mg"},{"bike_id":"7bf86b82-6ed3-4159-b230-eac2a59aeb94","system_id":"levelo_inurba_marseille","lat":43.3095,"lon":5.39028,"is_reserved":false,"is_disabled":false,"rental_uris":{"android":"levelo://app?vid=7bf86b82-6ed3-4159-b230-eac2a59aeb94","ios":"levelo://app?vid=7bf86b82-6ed3-4159-b230-eac2a59aeb94"},"vehicle_type_id":"4","last_reported":1767795311,"current_range_meters":4000,"station_id":"ce4bgup2rcd13ifvqco0","pricing_plan_id":"cebpf4jnsgd1na2vs0mg"},{"bike_id":"b873d448-1951-4df5-bd2c-5e9d96c8aae5","system_id":"levelo_inurba_marseille","lat":43.23785,"lon":5.3663,"is_reserved":false,"is_disabled":false,"rental_uris":{"android":"levelo://app?vid=b873d448-1951-4df5-bd2c-5e9d96c8aae5","ios":"levelo://app?vid=b873d448-1951-4df5-bd2c-5e9d96c8aae5"},"vehicle_type_id":"4","last_reported":1767795311,"current_range_meters":4000,"station_id":"st_d3nk18o9ro0c73en2l3g","pricing_plan_id":"cebpf4jnsgd1na2vs0mg"},{"bike_id":"174e0a88-28ce-484e-8861-adcbe3a929da","system_id":"levelo_inurba_marseille","lat":43.28485,"lon":5.48391,"is_reserved":false,"is_disabled":false,"rental_uris":{"android":"levelo://app?vid=174e0a88-28ce-484e-8861-adcbe3a929da","ios":"levelo://app?vid=174e0a88-28ce-484e-8861-adcbe3a929da"},"vehicle_type_id":"4","last_reported":1767795311,"current_range_meters":4000,"station_id":"st_d3svhcjqgbts73a3dn0g","pricing_plan_id":"cebpf4jnsgd1na2vs0mg"},{"bike_id":"9b21424a-1587-45e4-bf2a-4284accabf77","system_id":"levelo_inurba_marseille","lat":43.28508,"lon":5.4839,"is_reserved":false,"is_disabled":false,"rental_uris":{"android":"levelo://app?vid=9b21424a-1587-45e4-bf2a-4284accabf77","ios":"levelo://app?vid=9b21424a-1587-45e4-bf2a-4284accabf77"},"vehicle_type_id":"4","last_reported":1767795311,"current_range_meters":4000,"station_id":"","pricing_plan_id":"cebpf4jnsgd1na2vs0mg"},{"bike_id":"0fa444e2-e905-4291-806a-2d88c8aeee0e","system_id":"levelo_inurba_marseille","lat":43.292827,"lon":5.401231,"is_reserved":false,"is_disabled":false,"rental_uris":{"android":"levelo://app?vid=0fa444e2-e905-4291-806a-2d88c8aeee0e","ios":"levelo://app?vid=0fa444e2-e905-4291-806a-2d88c8aeee0e"},"vehicle_type_id":"4","last_reported":1767795311,"current_range_meters":4400,"station_id":"ce4bh312rcd13ifvqdk0","pricing_plan_id":"cebpf4jnsgd1na2vs0mg"},{"bike_id":"a60e859d-20a7-4efc-ab94-0c4ccc8ad025","system_id":"levelo_inurba_marseille","lat":43.30646,"lon":5.36608,"is_reserved":false,"is_disabled":false,"rental_uris":{"android":"levelo://app?vid=a60e859d-20a7-4efc-ab94-0c4ccc8ad025","ios":"levelo://app?vid=a60e859d-20a7-4efc-ab94-0c4ccc8ad025"},"vehicle_type_id":"4","last_reported":1767795311,"current_range_meters":4400,"station_id":"","pricing_plan_id":"cebpf4jnsgd1na2vs0mg"},{"bike_id":"6eb221bd-dee6-40a4-b98b-ed096afa0d58","system_id":"levelo_inurba_marseille","lat":43.30213,"lon":5.36612,"is_reserved":false,"is_disabled":false,"rental_uris":{"android":"levelo://app?vid=6eb221bd-dee6-40a4-b98b-ed096afa0d58","ios":"levelo://app?vid=6eb221bd-dee6-40a4-b98b-ed096afa0d58"},"vehicle_type_id":"4","last_reported":1767795311,"current_range_meters":4400,"station_id":"ce4bgrh2rcd13ifvqc8g","pricing_plan_id":"cebpf4jnsgd1na2vs0mg"},{"bike_id":"15bf6c3d-bc89-4e44-bfe7-ef27538e093c","system_id":"levelo_inurba_marseille","lat":43.246271,"lon":5.431546,"is_reserved":false,"is_disabled":false,"rental_uris":{"android":"levelo://app?vid=15bf6c3d-bc89-4e44-bfe7-ef27538e093c","ios":"levelo://app?vid=15bf6c3d-bc89-4e44-bfe7-ef27538e093c"},"vehicle_type_id":"4","last_reported":1767795311,"current_range_meters":4400,"station_id":"st_d2m6c4gdas8pm72e190g","pricing_plan_id":"cebpf4jnsgd1na2vs0mg"},{"bike_id":"55a802b4-e353-46ec-8234-30b8b13627a1","system_id":"levelo_inurba_marseille","lat":43.311857,"lon":5.387218,"is_reserved":false,"is_disabled":false,"rental_uris":{"android":"levelo://app?vid=55a802b4-e353-46ec-8234-30b8b13627a1","ios":"levelo://app?vid=55a802b4-e353-46ec-8234-30b8b13627a1"},"vehicle_type_id":"4","last_reported":1767795311,"current_range_meters":4400,"station_id":"ce4bgv12rcd13ifvqcp0","pricing_plan_id":"cebpf4jnsgd1na2vs0mg"},{"bike_id":"82f6d72a-169c-46dc-bf44-f03a21f411bf","system_id":"levelo_inurba_marseille","lat":43.24468,"lon":5.42535,"is_reserved":false,"is_disabled":false,"rental_uris":{"android":"levelo://app?vid=82f6d72a-169c-46dc-bf44-f03a21f411bf","ios":"levelo://app?vid=82f6d72a-169c-46dc-bf44-f03a21f411bf"},"vehicle_type_id":"4","last_reported":1767795311,"current_range_meters":4400,"station_id":"st_d4a3vfp97mjs738cd8kg","pricing_plan_id":"cebpf4jnsgd1na2vs0mg"},{"bike_id":"fa5a0f52-46ec-4b21-9da0-7d044ea88457","system_id":"levelo_inurba_marseille","lat":43.31226,"lon":5.36847,"is_reserved":false,"is_disabled":false,"rental_uris":{"android":"levelo://app?vid=fa5a0f52-46ec-4b21-9da0-7d044ea88457","ios":"levelo://app?vid=fa5a0f52-46ec-4b21-9da0-7d044ea88457"},"vehicle_type_id":"4","last_reported":1767795311,"current_range_meters":4400,"station_id":"ce4bgl92rcd13ifvqbq0","pricing_plan_id":"cebpf4jnsgd1na2vs0mg"},{"bike_id":"2ae4946d-b906-46b8-a234-0ce94edfc3d3","system_id":"levelo_inurba_marseille","lat":43.29267,"lon":5.40898,"is_reserved":false,"is_disabled":false,"rental_uris":{"android":"levelo://app?vid=2ae4946d-b906-46b8-a234-0ce94edfc3d3","ios":"levelo://app?vid=2ae4946d-b906-46b8-a234-0ce94edfc3d3"},"vehicle_type_id":"4","last_reported":1767795311,"current_range_meters":4400,"station_id":"ce4bh192rcd13ifvqdc0","pricing_plan_id":"cebpf4jnsgd1na2vs0mg"},{"bike_id":"72ba40ff-3811-448f-9824-0a29539e09d4","system_id":"levelo_inurba_marseille","lat":43.22588,"lon":5.41628,"is_reserved":false,"is_disabled":false,"rental_uris":{"android":"levelo://app?vid=72ba40ff-3811-448f-9824-0a29539e09d4","ios":"levelo://app?vid=72ba40ff-3811-448f-9824-0a29539e09d4"},"vehicle_type_id":"4","last_reported":1767795311,"current_range_meters":4800,"station_id":"st_d2o4gvlbi1j2169b742g","pricing_plan_id":"cebpf4jnsgd1na2vs0mg"},{"bike_id":"5e72df6a-f014-4ea4-ad60-94057d8db01a","system_id":"levelo_inurba_marseille","lat":43.259334,"lon":5.409143,"is_reserved":false,"is_disabled":false,"rental_uris":{"android":"levelo://app?vid=5e72df6a-f014-4ea4-ad60-94057d8db01a","ios":"levelo://app?vid=5e72df6a-f014-4ea4-ad60-94057d8db01a"},"vehicle_type_id":"4","last_reported":1767795311,"current_range_meters":4800,"station_id":"ce4bhm92rcd13ifvqglg","pricing_plan_id":"cebpf4jnsgd1na2vs0mg"},{"bike_id":"03bb26cc-5abe-463b-b42d-df12dfc80fb1","system_id":"levelo_inurba_marseille","lat":43.27997,"lon":5.40005,"is_reserved":false,"is_disabled":false,"rental_uris":{"android":"levelo://app?vid=03bb26cc-5abe-463b-b42d-df12dfc80fb1","ios":"levelo://app?vid=03bb26cc-5abe-463b-b42d-df12dfc80fb1"},"vehicle_type_id":"4","last_reported":1767795311,"current_range_meters":4800,"station_id":"ce4bho92rcd13ifvqh4g","pricing_plan_id":"cebpf4jnsgd1na2vs0mg"},{"bike_id":"ab6fe2ee-200d-418c-a693-20bf0b5f3548","system_id":"levelo_inurba_marseille","lat":43.260668,"lon":5.393931,"is_reserved":false,"is_disabled":false,"rental_uris":{"android":"levelo://app?vid=ab6fe2ee-200d-418c-a693-20bf0b5f3548","ios":"levelo://app?vid=ab6fe2ee-200d-418c-a693-20bf0b5f3548"},"vehicle_type_id":"4","last_reported":1767795311,"current_range_meters":4800,"station_id":"","pricing_plan_id":"cebpf4jnsgd1na2vs0mg"},{"bike_id":"e9e6f93f-566e-422e-9b71-a79556ab8c5d","system_id":"levelo_inurba_marseille","lat":43.30286,"lon":5.45653,"is_reserved":false,"is_disabled":false,"rental_uris":{"android":"levelo://app?vid=e9e6f93f-566e-422e-9b71-a79556ab8c5d","ios":"levelo://app?vid=e9e6f93f-566e-422e-9b71-a79556ab8c5d"},"vehicle_type_id":"4","last_reported":1767795311,"current_range_meters":4800,"station_id":"","pricing_plan_id":"cebpf4jnsgd1na2vs0mg"},{"bike_id":"63931dd9-5e9c-4cb5-b5fe-d5d26fe59f6e","system_id":"levelo_inurba_marseille","lat":43.24168,"lon":5.36397,"is_reserved":false,"is_disabled":false,"rental_uris":{"android":"levelo://app?vid=63931dd9-5e9c-4cb5-b5fe-d5d26fe59f6e","ios":"levelo://app?vid=63931dd9-5e9c-4cb5-b5fe-d5d26fe59f6e"},"vehicle_type_id":"4","last_reported":1767795311,"current_range_meters":4800,"station_id":"cpo36qri1sfpv3e86is0","pricing_plan_id":"cebpf4jnsgd1na2vs0mg"},{"bike_id":"16aa4273-9889-401f-a55e-b9a148a6292e","system_id":"levelo_inurba_marseille","lat":43.275537,"lon":5.384378,"is_reserved":false,"is_disabled":false,"rental_uris":{"android":"levelo://app?vid=16aa4273-9889-401f-a55e-b9a148a6292e","ios":"levelo://app?vid=16aa4273-9889-401f-a55e-b9a148a6292e"},"vehicle_type_id":"4","last_reported":1767795311,"current_range_meters":4800,"station_id":"ce4bhh92rcd13ifvqfi0","pricing_plan_id":"cebpf4jnsgd1na2vs0mg"},{"bike_id":"b8408ccb-17d0-4ba3-b31e-918a33cf6e7d","system_id":"levelo_inurba_marseille","lat":43.24689,"lon":5.38143,"is_reserved":false,"is_disabled":true,"rental_uris":{"android":"levelo://app?vid=b8408ccb-17d0-4ba3-b31e-918a33cf6e7d","ios":"levelo://app?vid=b8408ccb-17d0-4ba3-b31e-918a33cf6e7d"},"vehicle_type_id":"4","last_reported":1767795311,"current_range_meters":4800,"station_id":"ce4bhih2rcd13ifvqfr0","pricing_plan_id":"cebpf4jnsgd1na2vs0mg"},{"bike_id":"593bb8bc-3b87-4476-a9bf-4cc19da8aae0","system_id":"levelo_inurba_marseille","lat":43.28892,"lon":5.39301,"is_reserved":false,"is_disabled":false,"rental_uris":{"android":"levelo://app?vid=593bb8bc-3b87-4476-a9bf-4cc19da8aae0","ios":"levelo://app?vid=593bb8bc-3b87-4476-a9bf-4cc19da8aae0"},"vehicle_type_id":"4","last_reported":1767795311,"current_range_meters":4800,"station_id":"ce4bh2p2rcd13ifvqdi0","pricing_plan_id":"cebpf4jnsgd1na2vs0mg"},{"bike_id":"d2201747-bdee-4fca-872c-80a5ab417c3a","system_id":"levelo_inurba_marseille","lat":43.27203,"lon":5.39191,"is_reserved":false,"is_disabled":false,"rental_uris":{"android":"levelo://app?vid=d2201747-bdee-4fca-872c-80a5ab417c3a","ios":"levelo://app?vid=d2201747-bdee-4fca-872c-80a5ab417c3a"},"vehicle_type_id":"4","last_reported":1767795311,"current_range_meters":4800,"station_id":"ce4bhhp2rcd13ifvqfm0","pricing_plan_id":"cebpf4jnsgd1na2vs0mg"},{"bike_id":"5de36956-4318-4ae7-b83f-e2583c705206","system_id":"levelo_inurba_marseille","lat":43.29263,"lon":5.37612,"is_reserved":false,"is_disabled":false,"rental_uris":{"android":"levelo://app?vid=5de36956-4318-4ae7-b83f-e2583c705206","ios":"levelo://app?vid=5de36956-4318-4ae7-b83f-e2583c705206"},"vehicle_type_id":"4","last_reported":1767795311,"current_range_meters":4800,"station_id":"ce4bgi12rcd13ifvqb80","pricing_plan_id":"cebpf4jnsgd1na2vs0mg"},{"bike_id":"63ca103c-5aa3-4120-be05-0d063f5f1524","system_id":"levelo_inurba_marseille","lat":43.24181,"lon":5.39725,"is_reserved":false,"is_disabled":false,"rental_uris":{"android":"levelo://app?vid=63ca103c-5aa3-4120-be05-0d063f5f1524","ios":"levelo://app?vid=63ca103c-5aa3-4120-be05-0d063f5f1524"},"vehicle_type_id":"4","last_reported":1767795311,"current_range_meters":4800,"station_id":"ce4bhn12rcd13ifvqgpg","pricing_plan_id":"cebpf4jnsgd1na2vs0mg"},{"bike_id":"06992c46-6889-40f3-a5d1-edc32d603bfb","system_id":"levelo_inurba_marseille","lat":43.2867,"lon":5.39966,"is_reserved":false,"is_disabled":false,"rental_uris":{"android":"levelo://app?vid=06992c46-6889-40f3-a5d1-edc32d603bfb","ios":"levelo://app?vid=06992c46-6889-40f3-a5d1-edc32d603bfb"},"vehicle_type_id":"4","last_reported":1767795311,"current_range_meters":4800,"station_id":"ce4bho92rcd13ifvqh3g","pricing_plan_id":"cebpf4jnsgd1na2vs0mg"},{"bike_id":"97ffd4db-4451-43a6-9ab0-0787e4e0386e","system_id":"levelo_inurba_marseille","lat":43.265538,"lon":5.372834,"is_reserved":false,"is_disabled":false,"rental_uris":{"android":"levelo://app?vid=97ffd4db-4451-43a6-9ab0-0787e4e0386e","ios":"levelo://app?vid=97ffd4db-4451-43a6-9ab0-0787e4e0386e"},"vehicle_type_id":"4","last_reported":1767795311,"current_range_meters":5600,"station_id":"","pricing_plan_id":"cebpf4jnsgd1na2vs0mg"},{"bike_id":"73b7ffc9-4bed-4e99-bfa7-6d859db78ae7","system_id":"levelo_inurba_marseille","lat":43.265694,"lon":5.403296,"is_reserved":false,"is_disabled":false,"rental_uris":{"android":"levelo://app?vid=73b7ffc9-4bed-4e99-bfa7-6d859db78ae7","ios":"levelo://app?vid=73b7ffc9-4bed-4e99-bfa7-6d859db78ae7"},"vehicle_type_id":"4","last_reported":1767795311,"current_range_meters":5600,"station_id":"ce4bhmp2rcd13ifvqgng","pricing_plan_id":"cebpf4jnsgd1na2vs0mg"},{"bike_id":"8f0d1315-0bea-48f3-947d-e402f4e774a7","system_id":"levelo_inurba_marseille","lat":43.297174,"lon":5.37695,"is_reserved":false,"is_disabled":false,"rental_uris":{"android":"levelo://app?vid=8f0d1315-0bea-48f3-947d-e402f4e774a7","ios":"levelo://app?vid=8f0d1315-0bea-48f3-947d-e402f4e774a7"},"vehicle_type_id":"4","last_reported":1767795311,"current_range_meters":5600,"station_id":"ce4bgkh2rcd13ifvqbl0","pricing_plan_id":"cebpf4jnsgd1na2vs0mg"},{"bike_id":"a12d0214-d901-4a7d-b315-4d327e206f7f","system_id":"levelo_inurba_marseille","lat":43.265488,"lon":5.372913,"is_reserved":false,"is_disabled":true,"rental_uris":{"android":"levelo://app?vid=a12d0214-d901-4a7d-b315-4d327e206f7f","ios":"levelo://app?vid=a12d0214-d901-4a7d-b315-4d327e206f7f"},"vehicle_type_id":"4","last_reported":1767795311,"current_range_meters":5600,"station_id":"ce4bhg12rcd13ifvqf70","pricing_plan_id":"cebpf4jnsgd1na2vs0mg"},{"bike_id":"1ed1136a-6d18-431b-ac67-f90736592795","system_id":"levelo_inurba_marseille","lat":43.29183,"lon":5.40042,"is_reserved":false,"is_disabled":false,"rental_uris":{"android":"levelo://app?vid=1ed1136a-6d18-431b-ac67-f90736592795","ios":"levelo://app?vid=1ed1136a-6d18-431b-ac67-f90736592795"},"vehicle_type_id":"4","last_reported":1767795311,"current_range_meters":5600,"station_id":"","pricing_plan_id":"cebpf4jnsgd1na2vs0mg"},{"bike_id":"6a1a4864-d604-465c-a7f6-05f1bb288403","system_id":"levelo_inurba_marseille","lat":43.30735,"lon":5.42438,"is_reserved":false,"is_disabled":false,"rental_uris":{"android":"levelo://app?vid=6a1a4864-d604-465c-a7f6-05f1bb288403","ios":"levelo://app?vid=6a1a4864-d604-465c-a7f6-05f1bb288403"},"vehicle_type_id":"4","last_reported":1767795311,"current_range_meters":5600,"station_id":"st_cvj6ca6bvosntc0bfgr0","pricing_plan_id":"cebpf4jnsgd1na2vs0mg"},{"bike_id":"611c0c7e-8d54-4ad1-832e-5510ffd3817c","system_id":"levelo_inurba_marseille","lat":43.29834,"lon":5.38069,"is_reserved":false,"is_disabled":false,"rental_uris":{"android":"levelo://app?vid=611c0c7e-8d54-4ad1-832e-5510ffd3817c","ios":"levelo://app?vid=611c0c7e-8d54-4ad1-832e-5510ffd3817c"},"vehicle_type_id":"4","last_reported":1767795311,"current_range_meters":5600,"station_id":"ce4bgip2rcd13ifvqbb0","pricing_plan_id":"cebpf4jnsgd1na2vs0mg"},{"bike_id":"05913a82-5d97-49fd-869e-011fe384b874","system_id":"levelo_inurba_marseille","lat":43.29843,"lon":5.378312,"is_reserved":false,"is_disabled":false,"rental_uris":{"android":"levelo://app?vid=05913a82-5d97-49fd-869e-011fe384b874","ios":"levelo://app?vid=05913a82-5d97-49fd-869e-011fe384b874"},"vehicle_type_id":"4","last_reported":1767795311,"current_range_meters":5600,"station_id":"","pricing_plan_id":"cebpf4jnsgd1na2vs0mg"},{"bike_id":"3f2f1631-23db-4e01-a38b-0daabcdf369a","system_id":"levelo_inurba_marseille","lat":43.29917,"lon":5.40274,"is_reserved":false,"is_disabled":false,"rental_uris":{"android":"levelo://app?vid=3f2f1631-23db-4e01-a38b-0daabcdf369a","ios":"levelo://app?vid=3f2f1631-23db-4e01-a38b-0daabcdf369a"},"vehicle_type_id":"4","last_reported":1767795311,"current_range_meters":5600,"station_id":"","pricing_plan_id":"cebpf4jnsgd1na2vs0mg"},{"bike_id":"4b02a8d2-87b0-4ad1-9463-8088094b1434","system_id":"levelo_inurba_marseille","lat":43.29317,"lon":5.37778,"is_reserved":false,"is_disabled":false,"rental_uris":{"android":"levelo://app?vid=4b02a8d2-87b0-4ad1-9463-8088094b1434","ios":"levelo://app?vid=4b02a8d2-87b0-4ad1-9463-8088094b1434"},"vehicle_type_id":"4","last_reported":1767795311,"current_range_meters":5600,"station_id":"","pricing_plan_id":"cebpf4jnsgd1na2vs0mg"},{"bike_id":"62cb22d9-379f-4a14-9307-a2357290642a","system_id":"levelo_inurba_marseille","lat":43.3001,"lon":5.37895,"is_reserved":false,"is_disabled":false,"rental_uris":{"android":"levelo://app?vid=62cb22d9-379f-4a14-9307-a2357290642a","ios":"levelo://app?vid=62cb22d9-379f-4a14-9307-a2357290642a"},"vehicle_type_id":"4","last_reported":1767795311,"current_range_meters":5600,"station_id":"","pricing_plan_id":"cebpf4jnsgd1na2vs0mg"},{"bike_id":"ec9151c6-ee9c-4077-aff2-0feb9119b58e","system_id":"levelo_inurba_marseille","lat":43.269247,"lon":5.40447,"is_reserved":false,"is_disabled":false,"rental_uris":{"android":"levelo://app?vid=ec9151c6-ee9c-4077-aff2-0feb9119b58e","ios":"levelo://app?vid=ec9151c6-ee9c-4077-aff2-0feb9119b58e"},"vehicle_type_id":"4","last_reported":1767795311,"current_range_meters":5600,"station_id":"","pricing_plan_id":"cebpf4jnsgd1na2vs0mg"},{"bike_id":"3598bad0-5344-4f55-b849-f2d874cebd4d","system_id":"levelo_inurba_marseille","lat":43.289274,"lon":5.392343,"is_reserved":false,"is_disabled":false,"rental_uris":{"android":"levelo://app?vid=3598bad0-5344-4f55-b849-f2d874cebd4d","ios":"levelo://app?vid=3598bad0-5344-4f55-b849-f2d874cebd4d"},"vehicle_type_id":"4","last_reported":1767795311,"current_range_meters":5600,"station_id":"ce4bh2p2rcd13ifvqdi0","pricing_plan_id":"cebpf4jnsgd1na2vs0mg"},{"bike_id":"abd4b1f4-0852-47bd-944f-5b6f6a1938db","system_id":"levelo_inurba_marseille","lat":43.249543,"lon":5.404856,"is_reserved":false,"is_disabled":false,"rental_uris":{"android":"levelo://app?vid=abd4b1f4-0852-47bd-944f-5b6f6a1938db","ios":"levelo://app?vid=abd4b1f4-0852-47bd-944f-5b6f6a1938db"},"vehicle_type_id":"4","last_reported":1767795311,"current_range_meters":5600,"station_id":"","pricing_plan_id":"cebpf4jnsgd1na2vs0mg"},{"bike_id":"bc2eb7b0-bb23-4973-8afa-e645fdad0791","system_id":"levelo_inurba_marseille","lat":43.29815,"lon":5.44063,"is_reserved":false,"is_disabled":false,"rental_uris":{"android":"levelo://app?vid=bc2eb7b0-bb23-4973-8afa-e645fdad0791","ios":"levelo://app?vid=bc2eb7b0-bb23-4973-8afa-e645fdad0791"},"vehicle_type_id":"4","last_reported":1767795311,"current_range_meters":6000,"station_id":"st_d3jp68qikq2c7381ktn0","pricing_plan_id":"cebpf4jnsgd1na2vs0mg"},{"bike_id":"847cf1b4-4bce-4576-9690-b0c6f3de0dd0","system_id":"levelo_inurba_marseille","lat":43.263752,"lon":5.4107,"is_reserved":false,"is_disabled":false,"rental_uris":{"android":"levelo://app?vid=847cf1b4-4bce-4576-9690-b0c6f3de0dd0","ios":"levelo://app?vid=847cf1b4-4bce-4576-9690-b0c6f3de0dd0"},"vehicle_type_id":"4","last_reported":1767795311,"current_range_meters":6000,"station_id":"st_d4e5ca6na9uc73bfl5fg","pricing_plan_id":"cebpf4jnsgd1na2vs0mg"},{"bike_id":"7f8f8133-4c5b-4469-8602-47a2aed54586","system_id":"levelo_inurba_marseille","lat":43.302987,"lon":5.435211,"is_reserved":false,"is_disabled":false,"rental_uris":{"android":"levelo://app?vid=7f8f8133-4c5b-4469-8602-47a2aed54586","ios":"levelo://app?vid=7f8f8133-4c5b-4469-8602-47a2aed54586"},"vehicle_type_id":"4","last_reported":1767795311,"current_range_meters":6000,"station_id":"","pricing_plan_id":"cebpf4jnsgd1na2vs0mg"},{"bike_id":"dc8d977b-d7c3-429a-a52c-02eed234c21d","system_id":"levelo_inurba_marseille","lat":43.28463,"lon":5.38398,"is_reserved":false,"is_disabled":false,"rental_uris":{"android":"levelo://app?vid=dc8d977b-d7c3-429a-a52c-02eed234c21d","ios":"levelo://app?vid=dc8d977b-d7c3-429a-a52c-02eed234c21d"},"vehicle_type_id":"4","last_reported":1767795311,"current_range_meters":6000,"station_id":"ce4bh512rcd13ifvqe3g","pricing_plan_id":"cebpf4jnsgd1na2vs0mg"},{"bike_id":"24273750-fbb8-405a-a600-7b8d138393f8","system_id":"levelo_inurba_marseille","lat":43.29619,"lon":5.37719,"is_reserved":false,"is_disabled":false,"rental_uris":{"android":"levelo://app?vid=24273750-fbb8-405a-a600-7b8d138393f8","ios":"levelo://app?vid=24273750-fbb8-405a-a600-7b8d138393f8"},"vehicle_type_id":"4","last_reported":1767795311,"current_range_meters":6000,"station_id":"ce4bgi92rcd13ifvqb90","pricing_plan_id":"cebpf4jnsgd1na2vs0mg"},{"bike_id":"dbe1578d-1079-44f5-be0c-7995dc4cef12","system_id":"levelo_inurba_marseille","lat":43.30229,"lon":5.39488,"is_reserved":false,"is_disabled":false,"rental_uris":{"android":"levelo://app?vid=dbe1578d-1079-44f5-be0c-7995dc4cef12","ios":"levelo://app?vid=dbe1578d-1079-44f5-be0c-7995dc4cef12"},"vehicle_type_id":"4","last_reported":1767795311,"current_range_meters":6000,"station_id":"","pricing_plan_id":"cebpf4jnsgd1na2vs0mg"},{"bike_id":"05e8b676-62c1-43f9-8e39-73bec80b3a86","system_id":"levelo_inurba_marseille","lat":43.305502,"lon":5.365561,"is_reserved":false,"is_disabled":false,"rental_uris":{"android":"levelo://app?vid=05e8b676-62c1-43f9-8e39-73bec80b3a86","ios":"levelo://app?vid=05e8b676-62c1-43f9-8e39-73bec80b3a86"},"vehicle_type_id":"4","last_reported":1767795311,"current_range_meters":6000,"station_id":"ce4bgs12rcd13ifvqcag","pricing_plan_id":"cebpf4jnsgd1na2vs0mg"},{"bike_id":"acbd5e4f-e25a-4f78-98f2-8ce2be51a356","system_id":"levelo_inurba_marseille","lat":43.29856,"lon":5.36298,"is_reserved":false,"is_disabled":false,"rental_uris":{"android":"levelo://app?vid=acbd5e4f-e25a-4f78-98f2-8ce2be51a356","ios":"levelo://app?vid=acbd5e4f-e25a-4f78-98f2-8ce2be51a356"},"vehicle_type_id":"4","last_reported":1767795311,"current_range_meters":6000,"station_id":"ce4bgpp2rcd13ifvqc3g","pricing_plan_id":"cebpf4jnsgd1na2vs0mg"},{"bike_id":"2afed3db-e2da-422b-9792-6d03f768ecc2","system_id":"levelo_inurba_marseille","lat":43.314848,"lon":5.373113,"is_reserved":false,"is_disabled":false,"rental_uris":{"android":"levelo://app?vid=2afed3db-e2da-422b-9792-6d03f768ecc2","ios":"levelo://app?vid=2afed3db-e2da-422b-9792-6d03f768ecc2"},"vehicle_type_id":"4","last_reported":1767795311,"current_range_meters":6000,"station_id":"ce4bgt12rcd13ifvqcd0","pricing_plan_id":"cebpf4jnsgd1na2vs0mg"},{"bike_id":"aa323760-6cdd-4364-b0a8-848f910cc737","system_id":"levelo_inurba_marseille","lat":43.30209,"lon":5.3665,"is_reserved":false,"is_disabled":false,"rental_uris":{"android":"levelo://app?vid=aa323760-6cdd-4364-b0a8-848f910cc737","ios":"levelo://app?vid=aa323760-6cdd-4364-b0a8-848f910cc737"},"vehicle_type_id":"4","last_reported":1767795311,"current_range_meters":6000,"station_id":"ce4bgrh2rcd13ifvqc8g","pricing_plan_id":"cebpf4jnsgd1na2vs0mg"},{"bike_id":"9eb913cd-2db4-48fc-a9eb-2256ba745c47","system_id":"levelo_inurba_marseille","lat":43.31704,"lon":5.437,"is_reserved":false,"is_disabled":false,"rental_uris":{"android":"levelo://app?vid=9eb913cd-2db4-48fc-a9eb-2256ba745c47","ios":"levelo://app?vid=9eb913cd-2db4-48fc-a9eb-2256ba745c47"},"vehicle_type_id":"4","last_reported":1767795311,"current_range_meters":6000,"station_id":"ce4bhp92rcd13ifvqhcg","pricing_plan_id":"cebpf4jnsgd1na2vs0mg"},{"bike_id":"3275b859-c08d-4706-afc8-86a6bdcab3a2","system_id":"levelo_inurba_marseille","lat":43.24406,"lon":5.37053,"is_reserved":false,"is_disabled":false,"rental_uris":{"android":"levelo://app?vid=3275b859-c08d-4706-afc8-86a6bdcab3a2","ios":"levelo://app?vid=3275b859-c08d-4706-afc8-86a6bdcab3a2"},"vehicle_type_id":"4","last_reported":1767795311,"current_range_meters":6000,"station_id":"ce4bhhh2rcd13ifvqfk0","pricing_plan_id":"cebpf4jnsgd1na2vs0mg"},{"bike_id":"26471476-0788-4cdb-9b4d-9f0b3e686ab5","system_id":"levelo_inurba_marseille","lat":43.31311,"lon":5.3868,"is_reserved":false,"is_disabled":false,"rental_uris":{"android":"levelo://app?vid=26471476-0788-4cdb-9b4d-9f0b3e686ab5","ios":"levelo://app?vid=26471476-0788-4cdb-9b4d-9f0b3e686ab5"},"vehicle_type_id":"4","last_reported":1767795311,"current_range_meters":6000,"station_id":"","pricing_plan_id":"cebpf4jnsgd1na2vs0mg"},{"bike_id":"da96356d-8638-4622-aa10-558ba1dcc591","system_id":"levelo_inurba_marseille","lat":43.28003,"lon":5.40003,"is_reserved":false,"is_disabled":false,"rental_uris":{"android":"levelo://app?vid=da96356d-8638-4622-aa10-558ba1dcc591","ios":"levelo://app?vid=da96356d-8638-4622-aa10-558ba1dcc591"},"vehicle_type_id":"4","last_reported":1767795311,"current_range_meters":6000,"station_id":"ce4bho92rcd13ifvqh4g","pricing_plan_id":"cebpf4jnsgd1na2vs0mg"},{"bike_id":"39a9c751-84ad-492b-9cff-bc26f93fc74d","system_id":"levelo_inurba_marseille","lat":43.27995,"lon":5.38747,"is_reserved":false,"is_disabled":false,"rental_uris":{"android":"levelo://app?vid=39a9c751-84ad-492b-9cff-bc26f93fc74d","ios":"levelo://app?vid=39a9c751-84ad-492b-9cff-bc26f93fc74d"},"vehicle_type_id":"4","last_reported":1767795311,"current_range_meters":6000,"station_id":"ce4bhg12rcd13ifvqf80","pricing_plan_id":"cebpf4jnsgd1na2vs0mg"},{"bike_id":"4b095016-db2a-4566-99ac-7ac9d70ba99d","system_id":"levelo_inurba_marseille","lat":43.29622,"lon":5.3772,"is_reserved":false,"is_disabled":false,"rental_uris":{"android":"levelo://app?vid=4b095016-db2a-4566-99ac-7ac9d70ba99d","ios":"levelo://app?vid=4b095016-db2a-4566-99ac-7ac9d70ba99d"},"vehicle_type_id":"4","last_reported":1767795311,"current_range_meters":6000,"station_id":"ce4bgi92rcd13ifvqb90","pricing_plan_id":"cebpf4jnsgd1na2vs0mg"},{"bike_id":"f5e7e1f2-33c5-4813-86da-3c7d45f6a313","system_id":"levelo_inurba_marseille","lat":43.2716,"lon":5.362827,"is_reserved":false,"is_disabled":false,"rental_uris":{"android":"levelo://app?vid=f5e7e1f2-33c5-4813-86da-3c7d45f6a313","ios":"levelo://app?vid=f5e7e1f2-33c5-4813-86da-3c7d45f6a313"},"vehicle_type_id":"4","last_reported":1767795311,"current_range_meters":6000,"station_id":"","pricing_plan_id":"cebpf4jnsgd1na2vs0mg"},{"bike_id":"ab04393d-6fa3-4001-a0f9-e3f858f95f81","system_id":"levelo_inurba_marseille","lat":43.30464,"lon":5.37913,"is_reserved":false,"is_disabled":false,"rental_uris":{"android":"levelo://app?vid=ab04393d-6fa3-4001-a0f9-e3f858f95f81","ios":"levelo://app?vid=ab04393d-6fa3-4001-a0f9-e3f858f95f81"},"vehicle_type_id":"4","last_reported":1767795311,"current_range_meters":6000,"station_id":"ce4bgup2rcd13ifvqcn0","pricing_plan_id":"cebpf4jnsgd1na2vs0mg"},{"bike_id":"3a1a012f-e2cb-489c-8aaa-49659e7dafd1","system_id":"levelo_inurba_marseille","lat":43.29209,"lon":5.36099,"is_reserved":false,"is_disabled":false,"rental_uris":{"android":"levelo://app?vid=3a1a012f-e2cb-489c-8aaa-49659e7dafd1","ios":"levelo://app?vid=3a1a012f-e2cb-489c-8aaa-49659e7dafd1"},"vehicle_type_id":"4","last_reported":1767795311,"current_range_meters":6000,"station_id":"ce4bhbh2rcd13ifvqeqg","pricing_plan_id":"cebpf4jnsgd1na2vs0mg"},{"bike_id":"df91f36d-e0ab-4896-a7a6-e0b53be0feee","system_id":"levelo_inurba_marseille","lat":43.26792,"lon":5.39418,"is_reserved":false,"is_disabled":false,"rental_uris":{"android":"levelo://app?vid=df91f36d-e0ab-4896-a7a6-e0b53be0feee","ios":"levelo://app?vid=df91f36d-e0ab-4896-a7a6-e0b53be0feee"},"vehicle_type_id":"4","last_reported":1767795311,"current_range_meters":6000,"station_id":"ce4bhh12rcd13ifvqfg0","pricing_plan_id":"cebpf4jnsgd1na2vs0mg"},{"bike_id":"544308b1-4221-4936-8f93-e18efc28f27b","system_id":"levelo_inurba_marseille","lat":43.26849,"lon":5.39464,"is_reserved":false,"is_disabled":false,"rental_uris":{"android":"levelo://app?vid=544308b1-4221-4936-8f93-e18efc28f27b","ios":"levelo://app?vid=544308b1-4221-4936-8f93-e18efc28f27b"},"vehicle_type_id":"4","last_reported":1767795311,"current_range_meters":6000,"station_id":"ce4bhh12rcd13ifvqfg0","pricing_plan_id":"cebpf4jnsgd1na2vs0mg"},{"bike_id":"3c4ae0d1-39a6-4c69-a6f7-722d43e1907b","system_id":"levelo_inurba_marseille","lat":43.27081,"lon":5.42279,"is_reserved":false,"is_disabled":false,"rental_uris":{"android":"levelo://app?vid=3c4ae0d1-39a6-4c69-a6f7-722d43e1907b","ios":"levelo://app?vid=3c4ae0d1-39a6-4c69-a6f7-722d43e1907b"},"vehicle_type_id":"4","last_reported":1767795311,"current_range_meters":6000,"station_id":"ce4bhk92rcd13ifvqgb0","pricing_plan_id":"cebpf4jnsgd1na2vs0mg"},{"bike_id":"3750c0d7-d94b-48a1-b4c2-e236c668773d","system_id":"levelo_inurba_marseille","lat":43.29435,"lon":5.3975,"is_reserved":false,"is_disabled":false,"rental_uris":{"android":"levelo://app?vid=3750c0d7-d94b-48a1-b4c2-e236c668773d","ios":"levelo://app?vid=3750c0d7-d94b-48a1-b4c2-e236c668773d"},"vehicle_type_id":"4","last_reported":1767795311,"current_range_meters":6000,"station_id":"ce4bh3h2rcd13ifvqdo0","pricing_plan_id":"cebpf4jnsgd1na2vs0mg"},{"bike_id":"1ac84a2f-834c-4512-8844-a6504078a505","system_id":"levelo_inurba_marseille","lat":43.29228,"lon":5.360652,"is_reserved":false,"is_disabled":false,"rental_uris":{"android":"levelo://app?vid=1ac84a2f-834c-4512-8844-a6504078a505","ios":"levelo://app?vid=1ac84a2f-834c-4512-8844-a6504078a505"},"vehicle_type_id":"4","last_reported":1767795311,"current_range_meters":6400,"station_id":"ce4bhbh2rcd13ifvqeqg","pricing_plan_id":"cebpf4jnsgd1na2vs0mg"},{"bike_id":"255f6a83-686a-42d7-b59b-0886f81cf758","system_id":"levelo_inurba_marseille","lat":43.2319,"lon":5.43662,"is_reserved":false,"is_disabled":false,"rental_uris":{"android":"levelo://app?vid=255f6a83-686a-42d7-b59b-0886f81cf758","ios":"levelo://app?vid=255f6a83-686a-42d7-b59b-0886f81cf758"},"vehicle_type_id":"4","last_reported":1767795311,"current_range_meters":6400,"station_id":"ce4bhmp2rcd13ifvqgog","pricing_plan_id":"cebpf4jnsgd1na2vs0mg"},{"bike_id":"5b1e28d0-cfd4-4f63-bcd7-e389c7a33f6a","system_id":"levelo_inurba_marseille","lat":43.24639,"lon":5.43144,"is_reserved":false,"is_disabled":false,"rental_uris":{"android":"levelo://app?vid=5b1e28d0-cfd4-4f63-bcd7-e389c7a33f6a","ios":"levelo://app?vid=5b1e28d0-cfd4-4f63-bcd7-e389c7a33f6a"},"vehicle_type_id":"4","last_reported":1767795311,"current_range_meters":6400,"station_id":"st_d2m6c4gdas8pm72e190g","pricing_plan_id":"cebpf4jnsgd1na2vs0mg"},{"bike_id":"184adeb8-9203-4f19-b080-ca451c49fd36","system_id":"levelo_inurba_marseille","lat":43.29159,"lon":5.37164,"is_reserved":false,"is_disabled":false,"rental_uris":{"android":"levelo://app?vid=184adeb8-9203-4f19-b080-ca451c49fd36","ios":"levelo://app?vid=184adeb8-9203-4f19-b080-ca451c49fd36"},"vehicle_type_id":"4","last_reported":1767795311,"current_range_meters":6400,"station_id":"ce4bha92rcd13ifvqeh0","pricing_plan_id":"cebpf4jnsgd1na2vs0mg"},{"bike_id":"4e9944d7-ff17-431f-9506-b409b96c8161","system_id":"levelo_inurba_marseille","lat":43.25593,"lon":5.38232,"is_reserved":false,"is_disabled":false,"rental_uris":{"android":"levelo://app?vid=4e9944d7-ff17-431f-9506-b409b96c8161","ios":"levelo://app?vid=4e9944d7-ff17-431f-9506-b409b96c8161"},"vehicle_type_id":"4","last_reported":1767795311,"current_range_meters":6400,"station_id":"ce4bhih2rcd13ifvqfs0","pricing_plan_id":"cebpf4jnsgd1na2vs0mg"},{"bike_id":"d4cb7d87-6e05-4a12-a6a8-801515607d75","system_id":"levelo_inurba_marseille","lat":43.32096,"lon":5.3677,"is_reserved":false,"is_disabled":false,"rental_uris":{"android":"levelo://app?vid=d4cb7d87-6e05-4a12-a6a8-801515607d75","ios":"levelo://app?vid=d4cb7d87-6e05-4a12-a6a8-801515607d75"},"vehicle_type_id":"4","last_reported":1767795311,"current_range_meters":6400,"station_id":"ce4bhrh2rcd13ifvqhug","pricing_plan_id":"cebpf4jnsgd1na2vs0mg"},{"bike_id":"d160cd8f-87bf-4d5f-b74b-9b1964c17957","system_id":"levelo_inurba_marseille","lat":43.28937,"lon":5.39626,"is_reserved":false,"is_disabled":false,"rental_uris":{"android":"levelo://app?vid=d160cd8f-87bf-4d5f-b74b-9b1964c17957","ios":"levelo://app?vid=d160cd8f-87bf-4d5f-b74b-9b1964c17957"},"vehicle_type_id":"4","last_reported":1767795311,"current_range_meters":6400,"station_id":"ce4bh3h2rcd13ifvqdn0","pricing_plan_id":"cebpf4jnsgd1na2vs0mg"},{"bike_id":"d56711ed-d0a1-40ef-a018-93f9c4fd77c9","system_id":"levelo_inurba_marseille","lat":43.29062,"lon":5.4,"is_reserved":false,"is_disabled":false,"rental_uris":{"android":"levelo://app?vid=d56711ed-d0a1-40ef-a018-93f9c4fd77c9","ios":"levelo://app?vid=d56711ed-d0a1-40ef-a018-93f9c4fd77c9"},"vehicle_type_id":"4","last_reported":1767795311,"current_range_meters":6400,"station_id":"ce4bh392rcd13ifvqdm0","pricing_plan_id":"cebpf4jnsgd1na2vs0mg"},{"bike_id":"5ba0d7cc-04c8-45fb-a3f0-023a6c7d5f3b","system_id":"levelo_inurba_marseille","lat":43.25954,"lon":5.40888,"is_reserved":false,"is_disabled":false,"rental_uris":{"android":"levelo://app?vid=5ba0d7cc-04c8-45fb-a3f0-023a6c7d5f3b","ios":"levelo://app?vid=5ba0d7cc-04c8-45fb-a3f0-023a6c7d5f3b"},"vehicle_type_id":"4","last_reported":1767795311,"current_range_meters":6400,"station_id":"ce4bhm92rcd13ifvqglg","pricing_plan_id":"cebpf4jnsgd1na2vs0mg"},{"bike_id":"d94a94f4-003c-473b-87bc-9cd8d9c889e2","system_id":"levelo_inurba_marseille","lat":43.32358,"lon":5.36742,"is_reserved":false,"is_disabled":false,"rental_uris":{"android":"levelo://app?vid=d94a94f4-003c-473b-87bc-9cd8d9c889e2","ios":"levelo://app?vid=d94a94f4-003c-473b-87bc-9cd8d9c889e2"},"vehicle_type_id":"4","last_reported":1767795311,"current_range_meters":6400,"station_id":"ce4bhsh2rcd13ifvqi2g","pricing_plan_id":"cebpf4jnsgd1na2vs0mg"},{"bike_id":"d91d190f-94b5-4b8d-88d9-473e2a714e39","system_id":"levelo_inurba_marseille","lat":43.28936,"lon":5.364,"is_reserved":false,"is_disabled":false,"rental_uris":{"android":"levelo://app?vid=d91d190f-94b5-4b8d-88d9-473e2a714e39","ios":"levelo://app?vid=d91d190f-94b5-4b8d-88d9-473e2a714e39"},"vehicle_type_id":"4","last_reported":1767795311,"current_range_meters":6400,"station_id":"ce4bhc92rcd13ifvqetg","pricing_plan_id":"cebpf4jnsgd1na2vs0mg"},{"bike_id":"00ea198f-1513-4ae8-9202-e0794b524e8a","system_id":"levelo_inurba_marseille","lat":43.2982,"lon":5.44077,"is_reserved":false,"is_disabled":false,"rental_uris":{"android":"levelo://app?vid=00ea198f-1513-4ae8-9202-e0794b524e8a","ios":"levelo://app?vid=00ea198f-1513-4ae8-9202-e0794b524e8a"},"vehicle_type_id":"4","last_reported":1767795311,"current_range_meters":6400,"station_id":"st_d3jp68qikq2c7381ktn0","pricing_plan_id":"cebpf4jnsgd1na2vs0mg"},{"bike_id":"25bcfc78-3f0b-4981-8911-91eda9adaaf9","system_id":"levelo_inurba_marseille","lat":43.28394,"lon":5.41609,"is_reserved":false,"is_disabled":false,"rental_uris":{"android":"levelo://app?vid=25bcfc78-3f0b-4981-8911-91eda9adaaf9","ios":"levelo://app?vid=25bcfc78-3f0b-4981-8911-91eda9adaaf9"},"vehicle_type_id":"4","last_reported":1767795311,"current_range_meters":6400,"station_id":"","pricing_plan_id":"cebpf4jnsgd1na2vs0mg"},{"bike_id":"d1349b06-6558-46c3-aee4-61d2a0fa8dc3","system_id":"levelo_inurba_marseille","lat":43.26698,"lon":5.38262,"is_reserved":false,"is_disabled":false,"rental_uris":{"android":"levelo://app?vid=d1349b06-6558-46c3-aee4-61d2a0fa8dc3","ios":"levelo://app?vid=d1349b06-6558-46c3-aee4-61d2a0fa8dc3"},"vehicle_type_id":"4","last_reported":1767795311,"current_range_meters":6400,"station_id":"ce4bhg92rcd13ifvqf90","pricing_plan_id":"cebpf4jnsgd1na2vs0mg"},{"bike_id":"28119d97-7102-4d29-b6d8-83d7d4b56a13","system_id":"levelo_inurba_marseille","lat":43.32359,"lon":5.36745,"is_reserved":false,"is_disabled":false,"rental_uris":{"android":"levelo://app?vid=28119d97-7102-4d29-b6d8-83d7d4b56a13","ios":"levelo://app?vid=28119d97-7102-4d29-b6d8-83d7d4b56a13"},"vehicle_type_id":"4","last_reported":1767795311,"current_range_meters":6400,"station_id":"ce4bhsh2rcd13ifvqi2g","pricing_plan_id":"cebpf4jnsgd1na2vs0mg"},{"bike_id":"d8ce3d05-20cf-4549-aa79-bd02d6f9c3ab","system_id":"levelo_inurba_marseille","lat":43.29198,"lon":5.39318,"is_reserved":false,"is_disabled":false,"rental_uris":{"android":"levelo://app?vid=d8ce3d05-20cf-4549-aa79-bd02d6f9c3ab","ios":"levelo://app?vid=d8ce3d05-20cf-4549-aa79-bd02d6f9c3ab"},"vehicle_type_id":"4","last_reported":1767795311,"current_range_meters":6400,"station_id":"ce4bh192rcd13ifvqdd0","pricing_plan_id":"cebpf4jnsgd1na2vs0mg"},{"bike_id":"533ded1c-f64a-40a7-987e-c996af8b74ed","system_id":"levelo_inurba_marseille","lat":43.23792,"lon":5.36638,"is_reserved":false,"is_disabled":false,"rental_uris":{"android":"levelo://app?vid=533ded1c-f64a-40a7-987e-c996af8b74ed","ios":"levelo://app?vid=533ded1c-f64a-40a7-987e-c996af8b74ed"},"vehicle_type_id":"4","last_reported":1767795311,"current_range_meters":6400,"station_id":"st_d3nk18o9ro0c73en2l3g","pricing_plan_id":"cebpf4jnsgd1na2vs0mg"},{"bike_id":"c6322f03-7706-4e6e-bfb9-ea7472eb753f","system_id":"levelo_inurba_marseille","lat":43.290042,"lon":5.35633,"is_reserved":false,"is_disabled":false,"rental_uris":{"android":"levelo://app?vid=c6322f03-7706-4e6e-bfb9-ea7472eb753f","ios":"levelo://app?vid=c6322f03-7706-4e6e-bfb9-ea7472eb753f"},"vehicle_type_id":"4","last_reported":1767795311,"current_range_meters":6400,"station_id":"ce4bhb92rcd13ifvqen0","pricing_plan_id":"cebpf4jnsgd1na2vs0mg"},{"bike_id":"7cd9ab34-deb1-41b5-bd69-947789edb17f","system_id":"levelo_inurba_marseille","lat":43.28404,"lon":5.3499,"is_reserved":false,"is_disabled":false,"rental_uris":{"android":"levelo://app?vid=7cd9ab34-deb1-41b5-bd69-947789edb17f","ios":"levelo://app?vid=7cd9ab34-deb1-41b5-bd69-947789edb17f"},"vehicle_type_id":"4","last_reported":1767795311,"current_range_meters":6800,"station_id":"ce4bhbh2rcd13ifvqepg","pricing_plan_id":"cebpf4jnsgd1na2vs0mg"},{"bike_id":"1511a012-c085-4f38-8ab1-d9eee4c01f86","system_id":"levelo_inurba_marseille","lat":43.24168,"lon":5.36417,"is_reserved":false,"is_disabled":false,"rental_uris":{"android":"levelo://app?vid=1511a012-c085-4f38-8ab1-d9eee4c01f86","ios":"levelo://app?vid=1511a012-c085-4f38-8ab1-d9eee4c01f86"},"vehicle_type_id":"4","last_reported":1767795311,"current_range_meters":6800,"station_id":"cpo36qri1sfpv3e86is0","pricing_plan_id":"cebpf4jnsgd1na2vs0mg"},{"bike_id":"64b48fb9-ce07-4030-90e1-303ff164786f","system_id":"levelo_inurba_marseille","lat":43.26205,"lon":5.37924,"is_reserved":false,"is_disabled":false,"rental_uris":{"android":"levelo://app?vid=64b48fb9-ce07-4030-90e1-303ff164786f","ios":"levelo://app?vid=64b48fb9-ce07-4030-90e1-303ff164786f"},"vehicle_type_id":"4","last_reported":1767795311,"current_range_meters":6800,"station_id":"ce4bhjp2rcd13ifvqg90","pricing_plan_id":"cebpf4jnsgd1na2vs0mg"},{"bike_id":"a0baeed8-1c2d-4b3d-a98c-a841d5f11ee9","system_id":"levelo_inurba_marseille","lat":43.23148,"lon":5.43699,"is_reserved":false,"is_disabled":false,"rental_uris":{"android":"levelo://app?vid=a0baeed8-1c2d-4b3d-a98c-a841d5f11ee9","ios":"levelo://app?vid=a0baeed8-1c2d-4b3d-a98c-a841d5f11ee9"},"vehicle_type_id":"4","last_reported":1767795311,"current_range_meters":6800,"station_id":"ce4bhmp2rcd13ifvqgog","pricing_plan_id":"cebpf4jnsgd1na2vs0mg"},{"bike_id":"d4aa93f0-043b-4bba-9e4c-d0386c2a86d0","system_id":"levelo_inurba_marseille","lat":43.23749,"lon":5.36629,"is_reserved":false,"is_disabled":false,"rental_uris":{"android":"levelo://app?vid=d4aa93f0-043b-4bba-9e4c-d0386c2a86d0","ios":"levelo://app?vid=d4aa93f0-043b-4bba-9e4c-d0386c2a86d0"},"vehicle_type_id":"4","last_reported":1767795311,"current_range_meters":6800,"station_id":"st_d3nk18o9ro0c73en2l3g","pricing_plan_id":"cebpf4jnsgd1na2vs0mg"},{"bike_id":"16df7d25-4261-47b4-bcb3-b0edbc0538d3","system_id":"levelo_inurba_marseille","lat":43.29046,"lon":5.37562,"is_reserved":false,"is_disabled":false,"rental_uris":{"android":"levelo://app?vid=16df7d25-4261-47b4-bcb3-b0edbc0538d3","ios":"levelo://app?vid=16df7d25-4261-47b4-bcb3-b0edbc0538d3"},"vehicle_type_id":"4","last_reported":1767795311,"current_range_meters":6800,"station_id":"ce4bh692rcd13ifvqe90","pricing_plan_id":"cebpf4jnsgd1na2vs0mg"},{"bike_id":"0e7be8fb-8b4e-4f31-b6a9-c9720e32396b","system_id":"levelo_inurba_marseille","lat":43.26815,"lon":5.39419,"is_reserved":false,"is_disabled":false,"rental_uris":{"android":"levelo://app?vid=0e7be8fb-8b4e-4f31-b6a9-c9720e32396b","ios":"levelo://app?vid=0e7be8fb-8b4e-4f31-b6a9-c9720e32396b"},"vehicle_type_id":"4","last_reported":1767795311,"current_range_meters":6800,"station_id":"ce4bhh12rcd13ifvqfg0","pricing_plan_id":"cebpf4jnsgd1na2vs0mg"},{"bike_id":"754e4108-4c57-4763-b08c-1bdebeea8ce2","system_id":"levelo_inurba_marseille","lat":43.28701,"lon":5.38612,"is_reserved":false,"is_disabled":false,"rental_uris":{"android":"levelo://app?vid=754e4108-4c57-4763-b08c-1bdebeea8ce2","ios":"levelo://app?vid=754e4108-4c57-4763-b08c-1bdebeea8ce2"},"vehicle_type_id":"4","last_reported":1767795311,"current_range_meters":6800,"station_id":"","pricing_plan_id":"cebpf4jnsgd1na2vs0mg"},{"bike_id":"6174981e-bed3-4bbe-a3fa-13b0fcc75de4","system_id":"levelo_inurba_marseille","lat":43.23143,"lon":5.43712,"is_reserved":false,"is_disabled":true,"rental_uris":{"android":"levelo://app?vid=6174981e-bed3-4bbe-a3fa-13b0fcc75de4","ios":"levelo://app?vid=6174981e-bed3-4bbe-a3fa-13b0fcc75de4"},"vehicle_type_id":"4","last_reported":1767795311,"current_range_meters":6800,"station_id":"","pricing_plan_id":"cebpf4jnsgd1na2vs0mg"},{"bike_id":"930b319a-79b0-4d8e-8516-b48590bd81a0","system_id":"levelo_inurba_marseille","lat":43.30389,"lon":5.42492,"is_reserved":false,"is_disabled":false,"rental_uris":{"android":"levelo://app?vid=930b319a-79b0-4d8e-8516-b48590bd81a0","ios":"levelo://app?vid=930b319a-79b0-4d8e-8516-b48590bd81a0"},"vehicle_type_id":"4","last_reported":1767795311,"current_range_meters":6800,"station_id":"ce4bhoh2rcd13ifvqh6g","pricing_plan_id":"cebpf4jnsgd1na2vs0mg"},{"bike_id":"e2de6e33-136a-4b50-9bee-761873cb6ead","system_id":"levelo_inurba_marseille","lat":43.260598,"lon":5.394017,"is_reserved":false,"is_disabled":false,"rental_uris":{"android":"levelo://app?vid=e2de6e33-136a-4b50-9bee-761873cb6ead","ios":"levelo://app?vid=e2de6e33-136a-4b50-9bee-761873cb6ead"},"vehicle_type_id":"4","last_reported":1767795311,"current_range_meters":6800,"station_id":"ce4bhh92rcd13ifvqfj0","pricing_plan_id":"cebpf4jnsgd1na2vs0mg"},{"bike_id":"9a6bcb44-e334-4131-b81f-1fe3b2f62c5f","system_id":"levelo_inurba_marseille","lat":43.23162,"lon":5.43717,"is_reserved":false,"is_disabled":false,"rental_uris":{"android":"levelo://app?vid=9a6bcb44-e334-4131-b81f-1fe3b2f62c5f","ios":"levelo://app?vid=9a6bcb44-e334-4131-b81f-1fe3b2f62c5f"},"vehicle_type_id":"4","last_reported":1767795311,"current_range_meters":6800,"station_id":"ce4bhmp2rcd13ifvqgog","pricing_plan_id":"cebpf4jnsgd1na2vs0mg"},{"bike_id":"a31ba797-d219-4a65-a019-17190c6343b6","system_id":"levelo_inurba_marseille","lat":43.31945,"lon":5.37606,"is_reserved":false,"is_disabled":false,"rental_uris":{"android":"levelo://app?vid=a31ba797-d219-4a65-a019-17190c6343b6","ios":"levelo://app?vid=a31ba797-d219-4a65-a019-17190c6343b6"},"vehicle_type_id":"4","last_reported":1767795311,"current_range_meters":6800,"station_id":"","pricing_plan_id":"cebpf4jnsgd1na2vs0mg"},{"bike_id":"487727fc-b86a-49d4-ba26-c5fdcf0a20ca","system_id":"levelo_inurba_marseille","lat":43.28907,"lon":5.39613,"is_reserved":false,"is_disabled":false,"rental_uris":{"android":"levelo://app?vid=487727fc-b86a-49d4-ba26-c5fdcf0a20ca","ios":"levelo://app?vid=487727fc-b86a-49d4-ba26-c5fdcf0a20ca"},"vehicle_type_id":"4","last_reported":1767795311,"current_range_meters":6800,"station_id":"ce4bh3h2rcd13ifvqdn0","pricing_plan_id":"cebpf4jnsgd1na2vs0mg"},{"bike_id":"2a72016b-e107-4594-9228-a75e8e173f08","system_id":"levelo_inurba_marseille","lat":43.31165,"lon":5.36899,"is_reserved":false,"is_disabled":false,"rental_uris":{"android":"levelo://app?vid=2a72016b-e107-4594-9228-a75e8e173f08","ios":"levelo://app?vid=2a72016b-e107-4594-9228-a75e8e173f08"},"vehicle_type_id":"4","last_reported":1767795311,"current_range_meters":6800,"station_id":"","pricing_plan_id":"cebpf4jnsgd1na2vs0mg"},{"bike_id":"fc0ee569-0539-41df-be98-7a47d4d88e7d","system_id":"levelo_inurba_marseille","lat":43.292656,"lon":5.409082,"is_reserved":false,"is_disabled":false,"rental_uris":{"android":"levelo://app?vid=fc0ee569-0539-41df-be98-7a47d4d88e7d","ios":"levelo://app?vid=fc0ee569-0539-41df-be98-7a47d4d88e7d"},"vehicle_type_id":"4","last_reported":1767795311,"current_range_meters":6800,"station_id":"ce4bh192rcd13ifvqdc0","pricing_plan_id":"cebpf4jnsgd1na2vs0mg"},{"bike_id":"d5b0c4ed-7646-45b9-b9d3-d49c57b897b7","system_id":"levelo_inurba_marseille","lat":43.2979,"lon":5.42768,"is_reserved":false,"is_disabled":false,"rental_uris":{"android":"levelo://app?vid=d5b0c4ed-7646-45b9-b9d3-d49c57b897b7","ios":"levelo://app?vid=d5b0c4ed-7646-45b9-b9d3-d49c57b897b7"},"vehicle_type_id":"4","last_reported":1767795311,"current_range_meters":6800,"station_id":"st_d3md5207bmas73dh9klg","pricing_plan_id":"cebpf4jnsgd1na2vs0mg"},{"bike_id":"35c3cbbb-0469-478d-b4da-bfb159e2f13b","system_id":"levelo_inurba_marseille","lat":43.259344,"lon":5.40915,"is_reserved":false,"is_disabled":true,"rental_uris":{"android":"levelo://app?vid=35c3cbbb-0469-478d-b4da-bfb159e2f13b","ios":"levelo://app?vid=35c3cbbb-0469-478d-b4da-bfb159e2f13b"},"vehicle_type_id":"4","last_reported":1767795311,"current_range_meters":6800,"station_id":"ce4bhm92rcd13ifvqglg","pricing_plan_id":"cebpf4jnsgd1na2vs0mg"},{"bike_id":"8f9c263f-7889-4a85-9933-e07749969bb3","system_id":"levelo_inurba_marseille","lat":43.25566,"lon":5.38235,"is_reserved":false,"is_disabled":false,"rental_uris":{"android":"levelo://app?vid=8f9c263f-7889-4a85-9933-e07749969bb3","ios":"levelo://app?vid=8f9c263f-7889-4a85-9933-e07749969bb3"},"vehicle_type_id":"4","last_reported":1767795311,"current_range_meters":6800,"station_id":"ce4bhih2rcd13ifvqfs0","pricing_plan_id":"cebpf4jnsgd1na2vs0mg"},{"bike_id":"d563daa9-a26a-468e-96ac-aa24a58d4870","system_id":"levelo_inurba_marseille","lat":43.2721,"lon":5.39109,"is_reserved":false,"is_disabled":false,"rental_uris":{"android":"levelo://app?vid=d563daa9-a26a-468e-96ac-aa24a58d4870","ios":"levelo://app?vid=d563daa9-a26a-468e-96ac-aa24a58d4870"},"vehicle_type_id":"4","last_reported":1767795311,"current_range_meters":7200,"station_id":"ce4bhhp2rcd13ifvqfm0","pricing_plan_id":"cebpf4jnsgd1na2vs0mg"},{"bike_id":"ee33983f-10d1-4d63-8bde-105556f6242d","system_id":"levelo_inurba_marseille","lat":43.26203,"lon":5.37902,"is_reserved":false,"is_disabled":false,"rental_uris":{"android":"levelo://app?vid=ee33983f-10d1-4d63-8bde-105556f6242d","ios":"levelo://app?vid=ee33983f-10d1-4d63-8bde-105556f6242d"},"vehicle_type_id":"4","last_reported":1767795311,"current_range_meters":7200,"station_id":"ce4bhjp2rcd13ifvqg90","pricing_plan_id":"cebpf4jnsgd1na2vs0mg"},{"bike_id":"37dc455b-6bec-4838-8bba-f2eb31c9a25b","system_id":"levelo_inurba_marseille","lat":43.25577,"lon":5.38237,"is_reserved":false,"is_disabled":false,"rental_uris":{"android":"levelo://app?vid=37dc455b-6bec-4838-8bba-f2eb31c9a25b","ios":"levelo://app?vid=37dc455b-6bec-4838-8bba-f2eb31c9a25b"},"vehicle_type_id":"4","last_reported":1767795311,"current_range_meters":7200,"station_id":"ce4bhih2rcd13ifvqfs0","pricing_plan_id":"cebpf4jnsgd1na2vs0mg"},{"bike_id":"3a3979a9-13de-42fb-b2b5-459d626be407","system_id":"levelo_inurba_marseille","lat":43.26058,"lon":5.39396,"is_reserved":false,"is_disabled":false,"rental_uris":{"android":"levelo://app?vid=3a3979a9-13de-42fb-b2b5-459d626be407","ios":"levelo://app?vid=3a3979a9-13de-42fb-b2b5-459d626be407"},"vehicle_type_id":"4","last_reported":1767795311,"current_range_meters":7200,"station_id":"ce4bhh92rcd13ifvqfj0","pricing_plan_id":"cebpf4jnsgd1na2vs0mg"},{"bike_id":"067ca337-309a-4444-a755-1124e864d8c9","system_id":"levelo_inurba_marseille","lat":43.29524,"lon":5.39412,"is_reserved":false,"is_disabled":true,"rental_uris":{"android":"levelo://app?vid=067ca337-309a-4444-a755-1124e864d8c9","ios":"levelo://app?vid=067ca337-309a-4444-a755-1124e864d8c9"},"vehicle_type_id":"4","last_reported":1767795311,"current_range_meters":7200,"station_id":"ce4bh292rcd13ifvqdf0","pricing_plan_id":"cebpf4jnsgd1na2vs0mg"},{"bike_id":"c0c8695a-5dc1-437f-a20b-09acef88b652","system_id":"levelo_inurba_marseille","lat":43.28338,"lon":5.3507,"is_reserved":false,"is_disabled":false,"rental_uris":{"android":"levelo://app?vid=c0c8695a-5dc1-437f-a20b-09acef88b652","ios":"levelo://app?vid=c0c8695a-5dc1-437f-a20b-09acef88b652"},"vehicle_type_id":"4","last_reported":1767795311,"current_range_meters":7200,"station_id":"","pricing_plan_id":"cebpf4jnsgd1na2vs0mg"},{"bike_id":"44fa942a-7f3c-4db8-b498-e46e05b08cc0","system_id":"levelo_inurba_marseille","lat":43.26453,"lon":5.39618,"is_reserved":false,"is_disabled":false,"rental_uris":{"android":"levelo://app?vid=44fa942a-7f3c-4db8-b498-e46e05b08cc0","ios":"levelo://app?vid=44fa942a-7f3c-4db8-b498-e46e05b08cc0"},"vehicle_type_id":"4","last_reported":1767795311,"current_range_meters":7200,"station_id":"","pricing_plan_id":"cebpf4jnsgd1na2vs0mg"},{"bike_id":"eb50df2a-7830-4108-814d-9c8fd708c4e1","system_id":"levelo_inurba_marseille","lat":43.30362,"lon":5.43064,"is_reserved":false,"is_disabled":true,"rental_uris":{"android":"levelo://app?vid=eb50df2a-7830-4108-814d-9c8fd708c4e1","ios":"levelo://app?vid=eb50df2a-7830-4108-814d-9c8fd708c4e1"},"vehicle_type_id":"4","last_reported":1767795311,"current_range_meters":7200,"station_id":"","pricing_plan_id":"cebpf4jnsgd1na2vs0mg"},{"bike_id":"c6e38eb8-7b47-4906-b177-2fd475243fa6","system_id":"levelo_inurba_marseille","lat":43.29316,"lon":5.40161,"is_reserved":false,"is_disabled":false,"rental_uris":{"android":"levelo://app?vid=c6e38eb8-7b47-4906-b177-2fd475243fa6","ios":"levelo://app?vid=c6e38eb8-7b47-4906-b177-2fd475243fa6"},"vehicle_type_id":"4","last_reported":1767795311,"current_range_meters":7200,"station_id":"","pricing_plan_id":"cebpf4jnsgd1na2vs0mg"},{"bike_id":"e93b9aae-c8c6-4131-b213-c37952396f7c","system_id":"levelo_inurba_marseille","lat":43.29315,"lon":5.37184,"is_reserved":false,"is_disabled":false,"rental_uris":{"android":"levelo://app?vid=e93b9aae-c8c6-4131-b213-c37952396f7c","ios":"levelo://app?vid=e93b9aae-c8c6-4131-b213-c37952396f7c"},"vehicle_type_id":"4","last_reported":1767795311,"current_range_meters":7200,"station_id":"ce4bgh92rcd13ifvqb40","pricing_plan_id":"cebpf4jnsgd1na2vs0mg"},{"bike_id":"ddfc6a9c-692b-499f-b476-b4d9b6fe8c85","system_id":"levelo_inurba_marseille","lat":43.30947,"lon":5.39052,"is_reserved":false,"is_disabled":false,"rental_uris":{"android":"levelo://app?vid=ddfc6a9c-692b-499f-b476-b4d9b6fe8c85","ios":"levelo://app?vid=ddfc6a9c-692b-499f-b476-b4d9b6fe8c85"},"vehicle_type_id":"4","last_reported":1767795311,"current_range_meters":7200,"station_id":"","pricing_plan_id":"cebpf4jnsgd1na2vs0mg"},{"bike_id":"bf3c5452-0238-43e2-b338-8c19911c88fc","system_id":"levelo_inurba_marseille","lat":43.22533,"lon":5.348305,"is_reserved":false,"is_disabled":false,"rental_uris":{"android":"levelo://app?vid=bf3c5452-0238-43e2-b338-8c19911c88fc","ios":"levelo://app?vid=bf3c5452-0238-43e2-b338-8c19911c88fc"},"vehicle_type_id":"4","last_reported":1767795311,"current_range_meters":7200,"station_id":"st_cvj6r9ubvosntc0bgbag","pricing_plan_id":"cebpf4jnsgd1na2vs0mg"},{"bike_id":"222badfd-5695-4c5f-8b12-a4274837eb6d","system_id":"levelo_inurba_marseille","lat":43.26256,"lon":5.40421,"is_reserved":false,"is_disabled":false,"rental_uris":{"android":"levelo://app?vid=222badfd-5695-4c5f-8b12-a4274837eb6d","ios":"levelo://app?vid=222badfd-5695-4c5f-8b12-a4274837eb6d"},"vehicle_type_id":"4","last_reported":1767795311,"current_range_meters":7200,"station_id":"ce4bhmh2rcd13ifvqgmg","pricing_plan_id":"cebpf4jnsgd1na2vs0mg"},{"bike_id":"98249e23-d727-42e2-bc64-1013f35aedc9","system_id":"levelo_inurba_marseille","lat":43.23046,"lon":5.35505,"is_reserved":false,"is_disabled":false,"rental_uris":{"android":"levelo://app?vid=98249e23-d727-42e2-bc64-1013f35aedc9","ios":"levelo://app?vid=98249e23-d727-42e2-bc64-1013f35aedc9"},"vehicle_type_id":"4","last_reported":1767795311,"current_range_meters":8000,"station_id":"cpo3342slgdg3j2ifvpg","pricing_plan_id":"cebpf4jnsgd1na2vs0mg"},{"bike_id":"0a3c2f19-90ab-454c-bebf-e566cc72db51","system_id":"levelo_inurba_marseille","lat":43.31369,"lon":5.38489,"is_reserved":false,"is_disabled":false,"rental_uris":{"android":"levelo://app?vid=0a3c2f19-90ab-454c-bebf-e566cc72db51","ios":"levelo://app?vid=0a3c2f19-90ab-454c-bebf-e566cc72db51"},"vehicle_type_id":"4","last_reported":1767795311,"current_range_meters":8000,"station_id":"ce4bgt92rcd13ifvqcf0","pricing_plan_id":"cebpf4jnsgd1na2vs0mg"},{"bike_id":"6f736490-22b7-49cc-876e-28f8d1695e39","system_id":"levelo_inurba_marseille","lat":43.24411,"lon":5.37057,"is_reserved":false,"is_disabled":false,"rental_uris":{"android":"levelo://app?vid=6f736490-22b7-49cc-876e-28f8d1695e39","ios":"levelo://app?vid=6f736490-22b7-49cc-876e-28f8d1695e39"},"vehicle_type_id":"4","last_reported":1767795311,"current_range_meters":8000,"station_id":"ce4bhhh2rcd13ifvqfk0","pricing_plan_id":"cebpf4jnsgd1na2vs0mg"},{"bike_id":"3f01a066-4e5f-48ef-86cf-799ad22b3248","system_id":"levelo_inurba_marseille","lat":43.29328,"lon":5.37181,"is_reserved":false,"is_disabled":false,"rental_uris":{"android":"levelo://app?vid=3f01a066-4e5f-48ef-86cf-799ad22b3248","ios":"levelo://app?vid=3f01a066-4e5f-48ef-86cf-799ad22b3248"},"vehicle_type_id":"4","last_reported":1767795311,"current_range_meters":8000,"station_id":"ce4bgh92rcd13ifvqb40","pricing_plan_id":"cebpf4jnsgd1na2vs0mg"},{"bike_id":"8af7f5e7-ad96-4b48-b9a1-4d3f47692c34","system_id":"levelo_inurba_marseille","lat":43.26207,"lon":5.37935,"is_reserved":false,"is_disabled":true,"rental_uris":{"android":"levelo://app?vid=8af7f5e7-ad96-4b48-b9a1-4d3f47692c34","ios":"levelo://app?vid=8af7f5e7-ad96-4b48-b9a1-4d3f47692c34"},"vehicle_type_id":"4","last_reported":1767795311,"current_range_meters":8000,"station_id":"ce4bhjp2rcd13ifvqg90","pricing_plan_id":"cebpf4jnsgd1na2vs0mg"},{"bike_id":"0622f7c5-ee76-4fc8-a5df-57e2aa3c0085","system_id":"levelo_inurba_marseille","lat":43.29904,"lon":5.38082,"is_reserved":false,"is_disabled":false,"rental_uris":{"android":"levelo://app?vid=0622f7c5-ee76-4fc8-a5df-57e2aa3c0085","ios":"levelo://app?vid=0622f7c5-ee76-4fc8-a5df-57e2aa3c0085"},"vehicle_type_id":"4","last_reported":1767795311,"current_range_meters":8000,"station_id":"","pricing_plan_id":"cebpf4jnsgd1na2vs0mg"},{"bike_id":"eec7f246-2540-4ab7-b168-ea7ca4ebb9e0","system_id":"levelo_inurba_marseille","lat":43.31321,"lon":5.36731,"is_reserved":false,"is_disabled":false,"rental_uris":{"android":"levelo://app?vid=eec7f246-2540-4ab7-b168-ea7ca4ebb9e0","ios":"levelo://app?vid=eec7f246-2540-4ab7-b168-ea7ca4ebb9e0"},"vehicle_type_id":"4","last_reported":1767795311,"current_range_meters":8000,"station_id":"ce4bgr92rcd13ifvqc6g","pricing_plan_id":"cebpf4jnsgd1na2vs0mg"},{"bike_id":"7fc53fa6-f85c-423c-86d5-704a6cda6137","system_id":"levelo_inurba_marseille","lat":43.31274,"lon":5.36851,"is_reserved":false,"is_disabled":false,"rental_uris":{"android":"levelo://app?vid=7fc53fa6-f85c-423c-86d5-704a6cda6137","ios":"levelo://app?vid=7fc53fa6-f85c-423c-86d5-704a6cda6137"},"vehicle_type_id":"4","last_reported":1767795311,"current_range_meters":8000,"station_id":"","pricing_plan_id":"cebpf4jnsgd1na2vs0mg"},{"bike_id":"3cab5084-314a-4ac7-8e10-1255d6e07f7a","system_id":"levelo_inurba_marseille","lat":43.29771,"lon":5.37116,"is_reserved":false,"is_disabled":true,"rental_uris":{"android":"levelo://app?vid=3cab5084-314a-4ac7-8e10-1255d6e07f7a","ios":"levelo://app?vid=3cab5084-314a-4ac7-8e10-1255d6e07f7a"},"vehicle_type_id":"4","last_reported":1767795311,"current_range_meters":8000,"station_id":"ce4bgop2rcd13ifvqc1g","pricing_plan_id":"cebpf4jnsgd1na2vs0mg"},{"bike_id":"772bf3b5-2fb2-4abd-a529-fdf3012df8cc","system_id":"levelo_inurba_marseille","lat":43.25191,"lon":5.40595,"is_reserved":false,"is_disabled":false,"rental_uris":{"android":"levelo://app?vid=772bf3b5-2fb2-4abd-a529-fdf3012df8cc","ios":"levelo://app?vid=772bf3b5-2fb2-4abd-a529-fdf3012df8cc"},"vehicle_type_id":"4","last_reported":1767795311,"current_range_meters":8000,"station_id":"","pricing_plan_id":"cebpf4jnsgd1na2vs0mg"},{"bike_id":"f323eec5-f654-4bdf-8118-8c8db52565b4","system_id":"levelo_inurba_marseille","lat":43.28498,"lon":5.38625,"is_reserved":false,"is_disabled":false,"rental_uris":{"android":"levelo://app?vid=f323eec5-f654-4bdf-8118-8c8db52565b4","ios":"levelo://app?vid=f323eec5-f654-4bdf-8118-8c8db52565b4"},"vehicle_type_id":"4","last_reported":1767795311,"current_range_meters":8000,"station_id":"","pricing_plan_id":"cebpf4jnsgd1na2vs0mg"},{"bike_id":"d311e83f-a1e3-4e4b-bc51-98ee46938913","system_id":"levelo_inurba_marseille","lat":43.29056,"lon":5.3996,"is_reserved":false,"is_disabled":false,"rental_uris":{"android":"levelo://app?vid=d311e83f-a1e3-4e4b-bc51-98ee46938913","ios":"levelo://app?vid=d311e83f-a1e3-4e4b-bc51-98ee46938913"},"vehicle_type_id":"4","last_reported":1767795311,"current_range_meters":8000,"station_id":"ce4bh392rcd13ifvqdm0","pricing_plan_id":"cebpf4jnsgd1na2vs0mg"},{"bike_id":"8e9cd320-222e-4849-8f3f-db8fcd5c5954","system_id":"levelo_inurba_marseille","lat":43.31815,"lon":5.36865,"is_reserved":false,"is_disabled":false,"rental_uris":{"android":"levelo://app?vid=8e9cd320-222e-4849-8f3f-db8fcd5c5954","ios":"levelo://app?vid=8e9cd320-222e-4849-8f3f-db8fcd5c5954"},"vehicle_type_id":"4","last_reported":1767795311,"current_range_meters":8000,"station_id":"","pricing_plan_id":"cebpf4jnsgd1na2vs0mg"},{"bike_id":"44833d54-0e08-4546-b788-0c7150b05378","system_id":"levelo_inurba_marseille","lat":43.2848,"lon":5.48383,"is_reserved":false,"is_disabled":false,"rental_uris":{"android":"levelo://app?vid=44833d54-0e08-4546-b788-0c7150b05378","ios":"levelo://app?vid=44833d54-0e08-4546-b788-0c7150b05378"},"vehicle_type_id":"4","last_reported":1767795311,"current_range_meters":8000,"station_id":"st_d3svhcjqgbts73a3dn0g","pricing_plan_id":"cebpf4jnsgd1na2vs0mg"},{"bike_id":"0c83f1ea-95ce-45ca-9676-02b0da2c2cfa","system_id":"levelo_inurba_marseille","lat":43.31051,"lon":5.37175,"is_reserved":false,"is_disabled":false,"rental_uris":{"android":"levelo://app?vid=0c83f1ea-95ce-45ca-9676-02b0da2c2cfa","ios":"levelo://app?vid=0c83f1ea-95ce-45ca-9676-02b0da2c2cfa"},"vehicle_type_id":"4","last_reported":1767795311,"current_range_meters":8000,"station_id":"st_d4kl2rp97mjs73e7tdfg","pricing_plan_id":"cebpf4jnsgd1na2vs0mg"},{"bike_id":"66355ef6-035e-47bd-b291-a3b53ea4c92b","system_id":"levelo_inurba_marseille","lat":43.29791,"lon":5.38099,"is_reserved":false,"is_disabled":false,"rental_uris":{"android":"levelo://app?vid=66355ef6-035e-47bd-b291-a3b53ea4c92b","ios":"levelo://app?vid=66355ef6-035e-47bd-b291-a3b53ea4c92b"},"vehicle_type_id":"4","last_reported":1767795311,"current_range_meters":8000,"station_id":"ce4bgip2rcd13ifvqbb0","pricing_plan_id":"cebpf4jnsgd1na2vs0mg"},{"bike_id":"d732fcd7-f8ed-43d6-b6ef-d29b2b97a6d4","system_id":"levelo_inurba_marseille","lat":43.2737,"lon":5.36264,"is_reserved":false,"is_disabled":false,"rental_uris":{"android":"levelo://app?vid=d732fcd7-f8ed-43d6-b6ef-d29b2b97a6d4","ios":"levelo://app?vid=d732fcd7-f8ed-43d6-b6ef-d29b2b97a6d4"},"vehicle_type_id":"4","last_reported":1767795311,"current_range_meters":8000,"station_id":"ce4bhbh2rcd13ifvqeo0","pricing_plan_id":"cebpf4jnsgd1na2vs0mg"},{"bike_id":"864d9ffc-0d33-487b-bc55-b0721b4adc7e","system_id":"levelo_inurba_marseille","lat":43.28648,"lon":5.37803,"is_reserved":false,"is_disabled":false,"rental_uris":{"android":"levelo://app?vid=864d9ffc-0d33-487b-bc55-b0721b4adc7e","ios":"levelo://app?vid=864d9ffc-0d33-487b-bc55-b0721b4adc7e"},"vehicle_type_id":"4","last_reported":1767795311,"current_range_meters":8000,"station_id":"","pricing_plan_id":"cebpf4jnsgd1na2vs0mg"},{"bike_id":"663c6ec3-cdff-49a2-861d-91b77b2f8ef0","system_id":"levelo_inurba_marseille","lat":43.26345,"lon":5.40121,"is_reserved":false,"is_disabled":false,"rental_uris":{"android":"levelo://app?vid=663c6ec3-cdff-49a2-861d-91b77b2f8ef0","ios":"levelo://app?vid=663c6ec3-cdff-49a2-861d-91b77b2f8ef0"},"vehicle_type_id":"4","last_reported":1767795311,"current_range_meters":8000,"station_id":"","pricing_plan_id":"cebpf4jnsgd1na2vs0mg"},{"bike_id":"cb4606a4-ce77-419c-9379-1b48a89b0fcb","system_id":"levelo_inurba_marseille","lat":43.29063,"lon":5.40005,"is_reserved":false,"is_disabled":false,"rental_uris":{"android":"levelo://app?vid=cb4606a4-ce77-419c-9379-1b48a89b0fcb","ios":"levelo://app?vid=cb4606a4-ce77-419c-9379-1b48a89b0fcb"},"vehicle_type_id":"4","last_reported":1767795311,"current_range_meters":8400,"station_id":"ce4bh392rcd13ifvqdm0","pricing_plan_id":"cebpf4jnsgd1na2vs0mg"},{"bike_id":"9e67ac1e-3627-4f55-a031-abf35eb3bad6","system_id":"levelo_inurba_marseille","lat":43.30232,"lon":5.39461,"is_reserved":false,"is_disabled":false,"rental_uris":{"android":"levelo://app?vid=9e67ac1e-3627-4f55-a031-abf35eb3bad6","ios":"levelo://app?vid=9e67ac1e-3627-4f55-a031-abf35eb3bad6"},"vehicle_type_id":"4","last_reported":1767795311,"current_range_meters":8400,"station_id":"ce4bh0p2rcd13ifvqd70","pricing_plan_id":"cebpf4jnsgd1na2vs0mg"},{"bike_id":"3697b8c2-beb9-483a-9838-ccac7c3035dd","system_id":"levelo_inurba_marseille","lat":43.30152,"lon":5.38076,"is_reserved":false,"is_disabled":false,"rental_uris":{"android":"levelo://app?vid=3697b8c2-beb9-483a-9838-ccac7c3035dd","ios":"levelo://app?vid=3697b8c2-beb9-483a-9838-ccac7c3035dd"},"vehicle_type_id":"4","last_reported":1767795311,"current_range_meters":8400,"station_id":"ce4bgjp2rcd13ifvqbh0","pricing_plan_id":"cebpf4jnsgd1na2vs0mg"},{"bike_id":"58225b8d-28fd-4cc2-91f8-83ea7f334d78","system_id":"levelo_inurba_marseille","lat":43.312125,"lon":5.368431,"is_reserved":false,"is_disabled":false,"rental_uris":{"android":"levelo://app?vid=58225b8d-28fd-4cc2-91f8-83ea7f334d78","ios":"levelo://app?vid=58225b8d-28fd-4cc2-91f8-83ea7f334d78"},"vehicle_type_id":"4","last_reported":1767795311,"current_range_meters":8400,"station_id":"ce4bgl92rcd13ifvqbq0","pricing_plan_id":"cebpf4jnsgd1na2vs0mg"},{"bike_id":"d293f938-06f4-47c6-ae6d-906beae764af","system_id":"levelo_inurba_marseille","lat":43.2799,"lon":5.40026,"is_reserved":false,"is_disabled":false,"rental_uris":{"android":"levelo://app?vid=d293f938-06f4-47c6-ae6d-906beae764af","ios":"levelo://app?vid=d293f938-06f4-47c6-ae6d-906beae764af"},"vehicle_type_id":"4","last_reported":1767795311,"current_range_meters":8400,"station_id":"ce4bho92rcd13ifvqh4g","pricing_plan_id":"cebpf4jnsgd1na2vs0mg"},{"bike_id":"f9694d4b-6e2f-4fc5-ae06-59dad6b1ea4d","system_id":"levelo_inurba_marseille","lat":43.25014,"lon":5.37517,"is_reserved":false,"is_disabled":false,"rental_uris":{"android":"levelo://app?vid=f9694d4b-6e2f-4fc5-ae06-59dad6b1ea4d","ios":"levelo://app?vid=f9694d4b-6e2f-4fc5-ae06-59dad6b1ea4d"},"vehicle_type_id":"4","last_reported":1767795311,"current_range_meters":8400,"station_id":"","pricing_plan_id":"cebpf4jnsgd1na2vs0mg"},{"bike_id":"be75706c-d84a-4279-b5a3-376dba45c6a6","system_id":"levelo_inurba_marseille","lat":43.24824,"lon":5.37437,"is_reserved":false,"is_disabled":false,"rental_uris":{"android":"levelo://app?vid=be75706c-d84a-4279-b5a3-376dba45c6a6","ios":"levelo://app?vid=be75706c-d84a-4279-b5a3-376dba45c6a6"},"vehicle_type_id":"4","last_reported":1767795311,"current_range_meters":8400,"station_id":"ce4bhgh2rcd13ifvqfb0","pricing_plan_id":"cebpf4jnsgd1na2vs0mg"},{"bike_id":"6780348f-fb93-4884-95fc-676ab6258ce9","system_id":"levelo_inurba_marseille","lat":43.2708,"lon":5.3829,"is_reserved":false,"is_disabled":true,"rental_uris":{"android":"levelo://app?vid=6780348f-fb93-4884-95fc-676ab6258ce9","ios":"levelo://app?vid=6780348f-fb93-4884-95fc-676ab6258ce9"},"vehicle_type_id":"4","last_reported":1767795311,"current_range_meters":8400,"station_id":"st_d3n2fo6cfp8s73cte1j0","pricing_plan_id":"cebpf4jnsgd1na2vs0mg"},{"bike_id":"6161915a-379c-47d1-a0b6-32b98cda77f1","system_id":"levelo_inurba_marseille","lat":43.32444,"lon":5.38953,"is_reserved":false,"is_disabled":false,"rental_uris":{"android":"levelo://app?vid=6161915a-379c-47d1-a0b6-32b98cda77f1","ios":"levelo://app?vid=6161915a-379c-47d1-a0b6-32b98cda77f1"},"vehicle_type_id":"4","last_reported":1767795311,"current_range_meters":8400,"station_id":"","pricing_plan_id":"cebpf4jnsgd1na2vs0mg"},{"bike_id":"132b6c2e-f86c-4117-a723-d53b691687c5","system_id":"levelo_inurba_marseille","lat":43.28521,"lon":5.38555,"is_reserved":false,"is_disabled":false,"rental_uris":{"android":"levelo://app?vid=132b6c2e-f86c-4117-a723-d53b691687c5","ios":"levelo://app?vid=132b6c2e-f86c-4117-a723-d53b691687c5"},"vehicle_type_id":"4","last_reported":1767795311,"current_range_meters":8400,"station_id":"ce4bh8p2rcd13ifvqeb0","pricing_plan_id":"cebpf4jnsgd1na2vs0mg"},{"bike_id":"65a75831-8083-44de-8d34-fcaa11209b00","system_id":"levelo_inurba_marseille","lat":43.29283,"lon":5.36847,"is_reserved":false,"is_disabled":false,"rental_uris":{"android":"levelo://app?vid=65a75831-8083-44de-8d34-fcaa11209b00","ios":"levelo://app?vid=65a75831-8083-44de-8d34-fcaa11209b00"},"vehicle_type_id":"4","last_reported":1767795311,"current_range_meters":8400,"station_id":"ce4bhbp2rcd13ifvqesg","pricing_plan_id":"cebpf4jnsgd1na2vs0mg"},{"bike_id":"a897355a-e9d2-40ac-9bcd-6664d85cf531","system_id":"levelo_inurba_marseille","lat":43.29791,"lon":5.38088,"is_reserved":false,"is_disabled":false,"rental_uris":{"android":"levelo://app?vid=a897355a-e9d2-40ac-9bcd-6664d85cf531","ios":"levelo://app?vid=a897355a-e9d2-40ac-9bcd-6664d85cf531"},"vehicle_type_id":"4","last_reported":1767795311,"current_range_meters":8400,"station_id":"ce4bgip2rcd13ifvqbb0","pricing_plan_id":"cebpf4jnsgd1na2vs0mg"},{"bike_id":"1ec10a54-2423-4914-961d-8eb5d988b9cc","system_id":"levelo_inurba_marseille","lat":43.26576,"lon":5.37279,"is_reserved":false,"is_disabled":false,"rental_uris":{"android":"levelo://app?vid=1ec10a54-2423-4914-961d-8eb5d988b9cc","ios":"levelo://app?vid=1ec10a54-2423-4914-961d-8eb5d988b9cc"},"vehicle_type_id":"4","last_reported":1767795311,"current_range_meters":8400,"station_id":"ce4bhg12rcd13ifvqf70","pricing_plan_id":"cebpf4jnsgd1na2vs0mg"},{"bike_id":"c1ef2330-0e53-4d05-acc5-a06ad4178821","system_id":"levelo_inurba_marseille","lat":43.257208,"lon":5.411166,"is_reserved":false,"is_disabled":false,"rental_uris":{"android":"levelo://app?vid=c1ef2330-0e53-4d05-acc5-a06ad4178821","ios":"levelo://app?vid=c1ef2330-0e53-4d05-acc5-a06ad4178821"},"vehicle_type_id":"4","last_reported":1767795311,"current_range_meters":8400,"station_id":"ce4bhkp2rcd13ifvqgd0","pricing_plan_id":"cebpf4jnsgd1na2vs0mg"},{"bike_id":"50f04bdb-6e10-4fbc-9702-0f60b6b1aa73","system_id":"levelo_inurba_marseille","lat":43.30533,"lon":5.36538,"is_reserved":false,"is_disabled":false,"rental_uris":{"android":"levelo://app?vid=50f04bdb-6e10-4fbc-9702-0f60b6b1aa73","ios":"levelo://app?vid=50f04bdb-6e10-4fbc-9702-0f60b6b1aa73"},"vehicle_type_id":"4","last_reported":1767795311,"current_range_meters":8400,"station_id":"ce4bgs12rcd13ifvqcag","pricing_plan_id":"cebpf4jnsgd1na2vs0mg"},{"bike_id":"77bdaa9f-660e-4d3f-ba94-8890d6ae433a","system_id":"levelo_inurba_marseille","lat":43.27717,"lon":5.38934,"is_reserved":false,"is_disabled":false,"rental_uris":{"android":"levelo://app?vid=77bdaa9f-660e-4d3f-ba94-8890d6ae433a","ios":"levelo://app?vid=77bdaa9f-660e-4d3f-ba94-8890d6ae433a"},"vehicle_type_id":"4","last_reported":1767795311,"current_range_meters":8400,"station_id":"ce4bhi12rcd13ifvqfo0","pricing_plan_id":"cebpf4jnsgd1na2vs0mg"},{"bike_id":"31ee1072-44ae-4f71-b06c-c86c3965fcef","system_id":"levelo_inurba_marseille","lat":43.26559,"lon":5.37316,"is_reserved":false,"is_disabled":false,"rental_uris":{"android":"levelo://app?vid=31ee1072-44ae-4f71-b06c-c86c3965fcef","ios":"levelo://app?vid=31ee1072-44ae-4f71-b06c-c86c3965fcef"},"vehicle_type_id":"4","last_reported":1767795311,"current_range_meters":8400,"station_id":"ce4bhg12rcd13ifvqf70","pricing_plan_id":"cebpf4jnsgd1na2vs0mg"},{"bike_id":"7934d60c-c99b-41b2-8798-3875f8cc4eb1","system_id":"levelo_inurba_marseille","lat":43.337444,"lon":5.374475,"is_reserved":false,"is_disabled":false,"rental_uris":{"android":"levelo://app?vid=7934d60c-c99b-41b2-8798-3875f8cc4eb1","ios":"levelo://app?vid=7934d60c-c99b-41b2-8798-3875f8cc4eb1"},"vehicle_type_id":"4","last_reported":1767795311,"current_range_meters":8400,"station_id":"","pricing_plan_id":"cebpf4jnsgd1na2vs0mg"},{"bike_id":"694627ac-e88b-4879-ab60-b6611c2beee4","system_id":"levelo_inurba_marseille","lat":43.34172,"lon":5.40967,"is_reserved":false,"is_disabled":false,"rental_uris":{"android":"levelo://app?vid=694627ac-e88b-4879-ab60-b6611c2beee4","ios":"levelo://app?vid=694627ac-e88b-4879-ab60-b6611c2beee4"},"vehicle_type_id":"4","last_reported":1767795311,"current_range_meters":8400,"station_id":"","pricing_plan_id":"cebpf4jnsgd1na2vs0mg"},{"bike_id":"d0d67774-3af3-4c86-b7b6-8109c321647b","system_id":"levelo_inurba_marseille","lat":43.22949,"lon":5.35375,"is_reserved":false,"is_disabled":false,"rental_uris":{"android":"levelo://app?vid=d0d67774-3af3-4c86-b7b6-8109c321647b","ios":"levelo://app?vid=d0d67774-3af3-4c86-b7b6-8109c321647b"},"vehicle_type_id":"4","last_reported":1767795311,"current_range_meters":8400,"station_id":"cpo3532slgdg3j2ikp40","pricing_plan_id":"cebpf4jnsgd1na2vs0mg"},{"bike_id":"628f27aa-2421-455b-9fbc-8ee0495e7016","system_id":"levelo_inurba_marseille","lat":43.24395,"lon":5.37047,"is_reserved":false,"is_disabled":false,"rental_uris":{"android":"levelo://app?vid=628f27aa-2421-455b-9fbc-8ee0495e7016","ios":"levelo://app?vid=628f27aa-2421-455b-9fbc-8ee0495e7016"},"vehicle_type_id":"4","last_reported":1767795311,"current_range_meters":8400,"station_id":"ce4bhhh2rcd13ifvqfk0","pricing_plan_id":"cebpf4jnsgd1na2vs0mg"},{"bike_id":"5a1a9e9a-f0a6-4d0e-aace-29e5adbf7f6f","system_id":"levelo_inurba_marseille","lat":43.24467,"lon":5.42542,"is_reserved":false,"is_disabled":false,"rental_uris":{"android":"levelo://app?vid=5a1a9e9a-f0a6-4d0e-aace-29e5adbf7f6f","ios":"levelo://app?vid=5a1a9e9a-f0a6-4d0e-aace-29e5adbf7f6f"},"vehicle_type_id":"4","last_reported":1767795311,"current_range_meters":8400,"station_id":"st_d4a3vfp97mjs738cd8kg","pricing_plan_id":"cebpf4jnsgd1na2vs0mg"},{"bike_id":"1c4b26ae-7723-4cf2-bb68-ee4f35274dcd","system_id":"levelo_inurba_marseille","lat":43.29519,"lon":5.37507,"is_reserved":false,"is_disabled":false,"rental_uris":{"android":"levelo://app?vid=1c4b26ae-7723-4cf2-bb68-ee4f35274dcd","ios":"levelo://app?vid=1c4b26ae-7723-4cf2-bb68-ee4f35274dcd"},"vehicle_type_id":"4","last_reported":1767795311,"current_range_meters":8800,"station_id":"ce4bgkp2rcd13ifvqbmg","pricing_plan_id":"cebpf4jnsgd1na2vs0mg"},{"bike_id":"7bed6c7f-598e-48e9-bae3-214e5eee84f3","system_id":"levelo_inurba_marseille","lat":43.24468,"lon":5.42533,"is_reserved":false,"is_disabled":false,"rental_uris":{"android":"levelo://app?vid=7bed6c7f-598e-48e9-bae3-214e5eee84f3","ios":"levelo://app?vid=7bed6c7f-598e-48e9-bae3-214e5eee84f3"},"vehicle_type_id":"4","last_reported":1767795311,"current_range_meters":8800,"station_id":"st_d4a3vfp97mjs738cd8kg","pricing_plan_id":"cebpf4jnsgd1na2vs0mg"},{"bike_id":"948bd2ed-8fdc-4ef6-9827-a943cc835e12","system_id":"levelo_inurba_marseille","lat":43.30156,"lon":5.43078,"is_reserved":false,"is_disabled":false,"rental_uris":{"android":"levelo://app?vid=948bd2ed-8fdc-4ef6-9827-a943cc835e12","ios":"levelo://app?vid=948bd2ed-8fdc-4ef6-9827-a943cc835e12"},"vehicle_type_id":"4","last_reported":1767795311,"current_range_meters":8800,"station_id":"st_d3js3co5814s73ftftug","pricing_plan_id":"cebpf4jnsgd1na2vs0mg"},{"bike_id":"7e56ead6-0dcc-483d-86d1-d4af73c68e4a","system_id":"levelo_inurba_marseille","lat":43.29373,"lon":5.38593,"is_reserved":false,"is_disabled":true,"rental_uris":{"android":"levelo://app?vid=7e56ead6-0dcc-483d-86d1-d4af73c68e4a","ios":"levelo://app?vid=7e56ead6-0dcc-483d-86d1-d4af73c68e4a"},"vehicle_type_id":"4","last_reported":1767795311,"current_range_meters":8800,"station_id":"","pricing_plan_id":"cebpf4jnsgd1na2vs0mg"},{"bike_id":"318ab7ee-cd4e-4fbb-a198-dc67360e53a7","system_id":"levelo_inurba_marseille","lat":43.22928,"lon":5.35383,"is_reserved":false,"is_disabled":false,"rental_uris":{"android":"levelo://app?vid=318ab7ee-cd4e-4fbb-a198-dc67360e53a7","ios":"levelo://app?vid=318ab7ee-cd4e-4fbb-a198-dc67360e53a7"},"vehicle_type_id":"4","last_reported":1767795311,"current_range_meters":8800,"station_id":"cpo3532slgdg3j2ikp40","pricing_plan_id":"cebpf4jnsgd1na2vs0mg"},{"bike_id":"17ffc005-fa72-4d1f-9413-b31aab6a3fd6","system_id":"levelo_inurba_marseille","lat":43.32358,"lon":5.36723,"is_reserved":false,"is_disabled":false,"rental_uris":{"android":"levelo://app?vid=17ffc005-fa72-4d1f-9413-b31aab6a3fd6","ios":"levelo://app?vid=17ffc005-fa72-4d1f-9413-b31aab6a3fd6"},"vehicle_type_id":"4","last_reported":1767795311,"current_range_meters":8800,"station_id":"ce4bhsh2rcd13ifvqi2g","pricing_plan_id":"cebpf4jnsgd1na2vs0mg"},{"bike_id":"e3ffb854-e428-4a18-904d-ea5ddd084e10","system_id":"levelo_inurba_marseille","lat":43.323535,"lon":5.367425,"is_reserved":false,"is_disabled":false,"rental_uris":{"android":"levelo://app?vid=e3ffb854-e428-4a18-904d-ea5ddd084e10","ios":"levelo://app?vid=e3ffb854-e428-4a18-904d-ea5ddd084e10"},"vehicle_type_id":"4","last_reported":1767795311,"current_range_meters":8800,"station_id":"ce4bhsh2rcd13ifvqi2g","pricing_plan_id":"cebpf4jnsgd1na2vs0mg"},{"bike_id":"0b08096c-4995-449d-9715-13377335d815","system_id":"levelo_inurba_marseille","lat":43.22601,"lon":5.41621,"is_reserved":false,"is_disabled":false,"rental_uris":{"android":"levelo://app?vid=0b08096c-4995-449d-9715-13377335d815","ios":"levelo://app?vid=0b08096c-4995-449d-9715-13377335d815"},"vehicle_type_id":"4","last_reported":1767795311,"current_range_meters":8800,"station_id":"st_d2o4gvlbi1j2169b742g","pricing_plan_id":"cebpf4jnsgd1na2vs0mg"},{"bike_id":"037f3da2-a9a4-448b-9f35-b11f69d80e0e","system_id":"levelo_inurba_marseille","lat":43.29716,"lon":5.37705,"is_reserved":false,"is_disabled":false,"rental_uris":{"android":"levelo://app?vid=037f3da2-a9a4-448b-9f35-b11f69d80e0e","ios":"levelo://app?vid=037f3da2-a9a4-448b-9f35-b11f69d80e0e"},"vehicle_type_id":"4","last_reported":1767795311,"current_range_meters":8800,"station_id":"ce4bgkh2rcd13ifvqbl0","pricing_plan_id":"cebpf4jnsgd1na2vs0mg"},{"bike_id":"505c851b-40c8-484d-bf20-ce58a025a1f3","system_id":"levelo_inurba_marseille","lat":43.301613,"lon":5.374172,"is_reserved":false,"is_disabled":false,"rental_uris":{"android":"levelo://app?vid=505c851b-40c8-484d-bf20-ce58a025a1f3","ios":"levelo://app?vid=505c851b-40c8-484d-bf20-ce58a025a1f3"},"vehicle_type_id":"4","last_reported":1767795311,"current_range_meters":8800,"station_id":"ce4bgs92rcd13ifvqcc0","pricing_plan_id":"cebpf4jnsgd1na2vs0mg"},{"bike_id":"60261236-4956-4847-96bc-10f2e96b99df","system_id":"levelo_inurba_marseille","lat":43.27919,"lon":5.39578,"is_reserved":false,"is_disabled":false,"rental_uris":{"android":"levelo://app?vid=60261236-4956-4847-96bc-10f2e96b99df","ios":"levelo://app?vid=60261236-4956-4847-96bc-10f2e96b99df"},"vehicle_type_id":"4","last_reported":1767795311,"current_range_meters":8800,"station_id":"ce4bhf92rcd13ifvqf40","pricing_plan_id":"cebpf4jnsgd1na2vs0mg"},{"bike_id":"12d41d42-0df1-44df-b48f-62c73404ec27","system_id":"levelo_inurba_marseille","lat":43.27091,"lon":5.38325,"is_reserved":false,"is_disabled":false,"rental_uris":{"android":"levelo://app?vid=12d41d42-0df1-44df-b48f-62c73404ec27","ios":"levelo://app?vid=12d41d42-0df1-44df-b48f-62c73404ec27"},"vehicle_type_id":"4","last_reported":1767795311,"current_range_meters":8800,"station_id":"st_d3n2fo6cfp8s73cte1j0","pricing_plan_id":"cebpf4jnsgd1na2vs0mg"},{"bike_id":"e333ef92-9481-476e-a416-b4070e2823b7","system_id":"levelo_inurba_marseille","lat":43.255,"lon":5.37654,"is_reserved":false,"is_disabled":false,"rental_uris":{"android":"levelo://app?vid=e333ef92-9481-476e-a416-b4070e2823b7","ios":"levelo://app?vid=e333ef92-9481-476e-a416-b4070e2823b7"},"vehicle_type_id":"4","last_reported":1767795311,"current_range_meters":8800,"station_id":"ce4bhh12rcd13ifvqff0","pricing_plan_id":"cebpf4jnsgd1na2vs0mg"},{"bike_id":"284c2c73-1113-4cf5-85f6-92c0f8eb2789","system_id":"levelo_inurba_marseille","lat":43.2976,"lon":5.42787,"is_reserved":false,"is_disabled":false,"rental_uris":{"android":"levelo://app?vid=284c2c73-1113-4cf5-85f6-92c0f8eb2789","ios":"levelo://app?vid=284c2c73-1113-4cf5-85f6-92c0f8eb2789"},"vehicle_type_id":"4","last_reported":1767795311,"current_range_meters":8800,"station_id":"st_d3md5207bmas73dh9klg","pricing_plan_id":"cebpf4jnsgd1na2vs0mg"},{"bike_id":"47d0a8b3-c4fc-4d20-befe-0d9c69ad92a9","system_id":"levelo_inurba_marseille","lat":43.238017,"lon":5.36647,"is_reserved":false,"is_disabled":false,"rental_uris":{"android":"levelo://app?vid=47d0a8b3-c4fc-4d20-befe-0d9c69ad92a9","ios":"levelo://app?vid=47d0a8b3-c4fc-4d20-befe-0d9c69ad92a9"},"vehicle_type_id":"4","last_reported":1767795311,"current_range_meters":8800,"station_id":"st_d3nk18o9ro0c73en2l3g","pricing_plan_id":"cebpf4jnsgd1na2vs0mg"},{"bike_id":"ceb78c50-6deb-430c-aebe-b2fe34811655","system_id":"levelo_inurba_marseille","lat":43.2721,"lon":5.39184,"is_reserved":false,"is_disabled":false,"rental_uris":{"android":"levelo://app?vid=ceb78c50-6deb-430c-aebe-b2fe34811655","ios":"levelo://app?vid=ceb78c50-6deb-430c-aebe-b2fe34811655"},"vehicle_type_id":"4","last_reported":1767795311,"current_range_meters":8800,"station_id":"ce4bhhp2rcd13ifvqfm0","pricing_plan_id":"cebpf4jnsgd1na2vs0mg"},{"bike_id":"5a68ff48-3ca4-4b8d-81f5-0545c9e06ce5","system_id":"levelo_inurba_marseille","lat":43.288702,"lon":5.4253,"is_reserved":false,"is_disabled":false,"rental_uris":{"android":"levelo://app?vid=5a68ff48-3ca4-4b8d-81f5-0545c9e06ce5","ios":"levelo://app?vid=5a68ff48-3ca4-4b8d-81f5-0545c9e06ce5"},"vehicle_type_id":"4","last_reported":1767795311,"current_range_meters":9200,"station_id":"st_d3b462108ojc7389ooeg","pricing_plan_id":"cebpf4jnsgd1na2vs0mg"},{"bike_id":"f6c1d545-d8df-48a4-b906-098a561f57c6","system_id":"levelo_inurba_marseille","lat":43.2949,"lon":5.43311,"is_reserved":false,"is_disabled":false,"rental_uris":{"android":"levelo://app?vid=f6c1d545-d8df-48a4-b906-098a561f57c6","ios":"levelo://app?vid=f6c1d545-d8df-48a4-b906-098a561f57c6"},"vehicle_type_id":"4","last_reported":1767795311,"current_range_meters":9200,"station_id":"st_d3j5ugp08ojc73fj9d10","pricing_plan_id":"cebpf4jnsgd1na2vs0mg"},{"bike_id":"716f70c6-c645-4189-bca5-9c06dfbd6c99","system_id":"levelo_inurba_marseille","lat":43.29795,"lon":5.38074,"is_reserved":false,"is_disabled":false,"rental_uris":{"android":"levelo://app?vid=716f70c6-c645-4189-bca5-9c06dfbd6c99","ios":"levelo://app?vid=716f70c6-c645-4189-bca5-9c06dfbd6c99"},"vehicle_type_id":"4","last_reported":1767795311,"current_range_meters":9200,"station_id":"ce4bgip2rcd13ifvqbb0","pricing_plan_id":"cebpf4jnsgd1na2vs0mg"},{"bike_id":"19e15d06-cf4c-459d-8887-b3feaa0bcacf","system_id":"levelo_inurba_marseille","lat":43.32867,"lon":5.40495,"is_reserved":false,"is_disabled":false,"rental_uris":{"android":"levelo://app?vid=19e15d06-cf4c-459d-8887-b3feaa0bcacf","ios":"levelo://app?vid=19e15d06-cf4c-459d-8887-b3feaa0bcacf"},"vehicle_type_id":"4","last_reported":1767795311,"current_range_meters":9200,"station_id":"ce4bhq92rcd13ifvqhkg","pricing_plan_id":"cebpf4jnsgd1na2vs0mg"},{"bike_id":"87e3602b-9106-41f9-ac34-7d4556ec2888","system_id":"levelo_inurba_marseille","lat":43.28496,"lon":5.3857,"is_reserved":false,"is_disabled":false,"rental_uris":{"android":"levelo://app?vid=87e3602b-9106-41f9-ac34-7d4556ec2888","ios":"levelo://app?vid=87e3602b-9106-41f9-ac34-7d4556ec2888"},"vehicle_type_id":"4","last_reported":1767795311,"current_range_meters":9200,"station_id":"ce4bh8p2rcd13ifvqeb0","pricing_plan_id":"cebpf4jnsgd1na2vs0mg"},{"bike_id":"686bcbac-7ffb-4bc9-afb0-a18e8a9323c9","system_id":"levelo_inurba_marseille","lat":43.29356,"lon":5.37857,"is_reserved":false,"is_disabled":false,"rental_uris":{"android":"levelo://app?vid=686bcbac-7ffb-4bc9-afb0-a18e8a9323c9","ios":"levelo://app?vid=686bcbac-7ffb-4bc9-afb0-a18e8a9323c9"},"vehicle_type_id":"4","last_reported":1767795311,"current_range_meters":9200,"station_id":"ce4bgjh2rcd13ifvqbf0","pricing_plan_id":"cebpf4jnsgd1na2vs0mg"},{"bike_id":"e90f7184-cd39-4bc0-805c-9ce2c7183400","system_id":"levelo_inurba_marseille","lat":43.26205,"lon":5.37941,"is_reserved":false,"is_disabled":false,"rental_uris":{"android":"levelo://app?vid=e90f7184-cd39-4bc0-805c-9ce2c7183400","ios":"levelo://app?vid=e90f7184-cd39-4bc0-805c-9ce2c7183400"},"vehicle_type_id":"4","last_reported":1767795311,"current_range_meters":9200,"station_id":"ce4bhjp2rcd13ifvqg90","pricing_plan_id":"cebpf4jnsgd1na2vs0mg"},{"bike_id":"df63534a-a4d3-40e3-9495-abb778afe0ab","system_id":"levelo_inurba_marseille","lat":43.28616,"lon":5.39866,"is_reserved":false,"is_disabled":false,"rental_uris":{"android":"levelo://app?vid=df63534a-a4d3-40e3-9495-abb778afe0ab","ios":"levelo://app?vid=df63534a-a4d3-40e3-9495-abb778afe0ab"},"vehicle_type_id":"4","last_reported":1767795311,"current_range_meters":9200,"station_id":"st_d4a7ka997mjs738ck50g","pricing_plan_id":"cebpf4jnsgd1na2vs0mg"},{"bike_id":"fe99a84f-5ce7-4cef-a997-e79fffe9bddd","system_id":"levelo_inurba_marseille","lat":43.32097,"lon":5.36759,"is_reserved":false,"is_disabled":false,"rental_uris":{"android":"levelo://app?vid=fe99a84f-5ce7-4cef-a997-e79fffe9bddd","ios":"levelo://app?vid=fe99a84f-5ce7-4cef-a997-e79fffe9bddd"},"vehicle_type_id":"4","last_reported":1767795311,"current_range_meters":9200,"station_id":"ce4bhrh2rcd13ifvqhug","pricing_plan_id":"cebpf4jnsgd1na2vs0mg"},{"bike_id":"627ad4fb-d3f7-406d-9fa6-760355e4142d","system_id":"levelo_inurba_marseille","lat":43.23189,"lon":5.35558,"is_reserved":false,"is_disabled":false,"rental_uris":{"android":"levelo://app?vid=627ad4fb-d3f7-406d-9fa6-760355e4142d","ios":"levelo://app?vid=627ad4fb-d3f7-406d-9fa6-760355e4142d"},"vehicle_type_id":"4","last_reported":1767795311,"current_range_meters":9200,"station_id":"ce4bhu92rcd13ifvqi70","pricing_plan_id":"cebpf4jnsgd1na2vs0mg"},