{"last_updated":1731085641,"ttl":60,"version":"2.2","data":{"bikes":[{"bike_id":"a293621a-46f2-48c8-ac15-2c75d5d718f4","system_id":"levelo_inurba_marseille","lat":43.295349,"lon":5.381832,"is_reserved":false,"is_disabled":false,"rental_uris":{"android":"levelo://app?vid=a293621a-46f2-48c8-ac15-2c75d5d718f4","ios":"levelo://app?vid=a293621a-46f2-48c8-ac15-2c75d5d718f4"},"vehicle_type_id":"4","last_reported":1731085641,"current_range_meters":21600,"station_id":"ce4bh0h2rcd13ifvqd60","pricing_plan_id":"cebpf4jnsgd1na2vs0mg"},{"bike_id":"695e1d7b-4a83-4d20-b22f-941bcf0b6b29","system_id":"levelo_inurba_marseille","lat":43.28425,"lon":5.34994,"is_reserved":false,"is_disabled":false,"rental_uris":{"android":"levelo://app?vid=695e1d7b-4a83-4d20-b22f-941bcf0b6b29","ios":"levelo://app?vid=695e1d7b-4a83-4d20-b22f-941bcf0b6b29"},"vehicle_type_id":"4","last_reported":1731085641,"current_range_meters":38800,"station_id":"ce4bhbh2rcd13ifvqepg","pricing_plan_id":"cebpf4jnsgd1na2vs0mg"},{"bike_id":"5b4a575f-d846-4b1f-b122-54d87bee5b04","system_id":"levelo_inurba_marseille","lat":43.29619,"lon":5.37731,"is_reserved":false,"is_disabled":false,"rental_uris":{"android":"levelo://app?vid=5b4a575f-d846-4b1f-b122-54d87bee5b04","ios":"levelo://app?vid=5b4a575f-d846-4b1f-b122-54d87bee5b04"},"vehicle_type_id":"4","last_reported":1731085641,"current_range_meters":12400,"station_id":"ce4bgi92rcd13ifvqb90","pricing_plan_id":"cebpf4jnsgd1na2vs0mg"},{"bike_id":"50acb78d-907c-4335-958f-fa62e97de57b","system_id":"levelo_inurba_marseille","lat":43.304193,"lon":5.388113,"is_reserved":false,"is_disabled":false,"rental_uris":{"android":"levelo://app?vid=50acb78d-907c-4335-958f-fa62e97de57b","ios":"levelo://app?vid=50acb78d-907c-4335-958f-fa62e97de57b"},"vehicle_type_id":"4","last_reported":1731085641,"current_range_meters":36000,"station_id":"","pricing_plan_id":"cebpf4jnsgd1na2vs0mg"},{"bike_id":"c58e5fdc-cb17-4e6d-be0c-0185bdbfe62f","system_id":"levelo_inurba_marseille","lat":43.29384,"lon":5.3786,"is_reserved":false,"is_disabled":false,"rental_uris":{"android":"levelo://app?vid=c58e5fdc-cb17-4e6d-be0c-0185bdbfe62f","ios":"levelo://app?vid=c58e5fdc-cb17-4e6d-be0c-0185bdbfe62f"},"vehicle_type_id":"4","last_reported":1731085641,"current_range_meters":38800,"station_id":"ce4bgjh2rcd13ifvqbf0","pricing_plan_id":"cebpf4jnsgd1na2vs0mg"},{"bike_id":"3f8e9100-8f64-42ec-b328-73d6145177de","system_id":"levelo_inurba_marseille","lat":43.337444,"lon":5.374475,"is_reserved":false,"is_disabled":false,"rental_uris":{"android":"levelo://app?vid=3f8e9100-8f64-42ec-b328-73d6145177de","ios":"levelo://app?vid=3f8e9100-8f64-42ec-b328-73d6145177de"},"vehicle_type_id":"4","last_reported":1731085641,"current_range_meters":20400,"station_id":"","pricing_plan_id":"cebpf4jnsgd1na2vs0mg"},{"bike_id":"03598903-f6f6-4561-ac6e-57eca9915f30","system_id":"levelo_inurba_marseille","lat":43.28734,"lon":5.36095,"is_reserved":false,"is_disabled":false,"rental_uris":{"android":"levelo://app?vid=03598903-f6f6-4561-ac6e-57eca9915f30","ios":"levelo://app?vid=03598903-f6f6-4561-ac6e-57eca9915f30"},"vehicle_type_id":"4","last_reported":1731085641,"current_range_meters":7200,"station_id":"cki0cbj6b192h4jlfktg","pricing_plan_id":"cebpf4jnsgd1na2vs0mg"},{"bike_id":"85ec6972-2474-4903-af30-b7a390d3db72","system_id":"levelo_inurba_marseille","lat":43.26214,"lon":5.37408,"is_reserved":false,"is_disabled":false,"rental_uris":{"android":"levelo://app?vid=85ec6972-2474-4903-af30-b7a390d3db72","ios":"levelo://app?vid=85ec6972-2474-4903-af30-b7a390d3db72"},"vehicle_type_id":"4","last_reported":1731085641,"current_range_meters":35200,"station_id":"ce4bhgp2rcd13ifvqfc0","pricing_plan_id":"cebpf4jnsgd1na2vs0mg"},{"bike_id":"c88f1b31-dd3c-4e82-a81a-152198c83c26","system_id":"levelo_inurba_marseille","lat":43.31222,"lon":5.3686,"is_reserved":false,"is_disabled":false,"rental_uris":{"android":"levelo://app?vid=c88f1b31-dd3c-4e82-a81a-152198c83c26","ios":"levelo://app?vid=c88f1b31-dd3c-4e82-a81a-152198c83c26"},"vehicle_type_id":"4","last_reported":1731085641,"current_range_meters":8400,"station_id":"ce4bgl92rcd13ifvqbq0","pricing_plan_id":"cebpf4jnsgd1na2vs0mg"},{"bike_id":"95be5051-c9f2-4586-970a-fa29d3778570","system_id":"levelo_inurba_marseille","lat":43.27572,"lon":5.38407,"is_reserved":false,"is_disabled":false,"rental_uris":{"android":"levelo://app?vid=95be5051-c9f2-4586-970a-fa29d3778570","ios":"levelo://app?vid=95be5051-c9f2-4586-970a-fa29d3778570"},"vehicle_type_id":"4","last_reported":1731085641,"current_range_meters":35600,"station_id":"ce4bhh92rcd13ifvqfi0","pricing_plan_id":"cebpf4jnsgd1na2vs0mg"},{"bike_id":"504e5d62-7828-485f-b5c5-e0859c494a6c","system_id":"levelo_inurba_marseille","lat":43.32467,"lon":5.36591,"is_reserved":false,"is_disabled":false,"rental_uris":{"android":"levelo://app?vid=504e5d62-7828-485f-b5c5-e0859c494a6c","ios":"levelo://app?vid=504e5d62-7828-485f-b5c5-e0859c494a6c"},"vehicle_type_id":"4","last_reported":1731085641,"current_range_meters":36000,"station_id":"ce4bhs12rcd13ifvqhvg","pricing_plan_id":"cebpf4jnsgd1na2vs0mg"},{"bike_id":"7a61aa54-4124-4dcd-858b-db846d80c8c4","system_id":"levelo_inurba_marseille","lat":43.27618,"lon":5.36112,"is_reserved":false,"is_disabled":false,"rental_uris":{"android":"levelo://app?vid=7a61aa54-4124-4dcd-858b-db846d80c8c4","ios":"levelo://app?vid=7a61aa54-4124-4dcd-858b-db846d80c8c4"},"vehicle_type_id":"4","last_reported":1731085641,"current_range_meters":7200,"station_id":"ce4bgj92rcd13ifvqbe0","pricing_plan_id":"cebpf4jnsgd1na2vs0mg"},{"bike_id":"e29a0183-58c0-470a-a10e-606cd91916c2","system_id":"levelo_inurba_marseille","lat":43.31755,"lon":5.39018,"is_reserved":false,"is_disabled":false,"rental_uris":{"android":"levelo://app?vid=e29a0183-58c0-470a-a10e-606cd91916c2","ios":"levelo://app?vid=e29a0183-58c0-470a-a10e-606cd91916c2"},"vehicle_type_id":"4","last_reported":1731085641,"current_range_meters":19200,"station_id":"ce4bhqp2rcd13ifvqhng","pricing_plan_id":"cebpf4jnsgd1na2vs0mg"},{"bike_id":"7935c52f-b13e-461f-95ea-efc6c23b399b","system_id":"levelo_inurba_marseille","lat":43.29795,"lon":5.40404,"is_reserved":false,"is_disabled":false,"rental_uris":{"android":"levelo://app?vid=7935c52f-b13e-461f-95ea-efc6c23b399b","ios":"levelo://app?vid=7935c52f-b13e-461f-95ea-efc6c23b399b"},"vehicle_type_id":"4","last_reported":1731085641,"current_range_meters":16000,"station_id":"ce4bh112rcd13ifvqd90","pricing_plan_id":"cebpf4jnsgd1na2vs0mg"},{"bike_id":"7d537d1a-c9d8-4d89-b809-dc7a3c08d658","system_id":"levelo_inurba_marseille","lat":43.285688,"lon":5.394925,"is_reserved":false,"is_disabled":false,"rental_uris":{"android":"levelo://app?vid=7d537d1a-c9d8-4d89-b809-dc7a3c08d658","ios":"levelo://app?vid=7d537d1a-c9d8-4d89-b809-dc7a3c08d658"},"vehicle_type_id":"4","last_reported":1731085641,"current_range_meters":30000,"station_id":"ce4bh292rcd13ifvqdg0","pricing_plan_id":"cebpf4jnsgd1na2vs0mg"},{"bike_id":"1a92279e-1152-4bb1-a030-ac5c06a6a547","system_id":"levelo_inurba_marseille","lat":43.30797,"lon":5.43527,"is_reserved":false,"is_disabled":false,"rental_uris":{"android":"levelo://app?vid=1a92279e-1152-4bb1-a030-ac5c06a6a547","ios":"levelo://app?vid=1a92279e-1152-4bb1-a030-ac5c06a6a547"},"vehicle_type_id":"4","last_reported":1731085641,"current_range_meters":29600,"station_id":"ce4bhph2rcd13ifvqheg","pricing_plan_id":"cebpf4jnsgd1na2vs0mg"},{"bike_id":"682e514b-c2d9-4d08-b90e-4612676da416","system_id":"levelo_inurba_marseille","lat":43.301377,"lon":5.374239,"is_reserved":false,"is_disabled":false,"rental_uris":{"android":"levelo://app?vid=682e514b-c2d9-4d08-b90e-4612676da416","ios":"levelo://app?vid=682e514b-c2d9-4d08-b90e-4612676da416"},"vehicle_type_id":"4","last_reported":1731085641,"current_range_meters":4800,"station_id":"ce4bhq12rcd13ifvqhig","pricing_plan_id":"cebpf4jnsgd1na2vs0mg"},{"bike_id":"c100e660-5b8e-454a-aaee-d634110d5a9d","system_id":"levelo_inurba_marseille","lat":43.29519,"lon":5.39053,"is_reserved":false,"is_disabled":false,"rental_uris":{"android":"levelo://app?vid=c100e660-5b8e-454a-aaee-d634110d5a9d","ios":"levelo://app?vid=c100e660-5b8e-454a-aaee-d634110d5a9d"},"vehicle_type_id":"4","last_reported":1731085641,"current_range_meters":7200,"station_id":"ce4bh3p2rcd13ifvqdp0","pricing_plan_id":"cebpf4jnsgd1na2vs0mg"},{"bike_id":"f8c6ee30-5ebd-411c-b8ee-14a933b0e909","system_id":"levelo_inurba_marseille","lat":43.29516,"lon":5.39395,"is_reserved":false,"is_disabled":false,"rental_uris":{"android":"levelo://app?vid=f8c6ee30-5ebd-411c-b8ee-14a933b0e909","ios":"levelo://app?vid=f8c6ee30-5ebd-411c-b8ee-14a933b0e909"},"vehicle_type_id":"4","last_reported":1731085641,"current_range_meters":24800,"station_id":"ce4bh292rcd13ifvqdf0","pricing_plan_id":"cebpf4jnsgd1na2vs0mg"},{"bike_id":"6cfac29b-153e-4483-b868-b796dfc23ac8","system_id":"levelo_inurba_marseille","lat":43.24069,"lon":5.37769,"is_reserved":false,"is_disabled":false,"rental_uris":{"android":"levelo://app?vid=6cfac29b-153e-4483-b868-b796dfc23ac8","ios":"levelo://app?vid=6cfac29b-153e-4483-b868-b796dfc23ac8"},"vehicle_type_id":"4","last_reported":1731085641,"current_range_meters":7200,"station_id":"ce4bhnp2rcd13ifvqgvg","pricing_plan_id":"cebpf4jnsgd1na2vs0mg"},{"bike_id":"b9059161-bc2a-4853-8231-de961bd5f1e7","system_id":"levelo_inurba_marseille","lat":43.33723,"lon":5.39179,"is_reserved":false,"is_disabled":false,"rental_uris":{"android":"levelo://app?vid=b9059161-bc2a-4853-8231-de961bd5f1e7","ios":"levelo://app?vid=b9059161-bc2a-4853-8231-de961bd5f1e7"},"vehicle_type_id":"4","last_reported":1731085641,"current_range_meters":26000,"station_id":"ce4bhr92rcd13ifvqhsg","pricing_plan_id":"cebpf4jnsgd1na2vs0mg"},{"bike_id":"be6de5f5-70b8-4e62-b539-d24821b02350","system_id":"levelo_inurba_marseille","lat":43.26033,"lon":5.37546,"is_reserved":false,"is_disabled":false,"rental_uris":{"android":"levelo://app?vid=be6de5f5-70b8-4e62-b539-d24821b02350","ios":"levelo://app?vid=be6de5f5-70b8-4e62-b539-d24821b02350"},"vehicle_type_id":"4","last_reported":1731085641,"current_range_meters":32400,"station_id":"ce4bhgh2rcd13ifvqfa0","pricing_plan_id":"cebpf4jnsgd1na2vs0mg"},{"bike_id":"3d32f789-a044-47cc-8444-b1887a88a83f","system_id":"levelo_inurba_marseille","lat":43.30554,"lon":5.36715,"is_reserved":false,"is_disabled":false,"rental_uris":{"android":"levelo://app?vid=3d32f789-a044-47cc-8444-b1887a88a83f","ios":"levelo://app?vid=3d32f789-a044-47cc-8444-b1887a88a83f"},"vehicle_type_id":"4","last_reported":1731085641,"current_range_meters":37600,"station_id":"ce4bgrp2rcd13ifvqc9g","pricing_plan_id":"cebpf4jnsgd1na2vs0mg"},{"bike_id":"952280c1-9d9f-469c-8fc4-b0405c674d0f","system_id":"levelo_inurba_marseille","lat":43.29032,"lon":5.3757,"is_reserved":false,"is_disabled":false,"rental_uris":{"android":"levelo://app?vid=952280c1-9d9f-469c-8fc4-b0405c674d0f","ios":"levelo://app?vid=952280c1-9d9f-469c-8fc4-b0405c674d0f"},"vehicle_type_id":"4","last_reported":1731085641,"current_range_meters":27200,"station_id":"ce4bh692rcd13ifvqe90","pricing_plan_id":"cebpf4jnsgd1na2vs0mg"},{"bike_id":"22c2910c-c395-401a-9c60-3a72ab53ce1d","system_id":"levelo_inurba_marseille","lat":43.26548,"lon":5.39502,"is_reserved":false,"is_disabled":false,"rental_uris":{"android":"levelo://app?vid=22c2910c-c395-401a-9c60-3a72ab53ce1d","ios":"levelo://app?vid=22c2910c-c395-401a-9c60-3a72ab53ce1d"},"vehicle_type_id":"4","last_reported":1731085641,"current_range_meters":30800,"station_id":"ce4bhh12rcd13ifvqfg0","pricing_plan_id":"cebpf4jnsgd1na2vs0mg"},{"bike_id":"f4ef053d-e709-4411-bdd9-de1d0f41e46f","system_id":"levelo_inurba_marseille","lat":43.2293,"lon":5.35374,"is_reserved":false,"is_disabled":false,"rental_uris":{"android":"levelo://app?vid=f4ef053d-e709-4411-bdd9-de1d0f41e46f","ios":"levelo://app?vid=f4ef053d-e709-4411-bdd9-de1d0f41e46f"},"vehicle_type_id":"4","last_reported":1731085641,"current_range_meters":38800,"station_id":"cpo3532slgdg3j2ikp40","pricing_plan_id":"cebpf4jnsgd1na2vs0mg"},{"bike_id":"7b28e8d2-008b-42bf-8db3-b456cc7125ae","system_id":"levelo_inurba_marseille","lat":43.31336,"lon":5.39693,"is_reserved":false,"is_disabled":false,"rental_uris":{"android":"levelo://app?vid=7b28e8d2-008b-42bf-8db3-b456cc7125ae","ios":"levelo://app?vid=7b28e8d2-008b-42bf-8db3-b456cc7125ae"},"vehicle_type_id":"4","last_reported":1731085641,"current_range_meters":38000,"station_id":"ce4bgvp2rcd13ifvqcu0","pricing_plan_id":"cebpf4jnsgd1na2vs0mg"},{"bike_id":"707defd1-f536-4b0b-8df9-45bced001472","system_id":"levelo_inurba_marseille","lat":43.31335,"lon":5.39697,"is_reserved":false,"is_disabled":false,"rental_uris":{"android":"levelo://app?vid=707defd1-f536-4b0b-8df9-45bced001472","ios":"levelo://app?vid=707defd1-f536-4b0b-8df9-45bced001472"},"vehicle_type_id":"4","last_reported":1731085641,"current_range_meters":24800,"station_id":"ce4bgvp2rcd13ifvqcu0","pricing_plan_id":"cebpf4jnsgd1na2vs0mg"},{"bike_id":"80590553-7a60-4301-a5bc-0f28a55be41a","system_id":"levelo_inurba_marseille","lat":43.26808,"lon":5.4027,"is_reserved":false,"is_disabled":false,"rental_uris":{"android":"levelo://app?vid=80590553-7a60-4301-a5bc-0f28a55be41a","ios":"levelo://app?vid=80590553-7a60-4301-a5bc-0f28a55be41a"},"vehicle_type_id":"4","last_reported":1731085641,"current_range_meters":7200,"station_id":"ce501612rcd8frsf0b60","pricing_plan_id":"cebpf4jnsgd1na2vs0mg"},{"bike_id":"544e50af-e060-4a1a-9db7-5853dde6c192","system_id":"levelo_inurba_marseille","lat":43.28965,"lon":5.37844,"is_reserved":false,"is_disabled":false,"rental_uris":{"android":"levelo://app?vid=544e50af-e060-4a1a-9db7-5853dde6c192","ios":"levelo://app?vid=544e50af-e060-4a1a-9db7-5853dde6c192"},"vehicle_type_id":"4","last_reported":1731085641,"current_range_meters":7200,"station_id":"ce4bh9p2rcd13ifvqed0","pricing_plan_id":"cebpf4jnsgd1na2vs0mg"},{"bike_id":"ca10a5c3-f3ce-4f91-8de9-8bcbe8db6bbe","system_id":"levelo_inurba_marseille","lat":43.243629,"lon":5.385897,"is_reserved":false,"is_disabled":false,"rental_uris":{"android":"levelo://app?vid=ca10a5c3-f3ce-4f91-8de9-8bcbe8db6bbe","ios":"levelo://app?vid=ca10a5c3-f3ce-4f91-8de9-8bcbe8db6bbe"},"vehicle_type_id":"4","last_reported":1731085641,"current_range_meters":27200,"station_id":"","pricing_plan_id":"cebpf4jnsgd1na2vs0mg"},{"bike_id":"0068481c-09a4-465d-a885-c578d3b25bf9","system_id":"levelo_inurba_marseille","lat":43.29419,"lon":5.38622,"is_reserved":false,"is_disabled":false,"rental_uris":{"android":"levelo://app?vid=0068481c-09a4-465d-a885-c578d3b25bf9","ios":"levelo://app?vid=0068481c-09a4-465d-a885-c578d3b25bf9"},"vehicle_type_id":"4","last_reported":1731085641,"current_range_meters":14400,"station_id":"ce4bh2h2rcd13ifvqdh0","pricing_plan_id":"cebpf4jnsgd1na2vs0mg"},{"bike_id":"8d7e5922-664a-4a28-aea6-8506137867d9","system_id":"levelo_inurba_marseille","lat":43.26219,"lon":5.3744,"is_reserved":false,"is_disabled":false,"rental_uris":{"android":"levelo://app?vid=8d7e5922-664a-4a28-aea6-8506137867d9","ios":"levelo://app?vid=8d7e5922-664a-4a28-aea6-8506137867d9"},"vehicle_type_id":"4","last_reported":1731085641,"current_range_meters":18000,"station_id":"ce4bhgp2rcd13ifvqfc0","pricing_plan_id":"cebpf4jnsgd1na2vs0mg"},{"bike_id":"b4ad1abe-6669-4317-b6c7-ea7e704ed285","system_id":"levelo_inurba_marseille","lat":43.29581,"lon":5.36748,"is_reserved":false,"is_disabled":false,"rental_uris":{"android":"levelo://app?vid=b4ad1abe-6669-4317-b6c7-ea7e704ed285","ios":"levelo://app?vid=b4ad1abe-6669-4317-b6c7-ea7e704ed285"},"vehicle_type_id":"4","last_reported":1731085641,"current_range_meters":34800,"station_id":"ce4bgph2rcd13ifvqc2g","pricing_plan_id":"cebpf4jnsgd1na2vs0mg"},{"bike_id":"76f2ee1e-fb8c-4dac-9c34-f87df77e2be8","system_id":"levelo_inurba_marseille","lat":43.246531,"lon":5.388941,"is_reserved":false,"is_disabled":false,"rental_uris":{"android":"levelo://app?vid=76f2ee1e-fb8c-4dac-9c34-f87df77e2be8","ios":"levelo://app?vid=76f2ee1e-fb8c-4dac-9c34-f87df77e2be8"},"vehicle_type_id":"4","last_reported":1731085641,"current_range_meters":38400,"station_id":"ce4bhg12rcd13ifvqf60","pricing_plan_id":"cebpf4jnsgd1na2vs0mg"},{"bike_id":"b8fdd341-0697-41ca-82c9-e4253415f4e6","system_id":"levelo_inurba_marseille","lat":43.23055,"lon":5.35495,"is_reserved":false,"is_disabled":false,"rental_uris":{"android":"levelo://app?vid=b8fdd341-0697-41ca-82c9-e4253415f4e6","ios":"levelo://app?vid=b8fdd341-0697-41ca-82c9-e4253415f4e6"},"vehicle_type_id":"4","last_reported":1731085641,"current_range_meters":36400,"station_id":"cpo3342slgdg3j2ifvpg","pricing_plan_id":"cebpf4jnsgd1na2vs0mg"},{"bike_id":"7016691b-c8d7-471a-9151-0fbbdbe5a43b","system_id":"levelo_inurba_marseille","lat":43.29037,"lon":5.35918,"is_reserved":false,"is_disabled":false,"rental_uris":{"android":"levelo://app?vid=7016691b-c8d7-471a-9151-0fbbdbe5a43b","ios":"levelo://app?vid=7016691b-c8d7-471a-9151-0fbbdbe5a43b"},"vehicle_type_id":"4","last_reported":1731085641,"current_range_meters":6000,"station_id":"ce4bha92rcd13ifvqeg0","pricing_plan_id":"cebpf4jnsgd1na2vs0mg"},{"bike_id":"6a08c0a8-ecc8-4525-b88b-0f3d63adc692","system_id":"levelo_inurba_marseille","lat":43.27174,"lon":5.40993,"is_reserved":false,"is_disabled":false,"rental_uris":{"android":"levelo://app?vid=6a08c0a8-ecc8-4525-b88b-0f3d63adc692","ios":"levelo://app?vid=6a08c0a8-ecc8-4525-b88b-0f3d63adc692"},"vehicle_type_id":"4","last_reported":1731085641,"current_range_meters":4400,"station_id":"ce4bhl12rcd13ifvqgf0","pricing_plan_id":"cebpf4jnsgd1na2vs0mg"},{"bike_id":"01b6f7da-f082-4851-a5ac-8ebca3d23fdc","system_id":"levelo_inurba_marseille","lat":43.30649,"lon":5.40096,"is_reserved":false,"is_disabled":false,"rental_uris":{"android":"levelo://app?vid=01b6f7da-f082-4851-a5ac-8ebca3d23fdc","ios":"levelo://app?vid=01b6f7da-f082-4851-a5ac-8ebca3d23fdc"},"vehicle_type_id":"4","last_reported":1731085641,"current_range_meters":6800,"station_id":"ce4bh112rcd13ifvqda0","pricing_plan_id":"cebpf4jnsgd1na2vs0mg"},{"bike_id":"ef564629-1584-4c19-9997-53d7c1f99322","system_id":"levelo_inurba_marseille","lat":43.31175,"lon":5.38714,"is_reserved":false,"is_disabled":false,"rental_uris":{"android":"levelo://app?vid=ef564629-1584-4c19-9997-53d7c1f99322","ios":"levelo://app?vid=ef564629-1584-4c19-9997-53d7c1f99322"},"vehicle_type_id":"4","last_reported":1731085641,"current_range_meters":27600,"station_id":"ce4bgv12rcd13ifvqcp0","pricing_plan_id":"cebpf4jnsgd1na2vs0mg"},{"bike_id":"8c326b26-9203-4a12-8c49-2dc336785955","system_id":"levelo_inurba_marseille","lat":43.29526,"lon":5.38549,"is_reserved":false,"is_disabled":false,"rental_uris":{"android":"levelo://app?vid=8c326b26-9203-4a12-8c49-2dc336785955","ios":"levelo://app?vid=8c326b26-9203-4a12-8c49-2dc336785955"},"vehicle_type_id":"4","last_reported":1731085641,"current_range_meters":14000,"station_id":"ce4bgih2rcd13ifvqba0","pricing_plan_id":"cebpf4jnsgd1na2vs0mg"},{"bike_id":"bb734a49-fff9-4217-9a09-aa4166e9165f","system_id":"levelo_inurba_marseille","lat":43.28074,"lon":5.39667,"is_reserved":false,"is_disabled":false,"rental_uris":{"android":"levelo://app?vid=bb734a49-fff9-4217-9a09-aa4166e9165f","ios":"levelo://app?vid=bb734a49-fff9-4217-9a09-aa4166e9165f"},"vehicle_type_id":"4","last_reported":1731085641,"current_range_meters":12800,"station_id":"ce4bho12rcd13ifvqh2g","pricing_plan_id":"cebpf4jnsgd1na2vs0mg"},{"bike_id":"8062c82d-edae-4e65-824d-29ac88fcdf18","system_id":"levelo_inurba_marseille","lat":43.31529,"lon":5.38036,"is_reserved":false,"is_disabled":false,"rental_uris":{"android":"levelo://app?vid=8062c82d-edae-4e65-824d-29ac88fcdf18","ios":"levelo://app?vid=8062c82d-edae-4e65-824d-29ac88fcdf18"},"vehicle_type_id":"4","last_reported":1731085641,"current_range_meters":16800,"station_id":"ce4bhsp2rcd13ifvqi50","pricing_plan_id":"cebpf4jnsgd1na2vs0mg"},{"bike_id":"d65921c0-c7f7-4076-b111-f08e6ebc3100","system_id":"levelo_inurba_marseille","lat":43.30326,"lon":5.40439,"is_reserved":false,"is_disabled":false,"rental_uris":{"android":"levelo://app?vid=d65921c0-c7f7-4076-b111-f08e6ebc3100","ios":"levelo://app?vid=d65921c0-c7f7-4076-b111-f08e6ebc3100"},"vehicle_type_id":"4","last_reported":1731085641,"current_range_meters":2800,"station_id":"ce4bh012rcd13ifvqd10","pricing_plan_id":"cebpf4jnsgd1na2vs0mg"},{"bike_id":"f97ddace-1e35-4c27-8ab1-e63f983a4b0f","system_id":"levelo_inurba_marseille","lat":43.29528,"lon":5.39047,"is_reserved":false,"is_disabled":false,"rental_uris":{"android":"levelo://app?vid=f97ddace-1e35-4c27-8ab1-e63f983a4b0f","ios":"levelo://app?vid=f97ddace-1e35-4c27-8ab1-e63f983a4b0f"},"vehicle_type_id":"4","last_reported":1731085641,"current_range_meters":38800,"station_id":"ce4bh3p2rcd13ifvqdp0","pricing_plan_id":"cebpf4jnsgd1na2vs0mg"},{"bike_id":"ee27111d-22ad-4d1e-99c3-187ff3774904","system_id":"levelo_inurba_marseille","lat":43.23196,"lon":5.35555,"is_reserved":false,"is_disabled":false,"rental_uris":{"android":"levelo://app?vid=ee27111d-22ad-4d1e-99c3-187ff3774904","ios":"levelo://app?vid=ee27111d-22ad-4d1e-99c3-187ff3774904"},"vehicle_type_id":"4","last_reported":1731085641,"current_range_meters":12000,"station_id":"ce4bhu92rcd13ifvqi70","pricing_plan_id":"cebpf4jnsgd1na2vs0mg"},{"bike_id":"ac1ceaa2-30d9-46ba-979d-5486e08ff315","system_id":"levelo_inurba_marseille","lat":43.3171,"lon":5.43703,"is_reserved":false,"is_disabled":false,"rental_uris":{"android":"levelo://app?vid=ac1ceaa2-30d9-46ba-979d-5486e08ff315","ios":"levelo://app?vid=ac1ceaa2-30d9-46ba-979d-5486e08ff315"},"vehicle_type_id":"4","last_reported":1731085641,"current_range_meters":10000,"station_id":"ce4bhp92rcd13ifvqhcg","pricing_plan_id":"cebpf4jnsgd1na2vs0mg"},{"bike_id":"84734344-4100-498f-90db-13a43f921e51","system_id":"levelo_inurba_marseille","lat":43.2963,"lon":5.37154,"is_reserved":false,"is_disabled":false,"rental_uris":{"android":"levelo://app?vid=84734344-4100-498f-90db-13a43f921e51","ios":"levelo://app?vid=84734344-4100-498f-90db-13a43f921e51"},"vehicle_type_id":"4","last_reported":1731085641,"current_range_meters":28400,"station_id":"ce4bgnh2rcd13ifvqc0g","pricing_plan_id":"cebpf4jnsgd1na2vs0mg"},{"bike_id":"82bcb5cc-eff7-40fa-ae6c-a3c17f56dccf","system_id":"levelo_inurba_marseille","lat":43.31998,"lon":5.38148,"is_reserved":false,"is_disabled":false,"rental_uris":{"android":"levelo://app?vid=82bcb5cc-eff7-40fa-ae6c-a3c17f56dccf","ios":"levelo://app?vid=82bcb5cc-eff7-40fa-ae6c-a3c17f56dccf"},"vehicle_type_id":"4","last_reported":1731085641,"current_range_meters":14400,"station_id":"ce4bhr12rcd13ifvqhpg","pricing_plan_id":"cebpf4jnsgd1na2vs0mg"},{"bike_id":"2e7a99c4-bb49-4d11-b5ea-bbbe88aeab49","system_id":"levelo_inurba_marseille","lat":43.32488,"lon":5.3657,"is_reserved":false,"is_disabled":false,"rental_uris":{"android":"levelo://app?vid=2e7a99c4-bb49-4d11-b5ea-bbbe88aeab49","ios":"levelo://app?vid=2e7a99c4-bb49-4d11-b5ea-bbbe88aeab49"},"vehicle_type_id":"4","last_reported":1731085641,"current_range_meters":38800,"station_id":"ce4bhs12rcd13ifvqhvg","pricing_plan_id":"cebpf4jnsgd1na2vs0mg"},{"bike_id":"a77d95f8-1237-461c-b90c-b3583a177300","system_id":"levelo_inurba_marseille","lat":43.29187,"lon":5.39327,"is_reserved":false,"is_disabled":false,"rental_uris":{"android":"levelo://app?vid=a77d95f8-1237-461c-b90c-b3583a177300","ios":"levelo://app?vid=a77d95f8-1237-461c-b90c-b3583a177300"},"vehicle_type_id":"4","last_reported":1731085641,"current_range_meters":37600,"station_id":"ce4bh192rcd13ifvqdd0","pricing_plan_id":"cebpf4jnsgd1na2vs0mg"},{"bike_id":"be074bbf-7203-48e7-a1b1-50a075eef0c3","system_id":"levelo_inurba_marseille","lat":43.28432,"lon":5.3919,"is_reserved":false,"is_disabled":false,"rental_uris":{"android":"levelo://app?vid=be074bbf-7203-48e7-a1b1-50a075eef0c3","ios":"levelo://app?vid=be074bbf-7203-48e7-a1b1-50a075eef0c3"},"vehicle_type_id":"4","last_reported":1731085641,"current_range_meters":29600,"station_id":"ce4bhoh2rcd13ifvqh5g","pricing_plan_id":"cebpf4jnsgd1na2vs0mg"},{"bike_id":"bc2d6971-e395-4768-9fc5-d20d0fa99369","system_id":"levelo_inurba_marseille","lat":43.28003,"lon":5.40011,"is_reserved":false,"is_disabled":false,"rental_uris":{"android":"levelo://app?vid=bc2d6971-e395-4768-9fc5-d20d0fa99369","ios":"levelo://app?vid=bc2d6971-e395-4768-9fc5-d20d0fa99369"},"vehicle_type_id":"4","last_reported":1731085641,"current_range_meters":19600,"station_id":"ce4bho92rcd13ifvqh4g","pricing_plan_id":"cebpf4jnsgd1na2vs0mg"},{"bike_id":"f5323ff4-02d0-4983-8dcd-09bc42c94a4a","system_id":"levelo_inurba_marseille","lat":43.29042,"lon":5.3996,"is_reserved":false,"is_disabled":false,"rental_uris":{"android":"levelo://app?vid=f5323ff4-02d0-4983-8dcd-09bc42c94a4a","ios":"levelo://app?vid=f5323ff4-02d0-4983-8dcd-09bc42c94a4a"},"vehicle_type_id":"4","last_reported":1731085641,"current_range_meters":30400,"station_id":"ce4bh392rcd13ifvqdm0","pricing_plan_id":"cebpf4jnsgd1na2vs0mg"},{"bike_id":"03ae22b4-e0e2-436f-9b79-9f668295ef1b","system_id":"levelo_inurba_marseille","lat":43.24666,"lon":5.38167,"is_reserved":false,"is_disabled":false,"rental_uris":{"android":"levelo://app?vid=03ae22b4-e0e2-436f-9b79-9f668295ef1b","ios":"levelo://app?vid=03ae22b4-e0e2-436f-9b79-9f668295ef1b"},"vehicle_type_id":"4","last_reported":1731085641,"current_range_meters":23200,"station_id":"ce4bhih2rcd13ifvqfr0","pricing_plan_id":"cebpf4jnsgd1na2vs0mg"},{"bike_id":"a8698352-a0ce-4891-a1ca-5f6cc7983511","system_id":"levelo_inurba_marseille","lat":43.26057,"lon":5.39398,"is_reserved":false,"is_disabled":false,"rental_uris":{"android":"levelo://app?vid=a8698352-a0ce-4891-a1ca-5f6cc7983511","ios":"levelo://app?vid=a8698352-a0ce-4891-a1ca-5f6cc7983511"},"vehicle_type_id":"4","last_reported":1731085641,"current_range_meters":8400,"station_id":"ce4bhh92rcd13ifvqfj0","pricing_plan_id":"cebpf4jnsgd1na2vs0mg"},{"bike_id":"fd965f2e-4c4c-48bf-a0aa-78031bbc58a7","system_id":"levelo_inurba_marseille","lat":43.30318,"lon":5.40429,"is_reserved":false,"is_disabled":false,"rental_uris":{"android":"levelo://app?vid=fd965f2e-4c4c-48bf-a0aa-78031bbc58a7","ios":"levelo://app?vid=fd965f2e-4c4c-48bf-a0aa-78031bbc58a7"},"vehicle_type_id":"4","last_reported":1731085641,"current_range_meters":2000,"station_id":"ce4bh012rcd13ifvqd10","pricing_plan_id":"cebpf4jnsgd1na2vs0mg"},{"bike_id":"0e35620f-a28b-4eab-8e21-bd656fdc8aed","system_id":"levelo_inurba_marseille","lat":43.28723,"lon":5.37951,"is_reserved":false,"is_disabled":false,"rental_uris":{"android":"levelo://app?vid=0e35620f-a28b-4eab-8e21-bd656fdc8aed","ios":"levelo://app?vid=0e35620f-a28b-4eab-8e21-bd656fdc8aed"},"vehicle_type_id":"4","last_reported":1731085641,"current_range_meters":34800,"station_id":"ce4bh9p2rcd13ifvqec0","pricing_plan_id":"cebpf4jnsgd1na2vs0mg"},{"bike_id":"aa27dd47-3676-4d3e-b659-ec9626b04162","system_id":"levelo_inurba_marseille","lat":43.28567,"lon":5.39493,"is_reserved":false,"is_disabled":false,"rental_uris":{"android":"levelo://app?vid=aa27dd47-3676-4d3e-b659-ec9626b04162","ios":"levelo://app?vid=aa27dd47-3676-4d3e-b659-ec9626b04162"},"vehicle_type_id":"4","last_reported":1731085641,"current_range_meters":20400,"station_id":"ce4bh292rcd13ifvqdg0","pricing_plan_id":"cebpf4jnsgd1na2vs0mg"},{"bike_id":"f2b88fdd-2e0b-4b5e-888c-35155555732c","system_id":"levelo_inurba_marseille","lat":43.31998,"lon":5.38148,"is_reserved":false,"is_disabled":false,"rental_uris":{"android":"levelo://app?vid=f2b88fdd-2e0b-4b5e-888c-35155555732c","ios":"levelo://app?vid=f2b88fdd-2e0b-4b5e-888c-35155555732c"},"vehicle_type_id":"4","last_reported":1731085641,"current_range_meters":38800,"station_id":"ce4bhr12rcd13ifvqhpg","pricing_plan_id":"cebpf4jnsgd1na2vs0mg"},{"bike_id":"6620e73e-63eb-4fc6-8f54-cfecf7ecd726","system_id":"levelo_inurba_marseille","lat":43.27998,"lon":5.40018,"is_reserved":false,"is_disabled":false,"rental_uris":{"android":"levelo://app?vid=6620e73e-63eb-4fc6-8f54-cfecf7ecd726","ios":"levelo://app?vid=6620e73e-63eb-4fc6-8f54-cfecf7ecd726"},"vehicle_type_id":"4","last_reported":1731085641,"current_range_meters":8400,"station_id":"ce4bho92rcd13ifvqh4g","pricing_plan_id":"cebpf4jnsgd1na2vs0mg"},{"bike_id":"8ecf5546-e9a9-4881-87a5-76fbb451c599","system_id":"levelo_inurba_marseille","lat":43.29417,"lon":5.3863,"is_reserved":false,"is_disabled":false,"rental_uris":{"android":"levelo://app?vid=8ecf5546-e9a9-4881-87a5-76fbb451c599","ios":"levelo://app?vid=8ecf5546-e9a9-4881-87a5-76fbb451c599"},"vehicle_type_id":"4","last_reported":1731085641,"current_range_meters":27200,"station_id":"ce4bh2h2rcd13ifvqdh0","pricing_plan_id":"cebpf4jnsgd1na2vs0mg"},{"bike_id":"b9478b1d-79e3-44c9-ae60-496dd5151f62","system_id":"levelo_inurba_marseille","lat":43.29171,"lon":5.37149,"is_reserved":false,"is_disabled":false,"rental_uris":{"android":"levelo://app?vid=b9478b1d-79e3-44c9-ae60-496dd5151f62","ios":"levelo://app?vid=b9478b1d-79e3-44c9-ae60-496dd5151f62"},"vehicle_type_id":"4","last_reported":1731085641,"current_range_meters":38800,"station_id":"ce4bha92rcd13ifvqeh0","pricing_plan_id":"cebpf4jnsgd1na2vs0mg"},{"bike_id":"95968349-5027-4e10-ac9b-ca438a9f9b6a","system_id":"levelo_inurba_marseille","lat":43.28719,"lon":5.36094,"is_reserved":false,"is_disabled":false,"rental_uris":{"android":"levelo://app?vid=95968349-5027-4e10-ac9b-ca438a9f9b6a","ios":"levelo://app?vid=95968349-5027-4e10-ac9b-ca438a9f9b6a"},"vehicle_type_id":"4","last_reported":1731085641,"current_range_meters":23200,"station_id":"cki0cbj6b192h4jlfktg","pricing_plan_id":"cebpf4jnsgd1na2vs0mg"},{"bike_id":"98f9be71-7dcc-4da8-9f77-582b7ba7bbb2","system_id":"levelo_inurba_marseille","lat":43.29225,"lon":5.36053,"is_reserved":false,"is_disabled":false,"rental_uris":{"android":"levelo://app?vid=98f9be71-7dcc-4da8-9f77-582b7ba7bbb2","ios":"levelo://app?vid=98f9be71-7dcc-4da8-9f77-582b7ba7bbb2"},"vehicle_type_id":"4","last_reported":1731085641,"current_range_meters":19600,"station_id":"ce4bhbh2rcd13ifvqeqg","pricing_plan_id":"cebpf4jnsgd1na2vs0mg"},{"bike_id":"319fd376-89aa-470d-b030-d573ff0139e4","system_id":"levelo_inurba_marseille","lat":43.30783,"lon":5.37654,"is_reserved":false,"is_disabled":false,"rental_uris":{"android":"levelo://app?vid=319fd376-89aa-470d-b030-d573ff0139e4","ios":"levelo://app?vid=319fd376-89aa-470d-b030-d573ff0139e4"},"vehicle_type_id":"4","last_reported":1731085641,"current_range_meters":36800,"station_id":"ce4bgv92rcd13ifvqcq0","pricing_plan_id":"cebpf4jnsgd1na2vs0mg"},{"bike_id":"d070148f-8ecc-4c75-8cb1-c8bc85f50390","system_id":"levelo_inurba_marseille","lat":43.33021,"lon":5.39044,"is_reserved":false,"is_disabled":false,"rental_uris":{"android":"levelo://app?vid=d070148f-8ecc-4c75-8cb1-c8bc85f50390","ios":"levelo://app?vid=d070148f-8ecc-4c75-8cb1-c8bc85f50390"},"vehicle_type_id":"4","last_reported":1731085641,"current_range_meters":14800,"station_id":"ce4bhr92rcd13ifvqhrg","pricing_plan_id":"cebpf4jnsgd1na2vs0mg"},{"bike_id":"49802e5d-6e7d-4d65-ade0-af9d690a65b9","system_id":"levelo_inurba_marseille","lat":43.27819,"lon":5.40718,"is_reserved":false,"is_disabled":false,"rental_uris":{"android":"levelo://app?vid=49802e5d-6e7d-4d65-ade0-af9d690a65b9","ios":"levelo://app?vid=49802e5d-6e7d-4d65-ade0-af9d690a65b9"},"vehicle_type_id":"4","last_reported":1731085641,"current_range_meters":22800,"station_id":"ce4bhnh2rcd13ifvqgtg","pricing_plan_id":"cebpf4jnsgd1na2vs0mg"},{"bike_id":"29824cde-4cdc-4355-9b22-a5922a403deb","system_id":"levelo_inurba_marseille","lat":43.337444,"lon":5.374475,"is_reserved":false,"is_disabled":false,"rental_uris":{"android":"levelo://app?vid=29824cde-4cdc-4355-9b22-a5922a403deb","ios":"levelo://app?vid=29824cde-4cdc-4355-9b22-a5922a403deb"},"vehicle_type_id":"4","last_reported":1731085641,"current_range_meters":37600,"station_id":"","pricing_plan_id":"cebpf4jnsgd1na2vs0mg"},{"bike_id":"cfc1bb63-1dc3-409b-a309-d5c790849c60","system_id":"levelo_inurba_marseille","lat":43.28415,"lon":5.34971,"is_reserved":false,"is_disabled":false,"rental_uris":{"android":"levelo://app?vid=cfc1bb63-1dc3-409b-a309-d5c790849c60","ios":"levelo://app?vid=cfc1bb63-1dc3-409b-a309-d5c790849c60"},"vehicle_type_id":"4","last_reported":1731085641,"current_range_meters":38800,"station_id":"ce4bhbh2rcd13ifvqepg","pricing_plan_id":"cebpf4jnsgd1na2vs0mg"},{"bike_id":"136548bd-9b2c-4d98-84ce-36d39467f2b3","system_id":"levelo_inurba_marseille","lat":43.26942,"lon":5.40246,"is_reserved":false,"is_disabled":false,"rental_uris":{"android":"levelo://app?vid=136548bd-9b2c-4d98-84ce-36d39467f2b3","ios":"levelo://app?vid=136548bd-9b2c-4d98-84ce-36d39467f2b3"},"vehicle_type_id":"4","last_reported":1731085641,"current_range_meters":22800,"station_id":"cjm6bp8fraef2m0cb0m0","pricing_plan_id":"cebpf4jnsgd1na2vs0mg"},{"bike_id":"65664a23-2c50-45cd-b94c-4c01a1e1747d","system_id":"levelo_inurba_marseille","lat":43.29626,"lon":5.37743,"is_reserved":false,"is_disabled":false,"rental_uris":{"android":"levelo://app?vid=65664a23-2c50-45cd-b94c-4c01a1e1747d","ios":"levelo://app?vid=65664a23-2c50-45cd-b94c-4c01a1e1747d"},"vehicle_type_id":"4","last_reported":1731085641,"current_range_meters":31200,"station_id":"ce4bgi92rcd13ifvqb90","pricing_plan_id":"cebpf4jnsgd1na2vs0mg"},{"bike_id":"eccb9bf1-4a0c-4df5-8229-bf46f21c4329","system_id":"levelo_inurba_marseille","lat":43.31717,"lon":5.42407,"is_reserved":false,"is_disabled":false,"rental_uris":{"android":"levelo://app?vid=eccb9bf1-4a0c-4df5-8229-bf46f21c4329","ios":"levelo://app?vid=eccb9bf1-4a0c-4df5-8229-bf46f21c4329"},"vehicle_type_id":"4","last_reported":1731085641,"current_range_meters":37600,"station_id":"ce4bhp92rcd13ifvqhbg","pricing_plan_id":"cebpf4jnsgd1na2vs0mg"},{"bike_id":"ef288286-229d-4b9a-a189-8d61840dcffb","system_id":"levelo_inurba_marseille","lat":43.23189,"lon":5.35548,"is_reserved":false,"is_disabled":false,"rental_uris":{"android":"levelo://app?vid=ef288286-229d-4b9a-a189-8d61840dcffb","ios":"levelo://app?vid=ef288286-229d-4b9a-a189-8d61840dcffb"},"vehicle_type_id":"4","last_reported":1731085641,"current_range_meters":38000,"station_id":"ce4bhu92rcd13ifvqi70","pricing_plan_id":"cebpf4jnsgd1na2vs0mg"},{"bike_id":"ac7d6d90-64b5-4c9b-a257-01b20da2df50","system_id":"levelo_inurba_marseille","lat":43.239621,"lon":5.377548,"is_reserved":false,"is_disabled":false,"rental_uris":{"android":"levelo://app?vid=ac7d6d90-64b5-4c9b-a257-01b20da2df50","ios":"levelo://app?vid=ac7d6d90-64b5-4c9b-a257-01b20da2df50"},"vehicle_type_id":"4","last_reported":1731085641,"current_range_meters":38800,"station_id":"","pricing_plan_id":"cebpf4jnsgd1na2vs0mg"},{"bike_id":"68a16cb1-5aff-45bf-9786-11e01f81ed1f","system_id":"levelo_inurba_marseille","lat":43.26211,"lon":5.37444,"is_reserved":false,"is_disabled":false,"rental_uris":{"android":"levelo://app?vid=68a16cb1-5aff-45bf-9786-11e01f81ed1f","ios":"levelo://app?vid=68a16cb1-5aff-45bf-9786-11e01f81ed1f"},"vehicle_type_id":"4","last_reported":1731085641,"current_range_meters":37600,"station_id":"ce4bhgp2rcd13ifvqfc0","pricing_plan_id":"cebpf4jnsgd1na2vs0mg"},{"bike_id":"886c5890-2348-46d7-aae9-e41e14c2a41f","system_id":"levelo_inurba_marseille","lat":43.28002,"lon":5.40025,"is_reserved":false,"is_disabled":false,"rental_uris":{"android":"levelo://app?vid=886c5890-2348-46d7-aae9-e41e14c2a41f","ios":"levelo://app?vid=886c5890-2348-46d7-aae9-e41e14c2a41f"},"vehicle_type_id":"4","last_reported":1731085641,"current_range_meters":4800,"station_id":"ce4bho92rcd13ifvqh4g","pricing_plan_id":"cebpf4jnsgd1na2vs0mg"},{"bike_id":"7a0d5c10-0173-4a9a-aa0b-524b71bb97ce","system_id":"levelo_inurba_marseille","lat":43.29101,"lon":5.35916,"is_reserved":false,"is_disabled":false,"rental_uris":{"android":"levelo://app?vid=7a0d5c10-0173-4a9a-aa0b-524b71bb97ce","ios":"levelo://app?vid=7a0d5c10-0173-4a9a-aa0b-524b71bb97ce"},"vehicle_type_id":"4","last_reported":1731085641,"current_range_meters":13600,"station_id":"ce4bha92rcd13ifvqeg0","pricing_plan_id":"cebpf4jnsgd1na2vs0mg"},{"bike_id":"a6151016-4537-4f5c-962a-688033c7b30d","system_id":"levelo_inurba_marseille","lat":43.31371,"lon":5.38493,"is_reserved":false,"is_disabled":false,"rental_uris":{"android":"levelo://app?vid=a6151016-4537-4f5c-962a-688033c7b30d","ios":"levelo://app?vid=a6151016-4537-4f5c-962a-688033c7b30d"},"vehicle_type_id":"4","last_reported":1731085641,"current_range_meters":22800,"station_id":"ce4bgt92rcd13ifvqcf0","pricing_plan_id":"cebpf4jnsgd1na2vs0mg"},{"bike_id":"60443720-1f3f-466e-943b-af161b1e8b9c","system_id":"levelo_inurba_marseille","lat":43.25864,"lon":5.39898,"is_reserved":false,"is_disabled":false,"rental_uris":{"android":"levelo://app?vid=60443720-1f3f-466e-943b-af161b1e8b9c","ios":"levelo://app?vid=60443720-1f3f-466e-943b-af161b1e8b9c"},"vehicle_type_id":"4","last_reported":1731085641,"current_range_meters":34800,"station_id":"ce4bhl92rcd13ifvqghg","pricing_plan_id":"cebpf4jnsgd1na2vs0mg"},{"bike_id":"32ab6043-a52d-423d-8119-fe1bdcc529d7","system_id":"levelo_inurba_marseille","lat":43.30196,"lon":5.36599,"is_reserved":false,"is_disabled":false,"rental_uris":{"android":"levelo://app?vid=32ab6043-a52d-423d-8119-fe1bdcc529d7","ios":"levelo://app?vid=32ab6043-a52d-423d-8119-fe1bdcc529d7"},"vehicle_type_id":"4","last_reported":1731085641,"current_range_meters":38800,"station_id":"ce4bgrh2rcd13ifvqc8g","pricing_plan_id":"cebpf4jnsgd1na2vs0mg"},{"bike_id":"a43a3323-aa01-4125-a43d-89e77fa19854","system_id":"levelo_inurba_marseille","lat":43.30926,"lon":5.4015,"is_reserved":false,"is_disabled":false,"rental_uris":{"android":"levelo://app?vid=a43a3323-aa01-4125-a43d-89e77fa19854","ios":"levelo://app?vid=a43a3323-aa01-4125-a43d-89e77fa19854"},"vehicle_type_id":"4","last_reported":1731085641,"current_range_meters":5600,"station_id":"ce4bgvp2rcd13ifvqct0","pricing_plan_id":"cebpf4jnsgd1na2vs0mg"},{"bike_id":"45421d28-9850-4beb-9674-e7f78c23d387","system_id":"levelo_inurba_marseille","lat":43.30788,"lon":5.37648,"is_reserved":false,"is_disabled":false,"rental_uris":{"android":"levelo://app?vid=45421d28-9850-4beb-9674-e7f78c23d387","ios":"levelo://app?vid=45421d28-9850-4beb-9674-e7f78c23d387"},"vehicle_type_id":"4","last_reported":1731085641,"current_range_meters":32000,"station_id":"ce4bgv92rcd13ifvqcq0","pricing_plan_id":"cebpf4jnsgd1na2vs0mg"},{"bike_id":"717ab83a-6f01-4af7-a0f3-3c0c83225ece","system_id":"levelo_inurba_marseille","lat":43.31171,"lon":5.38712,"is_reserved":false,"is_disabled":false,"rental_uris":{"android":"levelo://app?vid=717ab83a-6f01-4af7-a0f3-3c0c83225ece","ios":"levelo://app?vid=717ab83a-6f01-4af7-a0f3-3c0c83225ece"},"vehicle_type_id":"4","last_reported":1731085641,"current_range_meters":28400,"station_id":"ce4bgv12rcd13ifvqcp0","pricing_plan_id":"cebpf4jnsgd1na2vs0mg"},{"bike_id":"12ab8a2b-bf2e-44a7-8096-67ee8e37b5b1","system_id":"levelo_inurba_marseille","lat":43.26947,"lon":5.40255,"is_reserved":false,"is_disabled":false,"rental_uris":{"android":"levelo://app?vid=12ab8a2b-bf2e-44a7-8096-67ee8e37b5b1","ios":"levelo://app?vid=12ab8a2b-bf2e-44a7-8096-67ee8e37b5b1"},"vehicle_type_id":"4","last_reported":1731085641,"current_range_meters":39200,"station_id":"cjm6bp8fraef2m0cb0m0","pricing_plan_id":"cebpf4jnsgd1na2vs0mg"},{"bike_id":"c0b0244e-d43e-46aa-a1c9-86c34fd228aa","system_id":"levelo_inurba_marseille","lat":43.31492,"lon":5.37314,"is_reserved":false,"is_disabled":false,"rental_uris":{"android":"levelo://app?vid=c0b0244e-d43e-46aa-a1c9-86c34fd228aa","ios":"levelo://app?vid=c0b0244e-d43e-46aa-a1c9-86c34fd228aa"},"vehicle_type_id":"4","last_reported":1731085641,"current_range_meters":32000,"station_id":"ce4bgt12rcd13ifvqcd0","pricing_plan_id":"cebpf4jnsgd1na2vs0mg"},{"bike_id":"841c9df1-f0db-4c1b-b9a9-575f56c5769d","system_id":"levelo_inurba_marseille","lat":43.291966,"lon":5.393273,"is_reserved":false,"is_disabled":false,"rental_uris":{"android":"levelo://app?vid=841c9df1-f0db-4c1b-b9a9-575f56c5769d","ios":"levelo://app?vid=841c9df1-f0db-4c1b-b9a9-575f56c5769d"},"vehicle_type_id":"4","last_reported":1731085641,"current_range_meters":37600,"station_id":"ce4bh192rcd13ifvqdd0","pricing_plan_id":"cebpf4jnsgd1na2vs0mg"},{"bike_id":"8faa22dc-5f3c-4af6-b84b-f554e09d6313","system_id":"levelo_inurba_marseille","lat":43.337444,"lon":5.374475,"is_reserved":false,"is_disabled":false,"rental_uris":{"android":"levelo://app?vid=8faa22dc-5f3c-4af6-b84b-f554e09d6313","ios":"levelo://app?vid=8faa22dc-5f3c-4af6-b84b-f554e09d6313"},"vehicle_type_id":"4","last_reported":1731085641,"current_range_meters":36800,"station_id":"","pricing_plan_id":"cebpf4jnsgd1na2vs0mg"},{"bike_id":"22a21434-6031-47be-8568-25c2979ed55a","system_id":"levelo_inurba_marseille","lat":43.28459,"lon":5.35889,"is_reserved":false,"is_disabled":false,"rental_uris":{"android":"levelo://app?vid=22a21434-6031-47be-8568-25c2979ed55a","ios":"levelo://app?vid=22a21434-6031-47be-8568-25c2979ed55a"},"vehicle_type_id":"4","last_reported":1731085641,"current_range_meters":36000,"station_id":"ce4bhah2rcd13ifvqei0","pricing_plan_id":"cebpf4jnsgd1na2vs0mg"},{"bike_id":"61892a9e-576b-4a39-a5c5-aa7b307c3d49","system_id":"levelo_inurba_marseille","lat":43.28003,"lon":5.40005,"is_reserved":false,"is_disabled":false,"rental_uris":{"android":"levelo://app?vid=61892a9e-576b-4a39-a5c5-aa7b307c3d49","ios":"levelo://app?vid=61892a9e-576b-4a39-a5c5-aa7b307c3d49"},"vehicle_type_id":"4","last_reported":1731085641,"current_range_meters":20000,"station_id":"ce4bho92rcd13ifvqh4g","pricing_plan_id":"cebpf4jnsgd1na2vs0mg"},{"bike_id":"aa80a9ab-98bc-4179-a6a8-887a22ed4824","system_id":"levelo_inurba_marseille","lat":43.29528,"lon":5.38542,"is_reserved":false,"is_disabled":false,"rental_uris":{"android":"levelo://app?vid=aa80a9ab-98bc-4179-a6a8-887a22ed4824","ios":"levelo://app?vid=aa80a9ab-98bc-4179-a6a8-887a22ed4824"},"vehicle_type_id":"4","last_reported":1731085641,"current_range_meters":33200,"station_id":"ce4bgih2rcd13ifvqba0","pricing_plan_id":"cebpf4jnsgd1na2vs0mg"},{"bike_id":"7c919a5a-41a9-48ba-af91-29d9150449ce","system_id":"levelo_inurba_marseille","lat":43.29901,"lon":5.37477,"is_reserved":false,"is_disabled":false,"rental_uris":{"android":"levelo://app?vid=7c919a5a-41a9-48ba-af91-29d9150449ce","ios":"levelo://app?vid=7c919a5a-41a9-48ba-af91-29d9150449ce"},"vehicle_type_id":"4","last_reported":1731085641,"current_range_meters":36400,"station_id":"ce4bgjh2rcd13ifvqbg0","pricing_plan_id":"cebpf4jnsgd1na2vs0mg"},{"bike_id":"39882521-8823-481a-be75-f53a85d747f0","system_id":"levelo_inurba_marseille","lat":43.31712,"lon":5.37759,"is_reserved":false,"is_disabled":false,"rental_uris":{"android":"levelo://app?vid=39882521-8823-481a-be75-f53a85d747f0","ios":"levelo://app?vid=39882521-8823-481a-be75-f53a85d747f0"},"vehicle_type_id":"4","last_reported":1731085641,"current_range_meters":34800,"station_id":"ce4bgth2rcd13ifvqch0","pricing_plan_id":"cebpf4jnsgd1na2vs0mg"},{"bike_id":"eefd0687-4492-41ad-9368-b877bab02ae1","system_id":"levelo_inurba_marseille","lat":43.31229,"lon":5.36863,"is_reserved":false,"is_disabled":false,"rental_uris":{"android":"levelo://app?vid=eefd0687-4492-41ad-9368-b877bab02ae1","ios":"levelo://app?vid=eefd0687-4492-41ad-9368-b877bab02ae1"},"vehicle_type_id":"4","last_reported":1731085641,"current_range_meters":38800,"station_id":"ce4bgl92rcd13ifvqbq0","pricing_plan_id":"cebpf4jnsgd1na2vs0mg"},{"bike_id":"760d9593-6f1d-4645-a38d-49d1e098a542","system_id":"levelo_inurba_marseille","lat":43.28152,"lon":5.42642,"is_reserved":false,"is_disabled":false,"rental_uris":{"android":"levelo://app?vid=760d9593-6f1d-4645-a38d-49d1e098a542","ios":"levelo://app?vid=760d9593-6f1d-4645-a38d-49d1e098a542"},"vehicle_type_id":"4","last_reported":1731085641,"current_range_meters":22400,"station_id":"ce4bhnh2rcd13ifvqgug","pricing_plan_id":"cebpf4jnsgd1na2vs0mg"},{"bike_id":"08143917-ac52-471a-8fff-1306a623d7c4","system_id":"levelo_inurba_marseille","lat":43.28833,"lon":5.35891,"is_reserved":false,"is_disabled":false,"rental_uris":{"android":"levelo://app?vid=08143917-ac52-471a-8fff-1306a623d7c4","ios":"levelo://app?vid=08143917-ac52-471a-8fff-1306a623d7c4"},"vehicle_type_id":"4","last_reported":1731085641,"current_range_meters":8800,"station_id":"ce4bhb12rcd13ifvqem0","pricing_plan_id":"cebpf4jnsgd1na2vs0mg"},{"bike_id":"1f3ba906-6e07-4370-b207-43e1aae1c14a","system_id":"levelo_inurba_marseille","lat":43.31367,"lon":5.36696,"is_reserved":false,"is_disabled":false,"rental_uris":{"android":"levelo://app?vid=1f3ba906-6e07-4370-b207-43e1aae1c14a","ios":"levelo://app?vid=1f3ba906-6e07-4370-b207-43e1aae1c14a"},"vehicle_type_id":"4","last_reported":1731085641,"current_range_meters":11200,"station_id":"ce4bgr92rcd13ifvqc6g","pricing_plan_id":"cebpf4jnsgd1na2vs0mg"},{"bike_id":"8cee3451-5d60-40a3-a7a0-7f9f386ca36a","system_id":"levelo_inurba_marseille","lat":43.29721,"lon":5.37693,"is_reserved":false,"is_disabled":false,"rental_uris":{"android":"levelo://app?vid=8cee3451-5d60-40a3-a7a0-7f9f386ca36a","ios":"levelo://app?vid=8cee3451-5d60-40a3-a7a0-7f9f386ca36a"},"vehicle_type_id":"4","last_reported":1731085641,"current_range_meters":16800,"station_id":"ce4bgkh2rcd13ifvqbl0","pricing_plan_id":"cebpf4jnsgd1na2vs0mg"},{"bike_id":"8b792342-90e2-45c5-8153-6444b1c3d7cd","system_id":"levelo_inurba_marseille","lat":43.29533,"lon":5.3855,"is_reserved":false,"is_disabled":false,"rental_uris":{"android":"levelo://app?vid=8b792342-90e2-45c5-8153-6444b1c3d7cd","ios":"levelo://app?vid=8b792342-90e2-45c5-8153-6444b1c3d7cd"},"vehicle_type_id":"4","last_reported":1731085641,"current_range_meters":8400,"station_id":"ce4bgih2rcd13ifvqba0","pricing_plan_id":"cebpf4jnsgd1na2vs0mg"},{"bike_id":"18c037c7-a546-4a31-b37c-87cac18972e2","system_id":"levelo_inurba_marseille","lat":43.28036,"lon":5.3695,"is_reserved":false,"is_disabled":false,"rental_uris":{"android":"levelo://app?vid=18c037c7-a546-4a31-b37c-87cac18972e2","ios":"levelo://app?vid=18c037c7-a546-4a31-b37c-87cac18972e2"},"vehicle_type_id":"4","last_reported":1731085641,"current_range_meters":13600,"station_id":"ce4bha12rcd13ifvqef0","pricing_plan_id":"cebpf4jnsgd1na2vs0mg"},{"bike_id":"d6fdae69-642e-4d84-a8fd-edeb75ed0ef4","system_id":"levelo_inurba_marseille","lat":43.22932,"lon":5.35376,"is_reserved":false,"is_disabled":false,"rental_uris":{"android":"levelo://app?vid=d6fdae69-642e-4d84-a8fd-edeb75ed0ef4","ios":"levelo://app?vid=d6fdae69-642e-4d84-a8fd-edeb75ed0ef4"},"vehicle_type_id":"4","last_reported":1731085641,"current_range_meters":38800,"station_id":"cpo3532slgdg3j2ikp40","pricing_plan_id":"cebpf4jnsgd1na2vs0mg"},{"bike_id":"d1f91482-6dd3-42d8-bdfe-55d1874ef8bf","system_id":"levelo_inurba_marseille","lat":43.29981,"lon":5.37177,"is_reserved":false,"is_disabled":false,"rental_uris":{"android":"levelo://app?vid=d1f91482-6dd3-42d8-bdfe-55d1874ef8bf","ios":"levelo://app?vid=d1f91482-6dd3-42d8-bdfe-55d1874ef8bf"},"vehicle_type_id":"4","last_reported":1731085641,"current_range_meters":36400,"station_id":"ce4bgr92rcd13ifvqc7g","pricing_plan_id":"cebpf4jnsgd1na2vs0mg"},{"bike_id":"491090ef-3913-450a-96e8-c9f1132e52f6","system_id":"levelo_inurba_marseille","lat":43.26499,"lon":5.39548,"is_reserved":false,"is_disabled":false,"rental_uris":{"android":"levelo://app?vid=491090ef-3913-450a-96e8-c9f1132e52f6","ios":"levelo://app?vid=491090ef-3913-450a-96e8-c9f1132e52f6"},"vehicle_type_id":"4","last_reported":1731085641,"current_range_meters":13600,"station_id":"ce4bhi12rcd13ifvqfq0","pricing_plan_id":"cebpf4jnsgd1na2vs0mg"},{"bike_id":"fa4a3535-22f6-4650-b753-98b2395c9c3a","system_id":"levelo_inurba_marseille","lat":43.29617,"lon":5.37728,"is_reserved":false,"is_disabled":false,"rental_uris":{"android":"levelo://app?vid=fa4a3535-22f6-4650-b753-98b2395c9c3a","ios":"levelo://app?vid=fa4a3535-22f6-4650-b753-98b2395c9c3a"},"vehicle_type_id":"4","last_reported":1731085641,"current_range_meters":23200,"station_id":"ce4bgi92rcd13ifvqb90","pricing_plan_id":"cebpf4jnsgd1na2vs0mg"},{"bike_id":"86d64521-d332-4842-b4fb-5fa4820d8c81","system_id":"levelo_inurba_marseille","lat":43.337444,"lon":5.374475,"is_reserved":false,"is_disabled":false,"rental_uris":{"android":"levelo://app?vid=86d64521-d332-4842-b4fb-5fa4820d8c81","ios":"levelo://app?vid=86d64521-d332-4842-b4fb-5fa4820d8c81"},"vehicle_type_id":"4","last_reported":1731085641,"current_range_meters":36800,"station_id":"","pricing_plan_id":"cebpf4jnsgd1na2vs0mg"},{"bike_id":"516fd39d-7578-49d1-bf84-850c48ca7346","system_id":"levelo_inurba_marseille","lat":43.28456,"lon":5.35885,"is_reserved":false,"is_disabled":false,"rental_uris":{"android":"levelo://app?vid=516fd39d-7578-49d1-bf84-850c48ca7346","ios":"levelo://app?vid=516fd39d-7578-49d1-bf84-850c48ca7346"},"vehicle_type_id":"4","last_reported":1731085641,"current_range_meters":15200,"station_id":"ce4bhah2rcd13ifvqei0","pricing_plan_id":"cebpf4jnsgd1na2vs0mg"},{"bike_id":"bc1124c3-6344-405c-89bb-711ee5ab8f44","system_id":"levelo_inurba_marseille","lat":43.31328,"lon":5.39697,"is_reserved":false,"is_disabled":false,"rental_uris":{"android":"levelo://app?vid=bc1124c3-6344-405c-89bb-711ee5ab8f44","ios":"levelo://app?vid=bc1124c3-6344-405c-89bb-711ee5ab8f44"},"vehicle_type_id":"4","last_reported":1731085641,"current_range_meters":37600,"station_id":"ce4bgvp2rcd13ifvqcu0","pricing_plan_id":"cebpf4jnsgd1na2vs0mg"},{"bike_id":"9339624b-a7de-4ced-aafd-d10e1475cd3f","system_id":"levelo_inurba_marseille","lat":43.28619,"lon":5.35109,"is_reserved":false,"is_disabled":false,"rental_uris":{"android":"levelo://app?vid=9339624b-a7de-4ced-aafd-d10e1475cd3f","ios":"levelo://app?vid=9339624b-a7de-4ced-aafd-d10e1475cd3f"},"vehicle_type_id":"4","last_reported":1731085641,"current_range_meters":28800,"station_id":"ce4bhch2rcd13ifvqeug","pricing_plan_id":"cebpf4jnsgd1na2vs0mg"},{"bike_id":"448d3bf9-78cb-439a-a23b-0e48f1b89013","system_id":"levelo_inurba_marseille","lat":43.32371,"lon":5.38881,"is_reserved":false,"is_disabled":false,"rental_uris":{"android":"levelo://app?vid=448d3bf9-78cb-439a-a23b-0e48f1b89013","ios":"levelo://app?vid=448d3bf9-78cb-439a-a23b-0e48f1b89013"},"vehicle_type_id":"4","last_reported":1731085641,"current_range_meters":16000,"station_id":"ce4bhqp2rcd13ifvqhog","pricing_plan_id":"cebpf4jnsgd1na2vs0mg"},{"bike_id":"803f8648-1a3f-489d-93c1-c149938aa54c","system_id":"levelo_inurba_marseille","lat":43.29843,"lon":5.36269,"is_reserved":false,"is_disabled":false,"rental_uris":{"android":"levelo://app?vid=803f8648-1a3f-489d-93c1-c149938aa54c","ios":"levelo://app?vid=803f8648-1a3f-489d-93c1-c149938aa54c"},"vehicle_type_id":"4","last_reported":1731085641,"current_range_meters":24800,"station_id":"ce4bgpp2rcd13ifvqc3g","pricing_plan_id":"cebpf4jnsgd1na2vs0mg"},{"bike_id":"8263c73f-2a4a-4d0f-b1f1-5620c66162f9","system_id":"levelo_inurba_marseille","lat":43.29791,"lon":5.38091,"is_reserved":false,"is_disabled":false,"rental_uris":{"android":"levelo://app?vid=8263c73f-2a4a-4d0f-b1f1-5620c66162f9","ios":"levelo://app?vid=8263c73f-2a4a-4d0f-b1f1-5620c66162f9"},"vehicle_type_id":"4","last_reported":1731085641,"current_range_meters":7200,"station_id":"ce4bgip2rcd13ifvqbb0","pricing_plan_id":"cebpf4jnsgd1na2vs0mg"},{"bike_id":"a3fc0f2a-bbca-470d-8a36-b652031780e4","system_id":"levelo_inurba_marseille","lat":43.29915,"lon":5.37468,"is_reserved":false,"is_disabled":false,"rental_uris":{"android":"levelo://app?vid=a3fc0f2a-bbca-470d-8a36-b652031780e4","ios":"levelo://app?vid=a3fc0f2a-bbca-470d-8a36-b652031780e4"},"vehicle_type_id":"4","last_reported":1731085641,"current_range_meters":4400,"station_id":"ce4bgjh2rcd13ifvqbg0","pricing_plan_id":"cebpf4jnsgd1na2vs0mg"},{"bike_id":"30c759a2-6df1-49dd-8b4a-2f09b3c85fab","system_id":"levelo_inurba_marseille","lat":43.28112,"lon":5.37818,"is_reserved":false,"is_disabled":false,"rental_uris":{"android":"levelo://app?vid=30c759a2-6df1-49dd-8b4a-2f09b3c85fab","ios":"levelo://app?vid=30c759a2-6df1-49dd-8b4a-2f09b3c85fab"},"vehicle_type_id":"4","last_reported":1731085641,"current_range_meters":27200,"station_id":"ce4bha12rcd13ifvqee0","pricing_plan_id":"cebpf4jnsgd1na2vs0mg"},{"bike_id":"08e3ca57-c4e6-48e3-8de1-f244c273c171","system_id":"levelo_inurba_marseille","lat":43.29967,"lon":5.37164,"is_reserved":false,"is_disabled":false,"rental_uris":{"android":"levelo://app?vid=08e3ca57-c4e6-48e3-8de1-f244c273c171","ios":"levelo://app?vid=08e3ca57-c4e6-48e3-8de1-f244c273c171"},"vehicle_type_id":"4","last_reported":1731085641,"current_range_meters":33200,"station_id":"ce4bgr92rcd13ifvqc7g","pricing_plan_id":"cebpf4jnsgd1na2vs0mg"},{"bike_id":"01c22af0-1013-46db-a4ea-85c4a660a715","system_id":"levelo_inurba_marseille","lat":43.28673,"lon":5.38665,"is_reserved":false,"is_disabled":false,"rental_uris":{"android":"levelo://app?vid=01c22af0-1013-46db-a4ea-85c4a660a715","ios":"levelo://app?vid=01c22af0-1013-46db-a4ea-85c4a660a715"},"vehicle_type_id":"4","last_reported":1731085641,"current_range_meters":10000,"station_id":"ce4bh492rcd13ifvqdug","pricing_plan_id":"cebpf4jnsgd1na2vs0mg"},{"bike_id":"48fd39dd-f494-45be-a9cd-d4152e1881fe","system_id":"levelo_inurba_marseille","lat":43.27188,"lon":5.40992,"is_reserved":false,"is_disabled":false,"rental_uris":{"android":"levelo://app?vid=48fd39dd-f494-45be-a9cd-d4152e1881fe","ios":"levelo://app?vid=48fd39dd-f494-45be-a9cd-d4152e1881fe"},"vehicle_type_id":"4","last_reported":1731085641,"current_range_meters":30000,"station_id":"ce4bhl12rcd13ifvqgf0","pricing_plan_id":"cebpf4jnsgd1na2vs0mg"},{"bike_id":"c40b3387-e665-43b5-bd70-3856a8309ea4","system_id":"levelo_inurba_marseille","lat":43.25116,"lon":5.40319,"is_reserved":false,"is_disabled":false,"rental_uris":{"android":"levelo://app?vid=c40b3387-e665-43b5-bd70-3856a8309ea4","ios":"levelo://app?vid=c40b3387-e665-43b5-bd70-3856a8309ea4"},"vehicle_type_id":"4","last_reported":1731085641,"current_range_meters":32000,"station_id":"ce4bhlh2rcd13ifvqgig","pricing_plan_id":"cebpf4jnsgd1na2vs0mg"},{"bike_id":"33a67bb6-975c-437c-8497-00d6f62299e7","system_id":"levelo_inurba_marseille","lat":43.26946,"lon":5.40255,"is_reserved":false,"is_disabled":false,"rental_uris":{"android":"levelo://app?vid=33a67bb6-975c-437c-8497-00d6f62299e7","ios":"levelo://app?vid=33a67bb6-975c-437c-8497-00d6f62299e7"},"vehicle_type_id":"4","last_reported":1731085641,"current_range_meters":27200,"station_id":"cjm6bp8fraef2m0cb0m0","pricing_plan_id":"cebpf4jnsgd1na2vs0mg"},{"bike_id":"cb4396ef-aa9f-4b95-987f-fef819ce83d3","system_id":"levelo_inurba_marseille","lat":43.31886,"lon":5.40733,"is_reserved":false,"is_disabled":false,"rental_uris":{"android":"levelo://app?vid=cb4396ef-aa9f-4b95-987f-fef819ce83d3","ios":"levelo://app?vid=cb4396ef-aa9f-4b95-987f-fef819ce83d3"},"vehicle_type_id":"4","last_reported":1731085641,"current_range_meters":18800,"station_id":"ce4bhq12rcd13ifvqhig","pricing_plan_id":"cebpf4jnsgd1na2vs0mg"},{"bike_id":"a0d9d5ae-de17-4341-bed9-edfa4e4e8139","system_id":"levelo_inurba_marseille","lat":43.30443,"lon":5.36629,"is_reserved":false,"is_disabled":false,"rental_uris":{"android":"levelo://app?vid=a0d9d5ae-de17-4341-bed9-edfa4e4e8139","ios":"levelo://app?vid=a0d9d5ae-de17-4341-bed9-edfa4e4e8139"},"vehicle_type_id":"4","last_reported":1731085641,"current_range_meters":7200,"station_id":"","pricing_plan_id":"cebpf4jnsgd1na2vs0mg"},{"bike_id":"e81431c9-fce4-4e91-8392-7d34b5c58da4","system_id":"levelo_inurba_marseille","lat":43.2952,"lon":5.39052,"is_reserved":false,"is_disabled":false,"rental_uris":{"android":"levelo://app?vid=e81431c9-fce4-4e91-8392-7d34b5c58da4","ios":"levelo://app?vid=e81431c9-fce4-4e91-8392-7d34b5c58da4"},"vehicle_type_id":"4","last_reported":1731085641,"current_range_meters":2800,"station_id":"ce4bh3p2rcd13ifvqdp0","pricing_plan_id":"cebpf4jnsgd1na2vs0mg"},{"bike_id":"58e41820-b560-4a98-a3b6-b958f37172c5","system_id":"levelo_inurba_marseille","lat":43.28693,"lon":5.37475,"is_reserved":false,"is_disabled":false,"rental_uris":{"android":"levelo://app?vid=58e41820-b560-4a98-a3b6-b958f37172c5","ios":"levelo://app?vid=58e41820-b560-4a98-a3b6-b958f37172c5"},"vehicle_type_id":"4","last_reported":1731085641,"current_range_meters":30800,"station_id":"ce4bh412rcd13ifvqds0","pricing_plan_id":"cebpf4jnsgd1na2vs0mg"},{"bike_id":"99e03d11-763b-4e9c-ba9a-0c9a2185b360","system_id":"levelo_inurba_marseille","lat":43.32484,"lon":5.3657,"is_reserved":false,"is_disabled":false,"rental_uris":{"android":"levelo://app?vid=99e03d11-763b-4e9c-ba9a-0c9a2185b360","ios":"levelo://app?vid=99e03d11-763b-4e9c-ba9a-0c9a2185b360"},"vehicle_type_id":"4","last_reported":1731085641,"current_range_meters":36000,"station_id":"ce4bhs12rcd13ifvqhvg","pricing_plan_id":"cebpf4jnsgd1na2vs0mg"},{"bike_id":"77579d8b-19be-49f1-81b8-797c693d2109","system_id":"levelo_inurba_marseille","lat":43.28004,"lon":5.40005,"is_reserved":false,"is_disabled":false,"rental_uris":{"android":"levelo://app?vid=77579d8b-19be-49f1-81b8-797c693d2109","ios":"levelo://app?vid=77579d8b-19be-49f1-81b8-797c693d2109"},"vehicle_type_id":"4","last_reported":1731085641,"current_range_meters":6400,"station_id":"ce4bho92rcd13ifvqh4g","pricing_plan_id":"cebpf4jnsgd1na2vs0mg"},{"bike_id":"433341e9-c0af-4efe-8f67-a1e7fcdb7a3c","system_id":"levelo_inurba_marseille","lat":43.29535,"lon":5.38543,"is_reserved":false,"is_disabled":false,"rental_uris":{"android":"levelo://app?vid=433341e9-c0af-4efe-8f67-a1e7fcdb7a3c","ios":"levelo://app?vid=433341e9-c0af-4efe-8f67-a1e7fcdb7a3c"},"vehicle_type_id":"4","last_reported":1731085641,"current_range_meters":8000,"station_id":"ce4bgih2rcd13ifvqba0","pricing_plan_id":"cebpf4jnsgd1na2vs0mg"},{"bike_id":"9948fe99-c849-4325-b4f5-4a0727ba3775","system_id":"levelo_inurba_marseille","lat":43.33025,"lon":5.39039,"is_reserved":false,"is_disabled":false,"rental_uris":{"android":"levelo://app?vid=9948fe99-c849-4325-b4f5-4a0727ba3775","ios":"levelo://app?vid=9948fe99-c849-4325-b4f5-4a0727ba3775"},"vehicle_type_id":"4","last_reported":1731085641,"current_range_meters":26000,"station_id":"ce4bhr92rcd13ifvqhrg","pricing_plan_id":"cebpf4jnsgd1na2vs0mg"},{"bike_id":"af4daf64-18f9-41ec-b8bd-1df711ac30af","system_id":"levelo_inurba_marseille","lat":43.31218,"lon":5.3685,"is_reserved":false,"is_disabled":false,"rental_uris":{"android":"levelo://app?vid=af4daf64-18f9-41ec-b8bd-1df711ac30af","ios":"levelo://app?vid=af4daf64-18f9-41ec-b8bd-1df711ac30af"},"vehicle_type_id":"4","last_reported":1731085641,"current_range_meters":29600,"station_id":"ce4bgl92rcd13ifvqbq0","pricing_plan_id":"cebpf4jnsgd1na2vs0mg"},{"bike_id":"92bbe5af-b5d9-48fc-afb8-3b15fc8d3190","system_id":"levelo_inurba_marseille","lat":43.3172,"lon":5.42408,"is_reserved":false,"is_disabled":false,"rental_uris":{"android":"levelo://app?vid=92bbe5af-b5d9-48fc-afb8-3b15fc8d3190","ios":"levelo://app?vid=92bbe5af-b5d9-48fc-afb8-3b15fc8d3190"},"vehicle_type_id":"4","last_reported":1731085641,"current_range_meters":28000,"station_id":"ce4bhp92rcd13ifvqhbg","pricing_plan_id":"cebpf4jnsgd1na2vs0mg"},{"bike_id":"f2b48753-19da-4417-9c33-55d3019c581a","system_id":"levelo_inurba_marseille","lat":43.28001,"lon":5.40012,"is_reserved":false,"is_disabled":false,"rental_uris":{"android":"levelo://app?vid=f2b48753-19da-4417-9c33-55d3019c581a","ios":"levelo://app?vid=f2b48753-19da-4417-9c33-55d3019c581a"},"vehicle_type_id":"4","last_reported":1731085641,"current_range_meters":6400,"station_id":"ce4bho92rcd13ifvqh4g","pricing_plan_id":"cebpf4jnsgd1na2vs0mg"},{"bike_id":"021174b0-1979-4477-810b-e261633c6877","system_id":"levelo_inurba_marseille","lat":43.29882,"lon":5.38916,"is_reserved":false,"is_disabled":false,"rental_uris":{"android":"levelo://app?vid=021174b0-1979-4477-810b-e261633c6877","ios":"levelo://app?vid=021174b0-1979-4477-810b-e261633c6877"},"vehicle_type_id":"4","last_reported":1731085641,"current_range_meters":8000,"station_id":"ce4bh392rcd13ifvqdl0","pricing_plan_id":"cebpf4jnsgd1na2vs0mg"},{"bike_id":"78e2afd0-7745-4714-9a20-5afb9710687d","system_id":"levelo_inurba_marseille","lat":43.28242,"lon":5.37258,"is_reserved":false,"is_disabled":false,"rental_uris":{"android":"levelo://app?vid=78e2afd0-7745-4714-9a20-5afb9710687d","ios":"levelo://app?vid=78e2afd0-7745-4714-9a20-5afb9710687d"},"vehicle_type_id":"4","last_reported":1731085641,"current_range_meters":38800,"station_id":"","pricing_plan_id":"cebpf4jnsgd1na2vs0mg"},{"bike_id":"4adc051b-cab2-444f-a4c6-933d4708baf0","system_id":"levelo_inurba_marseille","lat":43.31718,"lon":5.42407,"is_reserved":false,"is_disabled":false,"rental_uris":{"android":"levelo://app?vid=4adc051b-cab2-444f-a4c6-933d4708baf0","ios":"levelo://app?vid=4adc051b-cab2-444f-a4c6-933d4708baf0"},"vehicle_type_id":"4","last_reported":1731085641,"current_range_meters":12800,"station_id":"ce4bhp92rcd13ifvqhbg","pricing_plan_id":"cebpf4jnsgd1na2vs0mg"},{"bike_id":"865624fb-3d85-4ce1-b135-d88cbdbbde39","system_id":"levelo_inurba_marseille","lat":43.24651,"lon":5.38894,"is_reserved":false,"is_disabled":false,"rental_uris":{"android":"levelo://app?vid=865624fb-3d85-4ce1-b135-d88cbdbbde39","ios":"levelo://app?vid=865624fb-3d85-4ce1-b135-d88cbdbbde39"},"vehicle_type_id":"4","last_reported":1731085641,"current_range_meters":38000,"station_id":"ce4bhg12rcd13ifvqf60","pricing_plan_id":"cebpf4jnsgd1na2vs0mg"},{"bike_id":"712e4f2a-5cfe-4d8d-9cd8-052c2394481a","system_id":"levelo_inurba_marseille","lat":43.28567,"lon":5.39503,"is_reserved":false,"is_disabled":false,"rental_uris":{"android":"levelo://app?vid=712e4f2a-5cfe-4d8d-9cd8-052c2394481a","ios":"levelo://app?vid=712e4f2a-5cfe-4d8d-9cd8-052c2394481a"},"vehicle_type_id":"4","last_reported":1731085641,"current_range_meters":18000,"station_id":"ce4bh292rcd13ifvqdg0","pricing_plan_id":"cebpf4jnsgd1na2vs0mg"},{"bike_id":"d7b9432b-a8cc-4de7-b8ab-5769c92c4a3d","system_id":"levelo_inurba_marseille","lat":43.31715,"lon":5.37751,"is_reserved":false,"is_disabled":false,"rental_uris":{"android":"levelo://app?vid=d7b9432b-a8cc-4de7-b8ab-5769c92c4a3d","ios":"levelo://app?vid=d7b9432b-a8cc-4de7-b8ab-5769c92c4a3d"},"vehicle_type_id":"4","last_reported":1731085641,"current_range_meters":4400,"station_id":"ce4bgth2rcd13ifvqch0","pricing_plan_id":"cebpf4jnsgd1na2vs0mg"},{"bike_id":"6d520175-3b3c-453e-b0d4-e9addf1bc9fc","system_id":"levelo_inurba_marseille","lat":43.31221,"lon":5.36862,"is_reserved":false,"is_disabled":false,"rental_uris":{"android":"levelo://app?vid=6d520175-3b3c-453e-b0d4-e9addf1bc9fc","ios":"levelo://app?vid=6d520175-3b3c-453e-b0d4-e9addf1bc9fc"},"vehicle_type_id":"4","last_reported":1731085641,"current_range_meters":7200,"station_id":"ce4bgl92rcd13ifvqbq0","pricing_plan_id":"cebpf4jnsgd1na2vs0mg"},{"bike_id":"462bb33b-653c-4ad0-9e2d-afc2f7013000","system_id":"levelo_inurba_marseille","lat":43.27835,"lon":5.39212,"is_reserved":false,"is_disabled":false,"rental_uris":{"android":"levelo://app?vid=462bb33b-653c-4ad0-9e2d-afc2f7013000","ios":"levelo://app?vid=462bb33b-653c-4ad0-9e2d-afc2f7013000"},"vehicle_type_id":"4","last_reported":1731085641,"current_range_meters":38800,"station_id":"ce4bhjp2rcd13ifvqg90","pricing_plan_id":"cebpf4jnsgd1na2vs0mg"},{"bike_id":"f53e6c36-5b22-4301-901f-b50c17ca1f9d","system_id":"levelo_inurba_marseille","lat":43.29783,"lon":5.381,"is_reserved":false,"is_disabled":false,"rental_uris":{"android":"levelo://app?vid=f53e6c36-5b22-4301-901f-b50c17ca1f9d","ios":"levelo://app?vid=f53e6c36-5b22-4301-901f-b50c17ca1f9d"},"vehicle_type_id":"4","last_reported":1731085641,"current_range_meters":28400,"station_id":"ce4bgip2rcd13ifvqbb0","pricing_plan_id":"cebpf4jnsgd1na2vs0mg"},{"bike_id":"5a5935d0-aa23-4fd6-ba9f-e61767594960","system_id":"levelo_inurba_marseille","lat":43.29419,"lon":5.38627,"is_reserved":false,"is_disabled":false,"rental_uris":{"android":"levelo://app?vid=5a5935d0-aa23-4fd6-ba9f-e61767594960","ios":"levelo://app?vid=5a5935d0-aa23-4fd6-ba9f-e61767594960"},"vehicle_type_id":"4","last_reported":1731085641,"current_range_meters":38400,"station_id":"ce4bh2h2rcd13ifvqdh0","pricing_plan_id":"cebpf4jnsgd1na2vs0mg"},{"bike_id":"2bbcb9cc-f8b8-4b14-879a-f3df66920005","system_id":"levelo_inurba_marseille","lat":43.31229,"lon":5.36862,"is_reserved":false,"is_disabled":false,"rental_uris":{"android":"levelo://app?vid=2bbcb9cc-f8b8-4b14-879a-f3df66920005","ios":"levelo://app?vid=2bbcb9cc-f8b8-4b14-879a-f3df66920005"},"vehicle_type_id":"4","last_reported":1731085641,"current_range_meters":19600,"station_id":"ce4bgl92rcd13ifvqbq0","pricing_plan_id":"cebpf4jnsgd1na2vs0mg"},{"bike_id":"1f358bda-90fc-43ae-befa-11454a70c1cb","system_id":"levelo_inurba_marseille","lat":43.29582,"lon":5.37502,"is_reserved":false,"is_disabled":false,"rental_uris":{"android":"levelo://app?vid=1f358bda-90fc-43ae-befa-11454a70c1cb","ios":"levelo://app?vid=1f358bda-90fc-43ae-befa-11454a70c1cb"},"vehicle_type_id":"4","last_reported":1731085641,"current_range_meters":35200,"station_id":"ce4bgh92rcd13ifvqb50","pricing_plan_id":"cebpf4jnsgd1na2vs0mg"},{"bike_id":"9d20488a-c7c6-4d24-b3ce-ca2bcd270088","system_id":"levelo_inurba_marseille","lat":43.26208,"lon":5.37452,"is_reserved":false,"is_disabled":false,"rental_uris":{"android":"levelo://app?vid=9d20488a-c7c6-4d24-b3ce-ca2bcd270088","ios":"levelo://app?vid=9d20488a-c7c6-4d24-b3ce-ca2bcd270088"},"vehicle_type_id":"4","last_reported":1731085641,"current_range_meters":37600,"station_id":"ce4bhgp2rcd13ifvqfc0","pricing_plan_id":"cebpf4jnsgd1na2vs0mg"},{"bike_id":"f94bdcbe-9a46-4c5f-879c-d5fc8c43084c","system_id":"levelo_inurba_marseille","lat":43.33026,"lon":5.39039,"is_reserved":false,"is_disabled":false,"rental_uris":{"android":"levelo://app?vid=f94bdcbe-9a46-4c5f-879c-d5fc8c43084c","ios":"levelo://app?vid=f94bdcbe-9a46-4c5f-879c-d5fc8c43084c"},"vehicle_type_id":"4","last_reported":1731085641,"current_range_meters":38800,"station_id":"ce4bhr92rcd13ifvqhrg","pricing_plan_id":"cebpf4jnsgd1na2vs0mg"},{"bike_id":"64fad978-c7b0-474f-a850-e08de871c349","system_id":"levelo_inurba_marseille","lat":43.2963,"lon":5.40604,"is_reserved":false,"is_disabled":false,"rental_uris":{"android":"levelo://app?vid=64fad978-c7b0-474f-a850-e08de871c349","ios":"levelo://app?vid=64fad978-c7b0-474f-a850-e08de871c349"},"vehicle_type_id":"4","last_reported":1731085641,"current_range_meters":4800,"station_id":"ce4bh0h2rcd13ifvqd60","pricing_plan_id":"cebpf4jnsgd1na2vs0mg"},{"bike_id":"46236b54-003d-407c-892b-fc08621a8550","system_id":"levelo_inurba_marseille","lat":43.28609,"lon":5.37074,"is_reserved":false,"is_disabled":false,"rental_uris":{"android":"levelo://app?vid=46236b54-003d-407c-892b-fc08621a8550","ios":"levelo://app?vid=46236b54-003d-407c-892b-fc08621a8550"},"vehicle_type_id":"4","last_reported":1731085641,"current_range_meters":22400,"station_id":"ce4bht12rcd13ifvqi60","pricing_plan_id":"cebpf4jnsgd1na2vs0mg"},{"bike_id":"519e87ea-158e-4c50-8ea8-0b27dd8199ff","system_id":"levelo_inurba_marseille","lat":43.29276,"lon":5.38453,"is_reserved":false,"is_disabled":false,"rental_uris":{"android":"levelo://app?vid=519e87ea-158e-4c50-8ea8-0b27dd8199ff","ios":"levelo://app?vid=519e87ea-158e-4c50-8ea8-0b27dd8199ff"},"vehicle_type_id":"4","last_reported":1731085641,"current_range_meters":12000,"station_id":"ce4bh692rcd13ifvqea0","pricing_plan_id":"cebpf4jnsgd1na2vs0mg"},{"bike_id":"1689cf41-c047-45ff-b59c-9e4590d63448","system_id":"levelo_inurba_marseille","lat":43.248029,"lon":5.374593,"is_reserved":false,"is_disabled":false,"rental_uris":{"android":"levelo://app?vid=1689cf41-c047-45ff-b59c-9e4590d63448","ios":"levelo://app?vid=1689cf41-c047-45ff-b59c-9e4590d63448"},"vehicle_type_id":"4","last_reported":1731085641,"current_range_meters":22800,"station_id":"ce4bhgh2rcd13ifvqfb0","pricing_plan_id":"cebpf4jnsgd1na2vs0mg"},{"bike_id":"5ce8e61c-3342-4241-b80c-2e4895aa2f21","system_id":"levelo_inurba_marseille","lat":43.29532,"lon":5.38538,"is_reserved":false,"is_disabled":false,"rental_uris":{"android":"levelo://app?vid=5ce8e61c-3342-4241-b80c-2e4895aa2f21","ios":"levelo://app?vid=5ce8e61c-3342-4241-b80c-2e4895aa2f21"},"vehicle_type_id":"4","last_reported":1731085641,"current_range_meters":10000,"station_id":"ce4bgih2rcd13ifvqba0","pricing_plan_id":"cebpf4jnsgd1na2vs0mg"},{"bike_id":"ca9b208c-8cdb-4eb5-a4e5-488446cb9e35","system_id":"levelo_inurba_marseille","lat":43.30647,"lon":5.401,"is_reserved":false,"is_disabled":false,"rental_uris":{"android":"levelo://app?vid=ca9b208c-8cdb-4eb5-a4e5-488446cb9e35","ios":"levelo://app?vid=ca9b208c-8cdb-4eb5-a4e5-488446cb9e35"},"vehicle_type_id":"4","last_reported":1731085641,"current_range_meters":20000,"station_id":"ce4bh112rcd13ifvqda0","pricing_plan_id":"cebpf4jnsgd1na2vs0mg"},{"bike_id":"435ef3f4-58f9-47ba-a2ba-2c3d4beed542","system_id":"levelo_inurba_marseille","lat":43.24166,"lon":5.36408,"is_reserved":false,"is_disabled":false,"rental_uris":{"android":"levelo://app?vid=435ef3f4-58f9-47ba-a2ba-2c3d4beed542","ios":"levelo://app?vid=435ef3f4-58f9-47ba-a2ba-2c3d4beed542"},"vehicle_type_id":"4","last_reported":1731085641,"current_range_meters":38800,"station_id":"cpo36qri1sfpv3e86is0","pricing_plan_id":"cebpf4jnsgd1na2vs0mg"},{"bike_id":"ff989801-f59b-46d1-867b-7c2b6eab1cca","system_id":"levelo_inurba_marseille","lat":43.337444,"lon":5.374475,"is_reserved":false,"is_disabled":false,"rental_uris":{"android":"levelo://app?vid=ff989801-f59b-46d1-867b-7c2b6eab1cca","ios":"levelo://app?vid=ff989801-f59b-46d1-867b-7c2b6eab1cca"},"vehicle_type_id":"4","last_reported":1731085641,"current_range_meters":37600,"station_id":"","pricing_plan_id":"cebpf4jnsgd1na2vs0mg"},{"bike_id":"8d736017-17f6-4b20-a310-2baa92c4514f","system_id":"levelo_inurba_marseille","lat":43.269352,"lon":5.402469,"is_reserved":false,"is_disabled":false,"rental_uris":{"android":"levelo://app?vid=8d736017-17f6-4b20-a310-2baa92c4514f","ios":"levelo://app?vid=8d736017-17f6-4b20-a310-2baa92c4514f"},"vehicle_type_id":"4","last_reported":1731085641,"current_range_meters":22800,"station_id":"ce4bhmp2rcd13ifvqgog","pricing_plan_id":"cebpf4jnsgd1na2vs0mg"},{"bike_id":"6e1c4e6e-24f1-4e56-8f2b-a2e4ddc87b0e","system_id":"levelo_inurba_marseille","lat":43.30318,"lon":5.4044,"is_reserved":false,"is_disabled":false,"rental_uris":{"android":"levelo://app?vid=6e1c4e6e-24f1-4e56-8f2b-a2e4ddc87b0e","ios":"levelo://app?vid=6e1c4e6e-24f1-4e56-8f2b-a2e4ddc87b0e"},"vehicle_type_id":"4","last_reported":1731085641,"current_range_meters":18000,"station_id":"ce4bh012rcd13ifvqd10","pricing_plan_id":"cebpf4jnsgd1na2vs0mg"},{"bike_id":"7a111f95-0e6e-4864-809a-a23d3dc8fce5","system_id":"levelo_inurba_marseille","lat":43.28004,"lon":5.40024,"is_reserved":false,"is_disabled":false,"rental_uris":{"android":"levelo://app?vid=7a111f95-0e6e-4864-809a-a23d3dc8fce5","ios":"levelo://app?vid=7a111f95-0e6e-4864-809a-a23d3dc8fce5"},"vehicle_type_id":"4","last_reported":1731085641,"current_range_meters":39200,"station_id":"ce4bho92rcd13ifvqh4g","pricing_plan_id":"cebpf4jnsgd1na2vs0mg"},{"bike_id":"4827d164-05b5-4f1a-bc4c-de36c040d162","system_id":"levelo_inurba_marseille","lat":43.28852,"lon":5.35888,"is_reserved":false,"is_disabled":false,"rental_uris":{"android":"levelo://app?vid=4827d164-05b5-4f1a-bc4c-de36c040d162","ios":"levelo://app?vid=4827d164-05b5-4f1a-bc4c-de36c040d162"},"vehicle_type_id":"4","last_reported":1731085641,"current_range_meters":19200,"station_id":"ce4bhb12rcd13ifvqem0","pricing_plan_id":"cebpf4jnsgd1na2vs0mg"},{"bike_id":"cfe894de-4a81-4056-877f-ac9953747d71","system_id":"levelo_inurba_marseille","lat":43.27431,"lon":5.39416,"is_reserved":false,"is_disabled":false,"rental_uris":{"android":"levelo://app?vid=cfe894de-4a81-4056-877f-ac9953747d71","ios":"levelo://app?vid=cfe894de-4a81-4056-877f-ac9953747d71"},"vehicle_type_id":"4","last_reported":1731085641,"current_range_meters":35200,"station_id":"ce4bhdp2rcd13ifvqf20","pricing_plan_id":"cebpf4jnsgd1na2vs0mg"},{"bike_id":"c09088fe-b4aa-40fe-85d1-08cb68298aa4","system_id":"levelo_inurba_marseille","lat":43.23966,"lon":5.36631,"is_reserved":false,"is_disabled":false,"rental_uris":{"android":"levelo://app?vid=c09088fe-b4aa-40fe-85d1-08cb68298aa4","ios":"levelo://app?vid=c09088fe-b4aa-40fe-85d1-08cb68298aa4"},"vehicle_type_id":"4","last_reported":1731085641,"current_range_meters":24400,"station_id":"ce4bhi12rcd13ifvqfp0","pricing_plan_id":"cebpf4jnsgd1na2vs0mg"},{"bike_id":"d115c69c-dc61-4019-86ca-8f3ef1285cfb","system_id":"levelo_inurba_marseille","lat":43.22935,"lon":5.35371,"is_reserved":false,"is_disabled":false,"rental_uris":{"android":"levelo://app?vid=d115c69c-dc61-4019-86ca-8f3ef1285cfb","ios":"levelo://app?vid=d115c69c-dc61-4019-86ca-8f3ef1285cfb"},"vehicle_type_id":"4","last_reported":1731085641,"current_range_meters":36400,"station_id":"cpo3532slgdg3j2ikp40","pricing_plan_id":"cebpf4jnsgd1na2vs0mg"},{"bike_id":"3a180623-7881-41d7-b46f-aa90796c4e85","system_id":"levelo_inurba_marseille","lat":43.29917,"lon":5.37471,"is_reserved":false,"is_disabled":false,"rental_uris":{"android":"levelo://app?vid=3a180623-7881-41d7-b46f-aa90796c4e85","ios":"levelo://app?vid=3a180623-7881-41d7-b46f-aa90796c4e85"},"vehicle_type_id":"4","last_reported":1731085641,"current_range_meters":37600,"station_id":"ce4bgjh2rcd13ifvqbg0","pricing_plan_id":"cebpf4jnsgd1na2vs0mg"},{"bike_id":"be94c940-c56d-4132-af66-fedb762b3e0f","system_id":"levelo_inurba_marseille","lat":43.2319,"lon":5.35557,"is_reserved":false,"is_disabled":false,"rental_uris":{"android":"levelo://app?vid=be94c940-c56d-4132-af66-fedb762b3e0f","ios":"levelo://app?vid=be94c940-c56d-4132-af66-fedb762b3e0f"},"vehicle_type_id":"4","last_reported":1731085641,"current_range_meters":38800,"station_id":"ce4bhu92rcd13ifvqi70","pricing_plan_id":"cebpf4jnsgd1na2vs0mg"},{"bike_id":"6ba9ca98-cdab-46e8-bcb3-d22861a3b09f","system_id":"levelo_inurba_marseille","lat":43.26212,"lon":5.37442,"is_reserved":false,"is_disabled":false,"rental_uris":{"android":"levelo://app?vid=6ba9ca98-cdab-46e8-bcb3-d22861a3b09f","ios":"levelo://app?vid=6ba9ca98-cdab-46e8-bcb3-d22861a3b09f"},"vehicle_type_id":"4","last_reported":1731085641,"current_range_meters":36400,"station_id":"ce4bhgp2rcd13ifvqfc0","pricing_plan_id":"cebpf4jnsgd1na2vs0mg"},{"bike_id":"765aaf09-5b45-4dd6-a702-763ab5a3f306","system_id":"levelo_inurba_marseille","lat":43.27933,"lon":5.41047,"is_reserved":false,"is_disabled":false,"rental_uris":{"android":"levelo://app?vid=765aaf09-5b45-4dd6-a702-763ab5a3f306","ios":"levelo://app?vid=765aaf09-5b45-4dd6-a702-763ab5a3f306"},"vehicle_type_id":"4","last_reported":1731085641,"current_range_meters":36000,"station_id":"ce4bhnp2rcd13ifvqh0g","pricing_plan_id":"cebpf4jnsgd1na2vs0mg"},{"bike_id":"ed366f95-9ba9-4569-a29b-9d8d122c6858","system_id":"levelo_inurba_marseille","lat":43.27815,"lon":5.40711,"is_reserved":false,"is_disabled":false,"rental_uris":{"android":"levelo://app?vid=ed366f95-9ba9-4569-a29b-9d8d122c6858","ios":"levelo://app?vid=ed366f95-9ba9-4569-a29b-9d8d122c6858"},"vehicle_type_id":"4","last_reported":1731085641,"current_range_meters":30000,"station_id":"ce4bhnh2rcd13ifvqgtg","pricing_plan_id":"cebpf4jnsgd1na2vs0mg"},{"bike_id":"a91b3b60-1b29-4a65-9d19-1b389fcfc983","system_id":"levelo_inurba_marseille","lat":43.30538,"lon":5.36707,"is_reserved":false,"is_disabled":false,"rental_uris":{"android":"levelo://app?vid=a91b3b60-1b29-4a65-9d19-1b389fcfc983","ios":"levelo://app?vid=a91b3b60-1b29-4a65-9d19-1b389fcfc983"},"vehicle_type_id":"4","last_reported":1731085641,"current_range_meters":37600,"station_id":"ce4bgrp2rcd13ifvqc9g","pricing_plan_id":"cebpf4jnsgd1na2vs0mg"},{"bike_id":"beaddeea-a90d-4ad6-aaaf-d695827769e9","system_id":"levelo_inurba_marseille","lat":43.24651,"lon":5.38897,"is_reserved":false,"is_disabled":false,"rental_uris":{"android":"levelo://app?vid=beaddeea-a90d-4ad6-aaaf-d695827769e9","ios":"levelo://app?vid=beaddeea-a90d-4ad6-aaaf-d695827769e9"},"vehicle_type_id":"4","last_reported":1731085641,"current_range_meters":0,"station_id":"ce4bhg12rcd13ifvqf60","pricing_plan_id":"cebpf4jnsgd1na2vs0mg"},{"bike_id":"d732e789-30ca-4b9d-a02e-d34577bc6653","system_id":"levelo_inurba_marseille","lat":43.28665,"lon":5.36361,"is_reserved":false,"is_disabled":false,"rental_uris":{"android":"levelo://app?vid=d732e789-30ca-4b9d-a02e-d34577bc6653","ios":"levelo://app?vid=d732e789-30ca-4b9d-a02e-d34577bc6653"},"vehicle_type_id":"4","last_reported":1731085641,"current_range_meters":16400,"station_id":"ce4bhah2rcd13ifvqej0","pricing_plan_id":"cebpf4jnsgd1na2vs0mg"},{"bike_id":"653e44a7-9668-4c86-8707-484cee030775","system_id":"levelo_inurba_marseille","lat":43.27942,"lon":5.41051,"is_reserved":false,"is_disabled":false,"rental_uris":{"android":"levelo://app?vid=653e44a7-9668-4c86-8707-484cee030775","ios":"levelo://app?vid=653e44a7-9668-4c86-8707-484cee030775"},"vehicle_type_id":"4","last_reported":1731085641,"current_range_meters":6000,"station_id":"ce4bhnp2rcd13ifvqh0g","pricing_plan_id":"cebpf4jnsgd1na2vs0mg"},{"bike_id":"d3fecb3d-98bd-406a-bb35-d4b7cfefc4cf","system_id":"levelo_inurba_marseille","lat":43.26216,"lon":5.37448,"is_reserved":false,"is_disabled":false,"rental_uris":{"android":"levelo://app?vid=d3fecb3d-98bd-406a-bb35-d4b7cfefc4cf","ios":"levelo://app?vid=d3fecb3d-98bd-406a-bb35-d4b7cfefc4cf"},"vehicle_type_id":"4","last_reported":1731085641,"current_range_meters":38800,"station_id":"ce4bhgp2rcd13ifvqfc0","pricing_plan_id":"cebpf4jnsgd1na2vs0mg"},{"bike_id":"210db6b7-4a7b-4327-9aa9-ecee19fc6b1f","system_id":"levelo_inurba_marseille","lat":43.30538,"lon":5.38425,"is_reserved":false,"is_disabled":false,"rental_uris":{"android":"levelo://app?vid=210db6b7-4a7b-4327-9aa9-ecee19fc6b1f","ios":"levelo://app?vid=210db6b7-4a7b-4327-9aa9-ecee19fc6b1f"},"vehicle_type_id":"4","last_reported":1731085641,"current_range_meters":30800,"station_id":"ce4bgg92rcd13ifvqb30","pricing_plan_id":"cebpf4jnsgd1na2vs0mg"},{"bike_id":"02f3bd69-c440-439f-96d2-1f56246cbb70","system_id":"levelo_inurba_marseille","lat":43.23055,"lon":5.35489,"is_reserved":false,"is_disabled":false,"rental_uris":{"android":"levelo://app?vid=02f3bd69-c440-439f-96d2-1f56246cbb70","ios":"levelo://app?vid=02f3bd69-c440-439f-96d2-1f56246cbb70"},"vehicle_type_id":"4","last_reported":1731085641,"current_range_meters":31200,"station_id":"cpo3342slgdg3j2ifvpg","pricing_plan_id":"cebpf4jnsgd1na2vs0mg"},{"bike_id":"0710d7c5-aea6-4ef1-8041-9b41e7354457","system_id":"levelo_inurba_marseille","lat":43.293632,"lon":5.378521,"is_reserved":false,"is_disabled":false,"rental_uris":{"android":"levelo://app?vid=0710d7c5-aea6-4ef1-8041-9b41e7354457","ios":"levelo://app?vid=0710d7c5-aea6-4ef1-8041-9b41e7354457"},"vehicle_type_id":"4","last_reported":1731085641,"current_range_meters":30400,"station_id":"ce4bgjh2rcd13ifvqbf0","pricing_plan_id":"cebpf4jnsgd1na2vs0mg"},{"bike_id":"68998f7d-edb7-4542-a952-137d9acda999","system_id":"levelo_inurba_marseille","lat":43.26213,"lon":5.37447,"is_reserved":false,"is_disabled":false,"rental_uris":{"android":"levelo://app?vid=68998f7d-edb7-4542-a952-137d9acda999","ios":"levelo://app?vid=68998f7d-edb7-4542-a952-137d9acda999"},"vehicle_type_id":"4","last_reported":1731085641,"current_range_meters":38800,"station_id":"ce4bhgp2rcd13ifvqfc0","pricing_plan_id":"cebpf4jnsgd1na2vs0mg"},{"bike_id":"04c33c41-7d2c-4ad1-9547-7c592fdb82f1","system_id":"levelo_inurba_marseille","lat":43.31752,"lon":5.39021,"is_reserved":false,"is_disabled":false,"rental_uris":{"android":"levelo://app?vid=04c33c41-7d2c-4ad1-9547-7c592fdb82f1","ios":"levelo://app?vid=04c33c41-7d2c-4ad1-9547-7c592fdb82f1"},"vehicle_type_id":"4","last_reported":1731085641,"current_range_meters":37600,"station_id":"ce4bhqp2rcd13ifvqhng","pricing_plan_id":"cebpf4jnsgd1na2vs0mg"},{"bike_id":"5756433f-c1eb-4cd8-89e7-495b5eb0dcdd","system_id":"levelo_inurba_marseille","lat":43.28433,"lon":5.34982,"is_reserved":false,"is_disabled":false,"rental_uris":{"android":"levelo://app?vid=5756433f-c1eb-4cd8-89e7-495b5eb0dcdd","ios":"levelo://app?vid=5756433f-c1eb-4cd8-89e7-495b5eb0dcdd"},"vehicle_type_id":"4","last_reported":1731085641,"current_range_meters":38800,"station_id":"ce4bhbh2rcd13ifvqepg","pricing_plan_id":"cebpf4jnsgd1na2vs0mg"},{"bike_id":"0ecd6369-c2d3-4465-b211-943511c7d064","system_id":"levelo_inurba_marseille","lat":43.28443,"lon":5.39187,"is_reserved":false,"is_disabled":false,"rental_uris":{"android":"levelo://app?vid=0ecd6369-c2d3-4465-b211-943511c7d064","ios":"levelo://app?vid=0ecd6369-c2d3-4465-b211-943511c7d064"},"vehicle_type_id":"4","last_reported":1731085641,"current_range_meters":12400,"station_id":"ce4bhoh2rcd13ifvqh5g","pricing_plan_id":"cebpf4jnsgd1na2vs0mg"},{"bike_id":"a28cfdeb-e930-467b-915e-09543549bbe8","system_id":"levelo_inurba_marseille","lat":43.31226,"lon":5.36865,"is_reserved":false,"is_disabled":false,"rental_uris":{"android":"levelo://app?vid=a28cfdeb-e930-467b-915e-09543549bbe8","ios":"levelo://app?vid=a28cfdeb-e930-467b-915e-09543549bbe8"},"vehicle_type_id":"4","last_reported":1731085641,"current_range_meters":8000,"station_id":"ce4bgl92rcd13ifvqbq0","pricing_plan_id":"cebpf4jnsgd1na2vs0mg"},{"bike_id":"b3912eea-3ae7-4ca5-a50c-3888e3673755","system_id":"levelo_inurba_marseille","lat":43.26556,"lon":5.37282,"is_reserved":false,"is_disabled":false,"rental_uris":{"android":"levelo://app?vid=b3912eea-3ae7-4ca5-a50c-3888e3673755","ios":"levelo://app?vid=b3912eea-3ae7-4ca5-a50c-3888e3673755"},"vehicle_type_id":"4","last_reported":1731085641,"current_range_meters":34800,"station_id":"ce4bhg12rcd13ifvqf70","pricing_plan_id":"cebpf4jnsgd1na2vs0mg"},{"bike_id":"c3cae747-1840-4e85-b0e3-f2a4aea40a4a","system_id":"levelo_inurba_marseille","lat":43.31348,"lon":5.39141,"is_reserved":false,"is_disabled":false,"rental_uris":{"android":"levelo://app?vid=c3cae747-1840-4e85-b0e3-f2a4aea40a4a","ios":"levelo://app?vid=c3cae747-1840-4e85-b0e3-f2a4aea40a4a"},"vehicle_type_id":"4","last_reported":1731085641,"current_range_meters":8400,"station_id":"","pricing_plan_id":"cebpf4jnsgd1na2vs0mg"},{"bike_id":"85588db8-856a-4c84-89ca-404c01e2d863","system_id":"levelo_inurba_marseille","lat":43.30141,"lon":5.38075,"is_reserved":false,"is_disabled":false,"rental_uris":{"android":"levelo://app?vid=85588db8-856a-4c84-89ca-404c01e2d863","ios":"levelo://app?vid=85588db8-856a-4c84-89ca-404c01e2d863"},"vehicle_type_id":"4","last_reported":1731085641,"current_range_meters":27200,"station_id":"ce4bgjp2rcd13ifvqbh0","pricing_plan_id":"cebpf4jnsgd1na2vs0mg"},{"bike_id":"65971d27-6673-4b83-b681-a0041b6ec62a","system_id":"levelo_inurba_marseille","lat":43.27952,"lon":5.4105,"is_reserved":false,"is_disabled":false,"rental_uris":{"android":"levelo://app?vid=65971d27-6673-4b83-b681-a0041b6ec62a","ios":"levelo://app?vid=65971d27-6673-4b83-b681-a0041b6ec62a"},"vehicle_type_id":"4","last_reported":1731085641,"current_range_meters":6800,"station_id":"ce4bhnp2rcd13ifvqh0g","pricing_plan_id":"cebpf4jnsgd1na2vs0mg"},{"bike_id":"5cf035ef-4abf-44d6-8c2c-59889400ce6d","system_id":"levelo_inurba_marseille","lat":43.29572,"lon":5.39968,"is_reserved":false,"is_disabled":false,"rental_uris":{"android":"levelo://app?vid=5cf035ef-4abf-44d6-8c2c-59889400ce6d","ios":"levelo://app?vid=5cf035ef-4abf-44d6-8c2c-59889400ce6d"},"vehicle_type_id":"4","last_reported":1731085641,"current_range_meters":7200,"station_id":"ce4bh312rcd13ifvqdj0","pricing_plan_id":"cebpf4jnsgd1na2vs0mg"},{"bike_id":"c2c88d10-1b21-49a1-a65d-0f253667e792","system_id":"levelo_inurba_marseille","lat":43.31892,"lon":5.40746,"is_reserved":false,"is_disabled":false,"rental_uris":{"android":"levelo://app?vid=c2c88d10-1b21-49a1-a65d-0f253667e792","ios":"levelo://app?vid=c2c88d10-1b21-49a1-a65d-0f253667e792"},"vehicle_type_id":"4","last_reported":1731085641,"current_range_meters":6000,"station_id":"ce4bhq12rcd13ifvqhig","pricing_plan_id":"cebpf4jnsgd1na2vs0mg"},{"bike_id":"63fdb86e-8c96-4edf-9ce1-dc75a6f0393c","system_id":"levelo_inurba_marseille","lat":43.29946,"lon":5.36561,"is_reserved":false,"is_disabled":false,"rental_uris":{"android":"levelo://app?vid=63fdb86e-8c96-4edf-9ce1-dc75a6f0393c","ios":"levelo://app?vid=63fdb86e-8c96-4edf-9ce1-dc75a6f0393c"},"vehicle_type_id":"4","last_reported":1731085641,"current_range_meters":38800,"station_id":"ce4bgm92rcd13ifvqbr0","pricing_plan_id":"cebpf4jnsgd1na2vs0mg"},{"bike_id":"38010d2d-8266-4c9a-8dea-6a8b0d6fea4e","system_id":"levelo_inurba_marseille","lat":43.2858,"lon":5.39501,"is_reserved":false,"is_disabled":false,"rental_uris":{"android":"levelo://app?vid=38010d2d-8266-4c9a-8dea-6a8b0d6fea4e","ios":"levelo://app?vid=38010d2d-8266-4c9a-8dea-6a8b0d6fea4e"},"vehicle_type_id":"4","last_reported":1731085641,"current_range_meters":6400,"station_id":"ce4bh292rcd13ifvqdg0","pricing_plan_id":"cebpf4jnsgd1na2vs0mg"},{"bike_id":"fda6184b-2a3d-48f6-ab6b-040886802b57","system_id":"levelo_inurba_marseille","lat":43.27996,"lon":5.40008,"is_reserved":false,"is_disabled":false,"rental_uris":{"android":"levelo://app?vid=fda6184b-2a3d-48f6-ab6b-040886802b57","ios":"levelo://app?vid=fda6184b-2a3d-48f6-ab6b-040886802b57"},"vehicle_type_id":"4","last_reported":1731085641,"current_range_meters":30000,"station_id":"ce4bho92rcd13ifvqh4g","pricing_plan_id":"cebpf4jnsgd1na2vs0mg"},{"bike_id":"24b8d0df-ba16-4e17-aac6-1a406c97b9a2","system_id":"levelo_inurba_marseille","lat":43.29545,"lon":5.42285,"is_reserved":false,"is_disabled":false,"rental_uris":{"android":"levelo://app?vid=24b8d0df-ba16-4e17-aac6-1a406c97b9a2","ios":"levelo://app?vid=24b8d0df-ba16-4e17-aac6-1a406c97b9a2"},"vehicle_type_id":"4","last_reported":1731085641,"current_range_meters":24000,"station_id":"ce4bhph2rcd13ifvqhdg","pricing_plan_id":"cebpf4jnsgd1na2vs0mg"},{"bike_id":"82ee39fb-80cb-45e2-96fc-f298d0e6d2de","system_id":"levelo_inurba_marseille","lat":43.32473,"lon":5.36575,"is_reserved":false,"is_disabled":false,"rental_uris":{"android":"levelo://app?vid=82ee39fb-80cb-45e2-96fc-f298d0e6d2de","ios":"levelo://app?vid=82ee39fb-80cb-45e2-96fc-f298d0e6d2de"},"vehicle_type_id":"4","last_reported":1731085641,"current_range_meters":38800,"station_id":"ce4bhs12rcd13ifvqhvg","pricing_plan_id":"cebpf4jnsgd1na2vs0mg"},{"bike_id":"df26e2c3-33af-4b59-be82-7c16afed2ed3","system_id":"levelo_inurba_marseille","lat":43.29422,"lon":5.3862,"is_reserved":false,"is_disabled":false,"rental_uris":{"android":"levelo://app?vid=df26e2c3-33af-4b59-be82-7c16afed2ed3","ios":"levelo://app?vid=df26e2c3-33af-4b59-be82-7c16afed2ed3"},"vehicle_type_id":"4","last_reported":1731085641,"current_range_meters":4400,"station_id":"ce4bh2h2rcd13ifvqdh0","pricing_plan_id":"cebpf4jnsgd1na2vs0mg"},{"bike_id":"ace39036-9a2e-402b-ad6a-d8e65c709673","system_id":"levelo_inurba_marseille","lat":43.3078,"lon":5.37645,"is_reserved":false,"is_disabled":false,"rental_uris":{"android":"levelo://app?vid=ace39036-9a2e-402b-ad6a-d8e65c709673","ios":"levelo://app?vid=ace39036-9a2e-402b-ad6a-d8e65c709673"},"vehicle_type_id":"4","last_reported":1731085641,"current_range_meters":32400,"station_id":"ce4bgv92rcd13ifvqcq0","pricing_plan_id":"cebpf4jnsgd1na2vs0mg"},{"bike_id":"22017995-c287-4124-bffc-ecf2b47adff9","system_id":"levelo_inurba_marseille","lat":43.31071,"lon":5.38344,"is_reserved":false,"is_disabled":false,"rental_uris":{"android":"levelo://app?vid=22017995-c287-4124-bffc-ecf2b47adff9","ios":"levelo://app?vid=22017995-c287-4124-bffc-ecf2b47adff9"},"vehicle_type_id":"4","last_reported":1731085641,"current_range_meters":33600,"station_id":"ce4bgv92rcd13ifvqcr0","pricing_plan_id":"cebpf4jnsgd1na2vs0mg"},{"bike_id":"a3c48287-7626-4841-ae59-dd6e1c210444","system_id":"levelo_inurba_marseille","lat":43.29989,"lon":5.37182,"is_reserved":false,"is_disabled":false,"rental_uris":{"android":"levelo://app?vid=a3c48287-7626-4841-ae59-dd6e1c210444","ios":"levelo://app?vid=a3c48287-7626-4841-ae59-dd6e1c210444"},"vehicle_type_id":"4","last_reported":1731085641,"current_range_meters":20800,"station_id":"ce4bgr92rcd13ifvqc7g","pricing_plan_id":"cebpf4jnsgd1na2vs0mg"},{"bike_id":"884ca692-8854-4263-ad36-aa9c5ee77892","system_id":"levelo_inurba_marseille","lat":43.27993,"lon":5.40023,"is_reserved":false,"is_disabled":false,"rental_uris":{"android":"levelo://app?vid=884ca692-8854-4263-ad36-aa9c5ee77892","ios":"levelo://app?vid=884ca692-8854-4263-ad36-aa9c5ee77892"},"vehicle_type_id":"4","last_reported":1731085641,"current_range_meters":19600,"station_id":"ce4bho92rcd13ifvqh4g","pricing_plan_id":"cebpf4jnsgd1na2vs0mg"},{"bike_id":"284eb2c4-f3b0-42aa-9ad0-9e96bec748f5","system_id":"levelo_inurba_marseille","lat":43.31498,"lon":5.37966,"is_reserved":false,"is_disabled":false,"rental_uris":{"android":"levelo://app?vid=284eb2c4-f3b0-42aa-9ad0-9e96bec748f5","ios":"levelo://app?vid=284eb2c4-f3b0-42aa-9ad0-9e96bec748f5"},"vehicle_type_id":"4","last_reported":1731085641,"current_range_meters":32400,"station_id":"ce4bhsp2rcd13ifvqi50","pricing_plan_id":"cebpf4jnsgd1na2vs0mg"},{"bike_id":"2e1fdcfa-cd9f-464d-ae17-e239940b1309","system_id":"levelo_inurba_marseille","lat":43.26202,"lon":5.37937,"is_reserved":false,"is_disabled":false,"rental_uris":{"android":"levelo://app?vid=2e1fdcfa-cd9f-464d-ae17-e239940b1309","ios":"levelo://app?vid=2e1fdcfa-cd9f-464d-ae17-e239940b1309"},"vehicle_type_id":"4","last_reported":1731085641,"current_range_meters":10000,"station_id":"ce4bhjp2rcd13ifvqg90","pricing_plan_id":"cebpf4jnsgd1na2vs0mg"},{"bike_id":"ee3b47d5-0cc4-44c8-8ca7-ba29dcbcdc62","system_id":"levelo_inurba_marseille","lat":43.32487,"lon":5.39367,"is_reserved":false,"is_disabled":false,"rental_uris":{"android":"levelo://app?vid=ee3b47d5-0cc4-44c8-8ca7-ba29dcbcdc62","ios":"levelo://app?vid=ee3b47d5-0cc4-44c8-8ca7-ba29dcbcdc62"},"vehicle_type_id":"4","last_reported":1731085641,"current_range_meters":35600,"station_id":"","pricing_plan_id":"cebpf4jnsgd1na2vs0mg"},{"bike_id":"4ef11a7e-5741-4137-93db-9843a378e6ee","system_id":"levelo_inurba_marseille","lat":43.31705,"lon":5.43714,"is_reserved":false,"is_disabled":false,"rental_uris":{"android":"levelo://app?vid=4ef11a7e-5741-4137-93db-9843a378e6ee","ios":"levelo://app?vid=4ef11a7e-5741-4137-93db-9843a378e6ee"},"vehicle_type_id":"4","last_reported":1731085641,"current_range_meters":14400,"station_id":"ce4bhp92rcd13ifvqhcg","pricing_plan_id":"cebpf4jnsgd1na2vs0mg"},{"bike_id":"b66ff6b9-2903-43a3-84b3-27b86966d9e4","system_id":"levelo_inurba_marseille","lat":43.29904,"lon":5.38138,"is_reserved":false,"is_disabled":false,"rental_uris":{"android":"levelo://app?vid=b66ff6b9-2903-43a3-84b3-27b86966d9e4","ios":"levelo://app?vid=b66ff6b9-2903-43a3-84b3-27b86966d9e4"},"vehicle_type_id":"4","last_reported":1731085641,"current_range_meters":24800,"station_id":"ce4bgj12rcd13ifvqbc0","pricing_plan_id":"cebpf4jnsgd1na2vs0mg"},{"bike_id":"75f97213-661c-4354-87c9-aa3fc07274a6","system_id":"levelo_inurba_marseille","lat":43.30532,"lon":5.36554,"is_reserved":false,"is_disabled":false,"rental_uris":{"android":"levelo://app?vid=75f97213-661c-4354-87c9-aa3fc07274a6","ios":"levelo://app?vid=75f97213-661c-4354-87c9-aa3fc07274a6"},"vehicle_type_id":"4","last_reported":1731085641,"current_range_meters":36000,"station_id":"ce4bgs12rcd13ifvqcag","pricing_plan_id":"cebpf4jnsgd1na2vs0mg"},{"bike_id":"a697c59c-211c-4f5d-878f-a22982045104","system_id":"levelo_inurba_marseille","lat":43.27987,"lon":5.40027,"is_reserved":false,"is_disabled":false,"rental_uris":{"android":"levelo://app?vid=a697c59c-211c-4f5d-878f-a22982045104","ios":"levelo://app?vid=a697c59c-211c-4f5d-878f-a22982045104"},"vehicle_type_id":"4","last_reported":1731085641,"current_range_meters":17600,"station_id":"ce4bho92rcd13ifvqh4g","pricing_plan_id":"cebpf4jnsgd1na2vs0mg"},{"bike_id":"035921ff-b38a-4c8d-9271-2ab457b41fa4","system_id":"levelo_inurba_marseille","lat":43.29422,"lon":5.38635,"is_reserved":false,"is_disabled":false,"rental_uris":{"android":"levelo://app?vid=035921ff-b38a-4c8d-9271-2ab457b41fa4","ios":"levelo://app?vid=035921ff-b38a-4c8d-9271-2ab457b41fa4"},"vehicle_type_id":"4","last_reported":1731085641,"current_range_meters":31200,"station_id":"ce4bh2h2rcd13ifvqdh0","pricing_plan_id":"cebpf4jnsgd1na2vs0mg"},{"bike_id":"382ceea8-8e8d-43ab-a9fe-5fd9af2331ae","system_id":"levelo_inurba_marseille","lat":43.31326,"lon":5.39696,"is_reserved":false,"is_disabled":false,"rental_uris":{"android":"levelo://app?vid=382ceea8-8e8d-43ab-a9fe-5fd9af2331ae","ios":"levelo://app?vid=382ceea8-8e8d-43ab-a9fe-5fd9af2331ae"},"vehicle_type_id":"4","last_reported":1731085641,"current_range_meters":38800,"station_id":"ce4bgvp2rcd13ifvqcu0","pricing_plan_id":"cebpf4jnsgd1na2vs0mg"},{"bike_id":"e7a7c099-07dc-45b7-9c26-587a7a6c3265","system_id":"levelo_inurba_marseille","lat":43.337444,"lon":5.374475,"is_reserved":false,"is_disabled":false,"rental_uris":{"android":"levelo://app?vid=e7a7c099-07dc-45b7-9c26-587a7a6c3265","ios":"levelo://app?vid=e7a7c099-07dc-45b7-9c26-587a7a6c3265"},"vehicle_type_id":"4","last_reported":1731085641,"current_range_meters":37600,"station_id":"","pricing_plan_id":"cebpf4jnsgd1na2vs0mg"},{"bike_id":"1ee04e02-f590-43b7-aa21-b79b4d8d5023","system_id":"levelo_inurba_marseille","lat":43.29196,"lon":5.35796,"is_reserved":false,"is_disabled":false,"rental_uris":{"android":"levelo://app?vid=1ee04e02-f590-43b7-aa21-b79b4d8d5023","ios":"levelo://app?vid=1ee04e02-f590-43b7-aa21-b79b4d8d5023"},"vehicle_type_id":"4","last_reported":1731085641,"current_range_meters":37600,"station_id":"ce4bhb12rcd13ifvqel0","pricing_plan_id":"cebpf4jnsgd1na2vs0mg"},{"bike_id":"536b138b-edf8-4a83-a4f0-cac1e8c8d4df","system_id":"levelo_inurba_marseille","lat":43.28458,"lon":5.3589,"is_reserved":false,"is_disabled":false,"rental_uris":{"android":"levelo://app?vid=536b138b-edf8-4a83-a4f0-cac1e8c8d4df","ios":"levelo://app?vid=536b138b-edf8-4a83-a4f0-cac1e8c8d4df"},"vehicle_type_id":"4","last_reported":1731085641,"current_range_meters":22800,"station_id":"ce4bhah2rcd13ifvqei0","pricing_plan_id":"cebpf4jnsgd1na2vs0mg"},{"bike_id":"79dc3083-457c-4216-8555-3c16768d76ee","system_id":"levelo_inurba_marseille","lat":43.29554,"lon":5.36269,"is_reserved":false,"is_disabled":false,"rental_uris":{"android":"levelo://app?vid=79dc3083-457c-4216-8555-3c16768d76ee","ios":"levelo://app?vid=79dc3083-457c-4216-8555-3c16768d76ee"},"vehicle_type_id":"4","last_reported":1731085641,"current_range_meters":16400,"station_id":"","pricing_plan_id":"cebpf4jnsgd1na2vs0mg"},{"bike_id":"14a910cd-892a-47ce-8c12-ba88b008fa3f","system_id":"levelo_inurba_marseille","lat":43.31217,"lon":5.36857,"is_reserved":false,"is_disabled":false,"rental_uris":{"android":"levelo://app?vid=14a910cd-892a-47ce-8c12-ba88b008fa3f","ios":"levelo://app?vid=14a910cd-892a-47ce-8c12-ba88b008fa3f"},"vehicle_type_id":"4","last_reported":1731085641,"current_range_meters":12000,"station_id":"ce4bgl92rcd13ifvqbq0","pricing_plan_id":"cebpf4jnsgd1na2vs0mg"},{"bike_id":"f1a1fce5-d003-4e96-844f-d5c1ff1edf5b","system_id":"levelo_inurba_marseille","lat":43.29709,"lon":5.36603,"is_reserved":false,"is_disabled":false,"rental_uris":{"android":"levelo://app?vid=f1a1fce5-d003-4e96-844f-d5c1ff1edf5b","ios":"levelo://app?vid=f1a1fce5-d003-4e96-844f-d5c1ff1edf5b"},"vehicle_type_id":"4","last_reported":1731085641,"current_range_meters":18000,"station_id":"ce4bgn12rcd13ifvqbt0","pricing_plan_id":"cebpf4jnsgd1na2vs0mg"},{"bike_id":"bdab7898-eebd-4c44-ae08-ec1b33e21ec2","system_id":"levelo_inurba_marseille","lat":43.26948,"lon":5.40247,"is_reserved":false,"is_disabled":false,"rental_uris":{"android":"levelo://app?vid=bdab7898-eebd-4c44-ae08-ec1b33e21ec2","ios":"levelo://app?vid=bdab7898-eebd-4c44-ae08-ec1b33e21ec2"},"vehicle_type_id":"4","last_reported":1731085641,"current_range_meters":33600,"station_id":"cjm6bp8fraef2m0cb0m0","pricing_plan_id":"cebpf4jnsgd1na2vs0mg"},{"bike_id":"a7da64b9-bf02-4b43-9739-cbb4c8f07b44","system_id":"levelo_inurba_marseille","lat":43.29193,"lon":5.39322,"is_reserved":false,"is_disabled":false,"rental_uris":{"android":"levelo://app?vid=a7da64b9-bf02-4b43-9739-cbb4c8f07b44","ios":"levelo://app?vid=a7da64b9-bf02-4b43-9739-cbb4c8f07b44"},"vehicle_type_id":"4","last_reported":1731085641,"current_range_meters":22800,"station_id":"ce4bh192rcd13ifvqdd0","pricing_plan_id":"cebpf4jnsgd1na2vs0mg"},{"bike_id":"54e8e097-2f7a-4d2a-a8c4-873ccca6afd1","system_id":"levelo_inurba_marseille","lat":43.31225,"lon":5.36854,"is_reserved":false,"is_disabled":false,"rental_uris":{"android":"levelo://app?vid=54e8e097-2f7a-4d2a-a8c4-873ccca6afd1","ios":"levelo://app?vid=54e8e097-2f7a-4d2a-a8c4-873ccca6afd1"},"vehicle_type_id":"4","last_reported":1731085641,"current_range_meters":37600,"station_id":"ce4bgl92rcd13ifvqbq0","pricing_plan_id":"cebpf4jnsgd1na2vs0mg"},{"bike_id":"2600d00e-f854-463a-aafc-8f6e7525480c","system_id":"levelo_inurba_marseille","lat":43.28829,"lon":5.35874,"is_reserved":false,"is_disabled":false,"rental_uris":{"android":"levelo://app?vid=2600d00e-f854-463a-aafc-8f6e7525480c","ios":"levelo://app?vid=2600d00e-f854-463a-aafc-8f6e7525480c"},"vehicle_type_id":"4","last_reported":1731085641,"current_range_meters":37600,"station_id":"ce4bhb12rcd13ifvqem0","pricing_plan_id":"cebpf4jnsgd1na2vs0mg"},{"bike_id":"08b70ad9-9be5-4842-8ece-15903d7d1197","system_id":"levelo_inurba_marseille","lat":43.29435,"lon":5.39758,"is_reserved":false,"is_disabled":false,"rental_uris":{"android":"levelo://app?vid=08b70ad9-9be5-4842-8ece-15903d7d1197","ios":"levelo://app?vid=08b70ad9-9be5-4842-8ece-15903d7d1197"},"vehicle_type_id":"4","last_reported":1731085641,"current_range_meters":36000,"station_id":"ce4bh3h2rcd13ifvqdo0","pricing_plan_id":"cebpf4jnsgd1na2vs0mg"},{"bike_id":"0413894a-4063-47d6-8c7b-a4e87d820a67","system_id":"levelo_inurba_marseille","lat":43.31711,"lon":5.43709,"is_reserved":false,"is_disabled":false,"rental_uris":{"android":"levelo://app?vid=0413894a-4063-47d6-8c7b-a4e87d820a67","ios":"levelo://app?vid=0413894a-4063-47d6-8c7b-a4e87d820a67"},"vehicle_type_id":"4","last_reported":1731085641,"current_range_meters":24400,"station_id":"ce4bhp92rcd13ifvqhcg","pricing_plan_id":"cebpf4jnsgd1na2vs0mg"},{"bike_id":"f793e771-c430-42c7-8fa0-0a8ca1322553","system_id":"levelo_inurba_marseille","lat":43.31713,"lon":5.37754,"is_reserved":false,"is_disabled":false,"rental_uris":{"android":"levelo://app?vid=f793e771-c430-42c7-8fa0-0a8ca1322553","ios":"levelo://app?vid=f793e771-c430-42c7-8fa0-0a8ca1322553"},"vehicle_type_id":"4","last_reported":1731085641,"current_range_meters":8000,"station_id":"ce4bgth2rcd13ifvqch0","pricing_plan_id":"cebpf4jnsgd1na2vs0mg"},{"bike_id":"191f90fe-8e86-4786-a8e4-d22cad89cdc1","system_id":"levelo_inurba_marseille","lat":43.337444,"lon":5.374475,"is_reserved":false,"is_disabled":false,"rental_uris":{"android":"levelo://app?vid=191f90fe-8e86-4786-a8e4-d22cad89cdc1","ios":"levelo://app?vid=191f90fe-8e86-4786-a8e4-d22cad89cdc1"},"vehicle_type_id":"4","last_reported":1731085641,"current_range_meters":35600,"station_id":"","pricing_plan_id":"cebpf4jnsgd1na2vs0mg"},{"bike_id":"9cb334c6-63a4-4665-8906-80cc55212f36","system_id":"levelo_inurba_marseille","lat":43.27324,"lon":5.39075,"is_reserved":false,"is_disabled":false,"rental_uris":{"android":"levelo://app?vid=9cb334c6-63a4-4665-8906-80cc55212f36","ios":"levelo://app?vid=9cb334c6-63a4-4665-8906-80cc55212f36"},"vehicle_type_id":"4","last_reported":1731085641,"current_range_meters":38800,"station_id":"ce4bhgp2rcd13ifvqfe0","pricing_plan_id":"cebpf4jnsgd1na2vs0mg"},{"bike_id":"cf645ecf-b9f2-4799-a4e1-bf2f1fa278f4","system_id":"levelo_inurba_marseille","lat":43.29913,"lon":5.38152,"is_reserved":false,"is_disabled":false,"rental_uris":{"android":"levelo://app?vid=cf645ecf-b9f2-4799-a4e1-bf2f1fa278f4","ios":"levelo://app?vid=cf645ecf-b9f2-4799-a4e1-bf2f1fa278f4"},"vehicle_type_id":"4","last_reported":1731085641,"current_range_meters":35600,"station_id":"ce4bgj12rcd13ifvqbc0","pricing_plan_id":"cebpf4jnsgd1na2vs0mg"},{"bike_id":"3b1a97c4-a6c3-4b8d-af10-bc82e33d925c","system_id":"levelo_inurba_marseille","lat":43.26557,"lon":5.37284,"is_reserved":false,"is_disabled":false,"rental_uris":{"android":"levelo://app?vid=3b1a97c4-a6c3-4b8d-af10-bc82e33d925c","ios":"levelo://app?vid=3b1a97c4-a6c3-4b8d-af10-bc82e33d925c"},"vehicle_type_id":"4","last_reported":1731085641,"current_range_meters":24800,"station_id":"ce4bhg12rcd13ifvqf70","pricing_plan_id":"cebpf4jnsgd1na2vs0mg"},{"bike_id":"ba47390f-999a-4c45-b73e-0241fc7ba4ae","system_id":"levelo_inurba_marseille","lat":43.29529,"lon":5.38544,"is_reserved":false,"is_disabled":false,"rental_uris":{"android":"levelo://app?vid=ba47390f-999a-4c45-b73e-0241fc7ba4ae","ios":"levelo://app?vid=ba47390f-999a-4c45-b73e-0241fc7ba4ae"},"vehicle_type_id":"4","last_reported":1731085641,"current_range_meters":29600,"station_id":"ce4bgih2rcd13ifvqba0","pricing_plan_id":"cebpf4jnsgd1na2vs0mg"},