{"last_updated":1734524295,"ttl":60,"version":"2.2","data":{"bikes":[{"bike_id":"e6104320-5417-49d8-9b38-1c75866a7d01","system_id":"levelo_inurba_marseille","lat":43.29849,"lon":5.36286,"is_reserved":false,"is_disabled":false,"rental_uris":{"android":"levelo://app?vid=e6104320-5417-49d8-9b38-1c75866a7d01","ios":"levelo://app?vid=e6104320-5417-49d8-9b38-1c75866a7d01"},"vehicle_type_id":"4","last_reported":1734524295,"current_range_meters":37600,"station_id":"ce4bgpp2rcd13ifvqc3g","pricing_plan_id":"cebpf4jnsgd1na2vs0mg"},{"bike_id":"93e095a1-2285-4e5f-b945-85c0deee8cef","system_id":"levelo_inurba_marseille","lat":43.2694,"lon":5.38632,"is_reserved":false,"is_disabled":true,"rental_uris":{"android":"levelo://app?vid=93e095a1-2285-4e5f-b945-85c0deee8cef","ios":"levelo://app?vid=93e095a1-2285-4e5f-b945-85c0deee8cef"},"vehicle_type_id":"4","last_reported":1734524295,"current_range_meters":4800,"station_id":"ce4bhh92rcd13ifvqfh0","pricing_plan_id":"cebpf4jnsgd1na2vs0mg"},{"bike_id":"c691a868-9faf-4a6e-b174-52b8f08a124c","system_id":"levelo_inurba_marseille","lat":43.30524,"lon":5.36552,"is_reserved":false,"is_disabled":false,"rental_uris":{"android":"levelo://app?vid=c691a868-9faf-4a6e-b174-52b8f08a124c","ios":"levelo://app?vid=c691a868-9faf-4a6e-b174-52b8f08a124c"},"vehicle_type_id":"4","last_reported":1734524295,"current_range_meters":28800,"station_id":"ce4bgs12rcd13ifvqcag","pricing_plan_id":"cebpf4jnsgd1na2vs0mg"},{"bike_id":"855da9a6-8ded-42ad-a51c-1944d34be1b3","system_id":"levelo_inurba_marseille","lat":43.24543,"lon":5.39536,"is_reserved":false,"is_disabled":false,"rental_uris":{"android":"levelo://app?vid=855da9a6-8ded-42ad-a51c-1944d34be1b3","ios":"levelo://app?vid=855da9a6-8ded-42ad-a51c-1944d34be1b3"},"vehicle_type_id":"4","last_reported":1734524295,"current_range_meters":39200,"station_id":"ce4bhlp2rcd13ifvqgjg","pricing_plan_id":"cebpf4jnsgd1na2vs0mg"},{"bike_id":"a338df15-559e-417e-bc46-40639b9d7d14","system_id":"levelo_inurba_marseille","lat":43.29522,"lon":5.37503,"is_reserved":false,"is_disabled":false,"rental_uris":{"android":"levelo://app?vid=a338df15-559e-417e-bc46-40639b9d7d14","ios":"levelo://app?vid=a338df15-559e-417e-bc46-40639b9d7d14"},"vehicle_type_id":"4","last_reported":1734524295,"current_range_meters":37600,"station_id":"ce4bgkp2rcd13ifvqbmg","pricing_plan_id":"cebpf4jnsgd1na2vs0mg"},{"bike_id":"0bea807c-caa2-4527-b20d-0491783c718b","system_id":"levelo_inurba_marseille","lat":43.29013,"lon":5.35614,"is_reserved":false,"is_disabled":false,"rental_uris":{"android":"levelo://app?vid=0bea807c-caa2-4527-b20d-0491783c718b","ios":"levelo://app?vid=0bea807c-caa2-4527-b20d-0491783c718b"},"vehicle_type_id":"4","last_reported":1734524295,"current_range_meters":16400,"station_id":"ce4bhb92rcd13ifvqen0","pricing_plan_id":"cebpf4jnsgd1na2vs0mg"},{"bike_id":"b1b1f756-c1a0-4e66-8530-9c85602c1813","system_id":"levelo_inurba_marseille","lat":43.32348,"lon":5.36751,"is_reserved":false,"is_disabled":false,"rental_uris":{"android":"levelo://app?vid=b1b1f756-c1a0-4e66-8530-9c85602c1813","ios":"levelo://app?vid=b1b1f756-c1a0-4e66-8530-9c85602c1813"},"vehicle_type_id":"4","last_reported":1734524295,"current_range_meters":18000,"station_id":"ce4bhsh2rcd13ifvqi2g","pricing_plan_id":"cebpf4jnsgd1na2vs0mg"},{"bike_id":"64ff5b0b-103b-402e-8007-73ab97fd567c","system_id":"levelo_inurba_marseille","lat":43.28422,"lon":5.34985,"is_reserved":false,"is_disabled":false,"rental_uris":{"android":"levelo://app?vid=64ff5b0b-103b-402e-8007-73ab97fd567c","ios":"levelo://app?vid=64ff5b0b-103b-402e-8007-73ab97fd567c"},"vehicle_type_id":"4","last_reported":1734524295,"current_range_meters":28000,"station_id":"ce4bhbh2rcd13ifvqepg","pricing_plan_id":"cebpf4jnsgd1na2vs0mg"},{"bike_id":"5b25f1fc-a301-4e56-b3d8-973d52c75cbb","system_id":"levelo_inurba_marseille","lat":43.26188,"lon":5.37452,"is_reserved":false,"is_disabled":false,"rental_uris":{"android":"levelo://app?vid=5b25f1fc-a301-4e56-b3d8-973d52c75cbb","ios":"levelo://app?vid=5b25f1fc-a301-4e56-b3d8-973d52c75cbb"},"vehicle_type_id":"4","last_reported":1734524295,"current_range_meters":31200,"station_id":"ce4bhgp2rcd13ifvqfc0","pricing_plan_id":"cebpf4jnsgd1na2vs0mg"},{"bike_id":"2cbfaab5-9f4a-4072-b700-a09d5c3af5e0","system_id":"levelo_inurba_marseille","lat":43.2953,"lon":5.37518,"is_reserved":false,"is_disabled":false,"rental_uris":{"android":"levelo://app?vid=2cbfaab5-9f4a-4072-b700-a09d5c3af5e0","ios":"levelo://app?vid=2cbfaab5-9f4a-4072-b700-a09d5c3af5e0"},"vehicle_type_id":"4","last_reported":1734524295,"current_range_meters":30800,"station_id":"ce4bgkp2rcd13ifvqbmg","pricing_plan_id":"cebpf4jnsgd1na2vs0mg"},{"bike_id":"139fd58a-8939-4981-993f-b4c13ab8cd1b","system_id":"levelo_inurba_marseille","lat":43.27996,"lon":5.41659,"is_reserved":false,"is_disabled":false,"rental_uris":{"android":"levelo://app?vid=139fd58a-8939-4981-993f-b4c13ab8cd1b","ios":"levelo://app?vid=139fd58a-8939-4981-993f-b4c13ab8cd1b"},"vehicle_type_id":"4","last_reported":1734524295,"current_range_meters":26800,"station_id":"ce4bho12rcd13ifvqh1g","pricing_plan_id":"cebpf4jnsgd1na2vs0mg"},{"bike_id":"a5bab296-af15-45a1-81e9-5b6f00bc7788","system_id":"levelo_inurba_marseille","lat":43.26968,"lon":5.40241,"is_reserved":false,"is_disabled":false,"rental_uris":{"android":"levelo://app?vid=a5bab296-af15-45a1-81e9-5b6f00bc7788","ios":"levelo://app?vid=a5bab296-af15-45a1-81e9-5b6f00bc7788"},"vehicle_type_id":"4","last_reported":1734524295,"current_range_meters":35200,"station_id":"cjm6bp8fraef2m0cb0m0","pricing_plan_id":"cebpf4jnsgd1na2vs0mg"},{"bike_id":"bab8b766-14ce-4fc6-85c4-098ac1fb0d81","system_id":"levelo_inurba_marseille","lat":43.27556,"lon":5.38427,"is_reserved":false,"is_disabled":false,"rental_uris":{"android":"levelo://app?vid=bab8b766-14ce-4fc6-85c4-098ac1fb0d81","ios":"levelo://app?vid=bab8b766-14ce-4fc6-85c4-098ac1fb0d81"},"vehicle_type_id":"4","last_reported":1734524295,"current_range_meters":10800,"station_id":"ce4bhh92rcd13ifvqfi0","pricing_plan_id":"cebpf4jnsgd1na2vs0mg"},{"bike_id":"58be73d0-d5d6-49d5-a5d7-8c143188158e","system_id":"levelo_inurba_marseille","lat":43.29853,"lon":5.36285,"is_reserved":false,"is_disabled":false,"rental_uris":{"android":"levelo://app?vid=58be73d0-d5d6-49d5-a5d7-8c143188158e","ios":"levelo://app?vid=58be73d0-d5d6-49d5-a5d7-8c143188158e"},"vehicle_type_id":"4","last_reported":1734524295,"current_range_meters":33600,"station_id":"ce4bgpp2rcd13ifvqc3g","pricing_plan_id":"cebpf4jnsgd1na2vs0mg"},{"bike_id":"9c4670ff-16f8-431b-a765-a851341fad40","system_id":"levelo_inurba_marseille","lat":43.27313,"lon":5.39093,"is_reserved":false,"is_disabled":false,"rental_uris":{"android":"levelo://app?vid=9c4670ff-16f8-431b-a765-a851341fad40","ios":"levelo://app?vid=9c4670ff-16f8-431b-a765-a851341fad40"},"vehicle_type_id":"4","last_reported":1734524295,"current_range_meters":25200,"station_id":"ce4bhgp2rcd13ifvqfe0","pricing_plan_id":"cebpf4jnsgd1na2vs0mg"},{"bike_id":"a2104b26-4a01-4dc6-b355-fbab2d119e02","system_id":"levelo_inurba_marseille","lat":43.32482,"lon":5.36578,"is_reserved":false,"is_disabled":false,"rental_uris":{"android":"levelo://app?vid=a2104b26-4a01-4dc6-b355-fbab2d119e02","ios":"levelo://app?vid=a2104b26-4a01-4dc6-b355-fbab2d119e02"},"vehicle_type_id":"4","last_reported":1734524295,"current_range_meters":35600,"station_id":"ce4bhs12rcd13ifvqhvg","pricing_plan_id":"cebpf4jnsgd1na2vs0mg"},{"bike_id":"6a05e44a-4efa-46bd-b5de-3b74a66054cd","system_id":"levelo_inurba_marseille","lat":43.27675,"lon":5.38882,"is_reserved":false,"is_disabled":false,"rental_uris":{"android":"levelo://app?vid=6a05e44a-4efa-46bd-b5de-3b74a66054cd","ios":"levelo://app?vid=6a05e44a-4efa-46bd-b5de-3b74a66054cd"},"vehicle_type_id":"4","last_reported":1734524295,"current_range_meters":18000,"station_id":"ce4bhi12rcd13ifvqfo0","pricing_plan_id":"cebpf4jnsgd1na2vs0mg"},{"bike_id":"bc3432f2-77a4-4d0c-9d48-af95742f3e61","system_id":"levelo_inurba_marseille","lat":43.25939,"lon":5.40896,"is_reserved":false,"is_disabled":true,"rental_uris":{"android":"levelo://app?vid=bc3432f2-77a4-4d0c-9d48-af95742f3e61","ios":"levelo://app?vid=bc3432f2-77a4-4d0c-9d48-af95742f3e61"},"vehicle_type_id":"4","last_reported":1734524295,"current_range_meters":10800,"station_id":"ce4bhm92rcd13ifvqglg","pricing_plan_id":"cebpf4jnsgd1na2vs0mg"},{"bike_id":"6f34c84a-5b9b-4b15-a658-a97da4b06271","system_id":"levelo_inurba_marseille","lat":43.32988,"lon":5.39036,"is_reserved":false,"is_disabled":false,"rental_uris":{"android":"levelo://app?vid=6f34c84a-5b9b-4b15-a658-a97da4b06271","ios":"levelo://app?vid=6f34c84a-5b9b-4b15-a658-a97da4b06271"},"vehicle_type_id":"4","last_reported":1734524295,"current_range_meters":39200,"station_id":"ce4bhr92rcd13ifvqhrg","pricing_plan_id":"cebpf4jnsgd1na2vs0mg"},{"bike_id":"f67d6542-dcd7-4cab-bf0b-31ec1c6f581d","system_id":"levelo_inurba_marseille","lat":43.29041,"lon":5.35918,"is_reserved":false,"is_disabled":false,"rental_uris":{"android":"levelo://app?vid=f67d6542-dcd7-4cab-bf0b-31ec1c6f581d","ios":"levelo://app?vid=f67d6542-dcd7-4cab-bf0b-31ec1c6f581d"},"vehicle_type_id":"4","last_reported":1734524295,"current_range_meters":21600,"station_id":"ce4bha92rcd13ifvqeg0","pricing_plan_id":"cebpf4jnsgd1na2vs0mg"},{"bike_id":"cd217c80-e1ff-4fc6-9357-e2a21594ddc8","system_id":"levelo_inurba_marseille","lat":43.2619,"lon":5.37452,"is_reserved":false,"is_disabled":false,"rental_uris":{"android":"levelo://app?vid=cd217c80-e1ff-4fc6-9357-e2a21594ddc8","ios":"levelo://app?vid=cd217c80-e1ff-4fc6-9357-e2a21594ddc8"},"vehicle_type_id":"4","last_reported":1734524295,"current_range_meters":34000,"station_id":"ce4bhgp2rcd13ifvqfc0","pricing_plan_id":"cebpf4jnsgd1na2vs0mg"},{"bike_id":"124e6c05-4926-4207-84f5-da69a7334d60","system_id":"levelo_inurba_marseille","lat":43.29043,"lon":5.3814,"is_reserved":false,"is_disabled":true,"rental_uris":{"android":"levelo://app?vid=124e6c05-4926-4207-84f5-da69a7334d60","ios":"levelo://app?vid=124e6c05-4926-4207-84f5-da69a7334d60"},"vehicle_type_id":"4","last_reported":1734524295,"current_range_meters":34000,"station_id":"ce4bh4p2rcd13ifvqe1g","pricing_plan_id":"cebpf4jnsgd1na2vs0mg"},{"bike_id":"e997f56f-26a9-4ad1-9feb-f0c0c9894c03","system_id":"levelo_inurba_marseille","lat":43.30544,"lon":5.36689,"is_reserved":false,"is_disabled":false,"rental_uris":{"android":"levelo://app?vid=e997f56f-26a9-4ad1-9feb-f0c0c9894c03","ios":"levelo://app?vid=e997f56f-26a9-4ad1-9feb-f0c0c9894c03"},"vehicle_type_id":"4","last_reported":1734524295,"current_range_meters":11200,"station_id":"ce4bgrp2rcd13ifvqc9g","pricing_plan_id":"cebpf4jnsgd1na2vs0mg"},{"bike_id":"adb22dae-bb4f-4e0f-81c1-980871862818","system_id":"levelo_inurba_marseille","lat":43.28702,"lon":5.40009,"is_reserved":false,"is_disabled":false,"rental_uris":{"android":"levelo://app?vid=adb22dae-bb4f-4e0f-81c1-980871862818","ios":"levelo://app?vid=adb22dae-bb4f-4e0f-81c1-980871862818"},"vehicle_type_id":"4","last_reported":1734524295,"current_range_meters":22400,"station_id":"ce4bho92rcd13ifvqh3g","pricing_plan_id":"cebpf4jnsgd1na2vs0mg"},{"bike_id":"648382db-596e-4ffe-8494-8388f8b2fbe2","system_id":"levelo_inurba_marseille","lat":43.28475,"lon":5.38414,"is_reserved":false,"is_disabled":false,"rental_uris":{"android":"levelo://app?vid=648382db-596e-4ffe-8494-8388f8b2fbe2","ios":"levelo://app?vid=648382db-596e-4ffe-8494-8388f8b2fbe2"},"vehicle_type_id":"4","last_reported":1734524295,"current_range_meters":27200,"station_id":"ce4bh512rcd13ifvqe3g","pricing_plan_id":"cebpf4jnsgd1na2vs0mg"},{"bike_id":"12825fc7-c4d4-4652-92c7-b1bbcf86503b","system_id":"levelo_inurba_marseille","lat":43.305375,"lon":5.36535,"is_reserved":false,"is_disabled":false,"rental_uris":{"android":"levelo://app?vid=12825fc7-c4d4-4652-92c7-b1bbcf86503b","ios":"levelo://app?vid=12825fc7-c4d4-4652-92c7-b1bbcf86503b"},"vehicle_type_id":"4","last_reported":1734524295,"current_range_meters":38800,"station_id":"ce4bgs12rcd13ifvqcag","pricing_plan_id":"cebpf4jnsgd1na2vs0mg"},{"bike_id":"2ae7fc52-11d1-4607-ba57-fc1895cfc982","system_id":"levelo_inurba_marseille","lat":43.26676,"lon":5.38261,"is_reserved":false,"is_disabled":false,"rental_uris":{"android":"levelo://app?vid=2ae7fc52-11d1-4607-ba57-fc1895cfc982","ios":"levelo://app?vid=2ae7fc52-11d1-4607-ba57-fc1895cfc982"},"vehicle_type_id":"4","last_reported":1734524295,"current_range_meters":34800,"station_id":"ce4bhg92rcd13ifvqf90","pricing_plan_id":"cebpf4jnsgd1na2vs0mg"},{"bike_id":"2491c714-f3f7-493b-9790-9992e16c8fb6","system_id":"levelo_inurba_marseille","lat":43.3413,"lon":5.40916,"is_reserved":false,"is_disabled":true,"rental_uris":{"android":"levelo://app?vid=2491c714-f3f7-493b-9790-9992e16c8fb6","ios":"levelo://app?vid=2491c714-f3f7-493b-9790-9992e16c8fb6"},"vehicle_type_id":"4","last_reported":1734524295,"current_range_meters":38800,"station_id":"ce4bhqh2rcd13ifvqhlg","pricing_plan_id":"cebpf4jnsgd1na2vs0mg"},{"bike_id":"03dcc4cf-7478-40f3-9bc7-5aceae97b56a","system_id":"levelo_inurba_marseille","lat":43.3012,"lon":5.37422,"is_reserved":false,"is_disabled":false,"rental_uris":{"android":"levelo://app?vid=03dcc4cf-7478-40f3-9bc7-5aceae97b56a","ios":"levelo://app?vid=03dcc4cf-7478-40f3-9bc7-5aceae97b56a"},"vehicle_type_id":"4","last_reported":1734524295,"current_range_meters":26800,"station_id":"ce4bgs92rcd13ifvqcc0","pricing_plan_id":"cebpf4jnsgd1na2vs0mg"},{"bike_id":"ea1ee0a0-f240-4d25-84d9-e6fb6fc7a18c","system_id":"levelo_inurba_marseille","lat":43.33768,"lon":5.42095,"is_reserved":false,"is_disabled":true,"rental_uris":{"android":"levelo://app?vid=ea1ee0a0-f240-4d25-84d9-e6fb6fc7a18c","ios":"levelo://app?vid=ea1ee0a0-f240-4d25-84d9-e6fb6fc7a18c"},"vehicle_type_id":"4","last_reported":1734524295,"current_range_meters":0,"station_id":"","pricing_plan_id":"cebpf4jnsgd1na2vs0mg"},{"bike_id":"78d3311c-b243-425a-802e-59bea14e42b9","system_id":"levelo_inurba_marseille","lat":43.30589,"lon":5.39358,"is_reserved":false,"is_disabled":false,"rental_uris":{"android":"levelo://app?vid=78d3311c-b243-425a-802e-59bea14e42b9","ios":"levelo://app?vid=78d3311c-b243-425a-802e-59bea14e42b9"},"vehicle_type_id":"4","last_reported":1734524295,"current_range_meters":10000,"station_id":"ce4bh0p2rcd13ifvqd80","pricing_plan_id":"cebpf4jnsgd1na2vs0mg"},{"bike_id":"a9fccbb6-c45f-4362-a72b-4ba2aefd4ca0","system_id":"levelo_inurba_marseille","lat":43.28945,"lon":5.36635,"is_reserved":false,"is_disabled":false,"rental_uris":{"android":"levelo://app?vid=a9fccbb6-c45f-4362-a72b-4ba2aefd4ca0","ios":"levelo://app?vid=a9fccbb6-c45f-4362-a72b-4ba2aefd4ca0"},"vehicle_type_id":"4","last_reported":1734524295,"current_range_meters":24400,"station_id":"ce4bhap2rcd13ifvqek0","pricing_plan_id":"cebpf4jnsgd1na2vs0mg"},{"bike_id":"f500c588-6feb-4b09-aaa0-56bd71506c9c","system_id":"levelo_inurba_marseille","lat":43.30142,"lon":5.37432,"is_reserved":false,"is_disabled":false,"rental_uris":{"android":"levelo://app?vid=f500c588-6feb-4b09-aaa0-56bd71506c9c","ios":"levelo://app?vid=f500c588-6feb-4b09-aaa0-56bd71506c9c"},"vehicle_type_id":"4","last_reported":1734524295,"current_range_meters":38800,"station_id":"ce4bgs92rcd13ifvqcc0","pricing_plan_id":"cebpf4jnsgd1na2vs0mg"},{"bike_id":"9b03d121-6878-410d-a3bd-553e876211da","system_id":"levelo_inurba_marseille","lat":43.2707,"lon":5.42282,"is_reserved":false,"is_disabled":false,"rental_uris":{"android":"levelo://app?vid=9b03d121-6878-410d-a3bd-553e876211da","ios":"levelo://app?vid=9b03d121-6878-410d-a3bd-553e876211da"},"vehicle_type_id":"4","last_reported":1734524295,"current_range_meters":12800,"station_id":"ce4bhk92rcd13ifvqgb0","pricing_plan_id":"cebpf4jnsgd1na2vs0mg"},{"bike_id":"de0be449-3f8e-42f7-9155-1bf2e68e9a58","system_id":"levelo_inurba_marseille","lat":43.25107,"lon":5.40337,"is_reserved":false,"is_disabled":true,"rental_uris":{"android":"levelo://app?vid=de0be449-3f8e-42f7-9155-1bf2e68e9a58","ios":"levelo://app?vid=de0be449-3f8e-42f7-9155-1bf2e68e9a58"},"vehicle_type_id":"4","last_reported":1734524295,"current_range_meters":4800,"station_id":"ce4bhlh2rcd13ifvqgig","pricing_plan_id":"cebpf4jnsgd1na2vs0mg"},{"bike_id":"ee600888-af51-4f09-8dd4-4a6cdb33d768","system_id":"levelo_inurba_marseille","lat":43.30006,"lon":5.37196,"is_reserved":false,"is_disabled":false,"rental_uris":{"android":"levelo://app?vid=ee600888-af51-4f09-8dd4-4a6cdb33d768","ios":"levelo://app?vid=ee600888-af51-4f09-8dd4-4a6cdb33d768"},"vehicle_type_id":"4","last_reported":1734524295,"current_range_meters":36800,"station_id":"ce4bgr92rcd13ifvqc7g","pricing_plan_id":"cebpf4jnsgd1na2vs0mg"},{"bike_id":"a48a10a6-fb85-4c88-af47-3e6a02db863e","system_id":"levelo_inurba_marseille","lat":43.29414,"lon":5.38629,"is_reserved":false,"is_disabled":false,"rental_uris":{"android":"levelo://app?vid=a48a10a6-fb85-4c88-af47-3e6a02db863e","ios":"levelo://app?vid=a48a10a6-fb85-4c88-af47-3e6a02db863e"},"vehicle_type_id":"4","last_reported":1734524295,"current_range_meters":11600,"station_id":"ce4bh2h2rcd13ifvqdh0","pricing_plan_id":"cebpf4jnsgd1na2vs0mg"},{"bike_id":"327073bf-2cb5-40e7-b42c-69a54fdf59f3","system_id":"levelo_inurba_marseille","lat":43.31345,"lon":5.36708,"is_reserved":false,"is_disabled":false,"rental_uris":{"android":"levelo://app?vid=327073bf-2cb5-40e7-b42c-69a54fdf59f3","ios":"levelo://app?vid=327073bf-2cb5-40e7-b42c-69a54fdf59f3"},"vehicle_type_id":"4","last_reported":1734524295,"current_range_meters":36400,"station_id":"ce4bgr92rcd13ifvqc6g","pricing_plan_id":"cebpf4jnsgd1na2vs0mg"},{"bike_id":"8c4b9abd-4ca4-44e7-82fe-bf27277dbf02","system_id":"levelo_inurba_marseille","lat":43.296,"lon":5.3807,"is_reserved":false,"is_disabled":false,"rental_uris":{"android":"levelo://app?vid=8c4b9abd-4ca4-44e7-82fe-bf27277dbf02","ios":"levelo://app?vid=8c4b9abd-4ca4-44e7-82fe-bf27277dbf02"},"vehicle_type_id":"4","last_reported":1734524295,"current_range_meters":38800,"station_id":"ce4bgl12rcd13ifvqbo0","pricing_plan_id":"cebpf4jnsgd1na2vs0mg"},{"bike_id":"18948cc8-8067-40b5-adeb-758aaf260f06","system_id":"levelo_inurba_marseille","lat":43.30181,"lon":5.36615,"is_reserved":false,"is_disabled":false,"rental_uris":{"android":"levelo://app?vid=18948cc8-8067-40b5-adeb-758aaf260f06","ios":"levelo://app?vid=18948cc8-8067-40b5-adeb-758aaf260f06"},"vehicle_type_id":"4","last_reported":1734524295,"current_range_meters":39200,"station_id":"ce4bgrh2rcd13ifvqc8g","pricing_plan_id":"cebpf4jnsgd1na2vs0mg"},{"bike_id":"31d95f91-41b4-4726-90fd-d024e5e74103","system_id":"levelo_inurba_marseille","lat":43.30131,"lon":5.38788,"is_reserved":false,"is_disabled":false,"rental_uris":{"android":"levelo://app?vid=31d95f91-41b4-4726-90fd-d024e5e74103","ios":"levelo://app?vid=31d95f91-41b4-4726-90fd-d024e5e74103"},"vehicle_type_id":"4","last_reported":1734524295,"current_range_meters":3600,"station_id":"ce4bghh2rcd13ifvqb60","pricing_plan_id":"cebpf4jnsgd1na2vs0mg"},{"bike_id":"4cd8f22a-82ae-4985-b778-378a4fb404d0","system_id":"levelo_inurba_marseille","lat":43.2984,"lon":5.36286,"is_reserved":false,"is_disabled":false,"rental_uris":{"android":"levelo://app?vid=4cd8f22a-82ae-4985-b778-378a4fb404d0","ios":"levelo://app?vid=4cd8f22a-82ae-4985-b778-378a4fb404d0"},"vehicle_type_id":"4","last_reported":1734524295,"current_range_meters":10000,"station_id":"ce4bgpp2rcd13ifvqc3g","pricing_plan_id":"cebpf4jnsgd1na2vs0mg"},{"bike_id":"86c83bcb-399d-43cb-a4b5-54e53dfd94eb","system_id":"levelo_inurba_marseille","lat":43.30521,"lon":5.3671,"is_reserved":false,"is_disabled":false,"rental_uris":{"android":"levelo://app?vid=86c83bcb-399d-43cb-a4b5-54e53dfd94eb","ios":"levelo://app?vid=86c83bcb-399d-43cb-a4b5-54e53dfd94eb"},"vehicle_type_id":"4","last_reported":1734524295,"current_range_meters":38800,"station_id":"ce4bgrp2rcd13ifvqc9g","pricing_plan_id":"cebpf4jnsgd1na2vs0mg"},{"bike_id":"88951085-31ef-4c56-8915-fb1111927bb8","system_id":"levelo_inurba_marseille","lat":43.29616,"lon":5.37724,"is_reserved":false,"is_disabled":false,"rental_uris":{"android":"levelo://app?vid=88951085-31ef-4c56-8915-fb1111927bb8","ios":"levelo://app?vid=88951085-31ef-4c56-8915-fb1111927bb8"},"vehicle_type_id":"4","last_reported":1734524295,"current_range_meters":25200,"station_id":"ce4bgi92rcd13ifvqb90","pricing_plan_id":"cebpf4jnsgd1na2vs0mg"},{"bike_id":"b69caaef-85d2-4bd7-bb37-b5ae9de49317","system_id":"levelo_inurba_marseille","lat":43.29532,"lon":5.38539,"is_reserved":false,"is_disabled":false,"rental_uris":{"android":"levelo://app?vid=b69caaef-85d2-4bd7-bb37-b5ae9de49317","ios":"levelo://app?vid=b69caaef-85d2-4bd7-bb37-b5ae9de49317"},"vehicle_type_id":"4","last_reported":1734524295,"current_range_meters":28000,"station_id":"ce4bgih2rcd13ifvqba0","pricing_plan_id":"cebpf4jnsgd1na2vs0mg"},{"bike_id":"bebf7705-d0ee-4f38-8954-b1140f3c3106","system_id":"levelo_inurba_marseille","lat":43.28669,"lon":5.3635,"is_reserved":false,"is_disabled":false,"rental_uris":{"android":"levelo://app?vid=bebf7705-d0ee-4f38-8954-b1140f3c3106","ios":"levelo://app?vid=bebf7705-d0ee-4f38-8954-b1140f3c3106"},"vehicle_type_id":"4","last_reported":1734524295,"current_range_meters":18800,"station_id":"ce4bhah2rcd13ifvqej0","pricing_plan_id":"cebpf4jnsgd1na2vs0mg"},{"bike_id":"a9002301-2815-4da8-b708-209cae3ff729","system_id":"levelo_inurba_marseille","lat":43.27986,"lon":5.41657,"is_reserved":false,"is_disabled":false,"rental_uris":{"android":"levelo://app?vid=a9002301-2815-4da8-b708-209cae3ff729","ios":"levelo://app?vid=a9002301-2815-4da8-b708-209cae3ff729"},"vehicle_type_id":"4","last_reported":1734524295,"current_range_meters":30000,"station_id":"ce4bho12rcd13ifvqh1g","pricing_plan_id":"cebpf4jnsgd1na2vs0mg"},{"bike_id":"1b0bb4f9-e7ed-4a45-bb70-613a886cf93a","system_id":"levelo_inurba_marseille","lat":43.29555,"lon":5.42292,"is_reserved":false,"is_disabled":false,"rental_uris":{"android":"levelo://app?vid=1b0bb4f9-e7ed-4a45-bb70-613a886cf93a","ios":"levelo://app?vid=1b0bb4f9-e7ed-4a45-bb70-613a886cf93a"},"vehicle_type_id":"4","last_reported":1734524295,"current_range_meters":25600,"station_id":"ce4bhph2rcd13ifvqhdg","pricing_plan_id":"cebpf4jnsgd1na2vs0mg"},{"bike_id":"13b89d28-be59-4841-b3b3-1a97c3f8e494","system_id":"levelo_inurba_marseille","lat":43.23147,"lon":5.43725,"is_reserved":false,"is_disabled":false,"rental_uris":{"android":"levelo://app?vid=13b89d28-be59-4841-b3b3-1a97c3f8e494","ios":"levelo://app?vid=13b89d28-be59-4841-b3b3-1a97c3f8e494"},"vehicle_type_id":"4","last_reported":1734524295,"current_range_meters":38000,"station_id":"ce4bhmp2rcd13ifvqgog","pricing_plan_id":"cebpf4jnsgd1na2vs0mg"},{"bike_id":"72492ff3-d3e5-4b81-822b-1d3357339451","system_id":"levelo_inurba_marseille","lat":43.29279,"lon":5.40134,"is_reserved":false,"is_disabled":true,"rental_uris":{"android":"levelo://app?vid=72492ff3-d3e5-4b81-822b-1d3357339451","ios":"levelo://app?vid=72492ff3-d3e5-4b81-822b-1d3357339451"},"vehicle_type_id":"4","last_reported":1734524295,"current_range_meters":39200,"station_id":"ce4bh312rcd13ifvqdk0","pricing_plan_id":"cebpf4jnsgd1na2vs0mg"},{"bike_id":"c9aecb48-1552-47ad-af23-8b6bab0d2fdf","system_id":"levelo_inurba_marseille","lat":43.25082,"lon":5.39522,"is_reserved":false,"is_disabled":true,"rental_uris":{"android":"levelo://app?vid=c9aecb48-1552-47ad-af23-8b6bab0d2fdf","ios":"levelo://app?vid=c9aecb48-1552-47ad-af23-8b6bab0d2fdf"},"vehicle_type_id":"4","last_reported":1734524295,"current_range_meters":0,"station_id":"ce4bhm12rcd13ifvqgkg","pricing_plan_id":"cebpf4jnsgd1na2vs0mg"},{"bike_id":"4e903476-26ee-4c32-806f-26a87ba3a549","system_id":"levelo_inurba_marseille","lat":43.2942,"lon":5.38609,"is_reserved":false,"is_disabled":true,"rental_uris":{"android":"levelo://app?vid=4e903476-26ee-4c32-806f-26a87ba3a549","ios":"levelo://app?vid=4e903476-26ee-4c32-806f-26a87ba3a549"},"vehicle_type_id":"4","last_reported":1734524295,"current_range_meters":0,"station_id":"ce4bh2h2rcd13ifvqdh0","pricing_plan_id":"cebpf4jnsgd1na2vs0mg"},{"bike_id":"20ce049d-9d00-4dff-9417-e04a6e42b12c","system_id":"levelo_inurba_marseille","lat":43.27981,"lon":5.41658,"is_reserved":false,"is_disabled":false,"rental_uris":{"android":"levelo://app?vid=20ce049d-9d00-4dff-9417-e04a6e42b12c","ios":"levelo://app?vid=20ce049d-9d00-4dff-9417-e04a6e42b12c"},"vehicle_type_id":"4","last_reported":1734524295,"current_range_meters":30000,"station_id":"ce4bho12rcd13ifvqh1g","pricing_plan_id":"cebpf4jnsgd1na2vs0mg"},{"bike_id":"b28f9753-28e1-431d-914b-59d1f0cf26b3","system_id":"levelo_inurba_marseille","lat":43.26547,"lon":5.37288,"is_reserved":false,"is_disabled":false,"rental_uris":{"android":"levelo://app?vid=b28f9753-28e1-431d-914b-59d1f0cf26b3","ios":"levelo://app?vid=b28f9753-28e1-431d-914b-59d1f0cf26b3"},"vehicle_type_id":"4","last_reported":1734524295,"current_range_meters":11600,"station_id":"ce4bhg12rcd13ifvqf70","pricing_plan_id":"cebpf4jnsgd1na2vs0mg"},{"bike_id":"ef1396cf-5bcc-4409-bb26-120de25d4130","system_id":"levelo_inurba_marseille","lat":43.2826,"lon":5.35067,"is_reserved":false,"is_disabled":false,"rental_uris":{"android":"levelo://app?vid=ef1396cf-5bcc-4409-bb26-120de25d4130","ios":"levelo://app?vid=ef1396cf-5bcc-4409-bb26-120de25d4130"},"vehicle_type_id":"4","last_reported":1734524295,"current_range_meters":18800,"station_id":"ce4bhbp2rcd13ifvqerg","pricing_plan_id":"cebpf4jnsgd1na2vs0mg"},{"bike_id":"fbe18849-3e54-4f6f-8e9d-991d33e72a0f","system_id":"levelo_inurba_marseille","lat":43.29617,"lon":5.37735,"is_reserved":false,"is_disabled":false,"rental_uris":{"android":"levelo://app?vid=fbe18849-3e54-4f6f-8e9d-991d33e72a0f","ios":"levelo://app?vid=fbe18849-3e54-4f6f-8e9d-991d33e72a0f"},"vehicle_type_id":"4","last_reported":1734524295,"current_range_meters":39200,"station_id":"ce4bgi92rcd13ifvqb90","pricing_plan_id":"cebpf4jnsgd1na2vs0mg"},{"bike_id":"a47a812b-8479-4dbf-a984-c261870d3f1a","system_id":"levelo_inurba_marseille","lat":43.32461,"lon":5.36563,"is_reserved":false,"is_disabled":false,"rental_uris":{"android":"levelo://app?vid=a47a812b-8479-4dbf-a984-c261870d3f1a","ios":"levelo://app?vid=a47a812b-8479-4dbf-a984-c261870d3f1a"},"vehicle_type_id":"4","last_reported":1734524295,"current_range_meters":39200,"station_id":"ce4bhs12rcd13ifvqhvg","pricing_plan_id":"cebpf4jnsgd1na2vs0mg"},{"bike_id":"189ada6b-87c7-48dc-bc40-634cf6321beb","system_id":"levelo_inurba_marseille","lat":43.30597,"lon":5.37227,"is_reserved":false,"is_disabled":false,"rental_uris":{"android":"levelo://app?vid=189ada6b-87c7-48dc-bc40-634cf6321beb","ios":"levelo://app?vid=189ada6b-87c7-48dc-bc40-634cf6321beb"},"vehicle_type_id":"4","last_reported":1734524295,"current_range_meters":37600,"station_id":"ce4bgqh2rcd13ifvqc4g","pricing_plan_id":"cebpf4jnsgd1na2vs0mg"},{"bike_id":"e86eb7da-dc35-453e-b7d5-de78fd5191b2","system_id":"levelo_inurba_marseille","lat":43.24176,"lon":5.39728,"is_reserved":false,"is_disabled":false,"rental_uris":{"android":"levelo://app?vid=e86eb7da-dc35-453e-b7d5-de78fd5191b2","ios":"levelo://app?vid=e86eb7da-dc35-453e-b7d5-de78fd5191b2"},"vehicle_type_id":"4","last_reported":1734524295,"current_range_meters":22800,"station_id":"ce4bhn12rcd13ifvqgpg","pricing_plan_id":"cebpf4jnsgd1na2vs0mg"},{"bike_id":"a755b577-eccf-4159-b824-2c915d5ee264","system_id":"levelo_inurba_marseille","lat":43.29194,"lon":5.35798,"is_reserved":false,"is_disabled":true,"rental_uris":{"android":"levelo://app?vid=a755b577-eccf-4159-b824-2c915d5ee264","ios":"levelo://app?vid=a755b577-eccf-4159-b824-2c915d5ee264"},"vehicle_type_id":"4","last_reported":1734524295,"current_range_meters":1200,"station_id":"ce4bhb12rcd13ifvqel0","pricing_plan_id":"cebpf4jnsgd1na2vs0mg"},{"bike_id":"782bcbf2-b7de-4b04-bebc-aaa0329dd90c","system_id":"levelo_inurba_marseille","lat":43.23188,"lon":5.35565,"is_reserved":false,"is_disabled":false,"rental_uris":{"android":"levelo://app?vid=782bcbf2-b7de-4b04-bebc-aaa0329dd90c","ios":"levelo://app?vid=782bcbf2-b7de-4b04-bebc-aaa0329dd90c"},"vehicle_type_id":"4","last_reported":1734524295,"current_range_meters":38800,"station_id":"ce4bhu92rcd13ifvqi70","pricing_plan_id":"cebpf4jnsgd1na2vs0mg"},{"bike_id":"f684ac85-d9f6-49b3-afc8-8c351d63cac5","system_id":"levelo_inurba_marseille","lat":43.30136,"lon":5.38799,"is_reserved":false,"is_disabled":false,"rental_uris":{"android":"levelo://app?vid=f684ac85-d9f6-49b3-afc8-8c351d63cac5","ios":"levelo://app?vid=f684ac85-d9f6-49b3-afc8-8c351d63cac5"},"vehicle_type_id":"4","last_reported":1734524295,"current_range_meters":12800,"station_id":"ce4bghh2rcd13ifvqb60","pricing_plan_id":"cebpf4jnsgd1na2vs0mg"},{"bike_id":"289faeb9-a11a-47c1-978b-f5d918e76896","system_id":"levelo_inurba_marseille","lat":43.33746,"lon":5.37444,"is_reserved":false,"is_disabled":false,"rental_uris":{"android":"levelo://app?vid=289faeb9-a11a-47c1-978b-f5d918e76896","ios":"levelo://app?vid=289faeb9-a11a-47c1-978b-f5d918e76896"},"vehicle_type_id":"4","last_reported":1734524295,"current_range_meters":38000,"station_id":"","pricing_plan_id":"cebpf4jnsgd1na2vs0mg"},{"bike_id":"5b912f63-53da-4bd6-b48a-0cee9a4850bc","system_id":"levelo_inurba_marseille","lat":43.28568,"lon":5.39499,"is_reserved":false,"is_disabled":false,"rental_uris":{"android":"levelo://app?vid=5b912f63-53da-4bd6-b48a-0cee9a4850bc","ios":"levelo://app?vid=5b912f63-53da-4bd6-b48a-0cee9a4850bc"},"vehicle_type_id":"4","last_reported":1734524295,"current_range_meters":15200,"station_id":"ce4bh292rcd13ifvqdg0","pricing_plan_id":"cebpf4jnsgd1na2vs0mg"},{"bike_id":"4590026f-4d8e-4294-8f2a-8d70931cbcb5","system_id":"levelo_inurba_marseille","lat":43.28481,"lon":5.38429,"is_reserved":false,"is_disabled":true,"rental_uris":{"android":"levelo://app?vid=4590026f-4d8e-4294-8f2a-8d70931cbcb5","ios":"levelo://app?vid=4590026f-4d8e-4294-8f2a-8d70931cbcb5"},"vehicle_type_id":"4","last_reported":1734524295,"current_range_meters":32000,"station_id":"ce4bh512rcd13ifvqe3g","pricing_plan_id":"cebpf4jnsgd1na2vs0mg"},{"bike_id":"96ff88dc-8cf7-4b0f-a345-fa00220da932","system_id":"levelo_inurba_marseille","lat":43.27402,"lon":5.42381,"is_reserved":false,"is_disabled":true,"rental_uris":{"android":"levelo://app?vid=96ff88dc-8cf7-4b0f-a345-fa00220da932","ios":"levelo://app?vid=96ff88dc-8cf7-4b0f-a345-fa00220da932"},"vehicle_type_id":"4","last_reported":1734524295,"current_range_meters":0,"station_id":"","pricing_plan_id":"cebpf4jnsgd1na2vs0mg"},{"bike_id":"02795b96-503c-4ad8-8c8e-a0646e7f5695","system_id":"levelo_inurba_marseille","lat":43.26211,"lon":5.37441,"is_reserved":false,"is_disabled":false,"rental_uris":{"android":"levelo://app?vid=02795b96-503c-4ad8-8c8e-a0646e7f5695","ios":"levelo://app?vid=02795b96-503c-4ad8-8c8e-a0646e7f5695"},"vehicle_type_id":"4","last_reported":1734524295,"current_range_meters":37600,"station_id":"ce4bhgp2rcd13ifvqfc0","pricing_plan_id":"cebpf4jnsgd1na2vs0mg"},{"bike_id":"822408b5-93b6-4b7e-a2e4-a91cfb6d79ad","system_id":"levelo_inurba_marseille","lat":43.24177,"lon":5.39709,"is_reserved":false,"is_disabled":false,"rental_uris":{"android":"levelo://app?vid=822408b5-93b6-4b7e-a2e4-a91cfb6d79ad","ios":"levelo://app?vid=822408b5-93b6-4b7e-a2e4-a91cfb6d79ad"},"vehicle_type_id":"4","last_reported":1734524295,"current_range_meters":38800,"station_id":"ce4bhn12rcd13ifvqgpg","pricing_plan_id":"cebpf4jnsgd1na2vs0mg"},{"bike_id":"a8404037-b7aa-470a-9cb3-43f800d85a8a","system_id":"levelo_inurba_marseille","lat":43.27363,"lon":5.36253,"is_reserved":false,"is_disabled":false,"rental_uris":{"android":"levelo://app?vid=a8404037-b7aa-470a-9cb3-43f800d85a8a","ios":"levelo://app?vid=a8404037-b7aa-470a-9cb3-43f800d85a8a"},"vehicle_type_id":"4","last_reported":1734524295,"current_range_meters":30000,"station_id":"ce4bhbh2rcd13ifvqeo0","pricing_plan_id":"cebpf4jnsgd1na2vs0mg"},{"bike_id":"35d9085c-0b78-4f08-baff-4620b4fa72cd","system_id":"levelo_inurba_marseille","lat":43.30546,"lon":5.36541,"is_reserved":false,"is_disabled":false,"rental_uris":{"android":"levelo://app?vid=35d9085c-0b78-4f08-baff-4620b4fa72cd","ios":"levelo://app?vid=35d9085c-0b78-4f08-baff-4620b4fa72cd"},"vehicle_type_id":"4","last_reported":1734524295,"current_range_meters":7200,"station_id":"ce4bgs12rcd13ifvqcag","pricing_plan_id":"cebpf4jnsgd1na2vs0mg"},{"bike_id":"87340f46-e461-4c6c-bb1b-c54bab1e569c","system_id":"levelo_inurba_marseille","lat":43.30241,"lon":5.40062,"is_reserved":false,"is_disabled":false,"rental_uris":{"android":"levelo://app?vid=87340f46-e461-4c6c-bb1b-c54bab1e569c","ios":"levelo://app?vid=87340f46-e461-4c6c-bb1b-c54bab1e569c"},"vehicle_type_id":"4","last_reported":1734524295,"current_range_meters":28400,"station_id":"ce4bgvh2rcd13ifvqcs0","pricing_plan_id":"cebpf4jnsgd1na2vs0mg"},{"bike_id":"37a3e5bf-6f53-427b-9a89-d96d119f0635","system_id":"levelo_inurba_marseille","lat":43.28415,"lon":5.34996,"is_reserved":false,"is_disabled":false,"rental_uris":{"android":"levelo://app?vid=37a3e5bf-6f53-427b-9a89-d96d119f0635","ios":"levelo://app?vid=37a3e5bf-6f53-427b-9a89-d96d119f0635"},"vehicle_type_id":"4","last_reported":1734524295,"current_range_meters":6400,"station_id":"ce4bhbh2rcd13ifvqepg","pricing_plan_id":"cebpf4jnsgd1na2vs0mg"},{"bike_id":"e5e195d4-401f-47b5-ba3c-a395c7187273","system_id":"levelo_inurba_marseille","lat":43.27991,"lon":5.40023,"is_reserved":false,"is_disabled":false,"rental_uris":{"android":"levelo://app?vid=e5e195d4-401f-47b5-ba3c-a395c7187273","ios":"levelo://app?vid=e5e195d4-401f-47b5-ba3c-a395c7187273"},"vehicle_type_id":"4","last_reported":1734524295,"current_range_meters":22800,"station_id":"ce4bho92rcd13ifvqh4g","pricing_plan_id":"cebpf4jnsgd1na2vs0mg"},{"bike_id":"43c79950-99b6-48d7-b4a0-acc516bb02b9","system_id":"levelo_inurba_marseille","lat":43.286167,"lon":5.351043,"is_reserved":false,"is_disabled":false,"rental_uris":{"android":"levelo://app?vid=43c79950-99b6-48d7-b4a0-acc516bb02b9","ios":"levelo://app?vid=43c79950-99b6-48d7-b4a0-acc516bb02b9"},"vehicle_type_id":"4","last_reported":1734524295,"current_range_meters":24400,"station_id":"ce4bhch2rcd13ifvqeug","pricing_plan_id":"cebpf4jnsgd1na2vs0mg"},{"bike_id":"ca9ceabb-4da9-4ab2-8aa8-751038806a66","system_id":"levelo_inurba_marseille","lat":43.29619,"lon":5.37713,"is_reserved":false,"is_disabled":false,"rental_uris":{"android":"levelo://app?vid=ca9ceabb-4da9-4ab2-8aa8-751038806a66","ios":"levelo://app?vid=ca9ceabb-4da9-4ab2-8aa8-751038806a66"},"vehicle_type_id":"4","last_reported":1734524295,"current_range_meters":37600,"station_id":"ce4bgi92rcd13ifvqb90","pricing_plan_id":"cebpf4jnsgd1na2vs0mg"},{"bike_id":"dde9f301-b62e-458f-af68-692aaa2a3b28","system_id":"levelo_inurba_marseille","lat":43.29371,"lon":5.37855,"is_reserved":false,"is_disabled":false,"rental_uris":{"android":"levelo://app?vid=dde9f301-b62e-458f-af68-692aaa2a3b28","ios":"levelo://app?vid=dde9f301-b62e-458f-af68-692aaa2a3b28"},"vehicle_type_id":"4","last_reported":1734524295,"current_range_meters":27600,"station_id":"ce4bgjh2rcd13ifvqbf0","pricing_plan_id":"cebpf4jnsgd1na2vs0mg"},{"bike_id":"69e54944-8319-4b21-b65a-2776ebe008c8","system_id":"levelo_inurba_marseille","lat":43.24547,"lon":5.39526,"is_reserved":false,"is_disabled":false,"rental_uris":{"android":"levelo://app?vid=69e54944-8319-4b21-b65a-2776ebe008c8","ios":"levelo://app?vid=69e54944-8319-4b21-b65a-2776ebe008c8"},"vehicle_type_id":"4","last_reported":1734524295,"current_range_meters":27200,"station_id":"ce4bhlp2rcd13ifvqgjg","pricing_plan_id":"cebpf4jnsgd1na2vs0mg"},{"bike_id":"42737d0c-0e46-4b13-8648-18b857f9bfcb","system_id":"levelo_inurba_marseille","lat":43.26044,"lon":5.39397,"is_reserved":false,"is_disabled":true,"rental_uris":{"android":"levelo://app?vid=42737d0c-0e46-4b13-8648-18b857f9bfcb","ios":"levelo://app?vid=42737d0c-0e46-4b13-8648-18b857f9bfcb"},"vehicle_type_id":"4","last_reported":1734524295,"current_range_meters":1600,"station_id":"ce4bhh92rcd13ifvqfj0","pricing_plan_id":"cebpf4jnsgd1na2vs0mg"},{"bike_id":"1f088edd-e254-4389-aab0-8bb3edc2dc9e","system_id":"levelo_inurba_marseille","lat":43.32456,"lon":5.3659,"is_reserved":false,"is_disabled":false,"rental_uris":{"android":"levelo://app?vid=1f088edd-e254-4389-aab0-8bb3edc2dc9e","ios":"levelo://app?vid=1f088edd-e254-4389-aab0-8bb3edc2dc9e"},"vehicle_type_id":"4","last_reported":1734524295,"current_range_meters":39200,"station_id":"ce4bhs12rcd13ifvqhvg","pricing_plan_id":"cebpf4jnsgd1na2vs0mg"},{"bike_id":"7eba5650-919d-4742-a1ec-5a9b429580ae","system_id":"levelo_inurba_marseille","lat":43.28415,"lon":5.3499,"is_reserved":false,"is_disabled":false,"rental_uris":{"android":"levelo://app?vid=7eba5650-919d-4742-a1ec-5a9b429580ae","ios":"levelo://app?vid=7eba5650-919d-4742-a1ec-5a9b429580ae"},"vehicle_type_id":"4","last_reported":1734524295,"current_range_meters":28000,"station_id":"ce4bhbh2rcd13ifvqepg","pricing_plan_id":"cebpf4jnsgd1na2vs0mg"},{"bike_id":"333aa382-91bd-401e-8a2d-c42eb56f0e06","system_id":"levelo_inurba_marseille","lat":43.27799,"lon":5.4071,"is_reserved":false,"is_disabled":false,"rental_uris":{"android":"levelo://app?vid=333aa382-91bd-401e-8a2d-c42eb56f0e06","ios":"levelo://app?vid=333aa382-91bd-401e-8a2d-c42eb56f0e06"},"vehicle_type_id":"4","last_reported":1734524295,"current_range_meters":38400,"station_id":"ce4bhnh2rcd13ifvqgtg","pricing_plan_id":"cebpf4jnsgd1na2vs0mg"},{"bike_id":"3cfdef38-1b78-46f1-bdd3-c66422141169","system_id":"levelo_inurba_marseille","lat":43.24073,"lon":5.37761,"is_reserved":false,"is_disabled":false,"rental_uris":{"android":"levelo://app?vid=3cfdef38-1b78-46f1-bdd3-c66422141169","ios":"levelo://app?vid=3cfdef38-1b78-46f1-bdd3-c66422141169"},"vehicle_type_id":"4","last_reported":1734524295,"current_range_meters":31200,"station_id":"ce4bhnp2rcd13ifvqgvg","pricing_plan_id":"cebpf4jnsgd1na2vs0mg"},{"bike_id":"759effe3-f7c0-45be-82b1-2cb47f6a02b1","system_id":"levelo_inurba_marseille","lat":43.25864,"lon":5.39898,"is_reserved":false,"is_disabled":false,"rental_uris":{"android":"levelo://app?vid=759effe3-f7c0-45be-82b1-2cb47f6a02b1","ios":"levelo://app?vid=759effe3-f7c0-45be-82b1-2cb47f6a02b1"},"vehicle_type_id":"4","last_reported":1734524295,"current_range_meters":6800,"station_id":"ce4bhl92rcd13ifvqghg","pricing_plan_id":"cebpf4jnsgd1na2vs0mg"},{"bike_id":"c7b69568-7a78-440f-b70f-d8bf1dc5a75e","system_id":"levelo_inurba_marseille","lat":43.29837,"lon":5.36267,"is_reserved":false,"is_disabled":false,"rental_uris":{"android":"levelo://app?vid=c7b69568-7a78-440f-b70f-d8bf1dc5a75e","ios":"levelo://app?vid=c7b69568-7a78-440f-b70f-d8bf1dc5a75e"},"vehicle_type_id":"4","last_reported":1734524295,"current_range_meters":39200,"station_id":"ce4bgpp2rcd13ifvqc3g","pricing_plan_id":"cebpf4jnsgd1na2vs0mg"},{"bike_id":"fb122ed3-aa55-4fbe-ad88-3f6eff69b908","system_id":"levelo_inurba_marseille","lat":43.29889,"lon":5.38882,"is_reserved":false,"is_disabled":false,"rental_uris":{"android":"levelo://app?vid=fb122ed3-aa55-4fbe-ad88-3f6eff69b908","ios":"levelo://app?vid=fb122ed3-aa55-4fbe-ad88-3f6eff69b908"},"vehicle_type_id":"4","last_reported":1734524295,"current_range_meters":18000,"station_id":"ce4bh392rcd13ifvqdl0","pricing_plan_id":"cebpf4jnsgd1na2vs0mg"},{"bike_id":"699b1e27-a688-4171-a21c-6e5f64583427","system_id":"levelo_inurba_marseille","lat":43.27199,"lon":5.39187,"is_reserved":false,"is_disabled":false,"rental_uris":{"android":"levelo://app?vid=699b1e27-a688-4171-a21c-6e5f64583427","ios":"levelo://app?vid=699b1e27-a688-4171-a21c-6e5f64583427"},"vehicle_type_id":"4","last_reported":1734524295,"current_range_meters":28000,"station_id":"ce4bhhp2rcd13ifvqfm0","pricing_plan_id":"cebpf4jnsgd1na2vs0mg"},{"bike_id":"37a70720-02c9-47f2-a3a5-5c86e1bf5527","system_id":"levelo_inurba_marseille","lat":43.27965,"lon":5.38739,"is_reserved":false,"is_disabled":false,"rental_uris":{"android":"levelo://app?vid=37a70720-02c9-47f2-a3a5-5c86e1bf5527","ios":"levelo://app?vid=37a70720-02c9-47f2-a3a5-5c86e1bf5527"},"vehicle_type_id":"4","last_reported":1734524295,"current_range_meters":37600,"station_id":"ce4bhg12rcd13ifvqf80","pricing_plan_id":"cebpf4jnsgd1na2vs0mg"},{"bike_id":"d17ff34e-8aff-4792-ae04-1e7d554545e9","system_id":"levelo_inurba_marseille","lat":43.30541,"lon":5.367,"is_reserved":false,"is_disabled":false,"rental_uris":{"android":"levelo://app?vid=d17ff34e-8aff-4792-ae04-1e7d554545e9","ios":"levelo://app?vid=d17ff34e-8aff-4792-ae04-1e7d554545e9"},"vehicle_type_id":"4","last_reported":1734524295,"current_range_meters":22000,"station_id":"ce4bgrp2rcd13ifvqc9g","pricing_plan_id":"cebpf4jnsgd1na2vs0mg"},{"bike_id":"2c35d799-8445-41f0-9531-f1ab81d4f0aa","system_id":"levelo_inurba_marseille","lat":43.28421,"lon":5.37511,"is_reserved":false,"is_disabled":true,"rental_uris":{"android":"levelo://app?vid=2c35d799-8445-41f0-9531-f1ab81d4f0aa","ios":"levelo://app?vid=2c35d799-8445-41f0-9531-f1ab81d4f0aa"},"vehicle_type_id":"4","last_reported":1734524295,"current_range_meters":28000,"station_id":"ce4bh412rcd13ifvqds0","pricing_plan_id":"cebpf4jnsgd1na2vs0mg"},{"bike_id":"e0c2eddf-4ba9-4754-b0b5-efd80badee74","system_id":"levelo_inurba_marseille","lat":43.25826,"lon":5.39442,"is_reserved":false,"is_disabled":true,"rental_uris":{"android":"levelo://app?vid=e0c2eddf-4ba9-4754-b0b5-efd80badee74","ios":"levelo://app?vid=e0c2eddf-4ba9-4754-b0b5-efd80badee74"},"vehicle_type_id":"4","last_reported":1734524295,"current_range_meters":400,"station_id":"ce4bhip2rcd13ifvqft0","pricing_plan_id":"cebpf4jnsgd1na2vs0mg"},{"bike_id":"fc2c3daa-143d-41d7-8998-f7412d24e8e3","system_id":"levelo_inurba_marseille","lat":43.27998,"lon":5.41642,"is_reserved":false,"is_disabled":false,"rental_uris":{"android":"levelo://app?vid=fc2c3daa-143d-41d7-8998-f7412d24e8e3","ios":"levelo://app?vid=fc2c3daa-143d-41d7-8998-f7412d24e8e3"},"vehicle_type_id":"4","last_reported":1734524295,"current_range_meters":38800,"station_id":"ce4bho12rcd13ifvqh1g","pricing_plan_id":"cebpf4jnsgd1na2vs0mg"},{"bike_id":"7b377d1f-9911-40eb-a4aa-03ed7c53d23e","system_id":"levelo_inurba_marseille","lat":43.27945,"lon":5.41054,"is_reserved":false,"is_disabled":false,"rental_uris":{"android":"levelo://app?vid=7b377d1f-9911-40eb-a4aa-03ed7c53d23e","ios":"levelo://app?vid=7b377d1f-9911-40eb-a4aa-03ed7c53d23e"},"vehicle_type_id":"4","last_reported":1734524295,"current_range_meters":28000,"station_id":"ce4bhnp2rcd13ifvqh0g","pricing_plan_id":"cebpf4jnsgd1na2vs0mg"},{"bike_id":"cb0d39e0-87be-4905-900a-eb4bba4181f3","system_id":"levelo_inurba_marseille","lat":43.30267,"lon":5.3772,"is_reserved":false,"is_disabled":false,"rental_uris":{"android":"levelo://app?vid=cb0d39e0-87be-4905-900a-eb4bba4181f3","ios":"levelo://app?vid=cb0d39e0-87be-4905-900a-eb4bba4181f3"},"vehicle_type_id":"4","last_reported":1734524295,"current_range_meters":6000,"station_id":"ce4bguh2rcd13ifvqcj0","pricing_plan_id":"cebpf4jnsgd1na2vs0mg"},{"bike_id":"68907ca0-038a-4705-886b-af6c122ac485","system_id":"levelo_inurba_marseille","lat":43.23189,"lon":5.39984,"is_reserved":false,"is_disabled":false,"rental_uris":{"android":"levelo://app?vid=68907ca0-038a-4705-886b-af6c122ac485","ios":"levelo://app?vid=68907ca0-038a-4705-886b-af6c122ac485"},"vehicle_type_id":"4","last_reported":1734524295,"current_range_meters":38800,"station_id":"ce4bhn12rcd13ifvqgqg","pricing_plan_id":"cebpf4jnsgd1na2vs0mg"},{"bike_id":"1511eed4-ac45-42ea-8966-c48976b647fd","system_id":"levelo_inurba_marseille","lat":43.29974,"lon":5.37191,"is_reserved":false,"is_disabled":true,"rental_uris":{"android":"levelo://app?vid=1511eed4-ac45-42ea-8966-c48976b647fd","ios":"levelo://app?vid=1511eed4-ac45-42ea-8966-c48976b647fd"},"vehicle_type_id":"4","last_reported":1734524295,"current_range_meters":29600,"station_id":"ce4bgr92rcd13ifvqc7g","pricing_plan_id":"cebpf4jnsgd1na2vs0mg"},{"bike_id":"5be8cabd-d236-4566-a1ee-f54a70bf770a","system_id":"levelo_inurba_marseille","lat":43.23961,"lon":5.36642,"is_reserved":false,"is_disabled":false,"rental_uris":{"android":"levelo://app?vid=5be8cabd-d236-4566-a1ee-f54a70bf770a","ios":"levelo://app?vid=5be8cabd-d236-4566-a1ee-f54a70bf770a"},"vehicle_type_id":"4","last_reported":1734524295,"current_range_meters":34000,"station_id":"ce4bhi12rcd13ifvqfp0","pricing_plan_id":"cebpf4jnsgd1na2vs0mg"},{"bike_id":"340f006d-82bb-40b7-aa81-c62b37c90dc2","system_id":"levelo_inurba_marseille","lat":43.26935,"lon":5.4028,"is_reserved":false,"is_disabled":false,"rental_uris":{"android":"levelo://app?vid=340f006d-82bb-40b7-aa81-c62b37c90dc2","ios":"levelo://app?vid=340f006d-82bb-40b7-aa81-c62b37c90dc2"},"vehicle_type_id":"4","last_reported":1734524295,"current_range_meters":34000,"station_id":"cjm6bp8fraef2m0cb0m0","pricing_plan_id":"cebpf4jnsgd1na2vs0mg"},{"bike_id":"4efe75ef-fb5c-4c18-a2eb-e0bf95e2ef11","system_id":"levelo_inurba_marseille","lat":43.29272,"lon":5.36131,"is_reserved":false,"is_disabled":false,"rental_uris":{"android":"levelo://app?vid=4efe75ef-fb5c-4c18-a2eb-e0bf95e2ef11","ios":"levelo://app?vid=4efe75ef-fb5c-4c18-a2eb-e0bf95e2ef11"},"vehicle_type_id":"4","last_reported":1734524295,"current_range_meters":16400,"station_id":"ce4bhbp2rcd13ifvqerg","pricing_plan_id":"cebpf4jnsgd1na2vs0mg"},{"bike_id":"5d5d6398-1536-408f-a77e-f95a6f0f09ea","system_id":"levelo_inurba_marseille","lat":43.30459,"lon":5.41201,"is_reserved":false,"is_disabled":false,"rental_uris":{"android":"levelo://app?vid=5d5d6398-1536-408f-a77e-f95a6f0f09ea","ios":"levelo://app?vid=5d5d6398-1536-408f-a77e-f95a6f0f09ea"},"vehicle_type_id":"4","last_reported":1734524295,"current_range_meters":36400,"station_id":"ce4bhop2rcd13ifvqh8g","pricing_plan_id":"cebpf4jnsgd1na2vs0mg"},{"bike_id":"4147d1a4-c2e3-4d0d-99e6-5ce7c3faf723","system_id":"levelo_inurba_marseille","lat":43.27569,"lon":5.38423,"is_reserved":false,"is_disabled":false,"rental_uris":{"android":"levelo://app?vid=4147d1a4-c2e3-4d0d-99e6-5ce7c3faf723","ios":"levelo://app?vid=4147d1a4-c2e3-4d0d-99e6-5ce7c3faf723"},"vehicle_type_id":"4","last_reported":1734524295,"current_range_meters":38000,"station_id":"ce4bhh92rcd13ifvqfi0","pricing_plan_id":"cebpf4jnsgd1na2vs0mg"},{"bike_id":"bb337245-7c41-4671-900b-a4d92ae562c6","system_id":"levelo_inurba_marseille","lat":43.2954,"lon":5.39001,"is_reserved":false,"is_disabled":true,"rental_uris":{"android":"levelo://app?vid=bb337245-7c41-4671-900b-a4d92ae562c6","ios":"levelo://app?vid=bb337245-7c41-4671-900b-a4d92ae562c6"},"vehicle_type_id":"4","last_reported":1734524295,"current_range_meters":800,"station_id":"ce4bh3p2rcd13ifvqdp0","pricing_plan_id":"cebpf4jnsgd1na2vs0mg"},{"bike_id":"6f7acd99-77cb-462a-9f2d-c4e504bcc16a","system_id":"levelo_inurba_marseille","lat":43.2319,"lon":5.39982,"is_reserved":false,"is_disabled":false,"rental_uris":{"android":"levelo://app?vid=6f7acd99-77cb-462a-9f2d-c4e504bcc16a","ios":"levelo://app?vid=6f7acd99-77cb-462a-9f2d-c4e504bcc16a"},"vehicle_type_id":"4","last_reported":1734524295,"current_range_meters":32000,"station_id":"ce4bhn12rcd13ifvqgqg","pricing_plan_id":"cebpf4jnsgd1na2vs0mg"},{"bike_id":"758198ff-e63d-4b85-b93f-764196078649","system_id":"levelo_inurba_marseille","lat":43.28719,"lon":5.37916,"is_reserved":false,"is_disabled":false,"rental_uris":{"android":"levelo://app?vid=758198ff-e63d-4b85-b93f-764196078649","ios":"levelo://app?vid=758198ff-e63d-4b85-b93f-764196078649"},"vehicle_type_id":"4","last_reported":1734524295,"current_range_meters":16800,"station_id":"ce4bh9p2rcd13ifvqec0","pricing_plan_id":"cebpf4jnsgd1na2vs0mg"},{"bike_id":"859e7849-50b6-4290-a99c-71e1ce0df12c","system_id":"levelo_inurba_marseille","lat":43.30515,"lon":5.3653,"is_reserved":false,"is_disabled":false,"rental_uris":{"android":"levelo://app?vid=859e7849-50b6-4290-a99c-71e1ce0df12c","ios":"levelo://app?vid=859e7849-50b6-4290-a99c-71e1ce0df12c"},"vehicle_type_id":"4","last_reported":1734524295,"current_range_meters":26000,"station_id":"","pricing_plan_id":"cebpf4jnsgd1na2vs0mg"},{"bike_id":"718c9f14-9215-4ed1-9c03-b172b6d8ceb4","system_id":"levelo_inurba_marseille","lat":43.30926,"lon":5.37108,"is_reserved":false,"is_disabled":false,"rental_uris":{"android":"levelo://app?vid=718c9f14-9215-4ed1-9c03-b172b6d8ceb4","ios":"levelo://app?vid=718c9f14-9215-4ed1-9c03-b172b6d8ceb4"},"vehicle_type_id":"4","last_reported":1734524295,"current_range_meters":19200,"station_id":"","pricing_plan_id":"cebpf4jnsgd1na2vs0mg"},{"bike_id":"5386a7be-6459-42c4-ae9d-709dc68796c6","system_id":"levelo_inurba_marseille","lat":43.23148,"lon":5.43719,"is_reserved":false,"is_disabled":false,"rental_uris":{"android":"levelo://app?vid=5386a7be-6459-42c4-ae9d-709dc68796c6","ios":"levelo://app?vid=5386a7be-6459-42c4-ae9d-709dc68796c6"},"vehicle_type_id":"4","last_reported":1734524295,"current_range_meters":27600,"station_id":"ce4bhmp2rcd13ifvqgog","pricing_plan_id":"cebpf4jnsgd1na2vs0mg"},{"bike_id":"51c3eac9-7c47-4e30-91c8-758a1c42720c","system_id":"levelo_inurba_marseille","lat":43.30118,"lon":5.37418,"is_reserved":false,"is_disabled":false,"rental_uris":{"android":"levelo://app?vid=51c3eac9-7c47-4e30-91c8-758a1c42720c","ios":"levelo://app?vid=51c3eac9-7c47-4e30-91c8-758a1c42720c"},"vehicle_type_id":"4","last_reported":1734524295,"current_range_meters":36800,"station_id":"ce4bgs92rcd13ifvqcc0","pricing_plan_id":"cebpf4jnsgd1na2vs0mg"},{"bike_id":"af4eaee6-86b4-4794-a0bf-f55d8c215536","system_id":"levelo_inurba_marseille","lat":43.29295,"lon":5.37458,"is_reserved":false,"is_disabled":false,"rental_uris":{"android":"levelo://app?vid=af4eaee6-86b4-4794-a0bf-f55d8c215536","ios":"levelo://app?vid=af4eaee6-86b4-4794-a0bf-f55d8c215536"},"vehicle_type_id":"4","last_reported":1734524295,"current_range_meters":32000,"station_id":"ce4bgi12rcd13ifvqb70","pricing_plan_id":"cebpf4jnsgd1na2vs0mg"},{"bike_id":"d704f9f8-9eaa-459d-b8f2-d8ff5a5aeca1","system_id":"levelo_inurba_marseille","lat":43.28456,"lon":5.35885,"is_reserved":false,"is_disabled":false,"rental_uris":{"android":"levelo://app?vid=d704f9f8-9eaa-459d-b8f2-d8ff5a5aeca1","ios":"levelo://app?vid=d704f9f8-9eaa-459d-b8f2-d8ff5a5aeca1"},"vehicle_type_id":"4","last_reported":1734524295,"current_range_meters":2800,"station_id":"ce4bhah2rcd13ifvqei0","pricing_plan_id":"cebpf4jnsgd1na2vs0mg"},{"bike_id":"3adf4377-ebd6-4934-90c6-cbbabf9a6e47","system_id":"levelo_inurba_marseille","lat":43.30112,"lon":5.37426,"is_reserved":false,"is_disabled":false,"rental_uris":{"android":"levelo://app?vid=3adf4377-ebd6-4934-90c6-cbbabf9a6e47","ios":"levelo://app?vid=3adf4377-ebd6-4934-90c6-cbbabf9a6e47"},"vehicle_type_id":"4","last_reported":1734524295,"current_range_meters":26800,"station_id":"ce4bgs92rcd13ifvqcc0","pricing_plan_id":"cebpf4jnsgd1na2vs0mg"},{"bike_id":"eba901e5-0847-4fc0-b2b6-9eb1834c3e7a","system_id":"levelo_inurba_marseille","lat":43.2955,"lon":5.42289,"is_reserved":false,"is_disabled":true,"rental_uris":{"android":"levelo://app?vid=eba901e5-0847-4fc0-b2b6-9eb1834c3e7a","ios":"levelo://app?vid=eba901e5-0847-4fc0-b2b6-9eb1834c3e7a"},"vehicle_type_id":"4","last_reported":1734524295,"current_range_meters":0,"station_id":"ce4bhph2rcd13ifvqhdg","pricing_plan_id":"cebpf4jnsgd1na2vs0mg"},{"bike_id":"345d80f6-1525-4241-80c9-c6920b13eab2","system_id":"levelo_inurba_marseille","lat":43.29539,"lon":5.38548,"is_reserved":false,"is_disabled":true,"rental_uris":{"android":"levelo://app?vid=345d80f6-1525-4241-80c9-c6920b13eab2","ios":"levelo://app?vid=345d80f6-1525-4241-80c9-c6920b13eab2"},"vehicle_type_id":"4","last_reported":1734524295,"current_range_meters":14400,"station_id":"ce4bgih2rcd13ifvqba0","pricing_plan_id":"cebpf4jnsgd1na2vs0mg"},{"bike_id":"fa308170-d410-4ebb-9c48-8411b75f5e3f","system_id":"levelo_inurba_marseille","lat":43.29192,"lon":5.39326,"is_reserved":false,"is_disabled":false,"rental_uris":{"android":"levelo://app?vid=fa308170-d410-4ebb-9c48-8411b75f5e3f","ios":"levelo://app?vid=fa308170-d410-4ebb-9c48-8411b75f5e3f"},"vehicle_type_id":"4","last_reported":1734524295,"current_range_meters":8800,"station_id":"ce4bh192rcd13ifvqdd0","pricing_plan_id":"cebpf4jnsgd1na2vs0mg"},{"bike_id":"d960864d-b0d5-403b-b0db-b1d05e537b85","system_id":"levelo_inurba_marseille","lat":43.31688,"lon":5.40472,"is_reserved":false,"is_disabled":false,"rental_uris":{"android":"levelo://app?vid=d960864d-b0d5-403b-b0db-b1d05e537b85","ios":"levelo://app?vid=d960864d-b0d5-403b-b0db-b1d05e537b85"},"vehicle_type_id":"4","last_reported":1734524295,"current_range_meters":37600,"station_id":"ce4bh012rcd13ifvqd00","pricing_plan_id":"cebpf4jnsgd1na2vs0mg"},{"bike_id":"70953d26-dce8-4249-b87d-2cf670615698","system_id":"levelo_inurba_marseille","lat":43.29568,"lon":5.37514,"is_reserved":false,"is_disabled":false,"rental_uris":{"android":"levelo://app?vid=70953d26-dce8-4249-b87d-2cf670615698","ios":"levelo://app?vid=70953d26-dce8-4249-b87d-2cf670615698"},"vehicle_type_id":"4","last_reported":1734524295,"current_range_meters":32800,"station_id":"ce4bgh92rcd13ifvqb50","pricing_plan_id":"cebpf4jnsgd1na2vs0mg"},{"bike_id":"cc82e870-08ef-494f-b253-103f20211ed0","system_id":"levelo_inurba_marseille","lat":43.29011,"lon":5.38144,"is_reserved":false,"is_disabled":false,"rental_uris":{"android":"levelo://app?vid=cc82e870-08ef-494f-b253-103f20211ed0","ios":"levelo://app?vid=cc82e870-08ef-494f-b253-103f20211ed0"},"vehicle_type_id":"4","last_reported":1734524295,"current_range_meters":38000,"station_id":"ce4bh4p2rcd13ifvqe1g","pricing_plan_id":"cebpf4jnsgd1na2vs0mg"},{"bike_id":"40414c6b-a215-4532-a4fd-e399ea747eea","system_id":"levelo_inurba_marseille","lat":43.24661,"lon":5.3818,"is_reserved":false,"is_disabled":false,"rental_uris":{"android":"levelo://app?vid=40414c6b-a215-4532-a4fd-e399ea747eea","ios":"levelo://app?vid=40414c6b-a215-4532-a4fd-e399ea747eea"},"vehicle_type_id":"4","last_reported":1734524295,"current_range_meters":36800,"station_id":"ce4bhih2rcd13ifvqfr0","pricing_plan_id":"cebpf4jnsgd1na2vs0mg"},{"bike_id":"817f72cf-47c4-4fc2-9295-9e6ff094129c","system_id":"levelo_inurba_marseille","lat":43.25107,"lon":5.4033,"is_reserved":false,"is_disabled":false,"rental_uris":{"android":"levelo://app?vid=817f72cf-47c4-4fc2-9295-9e6ff094129c","ios":"levelo://app?vid=817f72cf-47c4-4fc2-9295-9e6ff094129c"},"vehicle_type_id":"4","last_reported":1734524295,"current_range_meters":29600,"station_id":"ce4bhlh2rcd13ifvqgig","pricing_plan_id":"cebpf4jnsgd1na2vs0mg"},{"bike_id":"ed3a8591-316e-49ab-a80e-c8c5d9c39c56","system_id":"levelo_inurba_marseille","lat":43.30098,"lon":5.3908,"is_reserved":false,"is_disabled":true,"rental_uris":{"android":"levelo://app?vid=ed3a8591-316e-49ab-a80e-c8c5d9c39c56","ios":"levelo://app?vid=ed3a8591-316e-49ab-a80e-c8c5d9c39c56"},"vehicle_type_id":"4","last_reported":1734524295,"current_range_meters":32000,"station_id":"ce4bh192rcd13ifvqdb0","pricing_plan_id":"cebpf4jnsgd1na2vs0mg"},{"bike_id":"5770c4e7-e809-41de-bffd-f3c3c6721079","system_id":"levelo_inurba_marseille","lat":43.30134,"lon":5.3984,"is_reserved":false,"is_disabled":false,"rental_uris":{"android":"levelo://app?vid=5770c4e7-e809-41de-bffd-f3c3c6721079","ios":"levelo://app?vid=5770c4e7-e809-41de-bffd-f3c3c6721079"},"vehicle_type_id":"4","last_reported":1734524295,"current_range_meters":27200,"station_id":"ce4bh0h2rcd13ifvqd40","pricing_plan_id":"cebpf4jnsgd1na2vs0mg"},{"bike_id":"3f684ade-8ff8-412b-8c78-ba957e925730","system_id":"levelo_inurba_marseille","lat":43.30538,"lon":5.36701,"is_reserved":false,"is_disabled":false,"rental_uris":{"android":"levelo://app?vid=3f684ade-8ff8-412b-8c78-ba957e925730","ios":"levelo://app?vid=3f684ade-8ff8-412b-8c78-ba957e925730"},"vehicle_type_id":"4","last_reported":1734524295,"current_range_meters":28400,"station_id":"ce4bgrp2rcd13ifvqc9g","pricing_plan_id":"cebpf4jnsgd1na2vs0mg"},{"bike_id":"ef24ff30-5f6c-43ae-96ea-70b103187eee","system_id":"levelo_inurba_marseille","lat":43.29518,"lon":5.39028,"is_reserved":false,"is_disabled":false,"rental_uris":{"android":"levelo://app?vid=ef24ff30-5f6c-43ae-96ea-70b103187eee","ios":"levelo://app?vid=ef24ff30-5f6c-43ae-96ea-70b103187eee"},"vehicle_type_id":"4","last_reported":1734524295,"current_range_meters":3600,"station_id":"ce4bh3p2rcd13ifvqdp0","pricing_plan_id":"cebpf4jnsgd1na2vs0mg"},{"bike_id":"1de05ea6-7ffc-4755-9d5c-2404e5a173c7","system_id":"levelo_inurba_marseille","lat":43.23068,"lon":5.3549,"is_reserved":false,"is_disabled":false,"rental_uris":{"android":"levelo://app?vid=1de05ea6-7ffc-4755-9d5c-2404e5a173c7","ios":"levelo://app?vid=1de05ea6-7ffc-4755-9d5c-2404e5a173c7"},"vehicle_type_id":"4","last_reported":1734524295,"current_range_meters":38000,"station_id":"cpo3342slgdg3j2ifvpg","pricing_plan_id":"cebpf4jnsgd1na2vs0mg"},{"bike_id":"70a23328-6629-4f07-b203-ef843751eafc","system_id":"levelo_inurba_marseille","lat":43.27189,"lon":5.40985,"is_reserved":false,"is_disabled":true,"rental_uris":{"android":"levelo://app?vid=70a23328-6629-4f07-b203-ef843751eafc","ios":"levelo://app?vid=70a23328-6629-4f07-b203-ef843751eafc"},"vehicle_type_id":"4","last_reported":1734524295,"current_range_meters":25200,"station_id":"ce4bhl12rcd13ifvqgf0","pricing_plan_id":"cebpf4jnsgd1na2vs0mg"},{"bike_id":"2d9f4e58-aed4-42e5-b03f-7c067dbd464d","system_id":"levelo_inurba_marseille","lat":43.2707,"lon":5.42286,"is_reserved":false,"is_disabled":false,"rental_uris":{"android":"levelo://app?vid=2d9f4e58-aed4-42e5-b03f-7c067dbd464d","ios":"levelo://app?vid=2d9f4e58-aed4-42e5-b03f-7c067dbd464d"},"vehicle_type_id":"4","last_reported":1734524295,"current_range_meters":38800,"station_id":"ce4bhk92rcd13ifvqgb0","pricing_plan_id":"cebpf4jnsgd1na2vs0mg"},{"bike_id":"882de910-9b3d-43e3-b04c-ac39dcd38f96","system_id":"levelo_inurba_marseille","lat":43.30539,"lon":5.36711,"is_reserved":false,"is_disabled":false,"rental_uris":{"android":"levelo://app?vid=882de910-9b3d-43e3-b04c-ac39dcd38f96","ios":"levelo://app?vid=882de910-9b3d-43e3-b04c-ac39dcd38f96"},"vehicle_type_id":"4","last_reported":1734524295,"current_range_meters":38800,"station_id":"ce4bgrp2rcd13ifvqc9g","pricing_plan_id":"cebpf4jnsgd1na2vs0mg"},{"bike_id":"4e24cd74-c1ed-48e3-ae04-94fae1db75bb","system_id":"levelo_inurba_marseille","lat":43.27074,"lon":5.4228,"is_reserved":false,"is_disabled":false,"rental_uris":{"android":"levelo://app?vid=4e24cd74-c1ed-48e3-ae04-94fae1db75bb","ios":"levelo://app?vid=4e24cd74-c1ed-48e3-ae04-94fae1db75bb"},"vehicle_type_id":"4","last_reported":1734524295,"current_range_meters":29600,"station_id":"ce4bhk92rcd13ifvqgb0","pricing_plan_id":"cebpf4jnsgd1na2vs0mg"},{"bike_id":"7e876e85-730f-4bb1-8e78-bc65c4d6fe75","system_id":"levelo_inurba_marseille","lat":43.29036,"lon":5.35932,"is_reserved":false,"is_disabled":false,"rental_uris":{"android":"levelo://app?vid=7e876e85-730f-4bb1-8e78-bc65c4d6fe75","ios":"levelo://app?vid=7e876e85-730f-4bb1-8e78-bc65c4d6fe75"},"vehicle_type_id":"4","last_reported":1734524295,"current_range_meters":27200,"station_id":"ce4bha92rcd13ifvqeg0","pricing_plan_id":"cebpf4jnsgd1na2vs0mg"},{"bike_id":"9cdf99dd-620c-4525-b072-c262dd4f846d","system_id":"levelo_inurba_marseille","lat":43.27675,"lon":5.38878,"is_reserved":false,"is_disabled":false,"rental_uris":{"android":"levelo://app?vid=9cdf99dd-620c-4525-b072-c262dd4f846d","ios":"levelo://app?vid=9cdf99dd-620c-4525-b072-c262dd4f846d"},"vehicle_type_id":"4","last_reported":1734524295,"current_range_meters":30000,"station_id":"ce4bhi12rcd13ifvqfo0","pricing_plan_id":"cebpf4jnsgd1na2vs0mg"},{"bike_id":"0e61b8dd-d36b-4d72-a811-0c22f38b7106","system_id":"levelo_inurba_marseille","lat":43.29612,"lon":5.37726,"is_reserved":false,"is_disabled":false,"rental_uris":{"android":"levelo://app?vid=0e61b8dd-d36b-4d72-a811-0c22f38b7106","ios":"levelo://app?vid=0e61b8dd-d36b-4d72-a811-0c22f38b7106"},"vehicle_type_id":"4","last_reported":1734524295,"current_range_meters":6000,"station_id":"ce4bgi92rcd13ifvqb90","pricing_plan_id":"cebpf4jnsgd1na2vs0mg"},{"bike_id":"a431eb71-5ef2-4969-a055-e8026c7f5ae4","system_id":"levelo_inurba_marseille","lat":43.27828,"lon":5.39201,"is_reserved":false,"is_disabled":true,"rental_uris":{"android":"levelo://app?vid=a431eb71-5ef2-4969-a055-e8026c7f5ae4","ios":"levelo://app?vid=a431eb71-5ef2-4969-a055-e8026c7f5ae4"},"vehicle_type_id":"4","last_reported":1734524295,"current_range_meters":35600,"station_id":"ce4bhjp2rcd13ifvqga0","pricing_plan_id":"cebpf4jnsgd1na2vs0mg"},{"bike_id":"b535ec1c-9db9-4c19-aaa2-8b2c6cd246e2","system_id":"levelo_inurba_marseille","lat":43.29091,"lon":5.3816,"is_reserved":false,"is_disabled":false,"rental_uris":{"android":"levelo://app?vid=b535ec1c-9db9-4c19-aaa2-8b2c6cd246e2","ios":"levelo://app?vid=b535ec1c-9db9-4c19-aaa2-8b2c6cd246e2"},"vehicle_type_id":"4","last_reported":1734524295,"current_range_meters":38400,"station_id":"ce4bh512rcd13ifvqe2g","pricing_plan_id":"cebpf4jnsgd1na2vs0mg"},{"bike_id":"09f351ae-7aac-46c8-8bcf-894bd17577a8","system_id":"levelo_inurba_marseille","lat":43.31364,"lon":5.36693,"is_reserved":false,"is_disabled":false,"rental_uris":{"android":"levelo://app?vid=09f351ae-7aac-46c8-8bcf-894bd17577a8","ios":"levelo://app?vid=09f351ae-7aac-46c8-8bcf-894bd17577a8"},"vehicle_type_id":"4","last_reported":1734524295,"current_range_meters":39200,"station_id":"ce4bgr92rcd13ifvqc6g","pricing_plan_id":"cebpf4jnsgd1na2vs0mg"},{"bike_id":"6fdc6c93-3888-475f-aca7-5a17243ac6bb","system_id":"levelo_inurba_marseille","lat":43.29736,"lon":5.37684,"is_reserved":false,"is_disabled":false,"rental_uris":{"android":"levelo://app?vid=6fdc6c93-3888-475f-aca7-5a17243ac6bb","ios":"levelo://app?vid=6fdc6c93-3888-475f-aca7-5a17243ac6bb"},"vehicle_type_id":"4","last_reported":1734524295,"current_range_meters":25600,"station_id":"ce4bgkh2rcd13ifvqbl0","pricing_plan_id":"cebpf4jnsgd1na2vs0mg"},{"bike_id":"3366bd04-b01f-422f-ae3f-5c53109fb8e2","system_id":"levelo_inurba_marseille","lat":43.29573,"lon":5.37511,"is_reserved":false,"is_disabled":false,"rental_uris":{"android":"levelo://app?vid=3366bd04-b01f-422f-ae3f-5c53109fb8e2","ios":"levelo://app?vid=3366bd04-b01f-422f-ae3f-5c53109fb8e2"},"vehicle_type_id":"4","last_reported":1734524295,"current_range_meters":18000,"station_id":"ce4bgh92rcd13ifvqb50","pricing_plan_id":"cebpf4jnsgd1na2vs0mg"},{"bike_id":"ada1f474-7a65-44b0-b9d1-f87dc55a46c7","system_id":"levelo_inurba_marseille","lat":43.29708,"lon":5.37701,"is_reserved":false,"is_disabled":false,"rental_uris":{"android":"levelo://app?vid=ada1f474-7a65-44b0-b9d1-f87dc55a46c7","ios":"levelo://app?vid=ada1f474-7a65-44b0-b9d1-f87dc55a46c7"},"vehicle_type_id":"4","last_reported":1734524295,"current_range_meters":17600,"station_id":"ce4bgkh2rcd13ifvqbl0","pricing_plan_id":"cebpf4jnsgd1na2vs0mg"},{"bike_id":"6204ddf5-bd18-4c7e-9620-cfcd256e2412","system_id":"levelo_inurba_marseille","lat":43.30135,"lon":5.39867,"is_reserved":false,"is_disabled":false,"rental_uris":{"android":"levelo://app?vid=6204ddf5-bd18-4c7e-9620-cfcd256e2412","ios":"levelo://app?vid=6204ddf5-bd18-4c7e-9620-cfcd256e2412"},"vehicle_type_id":"4","last_reported":1734524295,"current_range_meters":8800,"station_id":"ce4bh0h2rcd13ifvqd40","pricing_plan_id":"cebpf4jnsgd1na2vs0mg"},{"bike_id":"88e10abe-444f-4f11-9881-c1d1b845c66a","system_id":"levelo_inurba_marseille","lat":43.31221,"lon":5.36862,"is_reserved":false,"is_disabled":false,"rental_uris":{"android":"levelo://app?vid=88e10abe-444f-4f11-9881-c1d1b845c66a","ios":"levelo://app?vid=88e10abe-444f-4f11-9881-c1d1b845c66a"},"vehicle_type_id":"4","last_reported":1734524295,"current_range_meters":28000,"station_id":"ce4bgl92rcd13ifvqbq0","pricing_plan_id":"cebpf4jnsgd1na2vs0mg"},{"bike_id":"bba85a74-2c52-4269-a2b5-9bc2de67d67d","system_id":"levelo_inurba_marseille","lat":43.3055,"lon":5.3654,"is_reserved":false,"is_disabled":false,"rental_uris":{"android":"levelo://app?vid=bba85a74-2c52-4269-a2b5-9bc2de67d67d","ios":"levelo://app?vid=bba85a74-2c52-4269-a2b5-9bc2de67d67d"},"vehicle_type_id":"4","last_reported":1734524295,"current_range_meters":35200,"station_id":"ce4bgs12rcd13ifvqcag","pricing_plan_id":"cebpf4jnsgd1na2vs0mg"},{"bike_id":"cab5cb01-b33a-421c-bfaf-c7630f90de8b","system_id":"levelo_inurba_marseille","lat":43.29039,"lon":5.39972,"is_reserved":false,"is_disabled":true,"rental_uris":{"android":"levelo://app?vid=cab5cb01-b33a-421c-bfaf-c7630f90de8b","ios":"levelo://app?vid=cab5cb01-b33a-421c-bfaf-c7630f90de8b"},"vehicle_type_id":"4","last_reported":1734524295,"current_range_meters":0,"station_id":"ce4bh392rcd13ifvqdm0","pricing_plan_id":"cebpf4jnsgd1na2vs0mg"},{"bike_id":"78f5dcee-b6ca-4cfa-ae6f-ebcf64be1236","system_id":"levelo_inurba_marseille","lat":43.32351,"lon":5.4063,"is_reserved":false,"is_disabled":true,"rental_uris":{"android":"levelo://app?vid=78f5dcee-b6ca-4cfa-ae6f-ebcf64be1236","ios":"levelo://app?vid=78f5dcee-b6ca-4cfa-ae6f-ebcf64be1236"},"vehicle_type_id":"4","last_reported":1734524295,"current_range_meters":0,"station_id":"ce4bhq92rcd13ifvqhjg","pricing_plan_id":"cebpf4jnsgd1na2vs0mg"},{"bike_id":"90a98cf0-a7f6-462c-806d-d1075980e8e3","system_id":"levelo_inurba_marseille","lat":43.30137,"lon":5.37422,"is_reserved":false,"is_disabled":false,"rental_uris":{"android":"levelo://app?vid=90a98cf0-a7f6-462c-806d-d1075980e8e3","ios":"levelo://app?vid=90a98cf0-a7f6-462c-806d-d1075980e8e3"},"vehicle_type_id":"4","last_reported":1734524295,"current_range_meters":27600,"station_id":"ce4bgs92rcd13ifvqcc0","pricing_plan_id":"cebpf4jnsgd1na2vs0mg"},{"bike_id":"a33b825e-c779-4129-842f-aeba22c7390a","system_id":"levelo_inurba_marseille","lat":43.31685,"lon":5.40462,"is_reserved":false,"is_disabled":false,"rental_uris":{"android":"levelo://app?vid=a33b825e-c779-4129-842f-aeba22c7390a","ios":"levelo://app?vid=a33b825e-c779-4129-842f-aeba22c7390a"},"vehicle_type_id":"4","last_reported":1734524295,"current_range_meters":36800,"station_id":"ce4bh012rcd13ifvqd00","pricing_plan_id":"cebpf4jnsgd1na2vs0mg"},{"bike_id":"680358db-eb64-4f35-bba9-4d9ebd5f23e1","system_id":"levelo_inurba_marseille","lat":43.28413,"lon":5.34992,"is_reserved":false,"is_disabled":false,"rental_uris":{"android":"levelo://app?vid=680358db-eb64-4f35-bba9-4d9ebd5f23e1","ios":"levelo://app?vid=680358db-eb64-4f35-bba9-4d9ebd5f23e1"},"vehicle_type_id":"4","last_reported":1734524295,"current_range_meters":9200,"station_id":"ce4bhbh2rcd13ifvqepg","pricing_plan_id":"cebpf4jnsgd1na2vs0mg"},{"bike_id":"b13b811d-e88d-46d2-8d0c-84e3cfc06dd9","system_id":"levelo_inurba_marseille","lat":43.29623,"lon":5.37721,"is_reserved":false,"is_disabled":false,"rental_uris":{"android":"levelo://app?vid=b13b811d-e88d-46d2-8d0c-84e3cfc06dd9","ios":"levelo://app?vid=b13b811d-e88d-46d2-8d0c-84e3cfc06dd9"},"vehicle_type_id":"4","last_reported":1734524295,"current_range_meters":38800,"station_id":"ce4bgi92rcd13ifvqb90","pricing_plan_id":"cebpf4jnsgd1na2vs0mg"},{"bike_id":"0bd5d813-d89e-42f3-8ce9-c06fb9ffedaa","system_id":"levelo_inurba_marseille","lat":43.28916,"lon":5.39647,"is_reserved":false,"is_disabled":true,"rental_uris":{"android":"levelo://app?vid=0bd5d813-d89e-42f3-8ce9-c06fb9ffedaa","ios":"levelo://app?vid=0bd5d813-d89e-42f3-8ce9-c06fb9ffedaa"},"vehicle_type_id":"4","last_reported":1734524295,"current_range_meters":34000,"station_id":"ce4bh3h2rcd13ifvqdn0","pricing_plan_id":"cebpf4jnsgd1na2vs0mg"},{"bike_id":"71b79366-7b6a-4615-94ac-c3a523b2d5b8","system_id":"levelo_inurba_marseille","lat":43.31081,"lon":5.42434,"is_reserved":false,"is_disabled":true,"rental_uris":{"android":"levelo://app?vid=71b79366-7b6a-4615-94ac-c3a523b2d5b8","ios":"levelo://app?vid=71b79366-7b6a-4615-94ac-c3a523b2d5b8"},"vehicle_type_id":"4","last_reported":1734524295,"current_range_meters":38400,"station_id":"ce4bhp92rcd13ifvqhag","pricing_plan_id":"cebpf4jnsgd1na2vs0mg"},{"bike_id":"3f37807f-d28e-422d-981f-3b66e1fb21df","system_id":"levelo_inurba_marseille","lat":43.29847,"lon":5.36264,"is_reserved":false,"is_disabled":false,"rental_uris":{"android":"levelo://app?vid=3f37807f-d28e-422d-981f-3b66e1fb21df","ios":"levelo://app?vid=3f37807f-d28e-422d-981f-3b66e1fb21df"},"vehicle_type_id":"4","last_reported":1734524295,"current_range_meters":39200,"station_id":"ce4bgpp2rcd13ifvqc3g","pricing_plan_id":"cebpf4jnsgd1na2vs0mg"},{"bike_id":"48eca84b-3b6e-406c-a6a3-66b232db0023","system_id":"levelo_inurba_marseille","lat":43.231865,"lon":5.399905,"is_reserved":false,"is_disabled":false,"rental_uris":{"android":"levelo://app?vid=48eca84b-3b6e-406c-a6a3-66b232db0023","ios":"levelo://app?vid=48eca84b-3b6e-406c-a6a3-66b232db0023"},"vehicle_type_id":"4","last_reported":1734524295,"current_range_meters":27200,"station_id":"ce4bhn12rcd13ifvqgqg","pricing_plan_id":"cebpf4jnsgd1na2vs0mg"},{"bike_id":"e06e5437-0ec2-4fc8-8eea-3b1bd1eae0c0","system_id":"levelo_inurba_marseille","lat":43.282824,"lon":5.350843,"is_reserved":false,"is_disabled":false,"rental_uris":{"android":"levelo://app?vid=e06e5437-0ec2-4fc8-8eea-3b1bd1eae0c0","ios":"levelo://app?vid=e06e5437-0ec2-4fc8-8eea-3b1bd1eae0c0"},"vehicle_type_id":"4","last_reported":1734524295,"current_range_meters":35200,"station_id":"ce4bhbp2rcd13ifvqerg","pricing_plan_id":"cebpf4jnsgd1na2vs0mg"},{"bike_id":"9a9ca54f-8f83-4db0-b780-a7eb0fa7f88d","system_id":"levelo_inurba_marseille","lat":43.26024,"lon":5.37563,"is_reserved":false,"is_disabled":false,"rental_uris":{"android":"levelo://app?vid=9a9ca54f-8f83-4db0-b780-a7eb0fa7f88d","ios":"levelo://app?vid=9a9ca54f-8f83-4db0-b780-a7eb0fa7f88d"},"vehicle_type_id":"4","last_reported":1734524295,"current_range_meters":34000,"station_id":"ce4bhgh2rcd13ifvqfa0","pricing_plan_id":"cebpf4jnsgd1na2vs0mg"},{"bike_id":"e72fa642-30df-464a-831c-61ff9cf06808","system_id":"levelo_inurba_marseille","lat":43.23054,"lon":5.35511,"is_reserved":false,"is_disabled":false,"rental_uris":{"android":"levelo://app?vid=e72fa642-30df-464a-831c-61ff9cf06808","ios":"levelo://app?vid=e72fa642-30df-464a-831c-61ff9cf06808"},"vehicle_type_id":"4","last_reported":1734524295,"current_range_meters":38000,"station_id":"cpo3342slgdg3j2ifvpg","pricing_plan_id":"cebpf4jnsgd1na2vs0mg"},{"bike_id":"e83644c1-43ca-4b15-ba38-3a50408b1edd","system_id":"levelo_inurba_marseille","lat":43.31687,"lon":5.40472,"is_reserved":false,"is_disabled":false,"rental_uris":{"android":"levelo://app?vid=e83644c1-43ca-4b15-ba38-3a50408b1edd","ios":"levelo://app?vid=e83644c1-43ca-4b15-ba38-3a50408b1edd"},"vehicle_type_id":"4","last_reported":1734524295,"current_range_meters":32000,"station_id":"ce4bh012rcd13ifvqd00","pricing_plan_id":"cebpf4jnsgd1na2vs0mg"},{"bike_id":"6861fa60-a58b-452f-b86a-fbd1fe2bd5fb","system_id":"levelo_inurba_marseille","lat":43.29278,"lon":5.40116,"is_reserved":false,"is_disabled":false,"rental_uris":{"android":"levelo://app?vid=6861fa60-a58b-452f-b86a-fbd1fe2bd5fb","ios":"levelo://app?vid=6861fa60-a58b-452f-b86a-fbd1fe2bd5fb"},"vehicle_type_id":"4","last_reported":1734524295,"current_range_meters":20400,"station_id":"ce4bh312rcd13ifvqdk0","pricing_plan_id":"cebpf4jnsgd1na2vs0mg"},{"bike_id":"f2836691-c255-4063-b805-9dc1c47daeee","system_id":"levelo_inurba_marseille","lat":43.31676,"lon":5.40487,"is_reserved":false,"is_disabled":false,"rental_uris":{"android":"levelo://app?vid=f2836691-c255-4063-b805-9dc1c47daeee","ios":"levelo://app?vid=f2836691-c255-4063-b805-9dc1c47daeee"},"vehicle_type_id":"4","last_reported":1734524295,"current_range_meters":26800,"station_id":"ce4bh012rcd13ifvqd00","pricing_plan_id":"cebpf4jnsgd1na2vs0mg"},{"bike_id":"cbf6fee9-e487-4c25-8f97-84226fee2ecc","system_id":"levelo_inurba_marseille","lat":43.29714,"lon":5.36615,"is_reserved":false,"is_disabled":false,"rental_uris":{"android":"levelo://app?vid=cbf6fee9-e487-4c25-8f97-84226fee2ecc","ios":"levelo://app?vid=cbf6fee9-e487-4c25-8f97-84226fee2ecc"},"vehicle_type_id":"4","last_reported":1734524295,"current_range_meters":18800,"station_id":"ce4bgn12rcd13ifvqbt0","pricing_plan_id":"cebpf4jnsgd1na2vs0mg"},{"bike_id":"9d01e7a4-85f9-4e45-88a5-cf7c2e30d396","system_id":"levelo_inurba_marseille","lat":43.28933,"lon":5.36641,"is_reserved":false,"is_disabled":false,"rental_uris":{"android":"levelo://app?vid=9d01e7a4-85f9-4e45-88a5-cf7c2e30d396","ios":"levelo://app?vid=9d01e7a4-85f9-4e45-88a5-cf7c2e30d396"},"vehicle_type_id":"4","last_reported":1734524295,"current_range_meters":38800,"station_id":"ce4bhap2rcd13ifvqek0","pricing_plan_id":"cebpf4jnsgd1na2vs0mg"},{"bike_id":"f65fc50c-1ed9-4e6e-9871-4862e95ec14b","system_id":"levelo_inurba_marseille","lat":43.25082,"lon":5.39523,"is_reserved":false,"is_disabled":false,"rental_uris":{"android":"levelo://app?vid=f65fc50c-1ed9-4e6e-9871-4862e95ec14b","ios":"levelo://app?vid=f65fc50c-1ed9-4e6e-9871-4862e95ec14b"},"vehicle_type_id":"4","last_reported":1734524295,"current_range_meters":37600,"station_id":"ce4bhm12rcd13ifvqgkg","pricing_plan_id":"cebpf4jnsgd1na2vs0mg"},{"bike_id":"94920b07-c7e3-4bf9-8036-143bc93c6beb","system_id":"levelo_inurba_marseille","lat":43.257246,"lon":5.411041,"is_reserved":false,"is_disabled":false,"rental_uris":{"android":"levelo://app?vid=94920b07-c7e3-4bf9-8036-143bc93c6beb","ios":"levelo://app?vid=94920b07-c7e3-4bf9-8036-143bc93c6beb"},"vehicle_type_id":"4","last_reported":1734524295,"current_range_meters":36000,"station_id":"ce4bhkp2rcd13ifvqgd0","pricing_plan_id":"cebpf4jnsgd1na2vs0mg"},{"bike_id":"f84085df-d25a-4cac-8605-06fd41b8c961","system_id":"levelo_inurba_marseille","lat":43.31495,"lon":5.37308,"is_reserved":false,"is_disabled":false,"rental_uris":{"android":"levelo://app?vid=f84085df-d25a-4cac-8605-06fd41b8c961","ios":"levelo://app?vid=f84085df-d25a-4cac-8605-06fd41b8c961"},"vehicle_type_id":"4","last_reported":1734524295,"current_range_meters":19200,"station_id":"ce4bgt12rcd13ifvqcd0","pricing_plan_id":"cebpf4jnsgd1na2vs0mg"},{"bike_id":"c8399855-72d4-4f25-aa5a-52a18924a7b8","system_id":"levelo_inurba_marseille","lat":43.24167,"lon":5.3639,"is_reserved":false,"is_disabled":false,"rental_uris":{"android":"levelo://app?vid=c8399855-72d4-4f25-aa5a-52a18924a7b8","ios":"levelo://app?vid=c8399855-72d4-4f25-aa5a-52a18924a7b8"},"vehicle_type_id":"4","last_reported":1734524295,"current_range_meters":7200,"station_id":"cpo36qri1sfpv3e86is0","pricing_plan_id":"cebpf4jnsgd1na2vs0mg"},{"bike_id":"f8b9f595-57de-4f40-884a-1ccbe4ed31e9","system_id":"levelo_inurba_marseille","lat":43.316987,"lon":5.404633,"is_reserved":false,"is_disabled":true,"rental_uris":{"android":"levelo://app?vid=f8b9f595-57de-4f40-884a-1ccbe4ed31e9","ios":"levelo://app?vid=f8b9f595-57de-4f40-884a-1ccbe4ed31e9"},"vehicle_type_id":"4","last_reported":1734524295,"current_range_meters":0,"station_id":"ce4bh012rcd13ifvqd00","pricing_plan_id":"cebpf4jnsgd1na2vs0mg"},{"bike_id":"b4ed7494-2f65-4afe-b33e-9db350da2ad6","system_id":"levelo_inurba_marseille","lat":43.27049,"lon":5.40265,"is_reserved":false,"is_disabled":false,"rental_uris":{"android":"levelo://app?vid=b4ed7494-2f65-4afe-b33e-9db350da2ad6","ios":"levelo://app?vid=b4ed7494-2f65-4afe-b33e-9db350da2ad6"},"vehicle_type_id":"4","last_reported":1734524295,"current_range_meters":31200,"station_id":"ce4bhk92rcd13ifvqgc0","pricing_plan_id":"cebpf4jnsgd1na2vs0mg"},{"bike_id":"717ddaa3-8add-436c-8391-6d3288406eee","system_id":"levelo_inurba_marseille","lat":43.29034,"lon":5.38128,"is_reserved":false,"is_disabled":false,"rental_uris":{"android":"levelo://app?vid=717ddaa3-8add-436c-8391-6d3288406eee","ios":"levelo://app?vid=717ddaa3-8add-436c-8391-6d3288406eee"},"vehicle_type_id":"4","last_reported":1734524295,"current_range_meters":10800,"station_id":"ce4bh4p2rcd13ifvqe1g","pricing_plan_id":"cebpf4jnsgd1na2vs0mg"},{"bike_id":"6a8c0392-5811-45c9-8265-4b3d3e79a7b1","system_id":"levelo_inurba_marseille","lat":43.2929,"lon":5.37417,"is_reserved":false,"is_disabled":false,"rental_uris":{"android":"levelo://app?vid=6a8c0392-5811-45c9-8265-4b3d3e79a7b1","ios":"levelo://app?vid=6a8c0392-5811-45c9-8265-4b3d3e79a7b1"},"vehicle_type_id":"4","last_reported":1734524295,"current_range_meters":38800,"station_id":"ce4bgi12rcd13ifvqb70","pricing_plan_id":"cebpf4jnsgd1na2vs0mg"},{"bike_id":"c1e554e0-e3e1-435f-b510-7f6261e7c845","system_id":"levelo_inurba_marseille","lat":43.27068,"lon":5.42279,"is_reserved":false,"is_disabled":false,"rental_uris":{"android":"levelo://app?vid=c1e554e0-e3e1-435f-b510-7f6261e7c845","ios":"levelo://app?vid=c1e554e0-e3e1-435f-b510-7f6261e7c845"},"vehicle_type_id":"4","last_reported":1734524295,"current_range_meters":34000,"station_id":"ce4bhk92rcd13ifvqgb0","pricing_plan_id":"cebpf4jnsgd1na2vs0mg"},{"bike_id":"5a0b8173-0159-4031-b6e8-cf65e6901cc7","system_id":"levelo_inurba_marseille","lat":43.27998,"lon":5.41667,"is_reserved":false,"is_disabled":false,"rental_uris":{"android":"levelo://app?vid=5a0b8173-0159-4031-b6e8-cf65e6901cc7","ios":"levelo://app?vid=5a0b8173-0159-4031-b6e8-cf65e6901cc7"},"vehicle_type_id":"4","last_reported":1734524295,"current_range_meters":38000,"station_id":"ce4bho12rcd13ifvqh1g","pricing_plan_id":"cebpf4jnsgd1na2vs0mg"},{"bike_id":"96f6c28f-4b43-4b88-ba3a-5c5a3fc06c6e","system_id":"levelo_inurba_marseille","lat":43.2706,"lon":5.40267,"is_reserved":false,"is_disabled":false,"rental_uris":{"android":"levelo://app?vid=96f6c28f-4b43-4b88-ba3a-5c5a3fc06c6e","ios":"levelo://app?vid=96f6c28f-4b43-4b88-ba3a-5c5a3fc06c6e"},"vehicle_type_id":"4","last_reported":1734524295,"current_range_meters":35200,"station_id":"ce4bhk92rcd13ifvqgc0","pricing_plan_id":"cebpf4jnsgd1na2vs0mg"},{"bike_id":"0964a333-009c-43df-a369-e7b7f1f82c22","system_id":"levelo_inurba_marseille","lat":43.30544,"lon":5.367,"is_reserved":false,"is_disabled":true,"rental_uris":{"android":"levelo://app?vid=0964a333-009c-43df-a369-e7b7f1f82c22","ios":"levelo://app?vid=0964a333-009c-43df-a369-e7b7f1f82c22"},"vehicle_type_id":"4","last_reported":1734524295,"current_range_meters":28000,"station_id":"","pricing_plan_id":"cebpf4jnsgd1na2vs0mg"},{"bike_id":"236b0323-271b-42c3-8b75-f1964a484b08","system_id":"levelo_inurba_marseille","lat":43.27672,"lon":5.38882,"is_reserved":false,"is_disabled":false,"rental_uris":{"android":"levelo://app?vid=236b0323-271b-42c3-8b75-f1964a484b08","ios":"levelo://app?vid=236b0323-271b-42c3-8b75-f1964a484b08"},"vehicle_type_id":"4","last_reported":1734524295,"current_range_meters":16000,"station_id":"ce4bhi12rcd13ifvqfo0","pricing_plan_id":"cebpf4jnsgd1na2vs0mg"},{"bike_id":"63b57116-04b0-4f6d-a836-38810b2d83d5","system_id":"levelo_inurba_marseille","lat":43.305345,"lon":5.384345,"is_reserved":false,"is_disabled":false,"rental_uris":{"android":"levelo://app?vid=63b57116-04b0-4f6d-a836-38810b2d83d5","ios":"levelo://app?vid=63b57116-04b0-4f6d-a836-38810b2d83d5"},"vehicle_type_id":"4","last_reported":1734524295,"current_range_meters":24000,"station_id":"ce4bgg92rcd13ifvqb30","pricing_plan_id":"cebpf4jnsgd1na2vs0mg"},{"bike_id":"45c57373-e320-42d1-a25e-adffca0c3f8e","system_id":"levelo_inurba_marseille","lat":43.30133,"lon":5.37418,"is_reserved":false,"is_disabled":false,"rental_uris":{"android":"levelo://app?vid=45c57373-e320-42d1-a25e-adffca0c3f8e","ios":"levelo://app?vid=45c57373-e320-42d1-a25e-adffca0c3f8e"},"vehicle_type_id":"4","last_reported":1734524295,"current_range_meters":35600,"station_id":"","pricing_plan_id":"cebpf4jnsgd1na2vs0mg"},{"bike_id":"9d2aefec-f4a3-4a23-a13a-c09b46ffe2e4","system_id":"levelo_inurba_marseille","lat":43.32469,"lon":5.36577,"is_reserved":false,"is_disabled":false,"rental_uris":{"android":"levelo://app?vid=9d2aefec-f4a3-4a23-a13a-c09b46ffe2e4","ios":"levelo://app?vid=9d2aefec-f4a3-4a23-a13a-c09b46ffe2e4"},"vehicle_type_id":"4","last_reported":1734524295,"current_range_meters":39200,"station_id":"ce4bhs12rcd13ifvqhvg","pricing_plan_id":"cebpf4jnsgd1na2vs0mg"},{"bike_id":"59c6469d-ba25-444c-b61d-d8453738e98b","system_id":"levelo_inurba_marseille","lat":43.30136,"lon":5.39852,"is_reserved":false,"is_disabled":false,"rental_uris":{"android":"levelo://app?vid=59c6469d-ba25-444c-b61d-d8453738e98b","ios":"levelo://app?vid=59c6469d-ba25-444c-b61d-d8453738e98b"},"vehicle_type_id":"4","last_reported":1734524295,"current_range_meters":2000,"station_id":"ce4bh0h2rcd13ifvqd40","pricing_plan_id":"cebpf4jnsgd1na2vs0mg"},{"bike_id":"6aac38b0-f22b-4019-a93a-e1f18a3c12f4","system_id":"levelo_inurba_marseille","lat":43.27362,"lon":5.36237,"is_reserved":false,"is_disabled":false,"rental_uris":{"android":"levelo://app?vid=6aac38b0-f22b-4019-a93a-e1f18a3c12f4","ios":"levelo://app?vid=6aac38b0-f22b-4019-a93a-e1f18a3c12f4"},"vehicle_type_id":"4","last_reported":1734524295,"current_range_meters":39200,"station_id":"ce4bhbh2rcd13ifvqeo0","pricing_plan_id":"cebpf4jnsgd1na2vs0mg"},{"bike_id":"bad8f74f-3cb3-4d9a-8174-a1b6b60e1361","system_id":"levelo_inurba_marseille","lat":43.3053,"lon":5.36547,"is_reserved":false,"is_disabled":false,"rental_uris":{"android":"levelo://app?vid=bad8f74f-3cb3-4d9a-8174-a1b6b60e1361","ios":"levelo://app?vid=bad8f74f-3cb3-4d9a-8174-a1b6b60e1361"},"vehicle_type_id":"4","last_reported":1734524295,"current_range_meters":32400,"station_id":"ce4bgs12rcd13ifvqcag","pricing_plan_id":"cebpf4jnsgd1na2vs0mg"},{"bike_id":"ab4cf047-2518-4238-a07c-ebc316cfc0cc","system_id":"levelo_inurba_marseille","lat":43.31688,"lon":5.40473,"is_reserved":false,"is_disabled":false,"rental_uris":{"android":"levelo://app?vid=ab4cf047-2518-4238-a07c-ebc316cfc0cc","ios":"levelo://app?vid=ab4cf047-2518-4238-a07c-ebc316cfc0cc"},"vehicle_type_id":"4","last_reported":1734524295,"current_range_meters":30800,"station_id":"ce4bh012rcd13ifvqd00","pricing_plan_id":"cebpf4jnsgd1na2vs0mg"},{"bike_id":"584c6656-dd2c-4304-a2fe-88364b51a5a2","system_id":"levelo_inurba_marseille","lat":43.25705,"lon":5.4112,"is_reserved":false,"is_disabled":false,"rental_uris":{"android":"levelo://app?vid=584c6656-dd2c-4304-a2fe-88364b51a5a2","ios":"levelo://app?vid=584c6656-dd2c-4304-a2fe-88364b51a5a2"},"vehicle_type_id":"4","last_reported":1734524295,"current_range_meters":38800,"station_id":"ce4bhkp2rcd13ifvqgd0","pricing_plan_id":"cebpf4jnsgd1na2vs0mg"},{"bike_id":"b2d380e8-08ed-495f-a052-5d7dfa068f5b","system_id":"levelo_inurba_marseille","lat":43.26949,"lon":5.3863,"is_reserved":false,"is_disabled":true,"rental_uris":{"android":"levelo://app?vid=b2d380e8-08ed-495f-a052-5d7dfa068f5b","ios":"levelo://app?vid=b2d380e8-08ed-495f-a052-5d7dfa068f5b"},"vehicle_type_id":"4","last_reported":1734524295,"current_range_meters":0,"station_id":"ce4bhh92rcd13ifvqfh0","pricing_plan_id":"cebpf4jnsgd1na2vs0mg"},{"bike_id":"0207f8a4-516c-46ff-9895-b226d519d4c1","system_id":"levelo_inurba_marseille","lat":43.231905,"lon":5.35541,"is_reserved":false,"is_disabled":false,"rental_uris":{"android":"levelo://app?vid=0207f8a4-516c-46ff-9895-b226d519d4c1","ios":"levelo://app?vid=0207f8a4-516c-46ff-9895-b226d519d4c1"},"vehicle_type_id":"4","last_reported":1734524295,"current_range_meters":36800,"station_id":"ce4bhu92rcd13ifvqi70","pricing_plan_id":"cebpf4jnsgd1na2vs0mg"},{"bike_id":"f2f07f68-d217-4b41-90fe-09e08be3fa63","system_id":"levelo_inurba_marseille","lat":43.26568,"lon":5.39027,"is_reserved":false,"is_disabled":false,"rental_uris":{"android":"levelo://app?vid=f2f07f68-d217-4b41-90fe-09e08be3fa63","ios":"levelo://app?vid=f2f07f68-d217-4b41-90fe-09e08be3fa63"},"vehicle_type_id":"4","last_reported":1734524295,"current_range_meters":21600,"station_id":"ce4bhe12rcd13ifvqf30","pricing_plan_id":"cebpf4jnsgd1na2vs0mg"},{"bike_id":"82f7f145-591c-4ce0-8f76-660882a2845e","system_id":"levelo_inurba_marseille","lat":43.33607,"lon":5.40988,"is_reserved":false,"is_disabled":true,"rental_uris":{"android":"levelo://app?vid=82f7f145-591c-4ce0-8f76-660882a2845e","ios":"levelo://app?vid=82f7f145-591c-4ce0-8f76-660882a2845e"},"vehicle_type_id":"4","last_reported":1734524295,"current_range_meters":29600,"station_id":"ce4bhqh2rcd13ifvqhmg","pricing_plan_id":"cebpf4jnsgd1na2vs0mg"},{"bike_id":"e0394ec0-a7b9-45f2-9f65-d49c5164cb3e","system_id":"levelo_inurba_marseille","lat":43.28407,"lon":5.37524,"is_reserved":false,"is_disabled":false,"rental_uris":{"android":"levelo://app?vid=e0394ec0-a7b9-45f2-9f65-d49c5164cb3e","ios":"levelo://app?vid=e0394ec0-a7b9-45f2-9f65-d49c5164cb3e"},"vehicle_type_id":"4","last_reported":1734524295,"current_range_meters":3200,"station_id":"ce4bh412rcd13ifvqds0","pricing_plan_id":"cebpf4jnsgd1na2vs0mg"},{"bike_id":"fe543a70-1735-44c6-bb01-19bc3ea30d16","system_id":"levelo_inurba_marseille","lat":43.31992,"lon":5.38162,"is_reserved":false,"is_disabled":false,"rental_uris":{"android":"levelo://app?vid=fe543a70-1735-44c6-bb01-19bc3ea30d16","ios":"levelo://app?vid=fe543a70-1735-44c6-bb01-19bc3ea30d16"},"vehicle_type_id":"4","last_reported":1734524295,"current_range_meters":33200,"station_id":"ce4bhr12rcd13ifvqhpg","pricing_plan_id":"cebpf4jnsgd1na2vs0mg"},{"bike_id":"ac7c5f56-daad-496c-965f-9103737000e8","system_id":"levelo_inurba_marseille","lat":43.23966,"lon":5.36645,"is_reserved":false,"is_disabled":false,"rental_uris":{"android":"levelo://app?vid=ac7c5f56-daad-496c-965f-9103737000e8","ios":"levelo://app?vid=ac7c5f56-daad-496c-965f-9103737000e8"},"vehicle_type_id":"4","last_reported":1734524295,"current_range_meters":38400,"station_id":"ce4bhi12rcd13ifvqfp0","pricing_plan_id":"cebpf4jnsgd1na2vs0mg"},{"bike_id":"2cfd643a-c674-46a9-9d29-5f3a8b06261a","system_id":"levelo_inurba_marseille","lat":43.32492,"lon":5.36577,"is_reserved":false,"is_disabled":false,"rental_uris":{"android":"levelo://app?vid=2cfd643a-c674-46a9-9d29-5f3a8b06261a","ios":"levelo://app?vid=2cfd643a-c674-46a9-9d29-5f3a8b06261a"},"vehicle_type_id":"4","last_reported":1734524295,"current_range_meters":24800,"station_id":"ce4bhs12rcd13ifvqhvg","pricing_plan_id":"cebpf4jnsgd1na2vs0mg"},{"bike_id":"55eb3b8d-2227-470b-b9a8-f7520629c64b","system_id":"levelo_inurba_marseille","lat":43.30548,"lon":5.36549,"is_reserved":false,"is_disabled":false,"rental_uris":{"android":"levelo://app?vid=55eb3b8d-2227-470b-b9a8-f7520629c64b","ios":"levelo://app?vid=55eb3b8d-2227-470b-b9a8-f7520629c64b"},"vehicle_type_id":"4","last_reported":1734524295,"current_range_meters":18000,"station_id":"ce4bgs12rcd13ifvqcag","pricing_plan_id":"cebpf4jnsgd1na2vs0mg"},{"bike_id":"69766096-860d-4950-9887-91a2f9e6ab30","system_id":"levelo_inurba_marseille","lat":43.24666,"lon":5.38166,"is_reserved":false,"is_disabled":true,"rental_uris":{"android":"levelo://app?vid=69766096-860d-4950-9887-91a2f9e6ab30","ios":"levelo://app?vid=69766096-860d-4950-9887-91a2f9e6ab30"},"vehicle_type_id":"4","last_reported":1734524295,"current_range_meters":17600,"station_id":"ce4bhih2rcd13ifvqfr0","pricing_plan_id":"cebpf4jnsgd1na2vs0mg"},{"bike_id":"29df3680-c555-4770-a950-2b27263f9367","system_id":"levelo_inurba_marseille","lat":43.29972,"lon":5.37173,"is_reserved":false,"is_disabled":false,"rental_uris":{"android":"levelo://app?vid=29df3680-c555-4770-a950-2b27263f9367","ios":"levelo://app?vid=29df3680-c555-4770-a950-2b27263f9367"},"vehicle_type_id":"4","last_reported":1734524295,"current_range_meters":8000,"station_id":"ce4bgr92rcd13ifvqc7g","pricing_plan_id":"cebpf4jnsgd1na2vs0mg"},{"bike_id":"3f15ab64-478a-4c5c-9a78-d5b9441c067b","system_id":"levelo_inurba_marseille","lat":43.27391,"lon":5.39431,"is_reserved":false,"is_disabled":false,"rental_uris":{"android":"levelo://app?vid=3f15ab64-478a-4c5c-9a78-d5b9441c067b","ios":"levelo://app?vid=3f15ab64-478a-4c5c-9a78-d5b9441c067b"},"vehicle_type_id":"4","last_reported":1734524295,"current_range_meters":30400,"station_id":"ce4bhdp2rcd13ifvqf20","pricing_plan_id":"cebpf4jnsgd1na2vs0mg"},{"bike_id":"ccbd5d7c-b799-4e13-8dc0-00f4e98d5a5a","system_id":"levelo_inurba_marseille","lat":43.30534,"lon":5.365402,"is_reserved":false,"is_disabled":false,"rental_uris":{"android":"levelo://app?vid=ccbd5d7c-b799-4e13-8dc0-00f4e98d5a5a","ios":"levelo://app?vid=ccbd5d7c-b799-4e13-8dc0-00f4e98d5a5a"},"vehicle_type_id":"4","last_reported":1734524295,"current_range_meters":28400,"station_id":"ce4bgs12rcd13ifvqcag","pricing_plan_id":"cebpf4jnsgd1na2vs0mg"},{"bike_id":"f712245d-0789-408f-a69e-19f25d934ab6","system_id":"levelo_inurba_marseille","lat":43.29518,"lon":5.37497,"is_reserved":false,"is_disabled":false,"rental_uris":{"android":"levelo://app?vid=f712245d-0789-408f-a69e-19f25d934ab6","ios":"levelo://app?vid=f712245d-0789-408f-a69e-19f25d934ab6"},"vehicle_type_id":"4","last_reported":1734524295,"current_range_meters":38400,"station_id":"ce4bgkp2rcd13ifvqbmg","pricing_plan_id":"cebpf4jnsgd1na2vs0mg"},{"bike_id":"ce0c54c2-8af8-4550-bc39-3fc8ad33035d","system_id":"levelo_inurba_marseille","lat":43.290472,"lon":5.399617,"is_reserved":false,"is_disabled":true,"rental_uris":{"android":"levelo://app?vid=ce0c54c2-8af8-4550-bc39-3fc8ad33035d","ios":"levelo://app?vid=ce0c54c2-8af8-4550-bc39-3fc8ad33035d"},"vehicle_type_id":"4","last_reported":1734524295,"current_range_meters":15200,"station_id":"ce4bh392rcd13ifvqdm0","pricing_plan_id":"cebpf4jnsgd1na2vs0mg"},{"bike_id":"94dbe6ce-ba1d-41dd-b0cf-1f05a50be5b3","system_id":"levelo_inurba_marseille","lat":43.23197,"lon":5.35575,"is_reserved":false,"is_disabled":false,"rental_uris":{"android":"levelo://app?vid=94dbe6ce-ba1d-41dd-b0cf-1f05a50be5b3","ios":"levelo://app?vid=94dbe6ce-ba1d-41dd-b0cf-1f05a50be5b3"},"vehicle_type_id":"4","last_reported":1734524295,"current_range_meters":30400,"station_id":"ce4bhu92rcd13ifvqi70","pricing_plan_id":"cebpf4jnsgd1na2vs0mg"},{"bike_id":"d0593f90-4e1d-4b16-8cc8-b45632b4702f","system_id":"levelo_inurba_marseille","lat":43.283365,"lon":5.381057,"is_reserved":false,"is_disabled":true,"rental_uris":{"android":"levelo://app?vid=d0593f90-4e1d-4b16-8cc8-b45632b4702f","ios":"levelo://app?vid=d0593f90-4e1d-4b16-8cc8-b45632b4702f"},"vehicle_type_id":"4","last_reported":1734524295,"current_range_meters":28400,"station_id":"ce4bh412rcd13ifvqdr0","pricing_plan_id":"cebpf4jnsgd1na2vs0mg"},{"bike_id":"7b305c6f-361b-46c6-bcc8-6b2d9fd084fa","system_id":"levelo_inurba_marseille","lat":43.28115,"lon":5.44219,"is_reserved":false,"is_disabled":true,"rental_uris":{"android":"levelo://app?vid=7b305c6f-361b-46c6-bcc8-6b2d9fd084fa","ios":"levelo://app?vid=7b305c6f-361b-46c6-bcc8-6b2d9fd084fa"},"vehicle_type_id":"4","last_reported":1734524295,"current_range_meters":0,"station_id":"","pricing_plan_id":"cebpf4jnsgd1na2vs0mg"},{"bike_id":"096a7850-aaf4-4da2-8608-845011c432b5","system_id":"levelo_inurba_marseille","lat":43.33711,"lon":5.39213,"is_reserved":false,"is_disabled":false,"rental_uris":{"android":"levelo://app?vid=096a7850-aaf4-4da2-8608-845011c432b5","ios":"levelo://app?vid=096a7850-aaf4-4da2-8608-845011c432b5"},"vehicle_type_id":"4","last_reported":1734524295,"current_range_meters":38800,"station_id":"ce4bhr92rcd13ifvqhsg","pricing_plan_id":"cebpf4jnsgd1na2vs0mg"},{"bike_id":"e193505e-10a8-4b4b-8af5-b42f326d9e04","system_id":"levelo_inurba_marseille","lat":43.27062,"lon":5.40252,"is_reserved":false,"is_disabled":false,"rental_uris":{"android":"levelo://app?vid=e193505e-10a8-4b4b-8af5-b42f326d9e04","ios":"levelo://app?vid=e193505e-10a8-4b4b-8af5-b42f326d9e04"},"vehicle_type_id":"4","last_reported":1734524295,"current_range_meters":24800,"station_id":"ce4bhk92rcd13ifvqgc0","pricing_plan_id":"cebpf4jnsgd1na2vs0mg"},{"bike_id":"3edc45b8-586e-4ff3-98ae-bc0e92dab254","system_id":"levelo_inurba_marseille","lat":43.23192,"lon":5.3998,"is_reserved":false,"is_disabled":false,"rental_uris":{"android":"levelo://app?vid=3edc45b8-586e-4ff3-98ae-bc0e92dab254","ios":"levelo://app?vid=3edc45b8-586e-4ff3-98ae-bc0e92dab254"},"vehicle_type_id":"4","last_reported":1734524295,"current_range_meters":30000,"station_id":"ce4bhn12rcd13ifvqgqg","pricing_plan_id":"cebpf4jnsgd1na2vs0mg"},{"bike_id":"5b9e3ef5-9e87-4c25-96e4-92f743d276bf","system_id":"levelo_inurba_marseille","lat":43.29202,"lon":5.39318,"is_reserved":false,"is_disabled":false,"rental_uris":{"android":"levelo://app?vid=5b9e3ef5-9e87-4c25-96e4-92f743d276bf","ios":"levelo://app?vid=5b9e3ef5-9e87-4c25-96e4-92f743d276bf"},"vehicle_type_id":"4","last_reported":1734524295,"current_range_meters":19600,"station_id":"ce4bh192rcd13ifvqdd0","pricing_plan_id":"cebpf4jnsgd1na2vs0mg"},{"bike_id":"8d1c4201-2a72-4c4e-a53e-78bc816e5adf","system_id":"levelo_inurba_marseille","lat":43.26681,"lon":5.382723,"is_reserved":false,"is_disabled":false,"rental_uris":{"android":"levelo://app?vid=8d1c4201-2a72-4c4e-a53e-78bc816e5adf","ios":"levelo://app?vid=8d1c4201-2a72-4c4e-a53e-78bc816e5adf"},"vehicle_type_id":"4","last_reported":1734524295,"current_range_meters":36400,"station_id":"ce4bhg92rcd13ifvqf90","pricing_plan_id":"cebpf4jnsgd1na2vs0mg"},{"bike_id":"ae0e7118-6f59-4232-bfe0-1e559ebff2c0","system_id":"levelo_inurba_marseille","lat":43.30253,"lon":5.37737,"is_reserved":false,"is_disabled":false,"rental_uris":{"android":"levelo://app?vid=ae0e7118-6f59-4232-bfe0-1e559ebff2c0","ios":"levelo://app?vid=ae0e7118-6f59-4232-bfe0-1e559ebff2c0"},"vehicle_type_id":"4","last_reported":1734524295,"current_range_meters":38000,"station_id":"ce4bguh2rcd13ifvqcj0","pricing_plan_id":"cebpf4jnsgd1na2vs0mg"},{"bike_id":"c1abe0de-4a2c-40fc-bb13-d6a22121eab7","system_id":"levelo_inurba_marseille","lat":43.23962,"lon":5.3663,"is_reserved":false,"is_disabled":false,"rental_uris":{"android":"levelo://app?vid=c1abe0de-4a2c-40fc-bb13-d6a22121eab7","ios":"levelo://app?vid=c1abe0de-4a2c-40fc-bb13-d6a22121eab7"},"vehicle_type_id":"4","last_reported":1734524295,"current_range_meters":28400,"station_id":"ce4bhi12rcd13ifvqfp0","pricing_plan_id":"cebpf4jnsgd1na2vs0mg"},{"bike_id":"36955b36-9291-4167-b533-7c78cbaa2f72","system_id":"levelo_inurba_marseille","lat":43.25822,"lon":5.39436,"is_reserved":false,"is_disabled":false,"rental_uris":{"android":"levelo://app?vid=36955b36-9291-4167-b533-7c78cbaa2f72","ios":"levelo://app?vid=36955b36-9291-4167-b533-7c78cbaa2f72"},"vehicle_type_id":"4","last_reported":1734524295,"current_range_meters":38800,"station_id":"ce4bhip2rcd13ifvqft0","pricing_plan_id":"cebpf4jnsgd1na2vs0mg"},{"bike_id":"21e40b75-20d0-447c-8a79-4c1cb5f3fc2e","system_id":"levelo_inurba_marseille","lat":43.2927,"lon":5.36841,"is_reserved":false,"is_disabled":true,"rental_uris":{"android":"levelo://app?vid=21e40b75-20d0-447c-8a79-4c1cb5f3fc2e","ios":"levelo://app?vid=21e40b75-20d0-447c-8a79-4c1cb5f3fc2e"},"vehicle_type_id":"4","last_reported":1734524295,"current_range_meters":1600,"station_id":"ce4bhbp2rcd13ifvqesg","pricing_plan_id":"cebpf4jnsgd1na2vs0mg"},{"bike_id":"53e99a56-442f-41c2-a5cd-8200fa644abe","system_id":"levelo_inurba_marseille","lat":43.29784,"lon":5.38106,"is_reserved":false,"is_disabled":false,"rental_uris":{"android":"levelo://app?vid=53e99a56-442f-41c2-a5cd-8200fa644abe","ios":"levelo://app?vid=53e99a56-442f-41c2-a5cd-8200fa644abe"},"vehicle_type_id":"4","last_reported":1734524295,"current_range_meters":38400,"station_id":"ce4bgip2rcd13ifvqbb0","pricing_plan_id":"cebpf4jnsgd1na2vs0mg"},{"bike_id":"4ba3c271-8664-4d2d-bc52-e9bc05d98e16","system_id":"levelo_inurba_marseille","lat":43.34136,"lon":5.4091,"is_reserved":false,"is_disabled":false,"rental_uris":{"android":"levelo://app?vid=4ba3c271-8664-4d2d-bc52-e9bc05d98e16","ios":"levelo://app?vid=4ba3c271-8664-4d2d-bc52-e9bc05d98e16"},"vehicle_type_id":"4","last_reported":1734524295,"current_range_meters":8800,"station_id":"ce4bhqh2rcd13ifvqhlg","pricing_plan_id":"cebpf4jnsgd1na2vs0mg"},{"bike_id":"d51b49fa-b8ee-45fb-ae69-b5c3f9283df6","system_id":"levelo_inurba_marseille","lat":43.30277,"lon":5.37714,"is_reserved":false,"is_disabled":false,"rental_uris":{"android":"levelo://app?vid=d51b49fa-b8ee-45fb-ae69-b5c3f9283df6","ios":"levelo://app?vid=d51b49fa-b8ee-45fb-ae69-b5c3f9283df6"},"vehicle_type_id":"4","last_reported":1734524295,"current_range_meters":36800,"station_id":"ce4bguh2rcd13ifvqcj0","pricing_plan_id":"cebpf4jnsgd1na2vs0mg"},{"bike_id":"da660f07-e1d3-4c8c-bce7-403c2109b11e","system_id":"levelo_inurba_marseille","lat":43.29974,"lon":5.37187,"is_reserved":false,"is_disabled":false,"rental_uris":{"android":"levelo://app?vid=da660f07-e1d3-4c8c-bce7-403c2109b11e","ios":"levelo://app?vid=da660f07-e1d3-4c8c-bce7-403c2109b11e"},"vehicle_type_id":"4","last_reported":1734524295,"current_range_meters":1200,"station_id":"ce4bgr92rcd13ifvqc7g","pricing_plan_id":"cebpf4jnsgd1na2vs0mg"},{"bike_id":"15b06ab3-5941-43b5-a9a5-ceb90aabbb54","system_id":"levelo_inurba_marseille","lat":43.22937,"lon":5.35371,"is_reserved":false,"is_disabled":false,"rental_uris":{"android":"levelo://app?vid=15b06ab3-5941-43b5-a9a5-ceb90aabbb54","ios":"levelo://app?vid=15b06ab3-5941-43b5-a9a5-ceb90aabbb54"},"vehicle_type_id":"4","last_reported":1734524295,"current_range_meters":38800,"station_id":"cpo3532slgdg3j2ikp40","pricing_plan_id":"cebpf4jnsgd1na2vs0mg"},{"bike_id":"1e8163a0-a7f4-4309-bedb-6ff019b4d470","system_id":"levelo_inurba_marseille","lat":43.28937,"lon":5.36638,"is_reserved":false,"is_disabled":false,"rental_uris":{"android":"levelo://app?vid=1e8163a0-a7f4-4309-bedb-6ff019b4d470","ios":"levelo://app?vid=1e8163a0-a7f4-4309-bedb-6ff019b4d470"},"vehicle_type_id":"4","last_reported":1734524295,"current_range_meters":28000,"station_id":"ce4bhap2rcd13ifvqek0","pricing_plan_id":"cebpf4jnsgd1na2vs0mg"},{"bike_id":"15014e05-dfa4-44a9-ae6b-fd0ce973cc17","system_id":"levelo_inurba_marseille","lat":43.24389,"lon":5.37056,"is_reserved":false,"is_disabled":false,"rental_uris":{"android":"levelo://app?vid=15014e05-dfa4-44a9-ae6b-fd0ce973cc17","ios":"levelo://app?vid=15014e05-dfa4-44a9-ae6b-fd0ce973cc17"},"vehicle_type_id":"4","last_reported":1734524295,"current_range_meters":38000,"station_id":"ce4bhhh2rcd13ifvqfk0","pricing_plan_id":"cebpf4jnsgd1na2vs0mg"},{"bike_id":"6a0ae4c9-6ed4-4a44-b5f0-9a425887e29c","system_id":"levelo_inurba_marseille","lat":43.30361,"lon":5.4188,"is_reserved":false,"is_disabled":true,"rental_uris":{"android":"levelo://app?vid=6a0ae4c9-6ed4-4a44-b5f0-9a425887e29c","ios":"levelo://app?vid=6a0ae4c9-6ed4-4a44-b5f0-9a425887e29c"},"vehicle_type_id":"4","last_reported":1734524295,"current_range_meters":0,"station_id":"ce4bhop2rcd13ifvqh7g","pricing_plan_id":"cebpf4jnsgd1na2vs0mg"},{"bike_id":"e3423766-ff70-4b7b-a941-b3f451968318","system_id":"levelo_inurba_marseille","lat":43.29551,"lon":5.42284,"is_reserved":false,"is_disabled":true,"rental_uris":{"android":"levelo://app?vid=e3423766-ff70-4b7b-a941-b3f451968318","ios":"levelo://app?vid=e3423766-ff70-4b7b-a941-b3f451968318"},"vehicle_type_id":"4","last_reported":1734524295,"current_range_meters":39200,"station_id":"ce4bhph2rcd13ifvqhdg","pricing_plan_id":"cebpf4jnsgd1na2vs0mg"},{"bike_id":"7761074d-0bde-4e63-828e-f822e106ba8a","system_id":"levelo_inurba_marseille","lat":43.23187,"lon":5.39978,"is_reserved":false,"is_disabled":false,"rental_uris":{"android":"levelo://app?vid=7761074d-0bde-4e63-828e-f822e106ba8a","ios":"levelo://app?vid=7761074d-0bde-4e63-828e-f822e106ba8a"},"vehicle_type_id":"4","last_reported":1734524295,"current_range_meters":38400,"station_id":"ce4bhn12rcd13ifvqgqg","pricing_plan_id":"cebpf4jnsgd1na2vs0mg"},{"bike_id":"a121132b-e035-4b44-8ab3-ac4ffb0ba365","system_id":"levelo_inurba_marseille","lat":43.29512,"lon":5.39042,"is_reserved":false,"is_disabled":false,"rental_uris":{"android":"levelo://app?vid=a121132b-e035-4b44-8ab3-ac4ffb0ba365","ios":"levelo://app?vid=a121132b-e035-4b44-8ab3-ac4ffb0ba365"},"vehicle_type_id":"4","last_reported":1734524295,"current_range_meters":24400,"station_id":"ce4bh3p2rcd13ifvqdp0","pricing_plan_id":"cebpf4jnsgd1na2vs0mg"},{"bike_id":"ed9211a5-8a9b-4791-9676-40d5da4ce6f1","system_id":"levelo_inurba_marseille","lat":43.31713,"lon":5.43699,"is_reserved":false,"is_disabled":false,"rental_uris":{"android":"levelo://app?vid=ed9211a5-8a9b-4791-9676-40d5da4ce6f1","ios":"levelo://app?vid=ed9211a5-8a9b-4791-9676-40d5da4ce6f1"},"vehicle_type_id":"4","last_reported":1734524295,"current_range_meters":38800,"station_id":"ce4bhp92rcd13ifvqhcg","pricing_plan_id":"cebpf4jnsgd1na2vs0mg"},{"bike_id":"21395083-60c7-40e6-95cd-1140f647345e","system_id":"levelo_inurba_marseille","lat":43.26545,"lon":5.37289,"is_reserved":false,"is_disabled":false,"rental_uris":{"android":"levelo://app?vid=21395083-60c7-40e6-95cd-1140f647345e","ios":"levelo://app?vid=21395083-60c7-40e6-95cd-1140f647345e"},"vehicle_type_id":"4","last_reported":1734524295,"current_range_meters":38400,"station_id":"ce4bhg12rcd13ifvqf70","pricing_plan_id":"cebpf4jnsgd1na2vs0mg"},{"bike_id":"aa47f00c-acfd-4bcf-9196-c8ddd3231dc3","system_id":"levelo_inurba_marseille","lat":43.2439,"lon":5.37061,"is_reserved":false,"is_disabled":false,"rental_uris":{"android":"levelo://app?vid=aa47f00c-acfd-4bcf-9196-c8ddd3231dc3","ios":"levelo://app?vid=aa47f00c-acfd-4bcf-9196-c8ddd3231dc3"},"vehicle_type_id":"4","last_reported":1734524295,"current_range_meters":34000,"station_id":"ce4bhhh2rcd13ifvqfk0","pricing_plan_id":"cebpf4jnsgd1na2vs0mg"},