{"last_updated":1729044803,"ttl":60,"version":"2.2","data":{"bikes":[{"bike_id":"488cc52e-690c-4348-900f-2cee32ad7416","system_id":"levelo_inurba_marseille","lat":43.31721,"lon":5.42404,"is_reserved":false,"is_disabled":false,"rental_uris":{"android":"levelo://app?vid=488cc52e-690c-4348-900f-2cee32ad7416","ios":"levelo://app?vid=488cc52e-690c-4348-900f-2cee32ad7416"},"vehicle_type_id":"4","last_reported":1729044803,"current_range_meters":37600,"station_id":"ce4bhp92rcd13ifvqhbg","pricing_plan_id":"cebpf4jnsgd1na2vs0mg"},{"bike_id":"e129ef36-6da0-4b87-a7fe-b1c842f217fb","system_id":"levelo_inurba_marseille","lat":43.27813,"lon":5.40715,"is_reserved":false,"is_disabled":false,"rental_uris":{"android":"levelo://app?vid=e129ef36-6da0-4b87-a7fe-b1c842f217fb","ios":"levelo://app?vid=e129ef36-6da0-4b87-a7fe-b1c842f217fb"},"vehicle_type_id":"4","last_reported":1729044803,"current_range_meters":38800,"station_id":"ce4bhnh2rcd13ifvqgtg","pricing_plan_id":"cebpf4jnsgd1na2vs0mg"},{"bike_id":"59277583-c6e6-42b2-9e1b-aa0815e80425","system_id":"levelo_inurba_marseille","lat":43.30286,"lon":5.37681,"is_reserved":false,"is_disabled":false,"rental_uris":{"android":"levelo://app?vid=59277583-c6e6-42b2-9e1b-aa0815e80425","ios":"levelo://app?vid=59277583-c6e6-42b2-9e1b-aa0815e80425"},"vehicle_type_id":"4","last_reported":1729044803,"current_range_meters":38000,"station_id":"ce4bguh2rcd13ifvqcj0","pricing_plan_id":"cebpf4jnsgd1na2vs0mg"},{"bike_id":"687dab93-7ea6-4e3e-99b1-b6cf9630945a","system_id":"levelo_inurba_marseille","lat":43.30127,"lon":5.39863,"is_reserved":false,"is_disabled":false,"rental_uris":{"android":"levelo://app?vid=687dab93-7ea6-4e3e-99b1-b6cf9630945a","ios":"levelo://app?vid=687dab93-7ea6-4e3e-99b1-b6cf9630945a"},"vehicle_type_id":"4","last_reported":1729044803,"current_range_meters":36400,"station_id":"ce4bh0h2rcd13ifvqd40","pricing_plan_id":"cebpf4jnsgd1na2vs0mg"},{"bike_id":"805cf10d-9632-4f1a-9f3a-80b24a4fbac6","system_id":"levelo_inurba_marseille","lat":43.2981,"lon":5.41508,"is_reserved":false,"is_disabled":false,"rental_uris":{"android":"levelo://app?vid=805cf10d-9632-4f1a-9f3a-80b24a4fbac6","ios":"levelo://app?vid=805cf10d-9632-4f1a-9f3a-80b24a4fbac6"},"vehicle_type_id":"4","last_reported":1729044803,"current_range_meters":7200,"station_id":"","pricing_plan_id":"cebpf4jnsgd1na2vs0mg"},{"bike_id":"db95dd30-88ae-4985-9a96-ae5ac75e3266","system_id":"levelo_inurba_marseille","lat":43.27211,"lon":5.39185,"is_reserved":false,"is_disabled":false,"rental_uris":{"android":"levelo://app?vid=db95dd30-88ae-4985-9a96-ae5ac75e3266","ios":"levelo://app?vid=db95dd30-88ae-4985-9a96-ae5ac75e3266"},"vehicle_type_id":"4","last_reported":1729044803,"current_range_meters":19200,"station_id":"","pricing_plan_id":"cebpf4jnsgd1na2vs0mg"},{"bike_id":"cfe73e5c-7ebb-4210-90c2-561d224255b1","system_id":"levelo_inurba_marseille","lat":43.31067,"lon":5.38344,"is_reserved":false,"is_disabled":false,"rental_uris":{"android":"levelo://app?vid=cfe73e5c-7ebb-4210-90c2-561d224255b1","ios":"levelo://app?vid=cfe73e5c-7ebb-4210-90c2-561d224255b1"},"vehicle_type_id":"4","last_reported":1729044803,"current_range_meters":38400,"station_id":"ce4bgv92rcd13ifvqcr0","pricing_plan_id":"cebpf4jnsgd1na2vs0mg"},{"bike_id":"4216942e-9cbe-4dd5-83c1-1e159601b24a","system_id":"levelo_inurba_marseille","lat":43.2874,"lon":5.36076,"is_reserved":false,"is_disabled":false,"rental_uris":{"android":"levelo://app?vid=4216942e-9cbe-4dd5-83c1-1e159601b24a","ios":"levelo://app?vid=4216942e-9cbe-4dd5-83c1-1e159601b24a"},"vehicle_type_id":"4","last_reported":1729044803,"current_range_meters":33600,"station_id":"cki0cbj6b192h4jlfktg","pricing_plan_id":"cebpf4jnsgd1na2vs0mg"},{"bike_id":"d5b68e87-2ebc-4e31-ab72-aed8d3d36222","system_id":"levelo_inurba_marseille","lat":43.29953,"lon":5.37216,"is_reserved":false,"is_disabled":false,"rental_uris":{"android":"levelo://app?vid=d5b68e87-2ebc-4e31-ab72-aed8d3d36222","ios":"levelo://app?vid=d5b68e87-2ebc-4e31-ab72-aed8d3d36222"},"vehicle_type_id":"4","last_reported":1729044803,"current_range_meters":27600,"station_id":"ce4bgr92rcd13ifvqc7g","pricing_plan_id":"cebpf4jnsgd1na2vs0mg"},{"bike_id":"318f5f75-374f-4d15-846a-293ae4b5b825","system_id":"levelo_inurba_marseille","lat":43.27908,"lon":5.39593,"is_reserved":false,"is_disabled":false,"rental_uris":{"android":"levelo://app?vid=318f5f75-374f-4d15-846a-293ae4b5b825","ios":"levelo://app?vid=318f5f75-374f-4d15-846a-293ae4b5b825"},"vehicle_type_id":"4","last_reported":1729044803,"current_range_meters":36400,"station_id":"ce4bhf92rcd13ifvqf40","pricing_plan_id":"cebpf4jnsgd1na2vs0mg"},{"bike_id":"f2fdf74f-5e15-4827-9d38-65a4050d017a","system_id":"levelo_inurba_marseille","lat":43.28079,"lon":5.39664,"is_reserved":false,"is_disabled":false,"rental_uris":{"android":"levelo://app?vid=f2fdf74f-5e15-4827-9d38-65a4050d017a","ios":"levelo://app?vid=f2fdf74f-5e15-4827-9d38-65a4050d017a"},"vehicle_type_id":"4","last_reported":1729044803,"current_range_meters":24400,"station_id":"ce4bho12rcd13ifvqh2g","pricing_plan_id":"cebpf4jnsgd1na2vs0mg"},{"bike_id":"8aca930d-2c77-435a-bbcd-cf4f4d726973","system_id":"levelo_inurba_marseille","lat":43.28412,"lon":5.37514,"is_reserved":false,"is_disabled":false,"rental_uris":{"android":"levelo://app?vid=8aca930d-2c77-435a-bbcd-cf4f4d726973","ios":"levelo://app?vid=8aca930d-2c77-435a-bbcd-cf4f4d726973"},"vehicle_type_id":"4","last_reported":1729044803,"current_range_meters":35600,"station_id":"ce4bh412rcd13ifvqds0","pricing_plan_id":"cebpf4jnsgd1na2vs0mg"},{"bike_id":"decf65b9-49aa-457a-b1da-f13e96b87098","system_id":"levelo_inurba_marseille","lat":43.27498,"lon":5.42457,"is_reserved":false,"is_disabled":false,"rental_uris":{"android":"levelo://app?vid=decf65b9-49aa-457a-b1da-f13e96b87098","ios":"levelo://app?vid=decf65b9-49aa-457a-b1da-f13e96b87098"},"vehicle_type_id":"4","last_reported":1729044803,"current_range_meters":29600,"station_id":"ce4bhn92rcd13ifvqgrg","pricing_plan_id":"cebpf4jnsgd1na2vs0mg"},{"bike_id":"b46e07ab-d1d7-4083-af74-ea8e1b514915","system_id":"levelo_inurba_marseille","lat":43.30247,"lon":5.40057,"is_reserved":false,"is_disabled":false,"rental_uris":{"android":"levelo://app?vid=b46e07ab-d1d7-4083-af74-ea8e1b514915","ios":"levelo://app?vid=b46e07ab-d1d7-4083-af74-ea8e1b514915"},"vehicle_type_id":"4","last_reported":1729044803,"current_range_meters":12000,"station_id":"ce4bgvh2rcd13ifvqcs0","pricing_plan_id":"cebpf4jnsgd1na2vs0mg"},{"bike_id":"1643d8e0-1ad3-4c3e-8144-a4e28db444e4","system_id":"levelo_inurba_marseille","lat":43.30293,"lon":5.39219,"is_reserved":false,"is_disabled":false,"rental_uris":{"android":"levelo://app?vid=1643d8e0-1ad3-4c3e-8144-a4e28db444e4","ios":"levelo://app?vid=1643d8e0-1ad3-4c3e-8144-a4e28db444e4"},"vehicle_type_id":"4","last_reported":1729044803,"current_range_meters":40000,"station_id":"ce4bgkh2rcd13ifvqbk0","pricing_plan_id":"cebpf4jnsgd1na2vs0mg"},{"bike_id":"8dc88361-e5e8-4b7b-a8f8-5a05e108c642","system_id":"levelo_inurba_marseille","lat":43.30916,"lon":5.40176,"is_reserved":false,"is_disabled":false,"rental_uris":{"android":"levelo://app?vid=8dc88361-e5e8-4b7b-a8f8-5a05e108c642","ios":"levelo://app?vid=8dc88361-e5e8-4b7b-a8f8-5a05e108c642"},"vehicle_type_id":"4","last_reported":1729044803,"current_range_meters":39200,"station_id":"ce4bgvp2rcd13ifvqct0","pricing_plan_id":"cebpf4jnsgd1na2vs0mg"},{"bike_id":"4d0b1081-f67d-4ab4-aaa5-91ab11f1ee6d","system_id":"levelo_inurba_marseille","lat":43.28339,"lon":5.38104,"is_reserved":false,"is_disabled":false,"rental_uris":{"android":"levelo://app?vid=4d0b1081-f67d-4ab4-aaa5-91ab11f1ee6d","ios":"levelo://app?vid=4d0b1081-f67d-4ab4-aaa5-91ab11f1ee6d"},"vehicle_type_id":"4","last_reported":1729044803,"current_range_meters":38400,"station_id":"ce4bh412rcd13ifvqdr0","pricing_plan_id":"cebpf4jnsgd1na2vs0mg"},{"bike_id":"ab400425-760c-44ba-aaa3-e0960ca07f7c","system_id":"levelo_inurba_marseille","lat":43.30363,"lon":5.41865,"is_reserved":false,"is_disabled":false,"rental_uris":{"android":"levelo://app?vid=ab400425-760c-44ba-aaa3-e0960ca07f7c","ios":"levelo://app?vid=ab400425-760c-44ba-aaa3-e0960ca07f7c"},"vehicle_type_id":"4","last_reported":1729044803,"current_range_meters":39200,"station_id":"ce4bhop2rcd13ifvqh7g","pricing_plan_id":"cebpf4jnsgd1na2vs0mg"},{"bike_id":"9d0a8f78-029e-4443-87b4-4430d1f80208","system_id":"levelo_inurba_marseille","lat":43.31489,"lon":5.37299,"is_reserved":false,"is_disabled":false,"rental_uris":{"android":"levelo://app?vid=9d0a8f78-029e-4443-87b4-4430d1f80208","ios":"levelo://app?vid=9d0a8f78-029e-4443-87b4-4430d1f80208"},"vehicle_type_id":"4","last_reported":1729044803,"current_range_meters":12800,"station_id":"ce4bgt12rcd13ifvqcd0","pricing_plan_id":"cebpf4jnsgd1na2vs0mg"},{"bike_id":"4496f893-a392-4ac2-bbb2-1f9125ca16b7","system_id":"levelo_inurba_marseille","lat":43.29533,"lon":5.38549,"is_reserved":false,"is_disabled":false,"rental_uris":{"android":"levelo://app?vid=4496f893-a392-4ac2-bbb2-1f9125ca16b7","ios":"levelo://app?vid=4496f893-a392-4ac2-bbb2-1f9125ca16b7"},"vehicle_type_id":"4","last_reported":1729044803,"current_range_meters":38800,"station_id":"ce4bgih2rcd13ifvqba0","pricing_plan_id":"cebpf4jnsgd1na2vs0mg"},{"bike_id":"568ce9e5-db70-48c7-8491-aef68fc28c1b","system_id":"levelo_inurba_marseille","lat":43.27622,"lon":5.36112,"is_reserved":false,"is_disabled":false,"rental_uris":{"android":"levelo://app?vid=568ce9e5-db70-48c7-8491-aef68fc28c1b","ios":"levelo://app?vid=568ce9e5-db70-48c7-8491-aef68fc28c1b"},"vehicle_type_id":"4","last_reported":1729044803,"current_range_meters":38000,"station_id":"ce4bgj92rcd13ifvqbe0","pricing_plan_id":"cebpf4jnsgd1na2vs0mg"},{"bike_id":"5554a15a-3e77-4957-960a-9fd3bb5c6cef","system_id":"levelo_inurba_marseille","lat":43.31994,"lon":5.38142,"is_reserved":false,"is_disabled":false,"rental_uris":{"android":"levelo://app?vid=5554a15a-3e77-4957-960a-9fd3bb5c6cef","ios":"levelo://app?vid=5554a15a-3e77-4957-960a-9fd3bb5c6cef"},"vehicle_type_id":"4","last_reported":1729044803,"current_range_meters":40000,"station_id":"ce4bhr12rcd13ifvqhpg","pricing_plan_id":"cebpf4jnsgd1na2vs0mg"},{"bike_id":"2f093790-17f4-4fdc-988d-a2c63f58fc61","system_id":"levelo_inurba_marseille","lat":43.28431,"lon":5.34972,"is_reserved":false,"is_disabled":false,"rental_uris":{"android":"levelo://app?vid=2f093790-17f4-4fdc-988d-a2c63f58fc61","ios":"levelo://app?vid=2f093790-17f4-4fdc-988d-a2c63f58fc61"},"vehicle_type_id":"4","last_reported":1729044803,"current_range_meters":39200,"station_id":"ce4bhbh2rcd13ifvqepg","pricing_plan_id":"cebpf4jnsgd1na2vs0mg"},{"bike_id":"69c984ac-7d0e-43d3-b6b0-25f18490cccb","system_id":"levelo_inurba_marseille","lat":43.30142,"lon":5.37415,"is_reserved":false,"is_disabled":false,"rental_uris":{"android":"levelo://app?vid=69c984ac-7d0e-43d3-b6b0-25f18490cccb","ios":"levelo://app?vid=69c984ac-7d0e-43d3-b6b0-25f18490cccb"},"vehicle_type_id":"4","last_reported":1729044803,"current_range_meters":39200,"station_id":"ce4bgs92rcd13ifvqcc0","pricing_plan_id":"cebpf4jnsgd1na2vs0mg"},{"bike_id":"e3326e25-5ffc-4823-b2f2-35a5725410f4","system_id":"levelo_inurba_marseille","lat":43.26192,"lon":5.37932,"is_reserved":false,"is_disabled":false,"rental_uris":{"android":"levelo://app?vid=e3326e25-5ffc-4823-b2f2-35a5725410f4","ios":"levelo://app?vid=e3326e25-5ffc-4823-b2f2-35a5725410f4"},"vehicle_type_id":"4","last_reported":1729044803,"current_range_meters":38000,"station_id":"ce4bhjp2rcd13ifvqg90","pricing_plan_id":"cebpf4jnsgd1na2vs0mg"},{"bike_id":"2f2a1e93-4e90-4c49-82b8-eb1c10ab2ba3","system_id":"levelo_inurba_marseille","lat":43.25709,"lon":5.41119,"is_reserved":false,"is_disabled":false,"rental_uris":{"android":"levelo://app?vid=2f2a1e93-4e90-4c49-82b8-eb1c10ab2ba3","ios":"levelo://app?vid=2f2a1e93-4e90-4c49-82b8-eb1c10ab2ba3"},"vehicle_type_id":"4","last_reported":1729044803,"current_range_meters":17600,"station_id":"ce4bhkp2rcd13ifvqgd0","pricing_plan_id":"cebpf4jnsgd1na2vs0mg"},{"bike_id":"61b661fe-85fb-427c-a32c-b9e78e89215d","system_id":"levelo_inurba_marseille","lat":43.28521,"lon":5.38434,"is_reserved":false,"is_disabled":false,"rental_uris":{"android":"levelo://app?vid=61b661fe-85fb-427c-a32c-b9e78e89215d","ios":"levelo://app?vid=61b661fe-85fb-427c-a32c-b9e78e89215d"},"vehicle_type_id":"4","last_reported":1729044803,"current_range_meters":38400,"station_id":"ce4bh512rcd13ifvqe3g","pricing_plan_id":"cebpf4jnsgd1na2vs0mg"},{"bike_id":"5a0c6fc9-bccc-439f-b63e-7505d24371dc","system_id":"levelo_inurba_marseille","lat":43.26635,"lon":5.3902,"is_reserved":false,"is_disabled":false,"rental_uris":{"android":"levelo://app?vid=5a0c6fc9-bccc-439f-b63e-7505d24371dc","ios":"levelo://app?vid=5a0c6fc9-bccc-439f-b63e-7505d24371dc"},"vehicle_type_id":"4","last_reported":1729044803,"current_range_meters":31200,"station_id":"ce4bhe12rcd13ifvqf30","pricing_plan_id":"cebpf4jnsgd1na2vs0mg"},{"bike_id":"8460b2e0-9c3b-46d2-8436-6ea6c23eeeef","system_id":"levelo_inurba_marseille","lat":43.28416,"lon":5.37516,"is_reserved":false,"is_disabled":false,"rental_uris":{"android":"levelo://app?vid=8460b2e0-9c3b-46d2-8436-6ea6c23eeeef","ios":"levelo://app?vid=8460b2e0-9c3b-46d2-8436-6ea6c23eeeef"},"vehicle_type_id":"4","last_reported":1729044803,"current_range_meters":38800,"station_id":"ce4bh412rcd13ifvqds0","pricing_plan_id":"cebpf4jnsgd1na2vs0mg"},{"bike_id":"5ce7e684-6080-4737-924f-bcde89aacdbc","system_id":"levelo_inurba_marseille","lat":43.3372,"lon":5.39186,"is_reserved":false,"is_disabled":false,"rental_uris":{"android":"levelo://app?vid=5ce7e684-6080-4737-924f-bcde89aacdbc","ios":"levelo://app?vid=5ce7e684-6080-4737-924f-bcde89aacdbc"},"vehicle_type_id":"4","last_reported":1729044803,"current_range_meters":38000,"station_id":"ce4bhr92rcd13ifvqhsg","pricing_plan_id":"cebpf4jnsgd1na2vs0mg"},{"bike_id":"2eb21c34-2201-4c7e-8964-700706d6f092","system_id":"levelo_inurba_marseille","lat":43.29326,"lon":5.40142,"is_reserved":false,"is_disabled":false,"rental_uris":{"android":"levelo://app?vid=2eb21c34-2201-4c7e-8964-700706d6f092","ios":"levelo://app?vid=2eb21c34-2201-4c7e-8964-700706d6f092"},"vehicle_type_id":"4","last_reported":1729044803,"current_range_meters":38800,"station_id":"ce4bh312rcd13ifvqdk0","pricing_plan_id":"cebpf4jnsgd1na2vs0mg"},{"bike_id":"1f9af6b4-6144-4bad-a521-a992b5c68634","system_id":"levelo_inurba_marseille","lat":43.25116,"lon":5.40347,"is_reserved":false,"is_disabled":false,"rental_uris":{"android":"levelo://app?vid=1f9af6b4-6144-4bad-a521-a992b5c68634","ios":"levelo://app?vid=1f9af6b4-6144-4bad-a521-a992b5c68634"},"vehicle_type_id":"4","last_reported":1729044803,"current_range_meters":20400,"station_id":"ce4bhlh2rcd13ifvqgig","pricing_plan_id":"cebpf4jnsgd1na2vs0mg"},{"bike_id":"c5f5cb1d-6115-4834-a655-3c011396eda6","system_id":"levelo_inurba_marseille","lat":43.23182,"lon":5.3998,"is_reserved":false,"is_disabled":false,"rental_uris":{"android":"levelo://app?vid=c5f5cb1d-6115-4834-a655-3c011396eda6","ios":"levelo://app?vid=c5f5cb1d-6115-4834-a655-3c011396eda6"},"vehicle_type_id":"4","last_reported":1729044803,"current_range_meters":18800,"station_id":"ce4bhn12rcd13ifvqgqg","pricing_plan_id":"cebpf4jnsgd1na2vs0mg"},{"bike_id":"1940278b-12b5-432a-b84d-6b8a75fa2fa2","system_id":"levelo_inurba_marseille","lat":43.28349,"lon":5.38115,"is_reserved":false,"is_disabled":false,"rental_uris":{"android":"levelo://app?vid=1940278b-12b5-432a-b84d-6b8a75fa2fa2","ios":"levelo://app?vid=1940278b-12b5-432a-b84d-6b8a75fa2fa2"},"vehicle_type_id":"4","last_reported":1729044803,"current_range_meters":38000,"station_id":"ce4bh412rcd13ifvqdr0","pricing_plan_id":"cebpf4jnsgd1na2vs0mg"},{"bike_id":"92205cba-a776-455b-b519-18ced88a912f","system_id":"levelo_inurba_marseille","lat":43.29052,"lon":5.35926,"is_reserved":false,"is_disabled":false,"rental_uris":{"android":"levelo://app?vid=92205cba-a776-455b-b519-18ced88a912f","ios":"levelo://app?vid=92205cba-a776-455b-b519-18ced88a912f"},"vehicle_type_id":"4","last_reported":1729044803,"current_range_meters":39200,"station_id":"ce4bha92rcd13ifvqeg0","pricing_plan_id":"cebpf4jnsgd1na2vs0mg"},{"bike_id":"a7dfaa44-ac64-4753-9158-714370583ef5","system_id":"levelo_inurba_marseille","lat":43.30115,"lon":5.39857,"is_reserved":false,"is_disabled":false,"rental_uris":{"android":"levelo://app?vid=a7dfaa44-ac64-4753-9158-714370583ef5","ios":"levelo://app?vid=a7dfaa44-ac64-4753-9158-714370583ef5"},"vehicle_type_id":"4","last_reported":1729044803,"current_range_meters":36400,"station_id":"ce4bh0h2rcd13ifvqd40","pricing_plan_id":"cebpf4jnsgd1na2vs0mg"},{"bike_id":"ee49d280-8642-44e8-88fa-bdc417029b8c","system_id":"levelo_inurba_marseille","lat":43.26683,"lon":5.38271,"is_reserved":false,"is_disabled":false,"rental_uris":{"android":"levelo://app?vid=ee49d280-8642-44e8-88fa-bdc417029b8c","ios":"levelo://app?vid=ee49d280-8642-44e8-88fa-bdc417029b8c"},"vehicle_type_id":"4","last_reported":1729044803,"current_range_meters":38000,"station_id":"ce4bhg92rcd13ifvqf90","pricing_plan_id":"cebpf4jnsgd1na2vs0mg"},{"bike_id":"c87ea7fc-8658-4fe5-9323-997ad23c2057","system_id":"levelo_inurba_marseille","lat":43.3116,"lon":5.38728,"is_reserved":false,"is_disabled":false,"rental_uris":{"android":"levelo://app?vid=c87ea7fc-8658-4fe5-9323-997ad23c2057","ios":"levelo://app?vid=c87ea7fc-8658-4fe5-9323-997ad23c2057"},"vehicle_type_id":"4","last_reported":1729044803,"current_range_meters":39200,"station_id":"ce4bgv12rcd13ifvqcp0","pricing_plan_id":"cebpf4jnsgd1na2vs0mg"},{"bike_id":"7f163519-8a5e-4e39-81ae-4076d170f2f7","system_id":"levelo_inurba_marseille","lat":43.29407,"lon":5.39745,"is_reserved":false,"is_disabled":false,"rental_uris":{"android":"levelo://app?vid=7f163519-8a5e-4e39-81ae-4076d170f2f7","ios":"levelo://app?vid=7f163519-8a5e-4e39-81ae-4076d170f2f7"},"vehicle_type_id":"4","last_reported":1729044803,"current_range_meters":38000,"station_id":"ce4bh3h2rcd13ifvqdo0","pricing_plan_id":"cebpf4jnsgd1na2vs0mg"},{"bike_id":"a303803f-aabf-4f43-95f1-5b32cb63b28c","system_id":"levelo_inurba_marseille","lat":43.32032,"lon":5.41533,"is_reserved":false,"is_disabled":false,"rental_uris":{"android":"levelo://app?vid=a303803f-aabf-4f43-95f1-5b32cb63b28c","ios":"levelo://app?vid=a303803f-aabf-4f43-95f1-5b32cb63b28c"},"vehicle_type_id":"4","last_reported":1729044803,"current_range_meters":38800,"station_id":"ce4bhq92rcd13ifvqhkg","pricing_plan_id":"cebpf4jnsgd1na2vs0mg"},{"bike_id":"a4e0ecf5-e792-4bd6-8132-6b62272b4e5d","system_id":"levelo_inurba_marseille","lat":43.31376,"lon":5.38492,"is_reserved":false,"is_disabled":false,"rental_uris":{"android":"levelo://app?vid=a4e0ecf5-e792-4bd6-8132-6b62272b4e5d","ios":"levelo://app?vid=a4e0ecf5-e792-4bd6-8132-6b62272b4e5d"},"vehicle_type_id":"4","last_reported":1729044803,"current_range_meters":38000,"station_id":"ce4bgt92rcd13ifvqcf0","pricing_plan_id":"cebpf4jnsgd1na2vs0mg"},{"bike_id":"a7ff9e42-e3e4-48e1-9d6a-70e06dd8acba","system_id":"levelo_inurba_marseille","lat":43.30442,"lon":5.39753,"is_reserved":false,"is_disabled":false,"rental_uris":{"android":"levelo://app?vid=a7ff9e42-e3e4-48e1-9d6a-70e06dd8acba","ios":"levelo://app?vid=a7ff9e42-e3e4-48e1-9d6a-70e06dd8acba"},"vehicle_type_id":"4","last_reported":1729044803,"current_range_meters":39200,"station_id":"ce4bh092rcd13ifvqd20","pricing_plan_id":"cebpf4jnsgd1na2vs0mg"},{"bike_id":"d6eb8cbc-ecfc-42ea-bb9b-e72d219e2333","system_id":"levelo_inurba_marseille","lat":43.31869,"lon":5.40745,"is_reserved":false,"is_disabled":false,"rental_uris":{"android":"levelo://app?vid=d6eb8cbc-ecfc-42ea-bb9b-e72d219e2333","ios":"levelo://app?vid=d6eb8cbc-ecfc-42ea-bb9b-e72d219e2333"},"vehicle_type_id":"4","last_reported":1729044803,"current_range_meters":38000,"station_id":"ce4bhq12rcd13ifvqhig","pricing_plan_id":"cebpf4jnsgd1na2vs0mg"},{"bike_id":"755a7622-70a2-4447-afe8-59317900f64c","system_id":"levelo_inurba_marseille","lat":43.28079,"lon":5.3966,"is_reserved":false,"is_disabled":false,"rental_uris":{"android":"levelo://app?vid=755a7622-70a2-4447-afe8-59317900f64c","ios":"levelo://app?vid=755a7622-70a2-4447-afe8-59317900f64c"},"vehicle_type_id":"4","last_reported":1729044803,"current_range_meters":26800,"station_id":"ce4bho12rcd13ifvqh2g","pricing_plan_id":"cebpf4jnsgd1na2vs0mg"},{"bike_id":"17eddf16-8fe7-49e7-9f43-aca3b8920a2e","system_id":"levelo_inurba_marseille","lat":43.30539,"lon":5.38442,"is_reserved":false,"is_disabled":false,"rental_uris":{"android":"levelo://app?vid=17eddf16-8fe7-49e7-9f43-aca3b8920a2e","ios":"levelo://app?vid=17eddf16-8fe7-49e7-9f43-aca3b8920a2e"},"vehicle_type_id":"4","last_reported":1729044803,"current_range_meters":34800,"station_id":"ce4bgg92rcd13ifvqb30","pricing_plan_id":"cebpf4jnsgd1na2vs0mg"},{"bike_id":"c62ae0a3-98fd-446e-8488-9ae7c9fd29c4","system_id":"levelo_inurba_marseille","lat":43.29332,"lon":5.37452,"is_reserved":false,"is_disabled":false,"rental_uris":{"android":"levelo://app?vid=c62ae0a3-98fd-446e-8488-9ae7c9fd29c4","ios":"levelo://app?vid=c62ae0a3-98fd-446e-8488-9ae7c9fd29c4"},"vehicle_type_id":"4","last_reported":1729044803,"current_range_meters":38800,"station_id":"ce4bgi12rcd13ifvqb70","pricing_plan_id":"cebpf4jnsgd1na2vs0mg"},{"bike_id":"584c0fe7-ef9a-4b43-9d6a-cc94378394e6","system_id":"levelo_inurba_marseille","lat":43.28849,"lon":5.35849,"is_reserved":false,"is_disabled":false,"rental_uris":{"android":"levelo://app?vid=584c0fe7-ef9a-4b43-9d6a-cc94378394e6","ios":"levelo://app?vid=584c0fe7-ef9a-4b43-9d6a-cc94378394e6"},"vehicle_type_id":"4","last_reported":1729044803,"current_range_meters":35600,"station_id":"ce4bhb12rcd13ifvqem0","pricing_plan_id":"cebpf4jnsgd1na2vs0mg"},{"bike_id":"af07f611-6fcc-4d43-89a9-9dd7e86f2746","system_id":"levelo_inurba_marseille","lat":43.2846,"lon":5.35886,"is_reserved":false,"is_disabled":false,"rental_uris":{"android":"levelo://app?vid=af07f611-6fcc-4d43-89a9-9dd7e86f2746","ios":"levelo://app?vid=af07f611-6fcc-4d43-89a9-9dd7e86f2746"},"vehicle_type_id":"4","last_reported":1729044803,"current_range_meters":38800,"station_id":"ce4bhah2rcd13ifvqei0","pricing_plan_id":"cebpf4jnsgd1na2vs0mg"},{"bike_id":"a3049d6a-acd5-40a1-b58b-07c42f9f0bbc","system_id":"levelo_inurba_marseille","lat":43.31711,"lon":5.437,"is_reserved":false,"is_disabled":false,"rental_uris":{"android":"levelo://app?vid=a3049d6a-acd5-40a1-b58b-07c42f9f0bbc","ios":"levelo://app?vid=a3049d6a-acd5-40a1-b58b-07c42f9f0bbc"},"vehicle_type_id":"4","last_reported":1729044803,"current_range_meters":38800,"station_id":"ce4bhp92rcd13ifvqhcg","pricing_plan_id":"cebpf4jnsgd1na2vs0mg"},{"bike_id":"024af8a9-895b-4c18-bfa1-97a4721540d4","system_id":"levelo_inurba_marseille","lat":43.28723,"lon":5.3608,"is_reserved":false,"is_disabled":false,"rental_uris":{"android":"levelo://app?vid=024af8a9-895b-4c18-bfa1-97a4721540d4","ios":"levelo://app?vid=024af8a9-895b-4c18-bfa1-97a4721540d4"},"vehicle_type_id":"4","last_reported":1729044803,"current_range_meters":38000,"station_id":"cki0cbj6b192h4jlfktg","pricing_plan_id":"cebpf4jnsgd1na2vs0mg"},{"bike_id":"b7b45f76-2766-4920-9541-dd0bb8320dd4","system_id":"levelo_inurba_marseille","lat":43.28845,"lon":5.35841,"is_reserved":false,"is_disabled":false,"rental_uris":{"android":"levelo://app?vid=b7b45f76-2766-4920-9541-dd0bb8320dd4","ios":"levelo://app?vid=b7b45f76-2766-4920-9541-dd0bb8320dd4"},"vehicle_type_id":"4","last_reported":1729044803,"current_range_meters":33200,"station_id":"ce4bhb12rcd13ifvqem0","pricing_plan_id":"cebpf4jnsgd1na2vs0mg"},{"bike_id":"c77ea266-271c-4ea2-a8dc-337f7c85044f","system_id":"levelo_inurba_marseille","lat":43.28145,"lon":5.42648,"is_reserved":false,"is_disabled":false,"rental_uris":{"android":"levelo://app?vid=c77ea266-271c-4ea2-a8dc-337f7c85044f","ios":"levelo://app?vid=c77ea266-271c-4ea2-a8dc-337f7c85044f"},"vehicle_type_id":"4","last_reported":1729044803,"current_range_meters":38800,"station_id":"ce4bhnh2rcd13ifvqgug","pricing_plan_id":"cebpf4jnsgd1na2vs0mg"},{"bike_id":"ad9b6315-8976-47a8-a4a8-89ad67585dad","system_id":"levelo_inurba_marseille","lat":43.27946,"lon":5.39596,"is_reserved":false,"is_disabled":false,"rental_uris":{"android":"levelo://app?vid=ad9b6315-8976-47a8-a4a8-89ad67585dad","ios":"levelo://app?vid=ad9b6315-8976-47a8-a4a8-89ad67585dad"},"vehicle_type_id":"4","last_reported":1729044803,"current_range_meters":36400,"station_id":"ce4bhf92rcd13ifvqf40","pricing_plan_id":"cebpf4jnsgd1na2vs0mg"},{"bike_id":"6e7afd62-d736-4ed9-9248-f4f82a390064","system_id":"levelo_inurba_marseille","lat":43.33601,"lon":5.4104,"is_reserved":false,"is_disabled":false,"rental_uris":{"android":"levelo://app?vid=6e7afd62-d736-4ed9-9248-f4f82a390064","ios":"levelo://app?vid=6e7afd62-d736-4ed9-9248-f4f82a390064"},"vehicle_type_id":"4","last_reported":1729044803,"current_range_meters":39200,"station_id":"ce4bhqh2rcd13ifvqhmg","pricing_plan_id":"cebpf4jnsgd1na2vs0mg"},{"bike_id":"73ef751c-1663-4138-9d82-e4aec617a886","system_id":"levelo_inurba_marseille","lat":43.23188,"lon":5.35566,"is_reserved":false,"is_disabled":false,"rental_uris":{"android":"levelo://app?vid=73ef751c-1663-4138-9d82-e4aec617a886","ios":"levelo://app?vid=73ef751c-1663-4138-9d82-e4aec617a886"},"vehicle_type_id":"4","last_reported":1729044803,"current_range_meters":38400,"station_id":"ce4bhu92rcd13ifvqi70","pricing_plan_id":"cebpf4jnsgd1na2vs0mg"},{"bike_id":"7669c1d8-f817-4081-9451-d5cb6b66a970","system_id":"levelo_inurba_marseille","lat":43.30906,"lon":5.37218,"is_reserved":false,"is_disabled":false,"rental_uris":{"android":"levelo://app?vid=7669c1d8-f817-4081-9451-d5cb6b66a970","ios":"levelo://app?vid=7669c1d8-f817-4081-9451-d5cb6b66a970"},"vehicle_type_id":"4","last_reported":1729044803,"current_range_meters":38800,"station_id":"ce4bguh2rcd13ifvqckg","pricing_plan_id":"cebpf4jnsgd1na2vs0mg"},{"bike_id":"c206f2bc-a38a-4c52-9a65-41ef96813656","system_id":"levelo_inurba_marseille","lat":43.289219,"lon":5.383926,"is_reserved":false,"is_disabled":false,"rental_uris":{"android":"levelo://app?vid=c206f2bc-a38a-4c52-9a65-41ef96813656","ios":"levelo://app?vid=c206f2bc-a38a-4c52-9a65-41ef96813656"},"vehicle_type_id":"4","last_reported":1729044803,"current_range_meters":39200,"station_id":"ce4bh612rcd13ifvqe6g","pricing_plan_id":"cebpf4jnsgd1na2vs0mg"},{"bike_id":"5f866cdd-5cee-442e-81d2-26f78a203ab9","system_id":"levelo_inurba_marseille","lat":43.32002,"lon":5.3816,"is_reserved":false,"is_disabled":false,"rental_uris":{"android":"levelo://app?vid=5f866cdd-5cee-442e-81d2-26f78a203ab9","ios":"levelo://app?vid=5f866cdd-5cee-442e-81d2-26f78a203ab9"},"vehicle_type_id":"4","last_reported":1729044803,"current_range_meters":28400,"station_id":"ce4bhr12rcd13ifvqhpg","pricing_plan_id":"cebpf4jnsgd1na2vs0mg"},{"bike_id":"b2274dab-99bf-4443-be07-36c673c5bcbf","system_id":"levelo_inurba_marseille","lat":43.28616,"lon":5.35099,"is_reserved":false,"is_disabled":false,"rental_uris":{"android":"levelo://app?vid=b2274dab-99bf-4443-be07-36c673c5bcbf","ios":"levelo://app?vid=b2274dab-99bf-4443-be07-36c673c5bcbf"},"vehicle_type_id":"4","last_reported":1729044803,"current_range_meters":38800,"station_id":"ce4bhch2rcd13ifvqeug","pricing_plan_id":"cebpf4jnsgd1na2vs0mg"},{"bike_id":"c58611c9-5610-40ca-9dff-13b158d6d313","system_id":"levelo_inurba_marseille","lat":43.31661,"lon":5.37744,"is_reserved":false,"is_disabled":false,"rental_uris":{"android":"levelo://app?vid=c58611c9-5610-40ca-9dff-13b158d6d313","ios":"levelo://app?vid=c58611c9-5610-40ca-9dff-13b158d6d313"},"vehicle_type_id":"4","last_reported":1729044803,"current_range_meters":28000,"station_id":"ce4bgth2rcd13ifvqch0","pricing_plan_id":"cebpf4jnsgd1na2vs0mg"},{"bike_id":"00bb97f8-22d9-4cd0-baad-258b5c726caf","system_id":"levelo_inurba_marseille","lat":43.29226,"lon":5.36059,"is_reserved":false,"is_disabled":false,"rental_uris":{"android":"levelo://app?vid=00bb97f8-22d9-4cd0-baad-258b5c726caf","ios":"levelo://app?vid=00bb97f8-22d9-4cd0-baad-258b5c726caf"},"vehicle_type_id":"4","last_reported":1729044803,"current_range_meters":6400,"station_id":"ce4bhbh2rcd13ifvqeqg","pricing_plan_id":"cebpf4jnsgd1na2vs0mg"},{"bike_id":"eb646d5e-71f3-41a5-8f49-b168b4fba9d8","system_id":"levelo_inurba_marseille","lat":43.27817,"lon":5.40697,"is_reserved":false,"is_disabled":false,"rental_uris":{"android":"levelo://app?vid=eb646d5e-71f3-41a5-8f49-b168b4fba9d8","ios":"levelo://app?vid=eb646d5e-71f3-41a5-8f49-b168b4fba9d8"},"vehicle_type_id":"4","last_reported":1729044803,"current_range_meters":13600,"station_id":"ce4bhnh2rcd13ifvqgtg","pricing_plan_id":"cebpf4jnsgd1na2vs0mg"},{"bike_id":"9ffd4a2e-3ad6-4e77-ae33-71adde6d2802","system_id":"levelo_inurba_marseille","lat":43.24061,"lon":5.37759,"is_reserved":false,"is_disabled":false,"rental_uris":{"android":"levelo://app?vid=9ffd4a2e-3ad6-4e77-ae33-71adde6d2802","ios":"levelo://app?vid=9ffd4a2e-3ad6-4e77-ae33-71adde6d2802"},"vehicle_type_id":"4","last_reported":1729044803,"current_range_meters":3200,"station_id":"ce4bhnp2rcd13ifvqgvg","pricing_plan_id":"cebpf4jnsgd1na2vs0mg"},{"bike_id":"71481030-be7c-45ef-aec0-5d27a155d482","system_id":"levelo_inurba_marseille","lat":43.31696,"lon":5.37757,"is_reserved":false,"is_disabled":false,"rental_uris":{"android":"levelo://app?vid=71481030-be7c-45ef-aec0-5d27a155d482","ios":"levelo://app?vid=71481030-be7c-45ef-aec0-5d27a155d482"},"vehicle_type_id":"4","last_reported":1729044803,"current_range_meters":39200,"station_id":"ce4bgth2rcd13ifvqch0","pricing_plan_id":"cebpf4jnsgd1na2vs0mg"},{"bike_id":"ded83da2-ac47-4af4-99a1-215e896c1d92","system_id":"levelo_inurba_marseille","lat":43.28265,"lon":5.35064,"is_reserved":false,"is_disabled":false,"rental_uris":{"android":"levelo://app?vid=ded83da2-ac47-4af4-99a1-215e896c1d92","ios":"levelo://app?vid=ded83da2-ac47-4af4-99a1-215e896c1d92"},"vehicle_type_id":"4","last_reported":1729044803,"current_range_meters":38400,"station_id":"ce4bhbp2rcd13ifvqerg","pricing_plan_id":"cebpf4jnsgd1na2vs0mg"},{"bike_id":"04d04fdb-3c86-46d3-9e0f-6db2a4c4cad4","system_id":"levelo_inurba_marseille","lat":43.31264,"lon":5.40168,"is_reserved":false,"is_disabled":false,"rental_uris":{"android":"levelo://app?vid=04d04fdb-3c86-46d3-9e0f-6db2a4c4cad4","ios":"levelo://app?vid=04d04fdb-3c86-46d3-9e0f-6db2a4c4cad4"},"vehicle_type_id":"4","last_reported":1729044803,"current_range_meters":22000,"station_id":"ce4bh092rcd13ifvqd30","pricing_plan_id":"cebpf4jnsgd1na2vs0mg"},{"bike_id":"2d141a51-6ac2-435f-8bfa-e110c4b45fe5","system_id":"levelo_inurba_marseille","lat":43.3128,"lon":5.40169,"is_reserved":false,"is_disabled":false,"rental_uris":{"android":"levelo://app?vid=2d141a51-6ac2-435f-8bfa-e110c4b45fe5","ios":"levelo://app?vid=2d141a51-6ac2-435f-8bfa-e110c4b45fe5"},"vehicle_type_id":"4","last_reported":1729044803,"current_range_meters":4800,"station_id":"ce4bh092rcd13ifvqd30","pricing_plan_id":"cebpf4jnsgd1na2vs0mg"},{"bike_id":"2df66286-b32f-4d1e-99f6-34c819e8c705","system_id":"levelo_inurba_marseille","lat":43.32352,"lon":5.38876,"is_reserved":false,"is_disabled":false,"rental_uris":{"android":"levelo://app?vid=2df66286-b32f-4d1e-99f6-34c819e8c705","ios":"levelo://app?vid=2df66286-b32f-4d1e-99f6-34c819e8c705"},"vehicle_type_id":"4","last_reported":1729044803,"current_range_meters":38000,"station_id":"ce4bhqp2rcd13ifvqhog","pricing_plan_id":"cebpf4jnsgd1na2vs0mg"},{"bike_id":"fa7bbdc9-afbe-404d-8676-647037cc76a9","system_id":"levelo_inurba_marseille","lat":43.23201,"lon":5.35567,"is_reserved":false,"is_disabled":false,"rental_uris":{"android":"levelo://app?vid=fa7bbdc9-afbe-404d-8676-647037cc76a9","ios":"levelo://app?vid=fa7bbdc9-afbe-404d-8676-647037cc76a9"},"vehicle_type_id":"4","last_reported":1729044803,"current_range_meters":39200,"station_id":"ce4bhu92rcd13ifvqi70","pricing_plan_id":"cebpf4jnsgd1na2vs0mg"},{"bike_id":"6226a3cc-3cfd-40e6-ac49-747b76fcc877","system_id":"levelo_inurba_marseille","lat":43.32348,"lon":5.38868,"is_reserved":false,"is_disabled":false,"rental_uris":{"android":"levelo://app?vid=6226a3cc-3cfd-40e6-ac49-747b76fcc877","ios":"levelo://app?vid=6226a3cc-3cfd-40e6-ac49-747b76fcc877"},"vehicle_type_id":"4","last_reported":1729044803,"current_range_meters":27600,"station_id":"ce4bhqp2rcd13ifvqhog","pricing_plan_id":"cebpf4jnsgd1na2vs0mg"},{"bike_id":"6cf1fa10-bf80-4fc5-bf68-5c8328112d6f","system_id":"levelo_inurba_marseille","lat":43.30619,"lon":5.40108,"is_reserved":false,"is_disabled":false,"rental_uris":{"android":"levelo://app?vid=6cf1fa10-bf80-4fc5-bf68-5c8328112d6f","ios":"levelo://app?vid=6cf1fa10-bf80-4fc5-bf68-5c8328112d6f"},"vehicle_type_id":"4","last_reported":1729044803,"current_range_meters":36800,"station_id":"ce4bh112rcd13ifvqda0","pricing_plan_id":"cebpf4jnsgd1na2vs0mg"},{"bike_id":"d2440947-8f6b-40bd-a810-5423b90ba87b","system_id":"levelo_inurba_marseille","lat":43.28098,"lon":5.37892,"is_reserved":false,"is_disabled":false,"rental_uris":{"android":"levelo://app?vid=d2440947-8f6b-40bd-a810-5423b90ba87b","ios":"levelo://app?vid=d2440947-8f6b-40bd-a810-5423b90ba87b"},"vehicle_type_id":"4","last_reported":1729044803,"current_range_meters":39200,"station_id":"ce4bha12rcd13ifvqee0","pricing_plan_id":"cebpf4jnsgd1na2vs0mg"},{"bike_id":"74b5d578-63f5-4236-b615-018ecd3609c1","system_id":"levelo_inurba_marseille","lat":43.30411,"lon":5.41277,"is_reserved":false,"is_disabled":false,"rental_uris":{"android":"levelo://app?vid=74b5d578-63f5-4236-b615-018ecd3609c1","ios":"levelo://app?vid=74b5d578-63f5-4236-b615-018ecd3609c1"},"vehicle_type_id":"4","last_reported":1729044803,"current_range_meters":36400,"station_id":"ce4bhop2rcd13ifvqh8g","pricing_plan_id":"cebpf4jnsgd1na2vs0mg"},{"bike_id":"6a18c2eb-ff50-45e8-a988-5d6a8987cc15","system_id":"levelo_inurba_marseille","lat":43.29305,"lon":5.37446,"is_reserved":false,"is_disabled":false,"rental_uris":{"android":"levelo://app?vid=6a18c2eb-ff50-45e8-a988-5d6a8987cc15","ios":"levelo://app?vid=6a18c2eb-ff50-45e8-a988-5d6a8987cc15"},"vehicle_type_id":"4","last_reported":1729044803,"current_range_meters":38800,"station_id":"ce4bgi12rcd13ifvqb70","pricing_plan_id":"cebpf4jnsgd1na2vs0mg"},{"bike_id":"e439f200-513f-4baf-a94e-9c58b6122e2f","system_id":"levelo_inurba_marseille","lat":43.27807,"lon":5.4074,"is_reserved":false,"is_disabled":false,"rental_uris":{"android":"levelo://app?vid=e439f200-513f-4baf-a94e-9c58b6122e2f","ios":"levelo://app?vid=e439f200-513f-4baf-a94e-9c58b6122e2f"},"vehicle_type_id":"4","last_reported":1729044803,"current_range_meters":39200,"station_id":"ce4bhnh2rcd13ifvqgtg","pricing_plan_id":"cebpf4jnsgd1na2vs0mg"},{"bike_id":"62c69491-a263-4782-8c41-06dc1e539132","system_id":"levelo_inurba_marseille","lat":43.31075,"lon":5.38356,"is_reserved":false,"is_disabled":false,"rental_uris":{"android":"levelo://app?vid=62c69491-a263-4782-8c41-06dc1e539132","ios":"levelo://app?vid=62c69491-a263-4782-8c41-06dc1e539132"},"vehicle_type_id":"4","last_reported":1729044803,"current_range_meters":16000,"station_id":"ce4bgv92rcd13ifvqcr0","pricing_plan_id":"cebpf4jnsgd1na2vs0mg"},{"bike_id":"07818a25-66e9-4fb5-bf17-702112d4a73b","system_id":"levelo_inurba_marseille","lat":43.30828,"lon":5.38157,"is_reserved":false,"is_disabled":false,"rental_uris":{"android":"levelo://app?vid=07818a25-66e9-4fb5-bf17-702112d4a73b","ios":"levelo://app?vid=07818a25-66e9-4fb5-bf17-702112d4a73b"},"vehicle_type_id":"4","last_reported":1729044803,"current_range_meters":28400,"station_id":"ce4bgt12rcd13ifvqce0","pricing_plan_id":"cebpf4jnsgd1na2vs0mg"},{"bike_id":"afebca69-d99e-4e16-b749-e29d048e40ad","system_id":"levelo_inurba_marseille","lat":43.31266,"lon":5.40173,"is_reserved":false,"is_disabled":false,"rental_uris":{"android":"levelo://app?vid=afebca69-d99e-4e16-b749-e29d048e40ad","ios":"levelo://app?vid=afebca69-d99e-4e16-b749-e29d048e40ad"},"vehicle_type_id":"4","last_reported":1729044803,"current_range_meters":39200,"station_id":"ce4bh092rcd13ifvqd30","pricing_plan_id":"cebpf4jnsgd1na2vs0mg"},{"bike_id":"f481e932-7688-45a1-b4f9-41f97ea6905e","system_id":"levelo_inurba_marseille","lat":43.2843,"lon":5.3919,"is_reserved":false,"is_disabled":false,"rental_uris":{"android":"levelo://app?vid=f481e932-7688-45a1-b4f9-41f97ea6905e","ios":"levelo://app?vid=f481e932-7688-45a1-b4f9-41f97ea6905e"},"vehicle_type_id":"4","last_reported":1729044803,"current_range_meters":38400,"station_id":"ce4bhoh2rcd13ifvqh5g","pricing_plan_id":"cebpf4jnsgd1na2vs0mg"},{"bike_id":"1b901512-e347-4bf4-9c5d-106267a427c1","system_id":"levelo_inurba_marseille","lat":43.28138,"lon":5.42638,"is_reserved":false,"is_disabled":false,"rental_uris":{"android":"levelo://app?vid=1b901512-e347-4bf4-9c5d-106267a427c1","ios":"levelo://app?vid=1b901512-e347-4bf4-9c5d-106267a427c1"},"vehicle_type_id":"4","last_reported":1729044803,"current_range_meters":12000,"station_id":"ce4bhnh2rcd13ifvqgug","pricing_plan_id":"cebpf4jnsgd1na2vs0mg"},{"bike_id":"694d89bd-bac3-4c55-9600-80fe90f45ec4","system_id":"levelo_inurba_marseille","lat":43.33603,"lon":5.41021,"is_reserved":false,"is_disabled":false,"rental_uris":{"android":"levelo://app?vid=694d89bd-bac3-4c55-9600-80fe90f45ec4","ios":"levelo://app?vid=694d89bd-bac3-4c55-9600-80fe90f45ec4"},"vehicle_type_id":"4","last_reported":1729044803,"current_range_meters":39200,"station_id":"ce4bhqh2rcd13ifvqhmg","pricing_plan_id":"cebpf4jnsgd1na2vs0mg"},{"bike_id":"be3717e7-61b1-41a0-b1ad-41c04fa8efbf","system_id":"levelo_inurba_marseille","lat":43.2926,"lon":5.40164,"is_reserved":false,"is_disabled":false,"rental_uris":{"android":"levelo://app?vid=be3717e7-61b1-41a0-b1ad-41c04fa8efbf","ios":"levelo://app?vid=be3717e7-61b1-41a0-b1ad-41c04fa8efbf"},"vehicle_type_id":"4","last_reported":1729044803,"current_range_meters":36400,"station_id":"ce4bh312rcd13ifvqdk0","pricing_plan_id":"cebpf4jnsgd1na2vs0mg"},{"bike_id":"5bee4394-3c6f-4e0b-ae7f-af2244610f6e","system_id":"levelo_inurba_marseille","lat":43.31992,"lon":5.3815,"is_reserved":false,"is_disabled":false,"rental_uris":{"android":"levelo://app?vid=5bee4394-3c6f-4e0b-ae7f-af2244610f6e","ios":"levelo://app?vid=5bee4394-3c6f-4e0b-ae7f-af2244610f6e"},"vehicle_type_id":"4","last_reported":1729044803,"current_range_meters":30400,"station_id":"ce4bhr12rcd13ifvqhpg","pricing_plan_id":"cebpf4jnsgd1na2vs0mg"},{"bike_id":"f3c1853e-8b8e-47e4-8746-d00e45b18cdc","system_id":"levelo_inurba_marseille","lat":43.32485,"lon":5.36546,"is_reserved":false,"is_disabled":false,"rental_uris":{"android":"levelo://app?vid=f3c1853e-8b8e-47e4-8746-d00e45b18cdc","ios":"levelo://app?vid=f3c1853e-8b8e-47e4-8746-d00e45b18cdc"},"vehicle_type_id":"4","last_reported":1729044803,"current_range_meters":11200,"station_id":"ce4bhs12rcd13ifvqhvg","pricing_plan_id":"cebpf4jnsgd1na2vs0mg"},{"bike_id":"03b52a53-4015-42f1-a46b-0d68e4ef1cf1","system_id":"levelo_inurba_marseille","lat":43.30523,"lon":5.36714,"is_reserved":false,"is_disabled":false,"rental_uris":{"android":"levelo://app?vid=03b52a53-4015-42f1-a46b-0d68e4ef1cf1","ios":"levelo://app?vid=03b52a53-4015-42f1-a46b-0d68e4ef1cf1"},"vehicle_type_id":"4","last_reported":1729044803,"current_range_meters":38000,"station_id":"ce4bgrp2rcd13ifvqc9g","pricing_plan_id":"cebpf4jnsgd1na2vs0mg"},{"bike_id":"a0d3d324-fa7e-4417-aee7-85012ecab44e","system_id":"levelo_inurba_marseille","lat":43.34183,"lon":5.44505,"is_reserved":false,"is_disabled":false,"rental_uris":{"android":"levelo://app?vid=a0d3d324-fa7e-4417-aee7-85012ecab44e","ios":"levelo://app?vid=a0d3d324-fa7e-4417-aee7-85012ecab44e"},"vehicle_type_id":"4","last_reported":1729044803,"current_range_meters":20400,"station_id":"","pricing_plan_id":"cebpf4jnsgd1na2vs0mg"},{"bike_id":"11464164-ff49-44b6-bf9b-d6f30c72e482","system_id":"levelo_inurba_marseille","lat":43.28831,"lon":5.3584,"is_reserved":false,"is_disabled":false,"rental_uris":{"android":"levelo://app?vid=11464164-ff49-44b6-bf9b-d6f30c72e482","ios":"levelo://app?vid=11464164-ff49-44b6-bf9b-d6f30c72e482"},"vehicle_type_id":"4","last_reported":1729044803,"current_range_meters":38800,"station_id":"ce4bhb12rcd13ifvqem0","pricing_plan_id":"cebpf4jnsgd1na2vs0mg"},{"bike_id":"4468d376-e0df-4383-9961-4e841773cedf","system_id":"levelo_inurba_marseille","lat":43.27853,"lon":5.39206,"is_reserved":false,"is_disabled":false,"rental_uris":{"android":"levelo://app?vid=4468d376-e0df-4383-9961-4e841773cedf","ios":"levelo://app?vid=4468d376-e0df-4383-9961-4e841773cedf"},"vehicle_type_id":"4","last_reported":1729044803,"current_range_meters":27200,"station_id":"ce4bhjp2rcd13ifvqga0","pricing_plan_id":"cebpf4jnsgd1na2vs0mg"},{"bike_id":"7353d6dd-912b-4f39-af42-33c79e4d4e64","system_id":"levelo_inurba_marseille","lat":43.30923,"lon":5.40148,"is_reserved":false,"is_disabled":false,"rental_uris":{"android":"levelo://app?vid=7353d6dd-912b-4f39-af42-33c79e4d4e64","ios":"levelo://app?vid=7353d6dd-912b-4f39-af42-33c79e4d4e64"},"vehicle_type_id":"4","last_reported":1729044803,"current_range_meters":38400,"station_id":"ce4bgvp2rcd13ifvqct0","pricing_plan_id":"cebpf4jnsgd1na2vs0mg"},{"bike_id":"79e30f2a-dbb4-4e11-a8cc-e8d6312a0b59","system_id":"levelo_inurba_marseille","lat":43.29046,"lon":5.39944,"is_reserved":false,"is_disabled":false,"rental_uris":{"android":"levelo://app?vid=79e30f2a-dbb4-4e11-a8cc-e8d6312a0b59","ios":"levelo://app?vid=79e30f2a-dbb4-4e11-a8cc-e8d6312a0b59"},"vehicle_type_id":"4","last_reported":1729044803,"current_range_meters":38800,"station_id":"ce4bh392rcd13ifvqdm0","pricing_plan_id":"cebpf4jnsgd1na2vs0mg"},{"bike_id":"18c982b8-237e-441f-90af-6670f318a057","system_id":"levelo_inurba_marseille","lat":43.30238,"lon":5.40081,"is_reserved":false,"is_disabled":false,"rental_uris":{"android":"levelo://app?vid=18c982b8-237e-441f-90af-6670f318a057","ios":"levelo://app?vid=18c982b8-237e-441f-90af-6670f318a057"},"vehicle_type_id":"4","last_reported":1729044803,"current_range_meters":35600,"station_id":"ce4bgvh2rcd13ifvqcs0","pricing_plan_id":"cebpf4jnsgd1na2vs0mg"},{"bike_id":"b230e516-8543-43c6-9736-060369d51530","system_id":"levelo_inurba_marseille","lat":43.30166,"lon":5.38091,"is_reserved":false,"is_disabled":false,"rental_uris":{"android":"levelo://app?vid=b230e516-8543-43c6-9736-060369d51530","ios":"levelo://app?vid=b230e516-8543-43c6-9736-060369d51530"},"vehicle_type_id":"4","last_reported":1729044803,"current_range_meters":36800,"station_id":"ce4bgjp2rcd13ifvqbh0","pricing_plan_id":"cebpf4jnsgd1na2vs0mg"},{"bike_id":"1dfcc51b-3ade-41cf-8d98-a84cc672bf59","system_id":"levelo_inurba_marseille","lat":43.30357,"lon":5.41871,"is_reserved":false,"is_disabled":false,"rental_uris":{"android":"levelo://app?vid=1dfcc51b-3ade-41cf-8d98-a84cc672bf59","ios":"levelo://app?vid=1dfcc51b-3ade-41cf-8d98-a84cc672bf59"},"vehicle_type_id":"4","last_reported":1729044803,"current_range_meters":39200,"station_id":"ce4bhop2rcd13ifvqh7g","pricing_plan_id":"cebpf4jnsgd1na2vs0mg"},{"bike_id":"304a2d48-cecb-41b4-9d5c-49528f04f880","system_id":"levelo_inurba_marseille","lat":43.3209,"lon":5.41519,"is_reserved":false,"is_disabled":false,"rental_uris":{"android":"levelo://app?vid=304a2d48-cecb-41b4-9d5c-49528f04f880","ios":"levelo://app?vid=304a2d48-cecb-41b4-9d5c-49528f04f880"},"vehicle_type_id":"4","last_reported":1729044803,"current_range_meters":38000,"station_id":"ce4bhq92rcd13ifvqhkg","pricing_plan_id":"cebpf4jnsgd1na2vs0mg"},{"bike_id":"0994d7f0-fa2e-480f-b967-2b1e1b476b78","system_id":"levelo_inurba_marseille","lat":43.2319,"lon":5.35556,"is_reserved":false,"is_disabled":false,"rental_uris":{"android":"levelo://app?vid=0994d7f0-fa2e-480f-b967-2b1e1b476b78","ios":"levelo://app?vid=0994d7f0-fa2e-480f-b967-2b1e1b476b78"},"vehicle_type_id":"4","last_reported":1729044803,"current_range_meters":24000,"station_id":"ce4bhu92rcd13ifvqi70","pricing_plan_id":"cebpf4jnsgd1na2vs0mg"},{"bike_id":"63c47bc5-f167-4a5a-a9c2-0376516d4eba","system_id":"levelo_inurba_marseille","lat":43.27901,"lon":5.3801,"is_reserved":false,"is_disabled":false,"rental_uris":{"android":"levelo://app?vid=63c47bc5-f167-4a5a-a9c2-0376516d4eba","ios":"levelo://app?vid=63c47bc5-f167-4a5a-a9c2-0376516d4eba"},"vehicle_type_id":"4","last_reported":1729044803,"current_range_meters":32400,"station_id":"ce4bhf92rcd13ifvqf50","pricing_plan_id":"cebpf4jnsgd1na2vs0mg"},{"bike_id":"4d423de8-5e22-441a-8848-ae5dc9d8eb39","system_id":"levelo_inurba_marseille","lat":43.33726,"lon":5.37455,"is_reserved":false,"is_disabled":false,"rental_uris":{"android":"levelo://app?vid=4d423de8-5e22-441a-8848-ae5dc9d8eb39","ios":"levelo://app?vid=4d423de8-5e22-441a-8848-ae5dc9d8eb39"},"vehicle_type_id":"4","last_reported":1729044803,"current_range_meters":8000,"station_id":"","pricing_plan_id":"cebpf4jnsgd1na2vs0mg"},{"bike_id":"580b1654-640b-4597-a067-3464faced946","system_id":"levelo_inurba_marseille","lat":43.31171,"lon":5.38745,"is_reserved":false,"is_disabled":false,"rental_uris":{"android":"levelo://app?vid=580b1654-640b-4597-a067-3464faced946","ios":"levelo://app?vid=580b1654-640b-4597-a067-3464faced946"},"vehicle_type_id":"4","last_reported":1729044803,"current_range_meters":39200,"station_id":"ce4bgv12rcd13ifvqcp0","pricing_plan_id":"cebpf4jnsgd1na2vs0mg"},{"bike_id":"66ccc46d-618e-4760-b09c-27382152bdab","system_id":"levelo_inurba_marseille","lat":43.23208,"lon":5.3556,"is_reserved":false,"is_disabled":false,"rental_uris":{"android":"levelo://app?vid=66ccc46d-618e-4760-b09c-27382152bdab","ios":"levelo://app?vid=66ccc46d-618e-4760-b09c-27382152bdab"},"vehicle_type_id":"4","last_reported":1729044803,"current_range_meters":38800,"station_id":"ce4bhu92rcd13ifvqi70","pricing_plan_id":"cebpf4jnsgd1na2vs0mg"},{"bike_id":"e37fdd7e-9a7c-456d-9f9f-4bb1a00ecd06","system_id":"levelo_inurba_marseille","lat":43.2681,"lon":5.40246,"is_reserved":false,"is_disabled":false,"rental_uris":{"android":"levelo://app?vid=e37fdd7e-9a7c-456d-9f9f-4bb1a00ecd06","ios":"levelo://app?vid=e37fdd7e-9a7c-456d-9f9f-4bb1a00ecd06"},"vehicle_type_id":"4","last_reported":1729044803,"current_range_meters":38400,"station_id":"ce501612rcd8frsf0b60","pricing_plan_id":"cebpf4jnsgd1na2vs0mg"},{"bike_id":"04be5d67-ba2f-422d-bbc3-12c812c672d5","system_id":"levelo_inurba_marseille","lat":43.29195,"lon":5.39295,"is_reserved":false,"is_disabled":false,"rental_uris":{"android":"levelo://app?vid=04be5d67-ba2f-422d-bbc3-12c812c672d5","ios":"levelo://app?vid=04be5d67-ba2f-422d-bbc3-12c812c672d5"},"vehicle_type_id":"4","last_reported":1729044803,"current_range_meters":25600,"station_id":"ce4bh192rcd13ifvqdd0","pricing_plan_id":"cebpf4jnsgd1na2vs0mg"},{"bike_id":"894284a4-2dbd-4cdc-b4ed-ea3719f77fed","system_id":"levelo_inurba_marseille","lat":43.3065,"lon":5.40082,"is_reserved":false,"is_disabled":false,"rental_uris":{"android":"levelo://app?vid=894284a4-2dbd-4cdc-b4ed-ea3719f77fed","ios":"levelo://app?vid=894284a4-2dbd-4cdc-b4ed-ea3719f77fed"},"vehicle_type_id":"4","last_reported":1729044803,"current_range_meters":39200,"station_id":"ce4bh112rcd13ifvqda0","pricing_plan_id":"cebpf4jnsgd1na2vs0mg"},{"bike_id":"208f8ea6-5fd0-4d62-8e76-df32fecc47be","system_id":"levelo_inurba_marseille","lat":43.25011,"lon":5.38929,"is_reserved":false,"is_disabled":false,"rental_uris":{"android":"levelo://app?vid=208f8ea6-5fd0-4d62-8e76-df32fecc47be","ios":"levelo://app?vid=208f8ea6-5fd0-4d62-8e76-df32fecc47be"},"vehicle_type_id":"4","last_reported":1729044803,"current_range_meters":4400,"station_id":"ce4bhgp2rcd13ifvqfd0","pricing_plan_id":"cebpf4jnsgd1na2vs0mg"},{"bike_id":"433f6513-bfc9-4015-8583-49fa8b9c7c86","system_id":"levelo_inurba_marseille","lat":43.26581,"lon":5.37275,"is_reserved":false,"is_disabled":false,"rental_uris":{"android":"levelo://app?vid=433f6513-bfc9-4015-8583-49fa8b9c7c86","ios":"levelo://app?vid=433f6513-bfc9-4015-8583-49fa8b9c7c86"},"vehicle_type_id":"4","last_reported":1729044803,"current_range_meters":28400,"station_id":"ce4bhg12rcd13ifvqf70","pricing_plan_id":"cebpf4jnsgd1na2vs0mg"},{"bike_id":"565cddd8-2b24-423e-a39c-a1a1647c985d","system_id":"levelo_inurba_marseille","lat":43.2997,"lon":5.37202,"is_reserved":false,"is_disabled":false,"rental_uris":{"android":"levelo://app?vid=565cddd8-2b24-423e-a39c-a1a1647c985d","ios":"levelo://app?vid=565cddd8-2b24-423e-a39c-a1a1647c985d"},"vehicle_type_id":"4","last_reported":1729044803,"current_range_meters":39200,"station_id":"ce4bgr92rcd13ifvqc7g","pricing_plan_id":"cebpf4jnsgd1na2vs0mg"},{"bike_id":"f1b965f3-fe20-449d-b83b-3a6c402d86c1","system_id":"levelo_inurba_marseille","lat":43.28939,"lon":5.3835,"is_reserved":false,"is_disabled":false,"rental_uris":{"android":"levelo://app?vid=f1b965f3-fe20-449d-b83b-3a6c402d86c1","ios":"levelo://app?vid=f1b965f3-fe20-449d-b83b-3a6c402d86c1"},"vehicle_type_id":"4","last_reported":1729044803,"current_range_meters":39200,"station_id":"ce4bh612rcd13ifvqe6g","pricing_plan_id":"cebpf4jnsgd1na2vs0mg"},{"bike_id":"8e08741b-2c89-4b9b-a445-450ad67c8860","system_id":"levelo_inurba_marseille","lat":43.30893,"lon":5.39629,"is_reserved":false,"is_disabled":false,"rental_uris":{"android":"levelo://app?vid=8e08741b-2c89-4b9b-a445-450ad67c8860","ios":"levelo://app?vid=8e08741b-2c89-4b9b-a445-450ad67c8860"},"vehicle_type_id":"4","last_reported":1729044803,"current_range_meters":33600,"station_id":"ce4bh012rcd13ifvqcv0","pricing_plan_id":"cebpf4jnsgd1na2vs0mg"},{"bike_id":"0e960bdf-86ad-4785-82f5-793ed149092d","system_id":"levelo_inurba_marseille","lat":43.28484,"lon":5.38433,"is_reserved":false,"is_disabled":false,"rental_uris":{"android":"levelo://app?vid=0e960bdf-86ad-4785-82f5-793ed149092d","ios":"levelo://app?vid=0e960bdf-86ad-4785-82f5-793ed149092d"},"vehicle_type_id":"4","last_reported":1729044803,"current_range_meters":38400,"station_id":"ce4bh512rcd13ifvqe3g","pricing_plan_id":"cebpf4jnsgd1na2vs0mg"},{"bike_id":"f0c42c0c-3c13-4116-a992-63984828a8d3","system_id":"levelo_inurba_marseille","lat":43.30879,"lon":5.39643,"is_reserved":false,"is_disabled":false,"rental_uris":{"android":"levelo://app?vid=f0c42c0c-3c13-4116-a992-63984828a8d3","ios":"levelo://app?vid=f0c42c0c-3c13-4116-a992-63984828a8d3"},"vehicle_type_id":"4","last_reported":1729044803,"current_range_meters":38400,"station_id":"ce4bh012rcd13ifvqcv0","pricing_plan_id":"cebpf4jnsgd1na2vs0mg"},{"bike_id":"57c2ae1c-702d-46ee-91c0-e13b2835bfc2","system_id":"levelo_inurba_marseille","lat":43.31169,"lon":5.38715,"is_reserved":false,"is_disabled":false,"rental_uris":{"android":"levelo://app?vid=57c2ae1c-702d-46ee-91c0-e13b2835bfc2","ios":"levelo://app?vid=57c2ae1c-702d-46ee-91c0-e13b2835bfc2"},"vehicle_type_id":"4","last_reported":1729044803,"current_range_meters":22000,"station_id":"ce4bgv12rcd13ifvqcp0","pricing_plan_id":"cebpf4jnsgd1na2vs0mg"},{"bike_id":"6300df2c-b9fe-4275-916d-dd75e59140c9","system_id":"levelo_inurba_marseille","lat":43.23191,"lon":5.35554,"is_reserved":false,"is_disabled":false,"rental_uris":{"android":"levelo://app?vid=6300df2c-b9fe-4275-916d-dd75e59140c9","ios":"levelo://app?vid=6300df2c-b9fe-4275-916d-dd75e59140c9"},"vehicle_type_id":"4","last_reported":1729044803,"current_range_meters":39200,"station_id":"ce4bhu92rcd13ifvqi70","pricing_plan_id":"cebpf4jnsgd1na2vs0mg"},{"bike_id":"375e74d6-344e-47f1-a12d-7c0762da3195","system_id":"levelo_inurba_marseille","lat":43.31119,"lon":5.37744,"is_reserved":false,"is_disabled":false,"rental_uris":{"android":"levelo://app?vid=375e74d6-344e-47f1-a12d-7c0762da3195","ios":"levelo://app?vid=375e74d6-344e-47f1-a12d-7c0762da3195"},"vehicle_type_id":"4","last_reported":1729044803,"current_range_meters":19200,"station_id":"ce4bgt92rcd13ifvqcg0","pricing_plan_id":"cebpf4jnsgd1na2vs0mg"},{"bike_id":"1514a7f4-e548-4f4f-ac2d-3c752abb45a9","system_id":"levelo_inurba_marseille","lat":43.31495,"lon":5.3734,"is_reserved":false,"is_disabled":false,"rental_uris":{"android":"levelo://app?vid=1514a7f4-e548-4f4f-ac2d-3c752abb45a9","ios":"levelo://app?vid=1514a7f4-e548-4f4f-ac2d-3c752abb45a9"},"vehicle_type_id":"4","last_reported":1729044803,"current_range_meters":39200,"station_id":"ce4bgt12rcd13ifvqcd0","pricing_plan_id":"cebpf4jnsgd1na2vs0mg"},{"bike_id":"f9bd20aa-623e-4ff4-975c-7d4cfab24d90","system_id":"levelo_inurba_marseille","lat":43.23176,"lon":5.39996,"is_reserved":false,"is_disabled":false,"rental_uris":{"android":"levelo://app?vid=f9bd20aa-623e-4ff4-975c-7d4cfab24d90","ios":"levelo://app?vid=f9bd20aa-623e-4ff4-975c-7d4cfab24d90"},"vehicle_type_id":"4","last_reported":1729044803,"current_range_meters":27600,"station_id":"ce4bhn12rcd13ifvqgqg","pricing_plan_id":"cebpf4jnsgd1na2vs0mg"},{"bike_id":"ead5edcf-cf42-440b-9ad1-fb158fecb6b8","system_id":"levelo_inurba_marseille","lat":43.27983,"lon":5.40018,"is_reserved":false,"is_disabled":false,"rental_uris":{"android":"levelo://app?vid=ead5edcf-cf42-440b-9ad1-fb158fecb6b8","ios":"levelo://app?vid=ead5edcf-cf42-440b-9ad1-fb158fecb6b8"},"vehicle_type_id":"4","last_reported":1729044803,"current_range_meters":38000,"station_id":"ce4bho92rcd13ifvqh4g","pricing_plan_id":"cebpf4jnsgd1na2vs0mg"},{"bike_id":"4cde1df3-fa5a-4e9b-943f-e6e05c36b3a4","system_id":"levelo_inurba_marseille","lat":43.30628,"lon":5.40079,"is_reserved":false,"is_disabled":false,"rental_uris":{"android":"levelo://app?vid=4cde1df3-fa5a-4e9b-943f-e6e05c36b3a4","ios":"levelo://app?vid=4cde1df3-fa5a-4e9b-943f-e6e05c36b3a4"},"vehicle_type_id":"4","last_reported":1729044803,"current_range_meters":31200,"station_id":"ce4bh112rcd13ifvqda0","pricing_plan_id":"cebpf4jnsgd1na2vs0mg"},{"bike_id":"3497e993-2df3-4c96-b915-96335762aa97","system_id":"levelo_inurba_marseille","lat":43.29594,"lon":5.38114,"is_reserved":false,"is_disabled":false,"rental_uris":{"android":"levelo://app?vid=3497e993-2df3-4c96-b915-96335762aa97","ios":"levelo://app?vid=3497e993-2df3-4c96-b915-96335762aa97"},"vehicle_type_id":"4","last_reported":1729044803,"current_range_meters":28400,"station_id":"ce4bgl12rcd13ifvqbo0","pricing_plan_id":"cebpf4jnsgd1na2vs0mg"},{"bike_id":"75ee2c98-9745-4c13-9bad-121108492cf6","system_id":"levelo_inurba_marseille","lat":43.28424,"lon":5.39191,"is_reserved":false,"is_disabled":false,"rental_uris":{"android":"levelo://app?vid=75ee2c98-9745-4c13-9bad-121108492cf6","ios":"levelo://app?vid=75ee2c98-9745-4c13-9bad-121108492cf6"},"vehicle_type_id":"4","last_reported":1729044803,"current_range_meters":10000,"station_id":"ce4bhoh2rcd13ifvqh5g","pricing_plan_id":"cebpf4jnsgd1na2vs0mg"},{"bike_id":"2e27b999-0e69-425d-9c42-718e8c04baec","system_id":"levelo_inurba_marseille","lat":43.28415,"lon":5.37522,"is_reserved":false,"is_disabled":false,"rental_uris":{"android":"levelo://app?vid=2e27b999-0e69-425d-9c42-718e8c04baec","ios":"levelo://app?vid=2e27b999-0e69-425d-9c42-718e8c04baec"},"vehicle_type_id":"4","last_reported":1729044803,"current_range_meters":24800,"station_id":"ce4bh412rcd13ifvqds0","pricing_plan_id":"cebpf4jnsgd1na2vs0mg"},{"bike_id":"f1e080d6-3d21-4302-9b00-e34087e628dd","system_id":"levelo_inurba_marseille","lat":43.28743,"lon":5.39958,"is_reserved":false,"is_disabled":false,"rental_uris":{"android":"levelo://app?vid=f1e080d6-3d21-4302-9b00-e34087e628dd","ios":"levelo://app?vid=f1e080d6-3d21-4302-9b00-e34087e628dd"},"vehicle_type_id":"4","last_reported":1729044803,"current_range_meters":30400,"station_id":"ce4bho92rcd13ifvqh3g","pricing_plan_id":"cebpf4jnsgd1na2vs0mg"},{"bike_id":"4a13a42e-6b05-47bc-8fc0-a11675b56735","system_id":"levelo_inurba_marseille","lat":43.30369,"lon":5.40021,"is_reserved":false,"is_disabled":false,"rental_uris":{"android":"levelo://app?vid=4a13a42e-6b05-47bc-8fc0-a11675b56735","ios":"levelo://app?vid=4a13a42e-6b05-47bc-8fc0-a11675b56735"},"vehicle_type_id":"4","last_reported":1729044803,"current_range_meters":34000,"station_id":"","pricing_plan_id":"cebpf4jnsgd1na2vs0mg"},{"bike_id":"1bae4104-feb2-4ff5-a21d-98e5f929332f","system_id":"levelo_inurba_marseille","lat":43.28032,"lon":5.36941,"is_reserved":false,"is_disabled":false,"rental_uris":{"android":"levelo://app?vid=1bae4104-feb2-4ff5-a21d-98e5f929332f","ios":"levelo://app?vid=1bae4104-feb2-4ff5-a21d-98e5f929332f"},"vehicle_type_id":"4","last_reported":1729044803,"current_range_meters":28400,"station_id":"ce4bha12rcd13ifvqef0","pricing_plan_id":"cebpf4jnsgd1na2vs0mg"},{"bike_id":"602bd134-fdd6-4b99-ad25-6bc5e47df780","system_id":"levelo_inurba_marseille","lat":43.29292,"lon":5.37185,"is_reserved":false,"is_disabled":false,"rental_uris":{"android":"levelo://app?vid=602bd134-fdd6-4b99-ad25-6bc5e47df780","ios":"levelo://app?vid=602bd134-fdd6-4b99-ad25-6bc5e47df780"},"vehicle_type_id":"4","last_reported":1729044803,"current_range_meters":38400,"station_id":"ce4bgh92rcd13ifvqb40","pricing_plan_id":"cebpf4jnsgd1na2vs0mg"},{"bike_id":"faa3a5f4-8ab8-4f72-8d94-ee5f2a1ea137","system_id":"levelo_inurba_marseille","lat":43.30599,"lon":5.37218,"is_reserved":false,"is_disabled":false,"rental_uris":{"android":"levelo://app?vid=faa3a5f4-8ab8-4f72-8d94-ee5f2a1ea137","ios":"levelo://app?vid=faa3a5f4-8ab8-4f72-8d94-ee5f2a1ea137"},"vehicle_type_id":"4","last_reported":1729044803,"current_range_meters":39200,"station_id":"ce4bgqh2rcd13ifvqc4g","pricing_plan_id":"cebpf4jnsgd1na2vs0mg"},{"bike_id":"2140b6a3-5118-4150-823e-9225aeb56201","system_id":"levelo_inurba_marseille","lat":43.23196,"lon":5.35549,"is_reserved":false,"is_disabled":false,"rental_uris":{"android":"levelo://app?vid=2140b6a3-5118-4150-823e-9225aeb56201","ios":"levelo://app?vid=2140b6a3-5118-4150-823e-9225aeb56201"},"vehicle_type_id":"4","last_reported":1729044803,"current_range_meters":8400,"station_id":"ce4bhu92rcd13ifvqi70","pricing_plan_id":"cebpf4jnsgd1na2vs0mg"},{"bike_id":"ca6904a9-036a-496e-a32e-29aeb21ac5a8","system_id":"levelo_inurba_marseille","lat":43.27062,"lon":5.40263,"is_reserved":false,"is_disabled":false,"rental_uris":{"android":"levelo://app?vid=ca6904a9-036a-496e-a32e-29aeb21ac5a8","ios":"levelo://app?vid=ca6904a9-036a-496e-a32e-29aeb21ac5a8"},"vehicle_type_id":"4","last_reported":1729044803,"current_range_meters":38800,"station_id":"ce4bhk92rcd13ifvqgc0","pricing_plan_id":"cebpf4jnsgd1na2vs0mg"},{"bike_id":"e7aedd00-f53a-48fd-a6a9-30d36c872d2e","system_id":"levelo_inurba_marseille","lat":43.30267,"lon":5.37723,"is_reserved":false,"is_disabled":false,"rental_uris":{"android":"levelo://app?vid=e7aedd00-f53a-48fd-a6a9-30d36c872d2e","ios":"levelo://app?vid=e7aedd00-f53a-48fd-a6a9-30d36c872d2e"},"vehicle_type_id":"4","last_reported":1729044803,"current_range_meters":39200,"station_id":"ce4bguh2rcd13ifvqcj0","pricing_plan_id":"cebpf4jnsgd1na2vs0mg"},{"bike_id":"b835183f-c67b-438f-a562-daccc6516937","system_id":"levelo_inurba_marseille","lat":43.28117,"lon":5.37856,"is_reserved":false,"is_disabled":false,"rental_uris":{"android":"levelo://app?vid=b835183f-c67b-438f-a562-daccc6516937","ios":"levelo://app?vid=b835183f-c67b-438f-a562-daccc6516937"},"vehicle_type_id":"4","last_reported":1729044803,"current_range_meters":22400,"station_id":"ce4bha12rcd13ifvqee0","pricing_plan_id":"cebpf4jnsgd1na2vs0mg"},{"bike_id":"d5702eca-e8d2-4aaa-a10a-acacc237565b","system_id":"levelo_inurba_marseille","lat":43.30796,"lon":5.4353,"is_reserved":false,"is_disabled":false,"rental_uris":{"android":"levelo://app?vid=d5702eca-e8d2-4aaa-a10a-acacc237565b","ios":"levelo://app?vid=d5702eca-e8d2-4aaa-a10a-acacc237565b"},"vehicle_type_id":"4","last_reported":1729044803,"current_range_meters":39200,"station_id":"ce4bhph2rcd13ifvqheg","pricing_plan_id":"cebpf4jnsgd1na2vs0mg"},{"bike_id":"3dc45dfa-d49b-419e-9fc5-b9fb5b4001c7","system_id":"levelo_inurba_marseille","lat":43.30296,"lon":5.39221,"is_reserved":false,"is_disabled":false,"rental_uris":{"android":"levelo://app?vid=3dc45dfa-d49b-419e-9fc5-b9fb5b4001c7","ios":"levelo://app?vid=3dc45dfa-d49b-419e-9fc5-b9fb5b4001c7"},"vehicle_type_id":"4","last_reported":1729044803,"current_range_meters":31200,"station_id":"ce4bgkh2rcd13ifvqbk0","pricing_plan_id":"cebpf4jnsgd1na2vs0mg"},{"bike_id":"5ba00766-0989-456a-ada4-fbc20d33f620","system_id":"levelo_inurba_marseille","lat":43.30649,"lon":5.40083,"is_reserved":false,"is_disabled":false,"rental_uris":{"android":"levelo://app?vid=5ba00766-0989-456a-ada4-fbc20d33f620","ios":"levelo://app?vid=5ba00766-0989-456a-ada4-fbc20d33f620"},"vehicle_type_id":"4","last_reported":1729044803,"current_range_meters":38800,"station_id":"ce4bh112rcd13ifvqda0","pricing_plan_id":"cebpf4jnsgd1na2vs0mg"},{"bike_id":"537dd241-f9da-46a1-a1e3-a95f805ed20b","system_id":"levelo_inurba_marseille","lat":43.27968,"lon":5.38744,"is_reserved":false,"is_disabled":false,"rental_uris":{"android":"levelo://app?vid=537dd241-f9da-46a1-a1e3-a95f805ed20b","ios":"levelo://app?vid=537dd241-f9da-46a1-a1e3-a95f805ed20b"},"vehicle_type_id":"4","last_reported":1729044803,"current_range_meters":38800,"station_id":"ce4bhg12rcd13ifvqf80","pricing_plan_id":"cebpf4jnsgd1na2vs0mg"},{"bike_id":"52e37773-79c6-4443-94d6-5ed359faaaf0","system_id":"levelo_inurba_marseille","lat":43.30274,"lon":5.37716,"is_reserved":false,"is_disabled":false,"rental_uris":{"android":"levelo://app?vid=52e37773-79c6-4443-94d6-5ed359faaaf0","ios":"levelo://app?vid=52e37773-79c6-4443-94d6-5ed359faaaf0"},"vehicle_type_id":"4","last_reported":1729044803,"current_range_meters":9200,"station_id":"ce4bguh2rcd13ifvqcj0","pricing_plan_id":"cebpf4jnsgd1na2vs0mg"},{"bike_id":"2ef7640c-0ce7-4225-943a-0140a011a40d","system_id":"levelo_inurba_marseille","lat":43.2938,"lon":5.37242,"is_reserved":false,"is_disabled":false,"rental_uris":{"android":"levelo://app?vid=2ef7640c-0ce7-4225-943a-0140a011a40d","ios":"levelo://app?vid=2ef7640c-0ce7-4225-943a-0140a011a40d"},"vehicle_type_id":"4","last_reported":1729044803,"current_range_meters":36000,"station_id":"","pricing_plan_id":"cebpf4jnsgd1na2vs0mg"},{"bike_id":"b8895383-2bd4-4c9a-a2b5-80e706db80bd","system_id":"levelo_inurba_marseille","lat":43.31879,"lon":5.40738,"is_reserved":false,"is_disabled":false,"rental_uris":{"android":"levelo://app?vid=b8895383-2bd4-4c9a-a2b5-80e706db80bd","ios":"levelo://app?vid=b8895383-2bd4-4c9a-a2b5-80e706db80bd"},"vehicle_type_id":"4","last_reported":1729044803,"current_range_meters":38800,"station_id":"ce4bhq12rcd13ifvqhig","pricing_plan_id":"cebpf4jnsgd1na2vs0mg"},{"bike_id":"fe0ed97f-0597-4aef-86e2-d5d073ff43d3","system_id":"levelo_inurba_marseille","lat":43.2955,"lon":5.42278,"is_reserved":false,"is_disabled":false,"rental_uris":{"android":"levelo://app?vid=fe0ed97f-0597-4aef-86e2-d5d073ff43d3","ios":"levelo://app?vid=fe0ed97f-0597-4aef-86e2-d5d073ff43d3"},"vehicle_type_id":"4","last_reported":1729044803,"current_range_meters":39200,"station_id":"ce4bhph2rcd13ifvqhdg","pricing_plan_id":"cebpf4jnsgd1na2vs0mg"},{"bike_id":"103f921b-c6d2-4b04-ba1a-06583d6d71c4","system_id":"levelo_inurba_marseille","lat":43.30879,"lon":5.39656,"is_reserved":false,"is_disabled":false,"rental_uris":{"android":"levelo://app?vid=103f921b-c6d2-4b04-ba1a-06583d6d71c4","ios":"levelo://app?vid=103f921b-c6d2-4b04-ba1a-06583d6d71c4"},"vehicle_type_id":"4","last_reported":1729044803,"current_range_meters":39200,"station_id":"ce4bh012rcd13ifvqcv0","pricing_plan_id":"cebpf4jnsgd1na2vs0mg"},{"bike_id":"e4d140f2-5c87-4612-a80f-3eff0f4e85a9","system_id":"levelo_inurba_marseille","lat":43.27199,"lon":5.40979,"is_reserved":false,"is_disabled":false,"rental_uris":{"android":"levelo://app?vid=e4d140f2-5c87-4612-a80f-3eff0f4e85a9","ios":"levelo://app?vid=e4d140f2-5c87-4612-a80f-3eff0f4e85a9"},"vehicle_type_id":"4","last_reported":1729044803,"current_range_meters":39200,"station_id":"ce4bhl12rcd13ifvqgf0","pricing_plan_id":"cebpf4jnsgd1na2vs0mg"},{"bike_id":"a2633ada-9a98-4125-b6e7-14adf81b357f","system_id":"levelo_inurba_marseille","lat":43.31889,"lon":5.40728,"is_reserved":false,"is_disabled":false,"rental_uris":{"android":"levelo://app?vid=a2633ada-9a98-4125-b6e7-14adf81b357f","ios":"levelo://app?vid=a2633ada-9a98-4125-b6e7-14adf81b357f"},"vehicle_type_id":"4","last_reported":1729044803,"current_range_meters":39200,"station_id":"ce4bhq12rcd13ifvqhig","pricing_plan_id":"cebpf4jnsgd1na2vs0mg"},{"bike_id":"d1a680a5-3716-4936-b72f-9d90ed2634d9","system_id":"levelo_inurba_marseille","lat":43.29975,"lon":5.37178,"is_reserved":false,"is_disabled":false,"rental_uris":{"android":"levelo://app?vid=d1a680a5-3716-4936-b72f-9d90ed2634d9","ios":"levelo://app?vid=d1a680a5-3716-4936-b72f-9d90ed2634d9"},"vehicle_type_id":"4","last_reported":1729044803,"current_range_meters":39200,"station_id":"ce4bgr92rcd13ifvqc7g","pricing_plan_id":"cebpf4jnsgd1na2vs0mg"},{"bike_id":"679f4f3c-0203-4f7d-9836-538010d8d024","system_id":"levelo_inurba_marseille","lat":43.28039,"lon":5.36937,"is_reserved":false,"is_disabled":false,"rental_uris":{"android":"levelo://app?vid=679f4f3c-0203-4f7d-9836-538010d8d024","ios":"levelo://app?vid=679f4f3c-0203-4f7d-9836-538010d8d024"},"vehicle_type_id":"4","last_reported":1729044803,"current_range_meters":38400,"station_id":"ce4bha12rcd13ifvqef0","pricing_plan_id":"cebpf4jnsgd1na2vs0mg"},{"bike_id":"b44ca85b-fffc-4654-8efe-b3d329e7c53e","system_id":"levelo_inurba_marseille","lat":43.28077,"lon":5.39658,"is_reserved":false,"is_disabled":false,"rental_uris":{"android":"levelo://app?vid=b44ca85b-fffc-4654-8efe-b3d329e7c53e","ios":"levelo://app?vid=b44ca85b-fffc-4654-8efe-b3d329e7c53e"},"vehicle_type_id":"4","last_reported":1729044803,"current_range_meters":38000,"station_id":"ce4bho12rcd13ifvqh2g","pricing_plan_id":"cebpf4jnsgd1na2vs0mg"},{"bike_id":"d089d4bd-ba4c-4843-966d-a02f53ca9726","system_id":"levelo_inurba_marseille","lat":43.31102,"lon":5.37792,"is_reserved":false,"is_disabled":false,"rental_uris":{"android":"levelo://app?vid=d089d4bd-ba4c-4843-966d-a02f53ca9726","ios":"levelo://app?vid=d089d4bd-ba4c-4843-966d-a02f53ca9726"},"vehicle_type_id":"4","last_reported":1729044803,"current_range_meters":38800,"station_id":"ce4bgt92rcd13ifvqcg0","pricing_plan_id":"cebpf4jnsgd1na2vs0mg"},{"bike_id":"8c18e7a3-256d-4a3b-b531-a11dc24afda6","system_id":"levelo_inurba_marseille","lat":43.32,"lon":5.38149,"is_reserved":false,"is_disabled":false,"rental_uris":{"android":"levelo://app?vid=8c18e7a3-256d-4a3b-b531-a11dc24afda6","ios":"levelo://app?vid=8c18e7a3-256d-4a3b-b531-a11dc24afda6"},"vehicle_type_id":"4","last_reported":1729044803,"current_range_meters":39200,"station_id":"ce4bhr12rcd13ifvqhpg","pricing_plan_id":"cebpf4jnsgd1na2vs0mg"},{"bike_id":"42781909-ac05-4571-86bb-99a95ba104b6","system_id":"levelo_inurba_marseille","lat":43.29237,"lon":5.40138,"is_reserved":false,"is_disabled":false,"rental_uris":{"android":"levelo://app?vid=42781909-ac05-4571-86bb-99a95ba104b6","ios":"levelo://app?vid=42781909-ac05-4571-86bb-99a95ba104b6"},"vehicle_type_id":"4","last_reported":1729044803,"current_range_meters":38800,"station_id":"ce4bh312rcd13ifvqdk0","pricing_plan_id":"cebpf4jnsgd1na2vs0mg"},{"bike_id":"dbcc3846-1dac-4b5f-971c-9598b2324d1f","system_id":"levelo_inurba_marseille","lat":43.31477,"lon":5.37309,"is_reserved":false,"is_disabled":false,"rental_uris":{"android":"levelo://app?vid=dbcc3846-1dac-4b5f-971c-9598b2324d1f","ios":"levelo://app?vid=dbcc3846-1dac-4b5f-971c-9598b2324d1f"},"vehicle_type_id":"4","last_reported":1729044803,"current_range_meters":16400,"station_id":"ce4bgt12rcd13ifvqcd0","pricing_plan_id":"cebpf4jnsgd1na2vs0mg"},{"bike_id":"ffa2c653-c658-49dd-ae3f-7355fdcb38a1","system_id":"levelo_inurba_marseille","lat":43.28377,"lon":5.38629,"is_reserved":false,"is_disabled":false,"rental_uris":{"android":"levelo://app?vid=ffa2c653-c658-49dd-ae3f-7355fdcb38a1","ios":"levelo://app?vid=ffa2c653-c658-49dd-ae3f-7355fdcb38a1"},"vehicle_type_id":"4","last_reported":1729044803,"current_range_meters":22000,"station_id":"ce4bh492rcd13ifvqdvg","pricing_plan_id":"cebpf4jnsgd1na2vs0mg"},{"bike_id":"37e1f7b9-12a7-444a-9ec8-690164efbd86","system_id":"levelo_inurba_marseille","lat":43.26544,"lon":5.37302,"is_reserved":false,"is_disabled":false,"rental_uris":{"android":"levelo://app?vid=37e1f7b9-12a7-444a-9ec8-690164efbd86","ios":"levelo://app?vid=37e1f7b9-12a7-444a-9ec8-690164efbd86"},"vehicle_type_id":"4","last_reported":1729044803,"current_range_meters":38400,"station_id":"ce4bhg12rcd13ifvqf70","pricing_plan_id":"cebpf4jnsgd1na2vs0mg"},{"bike_id":"1641b826-604a-4181-8231-dca386f637a6","system_id":"levelo_inurba_marseille","lat":43.23193,"lon":5.35553,"is_reserved":false,"is_disabled":false,"rental_uris":{"android":"levelo://app?vid=1641b826-604a-4181-8231-dca386f637a6","ios":"levelo://app?vid=1641b826-604a-4181-8231-dca386f637a6"},"vehicle_type_id":"4","last_reported":1729044803,"current_range_meters":38800,"station_id":"ce4bhu92rcd13ifvqi70","pricing_plan_id":"cebpf4jnsgd1na2vs0mg"},{"bike_id":"89211ee2-076f-4df3-92bd-cd8885f2e76d","system_id":"levelo_inurba_marseille","lat":43.23205,"lon":5.35534,"is_reserved":false,"is_disabled":false,"rental_uris":{"android":"levelo://app?vid=89211ee2-076f-4df3-92bd-cd8885f2e76d","ios":"levelo://app?vid=89211ee2-076f-4df3-92bd-cd8885f2e76d"},"vehicle_type_id":"4","last_reported":1729044803,"current_range_meters":38800,"station_id":"ce4bhu92rcd13ifvqi70","pricing_plan_id":"cebpf4jnsgd1na2vs0mg"},{"bike_id":"839e752c-b57f-4cf6-8966-0ecd53dd5670","system_id":"levelo_inurba_marseille","lat":43.27816,"lon":5.40725,"is_reserved":false,"is_disabled":false,"rental_uris":{"android":"levelo://app?vid=839e752c-b57f-4cf6-8966-0ecd53dd5670","ios":"levelo://app?vid=839e752c-b57f-4cf6-8966-0ecd53dd5670"},"vehicle_type_id":"4","last_reported":1729044803,"current_range_meters":37600,"station_id":"ce4bhnh2rcd13ifvqgtg","pricing_plan_id":"cebpf4jnsgd1na2vs0mg"},{"bike_id":"425cf896-48b3-4d0d-a54c-a854a9b79eb4","system_id":"levelo_inurba_marseille","lat":43.27202,"lon":5.39183,"is_reserved":false,"is_disabled":false,"rental_uris":{"android":"levelo://app?vid=425cf896-48b3-4d0d-a54c-a854a9b79eb4","ios":"levelo://app?vid=425cf896-48b3-4d0d-a54c-a854a9b79eb4"},"vehicle_type_id":"4","last_reported":1729044803,"current_range_meters":38400,"station_id":"ce4bhhp2rcd13ifvqfm0","pricing_plan_id":"cebpf4jnsgd1na2vs0mg"},{"bike_id":"9dabbb9f-2820-49db-acc7-73662a324005","system_id":"levelo_inurba_marseille","lat":43.33737,"lon":5.3919,"is_reserved":false,"is_disabled":false,"rental_uris":{"android":"levelo://app?vid=9dabbb9f-2820-49db-acc7-73662a324005","ios":"levelo://app?vid=9dabbb9f-2820-49db-acc7-73662a324005"},"vehicle_type_id":"4","last_reported":1729044803,"current_range_meters":34800,"station_id":"ce4bhr92rcd13ifvqhsg","pricing_plan_id":"cebpf4jnsgd1na2vs0mg"},{"bike_id":"19fbb809-a845-42e8-b4aa-3d7321cda6a7","system_id":"levelo_inurba_marseille","lat":43.31518,"lon":5.38051,"is_reserved":false,"is_disabled":false,"rental_uris":{"android":"levelo://app?vid=19fbb809-a845-42e8-b4aa-3d7321cda6a7","ios":"levelo://app?vid=19fbb809-a845-42e8-b4aa-3d7321cda6a7"},"vehicle_type_id":"4","last_reported":1729044803,"current_range_meters":38800,"station_id":"ce4bhsp2rcd13ifvqi50","pricing_plan_id":"cebpf4jnsgd1na2vs0mg"},{"bike_id":"acea0b67-2e7f-4f99-b77a-88412f2e15b8","system_id":"levelo_inurba_marseille","lat":43.322927,"lon":5.382731,"is_reserved":false,"is_disabled":false,"rental_uris":{"android":"levelo://app?vid=acea0b67-2e7f-4f99-b77a-88412f2e15b8","ios":"levelo://app?vid=acea0b67-2e7f-4f99-b77a-88412f2e15b8"},"vehicle_type_id":"4","last_reported":1729044803,"current_range_meters":25600,"station_id":"ce4bhr12rcd13ifvqhqg","pricing_plan_id":"cebpf4jnsgd1na2vs0mg"},{"bike_id":"55a3337e-c45f-4bce-93ec-a4b648c24a42","system_id":"levelo_inurba_marseille","lat":43.22934,"lon":5.35379,"is_reserved":false,"is_disabled":false,"rental_uris":{"android":"levelo://app?vid=55a3337e-c45f-4bce-93ec-a4b648c24a42","ios":"levelo://app?vid=55a3337e-c45f-4bce-93ec-a4b648c24a42"},"vehicle_type_id":"4","last_reported":1729044803,"current_range_meters":38000,"station_id":"cpo3532slgdg3j2ikp40","pricing_plan_id":"cebpf4jnsgd1na2vs0mg"},{"bike_id":"f8278ac5-d1d7-48a6-8828-cd0ddbd5e94e","system_id":"levelo_inurba_marseille","lat":43.30791,"lon":5.4353,"is_reserved":false,"is_disabled":false,"rental_uris":{"android":"levelo://app?vid=f8278ac5-d1d7-48a6-8828-cd0ddbd5e94e","ios":"levelo://app?vid=f8278ac5-d1d7-48a6-8828-cd0ddbd5e94e"},"vehicle_type_id":"4","last_reported":1729044803,"current_range_meters":11200,"station_id":"ce4bhph2rcd13ifvqheg","pricing_plan_id":"cebpf4jnsgd1na2vs0mg"},{"bike_id":"ff6885c7-7c38-42e4-aacd-bb5c3f5b946b","system_id":"levelo_inurba_marseille","lat":43.27964,"lon":5.38697,"is_reserved":false,"is_disabled":false,"rental_uris":{"android":"levelo://app?vid=ff6885c7-7c38-42e4-aacd-bb5c3f5b946b","ios":"levelo://app?vid=ff6885c7-7c38-42e4-aacd-bb5c3f5b946b"},"vehicle_type_id":"4","last_reported":1729044803,"current_range_meters":37600,"station_id":"ce4bhg12rcd13ifvqf80","pricing_plan_id":"cebpf4jnsgd1na2vs0mg"},{"bike_id":"39602307-c7d4-4641-b4ba-9c649b739eec","system_id":"levelo_inurba_marseille","lat":43.305293,"lon":5.39925,"is_reserved":false,"is_disabled":false,"rental_uris":{"android":"levelo://app?vid=39602307-c7d4-4641-b4ba-9c649b739eec","ios":"levelo://app?vid=39602307-c7d4-4641-b4ba-9c649b739eec"},"vehicle_type_id":"4","last_reported":1729044803,"current_range_meters":22000,"station_id":"","pricing_plan_id":"cebpf4jnsgd1na2vs0mg"},{"bike_id":"3c4bb0eb-c397-48b0-ab1d-3f0fd16840f9","system_id":"levelo_inurba_marseille","lat":43.31375,"lon":5.38495,"is_reserved":false,"is_disabled":false,"rental_uris":{"android":"levelo://app?vid=3c4bb0eb-c397-48b0-ab1d-3f0fd16840f9","ios":"levelo://app?vid=3c4bb0eb-c397-48b0-ab1d-3f0fd16840f9"},"vehicle_type_id":"4","last_reported":1729044803,"current_range_meters":28000,"station_id":"ce4bgt92rcd13ifvqcf0","pricing_plan_id":"cebpf4jnsgd1na2vs0mg"},{"bike_id":"9822aee2-b4cc-4e67-a085-9db6b0a2c388","system_id":"levelo_inurba_marseille","lat":43.30346,"lon":5.4189,"is_reserved":false,"is_disabled":false,"rental_uris":{"android":"levelo://app?vid=9822aee2-b4cc-4e67-a085-9db6b0a2c388","ios":"levelo://app?vid=9822aee2-b4cc-4e67-a085-9db6b0a2c388"},"vehicle_type_id":"4","last_reported":1729044803,"current_range_meters":39200,"station_id":"ce4bhop2rcd13ifvqh7g","pricing_plan_id":"cebpf4jnsgd1na2vs0mg"},{"bike_id":"b2cd51c5-687e-4527-8dca-a1be22f1b61b","system_id":"levelo_inurba_marseille","lat":43.28716,"lon":5.37943,"is_reserved":false,"is_disabled":false,"rental_uris":{"android":"levelo://app?vid=b2cd51c5-687e-4527-8dca-a1be22f1b61b","ios":"levelo://app?vid=b2cd51c5-687e-4527-8dca-a1be22f1b61b"},"vehicle_type_id":"4","last_reported":1729044803,"current_range_meters":36000,"station_id":"ce4bh9p2rcd13ifvqec0","pricing_plan_id":"cebpf4jnsgd1na2vs0mg"},{"bike_id":"e27af180-720e-4a4c-ac01-648130308ab3","system_id":"levelo_inurba_marseille","lat":43.28429,"lon":5.39204,"is_reserved":false,"is_disabled":false,"rental_uris":{"android":"levelo://app?vid=e27af180-720e-4a4c-ac01-648130308ab3","ios":"levelo://app?vid=e27af180-720e-4a4c-ac01-648130308ab3"},"vehicle_type_id":"4","last_reported":1729044803,"current_range_meters":38800,"station_id":"ce4bhoh2rcd13ifvqh5g","pricing_plan_id":"cebpf4jnsgd1na2vs0mg"},{"bike_id":"2ea65bb2-7323-4b3a-b7ca-83d904989c73","system_id":"levelo_inurba_marseille","lat":43.28846,"lon":5.35872,"is_reserved":false,"is_disabled":false,"rental_uris":{"android":"levelo://app?vid=2ea65bb2-7323-4b3a-b7ca-83d904989c73","ios":"levelo://app?vid=2ea65bb2-7323-4b3a-b7ca-83d904989c73"},"vehicle_type_id":"4","last_reported":1729044803,"current_range_meters":6400,"station_id":"ce4bhb12rcd13ifvqem0","pricing_plan_id":"cebpf4jnsgd1na2vs0mg"},{"bike_id":"eea79da3-80a5-42c6-8540-1400d7d1121f","system_id":"levelo_inurba_marseille","lat":43.23197,"lon":5.35546,"is_reserved":false,"is_disabled":false,"rental_uris":{"android":"levelo://app?vid=eea79da3-80a5-42c6-8540-1400d7d1121f","ios":"levelo://app?vid=eea79da3-80a5-42c6-8540-1400d7d1121f"},"vehicle_type_id":"4","last_reported":1729044803,"current_range_meters":27200,"station_id":"ce4bhu92rcd13ifvqi70","pricing_plan_id":"cebpf4jnsgd1na2vs0mg"},{"bike_id":"b6d06cff-ac1e-4ccb-bb13-38d6bd7afddf","system_id":"levelo_inurba_marseille","lat":43.281104,"lon":5.378309,"is_reserved":false,"is_disabled":false,"rental_uris":{"android":"levelo://app?vid=b6d06cff-ac1e-4ccb-bb13-38d6bd7afddf","ios":"levelo://app?vid=b6d06cff-ac1e-4ccb-bb13-38d6bd7afddf"},"vehicle_type_id":"4","last_reported":1729044803,"current_range_meters":36800,"station_id":"ce4bha12rcd13ifvqee0","pricing_plan_id":"cebpf4jnsgd1na2vs0mg"},{"bike_id":"3e5f77f2-0018-4a3e-8eb4-afb609debd36","system_id":"levelo_inurba_marseille","lat":43.27028,"lon":5.40268,"is_reserved":false,"is_disabled":false,"rental_uris":{"android":"levelo://app?vid=3e5f77f2-0018-4a3e-8eb4-afb609debd36","ios":"levelo://app?vid=3e5f77f2-0018-4a3e-8eb4-afb609debd36"},"vehicle_type_id":"4","last_reported":1729044803,"current_range_meters":38800,"station_id":"ce4bhk92rcd13ifvqgc0","pricing_plan_id":"cebpf4jnsgd1na2vs0mg"},{"bike_id":"bfe6236b-33bf-4eaa-8a74-a6587f86e48e","system_id":"levelo_inurba_marseille","lat":43.25825,"lon":5.39428,"is_reserved":false,"is_disabled":false,"rental_uris":{"android":"levelo://app?vid=bfe6236b-33bf-4eaa-8a74-a6587f86e48e","ios":"levelo://app?vid=bfe6236b-33bf-4eaa-8a74-a6587f86e48e"},"vehicle_type_id":"4","last_reported":1729044803,"current_range_meters":28000,"station_id":"ce4bhip2rcd13ifvqft0","pricing_plan_id":"cebpf4jnsgd1na2vs0mg"},{"bike_id":"1643d94e-1263-4403-ae53-d258057220f2","system_id":"levelo_inurba_marseille","lat":43.3131,"lon":5.3971,"is_reserved":false,"is_disabled":false,"rental_uris":{"android":"levelo://app?vid=1643d94e-1263-4403-ae53-d258057220f2","ios":"levelo://app?vid=1643d94e-1263-4403-ae53-d258057220f2"},"vehicle_type_id":"4","last_reported":1729044803,"current_range_meters":39200,"station_id":"ce4bgvp2rcd13ifvqcu0","pricing_plan_id":"cebpf4jnsgd1na2vs0mg"},{"bike_id":"39c87495-e919-48df-ad42-0b47d2014833","system_id":"levelo_inurba_marseille","lat":43.23149,"lon":5.43717,"is_reserved":false,"is_disabled":false,"rental_uris":{"android":"levelo://app?vid=39c87495-e919-48df-ad42-0b47d2014833","ios":"levelo://app?vid=39c87495-e919-48df-ad42-0b47d2014833"},"vehicle_type_id":"4","last_reported":1729044803,"current_range_meters":8000,"station_id":"ce4bhmp2rcd13ifvqgog","pricing_plan_id":"cebpf4jnsgd1na2vs0mg"},{"bike_id":"16e8569e-9f49-4b55-b1d2-cd42a0e72b85","system_id":"levelo_inurba_marseille","lat":43.30536,"lon":5.38422,"is_reserved":false,"is_disabled":false,"rental_uris":{"android":"levelo://app?vid=16e8569e-9f49-4b55-b1d2-cd42a0e72b85","ios":"levelo://app?vid=16e8569e-9f49-4b55-b1d2-cd42a0e72b85"},"vehicle_type_id":"4","last_reported":1729044803,"current_range_meters":39200,"station_id":"ce4bgg92rcd13ifvqb30","pricing_plan_id":"cebpf4jnsgd1na2vs0mg"},{"bike_id":"faa18d53-4135-4ac2-bc40-06c958fe3cb1","system_id":"levelo_inurba_marseille","lat":43.30249,"lon":5.40093,"is_reserved":false,"is_disabled":false,"rental_uris":{"android":"levelo://app?vid=faa18d53-4135-4ac2-bc40-06c958fe3cb1","ios":"levelo://app?vid=faa18d53-4135-4ac2-bc40-06c958fe3cb1"},"vehicle_type_id":"4","last_reported":1729044803,"current_range_meters":39200,"station_id":"ce4bgvh2rcd13ifvqcs0","pricing_plan_id":"cebpf4jnsgd1na2vs0mg"},{"bike_id":"ff96eee3-1ac8-4888-9ae7-e4b6cc8154af","system_id":"levelo_inurba_marseille","lat":43.33739,"lon":5.3746,"is_reserved":false,"is_disabled":false,"rental_uris":{"android":"levelo://app?vid=ff96eee3-1ac8-4888-9ae7-e4b6cc8154af","ios":"levelo://app?vid=ff96eee3-1ac8-4888-9ae7-e4b6cc8154af"},"vehicle_type_id":"4","last_reported":1729044803,"current_range_meters":31200,"station_id":"","pricing_plan_id":"cebpf4jnsgd1na2vs0mg"},{"bike_id":"95073d4b-9f20-4e79-b8a6-bff95d6698ab","system_id":"levelo_inurba_marseille","lat":43.2781,"lon":5.40716,"is_reserved":false,"is_disabled":false,"rental_uris":{"android":"levelo://app?vid=95073d4b-9f20-4e79-b8a6-bff95d6698ab","ios":"levelo://app?vid=95073d4b-9f20-4e79-b8a6-bff95d6698ab"},"vehicle_type_id":"4","last_reported":1729044803,"current_range_meters":8400,"station_id":"ce4bhnh2rcd13ifvqgtg","pricing_plan_id":"cebpf4jnsgd1na2vs0mg"},{"bike_id":"5d098c1b-4f61-4fa0-b5bf-29729894a9a0","system_id":"levelo_inurba_marseille","lat":43.31106,"lon":5.37778,"is_reserved":false,"is_disabled":false,"rental_uris":{"android":"levelo://app?vid=5d098c1b-4f61-4fa0-b5bf-29729894a9a0","ios":"levelo://app?vid=5d098c1b-4f61-4fa0-b5bf-29729894a9a0"},"vehicle_type_id":"4","last_reported":1729044803,"current_range_meters":39200,"station_id":"ce4bgt92rcd13ifvqcg0","pricing_plan_id":"cebpf4jnsgd1na2vs0mg"},{"bike_id":"2850f2f0-982c-4108-9513-cd0600f09bae","system_id":"levelo_inurba_marseille","lat":43.31109,"lon":5.3778,"is_reserved":false,"is_disabled":false,"rental_uris":{"android":"levelo://app?vid=2850f2f0-982c-4108-9513-cd0600f09bae","ios":"levelo://app?vid=2850f2f0-982c-4108-9513-cd0600f09bae"},"vehicle_type_id":"4","last_reported":1729044803,"current_range_meters":39200,"station_id":"ce4bgt92rcd13ifvqcg0","pricing_plan_id":"cebpf4jnsgd1na2vs0mg"},{"bike_id":"f3f37656-ce16-4bc7-9064-03bceaa8c0a7","system_id":"levelo_inurba_marseille","lat":43.30587,"lon":5.39343,"is_reserved":false,"is_disabled":false,"rental_uris":{"android":"levelo://app?vid=f3f37656-ce16-4bc7-9064-03bceaa8c0a7","ios":"levelo://app?vid=f3f37656-ce16-4bc7-9064-03bceaa8c0a7"},"vehicle_type_id":"4","last_reported":1729044803,"current_range_meters":39200,"station_id":"ce4bh0p2rcd13ifvqd80","pricing_plan_id":"cebpf4jnsgd1na2vs0mg"},{"bike_id":"fe6084bb-8aa5-4752-9e06-97bd476b1682","system_id":"levelo_inurba_marseille","lat":43.26062,"lon":5.39389,"is_reserved":false,"is_disabled":false,"rental_uris":{"android":"levelo://app?vid=fe6084bb-8aa5-4752-9e06-97bd476b1682","ios":"levelo://app?vid=fe6084bb-8aa5-4752-9e06-97bd476b1682"},"vehicle_type_id":"4","last_reported":1729044803,"current_range_meters":20800,"station_id":"ce4bhh92rcd13ifvqfj0","pricing_plan_id":"cebpf4jnsgd1na2vs0mg"},{"bike_id":"4a6f41dc-8c4a-4f44-8dc8-add557fd2ced","system_id":"levelo_inurba_marseille","lat":43.28805,"lon":5.35834,"is_reserved":false,"is_disabled":false,"rental_uris":{"android":"levelo://app?vid=4a6f41dc-8c4a-4f44-8dc8-add557fd2ced","ios":"levelo://app?vid=4a6f41dc-8c4a-4f44-8dc8-add557fd2ced"},"vehicle_type_id":"4","last_reported":1729044803,"current_range_meters":38800,"station_id":"ce4bhb12rcd13ifvqem0","pricing_plan_id":"cebpf4jnsgd1na2vs0mg"},{"bike_id":"9c72c06e-702c-4f98-91cc-a95427f6ff2f","system_id":"levelo_inurba_marseille","lat":43.3026,"lon":5.40075,"is_reserved":false,"is_disabled":false,"rental_uris":{"android":"levelo://app?vid=9c72c06e-702c-4f98-91cc-a95427f6ff2f","ios":"levelo://app?vid=9c72c06e-702c-4f98-91cc-a95427f6ff2f"},"vehicle_type_id":"4","last_reported":1729044803,"current_range_meters":38800,"station_id":"ce4bgvh2rcd13ifvqcs0","pricing_plan_id":"cebpf4jnsgd1na2vs0mg"},{"bike_id":"fdb9f08a-443f-483a-a7e8-4099fe9c9e22","system_id":"levelo_inurba_marseille","lat":43.30143,"lon":5.37392,"is_reserved":false,"is_disabled":false,"rental_uris":{"android":"levelo://app?vid=fdb9f08a-443f-483a-a7e8-4099fe9c9e22","ios":"levelo://app?vid=fdb9f08a-443f-483a-a7e8-4099fe9c9e22"},"vehicle_type_id":"4","last_reported":1729044803,"current_range_meters":27600,"station_id":"ce4bgs92rcd13ifvqcc0","pricing_plan_id":"cebpf4jnsgd1na2vs0mg"},{"bike_id":"518eae26-0512-481d-a6d0-d16cfd19fb16","system_id":"levelo_inurba_marseille","lat":43.27809,"lon":5.40733,"is_reserved":false,"is_disabled":false,"rental_uris":{"android":"levelo://app?vid=518eae26-0512-481d-a6d0-d16cfd19fb16","ios":"levelo://app?vid=518eae26-0512-481d-a6d0-d16cfd19fb16"},"vehicle_type_id":"4","last_reported":1729044803,"current_range_meters":9600,"station_id":"ce4bhnh2rcd13ifvqgtg","pricing_plan_id":"cebpf4jnsgd1na2vs0mg"},{"bike_id":"79991d3d-436d-404c-880e-51d74dc7bda4","system_id":"levelo_inurba_marseille","lat":43.25573,"lon":5.38259,"is_reserved":false,"is_disabled":false,"rental_uris":{"android":"levelo://app?vid=79991d3d-436d-404c-880e-51d74dc7bda4","ios":"levelo://app?vid=79991d3d-436d-404c-880e-51d74dc7bda4"},"vehicle_type_id":"4","last_reported":1729044803,"current_range_meters":38000,"station_id":"ce4bhih2rcd13ifvqfs0","pricing_plan_id":"cebpf4jnsgd1na2vs0mg"},{"bike_id":"3d2a3428-1782-4835-ae61-b4cc1330d3aa","system_id":"levelo_inurba_marseille","lat":43.31729,"lon":5.42402,"is_reserved":false,"is_disabled":false,"rental_uris":{"android":"levelo://app?vid=3d2a3428-1782-4835-ae61-b4cc1330d3aa","ios":"levelo://app?vid=3d2a3428-1782-4835-ae61-b4cc1330d3aa"},"vehicle_type_id":"4","last_reported":1729044803,"current_range_meters":22800,"station_id":"ce4bhp92rcd13ifvqhbg","pricing_plan_id":"cebpf4jnsgd1na2vs0mg"},{"bike_id":"923909c1-d0bc-48ba-b167-16ee903340bd","system_id":"levelo_inurba_marseille","lat":43.23942,"lon":5.36628,"is_reserved":false,"is_disabled":false,"rental_uris":{"android":"levelo://app?vid=923909c1-d0bc-48ba-b167-16ee903340bd","ios":"levelo://app?vid=923909c1-d0bc-48ba-b167-16ee903340bd"},"vehicle_type_id":"4","last_reported":1729044803,"current_range_meters":38400,"station_id":"ce4bhi12rcd13ifvqfp0","pricing_plan_id":"cebpf4jnsgd1na2vs0mg"},{"bike_id":"ae5bf0f3-82cd-4290-8764-455d69f7575e","system_id":"levelo_inurba_marseille","lat":43.23957,"lon":5.36647,"is_reserved":false,"is_disabled":false,"rental_uris":{"android":"levelo://app?vid=ae5bf0f3-82cd-4290-8764-455d69f7575e","ios":"levelo://app?vid=ae5bf0f3-82cd-4290-8764-455d69f7575e"},"vehicle_type_id":"4","last_reported":1729044803,"current_range_meters":12000,"station_id":"ce4bhi12rcd13ifvqfp0","pricing_plan_id":"cebpf4jnsgd1na2vs0mg"},{"bike_id":"292b9425-1372-40d4-bf0a-fe57aa779a41","system_id":"levelo_inurba_marseille","lat":43.23057,"lon":5.35498,"is_reserved":false,"is_disabled":false,"rental_uris":{"android":"levelo://app?vid=292b9425-1372-40d4-bf0a-fe57aa779a41","ios":"levelo://app?vid=292b9425-1372-40d4-bf0a-fe57aa779a41"},"vehicle_type_id":"4","last_reported":1729044803,"current_range_meters":30000,"station_id":"cpo3342slgdg3j2ifvpg","pricing_plan_id":"cebpf4jnsgd1na2vs0mg"},{"bike_id":"62dcd66c-ac21-40ac-8398-53abfe185a2c","system_id":"levelo_inurba_marseille","lat":43.28676,"lon":5.37956,"is_reserved":false,"is_disabled":false,"rental_uris":{"android":"levelo://app?vid=62dcd66c-ac21-40ac-8398-53abfe185a2c","ios":"levelo://app?vid=62dcd66c-ac21-40ac-8398-53abfe185a2c"},"vehicle_type_id":"4","last_reported":1729044803,"current_range_meters":36000,"station_id":"ce4bh9p2rcd13ifvqec0","pricing_plan_id":"cebpf4jnsgd1na2vs0mg"},{"bike_id":"60c7ceff-fef3-4380-98cf-0ac594b84256","system_id":"levelo_inurba_marseille","lat":43.28706,"lon":5.37944,"is_reserved":false,"is_disabled":false,"rental_uris":{"android":"levelo://app?vid=60c7ceff-fef3-4380-98cf-0ac594b84256","ios":"levelo://app?vid=60c7ceff-fef3-4380-98cf-0ac594b84256"},"vehicle_type_id":"4","last_reported":1729044803,"current_range_meters":38000,"station_id":"ce4bh9p2rcd13ifvqec0","pricing_plan_id":"cebpf4jnsgd1na2vs0mg"},{"bike_id":"6f5ccedc-3a57-4a38-8cb0-1428ae2a389b","system_id":"levelo_inurba_marseille","lat":43.29917,"lon":5.37477,"is_reserved":false,"is_disabled":false,"rental_uris":{"android":"levelo://app?vid=6f5ccedc-3a57-4a38-8cb0-1428ae2a389b","ios":"levelo://app?vid=6f5ccedc-3a57-4a38-8cb0-1428ae2a389b"},"vehicle_type_id":"4","last_reported":1729044803,"current_range_meters":18000,"station_id":"ce4bgjh2rcd13ifvqbg0","pricing_plan_id":"cebpf4jnsgd1na2vs0mg"},{"bike_id":"a1636881-5425-4211-a193-ac69af1c8de1","system_id":"levelo_inurba_marseille","lat":43.28068,"lon":5.39655,"is_reserved":false,"is_disabled":false,"rental_uris":{"android":"levelo://app?vid=a1636881-5425-4211-a193-ac69af1c8de1","ios":"levelo://app?vid=a1636881-5425-4211-a193-ac69af1c8de1"},"vehicle_type_id":"4","last_reported":1729044803,"current_range_meters":39200,"station_id":"ce4bho12rcd13ifvqh2g","pricing_plan_id":"cebpf4jnsgd1na2vs0mg"},{"bike_id":"3039f881-ef16-4c40-ae72-4bb5e1c7e1e6","system_id":"levelo_inurba_marseille","lat":43.30321,"lon":5.4044,"is_reserved":false,"is_disabled":false,"rental_uris":{"android":"levelo://app?vid=3039f881-ef16-4c40-ae72-4bb5e1c7e1e6","ios":"levelo://app?vid=3039f881-ef16-4c40-ae72-4bb5e1c7e1e6"},"vehicle_type_id":"4","last_reported":1729044803,"current_range_meters":6400,"station_id":"ce4bh012rcd13ifvqd10","pricing_plan_id":"cebpf4jnsgd1na2vs0mg"},{"bike_id":"7db3671b-95d5-4e0a-970c-62aabaae9dc1","system_id":"levelo_inurba_marseille","lat":43.27978,"lon":5.38757,"is_reserved":false,"is_disabled":false,"rental_uris":{"android":"levelo://app?vid=7db3671b-95d5-4e0a-970c-62aabaae9dc1","ios":"levelo://app?vid=7db3671b-95d5-4e0a-970c-62aabaae9dc1"},"vehicle_type_id":"4","last_reported":1729044803,"current_range_meters":32000,"station_id":"ce4bhg12rcd13ifvqf80","pricing_plan_id":"cebpf4jnsgd1na2vs0mg"},{"bike_id":"b9de7d17-6ba5-4c2e-a7f1-a542d09a2c15","system_id":"levelo_inurba_marseille","lat":43.28932,"lon":5.36643,"is_reserved":false,"is_disabled":false,"rental_uris":{"android":"levelo://app?vid=b9de7d17-6ba5-4c2e-a7f1-a542d09a2c15","ios":"levelo://app?vid=b9de7d17-6ba5-4c2e-a7f1-a542d09a2c15"},"vehicle_type_id":"4","last_reported":1729044803,"current_range_meters":38800,"station_id":"ce4bhap2rcd13ifvqek0","pricing_plan_id":"cebpf4jnsgd1na2vs0mg"},{"bike_id":"0d667db3-7bae-49b4-90de-10e2b4c495f6","system_id":"levelo_inurba_marseille","lat":43.32358,"lon":5.38875,"is_reserved":false,"is_disabled":false,"rental_uris":{"android":"levelo://app?vid=0d667db3-7bae-49b4-90de-10e2b4c495f6","ios":"levelo://app?vid=0d667db3-7bae-49b4-90de-10e2b4c495f6"},"vehicle_type_id":"4","last_reported":1729044803,"current_range_meters":38800,"station_id":"ce4bhqp2rcd13ifvqhog","pricing_plan_id":"cebpf4jnsgd1na2vs0mg"},{"bike_id":"9e5c6458-de7e-45fb-88e0-38ed61c26e96","system_id":"levelo_inurba_marseille","lat":43.31106,"lon":5.3778,"is_reserved":false,"is_disabled":false,"rental_uris":{"android":"levelo://app?vid=9e5c6458-de7e-45fb-88e0-38ed61c26e96","ios":"levelo://app?vid=9e5c6458-de7e-45fb-88e0-38ed61c26e96"},"vehicle_type_id":"4","last_reported":1729044803,"current_range_meters":38400,"station_id":"ce4bgt92rcd13ifvqcg0","pricing_plan_id":"cebpf4jnsgd1na2vs0mg"},{"bike_id":"8e1d4e0d-5507-46d6-90b0-3fb646d87956","system_id":"levelo_inurba_marseille","lat":43.33598,"lon":5.40997,"is_reserved":false,"is_disabled":false,"rental_uris":{"android":"levelo://app?vid=8e1d4e0d-5507-46d6-90b0-3fb646d87956","ios":"levelo://app?vid=8e1d4e0d-5507-46d6-90b0-3fb646d87956"},"vehicle_type_id":"4","last_reported":1729044803,"current_range_meters":30000,"station_id":"ce4bhqh2rcd13ifvqhmg","pricing_plan_id":"cebpf4jnsgd1na2vs0mg"},{"bike_id":"463841e8-eb73-4ab7-951a-a75ae3ad3517","system_id":"levelo_inurba_marseille","lat":43.2796,"lon":5.38714,"is_reserved":false,"is_disabled":false,"rental_uris":{"android":"levelo://app?vid=463841e8-eb73-4ab7-951a-a75ae3ad3517","ios":"levelo://app?vid=463841e8-eb73-4ab7-951a-a75ae3ad3517"},"vehicle_type_id":"4","last_reported":1729044803,"current_range_meters":38000,"station_id":"ce4bhg12rcd13ifvqf80","pricing_plan_id":"cebpf4jnsgd1na2vs0mg"},{"bike_id":"b68c1f89-0804-4d6b-8148-c58b099db8c8","system_id":"levelo_inurba_marseille","lat":43.31483,"lon":5.37299,"is_reserved":false,"is_disabled":false,"rental_uris":{"android":"levelo://app?vid=b68c1f89-0804-4d6b-8148-c58b099db8c8","ios":"levelo://app?vid=b68c1f89-0804-4d6b-8148-c58b099db8c8"},"vehicle_type_id":"4","last_reported":1729044803,"current_range_meters":39200,"station_id":"ce4bgt12rcd13ifvqcd0","pricing_plan_id":"cebpf4jnsgd1na2vs0mg"},{"bike_id":"7a004670-1243-4204-855c-ce40124c52ee","system_id":"levelo_inurba_marseille","lat":43.22932,"lon":5.35373,"is_reserved":false,"is_disabled":false,"rental_uris":{"android":"levelo://app?vid=7a004670-1243-4204-855c-ce40124c52ee","ios":"levelo://app?vid=7a004670-1243-4204-855c-ce40124c52ee"},"vehicle_type_id":"4","last_reported":1729044803,"current_range_meters":24800,"station_id":"cpo3532slgdg3j2ikp40","pricing_plan_id":"cebpf4jnsgd1na2vs0mg"},{"bike_id":"c16b2465-23b0-4e05-a23b-1a81c701df3b","system_id":"levelo_inurba_marseille","lat":43.29551,"lon":5.42288,"is_reserved":false,"is_disabled":false,"rental_uris":{"android":"levelo://app?vid=c16b2465-23b0-4e05-a23b-1a81c701df3b","ios":"levelo://app?vid=c16b2465-23b0-4e05-a23b-1a81c701df3b"},"vehicle_type_id":"4","last_reported":1729044803,"current_range_meters":36000,"station_id":"ce4bhph2rcd13ifvqhdg","pricing_plan_id":"cebpf4jnsgd1na2vs0mg"},{"bike_id":"a5fb3947-14ea-4df3-b0e5-7147047e5a59","system_id":"levelo_inurba_marseille","lat":43.28715,"lon":5.37406,"is_reserved":false,"is_disabled":false,"rental_uris":{"android":"levelo://app?vid=a5fb3947-14ea-4df3-b0e5-7147047e5a59","ios":"levelo://app?vid=a5fb3947-14ea-4df3-b0e5-7147047e5a59"},"vehicle_type_id":"4","last_reported":1729044803,"current_range_meters":39200,"station_id":"ce4bh3p2rcd13ifvqdq0","pricing_plan_id":"cebpf4jnsgd1na2vs0mg"},{"bike_id":"440e3abe-d50e-4e03-a357-3f9aa340d6a9","system_id":"levelo_inurba_marseille","lat":43.29254,"lon":5.40911,"is_reserved":false,"is_disabled":false,"rental_uris":{"android":"levelo://app?vid=440e3abe-d50e-4e03-a357-3f9aa340d6a9","ios":"levelo://app?vid=440e3abe-d50e-4e03-a357-3f9aa340d6a9"},"vehicle_type_id":"4","last_reported":1729044803,"current_range_meters":38800,"station_id":"ce4bh192rcd13ifvqdc0","pricing_plan_id":"cebpf4jnsgd1na2vs0mg"},{"bike_id":"df7acb4d-6a30-48e5-9f4c-47c90a3a855e","system_id":"levelo_inurba_marseille","lat":43.28438,"lon":5.39178,"is_reserved":false,"is_disabled":false,"rental_uris":{"android":"levelo://app?vid=df7acb4d-6a30-48e5-9f4c-47c90a3a855e","ios":"levelo://app?vid=df7acb4d-6a30-48e5-9f4c-47c90a3a855e"},"vehicle_type_id":"4","last_reported":1729044803,"current_range_meters":36000,"station_id":"ce4bhoh2rcd13ifvqh5g","pricing_plan_id":"cebpf4jnsgd1na2vs0mg"},{"bike_id":"0648669d-f82d-4a29-99dc-57140eb55b69","system_id":"levelo_inurba_marseille","lat":43.2781,"lon":5.40738,"is_reserved":false,"is_disabled":false,"rental_uris":{"android":"levelo://app?vid=0648669d-f82d-4a29-99dc-57140eb55b69","ios":"levelo://app?vid=0648669d-f82d-4a29-99dc-57140eb55b69"},"vehicle_type_id":"4","last_reported":1729044803,"current_range_meters":32000,"station_id":"ce4bhnh2rcd13ifvqgtg","pricing_plan_id":"cebpf4jnsgd1na2vs0mg"},{"bike_id":"a9d80141-cb04-4f88-bcc5-9763572e3517","system_id":"levelo_inurba_marseille","lat":43.23192,"lon":5.35548,"is_reserved":false,"is_disabled":false,"rental_uris":{"android":"levelo://app?vid=a9d80141-cb04-4f88-bcc5-9763572e3517","ios":"levelo://app?vid=a9d80141-cb04-4f88-bcc5-9763572e3517"},"vehicle_type_id":"4","last_reported":1729044803,"current_range_meters":39200,"station_id":"ce4bhu92rcd13ifvqi70","pricing_plan_id":"cebpf4jnsgd1na2vs0mg"},{"bike_id":"e1e26b32-e0f7-4ea7-8874-c38e395b36e1","system_id":"levelo_inurba_marseille","lat":43.28712,"lon":5.39969,"is_reserved":false,"is_disabled":false,"rental_uris":{"android":"levelo://app?vid=e1e26b32-e0f7-4ea7-8874-c38e395b36e1","ios":"levelo://app?vid=e1e26b32-e0f7-4ea7-8874-c38e395b36e1"},"vehicle_type_id":"4","last_reported":1729044803,"current_range_meters":24400,"station_id":"ce4bho92rcd13ifvqh3g","pricing_plan_id":"cebpf4jnsgd1na2vs0mg"},{"bike_id":"d06f24f3-1961-4c39-8b26-c72733863fe9","system_id":"levelo_inurba_marseille","lat":43.33781,"lon":5.37443,"is_reserved":false,"is_disabled":false,"rental_uris":{"android":"levelo://app?vid=d06f24f3-1961-4c39-8b26-c72733863fe9","ios":"levelo://app?vid=d06f24f3-1961-4c39-8b26-c72733863fe9"},"vehicle_type_id":"4","last_reported":1729044803,"current_range_meters":22000,"station_id":"","pricing_plan_id":"cebpf4jnsgd1na2vs0mg"},{"bike_id":"c6fdf331-9c74-4a97-8d72-f054a727b453","system_id":"levelo_inurba_marseille","lat":43.29787,"lon":5.39332,"is_reserved":false,"is_disabled":false,"rental_uris":{"android":"levelo://app?vid=c6fdf331-9c74-4a97-8d72-f054a727b453","ios":"levelo://app?vid=c6fdf331-9c74-4a97-8d72-f054a727b453"},"vehicle_type_id":"4","last_reported":1729044803,"current_range_meters":39200,"station_id":"chh1huq6cuj3fo74tm60","pricing_plan_id":"cebpf4jnsgd1na2vs0mg"},{"bike_id":"5db95380-9dea-4d0d-b5da-432c1cf25039","system_id":"levelo_inurba_marseille","lat":43.2706,"lon":5.40264,"is_reserved":false,"is_disabled":false,"rental_uris":{"android":"levelo://app?vid=5db95380-9dea-4d0d-b5da-432c1cf25039","ios":"levelo://app?vid=5db95380-9dea-4d0d-b5da-432c1cf25039"},"vehicle_type_id":"4","last_reported":1729044803,"current_range_meters":38400,"station_id":"ce4bhk92rcd13ifvqgc0","pricing_plan_id":"cebpf4jnsgd1na2vs0mg"},{"bike_id":"5fcc9277-6082-429c-a40f-1a71556e394c","system_id":"levelo_inurba_marseille","lat":43.31111,"lon":5.37771,"is_reserved":false,"is_disabled":false,"rental_uris":{"android":"levelo://app?vid=5fcc9277-6082-429c-a40f-1a71556e394c","ios":"levelo://app?vid=5fcc9277-6082-429c-a40f-1a71556e394c"},"vehicle_type_id":"4","last_reported":1729044803,"current_range_meters":38800,"station_id":"ce4bgt92rcd13ifvqcg0","pricing_plan_id":"cebpf4jnsgd1na2vs0mg"},{"bike_id":"4f1712a5-53a6-4922-be42-d162dd37a0f1","system_id":"levelo_inurba_marseille","lat":43.29448,"lon":5.39761,"is_reserved":false,"is_disabled":false,"rental_uris":{"android":"levelo://app?vid=4f1712a5-53a6-4922-be42-d162dd37a0f1","ios":"levelo://app?vid=4f1712a5-53a6-4922-be42-d162dd37a0f1"},"vehicle_type_id":"4","last_reported":1729044803,"current_range_meters":18800,"station_id":"ce4bh3h2rcd13ifvqdo0","pricing_plan_id":"cebpf4jnsgd1na2vs0mg"},{"bike_id":"558f1d74-f6f0-4bd4-8403-458ac786e2ee","system_id":"levelo_inurba_marseille","lat":43.31273,"lon":5.40171,"is_reserved":false,"is_disabled":false,"rental_uris":{"android":"levelo://app?vid=558f1d74-f6f0-4bd4-8403-458ac786e2ee","ios":"levelo://app?vid=558f1d74-f6f0-4bd4-8403-458ac786e2ee"},"vehicle_type_id":"4","last_reported":1729044803,"current_range_meters":39200,"station_id":"ce4bh092rcd13ifvqd30","pricing_plan_id":"cebpf4jnsgd1na2vs0mg"},{"bike_id":"8b3decf7-2688-4c5e-b7f9-cf528467dc8d","system_id":"levelo_inurba_marseille","lat":43.299708,"lon":5.371762,"is_reserved":false,"is_disabled":false,"rental_uris":{"android":"levelo://app?vid=8b3decf7-2688-4c5e-b7f9-cf528467dc8d","ios":"levelo://app?vid=8b3decf7-2688-4c5e-b7f9-cf528467dc8d"},"vehicle_type_id":"4","last_reported":1729044803,"current_range_meters":18800,"station_id":"ce4bgr92rcd13ifvqc7g","pricing_plan_id":"cebpf4jnsgd1na2vs0mg"},{"bike_id":"d41309ab-1a1f-4395-acaa-455483c3f8e1","system_id":"levelo_inurba_marseille","lat":43.23199,"lon":5.35543,"is_reserved":false,"is_disabled":false,"rental_uris":{"android":"levelo://app?vid=d41309ab-1a1f-4395-acaa-455483c3f8e1","ios":"levelo://app?vid=d41309ab-1a1f-4395-acaa-455483c3f8e1"},"vehicle_type_id":"4","last_reported":1729044803,"current_range_meters":28800,"station_id":"ce4bhu92rcd13ifvqi70","pricing_plan_id":"cebpf4jnsgd1na2vs0mg"},{"bike_id":"f66bb608-2fde-4de2-9b8e-1584fe83bcf3","system_id":"levelo_inurba_marseille","lat":43.31474,"lon":5.37292,"is_reserved":false,"is_disabled":false,"rental_uris":{"android":"levelo://app?vid=f66bb608-2fde-4de2-9b8e-1584fe83bcf3","ios":"levelo://app?vid=f66bb608-2fde-4de2-9b8e-1584fe83bcf3"},"vehicle_type_id":"4","last_reported":1729044803,"current_range_meters":38400,"station_id":"ce4bgt12rcd13ifvqcd0","pricing_plan_id":"cebpf4jnsgd1na2vs0mg"},{"bike_id":"06dd358a-0f08-4b8d-ae05-8eaa2ef0f385","system_id":"levelo_inurba_marseille","lat":43.32028,"lon":5.41567,"is_reserved":false,"is_disabled":false,"rental_uris":{"android":"levelo://app?vid=06dd358a-0f08-4b8d-ae05-8eaa2ef0f385","ios":"levelo://app?vid=06dd358a-0f08-4b8d-ae05-8eaa2ef0f385"},"vehicle_type_id":"4","last_reported":1729044803,"current_range_meters":38000,"station_id":"ce4bhq92rcd13ifvqhkg","pricing_plan_id":"cebpf4jnsgd1na2vs0mg"},{"bike_id":"bf5516cd-fa21-4eb4-8e8c-cee2db3420f9","system_id":"levelo_inurba_marseille","lat":43.2901,"lon":5.40028,"is_reserved":false,"is_disabled":false,"rental_uris":{"android":"levelo://app?vid=bf5516cd-fa21-4eb4-8e8c-cee2db3420f9","ios":"levelo://app?vid=bf5516cd-fa21-4eb4-8e8c-cee2db3420f9"},"vehicle_type_id":"4","last_reported":1729044803,"current_range_meters":36000,"station_id":"","pricing_plan_id":"cebpf4jnsgd1na2vs0mg"},{"bike_id":"b76ca384-370b-400c-bc52-5dac189e1af4","system_id":"levelo_inurba_marseille","lat":43.30284,"lon":5.392,"is_reserved":false,"is_disabled":false,"rental_uris":{"android":"levelo://app?vid=b76ca384-370b-400c-bc52-5dac189e1af4","ios":"levelo://app?vid=b76ca384-370b-400c-bc52-5dac189e1af4"},"vehicle_type_id":"4","last_reported":1729044803,"current_range_meters":35600,"station_id":"ce4bgkh2rcd13ifvqbk0","pricing_plan_id":"cebpf4jnsgd1na2vs0mg"},