{"last_updated":1687308120,"ttl":30,"version":"2.2","data":{"bikes":[{"bike_id":"180504c2-7827-48ee-9b91-2441fa776e68","system_id":"levelo_inurba_marseille","lat":43.312206,"lon":5.368595,"is_reserved":false,"is_disabled":false,"rental_uris":{"android":"levelo://app?vid=180504c2-7827-48ee-9b91-2441fa776e68","ios":"levelo://app?vid=180504c2-7827-48ee-9b91-2441fa776e68"},"vehicle_type_id":"4","last_reported":1687308120,"current_range_meters":31200,"station_id":"ce4bgl92rcd13ifvqbq0","pricing_plan_id":"free"},{"bike_id":"74f48ebf-55e2-4db7-b856-11e05e657b93","system_id":"levelo_inurba_marseille","lat":43.312239,"lon":5.368562,"is_reserved":false,"is_disabled":false,"rental_uris":{"android":"levelo://app?vid=74f48ebf-55e2-4db7-b856-11e05e657b93","ios":"levelo://app?vid=74f48ebf-55e2-4db7-b856-11e05e657b93"},"vehicle_type_id":"4","last_reported":1687308120,"current_range_meters":26000,"station_id":"ce4bgl92rcd13ifvqbq0","pricing_plan_id":"free"},{"bike_id":"15c58c77-eaa8-44d5-8f06-0abe7047bd42","system_id":"levelo_inurba_marseille","lat":43.312239,"lon":5.368562,"is_reserved":false,"is_disabled":false,"rental_uris":{"android":"levelo://app?vid=15c58c77-eaa8-44d5-8f06-0abe7047bd42","ios":"levelo://app?vid=15c58c77-eaa8-44d5-8f06-0abe7047bd42"},"vehicle_type_id":"4","last_reported":1687308120,"current_range_meters":31600,"station_id":"ce4bgl92rcd13ifvqbq0","pricing_plan_id":"free"},{"bike_id":"6e4fd040-1866-4783-872c-dd21a7ae18af","system_id":"levelo_inurba_marseille","lat":43.31345,"lon":5.3706,"is_reserved":false,"is_disabled":false,"rental_uris":{"android":"levelo://app?vid=6e4fd040-1866-4783-872c-dd21a7ae18af","ios":"levelo://app?vid=6e4fd040-1866-4783-872c-dd21a7ae18af"},"vehicle_type_id":"4","last_reported":1687308120,"current_range_meters":12400,"station_id":"","pricing_plan_id":"free"},{"bike_id":"82a15b85-8b83-4c65-8fe3-515348bfb482","system_id":"levelo_inurba_marseille","lat":43.309076,"lon":5.368465,"is_reserved":false,"is_disabled":false,"rental_uris":{"android":"levelo://app?vid=82a15b85-8b83-4c65-8fe3-515348bfb482","ios":"levelo://app?vid=82a15b85-8b83-4c65-8fe3-515348bfb482"},"vehicle_type_id":"4","last_reported":1687308120,"current_range_meters":12800,"station_id":"ce4bgn92rcd13ifvqbvg","pricing_plan_id":"free"},{"bike_id":"d1e2bfa2-ecaa-4819-b76d-6a7316eb1153","system_id":"levelo_inurba_marseille","lat":43.3148,"lon":5.37308,"is_reserved":false,"is_disabled":false,"rental_uris":{"android":"levelo://app?vid=d1e2bfa2-ecaa-4819-b76d-6a7316eb1153","ios":"levelo://app?vid=d1e2bfa2-ecaa-4819-b76d-6a7316eb1153"},"vehicle_type_id":"4","last_reported":1687308120,"current_range_meters":31200,"station_id":"ce4bgt12rcd13ifvqcd0","pricing_plan_id":"free"},{"bike_id":"bc5cb4e9-19a3-402d-8482-706cb04f33a6","system_id":"levelo_inurba_marseille","lat":43.314811,"lon":5.373103,"is_reserved":false,"is_disabled":false,"rental_uris":{"android":"levelo://app?vid=bc5cb4e9-19a3-402d-8482-706cb04f33a6","ios":"levelo://app?vid=bc5cb4e9-19a3-402d-8482-706cb04f33a6"},"vehicle_type_id":"4","last_reported":1687308120,"current_range_meters":30000,"station_id":"ce4bgt12rcd13ifvqcd0","pricing_plan_id":"free"},{"bike_id":"14a6e91b-7e14-4834-af22-8971e8098b57","system_id":"levelo_inurba_marseille","lat":43.314811,"lon":5.373103,"is_reserved":false,"is_disabled":false,"rental_uris":{"android":"levelo://app?vid=14a6e91b-7e14-4834-af22-8971e8098b57","ios":"levelo://app?vid=14a6e91b-7e14-4834-af22-8971e8098b57"},"vehicle_type_id":"4","last_reported":1687308120,"current_range_meters":28000,"station_id":"ce4bgt12rcd13ifvqcd0","pricing_plan_id":"free"},{"bike_id":"0f30e9c0-439f-448b-8170-6848ff9cedd8","system_id":"levelo_inurba_marseille","lat":43.314811,"lon":5.373103,"is_reserved":false,"is_disabled":false,"rental_uris":{"android":"levelo://app?vid=0f30e9c0-439f-448b-8170-6848ff9cedd8","ios":"levelo://app?vid=0f30e9c0-439f-448b-8170-6848ff9cedd8"},"vehicle_type_id":"4","last_reported":1687308120,"current_range_meters":30400,"station_id":"ce4bgt12rcd13ifvqcd0","pricing_plan_id":"free"},{"bike_id":"2984e924-51e0-411e-86ea-e31cc7bdc0aa","system_id":"levelo_inurba_marseille","lat":43.314811,"lon":5.373103,"is_reserved":false,"is_disabled":false,"rental_uris":{"android":"levelo://app?vid=2984e924-51e0-411e-86ea-e31cc7bdc0aa","ios":"levelo://app?vid=2984e924-51e0-411e-86ea-e31cc7bdc0aa"},"vehicle_type_id":"4","last_reported":1687308120,"current_range_meters":31200,"station_id":"ce4bgt12rcd13ifvqcd0","pricing_plan_id":"free"},{"bike_id":"07f43394-ec75-4f70-841c-d1206723157a","system_id":"levelo_inurba_marseille","lat":43.314811,"lon":5.373104,"is_reserved":false,"is_disabled":false,"rental_uris":{"android":"levelo://app?vid=07f43394-ec75-4f70-841c-d1206723157a","ios":"levelo://app?vid=07f43394-ec75-4f70-841c-d1206723157a"},"vehicle_type_id":"4","last_reported":1687308120,"current_range_meters":30400,"station_id":"ce4bgt12rcd13ifvqcd0","pricing_plan_id":"free"},{"bike_id":"3da540aa-5929-4d4a-8397-46574265df24","system_id":"levelo_inurba_marseille","lat":43.30764,"lon":5.36709,"is_reserved":false,"is_disabled":false,"rental_uris":{"android":"levelo://app?vid=3da540aa-5929-4d4a-8397-46574265df24","ios":"levelo://app?vid=3da540aa-5929-4d4a-8397-46574265df24"},"vehicle_type_id":"4","last_reported":1687308120,"current_range_meters":15600,"station_id":"","pricing_plan_id":"free"},{"bike_id":"fab7070f-fbf1-437e-aeb2-3e7c2540d25a","system_id":"levelo_inurba_marseille","lat":43.308614,"lon":5.372098,"is_reserved":false,"is_disabled":false,"rental_uris":{"android":"levelo://app?vid=fab7070f-fbf1-437e-aeb2-3e7c2540d25a","ios":"levelo://app?vid=fab7070f-fbf1-437e-aeb2-3e7c2540d25a"},"vehicle_type_id":"4","last_reported":1687308120,"current_range_meters":4800,"station_id":"ce4bguh2rcd13ifvqckg","pricing_plan_id":"free"},{"bike_id":"c2a83626-8d17-4b07-9cc1-6c0206d190ba","system_id":"levelo_inurba_marseille","lat":43.308614,"lon":5.372098,"is_reserved":false,"is_disabled":false,"rental_uris":{"android":"levelo://app?vid=c2a83626-8d17-4b07-9cc1-6c0206d190ba","ios":"levelo://app?vid=c2a83626-8d17-4b07-9cc1-6c0206d190ba"},"vehicle_type_id":"4","last_reported":1687308120,"current_range_meters":31200,"station_id":"ce4bguh2rcd13ifvqckg","pricing_plan_id":"free"},{"bike_id":"b475ee37-c1fe-4aca-ac77-025107bae466","system_id":"levelo_inurba_marseille","lat":43.308614,"lon":5.372098,"is_reserved":false,"is_disabled":false,"rental_uris":{"android":"levelo://app?vid=b475ee37-c1fe-4aca-ac77-025107bae466","ios":"levelo://app?vid=b475ee37-c1fe-4aca-ac77-025107bae466"},"vehicle_type_id":"4","last_reported":1687308120,"current_range_meters":31200,"station_id":"ce4bguh2rcd13ifvqckg","pricing_plan_id":"free"},{"bike_id":"5fbdbe65-e141-4473-b7c7-3ca166ee6d1f","system_id":"levelo_inurba_marseille","lat":43.30825,"lon":5.37173,"is_reserved":false,"is_disabled":false,"rental_uris":{"android":"levelo://app?vid=5fbdbe65-e141-4473-b7c7-3ca166ee6d1f","ios":"levelo://app?vid=5fbdbe65-e141-4473-b7c7-3ca166ee6d1f"},"vehicle_type_id":"4","last_reported":1687308120,"current_range_meters":7200,"station_id":"","pricing_plan_id":"free"},{"bike_id":"d8b5c91a-a31c-46fc-bf8a-74752356e2e5","system_id":"levelo_inurba_marseille","lat":43.305368,"lon":5.367343,"is_reserved":false,"is_disabled":false,"rental_uris":{"android":"levelo://app?vid=d8b5c91a-a31c-46fc-bf8a-74752356e2e5","ios":"levelo://app?vid=d8b5c91a-a31c-46fc-bf8a-74752356e2e5"},"vehicle_type_id":"4","last_reported":1687308120,"current_range_meters":21200,"station_id":"ce4bgrp2rcd13ifvqc9g","pricing_plan_id":"free"},{"bike_id":"611fd36f-044b-4911-ae7a-7e332d9a2bb1","system_id":"levelo_inurba_marseille","lat":43.305989,"lon":5.37225,"is_reserved":false,"is_disabled":false,"rental_uris":{"android":"levelo://app?vid=611fd36f-044b-4911-ae7a-7e332d9a2bb1","ios":"levelo://app?vid=611fd36f-044b-4911-ae7a-7e332d9a2bb1"},"vehicle_type_id":"4","last_reported":1687308120,"current_range_meters":24000,"station_id":"ce4bgqh2rcd13ifvqc4g","pricing_plan_id":"free"},{"bike_id":"405bf2bc-c29d-46bb-8db9-32e904236719","system_id":"levelo_inurba_marseille","lat":43.305989,"lon":5.37225,"is_reserved":false,"is_disabled":false,"rental_uris":{"android":"levelo://app?vid=405bf2bc-c29d-46bb-8db9-32e904236719","ios":"levelo://app?vid=405bf2bc-c29d-46bb-8db9-32e904236719"},"vehicle_type_id":"4","last_reported":1687308120,"current_range_meters":19600,"station_id":"ce4bgqh2rcd13ifvqc4g","pricing_plan_id":"free"},{"bike_id":"949771ca-ce30-418e-a74a-c0fa392b3707","system_id":"levelo_inurba_marseille","lat":43.305989,"lon":5.37225,"is_reserved":false,"is_disabled":false,"rental_uris":{"android":"levelo://app?vid=949771ca-ce30-418e-a74a-c0fa392b3707","ios":"levelo://app?vid=949771ca-ce30-418e-a74a-c0fa392b3707"},"vehicle_type_id":"4","last_reported":1687308120,"current_range_meters":31600,"station_id":"ce4bgqh2rcd13ifvqc4g","pricing_plan_id":"free"},{"bike_id":"28f0430b-ad83-4d6a-b4f7-f32161bf12a2","system_id":"levelo_inurba_marseille","lat":43.305989,"lon":5.37225,"is_reserved":false,"is_disabled":false,"rental_uris":{"android":"levelo://app?vid=28f0430b-ad83-4d6a-b4f7-f32161bf12a2","ios":"levelo://app?vid=28f0430b-ad83-4d6a-b4f7-f32161bf12a2"},"vehicle_type_id":"4","last_reported":1687308120,"current_range_meters":12800,"station_id":"ce4bgqh2rcd13ifvqc4g","pricing_plan_id":"free"},{"bike_id":"d9d1da14-60ab-4212-8217-6959db230192","system_id":"levelo_inurba_marseille","lat":43.305989,"lon":5.37225,"is_reserved":false,"is_disabled":false,"rental_uris":{"android":"levelo://app?vid=d9d1da14-60ab-4212-8217-6959db230192","ios":"levelo://app?vid=d9d1da14-60ab-4212-8217-6959db230192"},"vehicle_type_id":"4","last_reported":1687308120,"current_range_meters":15200,"station_id":"ce4bgqh2rcd13ifvqc4g","pricing_plan_id":"free"},{"bike_id":"d659930b-8302-4239-9303-85ff1b285815","system_id":"levelo_inurba_marseille","lat":43.311131,"lon":5.377651,"is_reserved":false,"is_disabled":false,"rental_uris":{"android":"levelo://app?vid=d659930b-8302-4239-9303-85ff1b285815","ios":"levelo://app?vid=d659930b-8302-4239-9303-85ff1b285815"},"vehicle_type_id":"4","last_reported":1687308120,"current_range_meters":31200,"station_id":"ce4bgt92rcd13ifvqcg0","pricing_plan_id":"free"},{"bike_id":"a20f313d-1923-4565-9c7b-8908bd31dae3","system_id":"levelo_inurba_marseille","lat":43.311131,"lon":5.377651,"is_reserved":false,"is_disabled":false,"rental_uris":{"android":"levelo://app?vid=a20f313d-1923-4565-9c7b-8908bd31dae3","ios":"levelo://app?vid=a20f313d-1923-4565-9c7b-8908bd31dae3"},"vehicle_type_id":"4","last_reported":1687308120,"current_range_meters":31200,"station_id":"ce4bgt92rcd13ifvqcg0","pricing_plan_id":"free"},{"bike_id":"b4750d4b-fca1-49f0-9e81-42e88a5e63df","system_id":"levelo_inurba_marseille","lat":43.311131,"lon":5.377651,"is_reserved":false,"is_disabled":false,"rental_uris":{"android":"levelo://app?vid=b4750d4b-fca1-49f0-9e81-42e88a5e63df","ios":"levelo://app?vid=b4750d4b-fca1-49f0-9e81-42e88a5e63df"},"vehicle_type_id":"4","last_reported":1687308120,"current_range_meters":27600,"station_id":"ce4bgt92rcd13ifvqcg0","pricing_plan_id":"free"},{"bike_id":"9542c045-ad8a-41b8-af95-e59530959137","system_id":"levelo_inurba_marseille","lat":43.31118,"lon":5.37767,"is_reserved":false,"is_disabled":false,"rental_uris":{"android":"levelo://app?vid=9542c045-ad8a-41b8-af95-e59530959137","ios":"levelo://app?vid=9542c045-ad8a-41b8-af95-e59530959137"},"vehicle_type_id":"4","last_reported":1687308120,"current_range_meters":31600,"station_id":"ce4bgt92rcd13ifvqcg0","pricing_plan_id":"free"},{"bike_id":"2dcce2ee-e098-468d-b243-42ae18ddb246","system_id":"levelo_inurba_marseille","lat":43.311204,"lon":5.377688,"is_reserved":false,"is_disabled":false,"rental_uris":{"android":"levelo://app?vid=2dcce2ee-e098-468d-b243-42ae18ddb246","ios":"levelo://app?vid=2dcce2ee-e098-468d-b243-42ae18ddb246"},"vehicle_type_id":"4","last_reported":1687308120,"current_range_meters":31200,"station_id":"ce4bgt92rcd13ifvqcg0","pricing_plan_id":"free"},{"bike_id":"79e4506c-7524-4404-9815-1653e4d9dc42","system_id":"levelo_inurba_marseille","lat":43.31118,"lon":5.37772,"is_reserved":false,"is_disabled":false,"rental_uris":{"android":"levelo://app?vid=79e4506c-7524-4404-9815-1653e4d9dc42","ios":"levelo://app?vid=79e4506c-7524-4404-9815-1653e4d9dc42"},"vehicle_type_id":"4","last_reported":1687308120,"current_range_meters":26000,"station_id":"ce4bgt92rcd13ifvqcg0","pricing_plan_id":"free"},{"bike_id":"3c5cca0f-da08-4511-a6b3-35846f3de585","system_id":"levelo_inurba_marseille","lat":43.31115,"lon":5.37773,"is_reserved":false,"is_disabled":false,"rental_uris":{"android":"levelo://app?vid=3c5cca0f-da08-4511-a6b3-35846f3de585","ios":"levelo://app?vid=3c5cca0f-da08-4511-a6b3-35846f3de585"},"vehicle_type_id":"4","last_reported":1687308120,"current_range_meters":25200,"station_id":"ce4bgt92rcd13ifvqcg0","pricing_plan_id":"free"},{"bike_id":"e20541dd-afc3-4070-8e5b-072bbdedc6cd","system_id":"levelo_inurba_marseille","lat":43.31118,"lon":5.37776,"is_reserved":false,"is_disabled":false,"rental_uris":{"android":"levelo://app?vid=e20541dd-afc3-4070-8e5b-072bbdedc6cd","ios":"levelo://app?vid=e20541dd-afc3-4070-8e5b-072bbdedc6cd"},"vehicle_type_id":"4","last_reported":1687308120,"current_range_meters":31200,"station_id":"ce4bgt92rcd13ifvqcg0","pricing_plan_id":"free"},{"bike_id":"20cec88b-4f69-4bf7-982f-3e624128ab0b","system_id":"levelo_inurba_marseille","lat":43.30304,"lon":5.368987,"is_reserved":false,"is_disabled":false,"rental_uris":{"android":"levelo://app?vid=20cec88b-4f69-4bf7-982f-3e624128ab0b","ios":"levelo://app?vid=20cec88b-4f69-4bf7-982f-3e624128ab0b"},"vehicle_type_id":"4","last_reported":1687308120,"current_range_meters":0,"station_id":"ce4bgqh2rcd13ifvqc5g","pricing_plan_id":"free"},{"bike_id":"a6d00662-36f7-4e0b-9bd6-28b6254b1f0a","system_id":"levelo_inurba_marseille","lat":43.315289,"lon":5.380349,"is_reserved":false,"is_disabled":false,"rental_uris":{"android":"levelo://app?vid=a6d00662-36f7-4e0b-9bd6-28b6254b1f0a","ios":"levelo://app?vid=a6d00662-36f7-4e0b-9bd6-28b6254b1f0a"},"vehicle_type_id":"4","last_reported":1687308120,"current_range_meters":14400,"station_id":"ce4bhsp2rcd13ifvqi50","pricing_plan_id":"free"},{"bike_id":"e03a486c-cb94-48d9-bfc0-c160b60b3997","system_id":"levelo_inurba_marseille","lat":43.315289,"lon":5.380349,"is_reserved":false,"is_disabled":false,"rental_uris":{"android":"levelo://app?vid=e03a486c-cb94-48d9-bfc0-c160b60b3997","ios":"levelo://app?vid=e03a486c-cb94-48d9-bfc0-c160b60b3997"},"vehicle_type_id":"4","last_reported":1687308120,"current_range_meters":5600,"station_id":"ce4bhsp2rcd13ifvqi50","pricing_plan_id":"free"},{"bike_id":"823a618a-a6a7-4dae-bb33-450277be421f","system_id":"levelo_inurba_marseille","lat":43.315289,"lon":5.380349,"is_reserved":false,"is_disabled":false,"rental_uris":{"android":"levelo://app?vid=823a618a-a6a7-4dae-bb33-450277be421f","ios":"levelo://app?vid=823a618a-a6a7-4dae-bb33-450277be421f"},"vehicle_type_id":"4","last_reported":1687308120,"current_range_meters":8400,"station_id":"ce4bhsp2rcd13ifvqi50","pricing_plan_id":"free"},{"bike_id":"56553388-33ad-49ad-b5b6-c45bbb1c9097","system_id":"levelo_inurba_marseille","lat":43.308012,"lon":5.381511,"is_reserved":false,"is_disabled":false,"rental_uris":{"android":"levelo://app?vid=56553388-33ad-49ad-b5b6-c45bbb1c9097","ios":"levelo://app?vid=56553388-33ad-49ad-b5b6-c45bbb1c9097"},"vehicle_type_id":"4","last_reported":1687308120,"current_range_meters":28400,"station_id":"ce4bgt12rcd13ifvqce0","pricing_plan_id":"free"},{"bike_id":"163b19cb-a8fa-459d-ac7c-380c4d0c8061","system_id":"levelo_inurba_marseille","lat":43.308012,"lon":5.381511,"is_reserved":false,"is_disabled":false,"rental_uris":{"android":"levelo://app?vid=163b19cb-a8fa-459d-ac7c-380c4d0c8061","ios":"levelo://app?vid=163b19cb-a8fa-459d-ac7c-380c4d0c8061"},"vehicle_type_id":"4","last_reported":1687308120,"current_range_meters":13200,"station_id":"ce4bgt12rcd13ifvqce0","pricing_plan_id":"free"},{"bike_id":"ae33307b-fcd5-479b-9ae1-9002ed226c6e","system_id":"levelo_inurba_marseille","lat":43.308012,"lon":5.381511,"is_reserved":false,"is_disabled":false,"rental_uris":{"android":"levelo://app?vid=ae33307b-fcd5-479b-9ae1-9002ed226c6e","ios":"levelo://app?vid=ae33307b-fcd5-479b-9ae1-9002ed226c6e"},"vehicle_type_id":"4","last_reported":1687308120,"current_range_meters":18400,"station_id":"ce4bgt12rcd13ifvqce0","pricing_plan_id":"free"},{"bike_id":"879f4dc3-f362-463d-9813-827fbf13d9cb","system_id":"levelo_inurba_marseille","lat":43.308012,"lon":5.381511,"is_reserved":false,"is_disabled":false,"rental_uris":{"android":"levelo://app?vid=879f4dc3-f362-463d-9813-827fbf13d9cb","ios":"levelo://app?vid=879f4dc3-f362-463d-9813-827fbf13d9cb"},"vehicle_type_id":"4","last_reported":1687308120,"current_range_meters":2000,"station_id":"ce4bgt12rcd13ifvqce0","pricing_plan_id":"free"},{"bike_id":"43fc693e-f2a9-4aec-8fd9-d094bb02cb70","system_id":"levelo_inurba_marseille","lat":43.304606,"lon":5.379026,"is_reserved":false,"is_disabled":false,"rental_uris":{"android":"levelo://app?vid=43fc693e-f2a9-4aec-8fd9-d094bb02cb70","ios":"levelo://app?vid=43fc693e-f2a9-4aec-8fd9-d094bb02cb70"},"vehicle_type_id":"4","last_reported":1687308120,"current_range_meters":8000,"station_id":"ce4bgup2rcd13ifvqcn0","pricing_plan_id":"free"},{"bike_id":"0e90e6ba-7ad8-409b-91ad-a0407844c455","system_id":"levelo_inurba_marseille","lat":43.302784,"lon":5.377158,"is_reserved":false,"is_disabled":false,"rental_uris":{"android":"levelo://app?vid=0e90e6ba-7ad8-409b-91ad-a0407844c455","ios":"levelo://app?vid=0e90e6ba-7ad8-409b-91ad-a0407844c455"},"vehicle_type_id":"4","last_reported":1687308120,"current_range_meters":24000,"station_id":"ce4bguh2rcd13ifvqcj0","pricing_plan_id":"free"},{"bike_id":"1280e4b8-6245-4716-8189-8f1aef068e67","system_id":"levelo_inurba_marseille","lat":43.30143,"lon":5.374123,"is_reserved":false,"is_disabled":false,"rental_uris":{"android":"levelo://app?vid=1280e4b8-6245-4716-8189-8f1aef068e67","ios":"levelo://app?vid=1280e4b8-6245-4716-8189-8f1aef068e67"},"vehicle_type_id":"4","last_reported":1687308120,"current_range_meters":4800,"station_id":"ce4bgs92rcd13ifvqcc0","pricing_plan_id":"free"},{"bike_id":"06d512ba-15c7-458c-a5d4-b9a3e3e5c174","system_id":"levelo_inurba_marseille","lat":43.319935,"lon":5.381699,"is_reserved":false,"is_disabled":false,"rental_uris":{"android":"levelo://app?vid=06d512ba-15c7-458c-a5d4-b9a3e3e5c174","ios":"levelo://app?vid=06d512ba-15c7-458c-a5d4-b9a3e3e5c174"},"vehicle_type_id":"4","last_reported":1687308120,"current_range_meters":9600,"station_id":"ce4bhr12rcd13ifvqhpg","pricing_plan_id":"free"},{"bike_id":"c7c64f8e-4e44-485d-80ef-c29f6be6f29a","system_id":"levelo_inurba_marseille","lat":43.319935,"lon":5.381699,"is_reserved":false,"is_disabled":false,"rental_uris":{"android":"levelo://app?vid=c7c64f8e-4e44-485d-80ef-c29f6be6f29a","ios":"levelo://app?vid=c7c64f8e-4e44-485d-80ef-c29f6be6f29a"},"vehicle_type_id":"4","last_reported":1687308120,"current_range_meters":30800,"station_id":"ce4bhr12rcd13ifvqhpg","pricing_plan_id":"free"},{"bike_id":"baae757c-8f10-49be-a4dd-bb0ca67b7e95","system_id":"levelo_inurba_marseille","lat":43.319935,"lon":5.381699,"is_reserved":false,"is_disabled":false,"rental_uris":{"android":"levelo://app?vid=baae757c-8f10-49be-a4dd-bb0ca67b7e95","ios":"levelo://app?vid=baae757c-8f10-49be-a4dd-bb0ca67b7e95"},"vehicle_type_id":"4","last_reported":1687308120,"current_range_meters":31200,"station_id":"ce4bhr12rcd13ifvqhpg","pricing_plan_id":"free"},{"bike_id":"ac78f4c7-6fc5-44eb-9cd4-13675f3f5d1e","system_id":"levelo_inurba_marseille","lat":43.319935,"lon":5.381699,"is_reserved":false,"is_disabled":false,"rental_uris":{"android":"levelo://app?vid=ac78f4c7-6fc5-44eb-9cd4-13675f3f5d1e","ios":"levelo://app?vid=ac78f4c7-6fc5-44eb-9cd4-13675f3f5d1e"},"vehicle_type_id":"4","last_reported":1687308120,"current_range_meters":28800,"station_id":"ce4bhr12rcd13ifvqhpg","pricing_plan_id":"free"},{"bike_id":"d057949d-ce75-4990-9145-a4652eeb481d","system_id":"levelo_inurba_marseille","lat":43.31368,"lon":5.3849,"is_reserved":false,"is_disabled":false,"rental_uris":{"android":"levelo://app?vid=d057949d-ce75-4990-9145-a4652eeb481d","ios":"levelo://app?vid=d057949d-ce75-4990-9145-a4652eeb481d"},"vehicle_type_id":"4","last_reported":1687308120,"current_range_meters":30000,"station_id":"ce4bgt92rcd13ifvqcf0","pricing_plan_id":"free"},{"bike_id":"c531d94b-ab2a-4da5-b2ea-760db15c630a","system_id":"levelo_inurba_marseille","lat":43.313571,"lon":5.384829,"is_reserved":false,"is_disabled":false,"rental_uris":{"android":"levelo://app?vid=c531d94b-ab2a-4da5-b2ea-760db15c630a","ios":"levelo://app?vid=c531d94b-ab2a-4da5-b2ea-760db15c630a"},"vehicle_type_id":"4","last_reported":1687308120,"current_range_meters":25200,"station_id":"ce4bgt92rcd13ifvqcf0","pricing_plan_id":"free"},{"bike_id":"7f082426-04bb-4fd0-a315-d021fffff7a4","system_id":"levelo_inurba_marseille","lat":43.313571,"lon":5.384829,"is_reserved":false,"is_disabled":false,"rental_uris":{"android":"levelo://app?vid=7f082426-04bb-4fd0-a315-d021fffff7a4","ios":"levelo://app?vid=7f082426-04bb-4fd0-a315-d021fffff7a4"},"vehicle_type_id":"4","last_reported":1687308120,"current_range_meters":6800,"station_id":"ce4bgt92rcd13ifvqcf0","pricing_plan_id":"free"},{"bike_id":"dbaa8ac8-d747-499d-93b4-fa5fe076a5c3","system_id":"levelo_inurba_marseille","lat":43.313571,"lon":5.384829,"is_reserved":false,"is_disabled":false,"rental_uris":{"android":"levelo://app?vid=dbaa8ac8-d747-499d-93b4-fa5fe076a5c3","ios":"levelo://app?vid=dbaa8ac8-d747-499d-93b4-fa5fe076a5c3"},"vehicle_type_id":"4","last_reported":1687308120,"current_range_meters":30400,"station_id":"ce4bgt92rcd13ifvqcf0","pricing_plan_id":"free"},{"bike_id":"b74b5536-2615-4fb3-978e-5cc344125ed0","system_id":"levelo_inurba_marseille","lat":43.313571,"lon":5.384829,"is_reserved":false,"is_disabled":false,"rental_uris":{"android":"levelo://app?vid=b74b5536-2615-4fb3-978e-5cc344125ed0","ios":"levelo://app?vid=b74b5536-2615-4fb3-978e-5cc344125ed0"},"vehicle_type_id":"4","last_reported":1687308120,"current_range_meters":31200,"station_id":"ce4bgt92rcd13ifvqcf0","pricing_plan_id":"free"},{"bike_id":"0e7d3dac-9869-4da6-835d-211d31e81309","system_id":"levelo_inurba_marseille","lat":43.313571,"lon":5.384829,"is_reserved":false,"is_disabled":false,"rental_uris":{"android":"levelo://app?vid=0e7d3dac-9869-4da6-835d-211d31e81309","ios":"levelo://app?vid=0e7d3dac-9869-4da6-835d-211d31e81309"},"vehicle_type_id":"4","last_reported":1687308120,"current_range_meters":10400,"station_id":"ce4bgt92rcd13ifvqcf0","pricing_plan_id":"free"},{"bike_id":"4160321f-25ba-445d-852a-c4f21fce7e1f","system_id":"levelo_inurba_marseille","lat":43.313571,"lon":5.384829,"is_reserved":false,"is_disabled":false,"rental_uris":{"android":"levelo://app?vid=4160321f-25ba-445d-852a-c4f21fce7e1f","ios":"levelo://app?vid=4160321f-25ba-445d-852a-c4f21fce7e1f"},"vehicle_type_id":"4","last_reported":1687308120,"current_range_meters":30800,"station_id":"ce4bgt92rcd13ifvqcf0","pricing_plan_id":"free"},{"bike_id":"45a8ae92-ac61-4a4e-9264-b5a07f565915","system_id":"levelo_inurba_marseille","lat":43.313571,"lon":5.384829,"is_reserved":false,"is_disabled":false,"rental_uris":{"android":"levelo://app?vid=45a8ae92-ac61-4a4e-9264-b5a07f565915","ios":"levelo://app?vid=45a8ae92-ac61-4a4e-9264-b5a07f565915"},"vehicle_type_id":"4","last_reported":1687308120,"current_range_meters":22000,"station_id":"ce4bgt92rcd13ifvqcf0","pricing_plan_id":"free"},{"bike_id":"62270a87-ddc7-4231-9504-97801b9c53f1","system_id":"levelo_inurba_marseille","lat":43.299222,"lon":5.365554,"is_reserved":false,"is_disabled":false,"rental_uris":{"android":"levelo://app?vid=62270a87-ddc7-4231-9504-97801b9c53f1","ios":"levelo://app?vid=62270a87-ddc7-4231-9504-97801b9c53f1"},"vehicle_type_id":"4","last_reported":1687308120,"current_range_meters":0,"station_id":"ce4bgm92rcd13ifvqbr0","pricing_plan_id":"free"},{"bike_id":"476af4cc-6d1e-47ac-9d00-55e5bd6e9ba9","system_id":"levelo_inurba_marseille","lat":43.299222,"lon":5.365554,"is_reserved":false,"is_disabled":false,"rental_uris":{"android":"levelo://app?vid=476af4cc-6d1e-47ac-9d00-55e5bd6e9ba9","ios":"levelo://app?vid=476af4cc-6d1e-47ac-9d00-55e5bd6e9ba9"},"vehicle_type_id":"4","last_reported":1687308120,"current_range_meters":16800,"station_id":"ce4bgm92rcd13ifvqbr0","pricing_plan_id":"free"},{"bike_id":"71d68b5b-d649-4ea4-b4e3-a337ea198988","system_id":"levelo_inurba_marseille","lat":43.314811,"lon":5.373103,"is_reserved":false,"is_disabled":false,"rental_uris":{"android":"levelo://app?vid=71d68b5b-d649-4ea4-b4e3-a337ea198988","ios":"levelo://app?vid=71d68b5b-d649-4ea4-b4e3-a337ea198988"},"vehicle_type_id":"4","last_reported":1687308120,"current_range_meters":26000,"station_id":"ce4bgt12rcd13ifvqcd0","pricing_plan_id":"free"},{"bike_id":"31f3560f-3f14-4de3-a1a7-605789804bcb","system_id":"levelo_inurba_marseille","lat":43.305364,"lon":5.384119,"is_reserved":false,"is_disabled":false,"rental_uris":{"android":"levelo://app?vid=31f3560f-3f14-4de3-a1a7-605789804bcb","ios":"levelo://app?vid=31f3560f-3f14-4de3-a1a7-605789804bcb"},"vehicle_type_id":"4","last_reported":1687308120,"current_range_meters":30400,"station_id":"ce4bgg92rcd13ifvqb30","pricing_plan_id":"free"},{"bike_id":"70460eed-4903-4460-98b4-a3951706d096","system_id":"levelo_inurba_marseille","lat":43.31166,"lon":5.38703,"is_reserved":false,"is_disabled":false,"rental_uris":{"android":"levelo://app?vid=70460eed-4903-4460-98b4-a3951706d096","ios":"levelo://app?vid=70460eed-4903-4460-98b4-a3951706d096"},"vehicle_type_id":"4","last_reported":1687308120,"current_range_meters":31200,"station_id":"ce4bgv12rcd13ifvqcp0","pricing_plan_id":"free"},{"bike_id":"429af25e-d07f-4069-a2a6-cca1850be77c","system_id":"levelo_inurba_marseille","lat":43.31165,"lon":5.38707,"is_reserved":false,"is_disabled":false,"rental_uris":{"android":"levelo://app?vid=429af25e-d07f-4069-a2a6-cca1850be77c","ios":"levelo://app?vid=429af25e-d07f-4069-a2a6-cca1850be77c"},"vehicle_type_id":"4","last_reported":1687308120,"current_range_meters":25600,"station_id":"ce4bgv12rcd13ifvqcp0","pricing_plan_id":"free"},{"bike_id":"8dd8161a-b409-41df-ba56-c56d7d96ed99","system_id":"levelo_inurba_marseille","lat":43.29918,"lon":5.37477,"is_reserved":false,"is_disabled":false,"rental_uris":{"android":"levelo://app?vid=8dd8161a-b409-41df-ba56-c56d7d96ed99","ios":"levelo://app?vid=8dd8161a-b409-41df-ba56-c56d7d96ed99"},"vehicle_type_id":"4","last_reported":1687308120,"current_range_meters":31200,"station_id":"ce4bgjh2rcd13ifvqbg0","pricing_plan_id":"free"},{"bike_id":"975173c0-05d9-44f3-9a69-9e2d8620156c","system_id":"levelo_inurba_marseille","lat":43.31169,"lon":5.3871,"is_reserved":false,"is_disabled":false,"rental_uris":{"android":"levelo://app?vid=975173c0-05d9-44f3-9a69-9e2d8620156c","ios":"levelo://app?vid=975173c0-05d9-44f3-9a69-9e2d8620156c"},"vehicle_type_id":"4","last_reported":1687308120,"current_range_meters":31200,"station_id":"ce4bgv12rcd13ifvqcp0","pricing_plan_id":"free"},{"bike_id":"92a61d2a-6aba-4973-aca9-2408aa84ea29","system_id":"levelo_inurba_marseille","lat":43.311722,"lon":5.387247,"is_reserved":false,"is_disabled":false,"rental_uris":{"android":"levelo://app?vid=92a61d2a-6aba-4973-aca9-2408aa84ea29","ios":"levelo://app?vid=92a61d2a-6aba-4973-aca9-2408aa84ea29"},"vehicle_type_id":"4","last_reported":1687308120,"current_range_meters":30400,"station_id":"ce4bgv12rcd13ifvqcp0","pricing_plan_id":"free"},{"bike_id":"d8b9cd91-019e-440a-b90d-554d309f7589","system_id":"levelo_inurba_marseille","lat":43.311722,"lon":5.387247,"is_reserved":false,"is_disabled":false,"rental_uris":{"android":"levelo://app?vid=d8b9cd91-019e-440a-b90d-554d309f7589","ios":"levelo://app?vid=d8b9cd91-019e-440a-b90d-554d309f7589"},"vehicle_type_id":"4","last_reported":1687308120,"current_range_meters":31200,"station_id":"ce4bgv12rcd13ifvqcp0","pricing_plan_id":"free"},{"bike_id":"a4fc7eae-2d33-4fa9-be29-f037644d5a3d","system_id":"levelo_inurba_marseille","lat":43.311722,"lon":5.387247,"is_reserved":false,"is_disabled":false,"rental_uris":{"android":"levelo://app?vid=a4fc7eae-2d33-4fa9-be29-f037644d5a3d","ios":"levelo://app?vid=a4fc7eae-2d33-4fa9-be29-f037644d5a3d"},"vehicle_type_id":"4","last_reported":1687308120,"current_range_meters":30000,"station_id":"ce4bgv12rcd13ifvqcp0","pricing_plan_id":"free"},{"bike_id":"e7394115-7ebf-4319-b832-71287e3f0fd2","system_id":"levelo_inurba_marseille","lat":43.311722,"lon":5.387247,"is_reserved":false,"is_disabled":false,"rental_uris":{"android":"levelo://app?vid=e7394115-7ebf-4319-b832-71287e3f0fd2","ios":"levelo://app?vid=e7394115-7ebf-4319-b832-71287e3f0fd2"},"vehicle_type_id":"4","last_reported":1687308120,"current_range_meters":31200,"station_id":"ce4bgv12rcd13ifvqcp0","pricing_plan_id":"free"},{"bike_id":"408cdbd3-920b-45b4-ab4e-0217d7cee4ab","system_id":"levelo_inurba_marseille","lat":43.32785,"lon":5.36686,"is_reserved":false,"is_disabled":false,"rental_uris":{"android":"levelo://app?vid=408cdbd3-920b-45b4-ab4e-0217d7cee4ab","ios":"levelo://app?vid=408cdbd3-920b-45b4-ab4e-0217d7cee4ab"},"vehicle_type_id":"4","last_reported":1687308120,"current_range_meters":8800,"station_id":"","pricing_plan_id":"free"},{"bike_id":"23a96466-42ea-41d7-a3ce-db3ef166b811","system_id":"levelo_inurba_marseille","lat":43.297794,"lon":5.370888,"is_reserved":false,"is_disabled":false,"rental_uris":{"android":"levelo://app?vid=23a96466-42ea-41d7-a3ce-db3ef166b811","ios":"levelo://app?vid=23a96466-42ea-41d7-a3ce-db3ef166b811"},"vehicle_type_id":"4","last_reported":1687308120,"current_range_meters":31200,"station_id":"ce4bgop2rcd13ifvqc1g","pricing_plan_id":"free"},{"bike_id":"b3b33e9b-7102-4ce3-9e64-8ef15500fc00","system_id":"levelo_inurba_marseille","lat":43.328371,"lon":5.366909,"is_reserved":false,"is_disabled":false,"rental_uris":{"android":"levelo://app?vid=b3b33e9b-7102-4ce3-9e64-8ef15500fc00","ios":"levelo://app?vid=b3b33e9b-7102-4ce3-9e64-8ef15500fc00"},"vehicle_type_id":"4","last_reported":1687308120,"current_range_meters":23200,"station_id":"ce4bhs92rcd13ifvqi0g","pricing_plan_id":"free"},{"bike_id":"9173e4a8-78f1-4163-82c9-88d4231f23c3","system_id":"levelo_inurba_marseille","lat":43.328371,"lon":5.366909,"is_reserved":false,"is_disabled":false,"rental_uris":{"android":"levelo://app?vid=9173e4a8-78f1-4163-82c9-88d4231f23c3","ios":"levelo://app?vid=9173e4a8-78f1-4163-82c9-88d4231f23c3"},"vehicle_type_id":"4","last_reported":1687308120,"current_range_meters":11200,"station_id":"ce4bhs92rcd13ifvqi0g","pricing_plan_id":"free"},{"bike_id":"7c92372f-abd5-436b-ba89-db87f771eb68","system_id":"levelo_inurba_marseille","lat":43.328371,"lon":5.366909,"is_reserved":false,"is_disabled":false,"rental_uris":{"android":"levelo://app?vid=7c92372f-abd5-436b-ba89-db87f771eb68","ios":"levelo://app?vid=7c92372f-abd5-436b-ba89-db87f771eb68"},"vehicle_type_id":"4","last_reported":1687308120,"current_range_meters":20000,"station_id":"ce4bhs92rcd13ifvqi0g","pricing_plan_id":"free"},{"bike_id":"ab30b37f-a53c-4966-ba8f-8e585519549a","system_id":"levelo_inurba_marseille","lat":43.328371,"lon":5.366912,"is_reserved":false,"is_disabled":false,"rental_uris":{"android":"levelo://app?vid=ab30b37f-a53c-4966-ba8f-8e585519549a","ios":"levelo://app?vid=ab30b37f-a53c-4966-ba8f-8e585519549a"},"vehicle_type_id":"4","last_reported":1687308120,"current_range_meters":21600,"station_id":"ce4bhs92rcd13ifvqi0g","pricing_plan_id":"free"},{"bike_id":"c587e34b-9923-4964-ae02-38d01c6bdc50","system_id":"levelo_inurba_marseille","lat":43.328371,"lon":5.366912,"is_reserved":false,"is_disabled":false,"rental_uris":{"android":"levelo://app?vid=c587e34b-9923-4964-ae02-38d01c6bdc50","ios":"levelo://app?vid=c587e34b-9923-4964-ae02-38d01c6bdc50"},"vehicle_type_id":"4","last_reported":1687308120,"current_range_meters":31200,"station_id":"ce4bhs92rcd13ifvqi0g","pricing_plan_id":"free"},{"bike_id":"b4ea75e9-eca7-4ccc-91f9-d0cb06a4a0a6","system_id":"levelo_inurba_marseille","lat":43.328371,"lon":5.366912,"is_reserved":false,"is_disabled":false,"rental_uris":{"android":"levelo://app?vid=b4ea75e9-eca7-4ccc-91f9-d0cb06a4a0a6","ios":"levelo://app?vid=b4ea75e9-eca7-4ccc-91f9-d0cb06a4a0a6"},"vehicle_type_id":"4","last_reported":1687308120,"current_range_meters":28400,"station_id":"ce4bhs92rcd13ifvqi0g","pricing_plan_id":"free"},{"bike_id":"d0587242-82ef-486e-9e89-32ff4ce7f934","system_id":"levelo_inurba_marseille","lat":43.328371,"lon":5.366912,"is_reserved":false,"is_disabled":false,"rental_uris":{"android":"levelo://app?vid=d0587242-82ef-486e-9e89-32ff4ce7f934","ios":"levelo://app?vid=d0587242-82ef-486e-9e89-32ff4ce7f934"},"vehicle_type_id":"4","last_reported":1687308120,"current_range_meters":31200,"station_id":"ce4bhs92rcd13ifvqi0g","pricing_plan_id":"free"},{"bike_id":"176f4894-d7fc-460e-aa5d-7c8c1e206dc3","system_id":"levelo_inurba_marseille","lat":43.2971,"lon":5.36622,"is_reserved":false,"is_disabled":false,"rental_uris":{"android":"levelo://app?vid=176f4894-d7fc-460e-aa5d-7c8c1e206dc3","ios":"levelo://app?vid=176f4894-d7fc-460e-aa5d-7c8c1e206dc3"},"vehicle_type_id":"4","last_reported":1687308120,"current_range_meters":22000,"station_id":"","pricing_plan_id":"free"},{"bike_id":"03da9390-c47e-4a83-9bde-8a2aaf6cd4e0","system_id":"levelo_inurba_marseille","lat":43.29708,"lon":5.36611,"is_reserved":false,"is_disabled":false,"rental_uris":{"android":"levelo://app?vid=03da9390-c47e-4a83-9bde-8a2aaf6cd4e0","ios":"levelo://app?vid=03da9390-c47e-4a83-9bde-8a2aaf6cd4e0"},"vehicle_type_id":"4","last_reported":1687308120,"current_range_meters":30000,"station_id":"ce4bgn12rcd13ifvqbt0","pricing_plan_id":"free"},{"bike_id":"6304e5c4-9bcf-455a-9edc-f89d8365eec8","system_id":"levelo_inurba_marseille","lat":43.29707,"lon":5.3661,"is_reserved":false,"is_disabled":false,"rental_uris":{"android":"levelo://app?vid=6304e5c4-9bcf-455a-9edc-f89d8365eec8","ios":"levelo://app?vid=6304e5c4-9bcf-455a-9edc-f89d8365eec8"},"vehicle_type_id":"4","last_reported":1687308120,"current_range_meters":25600,"station_id":"ce4bgn12rcd13ifvqbt0","pricing_plan_id":"free"},{"bike_id":"3ac7f8ba-4c63-45b8-9180-1679f292af03","system_id":"levelo_inurba_marseille","lat":43.29573,"lon":5.367355,"is_reserved":false,"is_disabled":false,"rental_uris":{"android":"levelo://app?vid=3ac7f8ba-4c63-45b8-9180-1679f292af03","ios":"levelo://app?vid=3ac7f8ba-4c63-45b8-9180-1679f292af03"},"vehicle_type_id":"4","last_reported":1687308120,"current_range_meters":29600,"station_id":"ce4bgph2rcd13ifvqc2g","pricing_plan_id":"free"},{"bike_id":"24f41ca5-b432-4feb-a0c8-a15026b97306","system_id":"levelo_inurba_marseille","lat":43.296131,"lon":5.370773,"is_reserved":false,"is_disabled":false,"rental_uris":{"android":"levelo://app?vid=24f41ca5-b432-4feb-a0c8-a15026b97306","ios":"levelo://app?vid=24f41ca5-b432-4feb-a0c8-a15026b97306"},"vehicle_type_id":"4","last_reported":1687308120,"current_range_meters":2800,"station_id":"ce4bgnh2rcd13ifvqc0g","pricing_plan_id":"free"},{"bike_id":"16e5fedd-6e86-436a-a0a2-72c7cd60a6ea","system_id":"levelo_inurba_marseille","lat":43.317557,"lon":5.390173,"is_reserved":false,"is_disabled":false,"rental_uris":{"android":"levelo://app?vid=16e5fedd-6e86-436a-a0a2-72c7cd60a6ea","ios":"levelo://app?vid=16e5fedd-6e86-436a-a0a2-72c7cd60a6ea"},"vehicle_type_id":"4","last_reported":1687308120,"current_range_meters":23600,"station_id":"ce4bhqp2rcd13ifvqhng","pricing_plan_id":"free"},{"bike_id":"041bc147-ef2f-419b-bb81-deca3bdf89e2","system_id":"levelo_inurba_marseille","lat":43.29611,"lon":5.36046,"is_reserved":false,"is_disabled":false,"rental_uris":{"android":"levelo://app?vid=041bc147-ef2f-419b-bb81-deca3bdf89e2","ios":"levelo://app?vid=041bc147-ef2f-419b-bb81-deca3bdf89e2"},"vehicle_type_id":"4","last_reported":1687308120,"current_range_meters":20400,"station_id":"","pricing_plan_id":"free"},{"bike_id":"be1b811c-636d-4210-884e-68fac0a9e77c","system_id":"levelo_inurba_marseille","lat":43.309589,"lon":5.390258,"is_reserved":false,"is_disabled":false,"rental_uris":{"android":"levelo://app?vid=be1b811c-636d-4210-884e-68fac0a9e77c","ios":"levelo://app?vid=be1b811c-636d-4210-884e-68fac0a9e77c"},"vehicle_type_id":"4","last_reported":1687308120,"current_range_meters":6000,"station_id":"ce4bgup2rcd13ifvqco0","pricing_plan_id":"free"},{"bike_id":"4b0b48c0-e786-4a2d-914e-624c1f02598e","system_id":"levelo_inurba_marseille","lat":43.309589,"lon":5.390258,"is_reserved":false,"is_disabled":false,"rental_uris":{"android":"levelo://app?vid=4b0b48c0-e786-4a2d-914e-624c1f02598e","ios":"levelo://app?vid=4b0b48c0-e786-4a2d-914e-624c1f02598e"},"vehicle_type_id":"4","last_reported":1687308120,"current_range_meters":29600,"station_id":"ce4bgup2rcd13ifvqco0","pricing_plan_id":"free"},{"bike_id":"865fc3b6-2a63-47db-8820-7af64e37262d","system_id":"levelo_inurba_marseille","lat":43.317557,"lon":5.390173,"is_reserved":false,"is_disabled":false,"rental_uris":{"android":"levelo://app?vid=865fc3b6-2a63-47db-8820-7af64e37262d","ios":"levelo://app?vid=865fc3b6-2a63-47db-8820-7af64e37262d"},"vehicle_type_id":"4","last_reported":1687308120,"current_range_meters":1200,"station_id":"ce4bhqp2rcd13ifvqhng","pricing_plan_id":"free"},{"bike_id":"802f5dda-e6f7-4087-af6a-412a8a2f7c33","system_id":"levelo_inurba_marseille","lat":43.317557,"lon":5.390173,"is_reserved":false,"is_disabled":false,"rental_uris":{"android":"levelo://app?vid=802f5dda-e6f7-4087-af6a-412a8a2f7c33","ios":"levelo://app?vid=802f5dda-e6f7-4087-af6a-412a8a2f7c33"},"vehicle_type_id":"4","last_reported":1687308120,"current_range_meters":31200,"station_id":"ce4bhqp2rcd13ifvqhng","pricing_plan_id":"free"},{"bike_id":"f38ebc4d-313b-41fa-90d1-ba716c998cb4","system_id":"levelo_inurba_marseille","lat":43.317557,"lon":5.390173,"is_reserved":false,"is_disabled":false,"rental_uris":{"android":"levelo://app?vid=f38ebc4d-313b-41fa-90d1-ba716c998cb4","ios":"levelo://app?vid=f38ebc4d-313b-41fa-90d1-ba716c998cb4"},"vehicle_type_id":"4","last_reported":1687308120,"current_range_meters":31600,"station_id":"ce4bhqp2rcd13ifvqhng","pricing_plan_id":"free"},{"bike_id":"d5577306-08c9-4d6a-a7bc-825fc4934c6b","system_id":"levelo_inurba_marseille","lat":43.317557,"lon":5.390173,"is_reserved":false,"is_disabled":false,"rental_uris":{"android":"levelo://app?vid=d5577306-08c9-4d6a-a7bc-825fc4934c6b","ios":"levelo://app?vid=d5577306-08c9-4d6a-a7bc-825fc4934c6b"},"vehicle_type_id":"4","last_reported":1687308120,"current_range_meters":31200,"station_id":"ce4bhqp2rcd13ifvqhng","pricing_plan_id":"free"},{"bike_id":"af8ea858-6c1e-4734-be23-6556f5c81f6b","system_id":"levelo_inurba_marseille","lat":43.317557,"lon":5.390173,"is_reserved":false,"is_disabled":false,"rental_uris":{"android":"levelo://app?vid=af8ea858-6c1e-4734-be23-6556f5c81f6b","ios":"levelo://app?vid=af8ea858-6c1e-4734-be23-6556f5c81f6b"},"vehicle_type_id":"4","last_reported":1687308120,"current_range_meters":31200,"station_id":"ce4bhqp2rcd13ifvqhng","pricing_plan_id":"free"},{"bike_id":"0cd0925b-2fab-4076-a4d0-e197af143600","system_id":"levelo_inurba_marseille","lat":43.298037,"lon":5.381066,"is_reserved":false,"is_disabled":false,"rental_uris":{"android":"levelo://app?vid=0cd0925b-2fab-4076-a4d0-e197af143600","ios":"levelo://app?vid=0cd0925b-2fab-4076-a4d0-e197af143600"},"vehicle_type_id":"4","last_reported":1687308120,"current_range_meters":31200,"station_id":"ce4bgip2rcd13ifvqbb0","pricing_plan_id":"free"},{"bike_id":"18fa803e-8b29-4ed7-b5e6-a60a20827df8","system_id":"levelo_inurba_marseille","lat":43.298037,"lon":5.381066,"is_reserved":false,"is_disabled":false,"rental_uris":{"android":"levelo://app?vid=18fa803e-8b29-4ed7-b5e6-a60a20827df8","ios":"levelo://app?vid=18fa803e-8b29-4ed7-b5e6-a60a20827df8"},"vehicle_type_id":"4","last_reported":1687308120,"current_range_meters":31200,"station_id":"ce4bgip2rcd13ifvqbb0","pricing_plan_id":"free"},{"bike_id":"d4e5cd3a-de80-4089-a4ca-4f735fd08f4c","system_id":"levelo_inurba_marseille","lat":43.304274,"lon":5.388873,"is_reserved":false,"is_disabled":false,"rental_uris":{"android":"levelo://app?vid=d4e5cd3a-de80-4089-a4ca-4f735fd08f4c","ios":"levelo://app?vid=d4e5cd3a-de80-4089-a4ca-4f735fd08f4c"},"vehicle_type_id":"4","last_reported":1687308120,"current_range_meters":31200,"station_id":"ce4bgk12rcd13ifvqbi0","pricing_plan_id":"free"},{"bike_id":"5abe6bf9-ae05-4ee9-aee5-61b3b08e4802","system_id":"levelo_inurba_marseille","lat":43.298037,"lon":5.381066,"is_reserved":false,"is_disabled":false,"rental_uris":{"android":"levelo://app?vid=5abe6bf9-ae05-4ee9-aee5-61b3b08e4802","ios":"levelo://app?vid=5abe6bf9-ae05-4ee9-aee5-61b3b08e4802"},"vehicle_type_id":"4","last_reported":1687308120,"current_range_meters":31200,"station_id":"ce4bgip2rcd13ifvqbb0","pricing_plan_id":"free"},{"bike_id":"3467528a-cee5-4731-967a-9d820c09d9dd","system_id":"levelo_inurba_marseille","lat":43.304278,"lon":5.388868,"is_reserved":false,"is_disabled":false,"rental_uris":{"android":"levelo://app?vid=3467528a-cee5-4731-967a-9d820c09d9dd","ios":"levelo://app?vid=3467528a-cee5-4731-967a-9d820c09d9dd"},"vehicle_type_id":"4","last_reported":1687308120,"current_range_meters":30400,"station_id":"ce4bgk12rcd13ifvqbi0","pricing_plan_id":"free"},{"bike_id":"bc835a04-eb36-4981-972f-60bdcae46767","system_id":"levelo_inurba_marseille","lat":43.30451,"lon":5.38895,"is_reserved":false,"is_disabled":false,"rental_uris":{"android":"levelo://app?vid=bc835a04-eb36-4981-972f-60bdcae46767","ios":"levelo://app?vid=bc835a04-eb36-4981-972f-60bdcae46767"},"vehicle_type_id":"4","last_reported":1687308120,"current_range_meters":31200,"station_id":"ce4bgk12rcd13ifvqbi0","pricing_plan_id":"free"},{"bike_id":"a381d345-38f5-4fc3-9983-0fe6ab9b4cc0","system_id":"levelo_inurba_marseille","lat":43.304278,"lon":5.388868,"is_reserved":false,"is_disabled":false,"rental_uris":{"android":"levelo://app?vid=a381d345-38f5-4fc3-9983-0fe6ab9b4cc0","ios":"levelo://app?vid=a381d345-38f5-4fc3-9983-0fe6ab9b4cc0"},"vehicle_type_id":"4","last_reported":1687308120,"current_range_meters":22000,"station_id":"ce4bgk12rcd13ifvqbi0","pricing_plan_id":"free"},{"bike_id":"250c8a96-8498-4211-b8f3-1b00a8d1fbaf","system_id":"levelo_inurba_marseille","lat":43.296477,"lon":5.37768,"is_reserved":false,"is_disabled":false,"rental_uris":{"android":"levelo://app?vid=250c8a96-8498-4211-b8f3-1b00a8d1fbaf","ios":"levelo://app?vid=250c8a96-8498-4211-b8f3-1b00a8d1fbaf"},"vehicle_type_id":"4","last_reported":1687308120,"current_range_meters":3200,"station_id":"","pricing_plan_id":"free"},{"bike_id":"9c8dcc20-90d9-4a86-93f7-5aeaee89b90c","system_id":"levelo_inurba_marseille","lat":43.304278,"lon":5.388868,"is_reserved":false,"is_disabled":false,"rental_uris":{"android":"levelo://app?vid=9c8dcc20-90d9-4a86-93f7-5aeaee89b90c","ios":"levelo://app?vid=9c8dcc20-90d9-4a86-93f7-5aeaee89b90c"},"vehicle_type_id":"4","last_reported":1687308120,"current_range_meters":26000,"station_id":"ce4bgk12rcd13ifvqbi0","pricing_plan_id":"free"},{"bike_id":"5c9131fa-2ca0-4465-a7de-e912eba3c5d0","system_id":"levelo_inurba_marseille","lat":43.304278,"lon":5.388868,"is_reserved":false,"is_disabled":false,"rental_uris":{"android":"levelo://app?vid=5c9131fa-2ca0-4465-a7de-e912eba3c5d0","ios":"levelo://app?vid=5c9131fa-2ca0-4465-a7de-e912eba3c5d0"},"vehicle_type_id":"4","last_reported":1687308120,"current_range_meters":23600,"station_id":"ce4bgk12rcd13ifvqbi0","pricing_plan_id":"free"},{"bike_id":"5c8ae061-0f42-42b2-be32-f8d90c80d1f6","system_id":"levelo_inurba_marseille","lat":43.295279,"lon":5.375048,"is_reserved":false,"is_disabled":false,"rental_uris":{"android":"levelo://app?vid=5c8ae061-0f42-42b2-be32-f8d90c80d1f6","ios":"levelo://app?vid=5c8ae061-0f42-42b2-be32-f8d90c80d1f6"},"vehicle_type_id":"4","last_reported":1687308120,"current_range_meters":22400,"station_id":"ce4bgkp2rcd13ifvqbmg","pricing_plan_id":"free"},{"bike_id":"eb56f040-d7e3-440c-9d05-82afe187dd21","system_id":"levelo_inurba_marseille","lat":43.29967,"lon":5.38485,"is_reserved":false,"is_disabled":false,"rental_uris":{"android":"levelo://app?vid=eb56f040-d7e3-440c-9d05-82afe187dd21","ios":"levelo://app?vid=eb56f040-d7e3-440c-9d05-82afe187dd21"},"vehicle_type_id":"4","last_reported":1687308120,"current_range_meters":30400,"station_id":"ce4bgj92rcd13ifvqbd0","pricing_plan_id":"free"},{"bike_id":"a99aac23-62cd-4ee2-9275-552786b015eb","system_id":"levelo_inurba_marseille","lat":43.299724,"lon":5.384848,"is_reserved":false,"is_disabled":false,"rental_uris":{"android":"levelo://app?vid=a99aac23-62cd-4ee2-9275-552786b015eb","ios":"levelo://app?vid=a99aac23-62cd-4ee2-9275-552786b015eb"},"vehicle_type_id":"4","last_reported":1687308120,"current_range_meters":5600,"station_id":"ce4bgj92rcd13ifvqbd0","pricing_plan_id":"free"},{"bike_id":"9d32a99d-7f4d-466c-81fa-ce67eb40e61c","system_id":"levelo_inurba_marseille","lat":43.32367,"lon":5.388836,"is_reserved":false,"is_disabled":false,"rental_uris":{"android":"levelo://app?vid=9d32a99d-7f4d-466c-81fa-ce67eb40e61c","ios":"levelo://app?vid=9d32a99d-7f4d-466c-81fa-ce67eb40e61c"},"vehicle_type_id":"4","last_reported":1687308120,"current_range_meters":31200,"station_id":"ce4bhqp2rcd13ifvqhog","pricing_plan_id":"free"},{"bike_id":"c94a21c6-e9c2-496f-b510-0a58f08ba1e0","system_id":"levelo_inurba_marseille","lat":43.32367,"lon":5.388836,"is_reserved":false,"is_disabled":false,"rental_uris":{"android":"levelo://app?vid=c94a21c6-e9c2-496f-b510-0a58f08ba1e0","ios":"levelo://app?vid=c94a21c6-e9c2-496f-b510-0a58f08ba1e0"},"vehicle_type_id":"4","last_reported":1687308120,"current_range_meters":12400,"station_id":"ce4bhqp2rcd13ifvqhog","pricing_plan_id":"free"},{"bike_id":"16608c32-c312-45cb-a050-471b7a8243f5","system_id":"levelo_inurba_marseille","lat":43.32367,"lon":5.388836,"is_reserved":false,"is_disabled":false,"rental_uris":{"android":"levelo://app?vid=16608c32-c312-45cb-a050-471b7a8243f5","ios":"levelo://app?vid=16608c32-c312-45cb-a050-471b7a8243f5"},"vehicle_type_id":"4","last_reported":1687308120,"current_range_meters":23600,"station_id":"ce4bhqp2rcd13ifvqhog","pricing_plan_id":"free"},{"bike_id":"a349cdc6-57f9-4da5-bec9-b24e86494f93","system_id":"levelo_inurba_marseille","lat":43.32367,"lon":5.388836,"is_reserved":false,"is_disabled":false,"rental_uris":{"android":"levelo://app?vid=a349cdc6-57f9-4da5-bec9-b24e86494f93","ios":"levelo://app?vid=a349cdc6-57f9-4da5-bec9-b24e86494f93"},"vehicle_type_id":"4","last_reported":1687308120,"current_range_meters":27600,"station_id":"ce4bhqp2rcd13ifvqhog","pricing_plan_id":"free"},{"bike_id":"79f940be-328f-478d-aa00-a57517d9bda5","system_id":"levelo_inurba_marseille","lat":43.32367,"lon":5.388836,"is_reserved":false,"is_disabled":false,"rental_uris":{"android":"levelo://app?vid=79f940be-328f-478d-aa00-a57517d9bda5","ios":"levelo://app?vid=79f940be-328f-478d-aa00-a57517d9bda5"},"vehicle_type_id":"4","last_reported":1687308120,"current_range_meters":8000,"station_id":"ce4bhqp2rcd13ifvqhog","pricing_plan_id":"free"},{"bike_id":"9e9ce588-c5b6-4d8b-a77b-26a827af3b2c","system_id":"levelo_inurba_marseille","lat":43.32367,"lon":5.388836,"is_reserved":false,"is_disabled":false,"rental_uris":{"android":"levelo://app?vid=9e9ce588-c5b6-4d8b-a77b-26a827af3b2c","ios":"levelo://app?vid=9e9ce588-c5b6-4d8b-a77b-26a827af3b2c"},"vehicle_type_id":"4","last_reported":1687308120,"current_range_meters":30000,"station_id":"ce4bhqp2rcd13ifvqhog","pricing_plan_id":"free"},{"bike_id":"c28c2118-4e3e-4656-bc34-c88de6611e3f","system_id":"levelo_inurba_marseille","lat":43.32367,"lon":5.388836,"is_reserved":false,"is_disabled":false,"rental_uris":{"android":"levelo://app?vid=c28c2118-4e3e-4656-bc34-c88de6611e3f","ios":"levelo://app?vid=c28c2118-4e3e-4656-bc34-c88de6611e3f"},"vehicle_type_id":"4","last_reported":1687308120,"current_range_meters":12000,"station_id":"ce4bhqp2rcd13ifvqhog","pricing_plan_id":"free"},{"bike_id":"f6a8d98e-8c6f-46e8-8844-e46a95c6ded9","system_id":"levelo_inurba_marseille","lat":43.32367,"lon":5.388836,"is_reserved":false,"is_disabled":false,"rental_uris":{"android":"levelo://app?vid=f6a8d98e-8c6f-46e8-8844-e46a95c6ded9","ios":"levelo://app?vid=f6a8d98e-8c6f-46e8-8844-e46a95c6ded9"},"vehicle_type_id":"4","last_reported":1687308120,"current_range_meters":29200,"station_id":"ce4bhqp2rcd13ifvqhog","pricing_plan_id":"free"},{"bike_id":"b13cbc77-d957-4984-bb84-2727bfd4ea96","system_id":"levelo_inurba_marseille","lat":43.32367,"lon":5.388836,"is_reserved":false,"is_disabled":false,"rental_uris":{"android":"levelo://app?vid=b13cbc77-d957-4984-bb84-2727bfd4ea96","ios":"levelo://app?vid=b13cbc77-d957-4984-bb84-2727bfd4ea96"},"vehicle_type_id":"4","last_reported":1687308120,"current_range_meters":2400,"station_id":"ce4bhqp2rcd13ifvqhog","pricing_plan_id":"free"},{"bike_id":"a988ef0b-9666-4875-9632-518448a64389","system_id":"levelo_inurba_marseille","lat":43.32367,"lon":5.388836,"is_reserved":false,"is_disabled":false,"rental_uris":{"android":"levelo://app?vid=a988ef0b-9666-4875-9632-518448a64389","ios":"levelo://app?vid=a988ef0b-9666-4875-9632-518448a64389"},"vehicle_type_id":"4","last_reported":1687308120,"current_range_meters":14800,"station_id":"ce4bhqp2rcd13ifvqhog","pricing_plan_id":"free"},{"bike_id":"924f5e2c-3798-48c5-a26b-4aa840da3bf3","system_id":"levelo_inurba_marseille","lat":43.323729,"lon":5.388839,"is_reserved":false,"is_disabled":false,"rental_uris":{"android":"levelo://app?vid=924f5e2c-3798-48c5-a26b-4aa840da3bf3","ios":"levelo://app?vid=924f5e2c-3798-48c5-a26b-4aa840da3bf3"},"vehicle_type_id":"4","last_reported":1687308120,"current_range_meters":24000,"station_id":"","pricing_plan_id":"free"},{"bike_id":"f96bc5ef-773a-4c29-b818-b40707fecfaa","system_id":"levelo_inurba_marseille","lat":43.30695,"lon":5.3925,"is_reserved":false,"is_disabled":false,"rental_uris":{"android":"levelo://app?vid=f96bc5ef-773a-4c29-b818-b40707fecfaa","ios":"levelo://app?vid=f96bc5ef-773a-4c29-b818-b40707fecfaa"},"vehicle_type_id":"4","last_reported":1687308120,"current_range_meters":31200,"station_id":"","pricing_plan_id":"free"},{"bike_id":"149dd965-8d61-43fa-8f58-10054a44b754","system_id":"levelo_inurba_marseille","lat":43.29601,"lon":5.381084,"is_reserved":false,"is_disabled":false,"rental_uris":{"android":"levelo://app?vid=149dd965-8d61-43fa-8f58-10054a44b754","ios":"levelo://app?vid=149dd965-8d61-43fa-8f58-10054a44b754"},"vehicle_type_id":"4","last_reported":1687308120,"current_range_meters":18800,"station_id":"ce4bgl12rcd13ifvqbo0","pricing_plan_id":"free"},{"bike_id":"ce49f065-3e2b-4efe-b608-0409fda121e0","system_id":"levelo_inurba_marseille","lat":43.293249,"lon":5.371578,"is_reserved":false,"is_disabled":false,"rental_uris":{"android":"levelo://app?vid=ce49f065-3e2b-4efe-b608-0409fda121e0","ios":"levelo://app?vid=ce49f065-3e2b-4efe-b608-0409fda121e0"},"vehicle_type_id":"4","last_reported":1687308120,"current_range_meters":22000,"station_id":"ce4bgh92rcd13ifvqb40","pricing_plan_id":"free"},{"bike_id":"35caff4f-8cbe-4b84-a1b2-01a0f763af43","system_id":"levelo_inurba_marseille","lat":43.29274,"lon":5.36838,"is_reserved":false,"is_disabled":false,"rental_uris":{"android":"levelo://app?vid=35caff4f-8cbe-4b84-a1b2-01a0f763af43","ios":"levelo://app?vid=35caff4f-8cbe-4b84-a1b2-01a0f763af43"},"vehicle_type_id":"4","last_reported":1687308120,"current_range_meters":2800,"station_id":"ce4bhbp2rcd13ifvqesg","pricing_plan_id":"free"},{"bike_id":"66b480a6-9947-4496-98e2-93e61a3244b4","system_id":"levelo_inurba_marseille","lat":43.305994,"lon":5.393687,"is_reserved":false,"is_disabled":false,"rental_uris":{"android":"levelo://app?vid=66b480a6-9947-4496-98e2-93e61a3244b4","ios":"levelo://app?vid=66b480a6-9947-4496-98e2-93e61a3244b4"},"vehicle_type_id":"4","last_reported":1687308120,"current_range_meters":31200,"station_id":"ce4bh0p2rcd13ifvqd80","pricing_plan_id":"free"},{"bike_id":"c4b3ad6b-736a-4dc5-bd73-729f4b3f08dc","system_id":"levelo_inurba_marseille","lat":43.302992,"lon":5.392136,"is_reserved":false,"is_disabled":false,"rental_uris":{"android":"levelo://app?vid=c4b3ad6b-736a-4dc5-bd73-729f4b3f08dc","ios":"levelo://app?vid=c4b3ad6b-736a-4dc5-bd73-729f4b3f08dc"},"vehicle_type_id":"4","last_reported":1687308120,"current_range_meters":31200,"station_id":"ce4bgkh2rcd13ifvqbk0","pricing_plan_id":"free"},{"bike_id":"2627ef2f-5745-4ac8-a0ef-685c3e776ebb","system_id":"levelo_inurba_marseille","lat":43.302992,"lon":5.392136,"is_reserved":false,"is_disabled":false,"rental_uris":{"android":"levelo://app?vid=2627ef2f-5745-4ac8-a0ef-685c3e776ebb","ios":"levelo://app?vid=2627ef2f-5745-4ac8-a0ef-685c3e776ebb"},"vehicle_type_id":"4","last_reported":1687308120,"current_range_meters":28400,"station_id":"ce4bgkh2rcd13ifvqbk0","pricing_plan_id":"free"},{"bike_id":"cc365f9f-a73d-42eb-abca-18355a99a52c","system_id":"levelo_inurba_marseille","lat":43.2936,"lon":5.37835,"is_reserved":false,"is_disabled":false,"rental_uris":{"android":"levelo://app?vid=cc365f9f-a73d-42eb-abca-18355a99a52c","ios":"levelo://app?vid=cc365f9f-a73d-42eb-abca-18355a99a52c"},"vehicle_type_id":"4","last_reported":1687308120,"current_range_meters":20000,"station_id":"ce4bgjh2rcd13ifvqbf0","pricing_plan_id":"free"},{"bike_id":"5dab784d-374b-4b02-865b-744094e614a8","system_id":"levelo_inurba_marseille","lat":43.302992,"lon":5.392136,"is_reserved":false,"is_disabled":false,"rental_uris":{"android":"levelo://app?vid=5dab784d-374b-4b02-865b-744094e614a8","ios":"levelo://app?vid=5dab784d-374b-4b02-865b-744094e614a8"},"vehicle_type_id":"4","last_reported":1687308120,"current_range_meters":26800,"station_id":"ce4bgkh2rcd13ifvqbk0","pricing_plan_id":"free"},{"bike_id":"095c7b23-b631-4468-b1a5-5716480f15d8","system_id":"levelo_inurba_marseille","lat":43.2936,"lon":5.37835,"is_reserved":false,"is_disabled":false,"rental_uris":{"android":"levelo://app?vid=095c7b23-b631-4468-b1a5-5716480f15d8","ios":"levelo://app?vid=095c7b23-b631-4468-b1a5-5716480f15d8"},"vehicle_type_id":"4","last_reported":1687308120,"current_range_meters":30000,"station_id":"ce4bgjh2rcd13ifvqbf0","pricing_plan_id":"free"},{"bike_id":"7ee8e857-e58f-4d0f-9ec8-cf55d6494b29","system_id":"levelo_inurba_marseille","lat":43.29265,"lon":5.35957,"is_reserved":false,"is_disabled":false,"rental_uris":{"android":"levelo://app?vid=7ee8e857-e58f-4d0f-9ec8-cf55d6494b29","ios":"levelo://app?vid=7ee8e857-e58f-4d0f-9ec8-cf55d6494b29"},"vehicle_type_id":"4","last_reported":1687308120,"current_range_meters":400,"station_id":"","pricing_plan_id":"free"},{"bike_id":"2449f8e3-fc0f-4f45-bc09-9158e856a3cd","system_id":"levelo_inurba_marseille","lat":43.2936,"lon":5.37835,"is_reserved":false,"is_disabled":false,"rental_uris":{"android":"levelo://app?vid=2449f8e3-fc0f-4f45-bc09-9158e856a3cd","ios":"levelo://app?vid=2449f8e3-fc0f-4f45-bc09-9158e856a3cd"},"vehicle_type_id":"4","last_reported":1687308120,"current_range_meters":31200,"station_id":"ce4bgjh2rcd13ifvqbf0","pricing_plan_id":"free"},{"bike_id":"aed8adaf-5d26-40ad-af55-b42d9bcf8fe7","system_id":"levelo_inurba_marseille","lat":43.302992,"lon":5.392136,"is_reserved":false,"is_disabled":false,"rental_uris":{"android":"levelo://app?vid=aed8adaf-5d26-40ad-af55-b42d9bcf8fe7","ios":"levelo://app?vid=aed8adaf-5d26-40ad-af55-b42d9bcf8fe7"},"vehicle_type_id":"4","last_reported":1687308120,"current_range_meters":28000,"station_id":"ce4bgkh2rcd13ifvqbk0","pricing_plan_id":"free"},{"bike_id":"cf356ef6-de6b-4b14-a936-70cb84937675","system_id":"levelo_inurba_marseille","lat":43.2936,"lon":5.37835,"is_reserved":false,"is_disabled":false,"rental_uris":{"android":"levelo://app?vid=cf356ef6-de6b-4b14-a936-70cb84937675","ios":"levelo://app?vid=cf356ef6-de6b-4b14-a936-70cb84937675"},"vehicle_type_id":"4","last_reported":1687308120,"current_range_meters":31200,"station_id":"ce4bgjh2rcd13ifvqbf0","pricing_plan_id":"free"},{"bike_id":"c1c47c50-5116-4a7e-a6f6-cb21526f981a","system_id":"levelo_inurba_marseille","lat":43.2936,"lon":5.37835,"is_reserved":false,"is_disabled":false,"rental_uris":{"android":"levelo://app?vid=c1c47c50-5116-4a7e-a6f6-cb21526f981a","ios":"levelo://app?vid=c1c47c50-5116-4a7e-a6f6-cb21526f981a"},"vehicle_type_id":"4","last_reported":1687308120,"current_range_meters":18400,"station_id":"ce4bgjh2rcd13ifvqbf0","pricing_plan_id":"free"},{"bike_id":"40b3a439-ca36-4c09-abe6-9c66fa77a9c1","system_id":"levelo_inurba_marseille","lat":43.2936,"lon":5.37835,"is_reserved":false,"is_disabled":false,"rental_uris":{"android":"levelo://app?vid=40b3a439-ca36-4c09-abe6-9c66fa77a9c1","ios":"levelo://app?vid=40b3a439-ca36-4c09-abe6-9c66fa77a9c1"},"vehicle_type_id":"4","last_reported":1687308120,"current_range_meters":19200,"station_id":"ce4bgjh2rcd13ifvqbf0","pricing_plan_id":"free"},{"bike_id":"5680b446-e290-4b64-a5a6-eccbf2a02b3a","system_id":"levelo_inurba_marseille","lat":43.2936,"lon":5.37835,"is_reserved":false,"is_disabled":false,"rental_uris":{"android":"levelo://app?vid=5680b446-e290-4b64-a5a6-eccbf2a02b3a","ios":"levelo://app?vid=5680b446-e290-4b64-a5a6-eccbf2a02b3a"},"vehicle_type_id":"4","last_reported":1687308120,"current_range_meters":31200,"station_id":"ce4bgjh2rcd13ifvqbf0","pricing_plan_id":"free"},{"bike_id":"ecc73505-7648-4ba6-9fd7-419e64d4e446","system_id":"levelo_inurba_marseille","lat":43.2936,"lon":5.37835,"is_reserved":false,"is_disabled":false,"rental_uris":{"android":"levelo://app?vid=ecc73505-7648-4ba6-9fd7-419e64d4e446","ios":"levelo://app?vid=ecc73505-7648-4ba6-9fd7-419e64d4e446"},"vehicle_type_id":"4","last_reported":1687308120,"current_range_meters":31200,"station_id":"ce4bgjh2rcd13ifvqbf0","pricing_plan_id":"free"},{"bike_id":"f9170004-89d5-42e5-b8c9-b0ac8d3b4c46","system_id":"levelo_inurba_marseille","lat":43.292663,"lon":5.376394,"is_reserved":false,"is_disabled":false,"rental_uris":{"android":"levelo://app?vid=f9170004-89d5-42e5-b8c9-b0ac8d3b4c46","ios":"levelo://app?vid=f9170004-89d5-42e5-b8c9-b0ac8d3b4c46"},"vehicle_type_id":"4","last_reported":1687308120,"current_range_meters":31200,"station_id":"ce4bgi12rcd13ifvqb80","pricing_plan_id":"free"},{"bike_id":"aeba31fd-a55d-4756-8836-e7335d8c0bac","system_id":"levelo_inurba_marseille","lat":43.292663,"lon":5.376394,"is_reserved":false,"is_disabled":false,"rental_uris":{"android":"levelo://app?vid=aeba31fd-a55d-4756-8836-e7335d8c0bac","ios":"levelo://app?vid=aeba31fd-a55d-4756-8836-e7335d8c0bac"},"vehicle_type_id":"4","last_reported":1687308120,"current_range_meters":31200,"station_id":"ce4bgi12rcd13ifvqb80","pricing_plan_id":"free"},{"bike_id":"ab9a2d0b-7783-4607-8111-fb86a3e2944a","system_id":"levelo_inurba_marseille","lat":43.292663,"lon":5.376389,"is_reserved":false,"is_disabled":false,"rental_uris":{"android":"levelo://app?vid=ab9a2d0b-7783-4607-8111-fb86a3e2944a","ios":"levelo://app?vid=ab9a2d0b-7783-4607-8111-fb86a3e2944a"},"vehicle_type_id":"4","last_reported":1687308120,"current_range_meters":26000,"station_id":"ce4bgi12rcd13ifvqb80","pricing_plan_id":"free"},{"bike_id":"e1ac6f32-fba0-4f2e-a097-dc6d51d1794a","system_id":"levelo_inurba_marseille","lat":43.298764,"lon":5.388973,"is_reserved":false,"is_disabled":false,"rental_uris":{"android":"levelo://app?vid=e1ac6f32-fba0-4f2e-a097-dc6d51d1794a","ios":"levelo://app?vid=e1ac6f32-fba0-4f2e-a097-dc6d51d1794a"},"vehicle_type_id":"4","last_reported":1687308120,"current_range_meters":26800,"station_id":"ce4bh392rcd13ifvqdl0","pricing_plan_id":"free"},{"bike_id":"5f9eb98a-c99f-4552-a1d1-e87a09bbb8f7","system_id":"levelo_inurba_marseille","lat":43.292663,"lon":5.376394,"is_reserved":false,"is_disabled":false,"rental_uris":{"android":"levelo://app?vid=5f9eb98a-c99f-4552-a1d1-e87a09bbb8f7","ios":"levelo://app?vid=5f9eb98a-c99f-4552-a1d1-e87a09bbb8f7"},"vehicle_type_id":"4","last_reported":1687308120,"current_range_meters":31200,"station_id":"ce4bgi12rcd13ifvqb80","pricing_plan_id":"free"},{"bike_id":"ae2597ee-e7e7-4f04-af73-6834c7a16486","system_id":"levelo_inurba_marseille","lat":43.291675,"lon":5.371583,"is_reserved":false,"is_disabled":false,"rental_uris":{"android":"levelo://app?vid=ae2597ee-e7e7-4f04-af73-6834c7a16486","ios":"levelo://app?vid=ae2597ee-e7e7-4f04-af73-6834c7a16486"},"vehicle_type_id":"4","last_reported":1687308120,"current_range_meters":29600,"station_id":"ce4bha92rcd13ifvqeh0","pricing_plan_id":"free"},{"bike_id":"3c48088d-661b-4094-bda8-abe6a0abdceb","system_id":"levelo_inurba_marseille","lat":43.291671,"lon":5.371575,"is_reserved":false,"is_disabled":false,"rental_uris":{"android":"levelo://app?vid=3c48088d-661b-4094-bda8-abe6a0abdceb","ios":"levelo://app?vid=3c48088d-661b-4094-bda8-abe6a0abdceb"},"vehicle_type_id":"4","last_reported":1687308120,"current_range_meters":12400,"station_id":"ce4bha92rcd13ifvqeh0","pricing_plan_id":"free"},{"bike_id":"0da2d129-12be-45f3-a4e2-06b727d3c136","system_id":"levelo_inurba_marseille","lat":43.29867,"lon":5.38901,"is_reserved":false,"is_disabled":false,"rental_uris":{"android":"levelo://app?vid=0da2d129-12be-45f3-a4e2-06b727d3c136","ios":"levelo://app?vid=0da2d129-12be-45f3-a4e2-06b727d3c136"},"vehicle_type_id":"4","last_reported":1687308120,"current_range_meters":22000,"station_id":"ce4bh392rcd13ifvqdl0","pricing_plan_id":"free"},{"bike_id":"0cec96b3-450c-41d4-9512-2af6b8bdd1cd","system_id":"levelo_inurba_marseille","lat":43.30883,"lon":5.39634,"is_reserved":false,"is_disabled":false,"rental_uris":{"android":"levelo://app?vid=0cec96b3-450c-41d4-9512-2af6b8bdd1cd","ios":"levelo://app?vid=0cec96b3-450c-41d4-9512-2af6b8bdd1cd"},"vehicle_type_id":"4","last_reported":1687308120,"current_range_meters":31200,"station_id":"","pricing_plan_id":"free"},{"bike_id":"cd585734-10cf-4271-a09e-51bc16fd8f0e","system_id":"levelo_inurba_marseille","lat":43.30885,"lon":5.39635,"is_reserved":false,"is_disabled":false,"rental_uris":{"android":"levelo://app?vid=cd585734-10cf-4271-a09e-51bc16fd8f0e","ios":"levelo://app?vid=cd585734-10cf-4271-a09e-51bc16fd8f0e"},"vehicle_type_id":"4","last_reported":1687308120,"current_range_meters":13200,"station_id":"","pricing_plan_id":"free"},{"bike_id":"d38c5de4-1b75-44fb-88b5-eb30bcdcd7d0","system_id":"levelo_inurba_marseille","lat":43.313243,"lon":5.396843,"is_reserved":false,"is_disabled":false,"rental_uris":{"android":"levelo://app?vid=d38c5de4-1b75-44fb-88b5-eb30bcdcd7d0","ios":"levelo://app?vid=d38c5de4-1b75-44fb-88b5-eb30bcdcd7d0"},"vehicle_type_id":"4","last_reported":1687308120,"current_range_meters":20400,"station_id":"","pricing_plan_id":"free"},{"bike_id":"3ab8eaba-da7b-4776-86b0-5d390c3508d9","system_id":"levelo_inurba_marseille","lat":43.30881,"lon":5.39637,"is_reserved":false,"is_disabled":false,"rental_uris":{"android":"levelo://app?vid=3ab8eaba-da7b-4776-86b0-5d390c3508d9","ios":"levelo://app?vid=3ab8eaba-da7b-4776-86b0-5d390c3508d9"},"vehicle_type_id":"4","last_reported":1687308120,"current_range_meters":31200,"station_id":"ce4bh012rcd13ifvqcv0","pricing_plan_id":"free"},{"bike_id":"522b8a82-5251-429a-981a-15ca22e57cb0","system_id":"levelo_inurba_marseille","lat":43.313291,"lon":5.396838,"is_reserved":false,"is_disabled":false,"rental_uris":{"android":"levelo://app?vid=522b8a82-5251-429a-981a-15ca22e57cb0","ios":"levelo://app?vid=522b8a82-5251-429a-981a-15ca22e57cb0"},"vehicle_type_id":"4","last_reported":1687308120,"current_range_meters":30400,"station_id":"ce4bgvp2rcd13ifvqcu0","pricing_plan_id":"free"},{"bike_id":"71a25f43-1225-457d-9e6f-d92672faa73d","system_id":"levelo_inurba_marseille","lat":43.313291,"lon":5.396838,"is_reserved":false,"is_disabled":false,"rental_uris":{"android":"levelo://app?vid=71a25f43-1225-457d-9e6f-d92672faa73d","ios":"levelo://app?vid=71a25f43-1225-457d-9e6f-d92672faa73d"},"vehicle_type_id":"4","last_reported":1687308120,"current_range_meters":8400,"station_id":"ce4bgvp2rcd13ifvqcu0","pricing_plan_id":"free"},{"bike_id":"759eb84e-c07a-4a0e-9f58-ce33cca86297","system_id":"levelo_inurba_marseille","lat":43.30887,"lon":5.3964,"is_reserved":false,"is_disabled":false,"rental_uris":{"android":"levelo://app?vid=759eb84e-c07a-4a0e-9f58-ce33cca86297","ios":"levelo://app?vid=759eb84e-c07a-4a0e-9f58-ce33cca86297"},"vehicle_type_id":"4","last_reported":1687308120,"current_range_meters":22800,"station_id":"ce4bh012rcd13ifvqcv0","pricing_plan_id":"free"},{"bike_id":"ef6b5d3a-977c-4692-8cc3-ebe2cdbd99fd","system_id":"levelo_inurba_marseille","lat":43.313291,"lon":5.396838,"is_reserved":false,"is_disabled":false,"rental_uris":{"android":"levelo://app?vid=ef6b5d3a-977c-4692-8cc3-ebe2cdbd99fd","ios":"levelo://app?vid=ef6b5d3a-977c-4692-8cc3-ebe2cdbd99fd"},"vehicle_type_id":"4","last_reported":1687308120,"current_range_meters":0,"station_id":"ce4bgvp2rcd13ifvqcu0","pricing_plan_id":"free"},{"bike_id":"5d0990c4-38cd-44c8-a85c-c1580e7ecba2","system_id":"levelo_inurba_marseille","lat":43.30885,"lon":5.39641,"is_reserved":false,"is_disabled":false,"rental_uris":{"android":"levelo://app?vid=5d0990c4-38cd-44c8-a85c-c1580e7ecba2","ios":"levelo://app?vid=5d0990c4-38cd-44c8-a85c-c1580e7ecba2"},"vehicle_type_id":"4","last_reported":1687308120,"current_range_meters":13200,"station_id":"ce4bh012rcd13ifvqcv0","pricing_plan_id":"free"},{"bike_id":"61dbc3e9-4b8c-474f-80f8-6f63fe711e97","system_id":"levelo_inurba_marseille","lat":43.313291,"lon":5.396838,"is_reserved":false,"is_disabled":false,"rental_uris":{"android":"levelo://app?vid=61dbc3e9-4b8c-474f-80f8-6f63fe711e97","ios":"levelo://app?vid=61dbc3e9-4b8c-474f-80f8-6f63fe711e97"},"vehicle_type_id":"4","last_reported":1687308120,"current_range_meters":20800,"station_id":"ce4bgvp2rcd13ifvqcu0","pricing_plan_id":"free"},{"bike_id":"bb2418a7-4b7c-42ef-afcb-be5ab3573c8c","system_id":"levelo_inurba_marseille","lat":43.31325,"lon":5.39693,"is_reserved":false,"is_disabled":false,"rental_uris":{"android":"levelo://app?vid=bb2418a7-4b7c-42ef-afcb-be5ab3573c8c","ios":"levelo://app?vid=bb2418a7-4b7c-42ef-afcb-be5ab3573c8c"},"vehicle_type_id":"4","last_reported":1687308120,"current_range_meters":25600,"station_id":"ce4bgvp2rcd13ifvqcu0","pricing_plan_id":"free"},{"bike_id":"c00a824d-2859-494f-9d8c-e0ccc70e5c17","system_id":"levelo_inurba_marseille","lat":43.31325,"lon":5.39693,"is_reserved":false,"is_disabled":false,"rental_uris":{"android":"levelo://app?vid=c00a824d-2859-494f-9d8c-e0ccc70e5c17","ios":"levelo://app?vid=c00a824d-2859-494f-9d8c-e0ccc70e5c17"},"vehicle_type_id":"4","last_reported":1687308120,"current_range_meters":10000,"station_id":"ce4bgvp2rcd13ifvqcu0","pricing_plan_id":"free"},{"bike_id":"7a87f340-ac4b-47c8-ac5c-b336014b0809","system_id":"levelo_inurba_marseille","lat":43.30878,"lon":5.39645,"is_reserved":false,"is_disabled":false,"rental_uris":{"android":"levelo://app?vid=7a87f340-ac4b-47c8-ac5c-b336014b0809","ios":"levelo://app?vid=7a87f340-ac4b-47c8-ac5c-b336014b0809"},"vehicle_type_id":"4","last_reported":1687308120,"current_range_meters":16400,"station_id":"","pricing_plan_id":"free"},{"bike_id":"efdb368b-6b7d-4502-80bc-a37b5b15d153","system_id":"levelo_inurba_marseille","lat":43.313291,"lon":5.396838,"is_reserved":false,"is_disabled":false,"rental_uris":{"android":"levelo://app?vid=efdb368b-6b7d-4502-80bc-a37b5b15d153","ios":"levelo://app?vid=efdb368b-6b7d-4502-80bc-a37b5b15d153"},"vehicle_type_id":"4","last_reported":1687308120,"current_range_meters":23600,"station_id":"ce4bgvp2rcd13ifvqcu0","pricing_plan_id":"free"},{"bike_id":"44d81b50-8e77-4afb-bb64-bef15549b486","system_id":"levelo_inurba_marseille","lat":43.30887,"lon":5.39648,"is_reserved":false,"is_disabled":false,"rental_uris":{"android":"levelo://app?vid=44d81b50-8e77-4afb-bb64-bef15549b486","ios":"levelo://app?vid=44d81b50-8e77-4afb-bb64-bef15549b486"},"vehicle_type_id":"4","last_reported":1687308120,"current_range_meters":19600,"station_id":"ce4bh012rcd13ifvqcv0","pricing_plan_id":"free"},{"bike_id":"91f27ca4-b1d4-4b07-bbb6-4e3add10a601","system_id":"levelo_inurba_marseille","lat":43.30879,"lon":5.39647,"is_reserved":false,"is_disabled":false,"rental_uris":{"android":"levelo://app?vid=91f27ca4-b1d4-4b07-bbb6-4e3add10a601","ios":"levelo://app?vid=91f27ca4-b1d4-4b07-bbb6-4e3add10a601"},"vehicle_type_id":"4","last_reported":1687308120,"current_range_meters":31200,"station_id":"","pricing_plan_id":"free"},{"bike_id":"cfe4423a-4e9d-4a2b-83c3-2838fc848d96","system_id":"levelo_inurba_marseille","lat":43.30882,"lon":5.3965,"is_reserved":false,"is_disabled":false,"rental_uris":{"android":"levelo://app?vid=cfe4423a-4e9d-4a2b-83c3-2838fc848d96","ios":"levelo://app?vid=cfe4423a-4e9d-4a2b-83c3-2838fc848d96"},"vehicle_type_id":"4","last_reported":1687308120,"current_range_meters":25200,"station_id":"ce4bh012rcd13ifvqcv0","pricing_plan_id":"free"},{"bike_id":"cce40203-1d8e-41e8-a9fd-763d2f677c68","system_id":"levelo_inurba_marseille","lat":43.31326,"lon":5.39698,"is_reserved":false,"is_disabled":false,"rental_uris":{"android":"levelo://app?vid=cce40203-1d8e-41e8-a9fd-763d2f677c68","ios":"levelo://app?vid=cce40203-1d8e-41e8-a9fd-763d2f677c68"},"vehicle_type_id":"4","last_reported":1687308120,"current_range_meters":13200,"station_id":"ce4bgvp2rcd13ifvqcu0","pricing_plan_id":"free"},{"bike_id":"ce745780-8607-4b56-8d8a-a82562ed856a","system_id":"levelo_inurba_marseille","lat":43.3088,"lon":5.3965,"is_reserved":false,"is_disabled":false,"rental_uris":{"android":"levelo://app?vid=ce745780-8607-4b56-8d8a-a82562ed856a","ios":"levelo://app?vid=ce745780-8607-4b56-8d8a-a82562ed856a"},"vehicle_type_id":"4","last_reported":1687308120,"current_range_meters":13200,"station_id":"","pricing_plan_id":"free"},{"bike_id":"542db5ab-99df-4eb7-a015-16337bf422dd","system_id":"levelo_inurba_marseille","lat":43.30887,"lon":5.39652,"is_reserved":false,"is_disabled":false,"rental_uris":{"android":"levelo://app?vid=542db5ab-99df-4eb7-a015-16337bf422dd","ios":"levelo://app?vid=542db5ab-99df-4eb7-a015-16337bf422dd"},"vehicle_type_id":"4","last_reported":1687308120,"current_range_meters":31200,"station_id":"","pricing_plan_id":"free"},{"bike_id":"15c5178f-5561-4295-8c7c-94b581c4621a","system_id":"levelo_inurba_marseille","lat":43.313291,"lon":5.396838,"is_reserved":false,"is_disabled":false,"rental_uris":{"android":"levelo://app?vid=15c5178f-5561-4295-8c7c-94b581c4621a","ios":"levelo://app?vid=15c5178f-5561-4295-8c7c-94b581c4621a"},"vehicle_type_id":"4","last_reported":1687308120,"current_range_meters":31200,"station_id":"ce4bgvp2rcd13ifvqcu0","pricing_plan_id":"free"},{"bike_id":"fb9fbaed-5d69-4a64-a3bc-f40695100982","system_id":"levelo_inurba_marseille","lat":43.31332,"lon":5.39699,"is_reserved":false,"is_disabled":false,"rental_uris":{"android":"levelo://app?vid=fb9fbaed-5d69-4a64-a3bc-f40695100982","ios":"levelo://app?vid=fb9fbaed-5d69-4a64-a3bc-f40695100982"},"vehicle_type_id":"4","last_reported":1687308120,"current_range_meters":22800,"station_id":"ce4bgvp2rcd13ifvqcu0","pricing_plan_id":"free"},{"bike_id":"3d2f0f76-3088-4456-9663-2afb7577fa88","system_id":"levelo_inurba_marseille","lat":43.30884,"lon":5.39652,"is_reserved":false,"is_disabled":false,"rental_uris":{"android":"levelo://app?vid=3d2f0f76-3088-4456-9663-2afb7577fa88","ios":"levelo://app?vid=3d2f0f76-3088-4456-9663-2afb7577fa88"},"vehicle_type_id":"4","last_reported":1687308120,"current_range_meters":30400,"station_id":"ce4bh012rcd13ifvqcv0","pricing_plan_id":"free"},{"bike_id":"b72739af-7d15-4451-89a6-ac1874f77f79","system_id":"levelo_inurba_marseille","lat":43.31328,"lon":5.397,"is_reserved":false,"is_disabled":false,"rental_uris":{"android":"levelo://app?vid=b72739af-7d15-4451-89a6-ac1874f77f79","ios":"levelo://app?vid=b72739af-7d15-4451-89a6-ac1874f77f79"},"vehicle_type_id":"4","last_reported":1687308120,"current_range_meters":15200,"station_id":"ce4bgvp2rcd13ifvqcu0","pricing_plan_id":"free"},{"bike_id":"7367c022-5355-4bab-b5a6-2a7d1c6f947e","system_id":"levelo_inurba_marseille","lat":43.30884,"lon":5.39653,"is_reserved":false,"is_disabled":false,"rental_uris":{"android":"levelo://app?vid=7367c022-5355-4bab-b5a6-2a7d1c6f947e","ios":"levelo://app?vid=7367c022-5355-4bab-b5a6-2a7d1c6f947e"},"vehicle_type_id":"4","last_reported":1687308120,"current_range_meters":31200,"station_id":"ce4bh012rcd13ifvqcv0","pricing_plan_id":"free"},{"bike_id":"71adf10d-2a55-45fc-adf9-28c46d0517aa","system_id":"levelo_inurba_marseille","lat":43.3088,"lon":5.39652,"is_reserved":false,"is_disabled":false,"rental_uris":{"android":"levelo://app?vid=71adf10d-2a55-45fc-adf9-28c46d0517aa","ios":"levelo://app?vid=71adf10d-2a55-45fc-adf9-28c46d0517aa"},"vehicle_type_id":"4","last_reported":1687308120,"current_range_meters":26400,"station_id":"","pricing_plan_id":"free"},{"bike_id":"128fd267-fa88-49a9-bd57-e1a2cef2d582","system_id":"levelo_inurba_marseille","lat":43.308945,"lon":5.396633,"is_reserved":false,"is_disabled":false,"rental_uris":{"android":"levelo://app?vid=128fd267-fa88-49a9-bd57-e1a2cef2d582","ios":"levelo://app?vid=128fd267-fa88-49a9-bd57-e1a2cef2d582"},"vehicle_type_id":"4","last_reported":1687308120,"current_range_meters":12400,"station_id":"","pricing_plan_id":"free"},{"bike_id":"fa01efd5-4665-45ef-a43d-4bf3c0c07f32","system_id":"levelo_inurba_marseille","lat":43.30882,"lon":5.39661,"is_reserved":false,"is_disabled":false,"rental_uris":{"android":"levelo://app?vid=fa01efd5-4665-45ef-a43d-4bf3c0c07f32","ios":"levelo://app?vid=fa01efd5-4665-45ef-a43d-4bf3c0c07f32"},"vehicle_type_id":"4","last_reported":1687308120,"current_range_meters":26800,"station_id":"ce4bh012rcd13ifvqcv0","pricing_plan_id":"free"},{"bike_id":"b08b8144-f559-46ba-b3ed-768fb92145f2","system_id":"levelo_inurba_marseille","lat":43.308924,"lon":5.396637,"is_reserved":false,"is_disabled":false,"rental_uris":{"android":"levelo://app?vid=b08b8144-f559-46ba-b3ed-768fb92145f2","ios":"levelo://app?vid=b08b8144-f559-46ba-b3ed-768fb92145f2"},"vehicle_type_id":"4","last_reported":1687308120,"current_range_meters":7200,"station_id":"","pricing_plan_id":"free"},{"bike_id":"4a4f54b4-b64a-425e-a820-e56c7df62da5","system_id":"levelo_inurba_marseille","lat":43.3088,"lon":5.39661,"is_reserved":false,"is_disabled":false,"rental_uris":{"android":"levelo://app?vid=4a4f54b4-b64a-425e-a820-e56c7df62da5","ios":"levelo://app?vid=4a4f54b4-b64a-425e-a820-e56c7df62da5"},"vehicle_type_id":"4","last_reported":1687308120,"current_range_meters":24000,"station_id":"","pricing_plan_id":"free"},{"bike_id":"b859ee65-8c3d-420a-925c-1e111b8afe8f","system_id":"levelo_inurba_marseille","lat":43.30884,"lon":5.39662,"is_reserved":false,"is_disabled":false,"rental_uris":{"android":"levelo://app?vid=b859ee65-8c3d-420a-925c-1e111b8afe8f","ios":"levelo://app?vid=b859ee65-8c3d-420a-925c-1e111b8afe8f"},"vehicle_type_id":"4","last_reported":1687308120,"current_range_meters":26000,"station_id":"ce4bh012rcd13ifvqcv0","pricing_plan_id":"free"},{"bike_id":"01eb0812-4558-4aea-bf50-ad066f363f38","system_id":"levelo_inurba_marseille","lat":43.2896,"lon":5.36439,"is_reserved":false,"is_disabled":false,"rental_uris":{"android":"levelo://app?vid=01eb0812-4558-4aea-bf50-ad066f363f38","ios":"levelo://app?vid=01eb0812-4558-4aea-bf50-ad066f363f38"},"vehicle_type_id":"4","last_reported":1687308120,"current_range_meters":5200,"station_id":"","pricing_plan_id":"free"},{"bike_id":"5c1cdd13-b404-4e38-9a7e-89b69e0a8de0","system_id":"levelo_inurba_marseille","lat":43.290327,"lon":5.375711,"is_reserved":false,"is_disabled":false,"rental_uris":{"android":"levelo://app?vid=5c1cdd13-b404-4e38-9a7e-89b69e0a8de0","ios":"levelo://app?vid=5c1cdd13-b404-4e38-9a7e-89b69e0a8de0"},"vehicle_type_id":"4","last_reported":1687308120,"current_range_meters":21600,"station_id":"ce4bh692rcd13ifvqe90","pricing_plan_id":"free"},{"bike_id":"3f8a925a-6a54-4259-a38f-9cf091aab246","system_id":"levelo_inurba_marseille","lat":43.294162,"lon":5.386292,"is_reserved":false,"is_disabled":false,"rental_uris":{"android":"levelo://app?vid=3f8a925a-6a54-4259-a38f-9cf091aab246","ios":"levelo://app?vid=3f8a925a-6a54-4259-a38f-9cf091aab246"},"vehicle_type_id":"4","last_reported":1687308120,"current_range_meters":31200,"station_id":"ce4bh2h2rcd13ifvqdh0","pricing_plan_id":"free"},{"bike_id":"0609f09b-61e5-40d1-a057-3a5b9409ddd1","system_id":"levelo_inurba_marseille","lat":43.29417,"lon":5.3863,"is_reserved":false,"is_disabled":false,"rental_uris":{"android":"levelo://app?vid=0609f09b-61e5-40d1-a057-3a5b9409ddd1","ios":"levelo://app?vid=0609f09b-61e5-40d1-a057-3a5b9409ddd1"},"vehicle_type_id":"4","last_reported":1687308120,"current_range_meters":26000,"station_id":"ce4bh2h2rcd13ifvqdh0","pricing_plan_id":"free"},{"bike_id":"f8513c32-11c3-4680-b591-2be6f83fd0cb","system_id":"levelo_inurba_marseille","lat":43.28942,"lon":5.36391,"is_reserved":false,"is_disabled":false,"rental_uris":{"android":"levelo://app?vid=f8513c32-11c3-4680-b591-2be6f83fd0cb","ios":"levelo://app?vid=f8513c32-11c3-4680-b591-2be6f83fd0cb"},"vehicle_type_id":"4","last_reported":1687308120,"current_range_meters":22000,"station_id":"","pricing_plan_id":"free"},{"bike_id":"0b5cbaa5-b149-4249-81d8-0f3cbbaaeb0a","system_id":"levelo_inurba_marseille","lat":43.289184,"lon":5.366408,"is_reserved":false,"is_disabled":false,"rental_uris":{"android":"levelo://app?vid=0b5cbaa5-b149-4249-81d8-0f3cbbaaeb0a","ios":"levelo://app?vid=0b5cbaa5-b149-4249-81d8-0f3cbbaaeb0a"},"vehicle_type_id":"4","last_reported":1687308120,"current_range_meters":18800,"station_id":"ce4bhap2rcd13ifvqek0","pricing_plan_id":"free"},{"bike_id":"cf16cb8a-3cc9-4a79-a05e-7abb06f2505e","system_id":"levelo_inurba_marseille","lat":43.289468,"lon":5.363719,"is_reserved":false,"is_disabled":false,"rental_uris":{"android":"levelo://app?vid=cf16cb8a-3cc9-4a79-a05e-7abb06f2505e","ios":"levelo://app?vid=cf16cb8a-3cc9-4a79-a05e-7abb06f2505e"},"vehicle_type_id":"4","last_reported":1687308120,"current_range_meters":28400,"station_id":"ce4bhc92rcd13ifvqetg","pricing_plan_id":"free"},{"bike_id":"fb243d4e-56ab-4518-9a25-b91c678f975c","system_id":"levelo_inurba_marseille","lat":43.289468,"lon":5.363719,"is_reserved":false,"is_disabled":false,"rental_uris":{"android":"levelo://app?vid=fb243d4e-56ab-4518-9a25-b91c678f975c","ios":"levelo://app?vid=fb243d4e-56ab-4518-9a25-b91c678f975c"},"vehicle_type_id":"4","last_reported":1687308120,"current_range_meters":30400,"station_id":"ce4bhc92rcd13ifvqetg","pricing_plan_id":"free"},{"bike_id":"38eb09af-7166-42b9-865e-84246929498f","system_id":"levelo_inurba_marseille","lat":43.292644,"lon":5.384257,"is_reserved":false,"is_disabled":false,"rental_uris":{"android":"levelo://app?vid=38eb09af-7166-42b9-865e-84246929498f","ios":"levelo://app?vid=38eb09af-7166-42b9-865e-84246929498f"},"vehicle_type_id":"4","last_reported":1687308120,"current_range_meters":31200,"station_id":"ce4bh692rcd13ifvqea0","pricing_plan_id":"free"},{"bike_id":"39e2f1bc-4e79-4109-918c-b86f06d7beb0","system_id":"levelo_inurba_marseille","lat":43.304296,"lon":5.397513,"is_reserved":false,"is_disabled":false,"rental_uris":{"android":"levelo://app?vid=39e2f1bc-4e79-4109-918c-b86f06d7beb0","ios":"levelo://app?vid=39e2f1bc-4e79-4109-918c-b86f06d7beb0"},"vehicle_type_id":"4","last_reported":1687308120,"current_range_meters":28800,"station_id":"ce4bh092rcd13ifvqd20","pricing_plan_id":"free"},{"bike_id":"3caffc17-39c9-41f2-8ba1-adb0bc1925da","system_id":"levelo_inurba_marseille","lat":43.33039,"lon":5.38915,"is_reserved":false,"is_disabled":false,"rental_uris":{"android":"levelo://app?vid=3caffc17-39c9-41f2-8ba1-adb0bc1925da","ios":"levelo://app?vid=3caffc17-39c9-41f2-8ba1-adb0bc1925da"},"vehicle_type_id":"4","last_reported":1687308120,"current_range_meters":25200,"station_id":"ce4bhr92rcd13ifvqhrg","pricing_plan_id":"free"},{"bike_id":"bfea3251-44a5-47b4-a6fa-5b481de5de8b","system_id":"levelo_inurba_marseille","lat":43.33041,"lon":5.38916,"is_reserved":false,"is_disabled":false,"rental_uris":{"android":"levelo://app?vid=bfea3251-44a5-47b4-a6fa-5b481de5de8b","ios":"levelo://app?vid=bfea3251-44a5-47b4-a6fa-5b481de5de8b"},"vehicle_type_id":"4","last_reported":1687308120,"current_range_meters":10400,"station_id":"ce4bhr92rcd13ifvqhrg","pricing_plan_id":"free"},{"bike_id":"7b4425c9-9a35-4378-9ded-5d710a02dfe0","system_id":"levelo_inurba_marseille","lat":43.33041,"lon":5.38916,"is_reserved":false,"is_disabled":false,"rental_uris":{"android":"levelo://app?vid=7b4425c9-9a35-4378-9ded-5d710a02dfe0","ios":"levelo://app?vid=7b4425c9-9a35-4378-9ded-5d710a02dfe0"},"vehicle_type_id":"4","last_reported":1687308120,"current_range_meters":19200,"station_id":"ce4bhr92rcd13ifvqhrg","pricing_plan_id":"free"},{"bike_id":"d1a70f54-4613-4308-8828-9261654b7741","system_id":"levelo_inurba_marseille","lat":43.33042,"lon":5.38915,"is_reserved":false,"is_disabled":false,"rental_uris":{"android":"levelo://app?vid=d1a70f54-4613-4308-8828-9261654b7741","ios":"levelo://app?vid=d1a70f54-4613-4308-8828-9261654b7741"},"vehicle_type_id":"4","last_reported":1687308120,"current_range_meters":4800,"station_id":"ce4bhr92rcd13ifvqhrg","pricing_plan_id":"free"},{"bike_id":"0a07d6d9-eee7-45eb-ba0a-43c8494a09b4","system_id":"levelo_inurba_marseille","lat":43.33044,"lon":5.38916,"is_reserved":false,"is_disabled":false,"rental_uris":{"android":"levelo://app?vid=0a07d6d9-eee7-45eb-ba0a-43c8494a09b4","ios":"levelo://app?vid=0a07d6d9-eee7-45eb-ba0a-43c8494a09b4"},"vehicle_type_id":"4","last_reported":1687308120,"current_range_meters":30000,"station_id":"ce4bhr92rcd13ifvqhrg","pricing_plan_id":"free"},{"bike_id":"6c7db78f-2ed6-4b3a-a17d-2aa3f8ae2990","system_id":"levelo_inurba_marseille","lat":43.33044,"lon":5.38916,"is_reserved":false,"is_disabled":false,"rental_uris":{"android":"levelo://app?vid=6c7db78f-2ed6-4b3a-a17d-2aa3f8ae2990","ios":"levelo://app?vid=6c7db78f-2ed6-4b3a-a17d-2aa3f8ae2990"},"vehicle_type_id":"4","last_reported":1687308120,"current_range_meters":22400,"station_id":"ce4bhr92rcd13ifvqhrg","pricing_plan_id":"free"},{"bike_id":"3a6cd18e-fdaf-4a7e-9d49-188d87f1ba8c","system_id":"levelo_inurba_marseille","lat":43.33045,"lon":5.38915,"is_reserved":false,"is_disabled":false,"rental_uris":{"android":"levelo://app?vid=3a6cd18e-fdaf-4a7e-9d49-188d87f1ba8c","ios":"levelo://app?vid=3a6cd18e-fdaf-4a7e-9d49-188d87f1ba8c"},"vehicle_type_id":"4","last_reported":1687308120,"current_range_meters":21600,"station_id":"ce4bhr92rcd13ifvqhrg","pricing_plan_id":"free"},{"bike_id":"7bca5aa2-3d46-41b7-aade-65bb55af2371","system_id":"levelo_inurba_marseille","lat":43.33044,"lon":5.38917,"is_reserved":false,"is_disabled":false,"rental_uris":{"android":"levelo://app?vid=7bca5aa2-3d46-41b7-aade-65bb55af2371","ios":"levelo://app?vid=7bca5aa2-3d46-41b7-aade-65bb55af2371"},"vehicle_type_id":"4","last_reported":1687308120,"current_range_meters":25600,"station_id":"ce4bhr92rcd13ifvqhrg","pricing_plan_id":"free"},{"bike_id":"d0a6518f-1e22-4242-a376-0e5f9eede3d6","system_id":"levelo_inurba_marseille","lat":43.33046,"lon":5.38918,"is_reserved":false,"is_disabled":false,"rental_uris":{"android":"levelo://app?vid=d0a6518f-1e22-4242-a376-0e5f9eede3d6","ios":"levelo://app?vid=d0a6518f-1e22-4242-a376-0e5f9eede3d6"},"vehicle_type_id":"4","last_reported":1687308120,"current_range_meters":9600,"station_id":"ce4bhr92rcd13ifvqhrg","pricing_plan_id":"free"},{"bike_id":"4d7f9905-3a3e-44bf-864e-4f9c405be060","system_id":"levelo_inurba_marseille","lat":43.297815,"lon":5.393548,"is_reserved":false,"is_disabled":false,"rental_uris":{"android":"levelo://app?vid=4d7f9905-3a3e-44bf-864e-4f9c405be060","ios":"levelo://app?vid=4d7f9905-3a3e-44bf-864e-4f9c405be060"},"vehicle_type_id":"4","last_reported":1687308120,"current_range_meters":29200,"station_id":"chh1huq6cuj3fo74tm60","pricing_plan_id":"free"},{"bike_id":"47b76b13-a5aa-438c-ab78-98efc5ca293f","system_id":"levelo_inurba_marseille","lat":43.28856,"lon":5.358371,"is_reserved":false,"is_disabled":false,"rental_uris":{"android":"levelo://app?vid=47b76b13-a5aa-438c-ab78-98efc5ca293f","ios":"levelo://app?vid=47b76b13-a5aa-438c-ab78-98efc5ca293f"},"vehicle_type_id":"4","last_reported":1687308120,"current_range_meters":7200,"station_id":"ce4bhb12rcd13ifvqem0","pricing_plan_id":"free"},{"bike_id":"51475d77-bde6-48f1-9073-e6a79cf32884","system_id":"levelo_inurba_marseille","lat":43.28856,"lon":5.358371,"is_reserved":false,"is_disabled":false,"rental_uris":{"android":"levelo://app?vid=51475d77-bde6-48f1-9073-e6a79cf32884","ios":"levelo://app?vid=51475d77-bde6-48f1-9073-e6a79cf32884"},"vehicle_type_id":"4","last_reported":1687308120,"current_range_meters":21200,"station_id":"ce4bhb12rcd13ifvqem0","pricing_plan_id":"free"},{"bike_id":"1e2cefbd-9f4a-45ed-98e5-279a1eac3b09","system_id":"levelo_inurba_marseille","lat":43.2901,"lon":5.381269,"is_reserved":false,"is_disabled":false,"rental_uris":{"android":"levelo://app?vid=1e2cefbd-9f4a-45ed-98e5-279a1eac3b09","ios":"levelo://app?vid=1e2cefbd-9f4a-45ed-98e5-279a1eac3b09"},"vehicle_type_id":"4","last_reported":1687308120,"current_range_meters":28400,"station_id":"ce4bh4p2rcd13ifvqe1g","pricing_plan_id":"free"},{"bike_id":"78318729-a554-41c7-94d3-def64ec60527","system_id":"levelo_inurba_marseille","lat":43.28856,"lon":5.358371,"is_reserved":false,"is_disabled":false,"rental_uris":{"android":"levelo://app?vid=78318729-a554-41c7-94d3-def64ec60527","ios":"levelo://app?vid=78318729-a554-41c7-94d3-def64ec60527"},"vehicle_type_id":"4","last_reported":1687308120,"current_range_meters":21200,"station_id":"ce4bhb12rcd13ifvqem0","pricing_plan_id":"free"},{"bike_id":"95322e8d-20ca-43a4-88bb-d6583b6d1160","system_id":"levelo_inurba_marseille","lat":43.28856,"lon":5.358371,"is_reserved":false,"is_disabled":false,"rental_uris":{"android":"levelo://app?vid=95322e8d-20ca-43a4-88bb-d6583b6d1160","ios":"levelo://app?vid=95322e8d-20ca-43a4-88bb-d6583b6d1160"},"vehicle_type_id":"4","last_reported":1687308120,"current_range_meters":29600,"station_id":"ce4bhb12rcd13ifvqem0","pricing_plan_id":"free"},{"bike_id":"800864c8-ab87-4ca1-9376-076d98ac4ddc","system_id":"levelo_inurba_marseille","lat":43.29003,"lon":5.3814,"is_reserved":false,"is_disabled":false,"rental_uris":{"android":"levelo://app?vid=800864c8-ab87-4ca1-9376-076d98ac4ddc","ios":"levelo://app?vid=800864c8-ab87-4ca1-9376-076d98ac4ddc"},"vehicle_type_id":"4","last_reported":1687308120,"current_range_meters":30400,"station_id":"ce4bh4p2rcd13ifvqe1g","pricing_plan_id":"free"},{"bike_id":"e6f05487-04ac-4f1d-b7e0-a303cd62551c","system_id":"levelo_inurba_marseille","lat":43.309371,"lon":5.401449,"is_reserved":false,"is_disabled":false,"rental_uris":{"android":"levelo://app?vid=e6f05487-04ac-4f1d-b7e0-a303cd62551c","ios":"levelo://app?vid=e6f05487-04ac-4f1d-b7e0-a303cd62551c"},"vehicle_type_id":"4","last_reported":1687308120,"current_range_meters":26800,"station_id":"ce4bgvp2rcd13ifvqct0","pricing_plan_id":"free"},{"bike_id":"51e7d446-5031-4944-82d0-6887bf72a916","system_id":"levelo_inurba_marseille","lat":43.306412,"lon":5.401035,"is_reserved":false,"is_disabled":false,"rental_uris":{"android":"levelo://app?vid=51e7d446-5031-4944-82d0-6887bf72a916","ios":"levelo://app?vid=51e7d446-5031-4944-82d0-6887bf72a916"},"vehicle_type_id":"4","last_reported":1687308120,"current_range_meters":27200,"station_id":"ce4bh112rcd13ifvqda0","pricing_plan_id":"free"},{"bike_id":"49607d8a-6ec3-48ef-9a5c-152f584026db","system_id":"levelo_inurba_marseille","lat":43.309371,"lon":5.401449,"is_reserved":false,"is_disabled":false,"rental_uris":{"android":"levelo://app?vid=49607d8a-6ec3-48ef-9a5c-152f584026db","ios":"levelo://app?vid=49607d8a-6ec3-48ef-9a5c-152f584026db"},"vehicle_type_id":"4","last_reported":1687308120,"current_range_meters":22000,"station_id":"ce4bgvp2rcd13ifvqct0","pricing_plan_id":"free"},{"bike_id":"8e2277a9-15d6-4dad-bfcf-48f716dc08f9","system_id":"levelo_inurba_marseille","lat":43.309371,"lon":5.401449,"is_reserved":false,"is_disabled":false,"rental_uris":{"android":"levelo://app?vid=8e2277a9-15d6-4dad-bfcf-48f716dc08f9","ios":"levelo://app?vid=8e2277a9-15d6-4dad-bfcf-48f716dc08f9"},"vehicle_type_id":"4","last_reported":1687308120,"current_range_meters":18000,"station_id":"ce4bgvp2rcd13ifvqct0","pricing_plan_id":"free"},{"bike_id":"4bafa8b1-cf3a-4d54-a8d6-e052b366cd7a","system_id":"levelo_inurba_marseille","lat":43.306412,"lon":5.401035,"is_reserved":false,"is_disabled":false,"rental_uris":{"android":"levelo://app?vid=4bafa8b1-cf3a-4d54-a8d6-e052b366cd7a","ios":"levelo://app?vid=4bafa8b1-cf3a-4d54-a8d6-e052b366cd7a"},"vehicle_type_id":"4","last_reported":1687308120,"current_range_meters":17200,"station_id":"ce4bh112rcd13ifvqda0","pricing_plan_id":"free"},{"bike_id":"839c605e-cd67-4d67-b79b-c6b69b50c53e","system_id":"levelo_inurba_marseille","lat":43.306412,"lon":5.401035,"is_reserved":false,"is_disabled":false,"rental_uris":{"android":"levelo://app?vid=839c605e-cd67-4d67-b79b-c6b69b50c53e","ios":"levelo://app?vid=839c605e-cd67-4d67-b79b-c6b69b50c53e"},"vehicle_type_id":"4","last_reported":1687308120,"current_range_meters":18400,"station_id":"ce4bh112rcd13ifvqda0","pricing_plan_id":"free"},{"bike_id":"fbf0ef94-45df-4cd8-aadd-43ad65843939","system_id":"levelo_inurba_marseille","lat":43.30638,"lon":5.40071,"is_reserved":false,"is_disabled":false,"rental_uris":{"android":"levelo://app?vid=fbf0ef94-45df-4cd8-aadd-43ad65843939","ios":"levelo://app?vid=fbf0ef94-45df-4cd8-aadd-43ad65843939"},"vehicle_type_id":"4","last_reported":1687308120,"current_range_meters":400,"station_id":"ce4bh112rcd13ifvqda0","pricing_plan_id":"free"},{"bike_id":"2586c4a8-4b78-4821-905d-7b5aea05d9d6","system_id":"levelo_inurba_marseille","lat":43.306412,"lon":5.401035,"is_reserved":false,"is_disabled":false,"rental_uris":{"android":"levelo://app?vid=2586c4a8-4b78-4821-905d-7b5aea05d9d6","ios":"levelo://app?vid=2586c4a8-4b78-4821-905d-7b5aea05d9d6"},"vehicle_type_id":"4","last_reported":1687308120,"current_range_meters":30000,"station_id":"ce4bh112rcd13ifvqda0","pricing_plan_id":"free"},{"bike_id":"3d640771-0a55-4b76-9e68-65f7ead5b368","system_id":"levelo_inurba_marseille","lat":43.306412,"lon":5.401035,"is_reserved":false,"is_disabled":false,"rental_uris":{"android":"levelo://app?vid=3d640771-0a55-4b76-9e68-65f7ead5b368","ios":"levelo://app?vid=3d640771-0a55-4b76-9e68-65f7ead5b368"},"vehicle_type_id":"4","last_reported":1687308120,"current_range_meters":24000,"station_id":"ce4bh112rcd13ifvqda0","pricing_plan_id":"free"},{"bike_id":"fcfd6d5d-8db3-45b3-ac46-2db622244189","system_id":"levelo_inurba_marseille","lat":43.306412,"lon":5.401035,"is_reserved":false,"is_disabled":false,"rental_uris":{"android":"levelo://app?vid=fcfd6d5d-8db3-45b3-ac46-2db622244189","ios":"levelo://app?vid=fcfd6d5d-8db3-45b3-ac46-2db622244189"},"vehicle_type_id":"4","last_reported":1687308120,"current_range_meters":30400,"station_id":"ce4bh112rcd13ifvqda0","pricing_plan_id":"free"},{"bike_id":"dc70ff00-3b4e-4262-9d75-d4f84cbf75cc","system_id":"levelo_inurba_marseille","lat":43.30642,"lon":5.401031,"is_reserved":false,"is_disabled":false,"rental_uris":{"android":"levelo://app?vid=dc70ff00-3b4e-4262-9d75-d4f84cbf75cc","ios":"levelo://app?vid=dc70ff00-3b4e-4262-9d75-d4f84cbf75cc"},"vehicle_type_id":"4","last_reported":1687308120,"current_range_meters":28400,"station_id":"ce4bh112rcd13ifvqda0","pricing_plan_id":"free"},{"bike_id":"fe4d10a6-c306-48e6-ae4f-fc671e486244","system_id":"levelo_inurba_marseille","lat":43.302759,"lon":5.400793,"is_reserved":false,"is_disabled":false,"rental_uris":{"android":"levelo://app?vid=fe4d10a6-c306-48e6-ae4f-fc671e486244","ios":"levelo://app?vid=fe4d10a6-c306-48e6-ae4f-fc671e486244"},"vehicle_type_id":"4","last_reported":1687308120,"current_range_meters":19600,"station_id":"ce4bgvh2rcd13ifvqcs0","pricing_plan_id":"free"},{"bike_id":"9c50dd7f-6236-4fbd-bae3-a811819130fa","system_id":"levelo_inurba_marseille","lat":43.29865,"lon":5.39722,"is_reserved":false,"is_disabled":false,"rental_uris":{"android":"levelo://app?vid=9c50dd7f-6236-4fbd-bae3-a811819130fa","ios":"levelo://app?vid=9c50dd7f-6236-4fbd-bae3-a811819130fa"},"vehicle_type_id":"4","last_reported":1687308120,"current_range_meters":0,"station_id":"ce4bh0h2rcd13ifvqd50","pricing_plan_id":"free"},{"bike_id":"121785df-6b6a-4fbe-9eb3-c500b96f287f","system_id":"levelo_inurba_marseille","lat":43.286591,"lon":5.363346,"is_reserved":false,"is_disabled":false,"rental_uris":{"android":"levelo://app?vid=121785df-6b6a-4fbe-9eb3-c500b96f287f","ios":"levelo://app?vid=121785df-6b6a-4fbe-9eb3-c500b96f287f"},"vehicle_type_id":"4","last_reported":1687308120,"current_range_meters":29200,"station_id":"ce4bhah2rcd13ifvqej0","pricing_plan_id":"free"},{"bike_id":"e3ec115b-dc29-4a3f-b07f-92adf2051303","system_id":"levelo_inurba_marseille","lat":43.286961,"lon":5.373785,"is_reserved":false,"is_disabled":false,"rental_uris":{"android":"levelo://app?vid=e3ec115b-dc29-4a3f-b07f-92adf2051303","ios":"levelo://app?vid=e3ec115b-dc29-4a3f-b07f-92adf2051303"},"vehicle_type_id":"4","last_reported":1687308120,"current_range_meters":28000,"station_id":"ce4bh3p2rcd13ifvqdq0","pricing_plan_id":"free"},{"bike_id":"222cbce9-7315-4a61-b40e-40b441f1422a","system_id":"levelo_inurba_marseille","lat":43.286591,"lon":5.363346,"is_reserved":false,"is_disabled":false,"rental_uris":{"android":"levelo://app?vid=222cbce9-7315-4a61-b40e-40b441f1422a","ios":"levelo://app?vid=222cbce9-7315-4a61-b40e-40b441f1422a"},"vehicle_type_id":"4","last_reported":1687308120,"current_range_meters":27600,"station_id":"ce4bhah2rcd13ifvqej0","pricing_plan_id":"free"},{"bike_id":"fa020c06-37eb-41fb-9859-3646690505db","system_id":"levelo_inurba_marseille","lat":43.286961,"lon":5.373785,"is_reserved":false,"is_disabled":false,"rental_uris":{"android":"levelo://app?vid=fa020c06-37eb-41fb-9859-3646690505db","ios":"levelo://app?vid=fa020c06-37eb-41fb-9859-3646690505db"},"vehicle_type_id":"4","last_reported":1687308120,"current_range_meters":30000,"station_id":"ce4bh3p2rcd13ifvqdq0","pricing_plan_id":"free"},{"bike_id":"56c74675-01a4-45e4-bce8-c5c7335a422d","system_id":"levelo_inurba_marseille","lat":43.286593,"lon":5.363346,"is_reserved":false,"is_disabled":false,"rental_uris":{"android":"levelo://app?vid=56c74675-01a4-45e4-bce8-c5c7335a422d","ios":"levelo://app?vid=56c74675-01a4-45e4-bce8-c5c7335a422d"},"vehicle_type_id":"4","last_reported":1687308120,"current_range_meters":31200,"station_id":"ce4bhah2rcd13ifvqej0","pricing_plan_id":"free"},{"bike_id":"c76037a2-c80a-4d84-90f5-00474b839724","system_id":"levelo_inurba_marseille","lat":43.28701,"lon":5.37391,"is_reserved":false,"is_disabled":false,"rental_uris":{"android":"levelo://app?vid=c76037a2-c80a-4d84-90f5-00474b839724","ios":"levelo://app?vid=c76037a2-c80a-4d84-90f5-00474b839724"},"vehicle_type_id":"4","last_reported":1687308120,"current_range_meters":28000,"station_id":"ce4bh3p2rcd13ifvqdq0","pricing_plan_id":"free"},{"bike_id":"bd2ee7eb-7fa8-40be-a24b-26778be6e827","system_id":"levelo_inurba_marseille","lat":43.286591,"lon":5.363346,"is_reserved":false,"is_disabled":false,"rental_uris":{"android":"levelo://app?vid=bd2ee7eb-7fa8-40be-a24b-26778be6e827","ios":"levelo://app?vid=bd2ee7eb-7fa8-40be-a24b-26778be6e827"},"vehicle_type_id":"4","last_reported":1687308120,"current_range_meters":31200,"station_id":"ce4bhah2rcd13ifvqej0","pricing_plan_id":"free"},{"bike_id":"9f64c7a6-dfc2-44e0-ab4f-76a3d1d3f591","system_id":"levelo_inurba_marseille","lat":43.286591,"lon":5.363346,"is_reserved":false,"is_disabled":false,"rental_uris":{"android":"levelo://app?vid=9f64c7a6-dfc2-44e0-ab4f-76a3d1d3f591","ios":"levelo://app?vid=9f64c7a6-dfc2-44e0-ab4f-76a3d1d3f591"},"vehicle_type_id":"4","last_reported":1687308120,"current_range_meters":23600,"station_id":"ce4bhah2rcd13ifvqej0","pricing_plan_id":"free"},{"bike_id":"d89f68cc-6a49-4ce2-885b-2d9edcf14731","system_id":"levelo_inurba_marseille","lat":43.286593,"lon":5.363346,"is_reserved":false,"is_disabled":false,"rental_uris":{"android":"levelo://app?vid=d89f68cc-6a49-4ce2-885b-2d9edcf14731","ios":"levelo://app?vid=d89f68cc-6a49-4ce2-885b-2d9edcf14731"},"vehicle_type_id":"4","last_reported":1687308120,"current_range_meters":22000,"station_id":"ce4bhah2rcd13ifvqej0","pricing_plan_id":"free"},{"bike_id":"7b0761ec-5c08-4240-9563-19008f714a9c","system_id":"levelo_inurba_marseille","lat":43.286593,"lon":5.363346,"is_reserved":false,"is_disabled":false,"rental_uris":{"android":"levelo://app?vid=7b0761ec-5c08-4240-9563-19008f714a9c","ios":"levelo://app?vid=7b0761ec-5c08-4240-9563-19008f714a9c"},"vehicle_type_id":"4","last_reported":1687308120,"current_range_meters":16800,"station_id":"ce4bhah2rcd13ifvqej0","pricing_plan_id":"free"},{"bike_id":"26a78582-e2ee-4495-bc9e-2daf0c692872","system_id":"levelo_inurba_marseille","lat":43.286593,"lon":5.363346,"is_reserved":false,"is_disabled":false,"rental_uris":{"android":"levelo://app?vid=26a78582-e2ee-4495-bc9e-2daf0c692872","ios":"levelo://app?vid=26a78582-e2ee-4495-bc9e-2daf0c692872"},"vehicle_type_id":"4","last_reported":1687308120,"current_range_meters":21200,"station_id":"ce4bhah2rcd13ifvqej0","pricing_plan_id":"free"},{"bike_id":"fdeab6ee-e3c0-4e8c-bad1-bc4bc3e3b930","system_id":"levelo_inurba_marseille","lat":43.286593,"lon":5.363346,"is_reserved":false,"is_disabled":false,"rental_uris":{"android":"levelo://app?vid=fdeab6ee-e3c0-4e8c-bad1-bc4bc3e3b930","ios":"levelo://app?vid=fdeab6ee-e3c0-4e8c-bad1-bc4bc3e3b930"},"vehicle_type_id":"4","last_reported":1687308120,"current_range_meters":15600,"station_id":"ce4bhah2rcd13ifvqej0","pricing_plan_id":"free"},{"bike_id":"34f76d12-f20b-40be-ba84-6413ebfc501f","system_id":"levelo_inurba_marseille","lat":43.298681,"lon":5.397225,"is_reserved":false,"is_disabled":false,"rental_uris":{"android":"levelo://app?vid=34f76d12-f20b-40be-ba84-6413ebfc501f","ios":"levelo://app?vid=34f76d12-f20b-40be-ba84-6413ebfc501f"},"vehicle_type_id":"4","last_reported":1687308120,"current_range_meters":20000,"station_id":"ce4bh0h2rcd13ifvqd50","pricing_plan_id":"free"},{"bike_id":"5054e3ca-0890-4b45-969a-d7115d72bb9a","system_id":"levelo_inurba_marseille","lat":43.286961,"lon":5.373785,"is_reserved":false,"is_disabled":false,"rental_uris":{"android":"levelo://app?vid=5054e3ca-0890-4b45-969a-d7115d72bb9a","ios":"levelo://app?vid=5054e3ca-0890-4b45-969a-d7115d72bb9a"},"vehicle_type_id":"4","last_reported":1687308120,"current_range_meters":31200,"station_id":"ce4bh3p2rcd13ifvqdq0","pricing_plan_id":"free"},{"bike_id":"c9349901-8981-4fb0-8bc6-51db865a5183","system_id":"levelo_inurba_marseille","lat":43.298681,"lon":5.397225,"is_reserved":false,"is_disabled":false,"rental_uris":{"android":"levelo://app?vid=c9349901-8981-4fb0-8bc6-51db865a5183","ios":"levelo://app?vid=c9349901-8981-4fb0-8bc6-51db865a5183"},"vehicle_type_id":"4","last_reported":1687308120,"current_range_meters":11600,"station_id":"ce4bh0h2rcd13ifvqd50","pricing_plan_id":"free"},{"bike_id":"0aaefbd4-71a3-45b4-ab39-e10c3260e727","system_id":"levelo_inurba_marseille","lat":43.295194,"lon":5.39397,"is_reserved":false,"is_disabled":false,"rental_uris":{"android":"levelo://app?vid=0aaefbd4-71a3-45b4-ab39-e10c3260e727","ios":"levelo://app?vid=0aaefbd4-71a3-45b4-ab39-e10c3260e727"},"vehicle_type_id":"4","last_reported":1687308120,"current_range_meters":31200,"station_id":"ce4bh292rcd13ifvqdf0","pricing_plan_id":"free"},{"bike_id":"7414bcb5-50a2-4306-be4a-d5c79c0f4fb4","system_id":"levelo_inurba_marseille","lat":43.29027,"lon":5.38645,"is_reserved":false,"is_disabled":false,"rental_uris":{"android":"levelo://app?vid=7414bcb5-50a2-4306-be4a-d5c79c0f4fb4","ios":"levelo://app?vid=7414bcb5-50a2-4306-be4a-d5c79c0f4fb4"},"vehicle_type_id":"4","last_reported":1687308120,"current_range_meters":30000,"station_id":"ce4bh4p2rcd13ifvqe0g","pricing_plan_id":"free"},{"bike_id":"0e298c81-443b-46f6-ae7d-e607f85041c7","system_id":"levelo_inurba_marseille","lat":43.302759,"lon":5.400793,"is_reserved":false,"is_disabled":false,"rental_uris":{"android":"levelo://app?vid=0e298c81-443b-46f6-ae7d-e607f85041c7","ios":"levelo://app?vid=0e298c81-443b-46f6-ae7d-e607f85041c7"},"vehicle_type_id":"4","last_reported":1687308120,"current_range_meters":28000,"station_id":"ce4bgvh2rcd13ifvqcs0","pricing_plan_id":"free"},{"bike_id":"64c2355d-b7bf-4890-95ba-a54171ad4af4","system_id":"levelo_inurba_marseille","lat":43.302759,"lon":5.400793,"is_reserved":false,"is_disabled":false,"rental_uris":{"android":"levelo://app?vid=64c2355d-b7bf-4890-95ba-a54171ad4af4","ios":"levelo://app?vid=64c2355d-b7bf-4890-95ba-a54171ad4af4"},"vehicle_type_id":"4","last_reported":1687308120,"current_range_meters":20000,"station_id":"ce4bgvh2rcd13ifvqcs0","pricing_plan_id":"free"},