{"last_updated":1752322728,"ttl":60,"version":"2.2","data":{"bikes":[{"bike_id":"abe5ca34-2515-46db-bcf4-967337c6ef94","system_id":"levelo_inurba_marseille","lat":43.27321,"lon":5.39068,"is_reserved":false,"is_disabled":false,"rental_uris":{"android":"levelo://app?vid=abe5ca34-2515-46db-bcf4-967337c6ef94","ios":"levelo://app?vid=abe5ca34-2515-46db-bcf4-967337c6ef94"},"vehicle_type_id":"4","last_reported":1752322728,"current_range_meters":3600,"station_id":"ce4bhgp2rcd13ifvqfe0","pricing_plan_id":"cebpf4jnsgd1na2vs0mg"},{"bike_id":"0ef934b6-e832-428b-9a52-641fc174f70a","system_id":"levelo_inurba_marseille","lat":43.3036,"lon":5.4188,"is_reserved":false,"is_disabled":false,"rental_uris":{"android":"levelo://app?vid=0ef934b6-e832-428b-9a52-641fc174f70a","ios":"levelo://app?vid=0ef934b6-e832-428b-9a52-641fc174f70a"},"vehicle_type_id":"4","last_reported":1752322728,"current_range_meters":3600,"station_id":"ce4bhop2rcd13ifvqh7g","pricing_plan_id":"cebpf4jnsgd1na2vs0mg"},{"bike_id":"a2339d9d-6be4-415d-a160-f9b9822722fc","system_id":"levelo_inurba_marseille","lat":43.310774,"lon":5.383476,"is_reserved":false,"is_disabled":true,"rental_uris":{"android":"levelo://app?vid=a2339d9d-6be4-415d-a160-f9b9822722fc","ios":"levelo://app?vid=a2339d9d-6be4-415d-a160-f9b9822722fc"},"vehicle_type_id":"4","last_reported":1752322728,"current_range_meters":5600,"station_id":"ce4bgv92rcd13ifvqcr0","pricing_plan_id":"cebpf4jnsgd1na2vs0mg"},{"bike_id":"77015060-8a33-45f2-b769-d069be9547bb","system_id":"levelo_inurba_marseille","lat":43.31053,"lon":5.3834,"is_reserved":false,"is_disabled":false,"rental_uris":{"android":"levelo://app?vid=77015060-8a33-45f2-b769-d069be9547bb","ios":"levelo://app?vid=77015060-8a33-45f2-b769-d069be9547bb"},"vehicle_type_id":"4","last_reported":1752322728,"current_range_meters":6000,"station_id":"ce4bgv92rcd13ifvqcr0","pricing_plan_id":"cebpf4jnsgd1na2vs0mg"},{"bike_id":"8697869a-0a8e-4096-8963-4630873bf297","system_id":"levelo_inurba_marseille","lat":43.2907,"lon":5.37184,"is_reserved":false,"is_disabled":false,"rental_uris":{"android":"levelo://app?vid=8697869a-0a8e-4096-8963-4630873bf297","ios":"levelo://app?vid=8697869a-0a8e-4096-8963-4630873bf297"},"vehicle_type_id":"4","last_reported":1752322728,"current_range_meters":6000,"station_id":"ce4bh5p2rcd13ifvqe4g","pricing_plan_id":"cebpf4jnsgd1na2vs0mg"},{"bike_id":"9ebd0fc9-f801-45d4-bb65-f35f3e7d7859","system_id":"levelo_inurba_marseille","lat":43.29945,"lon":5.36508,"is_reserved":false,"is_disabled":false,"rental_uris":{"android":"levelo://app?vid=9ebd0fc9-f801-45d4-bb65-f35f3e7d7859","ios":"levelo://app?vid=9ebd0fc9-f801-45d4-bb65-f35f3e7d7859"},"vehicle_type_id":"4","last_reported":1752322728,"current_range_meters":6400,"station_id":"ce4bgm92rcd13ifvqbr0","pricing_plan_id":"cebpf4jnsgd1na2vs0mg"},{"bike_id":"8a1409de-8d67-4bf1-8106-a3a0efa7d0ae","system_id":"levelo_inurba_marseille","lat":43.28424,"lon":5.34973,"is_reserved":false,"is_disabled":false,"rental_uris":{"android":"levelo://app?vid=8a1409de-8d67-4bf1-8106-a3a0efa7d0ae","ios":"levelo://app?vid=8a1409de-8d67-4bf1-8106-a3a0efa7d0ae"},"vehicle_type_id":"4","last_reported":1752322728,"current_range_meters":6400,"station_id":"ce4bhbh2rcd13ifvqepg","pricing_plan_id":"cebpf4jnsgd1na2vs0mg"},{"bike_id":"c4cb91f3-21de-4fc5-9c62-bcf13ddf8388","system_id":"levelo_inurba_marseille","lat":43.26581,"lon":5.38993,"is_reserved":false,"is_disabled":true,"rental_uris":{"android":"levelo://app?vid=c4cb91f3-21de-4fc5-9c62-bcf13ddf8388","ios":"levelo://app?vid=c4cb91f3-21de-4fc5-9c62-bcf13ddf8388"},"vehicle_type_id":"4","last_reported":1752322728,"current_range_meters":7200,"station_id":"ce4bhe12rcd13ifvqf30","pricing_plan_id":"cebpf4jnsgd1na2vs0mg"},{"bike_id":"560a4aa1-c3a7-40de-9e4e-8ffd5507aa85","system_id":"levelo_inurba_marseille","lat":43.28413,"lon":5.34984,"is_reserved":false,"is_disabled":false,"rental_uris":{"android":"levelo://app?vid=560a4aa1-c3a7-40de-9e4e-8ffd5507aa85","ios":"levelo://app?vid=560a4aa1-c3a7-40de-9e4e-8ffd5507aa85"},"vehicle_type_id":"4","last_reported":1752322728,"current_range_meters":7200,"station_id":"ce4bhbh2rcd13ifvqepg","pricing_plan_id":"cebpf4jnsgd1na2vs0mg"},{"bike_id":"dbaf806e-1466-446d-ba86-a6b26b2076ab","system_id":"levelo_inurba_marseille","lat":43.28843,"lon":5.35847,"is_reserved":false,"is_disabled":false,"rental_uris":{"android":"levelo://app?vid=dbaf806e-1466-446d-ba86-a6b26b2076ab","ios":"levelo://app?vid=dbaf806e-1466-446d-ba86-a6b26b2076ab"},"vehicle_type_id":"4","last_reported":1752322728,"current_range_meters":7200,"station_id":"ce4bhb12rcd13ifvqem0","pricing_plan_id":"cebpf4jnsgd1na2vs0mg"},{"bike_id":"14dc4262-2c3a-458d-a465-df6123300828","system_id":"levelo_inurba_marseille","lat":43.29006,"lon":5.35608,"is_reserved":false,"is_disabled":false,"rental_uris":{"android":"levelo://app?vid=14dc4262-2c3a-458d-a465-df6123300828","ios":"levelo://app?vid=14dc4262-2c3a-458d-a465-df6123300828"},"vehicle_type_id":"4","last_reported":1752322728,"current_range_meters":8000,"station_id":"ce4bhb92rcd13ifvqen0","pricing_plan_id":"cebpf4jnsgd1na2vs0mg"},{"bike_id":"f1fa9c00-43d8-4462-b070-b89a014efd85","system_id":"levelo_inurba_marseille","lat":43.32283,"lon":5.38264,"is_reserved":false,"is_disabled":false,"rental_uris":{"android":"levelo://app?vid=f1fa9c00-43d8-4462-b070-b89a014efd85","ios":"levelo://app?vid=f1fa9c00-43d8-4462-b070-b89a014efd85"},"vehicle_type_id":"4","last_reported":1752322728,"current_range_meters":8000,"station_id":"ce4bhr12rcd13ifvqhqg","pricing_plan_id":"cebpf4jnsgd1na2vs0mg"},{"bike_id":"534ed68d-5ceb-43a8-968b-be30f01dfa74","system_id":"levelo_inurba_marseille","lat":43.28209,"lon":5.39064,"is_reserved":false,"is_disabled":false,"rental_uris":{"android":"levelo://app?vid=534ed68d-5ceb-43a8-968b-be30f01dfa74","ios":"levelo://app?vid=534ed68d-5ceb-43a8-968b-be30f01dfa74"},"vehicle_type_id":"4","last_reported":1752322728,"current_range_meters":8400,"station_id":"","pricing_plan_id":"cebpf4jnsgd1na2vs0mg"},{"bike_id":"69c4b0b5-3da5-4051-9b3a-b67613165f1f","system_id":"levelo_inurba_marseille","lat":43.28843,"lon":5.39309,"is_reserved":false,"is_disabled":false,"rental_uris":{"android":"levelo://app?vid=69c4b0b5-3da5-4051-9b3a-b67613165f1f","ios":"levelo://app?vid=69c4b0b5-3da5-4051-9b3a-b67613165f1f"},"vehicle_type_id":"4","last_reported":1752322728,"current_range_meters":8400,"station_id":"ce4bh2p2rcd13ifvqdi0","pricing_plan_id":"cebpf4jnsgd1na2vs0mg"},{"bike_id":"0f3ffdb9-038f-4ce1-a3d1-18585c30a009","system_id":"levelo_inurba_marseille","lat":43.299307,"lon":5.365427,"is_reserved":false,"is_disabled":false,"rental_uris":{"android":"levelo://app?vid=0f3ffdb9-038f-4ce1-a3d1-18585c30a009","ios":"levelo://app?vid=0f3ffdb9-038f-4ce1-a3d1-18585c30a009"},"vehicle_type_id":"4","last_reported":1752322728,"current_range_meters":8400,"station_id":"ce4bgm92rcd13ifvqbr0","pricing_plan_id":"cebpf4jnsgd1na2vs0mg"},{"bike_id":"68662dfa-174b-45a2-a121-567c4218d065","system_id":"levelo_inurba_marseille","lat":43.21754,"lon":5.34603,"is_reserved":false,"is_disabled":false,"rental_uris":{"android":"levelo://app?vid=68662dfa-174b-45a2-a121-567c4218d065","ios":"levelo://app?vid=68662dfa-174b-45a2-a121-567c4218d065"},"vehicle_type_id":"4","last_reported":1752322728,"current_range_meters":8400,"station_id":"st_cvj6r9ubvosntc0bgbag","pricing_plan_id":"cebpf4jnsgd1na2vs0mg"},{"bike_id":"bf774a5b-6e65-4c8d-97c0-5ddfc3589923","system_id":"levelo_inurba_marseille","lat":43.28705,"lon":5.39985,"is_reserved":false,"is_disabled":false,"rental_uris":{"android":"levelo://app?vid=bf774a5b-6e65-4c8d-97c0-5ddfc3589923","ios":"levelo://app?vid=bf774a5b-6e65-4c8d-97c0-5ddfc3589923"},"vehicle_type_id":"4","last_reported":1752322728,"current_range_meters":8400,"station_id":"ce4bho92rcd13ifvqh3g","pricing_plan_id":"cebpf4jnsgd1na2vs0mg"},{"bike_id":"e45f506d-06e3-4243-8173-8ecba19559ba","system_id":"levelo_inurba_marseille","lat":43.29012,"lon":5.35611,"is_reserved":false,"is_disabled":false,"rental_uris":{"android":"levelo://app?vid=e45f506d-06e3-4243-8173-8ecba19559ba","ios":"levelo://app?vid=e45f506d-06e3-4243-8173-8ecba19559ba"},"vehicle_type_id":"4","last_reported":1752322728,"current_range_meters":8800,"station_id":"ce4bhb92rcd13ifvqen0","pricing_plan_id":"cebpf4jnsgd1na2vs0mg"},{"bike_id":"d849a247-c2c0-4619-bac8-f5a6994e0014","system_id":"levelo_inurba_marseille","lat":43.320465,"lon":5.415741,"is_reserved":false,"is_disabled":false,"rental_uris":{"android":"levelo://app?vid=d849a247-c2c0-4619-bac8-f5a6994e0014","ios":"levelo://app?vid=d849a247-c2c0-4619-bac8-f5a6994e0014"},"vehicle_type_id":"4","last_reported":1752322728,"current_range_meters":8800,"station_id":"","pricing_plan_id":"cebpf4jnsgd1na2vs0mg"},{"bike_id":"dc2144c2-3f55-44c6-b21c-3ce0ee39bccc","system_id":"levelo_inurba_marseille","lat":43.315,"lon":5.37263,"is_reserved":false,"is_disabled":false,"rental_uris":{"android":"levelo://app?vid=dc2144c2-3f55-44c6-b21c-3ce0ee39bccc","ios":"levelo://app?vid=dc2144c2-3f55-44c6-b21c-3ce0ee39bccc"},"vehicle_type_id":"4","last_reported":1752322728,"current_range_meters":8800,"station_id":"ce4bgt12rcd13ifvqcd0","pricing_plan_id":"cebpf4jnsgd1na2vs0mg"},{"bike_id":"4e2eed9a-9afb-418b-bfdb-44ee1fab8c8a","system_id":"levelo_inurba_marseille","lat":43.28463,"lon":5.35886,"is_reserved":false,"is_disabled":false,"rental_uris":{"android":"levelo://app?vid=4e2eed9a-9afb-418b-bfdb-44ee1fab8c8a","ios":"levelo://app?vid=4e2eed9a-9afb-418b-bfdb-44ee1fab8c8a"},"vehicle_type_id":"4","last_reported":1752322728,"current_range_meters":9200,"station_id":"ce4bhah2rcd13ifvqei0","pricing_plan_id":"cebpf4jnsgd1na2vs0mg"},{"bike_id":"57e6b194-fdd6-4e64-aa10-c711ee590d09","system_id":"levelo_inurba_marseille","lat":43.2979,"lon":5.39338,"is_reserved":false,"is_disabled":false,"rental_uris":{"android":"levelo://app?vid=57e6b194-fdd6-4e64-aa10-c711ee590d09","ios":"levelo://app?vid=57e6b194-fdd6-4e64-aa10-c711ee590d09"},"vehicle_type_id":"4","last_reported":1752322728,"current_range_meters":9200,"station_id":"chh1huq6cuj3fo74tm60","pricing_plan_id":"cebpf4jnsgd1na2vs0mg"},{"bike_id":"865e8da1-ff4a-402c-b802-ac33ec88e3ea","system_id":"levelo_inurba_marseille","lat":43.33016,"lon":5.39046,"is_reserved":false,"is_disabled":false,"rental_uris":{"android":"levelo://app?vid=865e8da1-ff4a-402c-b802-ac33ec88e3ea","ios":"levelo://app?vid=865e8da1-ff4a-402c-b802-ac33ec88e3ea"},"vehicle_type_id":"4","last_reported":1752322728,"current_range_meters":9600,"station_id":"ce4bhr92rcd13ifvqhrg","pricing_plan_id":"cebpf4jnsgd1na2vs0mg"},{"bike_id":"6e44525d-ed45-445a-a877-081b94eb5813","system_id":"levelo_inurba_marseille","lat":43.30357,"lon":5.41887,"is_reserved":false,"is_disabled":false,"rental_uris":{"android":"levelo://app?vid=6e44525d-ed45-445a-a877-081b94eb5813","ios":"levelo://app?vid=6e44525d-ed45-445a-a877-081b94eb5813"},"vehicle_type_id":"4","last_reported":1752322728,"current_range_meters":9600,"station_id":"ce4bhop2rcd13ifvqh7g","pricing_plan_id":"cebpf4jnsgd1na2vs0mg"},{"bike_id":"461be974-aa64-4084-bd70-c717e7a44e90","system_id":"levelo_inurba_marseille","lat":43.313612,"lon":5.374571,"is_reserved":false,"is_disabled":false,"rental_uris":{"android":"levelo://app?vid=461be974-aa64-4084-bd70-c717e7a44e90","ios":"levelo://app?vid=461be974-aa64-4084-bd70-c717e7a44e90"},"vehicle_type_id":"4","last_reported":1752322728,"current_range_meters":9600,"station_id":"ce4bgs12rcd13ifvqcag","pricing_plan_id":"cebpf4jnsgd1na2vs0mg"},{"bike_id":"262c7e76-2e28-4d55-b6be-af79e74bb9c9","system_id":"levelo_inurba_marseille","lat":43.32369,"lon":5.38914,"is_reserved":false,"is_disabled":false,"rental_uris":{"android":"levelo://app?vid=262c7e76-2e28-4d55-b6be-af79e74bb9c9","ios":"levelo://app?vid=262c7e76-2e28-4d55-b6be-af79e74bb9c9"},"vehicle_type_id":"4","last_reported":1752322728,"current_range_meters":10000,"station_id":"ce4bhqp2rcd13ifvqhog","pricing_plan_id":"cebpf4jnsgd1na2vs0mg"},{"bike_id":"595e9351-a7ce-45de-8995-771f7d9fe86e","system_id":"levelo_inurba_marseille","lat":43.309243,"lon":5.378088,"is_reserved":false,"is_disabled":false,"rental_uris":{"android":"levelo://app?vid=595e9351-a7ce-45de-8995-771f7d9fe86e","ios":"levelo://app?vid=595e9351-a7ce-45de-8995-771f7d9fe86e"},"vehicle_type_id":"4","last_reported":1752322728,"current_range_meters":10000,"station_id":"","pricing_plan_id":"cebpf4jnsgd1na2vs0mg"},{"bike_id":"e3a75ee9-c614-467b-8cc2-f813bcef2ab1","system_id":"levelo_inurba_marseille","lat":43.33743,"lon":5.3919,"is_reserved":false,"is_disabled":false,"rental_uris":{"android":"levelo://app?vid=e3a75ee9-c614-467b-8cc2-f813bcef2ab1","ios":"levelo://app?vid=e3a75ee9-c614-467b-8cc2-f813bcef2ab1"},"vehicle_type_id":"4","last_reported":1752322728,"current_range_meters":10000,"station_id":"ce4bhr92rcd13ifvqhsg","pricing_plan_id":"cebpf4jnsgd1na2vs0mg"},{"bike_id":"080f57f3-a8d5-4466-97ef-f4f40d547d09","system_id":"levelo_inurba_marseille","lat":43.31374,"lon":5.3854,"is_reserved":false,"is_disabled":false,"rental_uris":{"android":"levelo://app?vid=080f57f3-a8d5-4466-97ef-f4f40d547d09","ios":"levelo://app?vid=080f57f3-a8d5-4466-97ef-f4f40d547d09"},"vehicle_type_id":"4","last_reported":1752322728,"current_range_meters":10800,"station_id":"ce4bgt92rcd13ifvqcf0","pricing_plan_id":"cebpf4jnsgd1na2vs0mg"},{"bike_id":"fd9f5c27-5d58-42e5-badc-a12a0344229e","system_id":"levelo_inurba_marseille","lat":43.2891,"lon":5.36057,"is_reserved":false,"is_disabled":false,"rental_uris":{"android":"levelo://app?vid=fd9f5c27-5d58-42e5-badc-a12a0344229e","ios":"levelo://app?vid=fd9f5c27-5d58-42e5-badc-a12a0344229e"},"vehicle_type_id":"4","last_reported":1752322728,"current_range_meters":10800,"station_id":"","pricing_plan_id":"cebpf4jnsgd1na2vs0mg"},{"bike_id":"1dfee2c6-0d64-4a1a-8110-3df0ebafcbd2","system_id":"levelo_inurba_marseille","lat":43.28618,"lon":5.351,"is_reserved":false,"is_disabled":false,"rental_uris":{"android":"levelo://app?vid=1dfee2c6-0d64-4a1a-8110-3df0ebafcbd2","ios":"levelo://app?vid=1dfee2c6-0d64-4a1a-8110-3df0ebafcbd2"},"vehicle_type_id":"4","last_reported":1752322728,"current_range_meters":10800,"station_id":"ce4bhch2rcd13ifvqeug","pricing_plan_id":"cebpf4jnsgd1na2vs0mg"},{"bike_id":"ef698040-cffd-4a0c-9a91-bf557274de35","system_id":"levelo_inurba_marseille","lat":43.31697,"lon":5.37799,"is_reserved":false,"is_disabled":false,"rental_uris":{"android":"levelo://app?vid=ef698040-cffd-4a0c-9a91-bf557274de35","ios":"levelo://app?vid=ef698040-cffd-4a0c-9a91-bf557274de35"},"vehicle_type_id":"4","last_reported":1752322728,"current_range_meters":10800,"station_id":"","pricing_plan_id":"cebpf4jnsgd1na2vs0mg"},{"bike_id":"2711aaaf-3805-4804-9329-3207cf061148","system_id":"levelo_inurba_marseille","lat":43.28446,"lon":5.35011,"is_reserved":false,"is_disabled":false,"rental_uris":{"android":"levelo://app?vid=2711aaaf-3805-4804-9329-3207cf061148","ios":"levelo://app?vid=2711aaaf-3805-4804-9329-3207cf061148"},"vehicle_type_id":"4","last_reported":1752322728,"current_range_meters":10800,"station_id":"ce4bhbh2rcd13ifvqepg","pricing_plan_id":"cebpf4jnsgd1na2vs0mg"},{"bike_id":"b187722a-cc22-43b8-ac7e-e826168a8087","system_id":"levelo_inurba_marseille","lat":43.2863,"lon":5.3511,"is_reserved":false,"is_disabled":false,"rental_uris":{"android":"levelo://app?vid=b187722a-cc22-43b8-ac7e-e826168a8087","ios":"levelo://app?vid=b187722a-cc22-43b8-ac7e-e826168a8087"},"vehicle_type_id":"4","last_reported":1752322728,"current_range_meters":10800,"station_id":"ce4bhch2rcd13ifvqeug","pricing_plan_id":"cebpf4jnsgd1na2vs0mg"},{"bike_id":"335c5434-3596-4d69-8ca8-4f10df0199fe","system_id":"levelo_inurba_marseille","lat":43.27055,"lon":5.40274,"is_reserved":false,"is_disabled":false,"rental_uris":{"android":"levelo://app?vid=335c5434-3596-4d69-8ca8-4f10df0199fe","ios":"levelo://app?vid=335c5434-3596-4d69-8ca8-4f10df0199fe"},"vehicle_type_id":"4","last_reported":1752322728,"current_range_meters":10800,"station_id":"ce4bhk92rcd13ifvqgc0","pricing_plan_id":"cebpf4jnsgd1na2vs0mg"},{"bike_id":"9dbd7bad-ca30-43ae-8d8f-a597179d5b51","system_id":"levelo_inurba_marseille","lat":43.280394,"lon":5.369469,"is_reserved":false,"is_disabled":false,"rental_uris":{"android":"levelo://app?vid=9dbd7bad-ca30-43ae-8d8f-a597179d5b51","ios":"levelo://app?vid=9dbd7bad-ca30-43ae-8d8f-a597179d5b51"},"vehicle_type_id":"4","last_reported":1752322728,"current_range_meters":10800,"station_id":"ce4bha12rcd13ifvqef0","pricing_plan_id":"cebpf4jnsgd1na2vs0mg"},{"bike_id":"eda0ea69-6404-43e6-9ede-2655d170d444","system_id":"levelo_inurba_marseille","lat":43.28844,"lon":5.358284,"is_reserved":false,"is_disabled":true,"rental_uris":{"android":"levelo://app?vid=eda0ea69-6404-43e6-9ede-2655d170d444","ios":"levelo://app?vid=eda0ea69-6404-43e6-9ede-2655d170d444"},"vehicle_type_id":"4","last_reported":1752322728,"current_range_meters":10800,"station_id":"ce4bhb12rcd13ifvqem0","pricing_plan_id":"cebpf4jnsgd1na2vs0mg"},{"bike_id":"b278939f-a65d-4eba-91fb-5029f6a78250","system_id":"levelo_inurba_marseille","lat":43.29911,"lon":5.38149,"is_reserved":false,"is_disabled":false,"rental_uris":{"android":"levelo://app?vid=b278939f-a65d-4eba-91fb-5029f6a78250","ios":"levelo://app?vid=b278939f-a65d-4eba-91fb-5029f6a78250"},"vehicle_type_id":"4","last_reported":1752322728,"current_range_meters":10800,"station_id":"ce4bgj12rcd13ifvqbc0","pricing_plan_id":"cebpf4jnsgd1na2vs0mg"},{"bike_id":"ceb8bcf8-9e11-4102-bd78-9a687c0c96d2","system_id":"levelo_inurba_marseille","lat":43.28924,"lon":5.38404,"is_reserved":false,"is_disabled":false,"rental_uris":{"android":"levelo://app?vid=ceb8bcf8-9e11-4102-bd78-9a687c0c96d2","ios":"levelo://app?vid=ceb8bcf8-9e11-4102-bd78-9a687c0c96d2"},"vehicle_type_id":"4","last_reported":1752322728,"current_range_meters":11200,"station_id":"ce4bh612rcd13ifvqe6g","pricing_plan_id":"cebpf4jnsgd1na2vs0mg"},{"bike_id":"8929c1bf-fd4d-44e4-aa66-b3eb6538c998","system_id":"levelo_inurba_marseille","lat":43.28588,"lon":5.43009,"is_reserved":false,"is_disabled":false,"rental_uris":{"android":"levelo://app?vid=8929c1bf-fd4d-44e4-aa66-b3eb6538c998","ios":"levelo://app?vid=8929c1bf-fd4d-44e4-aa66-b3eb6538c998"},"vehicle_type_id":"4","last_reported":1752322728,"current_range_meters":11200,"station_id":"","pricing_plan_id":"cebpf4jnsgd1na2vs0mg"},{"bike_id":"9516d3d4-4628-49ce-84a7-7e9f8b2a6243","system_id":"levelo_inurba_marseille","lat":43.23195,"lon":5.35551,"is_reserved":false,"is_disabled":false,"rental_uris":{"android":"levelo://app?vid=9516d3d4-4628-49ce-84a7-7e9f8b2a6243","ios":"levelo://app?vid=9516d3d4-4628-49ce-84a7-7e9f8b2a6243"},"vehicle_type_id":"4","last_reported":1752322728,"current_range_meters":11200,"station_id":"ce4bhu92rcd13ifvqi70","pricing_plan_id":"cebpf4jnsgd1na2vs0mg"},{"bike_id":"9219e5be-fcc4-4511-91fd-3adc12a6e85d","system_id":"levelo_inurba_marseille","lat":43.22524,"lon":5.34792,"is_reserved":false,"is_disabled":false,"rental_uris":{"android":"levelo://app?vid=9219e5be-fcc4-4511-91fd-3adc12a6e85d","ios":"levelo://app?vid=9219e5be-fcc4-4511-91fd-3adc12a6e85d"},"vehicle_type_id":"4","last_reported":1752322728,"current_range_meters":11200,"station_id":"st_cvj5dfep6f1abm77gieg","pricing_plan_id":"cebpf4jnsgd1na2vs0mg"},{"bike_id":"953ac3ae-60c3-4176-829b-d76e6cdbc61f","system_id":"levelo_inurba_marseille","lat":43.26554,"lon":5.37284,"is_reserved":false,"is_disabled":false,"rental_uris":{"android":"levelo://app?vid=953ac3ae-60c3-4176-829b-d76e6cdbc61f","ios":"levelo://app?vid=953ac3ae-60c3-4176-829b-d76e6cdbc61f"},"vehicle_type_id":"4","last_reported":1752322728,"current_range_meters":11200,"station_id":"ce4bhg12rcd13ifvqf70","pricing_plan_id":"cebpf4jnsgd1na2vs0mg"},{"bike_id":"8fccf46e-4269-459a-bd9a-cdd93f6b32bc","system_id":"levelo_inurba_marseille","lat":43.30359,"lon":5.41874,"is_reserved":false,"is_disabled":false,"rental_uris":{"android":"levelo://app?vid=8fccf46e-4269-459a-bd9a-cdd93f6b32bc","ios":"levelo://app?vid=8fccf46e-4269-459a-bd9a-cdd93f6b32bc"},"vehicle_type_id":"4","last_reported":1752322728,"current_range_meters":11600,"station_id":"ce4bhop2rcd13ifvqh7g","pricing_plan_id":"cebpf4jnsgd1na2vs0mg"},{"bike_id":"84d1266e-c769-4ce6-8b19-f18b8b7a08c3","system_id":"levelo_inurba_marseille","lat":43.23969,"lon":5.36631,"is_reserved":false,"is_disabled":false,"rental_uris":{"android":"levelo://app?vid=84d1266e-c769-4ce6-8b19-f18b8b7a08c3","ios":"levelo://app?vid=84d1266e-c769-4ce6-8b19-f18b8b7a08c3"},"vehicle_type_id":"4","last_reported":1752322728,"current_range_meters":11600,"station_id":"ce4bhi12rcd13ifvqfp0","pricing_plan_id":"cebpf4jnsgd1na2vs0mg"},{"bike_id":"65715245-ae22-4c14-a440-90c4c1db5a80","system_id":"levelo_inurba_marseille","lat":43.29322,"lon":5.37179,"is_reserved":false,"is_disabled":false,"rental_uris":{"android":"levelo://app?vid=65715245-ae22-4c14-a440-90c4c1db5a80","ios":"levelo://app?vid=65715245-ae22-4c14-a440-90c4c1db5a80"},"vehicle_type_id":"4","last_reported":1752322728,"current_range_meters":11600,"station_id":"ce4bgh92rcd13ifvqb40","pricing_plan_id":"cebpf4jnsgd1na2vs0mg"},{"bike_id":"97d4bafb-1703-482a-9af9-9c0328bf232e","system_id":"levelo_inurba_marseille","lat":43.2952,"lon":5.37504,"is_reserved":false,"is_disabled":false,"rental_uris":{"android":"levelo://app?vid=97d4bafb-1703-482a-9af9-9c0328bf232e","ios":"levelo://app?vid=97d4bafb-1703-482a-9af9-9c0328bf232e"},"vehicle_type_id":"4","last_reported":1752322728,"current_range_meters":11600,"station_id":"ce4bgkp2rcd13ifvqbmg","pricing_plan_id":"cebpf4jnsgd1na2vs0mg"},{"bike_id":"d1600b65-2986-4875-8c08-c4b96ea7a68d","system_id":"levelo_inurba_marseille","lat":43.27042,"lon":5.40276,"is_reserved":false,"is_disabled":false,"rental_uris":{"android":"levelo://app?vid=d1600b65-2986-4875-8c08-c4b96ea7a68d","ios":"levelo://app?vid=d1600b65-2986-4875-8c08-c4b96ea7a68d"},"vehicle_type_id":"4","last_reported":1752322728,"current_range_meters":11600,"station_id":"ce4bhk92rcd13ifvqgc0","pricing_plan_id":"cebpf4jnsgd1na2vs0mg"},{"bike_id":"e9fd0cf8-573b-4177-88a6-f1faf33e8aca","system_id":"levelo_inurba_marseille","lat":43.29001,"lon":5.35616,"is_reserved":false,"is_disabled":false,"rental_uris":{"android":"levelo://app?vid=e9fd0cf8-573b-4177-88a6-f1faf33e8aca","ios":"levelo://app?vid=e9fd0cf8-573b-4177-88a6-f1faf33e8aca"},"vehicle_type_id":"4","last_reported":1752322728,"current_range_meters":12400,"station_id":"ce4bhb92rcd13ifvqen0","pricing_plan_id":"cebpf4jnsgd1na2vs0mg"},{"bike_id":"4edff1c0-26ae-4c39-9bc5-1e6f32f2d248","system_id":"levelo_inurba_marseille","lat":43.27973,"lon":5.38722,"is_reserved":false,"is_disabled":false,"rental_uris":{"android":"levelo://app?vid=4edff1c0-26ae-4c39-9bc5-1e6f32f2d248","ios":"levelo://app?vid=4edff1c0-26ae-4c39-9bc5-1e6f32f2d248"},"vehicle_type_id":"4","last_reported":1752322728,"current_range_meters":12400,"station_id":"ce4bhg12rcd13ifvqf80","pricing_plan_id":"cebpf4jnsgd1na2vs0mg"},{"bike_id":"61198919-e72c-4fce-bc96-126627987dc0","system_id":"levelo_inurba_marseille","lat":43.29594,"lon":5.37912,"is_reserved":false,"is_disabled":false,"rental_uris":{"android":"levelo://app?vid=61198919-e72c-4fce-bc96-126627987dc0","ios":"levelo://app?vid=61198919-e72c-4fce-bc96-126627987dc0"},"vehicle_type_id":"4","last_reported":1752322728,"current_range_meters":12400,"station_id":"","pricing_plan_id":"cebpf4jnsgd1na2vs0mg"},{"bike_id":"61b983b1-39f3-4ccb-a3b1-3236a5c599b3","system_id":"levelo_inurba_marseille","lat":43.29523,"lon":5.37484,"is_reserved":false,"is_disabled":false,"rental_uris":{"android":"levelo://app?vid=61b983b1-39f3-4ccb-a3b1-3236a5c599b3","ios":"levelo://app?vid=61b983b1-39f3-4ccb-a3b1-3236a5c599b3"},"vehicle_type_id":"4","last_reported":1752322728,"current_range_meters":12400,"station_id":"ce4bgkp2rcd13ifvqbmg","pricing_plan_id":"cebpf4jnsgd1na2vs0mg"},{"bike_id":"4a1a615d-d0dd-4247-b943-dda1ffed742d","system_id":"levelo_inurba_marseille","lat":43.29324,"lon":5.37155,"is_reserved":false,"is_disabled":false,"rental_uris":{"android":"levelo://app?vid=4a1a615d-d0dd-4247-b943-dda1ffed742d","ios":"levelo://app?vid=4a1a615d-d0dd-4247-b943-dda1ffed742d"},"vehicle_type_id":"4","last_reported":1752322728,"current_range_meters":12400,"station_id":"ce4bgh92rcd13ifvqb40","pricing_plan_id":"cebpf4jnsgd1na2vs0mg"},{"bike_id":"dbba3321-20c7-4989-a7b5-ea9ab2c4b3e8","system_id":"levelo_inurba_marseille","lat":43.261935,"lon":5.374477,"is_reserved":false,"is_disabled":false,"rental_uris":{"android":"levelo://app?vid=dbba3321-20c7-4989-a7b5-ea9ab2c4b3e8","ios":"levelo://app?vid=dbba3321-20c7-4989-a7b5-ea9ab2c4b3e8"},"vehicle_type_id":"4","last_reported":1752322728,"current_range_meters":12400,"station_id":"ce4bhgp2rcd13ifvqfc0","pricing_plan_id":"cebpf4jnsgd1na2vs0mg"},{"bike_id":"c453155a-5220-48fc-922b-600ca54f8ab5","system_id":"levelo_inurba_marseille","lat":43.286586,"lon":5.363452,"is_reserved":false,"is_disabled":true,"rental_uris":{"android":"levelo://app?vid=c453155a-5220-48fc-922b-600ca54f8ab5","ios":"levelo://app?vid=c453155a-5220-48fc-922b-600ca54f8ab5"},"vehicle_type_id":"4","last_reported":1752322728,"current_range_meters":12400,"station_id":"ce4bhah2rcd13ifvqej0","pricing_plan_id":"cebpf4jnsgd1na2vs0mg"},{"bike_id":"97b4dd99-0840-451d-8640-18fbbddc5146","system_id":"levelo_inurba_marseille","lat":43.29082,"lon":5.38103,"is_reserved":false,"is_disabled":false,"rental_uris":{"android":"levelo://app?vid=97b4dd99-0840-451d-8640-18fbbddc5146","ios":"levelo://app?vid=97b4dd99-0840-451d-8640-18fbbddc5146"},"vehicle_type_id":"4","last_reported":1752322728,"current_range_meters":12800,"station_id":"ce4bh512rcd13ifvqe2g","pricing_plan_id":"cebpf4jnsgd1na2vs0mg"},{"bike_id":"4931c57e-fe1b-4d85-8d7f-d3c8a802f890","system_id":"levelo_inurba_marseille","lat":43.25086,"lon":5.3952,"is_reserved":false,"is_disabled":false,"rental_uris":{"android":"levelo://app?vid=4931c57e-fe1b-4d85-8d7f-d3c8a802f890","ios":"levelo://app?vid=4931c57e-fe1b-4d85-8d7f-d3c8a802f890"},"vehicle_type_id":"4","last_reported":1752322728,"current_range_meters":12800,"station_id":"ce4bhm12rcd13ifvqgkg","pricing_plan_id":"cebpf4jnsgd1na2vs0mg"},{"bike_id":"81c8701a-410c-471d-acd2-79c046d26006","system_id":"levelo_inurba_marseille","lat":43.296813,"lon":5.381187,"is_reserved":false,"is_disabled":false,"rental_uris":{"android":"levelo://app?vid=81c8701a-410c-471d-acd2-79c046d26006","ios":"levelo://app?vid=81c8701a-410c-471d-acd2-79c046d26006"},"vehicle_type_id":"4","last_reported":1752322728,"current_range_meters":13600,"station_id":"ce4bgip2rcd13ifvqbb0","pricing_plan_id":"cebpf4jnsgd1na2vs0mg"},{"bike_id":"c30348d5-34a0-4f23-8d24-c57019053552","system_id":"levelo_inurba_marseille","lat":43.29015,"lon":5.35626,"is_reserved":false,"is_disabled":false,"rental_uris":{"android":"levelo://app?vid=c30348d5-34a0-4f23-8d24-c57019053552","ios":"levelo://app?vid=c30348d5-34a0-4f23-8d24-c57019053552"},"vehicle_type_id":"4","last_reported":1752322728,"current_range_meters":13600,"station_id":"ce4bhb92rcd13ifvqen0","pricing_plan_id":"cebpf4jnsgd1na2vs0mg"},{"bike_id":"a581eef9-f0fb-4e5d-8be0-84b96bfd2d41","system_id":"levelo_inurba_marseille","lat":43.293798,"lon":5.378518,"is_reserved":false,"is_disabled":false,"rental_uris":{"android":"levelo://app?vid=a581eef9-f0fb-4e5d-8be0-84b96bfd2d41","ios":"levelo://app?vid=a581eef9-f0fb-4e5d-8be0-84b96bfd2d41"},"vehicle_type_id":"4","last_reported":1752322728,"current_range_meters":13600,"station_id":"ce4bgjh2rcd13ifvqbf0","pricing_plan_id":"cebpf4jnsgd1na2vs0mg"},{"bike_id":"ab6cb234-c8d6-4ce4-ab4f-b14b364484d3","system_id":"levelo_inurba_marseille","lat":43.3015,"lon":5.38086,"is_reserved":false,"is_disabled":false,"rental_uris":{"android":"levelo://app?vid=ab6cb234-c8d6-4ce4-ab4f-b14b364484d3","ios":"levelo://app?vid=ab6cb234-c8d6-4ce4-ab4f-b14b364484d3"},"vehicle_type_id":"4","last_reported":1752322728,"current_range_meters":13600,"station_id":"ce4bgjp2rcd13ifvqbh0","pricing_plan_id":"cebpf4jnsgd1na2vs0mg"},{"bike_id":"a100566b-d122-47f7-b059-1aae620ff9b3","system_id":"levelo_inurba_marseille","lat":43.24078,"lon":5.37764,"is_reserved":false,"is_disabled":false,"rental_uris":{"android":"levelo://app?vid=a100566b-d122-47f7-b059-1aae620ff9b3","ios":"levelo://app?vid=a100566b-d122-47f7-b059-1aae620ff9b3"},"vehicle_type_id":"4","last_reported":1752322728,"current_range_meters":13600,"station_id":"ce4bhnp2rcd13ifvqgvg","pricing_plan_id":"cebpf4jnsgd1na2vs0mg"},{"bike_id":"008260af-f96d-46f7-9f16-44b7a7c6d361","system_id":"levelo_inurba_marseille","lat":43.292707,"lon":5.3683,"is_reserved":false,"is_disabled":false,"rental_uris":{"android":"levelo://app?vid=008260af-f96d-46f7-9f16-44b7a7c6d361","ios":"levelo://app?vid=008260af-f96d-46f7-9f16-44b7a7c6d361"},"vehicle_type_id":"4","last_reported":1752322728,"current_range_meters":14000,"station_id":"ce4bhbp2rcd13ifvqesg","pricing_plan_id":"cebpf4jnsgd1na2vs0mg"},{"bike_id":"c816310d-8ff0-4290-b10a-aad431dd902c","system_id":"levelo_inurba_marseille","lat":43.217453,"lon":5.346021,"is_reserved":false,"is_disabled":true,"rental_uris":{"android":"levelo://app?vid=c816310d-8ff0-4290-b10a-aad431dd902c","ios":"levelo://app?vid=c816310d-8ff0-4290-b10a-aad431dd902c"},"vehicle_type_id":"4","last_reported":1752322728,"current_range_meters":14000,"station_id":"","pricing_plan_id":"cebpf4jnsgd1na2vs0mg"},{"bike_id":"4d45486c-f881-4f55-a8c2-49a10b22295b","system_id":"levelo_inurba_marseille","lat":43.29906,"lon":5.38136,"is_reserved":false,"is_disabled":false,"rental_uris":{"android":"levelo://app?vid=4d45486c-f881-4f55-a8c2-49a10b22295b","ios":"levelo://app?vid=4d45486c-f881-4f55-a8c2-49a10b22295b"},"vehicle_type_id":"4","last_reported":1752322728,"current_range_meters":14000,"station_id":"ce4bgj12rcd13ifvqbc0","pricing_plan_id":"cebpf4jnsgd1na2vs0mg"},{"bike_id":"f14a7374-847b-4cad-aa16-a0ee35449972","system_id":"levelo_inurba_marseille","lat":43.23198,"lon":5.35571,"is_reserved":false,"is_disabled":false,"rental_uris":{"android":"levelo://app?vid=f14a7374-847b-4cad-aa16-a0ee35449972","ios":"levelo://app?vid=f14a7374-847b-4cad-aa16-a0ee35449972"},"vehicle_type_id":"4","last_reported":1752322728,"current_range_meters":14000,"station_id":"ce4bhu92rcd13ifvqi70","pricing_plan_id":"cebpf4jnsgd1na2vs0mg"},{"bike_id":"6d0e63a8-e93c-46bf-980f-3c26d515b107","system_id":"levelo_inurba_marseille","lat":43.24171,"lon":5.36398,"is_reserved":false,"is_disabled":false,"rental_uris":{"android":"levelo://app?vid=6d0e63a8-e93c-46bf-980f-3c26d515b107","ios":"levelo://app?vid=6d0e63a8-e93c-46bf-980f-3c26d515b107"},"vehicle_type_id":"4","last_reported":1752322728,"current_range_meters":14000,"station_id":"cpo36qri1sfpv3e86is0","pricing_plan_id":"cebpf4jnsgd1na2vs0mg"},{"bike_id":"ad3a92a9-aac6-4694-a2f3-20c935fef2b6","system_id":"levelo_inurba_marseille","lat":43.292986,"lon":5.374656,"is_reserved":false,"is_disabled":false,"rental_uris":{"android":"levelo://app?vid=ad3a92a9-aac6-4694-a2f3-20c935fef2b6","ios":"levelo://app?vid=ad3a92a9-aac6-4694-a2f3-20c935fef2b6"},"vehicle_type_id":"4","last_reported":1752322728,"current_range_meters":14400,"station_id":"","pricing_plan_id":"cebpf4jnsgd1na2vs0mg"},{"bike_id":"dddd87dc-7f90-4b55-bc84-f33d20753519","system_id":"levelo_inurba_marseille","lat":43.30933,"lon":5.37194,"is_reserved":false,"is_disabled":false,"rental_uris":{"android":"levelo://app?vid=dddd87dc-7f90-4b55-bc84-f33d20753519","ios":"levelo://app?vid=dddd87dc-7f90-4b55-bc84-f33d20753519"},"vehicle_type_id":"4","last_reported":1752322728,"current_range_meters":14800,"station_id":"ce4bguh2rcd13ifvqckg","pricing_plan_id":"cebpf4jnsgd1na2vs0mg"},{"bike_id":"d288baa3-1fa6-4dcd-8ef2-fcc251754f02","system_id":"levelo_inurba_marseille","lat":43.30607,"lon":5.37221,"is_reserved":false,"is_disabled":false,"rental_uris":{"android":"levelo://app?vid=d288baa3-1fa6-4dcd-8ef2-fcc251754f02","ios":"levelo://app?vid=d288baa3-1fa6-4dcd-8ef2-fcc251754f02"},"vehicle_type_id":"4","last_reported":1752322728,"current_range_meters":14800,"station_id":"ce4bgqh2rcd13ifvqc4g","pricing_plan_id":"cebpf4jnsgd1na2vs0mg"},{"bike_id":"3647b369-1517-4aa7-a561-1837ba3ae7b4","system_id":"levelo_inurba_marseille","lat":43.231942,"lon":5.355509,"is_reserved":false,"is_disabled":false,"rental_uris":{"android":"levelo://app?vid=3647b369-1517-4aa7-a561-1837ba3ae7b4","ios":"levelo://app?vid=3647b369-1517-4aa7-a561-1837ba3ae7b4"},"vehicle_type_id":"4","last_reported":1752322728,"current_range_meters":14800,"station_id":"ce4bhu92rcd13ifvqi70","pricing_plan_id":"cebpf4jnsgd1na2vs0mg"},{"bike_id":"7f02047d-a6cd-43f4-a617-996f2b9a8bc8","system_id":"levelo_inurba_marseille","lat":43.32364,"lon":5.3676,"is_reserved":false,"is_disabled":false,"rental_uris":{"android":"levelo://app?vid=7f02047d-a6cd-43f4-a617-996f2b9a8bc8","ios":"levelo://app?vid=7f02047d-a6cd-43f4-a617-996f2b9a8bc8"},"vehicle_type_id":"4","last_reported":1752322728,"current_range_meters":15200,"station_id":"ce4bhsh2rcd13ifvqi2g","pricing_plan_id":"cebpf4jnsgd1na2vs0mg"},{"bike_id":"c7405370-ba71-4b46-b86e-843cc17b604a","system_id":"levelo_inurba_marseille","lat":43.30436,"lon":5.41295,"is_reserved":false,"is_disabled":false,"rental_uris":{"android":"levelo://app?vid=c7405370-ba71-4b46-b86e-843cc17b604a","ios":"levelo://app?vid=c7405370-ba71-4b46-b86e-843cc17b604a"},"vehicle_type_id":"4","last_reported":1752322728,"current_range_meters":15200,"station_id":"ce4bhop2rcd13ifvqh8g","pricing_plan_id":"cebpf4jnsgd1na2vs0mg"},{"bike_id":"f7788e5a-dc91-4d78-9b3c-52b943fde673","system_id":"levelo_inurba_marseille","lat":43.2873,"lon":5.37939,"is_reserved":false,"is_disabled":false,"rental_uris":{"android":"levelo://app?vid=f7788e5a-dc91-4d78-9b3c-52b943fde673","ios":"levelo://app?vid=f7788e5a-dc91-4d78-9b3c-52b943fde673"},"vehicle_type_id":"4","last_reported":1752322728,"current_range_meters":15200,"station_id":"ce4bh9p2rcd13ifvqec0","pricing_plan_id":"cebpf4jnsgd1na2vs0mg"},{"bike_id":"470d1e9d-8c05-40b8-a6b2-039f183b9f6a","system_id":"levelo_inurba_marseille","lat":43.23194,"lon":5.3555,"is_reserved":false,"is_disabled":true,"rental_uris":{"android":"levelo://app?vid=470d1e9d-8c05-40b8-a6b2-039f183b9f6a","ios":"levelo://app?vid=470d1e9d-8c05-40b8-a6b2-039f183b9f6a"},"vehicle_type_id":"4","last_reported":1752322728,"current_range_meters":15200,"station_id":"ce4bhu92rcd13ifvqi70","pricing_plan_id":"cebpf4jnsgd1na2vs0mg"},{"bike_id":"54b7f32b-0463-49a1-ae32-bb3433031754","system_id":"levelo_inurba_marseille","lat":43.24652,"lon":5.38926,"is_reserved":false,"is_disabled":false,"rental_uris":{"android":"levelo://app?vid=54b7f32b-0463-49a1-ae32-bb3433031754","ios":"levelo://app?vid=54b7f32b-0463-49a1-ae32-bb3433031754"},"vehicle_type_id":"4","last_reported":1752322728,"current_range_meters":15200,"station_id":"ce4bhg12rcd13ifvqf60","pricing_plan_id":"cebpf4jnsgd1na2vs0mg"},{"bike_id":"888bd7d8-4ec5-4282-97cb-63503f2485c0","system_id":"levelo_inurba_marseille","lat":43.308,"lon":5.38132,"is_reserved":false,"is_disabled":false,"rental_uris":{"android":"levelo://app?vid=888bd7d8-4ec5-4282-97cb-63503f2485c0","ios":"levelo://app?vid=888bd7d8-4ec5-4282-97cb-63503f2485c0"},"vehicle_type_id":"4","last_reported":1752322728,"current_range_meters":16000,"station_id":"ce4bgt12rcd13ifvqce0","pricing_plan_id":"cebpf4jnsgd1na2vs0mg"},{"bike_id":"407b1e77-51dc-4983-95cf-04f962d77eac","system_id":"levelo_inurba_marseille","lat":43.27962,"lon":5.387066,"is_reserved":false,"is_disabled":false,"rental_uris":{"android":"levelo://app?vid=407b1e77-51dc-4983-95cf-04f962d77eac","ios":"levelo://app?vid=407b1e77-51dc-4983-95cf-04f962d77eac"},"vehicle_type_id":"4","last_reported":1752322728,"current_range_meters":16000,"station_id":"ce4bhg12rcd13ifvqf80","pricing_plan_id":"cebpf4jnsgd1na2vs0mg"},{"bike_id":"c6f7dabd-b092-4554-a710-07eb4af96a4c","system_id":"levelo_inurba_marseille","lat":43.2119,"lon":5.35069,"is_reserved":false,"is_disabled":false,"rental_uris":{"android":"levelo://app?vid=c6f7dabd-b092-4554-a710-07eb4af96a4c","ios":"levelo://app?vid=c6f7dabd-b092-4554-a710-07eb4af96a4c"},"vehicle_type_id":"4","last_reported":1752322728,"current_range_meters":16000,"station_id":"st_cvj6sg6p6f1abm77japg","pricing_plan_id":"cebpf4jnsgd1na2vs0mg"},{"bike_id":"737ead6f-e608-42f1-8a55-8949c954e8e3","system_id":"levelo_inurba_marseille","lat":43.21196,"lon":5.35113,"is_reserved":false,"is_disabled":false,"rental_uris":{"android":"levelo://app?vid=737ead6f-e608-42f1-8a55-8949c954e8e3","ios":"levelo://app?vid=737ead6f-e608-42f1-8a55-8949c954e8e3"},"vehicle_type_id":"4","last_reported":1752322728,"current_range_meters":16000,"station_id":"st_cvj6sg6p6f1abm77japg","pricing_plan_id":"cebpf4jnsgd1na2vs0mg"},{"bike_id":"7d3a80db-4526-4d54-9da2-a9dd0f80e831","system_id":"levelo_inurba_marseille","lat":43.30951,"lon":5.3905,"is_reserved":false,"is_disabled":false,"rental_uris":{"android":"levelo://app?vid=7d3a80db-4526-4d54-9da2-a9dd0f80e831","ios":"levelo://app?vid=7d3a80db-4526-4d54-9da2-a9dd0f80e831"},"vehicle_type_id":"4","last_reported":1752322728,"current_range_meters":16000,"station_id":"ce4bgup2rcd13ifvqco0","pricing_plan_id":"cebpf4jnsgd1na2vs0mg"},{"bike_id":"d81fc32a-e83b-43aa-88f6-45ae21d3a857","system_id":"levelo_inurba_marseille","lat":43.31732,"lon":5.4045,"is_reserved":false,"is_disabled":false,"rental_uris":{"android":"levelo://app?vid=d81fc32a-e83b-43aa-88f6-45ae21d3a857","ios":"levelo://app?vid=d81fc32a-e83b-43aa-88f6-45ae21d3a857"},"vehicle_type_id":"4","last_reported":1752322728,"current_range_meters":16400,"station_id":"ce4bh012rcd13ifvqd00","pricing_plan_id":"cebpf4jnsgd1na2vs0mg"},{"bike_id":"7da7b59c-cd2e-4436-be70-5df05345f89e","system_id":"levelo_inurba_marseille","lat":43.28846,"lon":5.35849,"is_reserved":false,"is_disabled":false,"rental_uris":{"android":"levelo://app?vid=7da7b59c-cd2e-4436-be70-5df05345f89e","ios":"levelo://app?vid=7da7b59c-cd2e-4436-be70-5df05345f89e"},"vehicle_type_id":"4","last_reported":1752322728,"current_range_meters":16400,"station_id":"","pricing_plan_id":"cebpf4jnsgd1na2vs0mg"},{"bike_id":"cf2bdbe9-709b-4cf3-804c-b8acf4fe2058","system_id":"levelo_inurba_marseille","lat":43.24805,"lon":5.37455,"is_reserved":false,"is_disabled":false,"rental_uris":{"android":"levelo://app?vid=cf2bdbe9-709b-4cf3-804c-b8acf4fe2058","ios":"levelo://app?vid=cf2bdbe9-709b-4cf3-804c-b8acf4fe2058"},"vehicle_type_id":"4","last_reported":1752322728,"current_range_meters":16400,"station_id":"ce4bhgh2rcd13ifvqfb0","pricing_plan_id":"cebpf4jnsgd1na2vs0mg"},{"bike_id":"a862a812-a4e3-41db-bffe-dc440146afeb","system_id":"levelo_inurba_marseille","lat":43.270658,"lon":5.402748,"is_reserved":false,"is_disabled":false,"rental_uris":{"android":"levelo://app?vid=a862a812-a4e3-41db-bffe-dc440146afeb","ios":"levelo://app?vid=a862a812-a4e3-41db-bffe-dc440146afeb"},"vehicle_type_id":"4","last_reported":1752322728,"current_range_meters":16400,"station_id":"ce4bhk92rcd13ifvqgc0","pricing_plan_id":"cebpf4jnsgd1na2vs0mg"},{"bike_id":"51890362-46b0-4ee7-9f02-afbf036d064e","system_id":"levelo_inurba_marseille","lat":43.21191,"lon":5.35077,"is_reserved":false,"is_disabled":false,"rental_uris":{"android":"levelo://app?vid=51890362-46b0-4ee7-9f02-afbf036d064e","ios":"levelo://app?vid=51890362-46b0-4ee7-9f02-afbf036d064e"},"vehicle_type_id":"4","last_reported":1752322728,"current_range_meters":16400,"station_id":"st_cvj6sg6p6f1abm77japg","pricing_plan_id":"cebpf4jnsgd1na2vs0mg"},{"bike_id":"7931264e-a6c3-4d11-8fd6-260abef85ca4","system_id":"levelo_inurba_marseille","lat":43.280376,"lon":5.369471,"is_reserved":false,"is_disabled":false,"rental_uris":{"android":"levelo://app?vid=7931264e-a6c3-4d11-8fd6-260abef85ca4","ios":"levelo://app?vid=7931264e-a6c3-4d11-8fd6-260abef85ca4"},"vehicle_type_id":"4","last_reported":1752322728,"current_range_meters":16400,"station_id":"ce4bha12rcd13ifvqef0","pricing_plan_id":"cebpf4jnsgd1na2vs0mg"},{"bike_id":"a0137104-c9f4-434a-a5e3-80725cd5a2b4","system_id":"levelo_inurba_marseille","lat":43.21193,"lon":5.3509,"is_reserved":false,"is_disabled":false,"rental_uris":{"android":"levelo://app?vid=a0137104-c9f4-434a-a5e3-80725cd5a2b4","ios":"levelo://app?vid=a0137104-c9f4-434a-a5e3-80725cd5a2b4"},"vehicle_type_id":"4","last_reported":1752322728,"current_range_meters":16400,"station_id":"st_cvj6sg6p6f1abm77japg","pricing_plan_id":"cebpf4jnsgd1na2vs0mg"},{"bike_id":"14df75b6-eab1-4de2-94e0-b20546e259ea","system_id":"levelo_inurba_marseille","lat":43.24665,"lon":5.38918,"is_reserved":false,"is_disabled":false,"rental_uris":{"android":"levelo://app?vid=14df75b6-eab1-4de2-94e0-b20546e259ea","ios":"levelo://app?vid=14df75b6-eab1-4de2-94e0-b20546e259ea"},"vehicle_type_id":"4","last_reported":1752322728,"current_range_meters":16800,"station_id":"ce4bhg12rcd13ifvqf60","pricing_plan_id":"cebpf4jnsgd1na2vs0mg"},{"bike_id":"00bc0b3b-e317-4a17-a011-a3a9a29d816a","system_id":"levelo_inurba_marseille","lat":43.21172,"lon":5.35089,"is_reserved":false,"is_disabled":false,"rental_uris":{"android":"levelo://app?vid=00bc0b3b-e317-4a17-a011-a3a9a29d816a","ios":"levelo://app?vid=00bc0b3b-e317-4a17-a011-a3a9a29d816a"},"vehicle_type_id":"4","last_reported":1752322728,"current_range_meters":16800,"station_id":"st_cvj6sg6p6f1abm77japg","pricing_plan_id":"cebpf4jnsgd1na2vs0mg"},{"bike_id":"ee5338dd-18a1-4b48-a5b0-f8c72f7b1319","system_id":"levelo_inurba_marseille","lat":43.31803,"lon":5.36855,"is_reserved":false,"is_disabled":false,"rental_uris":{"android":"levelo://app?vid=ee5338dd-18a1-4b48-a5b0-f8c72f7b1319","ios":"levelo://app?vid=ee5338dd-18a1-4b48-a5b0-f8c72f7b1319"},"vehicle_type_id":"4","last_reported":1752322728,"current_range_meters":16800,"station_id":"","pricing_plan_id":"cebpf4jnsgd1na2vs0mg"},{"bike_id":"b9ef4702-89c4-44ae-835a-ce06e3cf439c","system_id":"levelo_inurba_marseille","lat":43.21754,"lon":5.34625,"is_reserved":false,"is_disabled":false,"rental_uris":{"android":"levelo://app?vid=b9ef4702-89c4-44ae-835a-ce06e3cf439c","ios":"levelo://app?vid=b9ef4702-89c4-44ae-835a-ce06e3cf439c"},"vehicle_type_id":"4","last_reported":1752322728,"current_range_meters":16800,"station_id":"st_cvj6r9ubvosntc0bgbag","pricing_plan_id":"cebpf4jnsgd1na2vs0mg"},{"bike_id":"53b2e3fb-77f4-44bd-9b1f-4c6e207a18dc","system_id":"levelo_inurba_marseille","lat":43.26496,"lon":5.39576,"is_reserved":false,"is_disabled":false,"rental_uris":{"android":"levelo://app?vid=53b2e3fb-77f4-44bd-9b1f-4c6e207a18dc","ios":"levelo://app?vid=53b2e3fb-77f4-44bd-9b1f-4c6e207a18dc"},"vehicle_type_id":"4","last_reported":1752322728,"current_range_meters":16800,"station_id":"ce4bhi12rcd13ifvqfq0","pricing_plan_id":"cebpf4jnsgd1na2vs0mg"},{"bike_id":"38e70852-2f7a-4b34-a55f-7175aa6a06f9","system_id":"levelo_inurba_marseille","lat":43.279,"lon":5.38015,"is_reserved":false,"is_disabled":false,"rental_uris":{"android":"levelo://app?vid=38e70852-2f7a-4b34-a55f-7175aa6a06f9","ios":"levelo://app?vid=38e70852-2f7a-4b34-a55f-7175aa6a06f9"},"vehicle_type_id":"4","last_reported":1752322728,"current_range_meters":17200,"station_id":"ce4bhf92rcd13ifvqf50","pricing_plan_id":"cebpf4jnsgd1na2vs0mg"},{"bike_id":"0000c5d7-0052-43dd-8a0b-696299e93e54","system_id":"levelo_inurba_marseille","lat":43.28447,"lon":5.39204,"is_reserved":false,"is_disabled":false,"rental_uris":{"android":"levelo://app?vid=0000c5d7-0052-43dd-8a0b-696299e93e54","ios":"levelo://app?vid=0000c5d7-0052-43dd-8a0b-696299e93e54"},"vehicle_type_id":"4","last_reported":1752322728,"current_range_meters":17200,"station_id":"ce4bhoh2rcd13ifvqh5g","pricing_plan_id":"cebpf4jnsgd1na2vs0mg"},{"bike_id":"2a1f489e-5b3d-4afc-8341-4f4d59dd970e","system_id":"levelo_inurba_marseille","lat":43.30948,"lon":5.39028,"is_reserved":false,"is_disabled":false,"rental_uris":{"android":"levelo://app?vid=2a1f489e-5b3d-4afc-8341-4f4d59dd970e","ios":"levelo://app?vid=2a1f489e-5b3d-4afc-8341-4f4d59dd970e"},"vehicle_type_id":"4","last_reported":1752322728,"current_range_meters":17200,"station_id":"ce4bgup2rcd13ifvqco0","pricing_plan_id":"cebpf4jnsgd1na2vs0mg"},{"bike_id":"e05627a7-983b-43c5-8526-5858b4f8155f","system_id":"levelo_inurba_marseille","lat":43.24665,"lon":5.38168,"is_reserved":false,"is_disabled":false,"rental_uris":{"android":"levelo://app?vid=e05627a7-983b-43c5-8526-5858b4f8155f","ios":"levelo://app?vid=e05627a7-983b-43c5-8526-5858b4f8155f"},"vehicle_type_id":"4","last_reported":1752322728,"current_range_meters":17200,"station_id":"ce4bhih2rcd13ifvqfr0","pricing_plan_id":"cebpf4jnsgd1na2vs0mg"},{"bike_id":"8b37f03f-f226-4bbc-8648-b109da7ba145","system_id":"levelo_inurba_marseille","lat":43.30536,"lon":5.366999,"is_reserved":false,"is_disabled":false,"rental_uris":{"android":"levelo://app?vid=8b37f03f-f226-4bbc-8648-b109da7ba145","ios":"levelo://app?vid=8b37f03f-f226-4bbc-8648-b109da7ba145"},"vehicle_type_id":"4","last_reported":1752322728,"current_range_meters":17200,"station_id":"","pricing_plan_id":"cebpf4jnsgd1na2vs0mg"},{"bike_id":"5a1aa169-e8de-4c42-8232-f9cf794c57f1","system_id":"levelo_inurba_marseille","lat":43.2118,"lon":5.35087,"is_reserved":false,"is_disabled":false,"rental_uris":{"android":"levelo://app?vid=5a1aa169-e8de-4c42-8232-f9cf794c57f1","ios":"levelo://app?vid=5a1aa169-e8de-4c42-8232-f9cf794c57f1"},"vehicle_type_id":"4","last_reported":1752322728,"current_range_meters":17200,"station_id":"st_cvj6sg6p6f1abm77japg","pricing_plan_id":"cebpf4jnsgd1na2vs0mg"},{"bike_id":"f23760ff-ab61-4853-aa67-28aac93822c1","system_id":"levelo_inurba_marseille","lat":43.337444,"lon":5.374475,"is_reserved":false,"is_disabled":false,"rental_uris":{"android":"levelo://app?vid=f23760ff-ab61-4853-aa67-28aac93822c1","ios":"levelo://app?vid=f23760ff-ab61-4853-aa67-28aac93822c1"},"vehicle_type_id":"4","last_reported":1752322728,"current_range_meters":17200,"station_id":"","pricing_plan_id":"cebpf4jnsgd1na2vs0mg"},{"bike_id":"ad9e46a1-8609-4f0d-9aff-a94b602c6e15","system_id":"levelo_inurba_marseille","lat":43.29576,"lon":5.37525,"is_reserved":false,"is_disabled":false,"rental_uris":{"android":"levelo://app?vid=ad9e46a1-8609-4f0d-9aff-a94b602c6e15","ios":"levelo://app?vid=ad9e46a1-8609-4f0d-9aff-a94b602c6e15"},"vehicle_type_id":"4","last_reported":1752322728,"current_range_meters":17200,"station_id":"ce4bgh92rcd13ifvqb50","pricing_plan_id":"cebpf4jnsgd1na2vs0mg"},{"bike_id":"57692aae-9841-41ad-bc01-254866eaf8b0","system_id":"levelo_inurba_marseille","lat":43.3232,"lon":5.40585,"is_reserved":false,"is_disabled":false,"rental_uris":{"android":"levelo://app?vid=57692aae-9841-41ad-bc01-254866eaf8b0","ios":"levelo://app?vid=57692aae-9841-41ad-bc01-254866eaf8b0"},"vehicle_type_id":"4","last_reported":1752322728,"current_range_meters":17600,"station_id":"ce4bhq92rcd13ifvqhjg","pricing_plan_id":"cebpf4jnsgd1na2vs0mg"},{"bike_id":"78d2a0d0-d03b-4011-b040-8b2d7e3fed04","system_id":"levelo_inurba_marseille","lat":43.3093,"lon":5.40142,"is_reserved":false,"is_disabled":false,"rental_uris":{"android":"levelo://app?vid=78d2a0d0-d03b-4011-b040-8b2d7e3fed04","ios":"levelo://app?vid=78d2a0d0-d03b-4011-b040-8b2d7e3fed04"},"vehicle_type_id":"4","last_reported":1752322728,"current_range_meters":17600,"station_id":"ce4bgvp2rcd13ifvqct0","pricing_plan_id":"cebpf4jnsgd1na2vs0mg"},{"bike_id":"c8c4b5d3-d4f9-4d89-95f3-210f9b432f96","system_id":"levelo_inurba_marseille","lat":43.25494,"lon":5.37651,"is_reserved":false,"is_disabled":false,"rental_uris":{"android":"levelo://app?vid=c8c4b5d3-d4f9-4d89-95f3-210f9b432f96","ios":"levelo://app?vid=c8c4b5d3-d4f9-4d89-95f3-210f9b432f96"},"vehicle_type_id":"4","last_reported":1752322728,"current_range_meters":17600,"station_id":"ce4bhh12rcd13ifvqff0","pricing_plan_id":"cebpf4jnsgd1na2vs0mg"},{"bike_id":"7b010448-32f3-44e0-9369-d4a3abd107e4","system_id":"levelo_inurba_marseille","lat":43.29622,"lon":5.37714,"is_reserved":false,"is_disabled":false,"rental_uris":{"android":"levelo://app?vid=7b010448-32f3-44e0-9369-d4a3abd107e4","ios":"levelo://app?vid=7b010448-32f3-44e0-9369-d4a3abd107e4"},"vehicle_type_id":"4","last_reported":1752322728,"current_range_meters":17600,"station_id":"ce4bgi92rcd13ifvqb90","pricing_plan_id":"cebpf4jnsgd1na2vs0mg"},{"bike_id":"8a7b8ce6-5027-4576-832b-59c332d822b9","system_id":"levelo_inurba_marseille","lat":43.28616,"lon":5.35111,"is_reserved":false,"is_disabled":false,"rental_uris":{"android":"levelo://app?vid=8a7b8ce6-5027-4576-832b-59c332d822b9","ios":"levelo://app?vid=8a7b8ce6-5027-4576-832b-59c332d822b9"},"vehicle_type_id":"4","last_reported":1752322728,"current_range_meters":17600,"station_id":"ce4bhch2rcd13ifvqeug","pricing_plan_id":"cebpf4jnsgd1na2vs0mg"},{"bike_id":"b59e51ca-d910-4846-ae9d-c6b0b3ae1ac3","system_id":"levelo_inurba_marseille","lat":43.28323,"lon":5.35064,"is_reserved":false,"is_disabled":false,"rental_uris":{"android":"levelo://app?vid=b59e51ca-d910-4846-ae9d-c6b0b3ae1ac3","ios":"levelo://app?vid=b59e51ca-d910-4846-ae9d-c6b0b3ae1ac3"},"vehicle_type_id":"4","last_reported":1752322728,"current_range_meters":17600,"station_id":"","pricing_plan_id":"cebpf4jnsgd1na2vs0mg"},{"bike_id":"d799b321-3a7d-4201-b46e-ffe2ad124f19","system_id":"levelo_inurba_marseille","lat":43.32882,"lon":5.38389,"is_reserved":false,"is_disabled":false,"rental_uris":{"android":"levelo://app?vid=d799b321-3a7d-4201-b46e-ffe2ad124f19","ios":"levelo://app?vid=d799b321-3a7d-4201-b46e-ffe2ad124f19"},"vehicle_type_id":"4","last_reported":1752322728,"current_range_meters":17600,"station_id":"","pricing_plan_id":"cebpf4jnsgd1na2vs0mg"},{"bike_id":"aa72cb0d-e066-4dff-844e-59996c903fc8","system_id":"levelo_inurba_marseille","lat":43.29617,"lon":5.371661,"is_reserved":false,"is_disabled":false,"rental_uris":{"android":"levelo://app?vid=aa72cb0d-e066-4dff-844e-59996c903fc8","ios":"levelo://app?vid=aa72cb0d-e066-4dff-844e-59996c903fc8"},"vehicle_type_id":"4","last_reported":1752322728,"current_range_meters":17600,"station_id":"ce4bgph2rcd13ifvqc2g","pricing_plan_id":"cebpf4jnsgd1na2vs0mg"},{"bike_id":"49801dc2-618a-44b8-84ae-416cd87fdbe9","system_id":"levelo_inurba_marseille","lat":43.29436,"lon":5.37397,"is_reserved":false,"is_disabled":false,"rental_uris":{"android":"levelo://app?vid=49801dc2-618a-44b8-84ae-416cd87fdbe9","ios":"levelo://app?vid=49801dc2-618a-44b8-84ae-416cd87fdbe9"},"vehicle_type_id":"4","last_reported":1752322728,"current_range_meters":17600,"station_id":"","pricing_plan_id":"cebpf4jnsgd1na2vs0mg"},{"bike_id":"2419e224-75af-4270-aff9-4b25540ad455","system_id":"levelo_inurba_marseille","lat":43.29786,"lon":5.37108,"is_reserved":false,"is_disabled":false,"rental_uris":{"android":"levelo://app?vid=2419e224-75af-4270-aff9-4b25540ad455","ios":"levelo://app?vid=2419e224-75af-4270-aff9-4b25540ad455"},"vehicle_type_id":"4","last_reported":1752322728,"current_range_meters":17600,"station_id":"ce4bgop2rcd13ifvqc1g","pricing_plan_id":"cebpf4jnsgd1na2vs0mg"},{"bike_id":"6d3f299a-d341-49bc-a1f9-7534528d9b67","system_id":"levelo_inurba_marseille","lat":43.23196,"lon":5.35577,"is_reserved":false,"is_disabled":false,"rental_uris":{"android":"levelo://app?vid=6d3f299a-d341-49bc-a1f9-7534528d9b67","ios":"levelo://app?vid=6d3f299a-d341-49bc-a1f9-7534528d9b67"},"vehicle_type_id":"4","last_reported":1752322728,"current_range_meters":18000,"station_id":"ce4bhu92rcd13ifvqi70","pricing_plan_id":"cebpf4jnsgd1na2vs0mg"},{"bike_id":"39a3dc24-b1b8-4cc1-8792-aeb6c9900f7f","system_id":"levelo_inurba_marseille","lat":43.2926,"lon":5.40908,"is_reserved":false,"is_disabled":false,"rental_uris":{"android":"levelo://app?vid=39a3dc24-b1b8-4cc1-8792-aeb6c9900f7f","ios":"levelo://app?vid=39a3dc24-b1b8-4cc1-8792-aeb6c9900f7f"},"vehicle_type_id":"4","last_reported":1752322728,"current_range_meters":18000,"station_id":"ce4bh192rcd13ifvqdc0","pricing_plan_id":"cebpf4jnsgd1na2vs0mg"},{"bike_id":"844b44b6-4e33-4917-878d-a3c647561239","system_id":"levelo_inurba_marseille","lat":43.30777,"lon":5.4247,"is_reserved":false,"is_disabled":false,"rental_uris":{"android":"levelo://app?vid=844b44b6-4e33-4917-878d-a3c647561239","ios":"levelo://app?vid=844b44b6-4e33-4917-878d-a3c647561239"},"vehicle_type_id":"4","last_reported":1752322728,"current_range_meters":18000,"station_id":"","pricing_plan_id":"cebpf4jnsgd1na2vs0mg"},{"bike_id":"4b8da722-ee9e-48a4-a5e5-3a8a10364708","system_id":"levelo_inurba_marseille","lat":43.31155,"lon":5.37766,"is_reserved":false,"is_disabled":false,"rental_uris":{"android":"levelo://app?vid=4b8da722-ee9e-48a4-a5e5-3a8a10364708","ios":"levelo://app?vid=4b8da722-ee9e-48a4-a5e5-3a8a10364708"},"vehicle_type_id":"4","last_reported":1752322728,"current_range_meters":18000,"station_id":"ce4bgt92rcd13ifvqcg0","pricing_plan_id":"cebpf4jnsgd1na2vs0mg"},{"bike_id":"e1fc1979-ec96-466e-b517-2f6d7ae658c2","system_id":"levelo_inurba_marseille","lat":43.301563,"lon":5.380839,"is_reserved":false,"is_disabled":false,"rental_uris":{"android":"levelo://app?vid=e1fc1979-ec96-466e-b517-2f6d7ae658c2","ios":"levelo://app?vid=e1fc1979-ec96-466e-b517-2f6d7ae658c2"},"vehicle_type_id":"4","last_reported":1752322728,"current_range_meters":18000,"station_id":"ce4bgjp2rcd13ifvqbh0","pricing_plan_id":"cebpf4jnsgd1na2vs0mg"},{"bike_id":"a71b38fa-618c-4719-85dc-c82feed16bf0","system_id":"levelo_inurba_marseille","lat":43.29984,"lon":5.41341,"is_reserved":false,"is_disabled":false,"rental_uris":{"android":"levelo://app?vid=a71b38fa-618c-4719-85dc-c82feed16bf0","ios":"levelo://app?vid=a71b38fa-618c-4719-85dc-c82feed16bf0"},"vehicle_type_id":"4","last_reported":1752322728,"current_range_meters":18000,"station_id":"ce4bhp12rcd13ifvqh9g","pricing_plan_id":"cebpf4jnsgd1na2vs0mg"},{"bike_id":"a3e17a78-b847-4119-a660-7256ae9d8a77","system_id":"levelo_inurba_marseille","lat":43.290896,"lon":5.371644,"is_reserved":false,"is_disabled":false,"rental_uris":{"android":"levelo://app?vid=a3e17a78-b847-4119-a660-7256ae9d8a77","ios":"levelo://app?vid=a3e17a78-b847-4119-a660-7256ae9d8a77"},"vehicle_type_id":"4","last_reported":1752322728,"current_range_meters":18800,"station_id":"ce4bh5p2rcd13ifvqe4g","pricing_plan_id":"cebpf4jnsgd1na2vs0mg"},{"bike_id":"5af35bc3-c835-45dc-8089-0d78e9c38b02","system_id":"levelo_inurba_marseille","lat":43.27906,"lon":5.38007,"is_reserved":false,"is_disabled":false,"rental_uris":{"android":"levelo://app?vid=5af35bc3-c835-45dc-8089-0d78e9c38b02","ios":"levelo://app?vid=5af35bc3-c835-45dc-8089-0d78e9c38b02"},"vehicle_type_id":"4","last_reported":1752322728,"current_range_meters":18800,"station_id":"ce4bhf92rcd13ifvqf50","pricing_plan_id":"cebpf4jnsgd1na2vs0mg"},{"bike_id":"a258dc86-7c84-4445-ad0e-265b9f56cb91","system_id":"levelo_inurba_marseille","lat":43.29562,"lon":5.42266,"is_reserved":false,"is_disabled":false,"rental_uris":{"android":"levelo://app?vid=a258dc86-7c84-4445-ad0e-265b9f56cb91","ios":"levelo://app?vid=a258dc86-7c84-4445-ad0e-265b9f56cb91"},"vehicle_type_id":"4","last_reported":1752322728,"current_range_meters":18800,"station_id":"ce4bhph2rcd13ifvqhdg","pricing_plan_id":"cebpf4jnsgd1na2vs0mg"},{"bike_id":"14b914a7-ac81-4524-a358-77b861ff3535","system_id":"levelo_inurba_marseille","lat":43.27622,"lon":5.36154,"is_reserved":false,"is_disabled":false,"rental_uris":{"android":"levelo://app?vid=14b914a7-ac81-4524-a358-77b861ff3535","ios":"levelo://app?vid=14b914a7-ac81-4524-a358-77b861ff3535"},"vehicle_type_id":"4","last_reported":1752322728,"current_range_meters":18800,"station_id":"ce4bgj92rcd13ifvqbe0","pricing_plan_id":"cebpf4jnsgd1na2vs0mg"},{"bike_id":"70366beb-9db8-4aee-97f7-cf164e3eb2be","system_id":"levelo_inurba_marseille","lat":43.31376,"lon":5.38508,"is_reserved":false,"is_disabled":false,"rental_uris":{"android":"levelo://app?vid=70366beb-9db8-4aee-97f7-cf164e3eb2be","ios":"levelo://app?vid=70366beb-9db8-4aee-97f7-cf164e3eb2be"},"vehicle_type_id":"4","last_reported":1752322728,"current_range_meters":18800,"station_id":"ce4bgt92rcd13ifvqcf0","pricing_plan_id":"cebpf4jnsgd1na2vs0mg"},{"bike_id":"751c33c1-da05-4b7a-817e-41f324ba4cbb","system_id":"levelo_inurba_marseille","lat":43.27216,"lon":5.39181,"is_reserved":false,"is_disabled":false,"rental_uris":{"android":"levelo://app?vid=751c33c1-da05-4b7a-817e-41f324ba4cbb","ios":"levelo://app?vid=751c33c1-da05-4b7a-817e-41f324ba4cbb"},"vehicle_type_id":"4","last_reported":1752322728,"current_range_meters":18800,"station_id":"ce4bhhp2rcd13ifvqfm0","pricing_plan_id":"cebpf4jnsgd1na2vs0mg"},{"bike_id":"f9924005-c8ac-4086-8e25-9a21391f65ea","system_id":"levelo_inurba_marseille","lat":43.2119,"lon":5.35086,"is_reserved":false,"is_disabled":false,"rental_uris":{"android":"levelo://app?vid=f9924005-c8ac-4086-8e25-9a21391f65ea","ios":"levelo://app?vid=f9924005-c8ac-4086-8e25-9a21391f65ea"},"vehicle_type_id":"4","last_reported":1752322728,"current_range_meters":19200,"station_id":"st_cvj6sg6p6f1abm77japg","pricing_plan_id":"cebpf4jnsgd1na2vs0mg"},{"bike_id":"2afd10ce-5f23-4122-9c7a-a3416be941b2","system_id":"levelo_inurba_marseille","lat":43.26037,"lon":5.37567,"is_reserved":false,"is_disabled":true,"rental_uris":{"android":"levelo://app?vid=2afd10ce-5f23-4122-9c7a-a3416be941b2","ios":"levelo://app?vid=2afd10ce-5f23-4122-9c7a-a3416be941b2"},"vehicle_type_id":"4","last_reported":1752322728,"current_range_meters":19200,"station_id":"ce4bhgh2rcd13ifvqfa0","pricing_plan_id":"cebpf4jnsgd1na2vs0mg"},{"bike_id":"133d43d7-4886-4999-b6e3-a9ffe13a8c6e","system_id":"levelo_inurba_marseille","lat":43.26196,"lon":5.37447,"is_reserved":false,"is_disabled":false,"rental_uris":{"android":"levelo://app?vid=133d43d7-4886-4999-b6e3-a9ffe13a8c6e","ios":"levelo://app?vid=133d43d7-4886-4999-b6e3-a9ffe13a8c6e"},"vehicle_type_id":"4","last_reported":1752322728,"current_range_meters":19200,"station_id":"ce4bhgp2rcd13ifvqfc0","pricing_plan_id":"cebpf4jnsgd1na2vs0mg"},{"bike_id":"150e49ea-ba17-4b41-ac6e-1d20bfd0093b","system_id":"levelo_inurba_marseille","lat":43.28936,"lon":5.38415,"is_reserved":false,"is_disabled":false,"rental_uris":{"android":"levelo://app?vid=150e49ea-ba17-4b41-ac6e-1d20bfd0093b","ios":"levelo://app?vid=150e49ea-ba17-4b41-ac6e-1d20bfd0093b"},"vehicle_type_id":"4","last_reported":1752322728,"current_range_meters":19200,"station_id":"ce4bh612rcd13ifvqe6g","pricing_plan_id":"cebpf4jnsgd1na2vs0mg"},{"bike_id":"71ffafe8-ba4f-4329-9795-1b18b71c34dd","system_id":"levelo_inurba_marseille","lat":43.297823,"lon":5.371099,"is_reserved":false,"is_disabled":false,"rental_uris":{"android":"levelo://app?vid=71ffafe8-ba4f-4329-9795-1b18b71c34dd","ios":"levelo://app?vid=71ffafe8-ba4f-4329-9795-1b18b71c34dd"},"vehicle_type_id":"4","last_reported":1752322728,"current_range_meters":19600,"station_id":"ce4bgop2rcd13ifvqc1g","pricing_plan_id":"cebpf4jnsgd1na2vs0mg"},{"bike_id":"2789363d-6c32-4f54-a6f0-e032059a9c8e","system_id":"levelo_inurba_marseille","lat":43.24394,"lon":5.37065,"is_reserved":false,"is_disabled":false,"rental_uris":{"android":"levelo://app?vid=2789363d-6c32-4f54-a6f0-e032059a9c8e","ios":"levelo://app?vid=2789363d-6c32-4f54-a6f0-e032059a9c8e"},"vehicle_type_id":"4","last_reported":1752322728,"current_range_meters":19600,"station_id":"ce4bhhh2rcd13ifvqfk0","pricing_plan_id":"cebpf4jnsgd1na2vs0mg"},{"bike_id":"c6a8feb4-6823-4a2b-9599-dbfcc793a999","system_id":"levelo_inurba_marseille","lat":43.29266,"lon":5.37613,"is_reserved":false,"is_disabled":false,"rental_uris":{"android":"levelo://app?vid=c6a8feb4-6823-4a2b-9599-dbfcc793a999","ios":"levelo://app?vid=c6a8feb4-6823-4a2b-9599-dbfcc793a999"},"vehicle_type_id":"4","last_reported":1752322728,"current_range_meters":19600,"station_id":"ce4bgi12rcd13ifvqb80","pricing_plan_id":"cebpf4jnsgd1na2vs0mg"},{"bike_id":"ece5e006-0a29-4a34-88d5-2dde675964aa","system_id":"levelo_inurba_marseille","lat":43.27609,"lon":5.36113,"is_reserved":false,"is_disabled":false,"rental_uris":{"android":"levelo://app?vid=ece5e006-0a29-4a34-88d5-2dde675964aa","ios":"levelo://app?vid=ece5e006-0a29-4a34-88d5-2dde675964aa"},"vehicle_type_id":"4","last_reported":1752322728,"current_range_meters":19600,"station_id":"ce4bgj92rcd13ifvqbe0","pricing_plan_id":"cebpf4jnsgd1na2vs0mg"},{"bike_id":"76cdf307-d03d-42e2-89f2-e94ece30371b","system_id":"levelo_inurba_marseille","lat":43.2901,"lon":5.35622,"is_reserved":false,"is_disabled":false,"rental_uris":{"android":"levelo://app?vid=76cdf307-d03d-42e2-89f2-e94ece30371b","ios":"levelo://app?vid=76cdf307-d03d-42e2-89f2-e94ece30371b"},"vehicle_type_id":"4","last_reported":1752322728,"current_range_meters":19600,"station_id":"ce4bhb92rcd13ifvqen0","pricing_plan_id":"cebpf4jnsgd1na2vs0mg"},{"bike_id":"240a701d-97be-4ee9-a5b1-fcd964ed2b3f","system_id":"levelo_inurba_marseille","lat":43.29944,"lon":5.41336,"is_reserved":false,"is_disabled":false,"rental_uris":{"android":"levelo://app?vid=240a701d-97be-4ee9-a5b1-fcd964ed2b3f","ios":"levelo://app?vid=240a701d-97be-4ee9-a5b1-fcd964ed2b3f"},"vehicle_type_id":"4","last_reported":1752322728,"current_range_meters":19200,"station_id":"ce4bhp12rcd13ifvqh9g","pricing_plan_id":"cebpf4jnsgd1na2vs0mg"},{"bike_id":"9b40dc73-509b-4d2f-8a27-44696719b175","system_id":"levelo_inurba_marseille","lat":43.27064,"lon":5.42265,"is_reserved":false,"is_disabled":false,"rental_uris":{"android":"levelo://app?vid=9b40dc73-509b-4d2f-8a27-44696719b175","ios":"levelo://app?vid=9b40dc73-509b-4d2f-8a27-44696719b175"},"vehicle_type_id":"4","last_reported":1752322728,"current_range_meters":20000,"station_id":"ce4bhk92rcd13ifvqgb0","pricing_plan_id":"cebpf4jnsgd1na2vs0mg"},{"bike_id":"6db2d44d-c7ca-41ac-b814-ccca58d47fae","system_id":"levelo_inurba_marseille","lat":43.262085,"lon":5.374421,"is_reserved":false,"is_disabled":false,"rental_uris":{"android":"levelo://app?vid=6db2d44d-c7ca-41ac-b814-ccca58d47fae","ios":"levelo://app?vid=6db2d44d-c7ca-41ac-b814-ccca58d47fae"},"vehicle_type_id":"4","last_reported":1752322728,"current_range_meters":20000,"station_id":"ce4bhgp2rcd13ifvqfc0","pricing_plan_id":"cebpf4jnsgd1na2vs0mg"},{"bike_id":"56be19cd-bb14-4855-a989-877b39865de9","system_id":"levelo_inurba_marseille","lat":43.29578,"lon":5.36746,"is_reserved":false,"is_disabled":false,"rental_uris":{"android":"levelo://app?vid=56be19cd-bb14-4855-a989-877b39865de9","ios":"levelo://app?vid=56be19cd-bb14-4855-a989-877b39865de9"},"vehicle_type_id":"4","last_reported":1752322728,"current_range_meters":20000,"station_id":"ce4bgph2rcd13ifvqc2g","pricing_plan_id":"cebpf4jnsgd1na2vs0mg"},{"bike_id":"b1ee17d6-23f9-47cb-a001-190d52a8cf67","system_id":"levelo_inurba_marseille","lat":43.27424,"lon":5.39404,"is_reserved":false,"is_disabled":false,"rental_uris":{"android":"levelo://app?vid=b1ee17d6-23f9-47cb-a001-190d52a8cf67","ios":"levelo://app?vid=b1ee17d6-23f9-47cb-a001-190d52a8cf67"},"vehicle_type_id":"4","last_reported":1752322728,"current_range_meters":20000,"station_id":"ce4bhdp2rcd13ifvqf20","pricing_plan_id":"cebpf4jnsgd1na2vs0mg"},{"bike_id":"45be3528-fd16-498e-8434-e30e29d5ac2e","system_id":"levelo_inurba_marseille","lat":43.3039,"lon":5.39768,"is_reserved":false,"is_disabled":false,"rental_uris":{"android":"levelo://app?vid=45be3528-fd16-498e-8434-e30e29d5ac2e","ios":"levelo://app?vid=45be3528-fd16-498e-8434-e30e29d5ac2e"},"vehicle_type_id":"4","last_reported":1752322728,"current_range_meters":20000,"station_id":"ce4bh092rcd13ifvqd20","pricing_plan_id":"cebpf4jnsgd1na2vs0mg"},{"bike_id":"d4c5def1-8626-42e5-a589-b1fe20a37e07","system_id":"levelo_inurba_marseille","lat":43.21752,"lon":5.34604,"is_reserved":false,"is_disabled":false,"rental_uris":{"android":"levelo://app?vid=d4c5def1-8626-42e5-a589-b1fe20a37e07","ios":"levelo://app?vid=d4c5def1-8626-42e5-a589-b1fe20a37e07"},"vehicle_type_id":"4","last_reported":1752322728,"current_range_meters":20000,"station_id":"st_cvj6r9ubvosntc0bgbag","pricing_plan_id":"cebpf4jnsgd1na2vs0mg"},{"bike_id":"ab7daa0d-bc6c-4ca1-871b-cf07f959e961","system_id":"levelo_inurba_marseille","lat":43.30161,"lon":5.38067,"is_reserved":false,"is_disabled":false,"rental_uris":{"android":"levelo://app?vid=ab7daa0d-bc6c-4ca1-871b-cf07f959e961","ios":"levelo://app?vid=ab7daa0d-bc6c-4ca1-871b-cf07f959e961"},"vehicle_type_id":"4","last_reported":1752322728,"current_range_meters":20000,"station_id":"ce4bgjp2rcd13ifvqbh0","pricing_plan_id":"cebpf4jnsgd1na2vs0mg"},{"bike_id":"06e24b75-d0d2-430e-8f52-23aff4c0b714","system_id":"levelo_inurba_marseille","lat":43.28264,"lon":5.35055,"is_reserved":false,"is_disabled":false,"rental_uris":{"android":"levelo://app?vid=06e24b75-d0d2-430e-8f52-23aff4c0b714","ios":"levelo://app?vid=06e24b75-d0d2-430e-8f52-23aff4c0b714"},"vehicle_type_id":"4","last_reported":1752322728,"current_range_meters":20000,"station_id":"ce4bhbp2rcd13ifvqerg","pricing_plan_id":"cebpf4jnsgd1na2vs0mg"},{"bike_id":"052de021-56cd-46ec-8fa1-ea200ba3679d","system_id":"levelo_inurba_marseille","lat":43.30603,"lon":5.37231,"is_reserved":false,"is_disabled":false,"rental_uris":{"android":"levelo://app?vid=052de021-56cd-46ec-8fa1-ea200ba3679d","ios":"levelo://app?vid=052de021-56cd-46ec-8fa1-ea200ba3679d"},"vehicle_type_id":"4","last_reported":1752322728,"current_range_meters":20400,"station_id":"ce4bgqh2rcd13ifvqc4g","pricing_plan_id":"cebpf4jnsgd1na2vs0mg"},{"bike_id":"a3462c6b-7d9a-4283-ae5e-bf32253fe92b","system_id":"levelo_inurba_marseille","lat":43.26034,"lon":5.37558,"is_reserved":false,"is_disabled":false,"rental_uris":{"android":"levelo://app?vid=a3462c6b-7d9a-4283-ae5e-bf32253fe92b","ios":"levelo://app?vid=a3462c6b-7d9a-4283-ae5e-bf32253fe92b"},"vehicle_type_id":"4","last_reported":1752322728,"current_range_meters":20400,"station_id":"ce4bhgh2rcd13ifvqfa0","pricing_plan_id":"cebpf4jnsgd1na2vs0mg"},{"bike_id":"4d457705-9e32-42f8-8345-019f5b9eb3da","system_id":"levelo_inurba_marseille","lat":43.27991,"lon":5.41669,"is_reserved":false,"is_disabled":false,"rental_uris":{"android":"levelo://app?vid=4d457705-9e32-42f8-8345-019f5b9eb3da","ios":"levelo://app?vid=4d457705-9e32-42f8-8345-019f5b9eb3da"},"vehicle_type_id":"4","last_reported":1752322728,"current_range_meters":20400,"station_id":"ce4bho12rcd13ifvqh1g","pricing_plan_id":"cebpf4jnsgd1na2vs0mg"},{"bike_id":"02c71304-9c4f-4ebf-b265-2eb94afb5a95","system_id":"levelo_inurba_marseille","lat":43.30932,"lon":5.36832,"is_reserved":false,"is_disabled":false,"rental_uris":{"android":"levelo://app?vid=02c71304-9c4f-4ebf-b265-2eb94afb5a95","ios":"levelo://app?vid=02c71304-9c4f-4ebf-b265-2eb94afb5a95"},"vehicle_type_id":"4","last_reported":1752322728,"current_range_meters":20400,"station_id":"","pricing_plan_id":"cebpf4jnsgd1na2vs0mg"},{"bike_id":"e7b9776f-18af-4e15-9604-8d91fd54bf50","system_id":"levelo_inurba_marseille","lat":43.2962,"lon":5.37736,"is_reserved":false,"is_disabled":false,"rental_uris":{"android":"levelo://app?vid=e7b9776f-18af-4e15-9604-8d91fd54bf50","ios":"levelo://app?vid=e7b9776f-18af-4e15-9604-8d91fd54bf50"},"vehicle_type_id":"4","last_reported":1752322728,"current_range_meters":20400,"station_id":"ce4bgi92rcd13ifvqb90","pricing_plan_id":"cebpf4jnsgd1na2vs0mg"},{"bike_id":"59cafff1-44bd-40c4-889f-c10edc54e9a8","system_id":"levelo_inurba_marseille","lat":43.29292,"lon":5.37453,"is_reserved":false,"is_disabled":false,"rental_uris":{"android":"levelo://app?vid=59cafff1-44bd-40c4-889f-c10edc54e9a8","ios":"levelo://app?vid=59cafff1-44bd-40c4-889f-c10edc54e9a8"},"vehicle_type_id":"4","last_reported":1752322728,"current_range_meters":20400,"station_id":"ce4bgi12rcd13ifvqb70","pricing_plan_id":"cebpf4jnsgd1na2vs0mg"},{"bike_id":"18530e59-6a86-4f2b-8228-4105493be3ef","system_id":"levelo_inurba_marseille","lat":43.24172,"lon":5.36398,"is_reserved":false,"is_disabled":false,"rental_uris":{"android":"levelo://app?vid=18530e59-6a86-4f2b-8228-4105493be3ef","ios":"levelo://app?vid=18530e59-6a86-4f2b-8228-4105493be3ef"},"vehicle_type_id":"4","last_reported":1752322728,"current_range_meters":20400,"station_id":"cpo36qri1sfpv3e86is0","pricing_plan_id":"cebpf4jnsgd1na2vs0mg"},{"bike_id":"b2b780e3-6f68-41f7-a127-6314e9bb0c12","system_id":"levelo_inurba_marseille","lat":43.295238,"lon":5.390438,"is_reserved":false,"is_disabled":false,"rental_uris":{"android":"levelo://app?vid=b2b780e3-6f68-41f7-a127-6314e9bb0c12","ios":"levelo://app?vid=b2b780e3-6f68-41f7-a127-6314e9bb0c12"},"vehicle_type_id":"4","last_reported":1752322728,"current_range_meters":20400,"station_id":"ce4bh3p2rcd13ifvqdp0","pricing_plan_id":"cebpf4jnsgd1na2vs0mg"},{"bike_id":"b3c3491c-305d-44b9-99fe-71afe816f55d","system_id":"levelo_inurba_marseille","lat":43.23203,"lon":5.35566,"is_reserved":false,"is_disabled":false,"rental_uris":{"android":"levelo://app?vid=b3c3491c-305d-44b9-99fe-71afe816f55d","ios":"levelo://app?vid=b3c3491c-305d-44b9-99fe-71afe816f55d"},"vehicle_type_id":"4","last_reported":1752322728,"current_range_meters":20400,"station_id":"ce4bhu92rcd13ifvqi70","pricing_plan_id":"cebpf4jnsgd1na2vs0mg"},{"bike_id":"5bd66fd2-a579-49f0-82c1-03d4944456a3","system_id":"levelo_inurba_marseille","lat":43.29737,"lon":5.37686,"is_reserved":false,"is_disabled":false,"rental_uris":{"android":"levelo://app?vid=5bd66fd2-a579-49f0-82c1-03d4944456a3","ios":"levelo://app?vid=5bd66fd2-a579-49f0-82c1-03d4944456a3"},"vehicle_type_id":"4","last_reported":1752322728,"current_range_meters":20400,"station_id":"ce4bgkh2rcd13ifvqbl0","pricing_plan_id":"cebpf4jnsgd1na2vs0mg"},{"bike_id":"05fa5d69-b47f-410b-af11-3ae3da990491","system_id":"levelo_inurba_marseille","lat":43.29427,"lon":5.3861,"is_reserved":false,"is_disabled":true,"rental_uris":{"android":"levelo://app?vid=05fa5d69-b47f-410b-af11-3ae3da990491","ios":"levelo://app?vid=05fa5d69-b47f-410b-af11-3ae3da990491"},"vehicle_type_id":"4","last_reported":1752322728,"current_range_meters":20400,"station_id":"ce4bh2h2rcd13ifvqdh0","pricing_plan_id":"cebpf4jnsgd1na2vs0mg"},{"bike_id":"579c9257-e9d2-4fed-8af3-001a27548604","system_id":"levelo_inurba_marseille","lat":43.2176,"lon":5.34619,"is_reserved":false,"is_disabled":false,"rental_uris":{"android":"levelo://app?vid=579c9257-e9d2-4fed-8af3-001a27548604","ios":"levelo://app?vid=579c9257-e9d2-4fed-8af3-001a27548604"},"vehicle_type_id":"4","last_reported":1752322728,"current_range_meters":20800,"station_id":"st_cvj6r9ubvosntc0bgbag","pricing_plan_id":"cebpf4jnsgd1na2vs0mg"},{"bike_id":"90552add-a200-474c-af6b-9f8cccac0c5e","system_id":"levelo_inurba_marseille","lat":43.255021,"lon":5.376488,"is_reserved":false,"is_disabled":false,"rental_uris":{"android":"levelo://app?vid=90552add-a200-474c-af6b-9f8cccac0c5e","ios":"levelo://app?vid=90552add-a200-474c-af6b-9f8cccac0c5e"},"vehicle_type_id":"4","last_reported":1752322728,"current_range_meters":20800,"station_id":"ce4bhh12rcd13ifvqff0","pricing_plan_id":"cebpf4jnsgd1na2vs0mg"},{"bike_id":"605d5b3b-f287-4690-bd49-bc257cb106c3","system_id":"levelo_inurba_marseille","lat":43.23969,"lon":5.3666,"is_reserved":false,"is_disabled":false,"rental_uris":{"android":"levelo://app?vid=605d5b3b-f287-4690-bd49-bc257cb106c3","ios":"levelo://app?vid=605d5b3b-f287-4690-bd49-bc257cb106c3"},"vehicle_type_id":"4","last_reported":1752322728,"current_range_meters":20800,"station_id":"ce4bhi12rcd13ifvqfp0","pricing_plan_id":"cebpf4jnsgd1na2vs0mg"},{"bike_id":"c53a95fb-c2d2-40ba-826f-fe864e42b654","system_id":"levelo_inurba_marseille","lat":43.29583,"lon":5.36747,"is_reserved":false,"is_disabled":false,"rental_uris":{"android":"levelo://app?vid=c53a95fb-c2d2-40ba-826f-fe864e42b654","ios":"levelo://app?vid=c53a95fb-c2d2-40ba-826f-fe864e42b654"},"vehicle_type_id":"4","last_reported":1752322728,"current_range_meters":20400,"station_id":"ce4bgph2rcd13ifvqc2g","pricing_plan_id":"cebpf4jnsgd1na2vs0mg"},{"bike_id":"80706ed8-34fd-4666-9e3e-8aacbb0a19ea","system_id":"levelo_inurba_marseille","lat":43.267966,"lon":5.402679,"is_reserved":false,"is_disabled":true,"rental_uris":{"android":"levelo://app?vid=80706ed8-34fd-4666-9e3e-8aacbb0a19ea","ios":"levelo://app?vid=80706ed8-34fd-4666-9e3e-8aacbb0a19ea"},"vehicle_type_id":"4","last_reported":1752322728,"current_range_meters":20800,"station_id":"ce501612rcd8frsf0b60","pricing_plan_id":"cebpf4jnsgd1na2vs0mg"},{"bike_id":"f5a47db5-6fb2-46bd-a2de-efa4ad13bf60","system_id":"levelo_inurba_marseille","lat":43.211952,"lon":5.350796,"is_reserved":false,"is_disabled":false,"rental_uris":{"android":"levelo://app?vid=f5a47db5-6fb2-46bd-a2de-efa4ad13bf60","ios":"levelo://app?vid=f5a47db5-6fb2-46bd-a2de-efa4ad13bf60"},"vehicle_type_id":"4","last_reported":1752322728,"current_range_meters":21600,"station_id":"st_cvj6sg6p6f1abm77japg","pricing_plan_id":"cebpf4jnsgd1na2vs0mg"},{"bike_id":"81db7ef8-e1be-405e-85ee-555fd2e46001","system_id":"levelo_inurba_marseille","lat":43.3015,"lon":5.3808,"is_reserved":false,"is_disabled":false,"rental_uris":{"android":"levelo://app?vid=81db7ef8-e1be-405e-85ee-555fd2e46001","ios":"levelo://app?vid=81db7ef8-e1be-405e-85ee-555fd2e46001"},"vehicle_type_id":"4","last_reported":1752322728,"current_range_meters":20800,"station_id":"ce4bgjp2rcd13ifvqbh0","pricing_plan_id":"cebpf4jnsgd1na2vs0mg"},{"bike_id":"825e88e5-6c29-4354-b552-dcd23cc8882f","system_id":"levelo_inurba_marseille","lat":43.2962,"lon":5.37166,"is_reserved":false,"is_disabled":false,"rental_uris":{"android":"levelo://app?vid=825e88e5-6c29-4354-b552-dcd23cc8882f","ios":"levelo://app?vid=825e88e5-6c29-4354-b552-dcd23cc8882f"},"vehicle_type_id":"4","last_reported":1752322728,"current_range_meters":21600,"station_id":"ce4bgnh2rcd13ifvqc0g","pricing_plan_id":"cebpf4jnsgd1na2vs0mg"},{"bike_id":"58375fde-ca97-4dab-be52-59caf98323d3","system_id":"levelo_inurba_marseille","lat":43.26559,"lon":5.37328,"is_reserved":false,"is_disabled":true,"rental_uris":{"android":"levelo://app?vid=58375fde-ca97-4dab-be52-59caf98323d3","ios":"levelo://app?vid=58375fde-ca97-4dab-be52-59caf98323d3"},"vehicle_type_id":"4","last_reported":1752322728,"current_range_meters":21600,"station_id":"ce4bhg12rcd13ifvqf70","pricing_plan_id":"cebpf4jnsgd1na2vs0mg"},{"bike_id":"fdba23b5-8821-42e6-89e0-8abd4d7c2c6c","system_id":"levelo_inurba_marseille","lat":43.27624,"lon":5.36103,"is_reserved":false,"is_disabled":false,"rental_uris":{"android":"levelo://app?vid=fdba23b5-8821-42e6-89e0-8abd4d7c2c6c","ios":"levelo://app?vid=fdba23b5-8821-42e6-89e0-8abd4d7c2c6c"},"vehicle_type_id":"4","last_reported":1752322728,"current_range_meters":21600,"station_id":"ce4bgj92rcd13ifvqbe0","pricing_plan_id":"cebpf4jnsgd1na2vs0mg"},{"bike_id":"37e04037-4751-45cc-9e56-db1728107dad","system_id":"levelo_inurba_marseille","lat":43.311164,"lon":5.377586,"is_reserved":false,"is_disabled":false,"rental_uris":{"android":"levelo://app?vid=37e04037-4751-45cc-9e56-db1728107dad","ios":"levelo://app?vid=37e04037-4751-45cc-9e56-db1728107dad"},"vehicle_type_id":"4","last_reported":1752322728,"current_range_meters":21600,"station_id":"ce4bgt92rcd13ifvqcg0","pricing_plan_id":"cebpf4jnsgd1na2vs0mg"},{"bike_id":"9bfc7d3d-4e60-4f8a-9c32-ef3d0e77ec5b","system_id":"levelo_inurba_marseille","lat":43.211967,"lon":5.350819,"is_reserved":false,"is_disabled":false,"rental_uris":{"android":"levelo://app?vid=9bfc7d3d-4e60-4f8a-9c32-ef3d0e77ec5b","ios":"levelo://app?vid=9bfc7d3d-4e60-4f8a-9c32-ef3d0e77ec5b"},"vehicle_type_id":"4","last_reported":1752322728,"current_range_meters":21600,"station_id":"st_cvj6sg6p6f1abm77japg","pricing_plan_id":"cebpf4jnsgd1na2vs0mg"},{"bike_id":"b8eb3130-c203-4842-b5ea-03fa9e487ff4","system_id":"levelo_inurba_marseille","lat":43.24161,"lon":5.36396,"is_reserved":false,"is_disabled":false,"rental_uris":{"android":"levelo://app?vid=b8eb3130-c203-4842-b5ea-03fa9e487ff4","ios":"levelo://app?vid=b8eb3130-c203-4842-b5ea-03fa9e487ff4"},"vehicle_type_id":"4","last_reported":1752322728,"current_range_meters":21600,"station_id":"cpo36qri1sfpv3e86is0","pricing_plan_id":"cebpf4jnsgd1na2vs0mg"},{"bike_id":"4958cb5f-80d4-4ab5-9f7c-e9789c3090e0","system_id":"levelo_inurba_marseille","lat":43.29978,"lon":5.38491,"is_reserved":false,"is_disabled":false,"rental_uris":{"android":"levelo://app?vid=4958cb5f-80d4-4ab5-9f7c-e9789c3090e0","ios":"levelo://app?vid=4958cb5f-80d4-4ab5-9f7c-e9789c3090e0"},"vehicle_type_id":"4","last_reported":1752322728,"current_range_meters":22000,"station_id":"ce4bgj92rcd13ifvqbd0","pricing_plan_id":"cebpf4jnsgd1na2vs0mg"},{"bike_id":"c04dd7ea-67af-45ac-b260-794b236b35f2","system_id":"levelo_inurba_marseille","lat":43.26204,"lon":5.37934,"is_reserved":false,"is_disabled":false,"rental_uris":{"android":"levelo://app?vid=c04dd7ea-67af-45ac-b260-794b236b35f2","ios":"levelo://app?vid=c04dd7ea-67af-45ac-b260-794b236b35f2"},"vehicle_type_id":"4","last_reported":1752322728,"current_range_meters":22000,"station_id":"ce4bhjp2rcd13ifvqg90","pricing_plan_id":"cebpf4jnsgd1na2vs0mg"},{"bike_id":"d2eb7848-4e16-492e-bb2e-34b216f30c20","system_id":"levelo_inurba_marseille","lat":43.25958,"lon":5.40884,"is_reserved":false,"is_disabled":false,"rental_uris":{"android":"levelo://app?vid=d2eb7848-4e16-492e-bb2e-34b216f30c20","ios":"levelo://app?vid=d2eb7848-4e16-492e-bb2e-34b216f30c20"},"vehicle_type_id":"4","last_reported":1752322728,"current_range_meters":22000,"station_id":"ce4bhm92rcd13ifvqglg","pricing_plan_id":"cebpf4jnsgd1na2vs0mg"},{"bike_id":"8c1f804e-5239-4ab4-8fd6-6515b0690b99","system_id":"levelo_inurba_marseille","lat":43.30127,"lon":5.38086,"is_reserved":false,"is_disabled":false,"rental_uris":{"android":"levelo://app?vid=8c1f804e-5239-4ab4-8fd6-6515b0690b99","ios":"levelo://app?vid=8c1f804e-5239-4ab4-8fd6-6515b0690b99"},"vehicle_type_id":"4","last_reported":1752322728,"current_range_meters":22000,"station_id":"ce4bgjp2rcd13ifvqbh0","pricing_plan_id":"cebpf4jnsgd1na2vs0mg"},{"bike_id":"cc6260c7-e588-42d7-afef-96c409802ccc","system_id":"levelo_inurba_marseille","lat":43.211927,"lon":5.350739,"is_reserved":false,"is_disabled":false,"rental_uris":{"android":"levelo://app?vid=cc6260c7-e588-42d7-afef-96c409802ccc","ios":"levelo://app?vid=cc6260c7-e588-42d7-afef-96c409802ccc"},"vehicle_type_id":"4","last_reported":1752322728,"current_range_meters":22000,"station_id":"st_cvj6sg6p6f1abm77japg","pricing_plan_id":"cebpf4jnsgd1na2vs0mg"},{"bike_id":"9a17a9f0-2f5c-41d0-8b7c-ea1c81a6d737","system_id":"levelo_inurba_marseille","lat":43.28157,"lon":5.42693,"is_reserved":false,"is_disabled":false,"rental_uris":{"android":"levelo://app?vid=9a17a9f0-2f5c-41d0-8b7c-ea1c81a6d737","ios":"levelo://app?vid=9a17a9f0-2f5c-41d0-8b7c-ea1c81a6d737"},"vehicle_type_id":"4","last_reported":1752322728,"current_range_meters":22000,"station_id":"ce4bhnh2rcd13ifvqgug","pricing_plan_id":"cebpf4jnsgd1na2vs0mg"},{"bike_id":"7b24d22c-7607-4d99-a30c-c524d01a3c3f","system_id":"levelo_inurba_marseille","lat":43.28628,"lon":5.35116,"is_reserved":false,"is_disabled":false,"rental_uris":{"android":"levelo://app?vid=7b24d22c-7607-4d99-a30c-c524d01a3c3f","ios":"levelo://app?vid=7b24d22c-7607-4d99-a30c-c524d01a3c3f"},"vehicle_type_id":"4","last_reported":1752322728,"current_range_meters":22400,"station_id":"ce4bhch2rcd13ifvqeug","pricing_plan_id":"cebpf4jnsgd1na2vs0mg"},{"bike_id":"9fc4a9a4-df65-4ffb-87a7-e95c9bee6d88","system_id":"levelo_inurba_marseille","lat":43.25086,"lon":5.39524,"is_reserved":false,"is_disabled":false,"rental_uris":{"android":"levelo://app?vid=9fc4a9a4-df65-4ffb-87a7-e95c9bee6d88","ios":"levelo://app?vid=9fc4a9a4-df65-4ffb-87a7-e95c9bee6d88"},"vehicle_type_id":"4","last_reported":1752322728,"current_range_meters":22400,"station_id":"ce4bhm12rcd13ifvqgkg","pricing_plan_id":"cebpf4jnsgd1na2vs0mg"},{"bike_id":"c8c4de1a-846f-4f5b-aace-9fb14bf7ad52","system_id":"levelo_inurba_marseille","lat":43.21198,"lon":5.3508,"is_reserved":false,"is_disabled":false,"rental_uris":{"android":"levelo://app?vid=c8c4de1a-846f-4f5b-aace-9fb14bf7ad52","ios":"levelo://app?vid=c8c4de1a-846f-4f5b-aace-9fb14bf7ad52"},"vehicle_type_id":"4","last_reported":1752322728,"current_range_meters":22400,"station_id":"st_cvj6sg6p6f1abm77japg","pricing_plan_id":"cebpf4jnsgd1na2vs0mg"},{"bike_id":"8b22b90f-8dce-4174-ada5-c96a818bd3c9","system_id":"levelo_inurba_marseille","lat":43.23183,"lon":5.39988,"is_reserved":false,"is_disabled":false,"rental_uris":{"android":"levelo://app?vid=8b22b90f-8dce-4174-ada5-c96a818bd3c9","ios":"levelo://app?vid=8b22b90f-8dce-4174-ada5-c96a818bd3c9"},"vehicle_type_id":"4","last_reported":1752322728,"current_range_meters":22400,"station_id":"ce4bhn12rcd13ifvqgqg","pricing_plan_id":"cebpf4jnsgd1na2vs0mg"},{"bike_id":"4524e4b3-b32a-4603-9cd7-ece970ecaf98","system_id":"levelo_inurba_marseille","lat":43.31493,"lon":5.37314,"is_reserved":false,"is_disabled":false,"rental_uris":{"android":"levelo://app?vid=4524e4b3-b32a-4603-9cd7-ece970ecaf98","ios":"levelo://app?vid=4524e4b3-b32a-4603-9cd7-ece970ecaf98"},"vehicle_type_id":"4","last_reported":1752322728,"current_range_meters":22800,"station_id":"ce4bgt12rcd13ifvqcd0","pricing_plan_id":"cebpf4jnsgd1na2vs0mg"},{"bike_id":"e551c81f-beb8-4535-a76a-0860bd6c5653","system_id":"levelo_inurba_marseille","lat":43.29433,"lon":5.38616,"is_reserved":false,"is_disabled":true,"rental_uris":{"android":"levelo://app?vid=e551c81f-beb8-4535-a76a-0860bd6c5653","ios":"levelo://app?vid=e551c81f-beb8-4535-a76a-0860bd6c5653"},"vehicle_type_id":"4","last_reported":1752322728,"current_range_meters":22800,"station_id":"ce4bh2h2rcd13ifvqdh0","pricing_plan_id":"cebpf4jnsgd1na2vs0mg"},{"bike_id":"f2fb1a27-229b-4308-85d8-8a1f7e7e327f","system_id":"levelo_inurba_marseille","lat":43.29311,"lon":5.37188,"is_reserved":false,"is_disabled":false,"rental_uris":{"android":"levelo://app?vid=f2fb1a27-229b-4308-85d8-8a1f7e7e327f","ios":"levelo://app?vid=f2fb1a27-229b-4308-85d8-8a1f7e7e327f"},"vehicle_type_id":"4","last_reported":1752322728,"current_range_meters":22800,"station_id":"ce4bgh92rcd13ifvqb40","pricing_plan_id":"cebpf4jnsgd1na2vs0mg"},{"bike_id":"99ae43ef-9981-41ec-907c-f94f73cc9ad2","system_id":"levelo_inurba_marseille","lat":43.29985,"lon":5.38484,"is_reserved":false,"is_disabled":false,"rental_uris":{"android":"levelo://app?vid=99ae43ef-9981-41ec-907c-f94f73cc9ad2","ios":"levelo://app?vid=99ae43ef-9981-41ec-907c-f94f73cc9ad2"},"vehicle_type_id":"4","last_reported":1752322728,"current_range_meters":22800,"station_id":"ce4bgj92rcd13ifvqbd0","pricing_plan_id":"cebpf4jnsgd1na2vs0mg"},{"bike_id":"2ec427da-b403-4a7e-86be-3f48ba535d18","system_id":"levelo_inurba_marseille","lat":43.21192,"lon":5.35086,"is_reserved":false,"is_disabled":false,"rental_uris":{"android":"levelo://app?vid=2ec427da-b403-4a7e-86be-3f48ba535d18","ios":"levelo://app?vid=2ec427da-b403-4a7e-86be-3f48ba535d18"},"vehicle_type_id":"4","last_reported":1752322728,"current_range_meters":23200,"station_id":"st_cvj6sg6p6f1abm77japg","pricing_plan_id":"cebpf4jnsgd1na2vs0mg"},{"bike_id":"1fe22ea2-cf55-4162-8b95-6bbd4d4bbc1c","system_id":"levelo_inurba_marseille","lat":43.27999,"lon":5.40008,"is_reserved":false,"is_disabled":false,"rental_uris":{"android":"levelo://app?vid=1fe22ea2-cf55-4162-8b95-6bbd4d4bbc1c","ios":"levelo://app?vid=1fe22ea2-cf55-4162-8b95-6bbd4d4bbc1c"},"vehicle_type_id":"4","last_reported":1752322728,"current_range_meters":23200,"station_id":"ce4bho92rcd13ifvqh4g","pricing_plan_id":"cebpf4jnsgd1na2vs0mg"},{"bike_id":"aef8031b-3be4-4e30-be88-bcc7141483fa","system_id":"levelo_inurba_marseille","lat":43.29272,"lon":5.37617,"is_reserved":false,"is_disabled":false,"rental_uris":{"android":"levelo://app?vid=aef8031b-3be4-4e30-be88-bcc7141483fa","ios":"levelo://app?vid=aef8031b-3be4-4e30-be88-bcc7141483fa"},"vehicle_type_id":"4","last_reported":1752322728,"current_range_meters":23200,"station_id":"ce4bgi12rcd13ifvqb80","pricing_plan_id":"cebpf4jnsgd1na2vs0mg"},{"bike_id":"5dc91c1e-fda1-4c49-9fa3-09df1ce152a2","system_id":"levelo_inurba_marseille","lat":43.28276,"lon":5.35057,"is_reserved":false,"is_disabled":true,"rental_uris":{"android":"levelo://app?vid=5dc91c1e-fda1-4c49-9fa3-09df1ce152a2","ios":"levelo://app?vid=5dc91c1e-fda1-4c49-9fa3-09df1ce152a2"},"vehicle_type_id":"4","last_reported":1752322728,"current_range_meters":23200,"station_id":"ce4bhbp2rcd13ifvqerg","pricing_plan_id":"cebpf4jnsgd1na2vs0mg"},{"bike_id":"b8339508-85dd-476b-994e-09b3009d6ee7","system_id":"levelo_inurba_marseille","lat":43.316981,"lon":5.389648,"is_reserved":false,"is_disabled":false,"rental_uris":{"android":"levelo://app?vid=b8339508-85dd-476b-994e-09b3009d6ee7","ios":"levelo://app?vid=b8339508-85dd-476b-994e-09b3009d6ee7"},"vehicle_type_id":"4","last_reported":1752322728,"current_range_meters":23200,"station_id":"ce4bhqp2rcd13ifvqhng","pricing_plan_id":"cebpf4jnsgd1na2vs0mg"},{"bike_id":"35be895d-4f52-405a-b291-531b064e5938","system_id":"levelo_inurba_marseille","lat":43.24165,"lon":5.36399,"is_reserved":false,"is_disabled":false,"rental_uris":{"android":"levelo://app?vid=35be895d-4f52-405a-b291-531b064e5938","ios":"levelo://app?vid=35be895d-4f52-405a-b291-531b064e5938"},"vehicle_type_id":"4","last_reported":1752322728,"current_range_meters":23200,"station_id":"cpo36qri1sfpv3e86is0","pricing_plan_id":"cebpf4jnsgd1na2vs0mg"},{"bike_id":"829a830c-9851-44c0-bb2d-f0af1d529b7c","system_id":"levelo_inurba_marseille","lat":43.28411,"lon":5.3498,"is_reserved":false,"is_disabled":false,"rental_uris":{"android":"levelo://app?vid=829a830c-9851-44c0-bb2d-f0af1d529b7c","ios":"levelo://app?vid=829a830c-9851-44c0-bb2d-f0af1d529b7c"},"vehicle_type_id":"4","last_reported":1752322728,"current_range_meters":23200,"station_id":"ce4bhbh2rcd13ifvqepg","pricing_plan_id":"cebpf4jnsgd1na2vs0mg"},{"bike_id":"d6f89ef3-5a99-416f-8028-578f2e72fc00","system_id":"levelo_inurba_marseille","lat":43.28421,"lon":5.34987,"is_reserved":false,"is_disabled":false,"rental_uris":{"android":"levelo://app?vid=d6f89ef3-5a99-416f-8028-578f2e72fc00","ios":"levelo://app?vid=d6f89ef3-5a99-416f-8028-578f2e72fc00"},"vehicle_type_id":"4","last_reported":1752322728,"current_range_meters":23200,"station_id":"ce4bhbh2rcd13ifvqepg","pricing_plan_id":"cebpf4jnsgd1na2vs0mg"},{"bike_id":"b799f899-220f-4d7e-bfad-6862bab05a50","system_id":"levelo_inurba_marseille","lat":43.2472,"lon":5.41172,"is_reserved":false,"is_disabled":false,"rental_uris":{"android":"levelo://app?vid=b799f899-220f-4d7e-bfad-6862bab05a50","ios":"levelo://app?vid=b799f899-220f-4d7e-bfad-6862bab05a50"},"vehicle_type_id":"4","last_reported":1752322728,"current_range_meters":23200,"station_id":"","pricing_plan_id":"cebpf4jnsgd1na2vs0mg"},{"bike_id":"697d5fc4-b988-4a4e-8323-c1ce5ed61a61","system_id":"levelo_inurba_marseille","lat":43.21209,"lon":5.35097,"is_reserved":false,"is_disabled":false,"rental_uris":{"android":"levelo://app?vid=697d5fc4-b988-4a4e-8323-c1ce5ed61a61","ios":"levelo://app?vid=697d5fc4-b988-4a4e-8323-c1ce5ed61a61"},"vehicle_type_id":"4","last_reported":1752322728,"current_range_meters":24000,"station_id":"st_cvj6sg6p6f1abm77japg","pricing_plan_id":"cebpf4jnsgd1na2vs0mg"},{"bike_id":"e18fa91e-7d8b-4d74-b9e2-8fc313b9ddc1","system_id":"levelo_inurba_marseille","lat":43.28269,"lon":5.35055,"is_reserved":false,"is_disabled":false,"rental_uris":{"android":"levelo://app?vid=e18fa91e-7d8b-4d74-b9e2-8fc313b9ddc1","ios":"levelo://app?vid=e18fa91e-7d8b-4d74-b9e2-8fc313b9ddc1"},"vehicle_type_id":"4","last_reported":1752322728,"current_range_meters":24000,"station_id":"ce4bhbp2rcd13ifvqerg","pricing_plan_id":"cebpf4jnsgd1na2vs0mg"},{"bike_id":"b29c635f-9f64-466c-a57c-b8a3bc4058b4","system_id":"levelo_inurba_marseille","lat":43.308381,"lon":5.400341,"is_reserved":false,"is_disabled":false,"rental_uris":{"android":"levelo://app?vid=b29c635f-9f64-466c-a57c-b8a3bc4058b4","ios":"levelo://app?vid=b29c635f-9f64-466c-a57c-b8a3bc4058b4"},"vehicle_type_id":"4","last_reported":1752322728,"current_range_meters":24000,"station_id":"","pricing_plan_id":"cebpf4jnsgd1na2vs0mg"},{"bike_id":"80955d0f-8669-4c02-b90f-c6fe20790c37","system_id":"levelo_inurba_marseille","lat":43.23206,"lon":5.35053,"is_reserved":false,"is_disabled":false,"rental_uris":{"android":"levelo://app?vid=80955d0f-8669-4c02-b90f-c6fe20790c37","ios":"levelo://app?vid=80955d0f-8669-4c02-b90f-c6fe20790c37"},"vehicle_type_id":"4","last_reported":1752322728,"current_range_meters":24000,"station_id":"","pricing_plan_id":"cebpf4jnsgd1na2vs0mg"},{"bike_id":"91435874-15b4-4070-b62c-70fa3df82355","system_id":"levelo_inurba_marseille","lat":43.29311,"lon":5.37177,"is_reserved":false,"is_disabled":false,"rental_uris":{"android":"levelo://app?vid=91435874-15b4-4070-b62c-70fa3df82355","ios":"levelo://app?vid=91435874-15b4-4070-b62c-70fa3df82355"},"vehicle_type_id":"4","last_reported":1752322728,"current_range_meters":24000,"station_id":"ce4bgh92rcd13ifvqb40","pricing_plan_id":"cebpf4jnsgd1na2vs0mg"},{"bike_id":"76f4b6e9-57ef-429f-98c8-4bbb716d6df8","system_id":"levelo_inurba_marseille","lat":43.27315,"lon":5.39084,"is_reserved":false,"is_disabled":false,"rental_uris":{"android":"levelo://app?vid=76f4b6e9-57ef-429f-98c8-4bbb716d6df8","ios":"levelo://app?vid=76f4b6e9-57ef-429f-98c8-4bbb716d6df8"},"vehicle_type_id":"4","last_reported":1752322728,"current_range_meters":24000,"station_id":"ce4bhgp2rcd13ifvqfe0","pricing_plan_id":"cebpf4jnsgd1na2vs0mg"},{"bike_id":"f59f6657-f62a-42fc-a273-bf50a25645d6","system_id":"levelo_inurba_marseille","lat":43.273694,"lon":5.362703,"is_reserved":false,"is_disabled":false,"rental_uris":{"android":"levelo://app?vid=f59f6657-f62a-42fc-a273-bf50a25645d6","ios":"levelo://app?vid=f59f6657-f62a-42fc-a273-bf50a25645d6"},"vehicle_type_id":"4","last_reported":1752322728,"current_range_meters":24000,"station_id":"ce4bhbh2rcd13ifvqeo0","pricing_plan_id":"cebpf4jnsgd1na2vs0mg"},{"bike_id":"e70543e7-167b-4af3-b232-f7bfecc2d30d","system_id":"levelo_inurba_marseille","lat":43.26213,"lon":5.37446,"is_reserved":false,"is_disabled":false,"rental_uris":{"android":"levelo://app?vid=e70543e7-167b-4af3-b232-f7bfecc2d30d","ios":"levelo://app?vid=e70543e7-167b-4af3-b232-f7bfecc2d30d"},"vehicle_type_id":"4","last_reported":1752322728,"current_range_meters":24000,"station_id":"ce4bhgp2rcd13ifvqfc0","pricing_plan_id":"cebpf4jnsgd1na2vs0mg"},{"bike_id":"c9131229-fc26-406d-9791-d9ba8a95b1f4","system_id":"levelo_inurba_marseille","lat":43.337703,"lon":5.374329,"is_reserved":false,"is_disabled":false,"rental_uris":{"android":"levelo://app?vid=c9131229-fc26-406d-9791-d9ba8a95b1f4","ios":"levelo://app?vid=c9131229-fc26-406d-9791-d9ba8a95b1f4"},"vehicle_type_id":"4","last_reported":1752322728,"current_range_meters":24000,"station_id":"","pricing_plan_id":"cebpf4jnsgd1na2vs0mg"},{"bike_id":"9effbed4-fe82-4678-a8f8-73dd6b58576c","system_id":"levelo_inurba_marseille","lat":43.307578,"lon":5.376691,"is_reserved":false,"is_disabled":false,"rental_uris":{"android":"levelo://app?vid=9effbed4-fe82-4678-a8f8-73dd6b58576c","ios":"levelo://app?vid=9effbed4-fe82-4678-a8f8-73dd6b58576c"},"vehicle_type_id":"4","last_reported":1752322728,"current_range_meters":24000,"station_id":"ce4bgv92rcd13ifvqcq0","pricing_plan_id":"cebpf4jnsgd1na2vs0mg"},{"bike_id":"8ad58758-a996-4b15-9696-9e763ae6ed1e","system_id":"levelo_inurba_marseille","lat":43.29293,"lon":5.3743,"is_reserved":false,"is_disabled":false,"rental_uris":{"android":"levelo://app?vid=8ad58758-a996-4b15-9696-9e763ae6ed1e","ios":"levelo://app?vid=8ad58758-a996-4b15-9696-9e763ae6ed1e"},"vehicle_type_id":"4","last_reported":1752322728,"current_range_meters":24000,"station_id":"ce4bgi12rcd13ifvqb70","pricing_plan_id":"cebpf4jnsgd1na2vs0mg"},{"bike_id":"ce24a0bb-5737-47d8-ab38-d3141f1e0b32","system_id":"levelo_inurba_marseille","lat":43.293033,"lon":5.374483,"is_reserved":false,"is_disabled":false,"rental_uris":{"android":"levelo://app?vid=ce24a0bb-5737-47d8-ab38-d3141f1e0b32","ios":"levelo://app?vid=ce24a0bb-5737-47d8-ab38-d3141f1e0b32"},"vehicle_type_id":"4","last_reported":1752322728,"current_range_meters":24000,"station_id":"ce4bgi12rcd13ifvqb70","pricing_plan_id":"cebpf4jnsgd1na2vs0mg"},{"bike_id":"2d4c05dd-5a63-40cd-b218-1f82c782ca9b","system_id":"levelo_inurba_marseille","lat":43.28886,"lon":5.3833,"is_reserved":false,"is_disabled":false,"rental_uris":{"android":"levelo://app?vid=2d4c05dd-5a63-40cd-b218-1f82c782ca9b","ios":"levelo://app?vid=2d4c05dd-5a63-40cd-b218-1f82c782ca9b"},"vehicle_type_id":"4","last_reported":1752322728,"current_range_meters":24000,"station_id":"","pricing_plan_id":"cebpf4jnsgd1na2vs0mg"},{"bike_id":"726189a3-f3c7-402d-b7af-70bf3b47f1e8","system_id":"levelo_inurba_marseille","lat":43.28942,"lon":5.36635,"is_reserved":false,"is_disabled":false,"rental_uris":{"android":"levelo://app?vid=726189a3-f3c7-402d-b7af-70bf3b47f1e8","ios":"levelo://app?vid=726189a3-f3c7-402d-b7af-70bf3b47f1e8"},"vehicle_type_id":"4","last_reported":1752322728,"current_range_meters":24000,"station_id":"ce4bhap2rcd13ifvqek0","pricing_plan_id":"cebpf4jnsgd1na2vs0mg"},{"bike_id":"ab86c647-d777-41b4-bcea-2738c8ae75dd","system_id":"levelo_inurba_marseille","lat":43.29917,"lon":5.38154,"is_reserved":false,"is_disabled":false,"rental_uris":{"android":"levelo://app?vid=ab86c647-d777-41b4-bcea-2738c8ae75dd","ios":"levelo://app?vid=ab86c647-d777-41b4-bcea-2738c8ae75dd"},"vehicle_type_id":"4","last_reported":1752322728,"current_range_meters":24400,"station_id":"ce4bgj12rcd13ifvqbc0","pricing_plan_id":"cebpf4jnsgd1na2vs0mg"},{"bike_id":"d59c2391-74a0-4be3-ac76-24c20574fbb2","system_id":"levelo_inurba_marseille","lat":43.243892,"lon":5.370591,"is_reserved":false,"is_disabled":false,"rental_uris":{"android":"levelo://app?vid=d59c2391-74a0-4be3-ac76-24c20574fbb2","ios":"levelo://app?vid=d59c2391-74a0-4be3-ac76-24c20574fbb2"},"vehicle_type_id":"4","last_reported":1752322728,"current_range_meters":24400,"station_id":"","pricing_plan_id":"cebpf4jnsgd1na2vs0mg"},{"bike_id":"5cb9f2ff-e30c-4f3f-a74a-22aaa10f216c","system_id":"levelo_inurba_marseille","lat":43.27866,"lon":5.37994,"is_reserved":false,"is_disabled":false,"rental_uris":{"android":"levelo://app?vid=5cb9f2ff-e30c-4f3f-a74a-22aaa10f216c","ios":"levelo://app?vid=5cb9f2ff-e30c-4f3f-a74a-22aaa10f216c"},"vehicle_type_id":"4","last_reported":1752322728,"current_range_meters":24400,"station_id":"ce4bhf92rcd13ifvqf50","pricing_plan_id":"cebpf4jnsgd1na2vs0mg"},{"bike_id":"cb827e9a-e7c2-47ac-af63-8db7e5fc0e36","system_id":"levelo_inurba_marseille","lat":43.28842,"lon":5.35841,"is_reserved":false,"is_disabled":false,"rental_uris":{"android":"levelo://app?vid=cb827e9a-e7c2-47ac-af63-8db7e5fc0e36","ios":"levelo://app?vid=cb827e9a-e7c2-47ac-af63-8db7e5fc0e36"},"vehicle_type_id":"4","last_reported":1752322728,"current_range_meters":24400,"station_id":"ce4bhb12rcd13ifvqem0","pricing_plan_id":"cebpf4jnsgd1na2vs0mg"},{"bike_id":"bca0d310-a339-447f-aa79-b7706f8ec279","system_id":"levelo_inurba_marseille","lat":43.288583,"lon":5.358563,"is_reserved":false,"is_disabled":false,"rental_uris":{"android":"levelo://app?vid=bca0d310-a339-447f-aa79-b7706f8ec279","ios":"levelo://app?vid=bca0d310-a339-447f-aa79-b7706f8ec279"},"vehicle_type_id":"4","last_reported":1752322728,"current_range_meters":24400,"station_id":"ce4bhb12rcd13ifvqem0","pricing_plan_id":"cebpf4jnsgd1na2vs0mg"},{"bike_id":"cb4fd389-c73a-459a-9cfd-f2fee8ef66d8","system_id":"levelo_inurba_marseille","lat":43.25498,"lon":5.37655,"is_reserved":false,"is_disabled":false,"rental_uris":{"android":"levelo://app?vid=cb4fd389-c73a-459a-9cfd-f2fee8ef66d8","ios":"levelo://app?vid=cb4fd389-c73a-459a-9cfd-f2fee8ef66d8"},"vehicle_type_id":"4","last_reported":1752322728,"current_range_meters":24400,"station_id":"ce4bhh12rcd13ifvqff0","pricing_plan_id":"cebpf4jnsgd1na2vs0mg"},{"bike_id":"6ac174d4-75c5-4a9c-9699-97cd631c6e65","system_id":"levelo_inurba_marseille","lat":43.25454,"lon":5.39931,"is_reserved":false,"is_disabled":false,"rental_uris":{"android":"levelo://app?vid=6ac174d4-75c5-4a9c-9699-97cd631c6e65","ios":"levelo://app?vid=6ac174d4-75c5-4a9c-9699-97cd631c6e65"},"vehicle_type_id":"4","last_reported":1752322728,"current_range_meters":24400,"station_id":"","pricing_plan_id":"cebpf4jnsgd1na2vs0mg"},{"bike_id":"da983724-2189-4fc3-8aaf-a6ee9bbfd66a","system_id":"levelo_inurba_marseille","lat":43.26975,"lon":5.40312,"is_reserved":false,"is_disabled":false,"rental_uris":{"android":"levelo://app?vid=da983724-2189-4fc3-8aaf-a6ee9bbfd66a","ios":"levelo://app?vid=da983724-2189-4fc3-8aaf-a6ee9bbfd66a"},"vehicle_type_id":"4","last_reported":1752322728,"current_range_meters":24400,"station_id":"cjm6bp8fraef2m0cb0m0","pricing_plan_id":"cebpf4jnsgd1na2vs0mg"},{"bike_id":"b640c36c-6c5a-408e-8ac7-d6548dede463","system_id":"levelo_inurba_marseille","lat":43.24078,"lon":5.37772,"is_reserved":false,"is_disabled":false,"rental_uris":{"android":"levelo://app?vid=b640c36c-6c5a-408e-8ac7-d6548dede463","ios":"levelo://app?vid=b640c36c-6c5a-408e-8ac7-d6548dede463"},"vehicle_type_id":"4","last_reported":1752322728,"current_range_meters":24400,"station_id":"ce4bhnp2rcd13ifvqgvg","pricing_plan_id":"cebpf4jnsgd1na2vs0mg"},{"bike_id":"a4d07f45-19f9-4df9-9728-be6623530a64","system_id":"levelo_inurba_marseille","lat":43.23709,"lon":5.38829,"is_reserved":false,"is_disabled":false,"rental_uris":{"android":"levelo://app?vid=a4d07f45-19f9-4df9-9728-be6623530a64","ios":"levelo://app?vid=a4d07f45-19f9-4df9-9728-be6623530a64"},"vehicle_type_id":"4","last_reported":1752322728,"current_range_meters":24400,"station_id":"","pricing_plan_id":"cebpf4jnsgd1na2vs0mg"},{"bike_id":"75770942-350a-4d24-84a9-dd42393ebb2d","system_id":"levelo_inurba_marseille","lat":43.31329,"lon":5.3969,"is_reserved":false,"is_disabled":false,"rental_uris":{"android":"levelo://app?vid=75770942-350a-4d24-84a9-dd42393ebb2d","ios":"levelo://app?vid=75770942-350a-4d24-84a9-dd42393ebb2d"},"vehicle_type_id":"4","last_reported":1752322728,"current_range_meters":24400,"station_id":"ce4bgvp2rcd13ifvqcu0","pricing_plan_id":"cebpf4jnsgd1na2vs0mg"},{"bike_id":"a0a4a0b9-4624-43dc-a5eb-a0f1f472ae26","system_id":"levelo_inurba_marseille","lat":43.24398,"lon":5.37069,"is_reserved":false,"is_disabled":false,"rental_uris":{"android":"levelo://app?vid=a0a4a0b9-4624-43dc-a5eb-a0f1f472ae26","ios":"levelo://app?vid=a0a4a0b9-4624-43dc-a5eb-a0f1f472ae26"},"vehicle_type_id":"4","last_reported":1752322728,"current_range_meters":24400,"station_id":"ce4bhhh2rcd13ifvqfk0","pricing_plan_id":"cebpf4jnsgd1na2vs0mg"},{"bike_id":"9dfa0b3e-146f-4013-a547-43c18930d91a","system_id":"levelo_inurba_marseille","lat":43.30154,"lon":5.38079,"is_reserved":false,"is_disabled":false,"rental_uris":{"android":"levelo://app?vid=9dfa0b3e-146f-4013-a547-43c18930d91a","ios":"levelo://app?vid=9dfa0b3e-146f-4013-a547-43c18930d91a"},"vehicle_type_id":"4","last_reported":1752322728,"current_range_meters":24400,"station_id":"ce4bgjp2rcd13ifvqbh0","pricing_plan_id":"cebpf4jnsgd1na2vs0mg"},{"bike_id":"8a01e88a-8371-4085-9838-47ae11897cd3","system_id":"levelo_inurba_marseille","lat":43.28148,"lon":5.42639,"is_reserved":false,"is_disabled":true,"rental_uris":{"android":"levelo://app?vid=8a01e88a-8371-4085-9838-47ae11897cd3","ios":"levelo://app?vid=8a01e88a-8371-4085-9838-47ae11897cd3"},"vehicle_type_id":"4","last_reported":1752322728,"current_range_meters":24400,"station_id":"ce4bhnh2rcd13ifvqgug","pricing_plan_id":"cebpf4jnsgd1na2vs0mg"},{"bike_id":"b0dbe822-1a7e-4c38-8a75-64ece60ce61a","system_id":"levelo_inurba_marseille","lat":43.296153,"lon":5.377353,"is_reserved":false,"is_disabled":false,"rental_uris":{"android":"levelo://app?vid=b0dbe822-1a7e-4c38-8a75-64ece60ce61a","ios":"levelo://app?vid=b0dbe822-1a7e-4c38-8a75-64ece60ce61a"},"vehicle_type_id":"4","last_reported":1752322728,"current_range_meters":24800,"station_id":"ce4bgi92rcd13ifvqb90","pricing_plan_id":"cebpf4jnsgd1na2vs0mg"},{"bike_id":"e7f4c594-ce78-4b5e-a37c-6864bf61150e","system_id":"levelo_inurba_marseille","lat":43.27614,"lon":5.36115,"is_reserved":false,"is_disabled":false,"rental_uris":{"android":"levelo://app?vid=e7f4c594-ce78-4b5e-a37c-6864bf61150e","ios":"levelo://app?vid=e7f4c594-ce78-4b5e-a37c-6864bf61150e"},"vehicle_type_id":"4","last_reported":1752322728,"current_range_meters":24800,"station_id":"ce4bgj92rcd13ifvqbe0","pricing_plan_id":"cebpf4jnsgd1na2vs0mg"},{"bike_id":"94887ac9-0846-4cb6-bc1c-45e3dbbfa0cf","system_id":"levelo_inurba_marseille","lat":43.29609,"lon":5.37723,"is_reserved":false,"is_disabled":false,"rental_uris":{"android":"levelo://app?vid=94887ac9-0846-4cb6-bc1c-45e3dbbfa0cf","ios":"levelo://app?vid=94887ac9-0846-4cb6-bc1c-45e3dbbfa0cf"},"vehicle_type_id":"4","last_reported":1752322728,"current_range_meters":24800,"station_id":"ce4bgi92rcd13ifvqb90","pricing_plan_id":"cebpf4jnsgd1na2vs0mg"},{"bike_id":"57c84c66-066e-4358-b1d0-aebc3e80469c","system_id":"levelo_inurba_marseille","lat":43.29377,"lon":5.3786,"is_reserved":false,"is_disabled":false,"rental_uris":{"android":"levelo://app?vid=57c84c66-066e-4358-b1d0-aebc3e80469c","ios":"levelo://app?vid=57c84c66-066e-4358-b1d0-aebc3e80469c"},