{"last_updated":1746807169,"ttl":60,"version":"2.2","data":{"bikes":[{"bike_id":"f01df43f-b8bb-40ce-a512-6f0338ebc36e","system_id":"levelo_inurba_marseille","lat":43.286064,"lon":5.37063,"is_reserved":false,"is_disabled":false,"rental_uris":{"android":"levelo://app?vid=f01df43f-b8bb-40ce-a512-6f0338ebc36e","ios":"levelo://app?vid=f01df43f-b8bb-40ce-a512-6f0338ebc36e"},"vehicle_type_id":"4","last_reported":1746807169,"current_range_meters":2800,"station_id":"","pricing_plan_id":"cebpf4jnsgd1na2vs0mg"},{"bike_id":"d46b4286-2bc6-49d6-9e8e-067e8785b0a7","system_id":"levelo_inurba_marseille","lat":43.27846,"lon":5.39215,"is_reserved":false,"is_disabled":false,"rental_uris":{"android":"levelo://app?vid=d46b4286-2bc6-49d6-9e8e-067e8785b0a7","ios":"levelo://app?vid=d46b4286-2bc6-49d6-9e8e-067e8785b0a7"},"vehicle_type_id":"4","last_reported":1746807169,"current_range_meters":2800,"station_id":"ce4bhjp2rcd13ifvqga0","pricing_plan_id":"cebpf4jnsgd1na2vs0mg"},{"bike_id":"a857f590-c7ec-4536-aac8-b128367310b7","system_id":"levelo_inurba_marseille","lat":43.27618,"lon":5.36111,"is_reserved":false,"is_disabled":false,"rental_uris":{"android":"levelo://app?vid=a857f590-c7ec-4536-aac8-b128367310b7","ios":"levelo://app?vid=a857f590-c7ec-4536-aac8-b128367310b7"},"vehicle_type_id":"4","last_reported":1746807169,"current_range_meters":2800,"station_id":"ce4bgj92rcd13ifvqbe0","pricing_plan_id":"cebpf4jnsgd1na2vs0mg"},{"bike_id":"9e9b83e2-778b-45dd-8f24-42595f4d48f0","system_id":"levelo_inurba_marseille","lat":43.21751,"lon":5.34601,"is_reserved":false,"is_disabled":false,"rental_uris":{"android":"levelo://app?vid=9e9b83e2-778b-45dd-8f24-42595f4d48f0","ios":"levelo://app?vid=9e9b83e2-778b-45dd-8f24-42595f4d48f0"},"vehicle_type_id":"4","last_reported":1746807169,"current_range_meters":3200,"station_id":"st_cvj6r9ubvosntc0bgbag","pricing_plan_id":"cebpf4jnsgd1na2vs0mg"},{"bike_id":"39fee3b6-7972-4229-8d58-1bba2febac66","system_id":"levelo_inurba_marseille","lat":43.21751,"lon":5.34613,"is_reserved":false,"is_disabled":false,"rental_uris":{"android":"levelo://app?vid=39fee3b6-7972-4229-8d58-1bba2febac66","ios":"levelo://app?vid=39fee3b6-7972-4229-8d58-1bba2febac66"},"vehicle_type_id":"4","last_reported":1746807169,"current_range_meters":3200,"station_id":"st_cvj6r9ubvosntc0bgbag","pricing_plan_id":"cebpf4jnsgd1na2vs0mg"},{"bike_id":"e70a6cc7-17eb-4c4e-8e7c-f66b5cfc0fab","system_id":"levelo_inurba_marseille","lat":43.21218,"lon":5.35112,"is_reserved":false,"is_disabled":false,"rental_uris":{"android":"levelo://app?vid=e70a6cc7-17eb-4c4e-8e7c-f66b5cfc0fab","ios":"levelo://app?vid=e70a6cc7-17eb-4c4e-8e7c-f66b5cfc0fab"},"vehicle_type_id":"4","last_reported":1746807169,"current_range_meters":3200,"station_id":"st_cvj6sg6p6f1abm77japg","pricing_plan_id":"cebpf4jnsgd1na2vs0mg"},{"bike_id":"4fe0a975-ee71-43f6-86c6-c65233435b8e","system_id":"levelo_inurba_marseille","lat":43.30641,"lon":5.40075,"is_reserved":false,"is_disabled":false,"rental_uris":{"android":"levelo://app?vid=4fe0a975-ee71-43f6-86c6-c65233435b8e","ios":"levelo://app?vid=4fe0a975-ee71-43f6-86c6-c65233435b8e"},"vehicle_type_id":"4","last_reported":1746807169,"current_range_meters":3600,"station_id":"ce4bh112rcd13ifvqda0","pricing_plan_id":"cebpf4jnsgd1na2vs0mg"},{"bike_id":"8b815cbe-f568-489a-be55-52b0780c00d4","system_id":"levelo_inurba_marseille","lat":43.28144,"lon":5.42653,"is_reserved":false,"is_disabled":false,"rental_uris":{"android":"levelo://app?vid=8b815cbe-f568-489a-be55-52b0780c00d4","ios":"levelo://app?vid=8b815cbe-f568-489a-be55-52b0780c00d4"},"vehicle_type_id":"4","last_reported":1746807169,"current_range_meters":4000,"station_id":"ce4bhnh2rcd13ifvqgug","pricing_plan_id":"cebpf4jnsgd1na2vs0mg"},{"bike_id":"61cf580d-e630-4a7b-be75-ac2d827cfc86","system_id":"levelo_inurba_marseille","lat":43.27209,"lon":5.39187,"is_reserved":false,"is_disabled":false,"rental_uris":{"android":"levelo://app?vid=61cf580d-e630-4a7b-be75-ac2d827cfc86","ios":"levelo://app?vid=61cf580d-e630-4a7b-be75-ac2d827cfc86"},"vehicle_type_id":"4","last_reported":1746807169,"current_range_meters":4000,"station_id":"ce4bhhp2rcd13ifvqfm0","pricing_plan_id":"cebpf4jnsgd1na2vs0mg"},{"bike_id":"a2a05490-2f77-4122-b255-947606acc493","system_id":"levelo_inurba_marseille","lat":43.2987,"lon":5.39741,"is_reserved":false,"is_disabled":false,"rental_uris":{"android":"levelo://app?vid=a2a05490-2f77-4122-b255-947606acc493","ios":"levelo://app?vid=a2a05490-2f77-4122-b255-947606acc493"},"vehicle_type_id":"4","last_reported":1746807169,"current_range_meters":4400,"station_id":"ce4bh0h2rcd13ifvqd50","pricing_plan_id":"cebpf4jnsgd1na2vs0mg"},{"bike_id":"a29542ce-7eb2-4976-b3f1-2dace36bc04a","system_id":"levelo_inurba_marseille","lat":43.28998,"lon":5.35612,"is_reserved":false,"is_disabled":false,"rental_uris":{"android":"levelo://app?vid=a29542ce-7eb2-4976-b3f1-2dace36bc04a","ios":"levelo://app?vid=a29542ce-7eb2-4976-b3f1-2dace36bc04a"},"vehicle_type_id":"4","last_reported":1746807169,"current_range_meters":4400,"station_id":"ce4bhb92rcd13ifvqen0","pricing_plan_id":"cebpf4jnsgd1na2vs0mg"},{"bike_id":"6b669ecc-3429-4273-a1dd-f0cc68270ee9","system_id":"levelo_inurba_marseille","lat":43.29533,"lon":5.38551,"is_reserved":false,"is_disabled":false,"rental_uris":{"android":"levelo://app?vid=6b669ecc-3429-4273-a1dd-f0cc68270ee9","ios":"levelo://app?vid=6b669ecc-3429-4273-a1dd-f0cc68270ee9"},"vehicle_type_id":"4","last_reported":1746807169,"current_range_meters":4800,"station_id":"ce4bgih2rcd13ifvqba0","pricing_plan_id":"cebpf4jnsgd1na2vs0mg"},{"bike_id":"589d5d5b-db42-4542-92dd-6d3f21109017","system_id":"levelo_inurba_marseille","lat":43.30211,"lon":5.45396,"is_reserved":false,"is_disabled":false,"rental_uris":{"android":"levelo://app?vid=589d5d5b-db42-4542-92dd-6d3f21109017","ios":"levelo://app?vid=589d5d5b-db42-4542-92dd-6d3f21109017"},"vehicle_type_id":"4","last_reported":1746807169,"current_range_meters":4800,"station_id":"","pricing_plan_id":"cebpf4jnsgd1na2vs0mg"},{"bike_id":"00555251-d1ba-498d-a8c3-72c1255a76d4","system_id":"levelo_inurba_marseille","lat":43.26571,"lon":5.39007,"is_reserved":false,"is_disabled":false,"rental_uris":{"android":"levelo://app?vid=00555251-d1ba-498d-a8c3-72c1255a76d4","ios":"levelo://app?vid=00555251-d1ba-498d-a8c3-72c1255a76d4"},"vehicle_type_id":"4","last_reported":1746807169,"current_range_meters":4800,"station_id":"ce4bhe12rcd13ifvqf30","pricing_plan_id":"cebpf4jnsgd1na2vs0mg"},{"bike_id":"fc1de7df-82ec-4643-bea8-899ee18e916e","system_id":"levelo_inurba_marseille","lat":43.28618,"lon":5.35103,"is_reserved":false,"is_disabled":false,"rental_uris":{"android":"levelo://app?vid=fc1de7df-82ec-4643-bea8-899ee18e916e","ios":"levelo://app?vid=fc1de7df-82ec-4643-bea8-899ee18e916e"},"vehicle_type_id":"4","last_reported":1746807169,"current_range_meters":5600,"station_id":"ce4bhch2rcd13ifvqeug","pricing_plan_id":"cebpf4jnsgd1na2vs0mg"},{"bike_id":"af44b6b7-06af-4c19-8105-49b4080b5e1d","system_id":"levelo_inurba_marseille","lat":43.23176,"lon":5.40036,"is_reserved":false,"is_disabled":false,"rental_uris":{"android":"levelo://app?vid=af44b6b7-06af-4c19-8105-49b4080b5e1d","ios":"levelo://app?vid=af44b6b7-06af-4c19-8105-49b4080b5e1d"},"vehicle_type_id":"4","last_reported":1746807169,"current_range_meters":6000,"station_id":"ce4bhn12rcd13ifvqgqg","pricing_plan_id":"cebpf4jnsgd1na2vs0mg"},{"bike_id":"3c6d0c37-471a-4ce7-b166-52edc6a87b8b","system_id":"levelo_inurba_marseille","lat":43.262095,"lon":5.40457,"is_reserved":false,"is_disabled":true,"rental_uris":{"android":"levelo://app?vid=3c6d0c37-471a-4ce7-b166-52edc6a87b8b","ios":"levelo://app?vid=3c6d0c37-471a-4ce7-b166-52edc6a87b8b"},"vehicle_type_id":"4","last_reported":1746807169,"current_range_meters":6000,"station_id":"ce4bhmh2rcd13ifvqgmg","pricing_plan_id":"cebpf4jnsgd1na2vs0mg"},{"bike_id":"0f5ca589-0ef7-428d-94ec-f0fc8b76ceb4","system_id":"levelo_inurba_marseille","lat":43.28154,"lon":5.42641,"is_reserved":false,"is_disabled":false,"rental_uris":{"android":"levelo://app?vid=0f5ca589-0ef7-428d-94ec-f0fc8b76ceb4","ios":"levelo://app?vid=0f5ca589-0ef7-428d-94ec-f0fc8b76ceb4"},"vehicle_type_id":"4","last_reported":1746807169,"current_range_meters":6400,"station_id":"ce4bhnh2rcd13ifvqgug","pricing_plan_id":"cebpf4jnsgd1na2vs0mg"},{"bike_id":"25a5deed-e52b-4641-9602-fde3571c6af5","system_id":"levelo_inurba_marseille","lat":43.31729,"lon":5.39013,"is_reserved":false,"is_disabled":false,"rental_uris":{"android":"levelo://app?vid=25a5deed-e52b-4641-9602-fde3571c6af5","ios":"levelo://app?vid=25a5deed-e52b-4641-9602-fde3571c6af5"},"vehicle_type_id":"4","last_reported":1746807169,"current_range_meters":6400,"station_id":"ce4bhqp2rcd13ifvqhng","pricing_plan_id":"cebpf4jnsgd1na2vs0mg"},{"bike_id":"eabcf1d9-a892-41ce-a74e-0adb37f34f87","system_id":"levelo_inurba_marseille","lat":43.28919,"lon":5.384,"is_reserved":false,"is_disabled":false,"rental_uris":{"android":"levelo://app?vid=eabcf1d9-a892-41ce-a74e-0adb37f34f87","ios":"levelo://app?vid=eabcf1d9-a892-41ce-a74e-0adb37f34f87"},"vehicle_type_id":"4","last_reported":1746807169,"current_range_meters":6000,"station_id":"ce4bh612rcd13ifvqe6g","pricing_plan_id":"cebpf4jnsgd1na2vs0mg"},{"bike_id":"b86b7b12-6482-451d-a387-a84207f4d396","system_id":"levelo_inurba_marseille","lat":43.27588,"lon":5.38415,"is_reserved":false,"is_disabled":false,"rental_uris":{"android":"levelo://app?vid=b86b7b12-6482-451d-a387-a84207f4d396","ios":"levelo://app?vid=b86b7b12-6482-451d-a387-a84207f4d396"},"vehicle_type_id":"4","last_reported":1746807169,"current_range_meters":6000,"station_id":"ce4bhh92rcd13ifvqfi0","pricing_plan_id":"cebpf4jnsgd1na2vs0mg"},{"bike_id":"992c645c-2cb5-4884-a683-752b6a5d6d46","system_id":"levelo_inurba_marseille","lat":43.28101,"lon":5.37851,"is_reserved":false,"is_disabled":false,"rental_uris":{"android":"levelo://app?vid=992c645c-2cb5-4884-a683-752b6a5d6d46","ios":"levelo://app?vid=992c645c-2cb5-4884-a683-752b6a5d6d46"},"vehicle_type_id":"4","last_reported":1746807169,"current_range_meters":6800,"station_id":"ce4bha12rcd13ifvqee0","pricing_plan_id":"cebpf4jnsgd1na2vs0mg"},{"bike_id":"f8bd5ba1-0844-4c6d-9b78-f958f1313745","system_id":"levelo_inurba_marseille","lat":43.29339,"lon":5.42836,"is_reserved":false,"is_disabled":false,"rental_uris":{"android":"levelo://app?vid=f8bd5ba1-0844-4c6d-9b78-f958f1313745","ios":"levelo://app?vid=f8bd5ba1-0844-4c6d-9b78-f958f1313745"},"vehicle_type_id":"4","last_reported":1746807169,"current_range_meters":6800,"station_id":"","pricing_plan_id":"cebpf4jnsgd1na2vs0mg"},{"bike_id":"0c326406-dc4f-4ce5-9dca-ee39515f4e4b","system_id":"levelo_inurba_marseille","lat":43.26772,"lon":5.39422,"is_reserved":false,"is_disabled":false,"rental_uris":{"android":"levelo://app?vid=0c326406-dc4f-4ce5-9dca-ee39515f4e4b","ios":"levelo://app?vid=0c326406-dc4f-4ce5-9dca-ee39515f4e4b"},"vehicle_type_id":"4","last_reported":1746807169,"current_range_meters":6800,"station_id":"ce4bhh12rcd13ifvqfg0","pricing_plan_id":"cebpf4jnsgd1na2vs0mg"},{"bike_id":"85aca280-c0aa-47a3-9369-d100569d2c78","system_id":"levelo_inurba_marseille","lat":43.25577,"lon":5.38251,"is_reserved":false,"is_disabled":false,"rental_uris":{"android":"levelo://app?vid=85aca280-c0aa-47a3-9369-d100569d2c78","ios":"levelo://app?vid=85aca280-c0aa-47a3-9369-d100569d2c78"},"vehicle_type_id":"4","last_reported":1746807169,"current_range_meters":7200,"station_id":"ce4bhih2rcd13ifvqfs0","pricing_plan_id":"cebpf4jnsgd1na2vs0mg"},{"bike_id":"fc01e7d0-8b46-40f1-8398-55071e760a2f","system_id":"levelo_inurba_marseille","lat":43.25565,"lon":5.38245,"is_reserved":false,"is_disabled":false,"rental_uris":{"android":"levelo://app?vid=fc01e7d0-8b46-40f1-8398-55071e760a2f","ios":"levelo://app?vid=fc01e7d0-8b46-40f1-8398-55071e760a2f"},"vehicle_type_id":"4","last_reported":1746807169,"current_range_meters":8000,"station_id":"ce4bhih2rcd13ifvqfs0","pricing_plan_id":"cebpf4jnsgd1na2vs0mg"},{"bike_id":"f673a50d-776a-4d4f-8bc2-0f75017ffb52","system_id":"levelo_inurba_marseille","lat":43.284499,"lon":5.358347,"is_reserved":false,"is_disabled":false,"rental_uris":{"android":"levelo://app?vid=f673a50d-776a-4d4f-8bc2-0f75017ffb52","ios":"levelo://app?vid=f673a50d-776a-4d4f-8bc2-0f75017ffb52"},"vehicle_type_id":"4","last_reported":1746807169,"current_range_meters":8000,"station_id":"ce4bhah2rcd13ifvqei0","pricing_plan_id":"cebpf4jnsgd1na2vs0mg"},{"bike_id":"5496794a-d5e7-4d0e-9c9e-73c339d19aa3","system_id":"levelo_inurba_marseille","lat":43.30232,"lon":5.40062,"is_reserved":false,"is_disabled":false,"rental_uris":{"android":"levelo://app?vid=5496794a-d5e7-4d0e-9c9e-73c339d19aa3","ios":"levelo://app?vid=5496794a-d5e7-4d0e-9c9e-73c339d19aa3"},"vehicle_type_id":"4","last_reported":1746807169,"current_range_meters":8000,"station_id":"","pricing_plan_id":"cebpf4jnsgd1na2vs0mg"},{"bike_id":"7a70bd67-ef32-4c57-b6c2-6bf8fc51054f","system_id":"levelo_inurba_marseille","lat":43.27946,"lon":5.41778,"is_reserved":false,"is_disabled":false,"rental_uris":{"android":"levelo://app?vid=7a70bd67-ef32-4c57-b6c2-6bf8fc51054f","ios":"levelo://app?vid=7a70bd67-ef32-4c57-b6c2-6bf8fc51054f"},"vehicle_type_id":"4","last_reported":1746807169,"current_range_meters":8000,"station_id":"","pricing_plan_id":"cebpf4jnsgd1na2vs0mg"},{"bike_id":"4041ce6d-8ac7-4497-a685-a06fffaf65ad","system_id":"levelo_inurba_marseille","lat":43.2907,"lon":5.37176,"is_reserved":false,"is_disabled":false,"rental_uris":{"android":"levelo://app?vid=4041ce6d-8ac7-4497-a685-a06fffaf65ad","ios":"levelo://app?vid=4041ce6d-8ac7-4497-a685-a06fffaf65ad"},"vehicle_type_id":"4","last_reported":1746807169,"current_range_meters":8000,"station_id":"ce4bh5p2rcd13ifvqe4g","pricing_plan_id":"cebpf4jnsgd1na2vs0mg"},{"bike_id":"4ecbeb8d-ce33-4682-bc3d-10e583869b2f","system_id":"levelo_inurba_marseille","lat":43.2868,"lon":5.38672,"is_reserved":false,"is_disabled":false,"rental_uris":{"android":"levelo://app?vid=4ecbeb8d-ce33-4682-bc3d-10e583869b2f","ios":"levelo://app?vid=4ecbeb8d-ce33-4682-bc3d-10e583869b2f"},"vehicle_type_id":"4","last_reported":1746807169,"current_range_meters":8000,"station_id":"ce4bh492rcd13ifvqdug","pricing_plan_id":"cebpf4jnsgd1na2vs0mg"},{"bike_id":"bd82954d-a2f5-455d-8238-9a9d097a0bf5","system_id":"levelo_inurba_marseille","lat":43.25501,"lon":5.37658,"is_reserved":false,"is_disabled":false,"rental_uris":{"android":"levelo://app?vid=bd82954d-a2f5-455d-8238-9a9d097a0bf5","ios":"levelo://app?vid=bd82954d-a2f5-455d-8238-9a9d097a0bf5"},"vehicle_type_id":"4","last_reported":1746807169,"current_range_meters":8400,"station_id":"ce4bhh12rcd13ifvqff0","pricing_plan_id":"cebpf4jnsgd1na2vs0mg"},{"bike_id":"283c096d-9775-40df-9ef5-3ff56b9146cb","system_id":"levelo_inurba_marseille","lat":43.22936,"lon":5.35407,"is_reserved":false,"is_disabled":true,"rental_uris":{"android":"levelo://app?vid=283c096d-9775-40df-9ef5-3ff56b9146cb","ios":"levelo://app?vid=283c096d-9775-40df-9ef5-3ff56b9146cb"},"vehicle_type_id":"4","last_reported":1746807169,"current_range_meters":8400,"station_id":"cpo3532slgdg3j2ikp40","pricing_plan_id":"cebpf4jnsgd1na2vs0mg"},{"bike_id":"47bb6f34-9c89-4a6c-b2ec-6a2d3e007f08","system_id":"levelo_inurba_marseille","lat":43.25726,"lon":5.4108,"is_reserved":false,"is_disabled":false,"rental_uris":{"android":"levelo://app?vid=47bb6f34-9c89-4a6c-b2ec-6a2d3e007f08","ios":"levelo://app?vid=47bb6f34-9c89-4a6c-b2ec-6a2d3e007f08"},"vehicle_type_id":"4","last_reported":1746807169,"current_range_meters":8400,"station_id":"ce4bhkp2rcd13ifvqgd0","pricing_plan_id":"cebpf4jnsgd1na2vs0mg"},{"bike_id":"caf9033d-5f00-49c3-b1ee-1328b62008dc","system_id":"levelo_inurba_marseille","lat":43.33592,"lon":5.42842,"is_reserved":false,"is_disabled":false,"rental_uris":{"android":"levelo://app?vid=caf9033d-5f00-49c3-b1ee-1328b62008dc","ios":"levelo://app?vid=caf9033d-5f00-49c3-b1ee-1328b62008dc"},"vehicle_type_id":"4","last_reported":1746807169,"current_range_meters":8400,"station_id":"","pricing_plan_id":"cebpf4jnsgd1na2vs0mg"},{"bike_id":"50cbe77f-5715-4714-93d6-1f152d01ccae","system_id":"levelo_inurba_marseille","lat":43.25496,"lon":5.37648,"is_reserved":false,"is_disabled":false,"rental_uris":{"android":"levelo://app?vid=50cbe77f-5715-4714-93d6-1f152d01ccae","ios":"levelo://app?vid=50cbe77f-5715-4714-93d6-1f152d01ccae"},"vehicle_type_id":"4","last_reported":1746807169,"current_range_meters":8800,"station_id":"ce4bhh12rcd13ifvqff0","pricing_plan_id":"cebpf4jnsgd1na2vs0mg"},{"bike_id":"79698536-7cba-49fa-b3c1-398169114942","system_id":"levelo_inurba_marseille","lat":43.29777,"lon":5.37098,"is_reserved":false,"is_disabled":false,"rental_uris":{"android":"levelo://app?vid=79698536-7cba-49fa-b3c1-398169114942","ios":"levelo://app?vid=79698536-7cba-49fa-b3c1-398169114942"},"vehicle_type_id":"4","last_reported":1746807169,"current_range_meters":8800,"station_id":"ce4bgop2rcd13ifvqc1g","pricing_plan_id":"cebpf4jnsgd1na2vs0mg"},{"bike_id":"812e31b7-42f9-4d63-b220-e99af5c192ed","system_id":"levelo_inurba_marseille","lat":43.31179,"lon":5.41614,"is_reserved":false,"is_disabled":false,"rental_uris":{"android":"levelo://app?vid=812e31b7-42f9-4d63-b220-e99af5c192ed","ios":"levelo://app?vid=812e31b7-42f9-4d63-b220-e99af5c192ed"},"vehicle_type_id":"4","last_reported":1746807169,"current_range_meters":8800,"station_id":"","pricing_plan_id":"cebpf4jnsgd1na2vs0mg"},{"bike_id":"9aa6a5df-14ff-44ec-958f-8084311a0176","system_id":"levelo_inurba_marseille","lat":43.266969,"lon":5.382653,"is_reserved":false,"is_disabled":false,"rental_uris":{"android":"levelo://app?vid=9aa6a5df-14ff-44ec-958f-8084311a0176","ios":"levelo://app?vid=9aa6a5df-14ff-44ec-958f-8084311a0176"},"vehicle_type_id":"4","last_reported":1746807169,"current_range_meters":8800,"station_id":"ce4bhg92rcd13ifvqf90","pricing_plan_id":"cebpf4jnsgd1na2vs0mg"},{"bike_id":"592cad86-318e-4ec0-9fb6-ee209f56982a","system_id":"levelo_inurba_marseille","lat":43.30399,"lon":5.37652,"is_reserved":false,"is_disabled":false,"rental_uris":{"android":"levelo://app?vid=592cad86-318e-4ec0-9fb6-ee209f56982a","ios":"levelo://app?vid=592cad86-318e-4ec0-9fb6-ee209f56982a"},"vehicle_type_id":"4","last_reported":1746807169,"current_range_meters":8800,"station_id":"","pricing_plan_id":"cebpf4jnsgd1na2vs0mg"},{"bike_id":"99fc4a95-b999-4e9c-80fe-f3a2fd295e06","system_id":"levelo_inurba_marseille","lat":43.27941,"lon":5.41048,"is_reserved":false,"is_disabled":false,"rental_uris":{"android":"levelo://app?vid=99fc4a95-b999-4e9c-80fe-f3a2fd295e06","ios":"levelo://app?vid=99fc4a95-b999-4e9c-80fe-f3a2fd295e06"},"vehicle_type_id":"4","last_reported":1746807169,"current_range_meters":9200,"station_id":"ce4bhnp2rcd13ifvqh0g","pricing_plan_id":"cebpf4jnsgd1na2vs0mg"},{"bike_id":"4aa10eba-08b7-4e4b-bfc5-52ce79651b0b","system_id":"levelo_inurba_marseille","lat":43.23137,"lon":5.43711,"is_reserved":false,"is_disabled":false,"rental_uris":{"android":"levelo://app?vid=4aa10eba-08b7-4e4b-bfc5-52ce79651b0b","ios":"levelo://app?vid=4aa10eba-08b7-4e4b-bfc5-52ce79651b0b"},"vehicle_type_id":"4","last_reported":1746807169,"current_range_meters":9200,"station_id":"ce4bhmp2rcd13ifvqgog","pricing_plan_id":"cebpf4jnsgd1na2vs0mg"},{"bike_id":"0b55c677-34d4-4e75-b0ad-68943bad8e21","system_id":"levelo_inurba_marseille","lat":43.27174,"lon":5.4099,"is_reserved":false,"is_disabled":false,"rental_uris":{"android":"levelo://app?vid=0b55c677-34d4-4e75-b0ad-68943bad8e21","ios":"levelo://app?vid=0b55c677-34d4-4e75-b0ad-68943bad8e21"},"vehicle_type_id":"4","last_reported":1746807169,"current_range_meters":9200,"station_id":"ce4bhl12rcd13ifvqgf0","pricing_plan_id":"cebpf4jnsgd1na2vs0mg"},{"bike_id":"3a965e32-0e21-402c-babe-9fa80d6674d3","system_id":"levelo_inurba_marseille","lat":43.27147,"lon":5.40946,"is_reserved":false,"is_disabled":false,"rental_uris":{"android":"levelo://app?vid=3a965e32-0e21-402c-babe-9fa80d6674d3","ios":"levelo://app?vid=3a965e32-0e21-402c-babe-9fa80d6674d3"},"vehicle_type_id":"4","last_reported":1746807169,"current_range_meters":9200,"station_id":"ce4bhl12rcd13ifvqgf0","pricing_plan_id":"cebpf4jnsgd1na2vs0mg"},{"bike_id":"b0bd544c-c79d-4f1f-bc20-dee1136224c6","system_id":"levelo_inurba_marseille","lat":43.24388,"lon":5.37059,"is_reserved":false,"is_disabled":false,"rental_uris":{"android":"levelo://app?vid=b0bd544c-c79d-4f1f-bc20-dee1136224c6","ios":"levelo://app?vid=b0bd544c-c79d-4f1f-bc20-dee1136224c6"},"vehicle_type_id":"4","last_reported":1746807169,"current_range_meters":9200,"station_id":"ce4bhhh2rcd13ifvqfk0","pricing_plan_id":"cebpf4jnsgd1na2vs0mg"},{"bike_id":"975f7a7a-575c-4fc6-88d0-282b813753e1","system_id":"levelo_inurba_marseille","lat":43.28938,"lon":5.38409,"is_reserved":false,"is_disabled":false,"rental_uris":{"android":"levelo://app?vid=975f7a7a-575c-4fc6-88d0-282b813753e1","ios":"levelo://app?vid=975f7a7a-575c-4fc6-88d0-282b813753e1"},"vehicle_type_id":"4","last_reported":1746807169,"current_range_meters":9200,"station_id":"ce4bh612rcd13ifvqe6g","pricing_plan_id":"cebpf4jnsgd1na2vs0mg"},{"bike_id":"1208665b-a689-4e32-8f85-40c17fb8f568","system_id":"levelo_inurba_marseille","lat":43.28161,"lon":5.42645,"is_reserved":false,"is_disabled":false,"rental_uris":{"android":"levelo://app?vid=1208665b-a689-4e32-8f85-40c17fb8f568","ios":"levelo://app?vid=1208665b-a689-4e32-8f85-40c17fb8f568"},"vehicle_type_id":"4","last_reported":1746807169,"current_range_meters":9200,"station_id":"ce4bhnh2rcd13ifvqgug","pricing_plan_id":"cebpf4jnsgd1na2vs0mg"},{"bike_id":"1600e36d-d1f1-4d66-986f-f1438e611005","system_id":"levelo_inurba_marseille","lat":43.3008,"lon":5.39071,"is_reserved":false,"is_disabled":false,"rental_uris":{"android":"levelo://app?vid=1600e36d-d1f1-4d66-986f-f1438e611005","ios":"levelo://app?vid=1600e36d-d1f1-4d66-986f-f1438e611005"},"vehicle_type_id":"4","last_reported":1746807169,"current_range_meters":9600,"station_id":"ce4bh192rcd13ifvqdb0","pricing_plan_id":"cebpf4jnsgd1na2vs0mg"},{"bike_id":"80f36bd2-c6e8-4578-afa1-11101a7762bd","system_id":"levelo_inurba_marseille","lat":43.30237,"lon":5.4005,"is_reserved":false,"is_disabled":false,"rental_uris":{"android":"levelo://app?vid=80f36bd2-c6e8-4578-afa1-11101a7762bd","ios":"levelo://app?vid=80f36bd2-c6e8-4578-afa1-11101a7762bd"},"vehicle_type_id":"4","last_reported":1746807169,"current_range_meters":9600,"station_id":"ce4bgvh2rcd13ifvqcs0","pricing_plan_id":"cebpf4jnsgd1na2vs0mg"},{"bike_id":"7a5fadd3-8c62-41d9-a6bb-67d5e88b5d9f","system_id":"levelo_inurba_marseille","lat":43.31655,"lon":5.40489,"is_reserved":false,"is_disabled":false,"rental_uris":{"android":"levelo://app?vid=7a5fadd3-8c62-41d9-a6bb-67d5e88b5d9f","ios":"levelo://app?vid=7a5fadd3-8c62-41d9-a6bb-67d5e88b5d9f"},"vehicle_type_id":"4","last_reported":1746807169,"current_range_meters":9600,"station_id":"ce4bh012rcd13ifvqd00","pricing_plan_id":"cebpf4jnsgd1na2vs0mg"},{"bike_id":"caccb556-2ad0-45b8-84b8-819024dd44e6","system_id":"levelo_inurba_marseille","lat":43.29803,"lon":5.36828,"is_reserved":false,"is_disabled":false,"rental_uris":{"android":"levelo://app?vid=caccb556-2ad0-45b8-84b8-819024dd44e6","ios":"levelo://app?vid=caccb556-2ad0-45b8-84b8-819024dd44e6"},"vehicle_type_id":"4","last_reported":1746807169,"current_range_meters":9600,"station_id":"","pricing_plan_id":"cebpf4jnsgd1na2vs0mg"},{"bike_id":"a5035683-e922-4659-b77f-9b07031bc84e","system_id":"levelo_inurba_marseille","lat":43.21772,"lon":5.34607,"is_reserved":false,"is_disabled":true,"rental_uris":{"android":"levelo://app?vid=a5035683-e922-4659-b77f-9b07031bc84e","ios":"levelo://app?vid=a5035683-e922-4659-b77f-9b07031bc84e"},"vehicle_type_id":"4","last_reported":1746807169,"current_range_meters":9600,"station_id":"st_cvj6r9ubvosntc0bgbag","pricing_plan_id":"cebpf4jnsgd1na2vs0mg"},{"bike_id":"7bbddab9-ce58-49c5-8696-be4254399f31","system_id":"levelo_inurba_marseille","lat":43.2927,"lon":5.36848,"is_reserved":false,"is_disabled":true,"rental_uris":{"android":"levelo://app?vid=7bbddab9-ce58-49c5-8696-be4254399f31","ios":"levelo://app?vid=7bbddab9-ce58-49c5-8696-be4254399f31"},"vehicle_type_id":"4","last_reported":1746807169,"current_range_meters":9600,"station_id":"ce4bhbp2rcd13ifvqesg","pricing_plan_id":"cebpf4jnsgd1na2vs0mg"},{"bike_id":"755c3d16-02a1-4bed-8cec-e4a745a278c5","system_id":"levelo_inurba_marseille","lat":43.27956,"lon":5.38724,"is_reserved":false,"is_disabled":false,"rental_uris":{"android":"levelo://app?vid=755c3d16-02a1-4bed-8cec-e4a745a278c5","ios":"levelo://app?vid=755c3d16-02a1-4bed-8cec-e4a745a278c5"},"vehicle_type_id":"4","last_reported":1746807169,"current_range_meters":9600,"station_id":"ce4bhg12rcd13ifvqf80","pricing_plan_id":"cebpf4jnsgd1na2vs0mg"},{"bike_id":"2a78c172-24b5-4319-9105-214ef01c631e","system_id":"levelo_inurba_marseille","lat":43.24544,"lon":5.39545,"is_reserved":false,"is_disabled":false,"rental_uris":{"android":"levelo://app?vid=2a78c172-24b5-4319-9105-214ef01c631e","ios":"levelo://app?vid=2a78c172-24b5-4319-9105-214ef01c631e"},"vehicle_type_id":"4","last_reported":1746807169,"current_range_meters":9600,"station_id":"ce4bhlp2rcd13ifvqgjg","pricing_plan_id":"cebpf4jnsgd1na2vs0mg"},{"bike_id":"86bc8c3e-b40f-4494-bcaf-2c13ca119bd5","system_id":"levelo_inurba_marseille","lat":43.28155,"lon":5.42647,"is_reserved":false,"is_disabled":false,"rental_uris":{"android":"levelo://app?vid=86bc8c3e-b40f-4494-bcaf-2c13ca119bd5","ios":"levelo://app?vid=86bc8c3e-b40f-4494-bcaf-2c13ca119bd5"},"vehicle_type_id":"4","last_reported":1746807169,"current_range_meters":9600,"station_id":"ce4bhnh2rcd13ifvqgug","pricing_plan_id":"cebpf4jnsgd1na2vs0mg"},{"bike_id":"686e62ff-dc72-4d42-abe2-8e0513122cbc","system_id":"levelo_inurba_marseille","lat":43.27908,"lon":5.38017,"is_reserved":false,"is_disabled":false,"rental_uris":{"android":"levelo://app?vid=686e62ff-dc72-4d42-abe2-8e0513122cbc","ios":"levelo://app?vid=686e62ff-dc72-4d42-abe2-8e0513122cbc"},"vehicle_type_id":"4","last_reported":1746807169,"current_range_meters":9600,"station_id":"ce4bhf92rcd13ifvqf50","pricing_plan_id":"cebpf4jnsgd1na2vs0mg"},{"bike_id":"cfc24371-1dbb-47e2-ab98-22ee7bfe9524","system_id":"levelo_inurba_marseille","lat":43.292,"lon":5.35798,"is_reserved":false,"is_disabled":false,"rental_uris":{"android":"levelo://app?vid=cfc24371-1dbb-47e2-ab98-22ee7bfe9524","ios":"levelo://app?vid=cfc24371-1dbb-47e2-ab98-22ee7bfe9524"},"vehicle_type_id":"4","last_reported":1746807169,"current_range_meters":10000,"station_id":"ce4bhb12rcd13ifvqel0","pricing_plan_id":"cebpf4jnsgd1na2vs0mg"},{"bike_id":"51d0cb43-b907-4fea-a444-7b836beb81a6","system_id":"levelo_inurba_marseille","lat":43.28424,"lon":5.34986,"is_reserved":false,"is_disabled":false,"rental_uris":{"android":"levelo://app?vid=51d0cb43-b907-4fea-a444-7b836beb81a6","ios":"levelo://app?vid=51d0cb43-b907-4fea-a444-7b836beb81a6"},"vehicle_type_id":"4","last_reported":1746807169,"current_range_meters":10000,"station_id":"ce4bhbh2rcd13ifvqepg","pricing_plan_id":"cebpf4jnsgd1na2vs0mg"},{"bike_id":"b0c54ead-2c9a-4d45-904a-5e1b9abf7338","system_id":"levelo_inurba_marseille","lat":43.278884,"lon":5.440735,"is_reserved":false,"is_disabled":false,"rental_uris":{"android":"levelo://app?vid=b0c54ead-2c9a-4d45-904a-5e1b9abf7338","ios":"levelo://app?vid=b0c54ead-2c9a-4d45-904a-5e1b9abf7338"},"vehicle_type_id":"4","last_reported":1746807169,"current_range_meters":10000,"station_id":"","pricing_plan_id":"cebpf4jnsgd1na2vs0mg"},{"bike_id":"3c7670ff-3628-42b4-8ea8-664d4fa357dd","system_id":"levelo_inurba_marseille","lat":43.27973,"lon":5.41574,"is_reserved":false,"is_disabled":false,"rental_uris":{"android":"levelo://app?vid=3c7670ff-3628-42b4-8ea8-664d4fa357dd","ios":"levelo://app?vid=3c7670ff-3628-42b4-8ea8-664d4fa357dd"},"vehicle_type_id":"4","last_reported":1746807169,"current_range_meters":10000,"station_id":"","pricing_plan_id":"cebpf4jnsgd1na2vs0mg"},{"bike_id":"adf98837-1db8-4829-bcc3-4d8761a74f8a","system_id":"levelo_inurba_marseille","lat":43.27848,"lon":5.39213,"is_reserved":false,"is_disabled":false,"rental_uris":{"android":"levelo://app?vid=adf98837-1db8-4829-bcc3-4d8761a74f8a","ios":"levelo://app?vid=adf98837-1db8-4829-bcc3-4d8761a74f8a"},"vehicle_type_id":"4","last_reported":1746807169,"current_range_meters":10000,"station_id":"ce4bhjp2rcd13ifvqga0","pricing_plan_id":"cebpf4jnsgd1na2vs0mg"},{"bike_id":"21a520ef-4056-41c1-9006-724d71716bda","system_id":"levelo_inurba_marseille","lat":43.29929,"lon":5.3656,"is_reserved":false,"is_disabled":false,"rental_uris":{"android":"levelo://app?vid=21a520ef-4056-41c1-9006-724d71716bda","ios":"levelo://app?vid=21a520ef-4056-41c1-9006-724d71716bda"},"vehicle_type_id":"4","last_reported":1746807169,"current_range_meters":10000,"station_id":"ce4bgm92rcd13ifvqbr0","pricing_plan_id":"cebpf4jnsgd1na2vs0mg"},{"bike_id":"29cc5d55-87e5-4129-9987-40225bc7ea33","system_id":"levelo_inurba_marseille","lat":43.3063,"lon":5.40094,"is_reserved":false,"is_disabled":false,"rental_uris":{"android":"levelo://app?vid=29cc5d55-87e5-4129-9987-40225bc7ea33","ios":"levelo://app?vid=29cc5d55-87e5-4129-9987-40225bc7ea33"},"vehicle_type_id":"4","last_reported":1746807169,"current_range_meters":10800,"station_id":"ce4bh112rcd13ifvqda0","pricing_plan_id":"cebpf4jnsgd1na2vs0mg"},{"bike_id":"044478cb-8194-4092-b984-4fc9c042ef68","system_id":"levelo_inurba_marseille","lat":43.28775,"lon":5.46529,"is_reserved":false,"is_disabled":false,"rental_uris":{"android":"levelo://app?vid=044478cb-8194-4092-b984-4fc9c042ef68","ios":"levelo://app?vid=044478cb-8194-4092-b984-4fc9c042ef68"},"vehicle_type_id":"4","last_reported":1746807169,"current_range_meters":10800,"station_id":"","pricing_plan_id":"cebpf4jnsgd1na2vs0mg"},{"bike_id":"23fa325c-5746-4f21-ae22-6935ae1a0b43","system_id":"levelo_inurba_marseille","lat":43.299596,"lon":5.413263,"is_reserved":false,"is_disabled":false,"rental_uris":{"android":"levelo://app?vid=23fa325c-5746-4f21-ae22-6935ae1a0b43","ios":"levelo://app?vid=23fa325c-5746-4f21-ae22-6935ae1a0b43"},"vehicle_type_id":"4","last_reported":1746807169,"current_range_meters":11200,"station_id":"ce4bhp12rcd13ifvqh9g","pricing_plan_id":"cebpf4jnsgd1na2vs0mg"},{"bike_id":"c5f081df-980c-4699-b19a-715d547b4a4f","system_id":"levelo_inurba_marseille","lat":43.29002,"lon":5.35607,"is_reserved":false,"is_disabled":false,"rental_uris":{"android":"levelo://app?vid=c5f081df-980c-4699-b19a-715d547b4a4f","ios":"levelo://app?vid=c5f081df-980c-4699-b19a-715d547b4a4f"},"vehicle_type_id":"4","last_reported":1746807169,"current_range_meters":11600,"station_id":"ce4bhb92rcd13ifvqen0","pricing_plan_id":"cebpf4jnsgd1na2vs0mg"},{"bike_id":"81cb1c52-6cf5-4523-8f34-8059d73d81db","system_id":"levelo_inurba_marseille","lat":43.27057,"lon":5.42265,"is_reserved":false,"is_disabled":false,"rental_uris":{"android":"levelo://app?vid=81cb1c52-6cf5-4523-8f34-8059d73d81db","ios":"levelo://app?vid=81cb1c52-6cf5-4523-8f34-8059d73d81db"},"vehicle_type_id":"4","last_reported":1746807169,"current_range_meters":11200,"station_id":"ce4bhk92rcd13ifvqgb0","pricing_plan_id":"cebpf4jnsgd1na2vs0mg"},{"bike_id":"ece27808-caa3-4deb-96c7-04097c718c7c","system_id":"levelo_inurba_marseille","lat":43.28707,"lon":5.39968,"is_reserved":false,"is_disabled":true,"rental_uris":{"android":"levelo://app?vid=ece27808-caa3-4deb-96c7-04097c718c7c","ios":"levelo://app?vid=ece27808-caa3-4deb-96c7-04097c718c7c"},"vehicle_type_id":"4","last_reported":1746807169,"current_range_meters":11600,"station_id":"ce4bho92rcd13ifvqh3g","pricing_plan_id":"cebpf4jnsgd1na2vs0mg"},{"bike_id":"d173aa68-ac29-4aee-be94-a2dc30490f90","system_id":"levelo_inurba_marseille","lat":43.25745,"lon":5.41114,"is_reserved":false,"is_disabled":false,"rental_uris":{"android":"levelo://app?vid=d173aa68-ac29-4aee-be94-a2dc30490f90","ios":"levelo://app?vid=d173aa68-ac29-4aee-be94-a2dc30490f90"},"vehicle_type_id":"4","last_reported":1746807169,"current_range_meters":12000,"station_id":"ce4bhkp2rcd13ifvqgd0","pricing_plan_id":"cebpf4jnsgd1na2vs0mg"},{"bike_id":"cc6f9c62-2924-4e7e-830b-b1eec505a08f","system_id":"levelo_inurba_marseille","lat":43.28263,"lon":5.35073,"is_reserved":false,"is_disabled":false,"rental_uris":{"android":"levelo://app?vid=cc6f9c62-2924-4e7e-830b-b1eec505a08f","ios":"levelo://app?vid=cc6f9c62-2924-4e7e-830b-b1eec505a08f"},"vehicle_type_id":"4","last_reported":1746807169,"current_range_meters":12000,"station_id":"ce4bhbp2rcd13ifvqerg","pricing_plan_id":"cebpf4jnsgd1na2vs0mg"},{"bike_id":"67814e8c-52fe-4ebf-9e08-3c63043944e1","system_id":"levelo_inurba_marseille","lat":43.24547,"lon":5.39524,"is_reserved":false,"is_disabled":false,"rental_uris":{"android":"levelo://app?vid=67814e8c-52fe-4ebf-9e08-3c63043944e1","ios":"levelo://app?vid=67814e8c-52fe-4ebf-9e08-3c63043944e1"},"vehicle_type_id":"4","last_reported":1746807169,"current_range_meters":12000,"station_id":"ce4bhlp2rcd13ifvqgjg","pricing_plan_id":"cebpf4jnsgd1na2vs0mg"},{"bike_id":"40ecbdfa-669c-4581-aeaa-e4548ca01901","system_id":"levelo_inurba_marseille","lat":43.26578,"lon":5.39018,"is_reserved":false,"is_disabled":false,"rental_uris":{"android":"levelo://app?vid=40ecbdfa-669c-4581-aeaa-e4548ca01901","ios":"levelo://app?vid=40ecbdfa-669c-4581-aeaa-e4548ca01901"},"vehicle_type_id":"4","last_reported":1746807169,"current_range_meters":12000,"station_id":"ce4bhe12rcd13ifvqf30","pricing_plan_id":"cebpf4jnsgd1na2vs0mg"},{"bike_id":"201b3e1b-2a9b-464a-9bc5-6fac58507cf7","system_id":"levelo_inurba_marseille","lat":43.26934,"lon":5.40265,"is_reserved":false,"is_disabled":false,"rental_uris":{"android":"levelo://app?vid=201b3e1b-2a9b-464a-9bc5-6fac58507cf7","ios":"levelo://app?vid=201b3e1b-2a9b-464a-9bc5-6fac58507cf7"},"vehicle_type_id":"4","last_reported":1746807169,"current_range_meters":12400,"station_id":"cjm6bp8fraef2m0cb0m0","pricing_plan_id":"cebpf4jnsgd1na2vs0mg"},{"bike_id":"5315527b-fd23-47f1-b360-f9cfd3042076","system_id":"levelo_inurba_marseille","lat":43.281067,"lon":5.37829,"is_reserved":false,"is_disabled":false,"rental_uris":{"android":"levelo://app?vid=5315527b-fd23-47f1-b360-f9cfd3042076","ios":"levelo://app?vid=5315527b-fd23-47f1-b360-f9cfd3042076"},"vehicle_type_id":"4","last_reported":1746807169,"current_range_meters":12400,"station_id":"ce4bha12rcd13ifvqee0","pricing_plan_id":"cebpf4jnsgd1na2vs0mg"},{"bike_id":"3e598f82-0050-4e79-a94b-0d760106ca0c","system_id":"levelo_inurba_marseille","lat":43.266737,"lon":5.382767,"is_reserved":false,"is_disabled":false,"rental_uris":{"android":"levelo://app?vid=3e598f82-0050-4e79-a94b-0d760106ca0c","ios":"levelo://app?vid=3e598f82-0050-4e79-a94b-0d760106ca0c"},"vehicle_type_id":"4","last_reported":1746807169,"current_range_meters":12400,"station_id":"ce4bhg92rcd13ifvqf90","pricing_plan_id":"cebpf4jnsgd1na2vs0mg"},{"bike_id":"47f96c26-d90a-4292-86a2-a1fc200468dd","system_id":"levelo_inurba_marseille","lat":43.323818,"lon":5.367575,"is_reserved":false,"is_disabled":false,"rental_uris":{"android":"levelo://app?vid=47f96c26-d90a-4292-86a2-a1fc200468dd","ios":"levelo://app?vid=47f96c26-d90a-4292-86a2-a1fc200468dd"},"vehicle_type_id":"4","last_reported":1746807169,"current_range_meters":12400,"station_id":"ce4bhsh2rcd13ifvqi2g","pricing_plan_id":"cebpf4jnsgd1na2vs0mg"},{"bike_id":"e62d7219-d58e-4cdd-8080-935e117b0bfd","system_id":"levelo_inurba_marseille","lat":43.28594,"lon":5.3512,"is_reserved":false,"is_disabled":false,"rental_uris":{"android":"levelo://app?vid=e62d7219-d58e-4cdd-8080-935e117b0bfd","ios":"levelo://app?vid=e62d7219-d58e-4cdd-8080-935e117b0bfd"},"vehicle_type_id":"4","last_reported":1746807169,"current_range_meters":12400,"station_id":"ce4bhch2rcd13ifvqeug","pricing_plan_id":"cebpf4jnsgd1na2vs0mg"},{"bike_id":"fcd65f44-482b-4166-a30b-2694e8a76da4","system_id":"levelo_inurba_marseille","lat":43.279914,"lon":5.400103,"is_reserved":false,"is_disabled":false,"rental_uris":{"android":"levelo://app?vid=fcd65f44-482b-4166-a30b-2694e8a76da4","ios":"levelo://app?vid=fcd65f44-482b-4166-a30b-2694e8a76da4"},"vehicle_type_id":"4","last_reported":1746807169,"current_range_meters":12400,"station_id":"ce4bho92rcd13ifvqh4g","pricing_plan_id":"cebpf4jnsgd1na2vs0mg"},{"bike_id":"a1886a3e-4731-4209-bc59-b4cb566ed9e5","system_id":"levelo_inurba_marseille","lat":43.26946,"lon":5.40242,"is_reserved":false,"is_disabled":false,"rental_uris":{"android":"levelo://app?vid=a1886a3e-4731-4209-bc59-b4cb566ed9e5","ios":"levelo://app?vid=a1886a3e-4731-4209-bc59-b4cb566ed9e5"},"vehicle_type_id":"4","last_reported":1746807169,"current_range_meters":12800,"station_id":"cjm6bp8fraef2m0cb0m0","pricing_plan_id":"cebpf4jnsgd1na2vs0mg"},{"bike_id":"524e256c-f880-47f5-adc9-c17a5c909829","system_id":"levelo_inurba_marseille","lat":43.29219,"lon":5.36088,"is_reserved":false,"is_disabled":false,"rental_uris":{"android":"levelo://app?vid=524e256c-f880-47f5-adc9-c17a5c909829","ios":"levelo://app?vid=524e256c-f880-47f5-adc9-c17a5c909829"},"vehicle_type_id":"4","last_reported":1746807169,"current_range_meters":13600,"station_id":"ce4bhbh2rcd13ifvqeqg","pricing_plan_id":"cebpf4jnsgd1na2vs0mg"},{"bike_id":"7109da3d-3aea-48cf-a3c0-cd880a43accf","system_id":"levelo_inurba_marseille","lat":43.28922,"lon":5.36644,"is_reserved":false,"is_disabled":false,"rental_uris":{"android":"levelo://app?vid=7109da3d-3aea-48cf-a3c0-cd880a43accf","ios":"levelo://app?vid=7109da3d-3aea-48cf-a3c0-cd880a43accf"},"vehicle_type_id":"4","last_reported":1746807169,"current_range_meters":13600,"station_id":"ce4bhap2rcd13ifvqek0","pricing_plan_id":"cebpf4jnsgd1na2vs0mg"},{"bike_id":"5e539fc1-1181-4cd8-a150-63791303e21e","system_id":"levelo_inurba_marseille","lat":43.31102,"lon":5.42437,"is_reserved":false,"is_disabled":false,"rental_uris":{"android":"levelo://app?vid=5e539fc1-1181-4cd8-a150-63791303e21e","ios":"levelo://app?vid=5e539fc1-1181-4cd8-a150-63791303e21e"},"vehicle_type_id":"4","last_reported":1746807169,"current_range_meters":13600,"station_id":"ce4bhp92rcd13ifvqhag","pricing_plan_id":"cebpf4jnsgd1na2vs0mg"},{"bike_id":"d0f227f7-1be4-4b00-b1e4-d4fa98206b59","system_id":"levelo_inurba_marseille","lat":43.26942,"lon":5.40248,"is_reserved":false,"is_disabled":false,"rental_uris":{"android":"levelo://app?vid=d0f227f7-1be4-4b00-b1e4-d4fa98206b59","ios":"levelo://app?vid=d0f227f7-1be4-4b00-b1e4-d4fa98206b59"},"vehicle_type_id":"4","last_reported":1746807169,"current_range_meters":12800,"station_id":"cjm6bp8fraef2m0cb0m0","pricing_plan_id":"cebpf4jnsgd1na2vs0mg"},{"bike_id":"b2d239cf-7590-4142-ae62-88878dc7377d","system_id":"levelo_inurba_marseille","lat":43.2841,"lon":5.35008,"is_reserved":false,"is_disabled":false,"rental_uris":{"android":"levelo://app?vid=b2d239cf-7590-4142-ae62-88878dc7377d","ios":"levelo://app?vid=b2d239cf-7590-4142-ae62-88878dc7377d"},"vehicle_type_id":"4","last_reported":1746807169,"current_range_meters":13600,"station_id":"ce4bhbh2rcd13ifvqepg","pricing_plan_id":"cebpf4jnsgd1na2vs0mg"},{"bike_id":"e6282093-23fb-41a9-859d-c0d9ad966535","system_id":"levelo_inurba_marseille","lat":43.31545,"lon":5.3823,"is_reserved":false,"is_disabled":false,"rental_uris":{"android":"levelo://app?vid=e6282093-23fb-41a9-859d-c0d9ad966535","ios":"levelo://app?vid=e6282093-23fb-41a9-859d-c0d9ad966535"},"vehicle_type_id":"4","last_reported":1746807169,"current_range_meters":13600,"station_id":"","pricing_plan_id":"cebpf4jnsgd1na2vs0mg"},{"bike_id":"40e732e1-5df3-409b-823c-91d552e297a0","system_id":"levelo_inurba_marseille","lat":43.30793,"lon":5.43536,"is_reserved":false,"is_disabled":false,"rental_uris":{"android":"levelo://app?vid=40e732e1-5df3-409b-823c-91d552e297a0","ios":"levelo://app?vid=40e732e1-5df3-409b-823c-91d552e297a0"},"vehicle_type_id":"4","last_reported":1746807169,"current_range_meters":13600,"station_id":"ce4bhph2rcd13ifvqheg","pricing_plan_id":"cebpf4jnsgd1na2vs0mg"},{"bike_id":"7cbedbd4-0666-4d80-8d19-bbc8625696c7","system_id":"levelo_inurba_marseille","lat":43.29787,"lon":5.40406,"is_reserved":false,"is_disabled":false,"rental_uris":{"android":"levelo://app?vid=7cbedbd4-0666-4d80-8d19-bbc8625696c7","ios":"levelo://app?vid=7cbedbd4-0666-4d80-8d19-bbc8625696c7"},"vehicle_type_id":"4","last_reported":1746807169,"current_range_meters":13600,"station_id":"ce4bh112rcd13ifvqd90","pricing_plan_id":"cebpf4jnsgd1na2vs0mg"},{"bike_id":"36d54903-b67c-4f0e-90a3-3c0965f36de5","system_id":"levelo_inurba_marseille","lat":43.25505,"lon":5.37651,"is_reserved":false,"is_disabled":false,"rental_uris":{"android":"levelo://app?vid=36d54903-b67c-4f0e-90a3-3c0965f36de5","ios":"levelo://app?vid=36d54903-b67c-4f0e-90a3-3c0965f36de5"},"vehicle_type_id":"4","last_reported":1746807169,"current_range_meters":12800,"station_id":"","pricing_plan_id":"cebpf4jnsgd1na2vs0mg"},{"bike_id":"f1b6c327-3a5c-4e5a-9001-e8ed8c68b52e","system_id":"levelo_inurba_marseille","lat":43.29851,"lon":5.36285,"is_reserved":false,"is_disabled":false,"rental_uris":{"android":"levelo://app?vid=f1b6c327-3a5c-4e5a-9001-e8ed8c68b52e","ios":"levelo://app?vid=f1b6c327-3a5c-4e5a-9001-e8ed8c68b52e"},"vehicle_type_id":"4","last_reported":1746807169,"current_range_meters":13600,"station_id":"","pricing_plan_id":"cebpf4jnsgd1na2vs0mg"},{"bike_id":"e5041194-9a9b-4f66-a3c3-f2bbbc705731","system_id":"levelo_inurba_marseille","lat":43.2834,"lon":5.38109,"is_reserved":false,"is_disabled":false,"rental_uris":{"android":"levelo://app?vid=e5041194-9a9b-4f66-a3c3-f2bbbc705731","ios":"levelo://app?vid=e5041194-9a9b-4f66-a3c3-f2bbbc705731"},"vehicle_type_id":"4","last_reported":1746807169,"current_range_meters":14000,"station_id":"ce4bh412rcd13ifvqdr0","pricing_plan_id":"cebpf4jnsgd1na2vs0mg"},{"bike_id":"0cba2588-f0b4-4c5b-aeab-0ec8bbbf3064","system_id":"levelo_inurba_marseille","lat":43.25592,"lon":5.38273,"is_reserved":false,"is_disabled":false,"rental_uris":{"android":"levelo://app?vid=0cba2588-f0b4-4c5b-aeab-0ec8bbbf3064","ios":"levelo://app?vid=0cba2588-f0b4-4c5b-aeab-0ec8bbbf3064"},"vehicle_type_id":"4","last_reported":1746807169,"current_range_meters":14000,"station_id":"ce4bhih2rcd13ifvqfs0","pricing_plan_id":"cebpf4jnsgd1na2vs0mg"},{"bike_id":"257486f5-03bd-4b74-b96f-72b61bd25309","system_id":"levelo_inurba_marseille","lat":43.2858,"lon":5.35086,"is_reserved":false,"is_disabled":false,"rental_uris":{"android":"levelo://app?vid=257486f5-03bd-4b74-b96f-72b61bd25309","ios":"levelo://app?vid=257486f5-03bd-4b74-b96f-72b61bd25309"},"vehicle_type_id":"4","last_reported":1746807169,"current_range_meters":14000,"station_id":"ce4bhch2rcd13ifvqeug","pricing_plan_id":"cebpf4jnsgd1na2vs0mg"},{"bike_id":"ce007fed-711b-4204-a095-75188f28fb70","system_id":"levelo_inurba_marseille","lat":43.26939,"lon":5.40264,"is_reserved":false,"is_disabled":false,"rental_uris":{"android":"levelo://app?vid=ce007fed-711b-4204-a095-75188f28fb70","ios":"levelo://app?vid=ce007fed-711b-4204-a095-75188f28fb70"},"vehicle_type_id":"4","last_reported":1746807169,"current_range_meters":14000,"station_id":"cjm6bp8fraef2m0cb0m0","pricing_plan_id":"cebpf4jnsgd1na2vs0mg"},{"bike_id":"0aea0da4-0c8b-45cd-8d2d-569e47e26724","system_id":"levelo_inurba_marseille","lat":43.28707,"lon":5.39992,"is_reserved":false,"is_disabled":false,"rental_uris":{"android":"levelo://app?vid=0aea0da4-0c8b-45cd-8d2d-569e47e26724","ios":"levelo://app?vid=0aea0da4-0c8b-45cd-8d2d-569e47e26724"},"vehicle_type_id":"4","last_reported":1746807169,"current_range_meters":14000,"station_id":"ce4bho92rcd13ifvqh3g","pricing_plan_id":"cebpf4jnsgd1na2vs0mg"},{"bike_id":"955543e1-9e01-4014-a07c-27697ea2fe1c","system_id":"levelo_inurba_marseille","lat":43.33032,"lon":5.39053,"is_reserved":false,"is_disabled":false,"rental_uris":{"android":"levelo://app?vid=955543e1-9e01-4014-a07c-27697ea2fe1c","ios":"levelo://app?vid=955543e1-9e01-4014-a07c-27697ea2fe1c"},"vehicle_type_id":"4","last_reported":1746807169,"current_range_meters":14000,"station_id":"ce4bhr92rcd13ifvqhrg","pricing_plan_id":"cebpf4jnsgd1na2vs0mg"},{"bike_id":"c0f53e7d-bcca-4a81-8a92-fd276aec3dbc","system_id":"levelo_inurba_marseille","lat":43.21753,"lon":5.34605,"is_reserved":false,"is_disabled":false,"rental_uris":{"android":"levelo://app?vid=c0f53e7d-bcca-4a81-8a92-fd276aec3dbc","ios":"levelo://app?vid=c0f53e7d-bcca-4a81-8a92-fd276aec3dbc"},"vehicle_type_id":"4","last_reported":1746807169,"current_range_meters":14400,"station_id":"st_cvj6r9ubvosntc0bgbag","pricing_plan_id":"cebpf4jnsgd1na2vs0mg"},{"bike_id":"801b2591-d134-4f1f-b7bf-b8f707a9554f","system_id":"levelo_inurba_marseille","lat":43.302143,"lon":5.394686,"is_reserved":false,"is_disabled":false,"rental_uris":{"android":"levelo://app?vid=801b2591-d134-4f1f-b7bf-b8f707a9554f","ios":"levelo://app?vid=801b2591-d134-4f1f-b7bf-b8f707a9554f"},"vehicle_type_id":"4","last_reported":1746807169,"current_range_meters":14400,"station_id":"ce4bh0p2rcd13ifvqd70","pricing_plan_id":"cebpf4jnsgd1na2vs0mg"},{"bike_id":"09e1dc14-26ac-446e-add0-27edb09cfb56","system_id":"levelo_inurba_marseille","lat":43.29277,"lon":5.36848,"is_reserved":false,"is_disabled":false,"rental_uris":{"android":"levelo://app?vid=09e1dc14-26ac-446e-add0-27edb09cfb56","ios":"levelo://app?vid=09e1dc14-26ac-446e-add0-27edb09cfb56"},"vehicle_type_id":"4","last_reported":1746807169,"current_range_meters":14400,"station_id":"","pricing_plan_id":"cebpf4jnsgd1na2vs0mg"},{"bike_id":"975b05c8-f725-4cdb-9362-34ea29059303","system_id":"levelo_inurba_marseille","lat":43.32291,"lon":5.38269,"is_reserved":false,"is_disabled":false,"rental_uris":{"android":"levelo://app?vid=975b05c8-f725-4cdb-9362-34ea29059303","ios":"levelo://app?vid=975b05c8-f725-4cdb-9362-34ea29059303"},"vehicle_type_id":"4","last_reported":1746807169,"current_range_meters":14800,"station_id":"ce4bhr12rcd13ifvqhqg","pricing_plan_id":"cebpf4jnsgd1na2vs0mg"},{"bike_id":"c1e46af6-d0b8-4d3d-b2f1-dcb8e8d337bf","system_id":"levelo_inurba_marseille","lat":43.24641,"lon":5.38147,"is_reserved":false,"is_disabled":false,"rental_uris":{"android":"levelo://app?vid=c1e46af6-d0b8-4d3d-b2f1-dcb8e8d337bf","ios":"levelo://app?vid=c1e46af6-d0b8-4d3d-b2f1-dcb8e8d337bf"},"vehicle_type_id":"4","last_reported":1746807169,"current_range_meters":14800,"station_id":"ce4bhih2rcd13ifvqfr0","pricing_plan_id":"cebpf4jnsgd1na2vs0mg"},{"bike_id":"6390dee7-7421-4ef4-a33e-a3ab13a18641","system_id":"levelo_inurba_marseille","lat":43.26204,"lon":5.37932,"is_reserved":false,"is_disabled":false,"rental_uris":{"android":"levelo://app?vid=6390dee7-7421-4ef4-a33e-a3ab13a18641","ios":"levelo://app?vid=6390dee7-7421-4ef4-a33e-a3ab13a18641"},"vehicle_type_id":"4","last_reported":1746807169,"current_range_meters":15200,"station_id":"ce4bhjp2rcd13ifvqg90","pricing_plan_id":"cebpf4jnsgd1na2vs0mg"},{"bike_id":"70756c35-aa98-49f0-8ae7-94ad5e9061b5","system_id":"levelo_inurba_marseille","lat":43.27964,"lon":5.38733,"is_reserved":false,"is_disabled":false,"rental_uris":{"android":"levelo://app?vid=70756c35-aa98-49f0-8ae7-94ad5e9061b5","ios":"levelo://app?vid=70756c35-aa98-49f0-8ae7-94ad5e9061b5"},"vehicle_type_id":"4","last_reported":1746807169,"current_range_meters":15200,"station_id":"ce4bhg12rcd13ifvqf80","pricing_plan_id":"cebpf4jnsgd1na2vs0mg"},{"bike_id":"8bd5b6e2-1666-4d14-bc54-6d3aeb0b93f3","system_id":"levelo_inurba_marseille","lat":43.24664,"lon":5.38165,"is_reserved":false,"is_disabled":false,"rental_uris":{"android":"levelo://app?vid=8bd5b6e2-1666-4d14-bc54-6d3aeb0b93f3","ios":"levelo://app?vid=8bd5b6e2-1666-4d14-bc54-6d3aeb0b93f3"},"vehicle_type_id":"4","last_reported":1746807169,"current_range_meters":15200,"station_id":"ce4bhih2rcd13ifvqfr0","pricing_plan_id":"cebpf4jnsgd1na2vs0mg"},{"bike_id":"2e2f4f43-ea2c-4451-8a0b-b1a824a489b3","system_id":"levelo_inurba_marseille","lat":43.33025,"lon":5.3904,"is_reserved":false,"is_disabled":false,"rental_uris":{"android":"levelo://app?vid=2e2f4f43-ea2c-4451-8a0b-b1a824a489b3","ios":"levelo://app?vid=2e2f4f43-ea2c-4451-8a0b-b1a824a489b3"},"vehicle_type_id":"4","last_reported":1746807169,"current_range_meters":14800,"station_id":"ce4bhr92rcd13ifvqhrg","pricing_plan_id":"cebpf4jnsgd1na2vs0mg"},{"bike_id":"cc81e8b8-a11e-4c23-b5ed-49c1dc346708","system_id":"levelo_inurba_marseille","lat":43.295283,"lon":5.394035,"is_reserved":false,"is_disabled":false,"rental_uris":{"android":"levelo://app?vid=cc81e8b8-a11e-4c23-b5ed-49c1dc346708","ios":"levelo://app?vid=cc81e8b8-a11e-4c23-b5ed-49c1dc346708"},"vehicle_type_id":"4","last_reported":1746807169,"current_range_meters":15200,"station_id":"ce4bh292rcd13ifvqdf0","pricing_plan_id":"cebpf4jnsgd1na2vs0mg"},{"bike_id":"3db13b06-700c-4ed9-aaab-e8dd53e50686","system_id":"levelo_inurba_marseille","lat":43.299,"lon":5.40388,"is_reserved":false,"is_disabled":false,"rental_uris":{"android":"levelo://app?vid=3db13b06-700c-4ed9-aaab-e8dd53e50686","ios":"levelo://app?vid=3db13b06-700c-4ed9-aaab-e8dd53e50686"},"vehicle_type_id":"4","last_reported":1746807169,"current_range_meters":16000,"station_id":"","pricing_plan_id":"cebpf4jnsgd1na2vs0mg"},{"bike_id":"202e3678-d7c3-498d-bdae-55e4904ebb38","system_id":"levelo_inurba_marseille","lat":43.27993,"lon":5.41659,"is_reserved":false,"is_disabled":false,"rental_uris":{"android":"levelo://app?vid=202e3678-d7c3-498d-bdae-55e4904ebb38","ios":"levelo://app?vid=202e3678-d7c3-498d-bdae-55e4904ebb38"},"vehicle_type_id":"4","last_reported":1746807169,"current_range_meters":16000,"station_id":"ce4bho12rcd13ifvqh1g","pricing_plan_id":"cebpf4jnsgd1na2vs0mg"},{"bike_id":"82c62bd2-276d-4490-94d1-0c818f9f43fa","system_id":"levelo_inurba_marseille","lat":43.30096,"lon":5.39088,"is_reserved":false,"is_disabled":false,"rental_uris":{"android":"levelo://app?vid=82c62bd2-276d-4490-94d1-0c818f9f43fa","ios":"levelo://app?vid=82c62bd2-276d-4490-94d1-0c818f9f43fa"},"vehicle_type_id":"4","last_reported":1746807169,"current_range_meters":16000,"station_id":"ce4bh192rcd13ifvqdb0","pricing_plan_id":"cebpf4jnsgd1na2vs0mg"},{"bike_id":"debe0656-e4f7-4adc-8c2d-9dae1585fdcc","system_id":"levelo_inurba_marseille","lat":43.301373,"lon":5.398649,"is_reserved":false,"is_disabled":false,"rental_uris":{"android":"levelo://app?vid=debe0656-e4f7-4adc-8c2d-9dae1585fdcc","ios":"levelo://app?vid=debe0656-e4f7-4adc-8c2d-9dae1585fdcc"},"vehicle_type_id":"4","last_reported":1746807169,"current_range_meters":16000,"station_id":"","pricing_plan_id":"cebpf4jnsgd1na2vs0mg"},{"bike_id":"7219a52a-bf19-46e1-875a-31818255ad1f","system_id":"levelo_inurba_marseille","lat":43.29636,"lon":5.40595,"is_reserved":false,"is_disabled":false,"rental_uris":{"android":"levelo://app?vid=7219a52a-bf19-46e1-875a-31818255ad1f","ios":"levelo://app?vid=7219a52a-bf19-46e1-875a-31818255ad1f"},"vehicle_type_id":"4","last_reported":1746807169,"current_range_meters":16000,"station_id":"ce4bh0h2rcd13ifvqd60","pricing_plan_id":"cebpf4jnsgd1na2vs0mg"},{"bike_id":"71eafe54-f3d2-4978-a324-05892d411c7d","system_id":"levelo_inurba_marseille","lat":43.26215,"lon":5.40459,"is_reserved":false,"is_disabled":false,"rental_uris":{"android":"levelo://app?vid=71eafe54-f3d2-4978-a324-05892d411c7d","ios":"levelo://app?vid=71eafe54-f3d2-4978-a324-05892d411c7d"},"vehicle_type_id":"4","last_reported":1746807169,"current_range_meters":16000,"station_id":"ce4bhmh2rcd13ifvqgmg","pricing_plan_id":"cebpf4jnsgd1na2vs0mg"},{"bike_id":"1f67836b-1b40-476f-9a50-7f6ff65e0774","system_id":"levelo_inurba_marseille","lat":43.32288,"lon":5.3828,"is_reserved":false,"is_disabled":false,"rental_uris":{"android":"levelo://app?vid=1f67836b-1b40-476f-9a50-7f6ff65e0774","ios":"levelo://app?vid=1f67836b-1b40-476f-9a50-7f6ff65e0774"},"vehicle_type_id":"4","last_reported":1746807169,"current_range_meters":16000,"station_id":"ce4bhr12rcd13ifvqhqg","pricing_plan_id":"cebpf4jnsgd1na2vs0mg"},{"bike_id":"babf6872-24d8-4de0-be25-43e5dffee709","system_id":"levelo_inurba_marseille","lat":43.23177,"lon":5.39998,"is_reserved":false,"is_disabled":false,"rental_uris":{"android":"levelo://app?vid=babf6872-24d8-4de0-be25-43e5dffee709","ios":"levelo://app?vid=babf6872-24d8-4de0-be25-43e5dffee709"},"vehicle_type_id":"4","last_reported":1746807169,"current_range_meters":16400,"station_id":"ce4bhn12rcd13ifvqgqg","pricing_plan_id":"cebpf4jnsgd1na2vs0mg"},{"bike_id":"0bdcdff3-8294-49b9-80e9-145bbc1ad711","system_id":"levelo_inurba_marseille","lat":43.32266,"lon":5.36679,"is_reserved":false,"is_disabled":false,"rental_uris":{"android":"levelo://app?vid=0bdcdff3-8294-49b9-80e9-145bbc1ad711","ios":"levelo://app?vid=0bdcdff3-8294-49b9-80e9-145bbc1ad711"},"vehicle_type_id":"4","last_reported":1746807169,"current_range_meters":16400,"station_id":"","pricing_plan_id":"cebpf4jnsgd1na2vs0mg"},{"bike_id":"9abebec5-9631-4c54-923a-8430db45d0dd","system_id":"levelo_inurba_marseille","lat":43.24166,"lon":5.364,"is_reserved":false,"is_disabled":false,"rental_uris":{"android":"levelo://app?vid=9abebec5-9631-4c54-923a-8430db45d0dd","ios":"levelo://app?vid=9abebec5-9631-4c54-923a-8430db45d0dd"},"vehicle_type_id":"4","last_reported":1746807169,"current_range_meters":16400,"station_id":"cpo36qri1sfpv3e86is0","pricing_plan_id":"cebpf4jnsgd1na2vs0mg"},{"bike_id":"3aff0354-e2c1-46e5-b2fc-61ae1e6b56ae","system_id":"levelo_inurba_marseille","lat":43.312207,"lon":5.368747,"is_reserved":false,"is_disabled":false,"rental_uris":{"android":"levelo://app?vid=3aff0354-e2c1-46e5-b2fc-61ae1e6b56ae","ios":"levelo://app?vid=3aff0354-e2c1-46e5-b2fc-61ae1e6b56ae"},"vehicle_type_id":"4","last_reported":1746807169,"current_range_meters":16400,"station_id":"ce4bgl92rcd13ifvqbq0","pricing_plan_id":"cebpf4jnsgd1na2vs0mg"},{"bike_id":"ae56da91-db88-4ffc-a694-3dd270e97384","system_id":"levelo_inurba_marseille","lat":43.21749,"lon":5.34607,"is_reserved":false,"is_disabled":false,"rental_uris":{"android":"levelo://app?vid=ae56da91-db88-4ffc-a694-3dd270e97384","ios":"levelo://app?vid=ae56da91-db88-4ffc-a694-3dd270e97384"},"vehicle_type_id":"4","last_reported":1746807169,"current_range_meters":16400,"station_id":"st_cvj6r9ubvosntc0bgbag","pricing_plan_id":"cebpf4jnsgd1na2vs0mg"},{"bike_id":"efd0c34b-e2cc-4bb9-b93d-a573eeedfbd3","system_id":"levelo_inurba_marseille","lat":43.21184,"lon":5.35079,"is_reserved":false,"is_disabled":false,"rental_uris":{"android":"levelo://app?vid=efd0c34b-e2cc-4bb9-b93d-a573eeedfbd3","ios":"levelo://app?vid=efd0c34b-e2cc-4bb9-b93d-a573eeedfbd3"},"vehicle_type_id":"4","last_reported":1746807169,"current_range_meters":16400,"station_id":"st_cvj6sg6p6f1abm77japg","pricing_plan_id":"cebpf4jnsgd1na2vs0mg"},{"bike_id":"c1427f65-3df1-439b-8224-18970326e082","system_id":"levelo_inurba_marseille","lat":43.28648,"lon":5.38674,"is_reserved":false,"is_disabled":false,"rental_uris":{"android":"levelo://app?vid=c1427f65-3df1-439b-8224-18970326e082","ios":"levelo://app?vid=c1427f65-3df1-439b-8224-18970326e082"},"vehicle_type_id":"4","last_reported":1746807169,"current_range_meters":16400,"station_id":"ce4bh492rcd13ifvqdug","pricing_plan_id":"cebpf4jnsgd1na2vs0mg"},{"bike_id":"198547bf-923d-442f-b3c0-3aa61e2923f3","system_id":"levelo_inurba_marseille","lat":43.26558,"lon":5.38995,"is_reserved":false,"is_disabled":false,"rental_uris":{"android":"levelo://app?vid=198547bf-923d-442f-b3c0-3aa61e2923f3","ios":"levelo://app?vid=198547bf-923d-442f-b3c0-3aa61e2923f3"},"vehicle_type_id":"4","last_reported":1746807169,"current_range_meters":16400,"station_id":"ce4bhe12rcd13ifvqf30","pricing_plan_id":"cebpf4jnsgd1na2vs0mg"},{"bike_id":"bb9dd4d9-ef7c-411c-9ce2-6f0d8890189a","system_id":"levelo_inurba_marseille","lat":43.24167,"lon":5.36394,"is_reserved":false,"is_disabled":false,"rental_uris":{"android":"levelo://app?vid=bb9dd4d9-ef7c-411c-9ce2-6f0d8890189a","ios":"levelo://app?vid=bb9dd4d9-ef7c-411c-9ce2-6f0d8890189a"},"vehicle_type_id":"4","last_reported":1746807169,"current_range_meters":16800,"station_id":"cpo36qri1sfpv3e86is0","pricing_plan_id":"cebpf4jnsgd1na2vs0mg"},{"bike_id":"6e24abe9-ff49-40a5-bfac-cd5aacf6ebea","system_id":"levelo_inurba_marseille","lat":43.22906,"lon":5.35375,"is_reserved":false,"is_disabled":false,"rental_uris":{"android":"levelo://app?vid=6e24abe9-ff49-40a5-bfac-cd5aacf6ebea","ios":"levelo://app?vid=6e24abe9-ff49-40a5-bfac-cd5aacf6ebea"},"vehicle_type_id":"4","last_reported":1746807169,"current_range_meters":16800,"station_id":"cpo3532slgdg3j2ikp40","pricing_plan_id":"cebpf4jnsgd1na2vs0mg"},{"bike_id":"cf6bc856-5840-4cc7-87f8-ebcb25a380e4","system_id":"levelo_inurba_marseille","lat":43.2557,"lon":5.38245,"is_reserved":false,"is_disabled":false,"rental_uris":{"android":"levelo://app?vid=cf6bc856-5840-4cc7-87f8-ebcb25a380e4","ios":"levelo://app?vid=cf6bc856-5840-4cc7-87f8-ebcb25a380e4"},"vehicle_type_id":"4","last_reported":1746807169,"current_range_meters":16800,"station_id":"ce4bhih2rcd13ifvqfs0","pricing_plan_id":"cebpf4jnsgd1na2vs0mg"},{"bike_id":"57c9fe8b-8a36-46b8-b8c5-51847a4ac2f3","system_id":"levelo_inurba_marseille","lat":43.2558,"lon":5.38239,"is_reserved":false,"is_disabled":false,"rental_uris":{"android":"levelo://app?vid=57c9fe8b-8a36-46b8-b8c5-51847a4ac2f3","ios":"levelo://app?vid=57c9fe8b-8a36-46b8-b8c5-51847a4ac2f3"},"vehicle_type_id":"4","last_reported":1746807169,"current_range_meters":16800,"station_id":"ce4bhih2rcd13ifvqfs0","pricing_plan_id":"cebpf4jnsgd1na2vs0mg"},{"bike_id":"31a2d2c8-f240-4ce3-9c3c-76d38878780b","system_id":"levelo_inurba_marseille","lat":43.30137,"lon":5.37025,"is_reserved":false,"is_disabled":false,"rental_uris":{"android":"levelo://app?vid=31a2d2c8-f240-4ce3-9c3c-76d38878780b","ios":"levelo://app?vid=31a2d2c8-f240-4ce3-9c3c-76d38878780b"},"vehicle_type_id":"4","last_reported":1746807169,"current_range_meters":17200,"station_id":"","pricing_plan_id":"cebpf4jnsgd1na2vs0mg"},{"bike_id":"a2e336ee-f117-4826-a3a1-161fef6f6509","system_id":"levelo_inurba_marseille","lat":43.30229,"lon":5.40042,"is_reserved":false,"is_disabled":false,"rental_uris":{"android":"levelo://app?vid=a2e336ee-f117-4826-a3a1-161fef6f6509","ios":"levelo://app?vid=a2e336ee-f117-4826-a3a1-161fef6f6509"},"vehicle_type_id":"4","last_reported":1746807169,"current_range_meters":16800,"station_id":"ce4bgvh2rcd13ifvqcs0","pricing_plan_id":"cebpf4jnsgd1na2vs0mg"},{"bike_id":"06470c9e-d386-4d0b-ab94-75da465607d6","system_id":"levelo_inurba_marseille","lat":43.28704,"lon":5.40004,"is_reserved":false,"is_disabled":false,"rental_uris":{"android":"levelo://app?vid=06470c9e-d386-4d0b-ab94-75da465607d6","ios":"levelo://app?vid=06470c9e-d386-4d0b-ab94-75da465607d6"},"vehicle_type_id":"4","last_reported":1746807169,"current_range_meters":16800,"station_id":"ce4bho92rcd13ifvqh3g","pricing_plan_id":"cebpf4jnsgd1na2vs0mg"},{"bike_id":"5435dd35-e173-49f6-8680-7e6930afddd1","system_id":"levelo_inurba_marseille","lat":43.29536,"lon":5.38545,"is_reserved":false,"is_disabled":false,"rental_uris":{"android":"levelo://app?vid=5435dd35-e173-49f6-8680-7e6930afddd1","ios":"levelo://app?vid=5435dd35-e173-49f6-8680-7e6930afddd1"},"vehicle_type_id":"4","last_reported":1746807169,"current_range_meters":17200,"station_id":"ce4bgih2rcd13ifvqba0","pricing_plan_id":"cebpf4jnsgd1na2vs0mg"},{"bike_id":"b59b9972-1280-4ad3-8bb3-10a6cf8d2e36","system_id":"levelo_inurba_marseille","lat":43.28855,"lon":5.35865,"is_reserved":false,"is_disabled":false,"rental_uris":{"android":"levelo://app?vid=b59b9972-1280-4ad3-8bb3-10a6cf8d2e36","ios":"levelo://app?vid=b59b9972-1280-4ad3-8bb3-10a6cf8d2e36"},"vehicle_type_id":"4","last_reported":1746807169,"current_range_meters":17200,"station_id":"ce4bhb12rcd13ifvqem0","pricing_plan_id":"cebpf4jnsgd1na2vs0mg"},{"bike_id":"b54ec5a7-791e-4e16-83de-741addf32457","system_id":"levelo_inurba_marseille","lat":43.29006,"lon":5.35622,"is_reserved":false,"is_disabled":false,"rental_uris":{"android":"levelo://app?vid=b54ec5a7-791e-4e16-83de-741addf32457","ios":"levelo://app?vid=b54ec5a7-791e-4e16-83de-741addf32457"},"vehicle_type_id":"4","last_reported":1746807169,"current_range_meters":17200,"station_id":"ce4bhb92rcd13ifvqen0","pricing_plan_id":"cebpf4jnsgd1na2vs0mg"},{"bike_id":"17508b04-f061-4d8e-951a-e24982101938","system_id":"levelo_inurba_marseille","lat":43.27916,"lon":5.39597,"is_reserved":false,"is_disabled":false,"rental_uris":{"android":"levelo://app?vid=17508b04-f061-4d8e-951a-e24982101938","ios":"levelo://app?vid=17508b04-f061-4d8e-951a-e24982101938"},"vehicle_type_id":"4","last_reported":1746807169,"current_range_meters":17200,"station_id":"ce4bhf92rcd13ifvqf40","pricing_plan_id":"cebpf4jnsgd1na2vs0mg"},{"bike_id":"9a919805-a5a4-497f-a929-c9e08814771d","system_id":"levelo_inurba_marseille","lat":43.2798,"lon":5.41659,"is_reserved":false,"is_disabled":true,"rental_uris":{"android":"levelo://app?vid=9a919805-a5a4-497f-a929-c9e08814771d","ios":"levelo://app?vid=9a919805-a5a4-497f-a929-c9e08814771d"},"vehicle_type_id":"4","last_reported":1746807169,"current_range_meters":17200,"station_id":"ce4bho12rcd13ifvqh1g","pricing_plan_id":"cebpf4jnsgd1na2vs0mg"},{"bike_id":"bce79e0f-cffc-45c9-8088-ed22977d9092","system_id":"levelo_inurba_marseille","lat":43.30231,"lon":5.40046,"is_reserved":false,"is_disabled":false,"rental_uris":{"android":"levelo://app?vid=bce79e0f-cffc-45c9-8088-ed22977d9092","ios":"levelo://app?vid=bce79e0f-cffc-45c9-8088-ed22977d9092"},"vehicle_type_id":"4","last_reported":1746807169,"current_range_meters":17200,"station_id":"","pricing_plan_id":"cebpf4jnsgd1na2vs0mg"},{"bike_id":"7911d9df-be53-4908-8d00-3efa42a5a46d","system_id":"levelo_inurba_marseille","lat":43.29897,"lon":5.43667,"is_reserved":false,"is_disabled":false,"rental_uris":{"android":"levelo://app?vid=7911d9df-be53-4908-8d00-3efa42a5a46d","ios":"levelo://app?vid=7911d9df-be53-4908-8d00-3efa42a5a46d"},"vehicle_type_id":"4","last_reported":1746807169,"current_range_meters":17200,"station_id":"ce4bhpp2rcd13ifvqhfg","pricing_plan_id":"cebpf4jnsgd1na2vs0mg"},{"bike_id":"c86848ba-02ca-4626-aea6-7407e0722649","system_id":"levelo_inurba_marseille","lat":43.25497,"lon":5.37647,"is_reserved":false,"is_disabled":false,"rental_uris":{"android":"levelo://app?vid=c86848ba-02ca-4626-aea6-7407e0722649","ios":"levelo://app?vid=c86848ba-02ca-4626-aea6-7407e0722649"},"vehicle_type_id":"4","last_reported":1746807169,"current_range_meters":17200,"station_id":"ce4bhh12rcd13ifvqff0","pricing_plan_id":"cebpf4jnsgd1na2vs0mg"},{"bike_id":"9d5f51b6-844c-4d70-a1db-8fd8fc1a0846","system_id":"levelo_inurba_marseille","lat":43.32663,"lon":5.41008,"is_reserved":false,"is_disabled":false,"rental_uris":{"android":"levelo://app?vid=9d5f51b6-844c-4d70-a1db-8fd8fc1a0846","ios":"levelo://app?vid=9d5f51b6-844c-4d70-a1db-8fd8fc1a0846"},"vehicle_type_id":"4","last_reported":1746807169,"current_range_meters":17600,"station_id":"ce4bhpp2rcd13ifvqhgg","pricing_plan_id":"cebpf4jnsgd1na2vs0mg"},{"bike_id":"c65732d7-d6e4-4134-b90d-85c2276db215","system_id":"levelo_inurba_marseille","lat":43.26245,"lon":5.40503,"is_reserved":false,"is_disabled":false,"rental_uris":{"android":"levelo://app?vid=c65732d7-d6e4-4134-b90d-85c2276db215","ios":"levelo://app?vid=c65732d7-d6e4-4134-b90d-85c2276db215"},"vehicle_type_id":"4","last_reported":1746807169,"current_range_meters":17600,"station_id":"ce4bhmh2rcd13ifvqgmg","pricing_plan_id":"cebpf4jnsgd1na2vs0mg"},{"bike_id":"881c097a-b180-44f5-9d6b-1f54f714978b","system_id":"levelo_inurba_marseille","lat":43.270747,"lon":5.422816,"is_reserved":false,"is_disabled":false,"rental_uris":{"android":"levelo://app?vid=881c097a-b180-44f5-9d6b-1f54f714978b","ios":"levelo://app?vid=881c097a-b180-44f5-9d6b-1f54f714978b"},"vehicle_type_id":"4","last_reported":1746807169,"current_range_meters":17600,"station_id":"ce4bhk92rcd13ifvqgb0","pricing_plan_id":"cebpf4jnsgd1na2vs0mg"},{"bike_id":"2123204f-4eac-47d2-b050-b6c347eaee89","system_id":"levelo_inurba_marseille","lat":43.2318,"lon":5.39976,"is_reserved":false,"is_disabled":false,"rental_uris":{"android":"levelo://app?vid=2123204f-4eac-47d2-b050-b6c347eaee89","ios":"levelo://app?vid=2123204f-4eac-47d2-b050-b6c347eaee89"},"vehicle_type_id":"4","last_reported":1746807169,"current_range_meters":17600,"station_id":"ce4bhn12rcd13ifvqgqg","pricing_plan_id":"cebpf4jnsgd1na2vs0mg"},{"bike_id":"e90e6229-3161-4e01-8a9d-f04571c861dc","system_id":"levelo_inurba_marseille","lat":43.32362,"lon":5.36763,"is_reserved":false,"is_disabled":false,"rental_uris":{"android":"levelo://app?vid=e90e6229-3161-4e01-8a9d-f04571c861dc","ios":"levelo://app?vid=e90e6229-3161-4e01-8a9d-f04571c861dc"},"vehicle_type_id":"4","last_reported":1746807169,"current_range_meters":18000,"station_id":"ce4bhsh2rcd13ifvqi2g","pricing_plan_id":"cebpf4jnsgd1na2vs0mg"},{"bike_id":"98e1446b-09d5-4da7-abea-7e3ee9062c7e","system_id":"levelo_inurba_marseille","lat":43.28615,"lon":5.35103,"is_reserved":false,"is_disabled":false,"rental_uris":{"android":"levelo://app?vid=98e1446b-09d5-4da7-abea-7e3ee9062c7e","ios":"levelo://app?vid=98e1446b-09d5-4da7-abea-7e3ee9062c7e"},"vehicle_type_id":"4","last_reported":1746807169,"current_range_meters":18000,"station_id":"ce4bhch2rcd13ifvqeug","pricing_plan_id":"cebpf4jnsgd1na2vs0mg"},{"bike_id":"43a0c298-64df-4915-87ed-c581865ca64c","system_id":"levelo_inurba_marseille","lat":43.23186,"lon":5.35563,"is_reserved":false,"is_disabled":false,"rental_uris":{"android":"levelo://app?vid=43a0c298-64df-4915-87ed-c581865ca64c","ios":"levelo://app?vid=43a0c298-64df-4915-87ed-c581865ca64c"},"vehicle_type_id":"4","last_reported":1746807169,"current_range_meters":17600,"station_id":"ce4bhu92rcd13ifvqi70","pricing_plan_id":"cebpf4jnsgd1na2vs0mg"},{"bike_id":"e76a9563-5bc3-4570-91d7-7f212b773cf4","system_id":"levelo_inurba_marseille","lat":43.273357,"lon":5.362738,"is_reserved":false,"is_disabled":false,"rental_uris":{"android":"levelo://app?vid=e76a9563-5bc3-4570-91d7-7f212b773cf4","ios":"levelo://app?vid=e76a9563-5bc3-4570-91d7-7f212b773cf4"},"vehicle_type_id":"4","last_reported":1746807169,"current_range_meters":18000,"station_id":"ce4bhbh2rcd13ifvqeo0","pricing_plan_id":"cebpf4jnsgd1na2vs0mg"},{"bike_id":"bb495b1d-188b-49e3-8195-6b30e0477e72","system_id":"levelo_inurba_marseille","lat":43.25058,"lon":5.38956,"is_reserved":false,"is_disabled":false,"rental_uris":{"android":"levelo://app?vid=bb495b1d-188b-49e3-8195-6b30e0477e72","ios":"levelo://app?vid=bb495b1d-188b-49e3-8195-6b30e0477e72"},"vehicle_type_id":"4","last_reported":1746807169,"current_range_meters":18000,"station_id":"ce4bhgp2rcd13ifvqfd0","pricing_plan_id":"cebpf4jnsgd1na2vs0mg"},{"bike_id":"e8ad614e-6e62-423e-9bde-3d9e0037a67b","system_id":"levelo_inurba_marseille","lat":43.28942,"lon":5.39636,"is_reserved":false,"is_disabled":false,"rental_uris":{"android":"levelo://app?vid=e8ad614e-6e62-423e-9bde-3d9e0037a67b","ios":"levelo://app?vid=e8ad614e-6e62-423e-9bde-3d9e0037a67b"},"vehicle_type_id":"4","last_reported":1746807169,"current_range_meters":18000,"station_id":"ce4bh3h2rcd13ifvqdn0","pricing_plan_id":"cebpf4jnsgd1na2vs0mg"},{"bike_id":"d8280ac1-cc74-4230-9559-42c612246d68","system_id":"levelo_inurba_marseille","lat":43.2931,"lon":5.37177,"is_reserved":false,"is_disabled":false,"rental_uris":{"android":"levelo://app?vid=d8280ac1-cc74-4230-9559-42c612246d68","ios":"levelo://app?vid=d8280ac1-cc74-4230-9559-42c612246d68"},"vehicle_type_id":"4","last_reported":1746807169,"current_range_meters":17600,"station_id":"ce4bgh92rcd13ifvqb40","pricing_plan_id":"cebpf4jnsgd1na2vs0mg"},{"bike_id":"fc2577e7-1497-425b-9d4f-ab8d7dc843c6","system_id":"levelo_inurba_marseille","lat":43.33771,"lon":5.37485,"is_reserved":false,"is_disabled":false,"rental_uris":{"android":"levelo://app?vid=fc2577e7-1497-425b-9d4f-ab8d7dc843c6","ios":"levelo://app?vid=fc2577e7-1497-425b-9d4f-ab8d7dc843c6"},"vehicle_type_id":"4","last_reported":1746807169,"current_range_meters":18800,"station_id":"","pricing_plan_id":"cebpf4jnsgd1na2vs0mg"},{"bike_id":"5bee1775-528f-49e6-9c3e-19f7744c053e","system_id":"levelo_inurba_marseille","lat":43.27994,"lon":5.41666,"is_reserved":false,"is_disabled":false,"rental_uris":{"android":"levelo://app?vid=5bee1775-528f-49e6-9c3e-19f7744c053e","ios":"levelo://app?vid=5bee1775-528f-49e6-9c3e-19f7744c053e"},"vehicle_type_id":"4","last_reported":1746807169,"current_range_meters":18800,"station_id":"ce4bho12rcd13ifvqh1g","pricing_plan_id":"cebpf4jnsgd1na2vs0mg"},{"bike_id":"22bf432e-78da-4f8d-a934-8f5970e3135a","system_id":"levelo_inurba_marseille","lat":43.25125,"lon":5.40329,"is_reserved":false,"is_disabled":false,"rental_uris":{"android":"levelo://app?vid=22bf432e-78da-4f8d-a934-8f5970e3135a","ios":"levelo://app?vid=22bf432e-78da-4f8d-a934-8f5970e3135a"},"vehicle_type_id":"4","last_reported":1746807169,"current_range_meters":18800,"station_id":"ce4bhlh2rcd13ifvqgig","pricing_plan_id":"cebpf4jnsgd1na2vs0mg"},{"bike_id":"545e5687-b7df-4883-81be-75a8925d5f91","system_id":"levelo_inurba_marseille","lat":43.337444,"lon":5.374475,"is_reserved":false,"is_disabled":false,"rental_uris":{"android":"levelo://app?vid=545e5687-b7df-4883-81be-75a8925d5f91","ios":"levelo://app?vid=545e5687-b7df-4883-81be-75a8925d5f91"},"vehicle_type_id":"4","last_reported":1746807169,"current_range_meters":18800,"station_id":"","pricing_plan_id":"cebpf4jnsgd1na2vs0mg"},{"bike_id":"94cd8564-a06e-4cc5-88d9-996fbf8639fe","system_id":"levelo_inurba_marseille","lat":43.21773,"lon":5.34626,"is_reserved":false,"is_disabled":true,"rental_uris":{"android":"levelo://app?vid=94cd8564-a06e-4cc5-88d9-996fbf8639fe","ios":"levelo://app?vid=94cd8564-a06e-4cc5-88d9-996fbf8639fe"},"vehicle_type_id":"4","last_reported":1746807169,"current_range_meters":19200,"station_id":"st_cvj6r9ubvosntc0bgbag","pricing_plan_id":"cebpf4jnsgd1na2vs0mg"},{"bike_id":"cb8f2b0a-d973-4393-875a-24400f203677","system_id":"levelo_inurba_marseille","lat":43.285677,"lon":5.395023,"is_reserved":false,"is_disabled":false,"rental_uris":{"android":"levelo://app?vid=cb8f2b0a-d973-4393-875a-24400f203677","ios":"levelo://app?vid=cb8f2b0a-d973-4393-875a-24400f203677"},"vehicle_type_id":"4","last_reported":1746807169,"current_range_meters":19200,"station_id":"ce4bh292rcd13ifvqdg0","pricing_plan_id":"cebpf4jnsgd1na2vs0mg"},{"bike_id":"2261fa25-88a5-4ac4-b1ee-6e7d2849c001","system_id":"levelo_inurba_marseille","lat":43.2318,"lon":5.39993,"is_reserved":false,"is_disabled":false,"rental_uris":{"android":"levelo://app?vid=2261fa25-88a5-4ac4-b1ee-6e7d2849c001","ios":"levelo://app?vid=2261fa25-88a5-4ac4-b1ee-6e7d2849c001"},"vehicle_type_id":"4","last_reported":1746807169,"current_range_meters":19200,"station_id":"ce4bhn12rcd13ifvqgqg","pricing_plan_id":"cebpf4jnsgd1na2vs0mg"},{"bike_id":"547d777f-79c7-4ca5-9ce9-7e32498cef8b","system_id":"levelo_inurba_marseille","lat":43.24655,"lon":5.38894,"is_reserved":false,"is_disabled":false,"rental_uris":{"android":"levelo://app?vid=547d777f-79c7-4ca5-9ce9-7e32498cef8b","ios":"levelo://app?vid=547d777f-79c7-4ca5-9ce9-7e32498cef8b"},"vehicle_type_id":"4","last_reported":1746807169,"current_range_meters":19200,"station_id":"ce4bhg12rcd13ifvqf60","pricing_plan_id":"cebpf4jnsgd1na2vs0mg"},{"bike_id":"3a0ef09f-112f-4a7e-8cc7-1c809c121c86","system_id":"levelo_inurba_marseille","lat":43.246456,"lon":5.396072,"is_reserved":false,"is_disabled":false,"rental_uris":{"android":"levelo://app?vid=3a0ef09f-112f-4a7e-8cc7-1c809c121c86","ios":"levelo://app?vid=3a0ef09f-112f-4a7e-8cc7-1c809c121c86"},"vehicle_type_id":"4","last_reported":1746807169,"current_range_meters":19200,"station_id":"ce4bhlh2rcd13ifvqgig","pricing_plan_id":"cebpf4jnsgd1na2vs0mg"},{"bike_id":"66d39f5f-1aac-423b-9ea7-bf9c1b0e5079","system_id":"levelo_inurba_marseille","lat":43.27481,"lon":5.41147,"is_reserved":false,"is_disabled":false,"rental_uris":{"android":"levelo://app?vid=66d39f5f-1aac-423b-9ea7-bf9c1b0e5079","ios":"levelo://app?vid=66d39f5f-1aac-423b-9ea7-bf9c1b0e5079"},"vehicle_type_id":"4","last_reported":1746807169,"current_range_meters":19200,"station_id":"","pricing_plan_id":"cebpf4jnsgd1na2vs0mg"},{"bike_id":"9b84e65f-2424-4f8e-b51b-21355d123536","system_id":"levelo_inurba_marseille","lat":43.31541,"lon":5.37283,"is_reserved":false,"is_disabled":false,"rental_uris":{"android":"levelo://app?vid=9b84e65f-2424-4f8e-b51b-21355d123536","ios":"levelo://app?vid=9b84e65f-2424-4f8e-b51b-21355d123536"},"vehicle_type_id":"4","last_reported":1746807169,"current_range_meters":19600,"station_id":"","pricing_plan_id":"cebpf4jnsgd1na2vs0mg"},{"bike_id":"6559c59c-cf66-4a7d-8594-421581793306","system_id":"levelo_inurba_marseille","lat":43.29227,"lon":5.36071,"is_reserved":false,"is_disabled":false,"rental_uris":{"android":"levelo://app?vid=6559c59c-cf66-4a7d-8594-421581793306","ios":"levelo://app?vid=6559c59c-cf66-4a7d-8594-421581793306"},"vehicle_type_id":"4","last_reported":1746807169,"current_range_meters":19600,"station_id":"ce4bhbh2rcd13ifvqeqg","pricing_plan_id":"cebpf4jnsgd1na2vs0mg"},{"bike_id":"816c2482-51ed-44d1-9ae4-c42a9d267325","system_id":"levelo_inurba_marseille","lat":43.299269,"lon":5.365518,"is_reserved":false,"is_disabled":false,"rental_uris":{"android":"levelo://app?vid=816c2482-51ed-44d1-9ae4-c42a9d267325","ios":"levelo://app?vid=816c2482-51ed-44d1-9ae4-c42a9d267325"},"vehicle_type_id":"4","last_reported":1746807169,"current_range_meters":20000,"station_id":"ce4bgm92rcd13ifvqbr0","pricing_plan_id":"cebpf4jnsgd1na2vs0mg"},{"bike_id":"fc36ffab-2a1f-4509-b654-4991002e0875","system_id":"levelo_inurba_marseille","lat":43.2972,"lon":5.37712,"is_reserved":false,"is_disabled":false,"rental_uris":{"android":"levelo://app?vid=fc36ffab-2a1f-4509-b654-4991002e0875","ios":"levelo://app?vid=fc36ffab-2a1f-4509-b654-4991002e0875"},"vehicle_type_id":"4","last_reported":1746807169,"current_range_meters":20000,"station_id":"ce4bgkh2rcd13ifvqbl0","pricing_plan_id":"cebpf4jnsgd1na2vs0mg"},{"bike_id":"8e32e7e5-2d4a-4658-9e73-931996a176a0","system_id":"levelo_inurba_marseille","lat":43.28615,"lon":5.35104,"is_reserved":false,"is_disabled":false,"rental_uris":{"android":"levelo://app?vid=8e32e7e5-2d4a-4658-9e73-931996a176a0","ios":"levelo://app?vid=8e32e7e5-2d4a-4658-9e73-931996a176a0"},"vehicle_type_id":"4","last_reported":1746807169,"current_range_meters":20000,"station_id":"ce4bhch2rcd13ifvqeug","pricing_plan_id":"cebpf4jnsgd1na2vs0mg"},{"bike_id":"f487601a-31ce-4384-8bd6-346f31bd2742","system_id":"levelo_inurba_marseille","lat":43.2884,"lon":5.35842,"is_reserved":false,"is_disabled":false,"rental_uris":{"android":"levelo://app?vid=f487601a-31ce-4384-8bd6-346f31bd2742","ios":"levelo://app?vid=f487601a-31ce-4384-8bd6-346f31bd2742"},"vehicle_type_id":"4","last_reported":1746807169,"current_range_meters":20000,"station_id":"ce4bhb12rcd13ifvqem0","pricing_plan_id":"cebpf4jnsgd1na2vs0mg"},{"bike_id":"99e09115-f946-4e2f-9fb3-5f3065cf21b2","system_id":"levelo_inurba_marseille","lat":43.3042,"lon":5.41281,"is_reserved":false,"is_disabled":false,"rental_uris":{"android":"levelo://app?vid=99e09115-f946-4e2f-9fb3-5f3065cf21b2","ios":"levelo://app?vid=99e09115-f946-4e2f-9fb3-5f3065cf21b2"},"vehicle_type_id":"4","last_reported":1746807169,"current_range_meters":20000,"station_id":"ce4bhop2rcd13ifvqh8g","pricing_plan_id":"cebpf4jnsgd1na2vs0mg"},{"bike_id":"37deb697-d7a3-4f2e-bb49-1ef8e7528356","system_id":"levelo_inurba_marseille","lat":43.28664,"lon":5.36351,"is_reserved":false,"is_disabled":false,"rental_uris":{"android":"levelo://app?vid=37deb697-d7a3-4f2e-bb49-1ef8e7528356","ios":"levelo://app?vid=37deb697-d7a3-4f2e-bb49-1ef8e7528356"},"vehicle_type_id":"4","last_reported":1746807169,"current_range_meters":20000,"station_id":"ce4bhah2rcd13ifvqej0","pricing_plan_id":"cebpf4jnsgd1na2vs0mg"},{"bike_id":"77b48df3-3ba3-4210-8658-624cbc9c424a","system_id":"levelo_inurba_marseille","lat":43.25626,"lon":5.41052,"is_reserved":false,"is_disabled":false,"rental_uris":{"android":"levelo://app?vid=77b48df3-3ba3-4210-8658-624cbc9c424a","ios":"levelo://app?vid=77b48df3-3ba3-4210-8658-624cbc9c424a"},"vehicle_type_id":"4","last_reported":1746807169,"current_range_meters":20400,"station_id":"","pricing_plan_id":"cebpf4jnsgd1na2vs0mg"},{"bike_id":"4415766b-22f7-4402-897e-35ad29af0d2e","system_id":"levelo_inurba_marseille","lat":43.25485,"lon":5.3767,"is_reserved":false,"is_disabled":false,"rental_uris":{"android":"levelo://app?vid=4415766b-22f7-4402-897e-35ad29af0d2e","ios":"levelo://app?vid=4415766b-22f7-4402-897e-35ad29af0d2e"},"vehicle_type_id":"4","last_reported":1746807169,"current_range_meters":20400,"station_id":"ce4bhh12rcd13ifvqff0","pricing_plan_id":"cebpf4jnsgd1na2vs0mg"},{"bike_id":"a4f87a07-a49f-4e59-9073-792e51646d31","system_id":"levelo_inurba_marseille","lat":43.30794,"lon":5.38171,"is_reserved":false,"is_disabled":false,"rental_uris":{"android":"levelo://app?vid=a4f87a07-a49f-4e59-9073-792e51646d31","ios":"levelo://app?vid=a4f87a07-a49f-4e59-9073-792e51646d31"},"vehicle_type_id":"4","last_reported":1746807169,"current_range_meters":20400,"station_id":"ce4bgt12rcd13ifvqce0","pricing_plan_id":"cebpf4jnsgd1na2vs0mg"},{"bike_id":"a1121b36-b5cd-4dda-96ef-13a3dfaa55e1","system_id":"levelo_inurba_marseille","lat":43.301401,"lon":5.387791,"is_reserved":false,"is_disabled":false,"rental_uris":{"android":"levelo://app?vid=a1121b36-b5cd-4dda-96ef-13a3dfaa55e1","ios":"levelo://app?vid=a1121b36-b5cd-4dda-96ef-13a3dfaa55e1"},"vehicle_type_id":"4","last_reported":1746807169,"current_range_meters":20400,"station_id":"","pricing_plan_id":"cebpf4jnsgd1na2vs0mg"},{"bike_id":"fd5dd92d-80e9-497d-8ba5-4c4a63d53e03","system_id":"levelo_inurba_marseille","lat":43.29557,"lon":5.42285,"is_reserved":false,"is_disabled":false,"rental_uris":{"android":"levelo://app?vid=fd5dd92d-80e9-497d-8ba5-4c4a63d53e03","ios":"levelo://app?vid=fd5dd92d-80e9-497d-8ba5-4c4a63d53e03"},"vehicle_type_id":"4","last_reported":1746807169,"current_range_meters":20400,"station_id":"ce4bhph2rcd13ifvqhdg","pricing_plan_id":"cebpf4jnsgd1na2vs0mg"},{"bike_id":"c31504de-bb52-40bd-8b51-98ea8e8667e8","system_id":"levelo_inurba_marseille","lat":43.28603,"lon":5.37065,"is_reserved":false,"is_disabled":false,"rental_uris":{"android":"levelo://app?vid=c31504de-bb52-40bd-8b51-98ea8e8667e8","ios":"levelo://app?vid=c31504de-bb52-40bd-8b51-98ea8e8667e8"},"vehicle_type_id":"4","last_reported":1746807169,"current_range_meters":20400,"station_id":"ce4bht12rcd13ifvqi60","pricing_plan_id":"cebpf4jnsgd1na2vs0mg"},{"bike_id":"f34a79fb-9a2a-4d46-9bae-b3621d640434","system_id":"levelo_inurba_marseille","lat":43.31078,"lon":5.42428,"is_reserved":false,"is_disabled":true,"rental_uris":{"android":"levelo://app?vid=f34a79fb-9a2a-4d46-9bae-b3621d640434","ios":"levelo://app?vid=f34a79fb-9a2a-4d46-9bae-b3621d640434"},"vehicle_type_id":"4","last_reported":1746807169,"current_range_meters":20400,"station_id":"ce4bhp92rcd13ifvqhag","pricing_plan_id":"cebpf4jnsgd1na2vs0mg"},{"bike_id":"f37cf857-00e9-49de-bb4b-941759f6b22c","system_id":"levelo_inurba_marseille","lat":43.29929,"lon":5.36543,"is_reserved":false,"is_disabled":false,"rental_uris":{"android":"levelo://app?vid=f37cf857-00e9-49de-bb4b-941759f6b22c","ios":"levelo://app?vid=f37cf857-00e9-49de-bb4b-941759f6b22c"},"vehicle_type_id":"4","last_reported":1746807169,"current_range_meters":20400,"station_id":"ce4bgm92rcd13ifvqbr0","pricing_plan_id":"cebpf4jnsgd1na2vs0mg"},{"bike_id":"361db05e-e8e5-48b8-b0c3-67cfacebba6b","system_id":"levelo_inurba_marseille","lat":43.2466,"lon":5.38164,"is_reserved":false,"is_disabled":false,"rental_uris":{"android":"levelo://app?vid=361db05e-e8e5-48b8-b0c3-67cfacebba6b","ios":"levelo://app?vid=361db05e-e8e5-48b8-b0c3-67cfacebba6b"},"vehicle_type_id":"4","last_reported":1746807169,"current_range_meters":20800,"station_id":"ce4bhih2rcd13ifvqfr0","pricing_plan_id":"cebpf4jnsgd1na2vs0mg"},{"bike_id":"b992555e-2b73-4f07-bb2a-e9a8b263b103","system_id":"levelo_inurba_marseille","lat":43.23965,"lon":5.3664,"is_reserved":false,"is_disabled":false,"rental_uris":{"android":"levelo://app?vid=b992555e-2b73-4f07-bb2a-e9a8b263b103","ios":"levelo://app?vid=b992555e-2b73-4f07-bb2a-e9a8b263b103"},"vehicle_type_id":"4","last_reported":1746807169,"current_range_meters":20800,"station_id":"ce4bhi12rcd13ifvqfp0","pricing_plan_id":"cebpf4jnsgd1na2vs0mg"},{"bike_id":"737d6b9e-1201-43d3-ade4-1cdf6e01a511","system_id":"levelo_inurba_marseille","lat":43.211913,"lon":5.350721,"is_reserved":false,"is_disabled":false,"rental_uris":{"android":"levelo://app?vid=737d6b9e-1201-43d3-ade4-1cdf6e01a511","ios":"levelo://app?vid=737d6b9e-1201-43d3-ade4-1cdf6e01a511"},"vehicle_type_id":"4","last_reported":1746807169,"current_range_meters":20800,"station_id":"st_cvj6sg6p6f1abm77japg","pricing_plan_id":"cebpf4jnsgd1na2vs0mg"},{"bike_id":"2fbc5113-34c5-4504-96c9-8350bb0d3905","system_id":"levelo_inurba_marseille","lat":43.31067,"lon":5.42431,"is_reserved":false,"is_disabled":false,"rental_uris":{"android":"levelo://app?vid=2fbc5113-34c5-4504-96c9-8350bb0d3905","ios":"levelo://app?vid=2fbc5113-34c5-4504-96c9-8350bb0d3905"},"vehicle_type_id":"4","last_reported":1746807169,"current_range_meters":20800,"station_id":"ce4bhp92rcd13ifvqhag","pricing_plan_id":"cebpf4jnsgd1na2vs0mg"},{"bike_id":"a455fa2f-b2a6-4be5-a392-cd8c39eef4ce","system_id":"levelo_inurba_marseille","lat":43.24649,"lon":5.38892,"is_reserved":false,"is_disabled":false,"rental_uris":{"android":"levelo://app?vid=a455fa2f-b2a6-4be5-a392-cd8c39eef4ce","ios":"levelo://app?vid=a455fa2f-b2a6-4be5-a392-cd8c39eef4ce"},"vehicle_type_id":"4","last_reported":1746807169,"current_range_meters":20800,"station_id":"ce4bhg12rcd13ifvqf60","pricing_plan_id":"cebpf4jnsgd1na2vs0mg"},{"bike_id":"6feca05b-5ddd-472b-9e47-426578081797","system_id":"levelo_inurba_marseille","lat":43.29531,"lon":5.37515,"is_reserved":false,"is_disabled":false,"rental_uris":{"android":"levelo://app?vid=6feca05b-5ddd-472b-9e47-426578081797","ios":"levelo://app?vid=6feca05b-5ddd-472b-9e47-426578081797"},"vehicle_type_id":"4","last_reported":1746807169,"current_range_meters":20800,"station_id":"ce4bgkp2rcd13ifvqbmg","pricing_plan_id":"cebpf4jnsgd1na2vs0mg"},{"bike_id":"65a89050-26ef-498e-9004-ff569f641213","system_id":"levelo_inurba_marseille","lat":43.29718,"lon":5.36625,"is_reserved":false,"is_disabled":false,"rental_uris":{"android":"levelo://app?vid=65a89050-26ef-498e-9004-ff569f641213","ios":"levelo://app?vid=65a89050-26ef-498e-9004-ff569f641213"},"vehicle_type_id":"4","last_reported":1746807169,"current_range_meters":20800,"station_id":"ce4bgn12rcd13ifvqbt0","pricing_plan_id":"cebpf4jnsgd1na2vs0mg"},{"bike_id":"7ba896fb-f0ed-4361-bc68-54823b37e695","system_id":"levelo_inurba_marseille","lat":43.30765,"lon":5.38119,"is_reserved":false,"is_disabled":false,"rental_uris":{"android":"levelo://app?vid=7ba896fb-f0ed-4361-bc68-54823b37e695","ios":"levelo://app?vid=7ba896fb-f0ed-4361-bc68-54823b37e695"},"vehicle_type_id":"4","last_reported":1746807169,"current_range_meters":20800,"station_id":"ce4bgt12rcd13ifvqce0","pricing_plan_id":"cebpf4jnsgd1na2vs0mg"},{"bike_id":"589be833-6fc8-4c7e-abe3-20b2a016c12e","system_id":"levelo_inurba_marseille","lat":43.21216,"lon":5.35094,"is_reserved":false,"is_disabled":false,"rental_uris":{"android":"levelo://app?vid=589be833-6fc8-4c7e-abe3-20b2a016c12e","ios":"levelo://app?vid=589be833-6fc8-4c7e-abe3-20b2a016c12e"},"vehicle_type_id":"4","last_reported":1746807169,"current_range_meters":21600,"station_id":"st_cvj6sg6p6f1abm77japg","pricing_plan_id":"cebpf4jnsgd1na2vs0mg"},{"bike_id":"a68bb241-1615-45d1-ae13-62f76d4bafb7","system_id":"levelo_inurba_marseille","lat":43.29969,"lon":5.3849,"is_reserved":false,"is_disabled":false,"rental_uris":{"android":"levelo://app?vid=a68bb241-1615-45d1-ae13-62f76d4bafb7","ios":"levelo://app?vid=a68bb241-1615-45d1-ae13-62f76d4bafb7"},"vehicle_type_id":"4","last_reported":1746807169,"current_range_meters":21600,"station_id":"ce4bgj92rcd13ifvqbd0","pricing_plan_id":"cebpf4jnsgd1na2vs0mg"},{"bike_id":"b92fd914-86b4-47a2-901f-e6d2d237170a","system_id":"levelo_inurba_marseille","lat":43.27309,"lon":5.39086,"is_reserved":false,"is_disabled":false,"rental_uris":{"android":"levelo://app?vid=b92fd914-86b4-47a2-901f-e6d2d237170a","ios":"levelo://app?vid=b92fd914-86b4-47a2-901f-e6d2d237170a"},"vehicle_type_id":"4","last_reported":1746807169,"current_range_meters":21600,"station_id":"ce4bhgp2rcd13ifvqfe0","pricing_plan_id":"cebpf4jnsgd1na2vs0mg"},{"bike_id":"8770706b-eec6-4189-b86e-2dfc4307afeb","system_id":"levelo_inurba_marseille","lat":43.30255,"lon":5.40072,"is_reserved":false,"is_disabled":false,"rental_uris":{"android":"levelo://app?vid=8770706b-eec6-4189-b86e-2dfc4307afeb","ios":"levelo://app?vid=8770706b-eec6-4189-b86e-2dfc4307afeb"},"vehicle_type_id":"4","last_reported":1746807169,"current_range_meters":21600,"station_id":"ce4bgvh2rcd13ifvqcs0","pricing_plan_id":"cebpf4jnsgd1na2vs0mg"},{"bike_id":"246afc3a-8b23-44f6-9b30-d9de7fdd0481","system_id":"levelo_inurba_marseille","lat":43.29035,"lon":5.35926,"is_reserved":false,"is_disabled":false,"rental_uris":{"android":"levelo://app?vid=246afc3a-8b23-44f6-9b30-d9de7fdd0481","ios":"levelo://app?vid=246afc3a-8b23-44f6-9b30-d9de7fdd0481"},"vehicle_type_id":"4","last_reported":1746807169,"current_range_meters":22000,"station_id":"ce4bha92rcd13ifvqeg0","pricing_plan_id":"cebpf4jnsgd1na2vs0mg"},{"bike_id":"41fb1b4e-f0b2-47b8-a7ca-db437515f380","system_id":"levelo_inurba_marseille","lat":43.26253,"lon":5.40481,"is_reserved":false,"is_disabled":false,"rental_uris":{"android":"levelo://app?vid=41fb1b4e-f0b2-47b8-a7ca-db437515f380","ios":"levelo://app?vid=41fb1b4e-f0b2-47b8-a7ca-db437515f380"},"vehicle_type_id":"4","last_reported":1746807169,"current_range_meters":22000,"station_id":"ce4bhmh2rcd13ifvqgmg","pricing_plan_id":"cebpf4jnsgd1na2vs0mg"},{"bike_id":"0fb6b147-e9a8-4345-a220-93d47a47a517","system_id":"levelo_inurba_marseille","lat":43.22941,"lon":5.35386,"is_reserved":false,"is_disabled":false,"rental_uris":{"android":"levelo://app?vid=0fb6b147-e9a8-4345-a220-93d47a47a517","ios":"levelo://app?vid=0fb6b147-e9a8-4345-a220-93d47a47a517"},"vehicle_type_id":"4","last_reported":1746807169,"current_range_meters":22000,"station_id":"cpo3532slgdg3j2ikp40","pricing_plan_id":"cebpf4jnsgd1na2vs0mg"},{"bike_id":"5061f3d7-00b4-483b-8909-282cbb6d4968","system_id":"levelo_inurba_marseille","lat":43.27997,"lon":5.41662,"is_reserved":false,"is_disabled":false,"rental_uris":{"android":"levelo://app?vid=5061f3d7-00b4-483b-8909-282cbb6d4968","ios":"levelo://app?vid=5061f3d7-00b4-483b-8909-282cbb6d4968"},"vehicle_type_id":"4","last_reported":1746807169,"current_range_meters":22000,"station_id":"ce4bho12rcd13ifvqh1g","pricing_plan_id":"cebpf4jnsgd1na2vs0mg"},{"bike_id":"caccfcaa-7db6-4121-88b1-1feb0bc00137","system_id":"levelo_inurba_marseille","lat":43.32276,"lon":5.38279,"is_reserved":false,"is_disabled":false,"rental_uris":{"android":"levelo://app?vid=caccfcaa-7db6-4121-88b1-1feb0bc00137","ios":"levelo://app?vid=caccfcaa-7db6-4121-88b1-1feb0bc00137"},"vehicle_type_id":"4","last_reported":1746807169,"current_range_meters":22000,"station_id":"ce4bhr12rcd13ifvqhqg","pricing_plan_id":"cebpf4jnsgd1na2vs0mg"},{"bike_id":"e5083f9d-6974-4e10-b33a-f847338b71c7","system_id":"levelo_inurba_marseille","lat":43.32652,"lon":5.40996,"is_reserved":false,"is_disabled":false,"rental_uris":{"android":"levelo://app?vid=e5083f9d-6974-4e10-b33a-f847338b71c7","ios":"levelo://app?vid=e5083f9d-6974-4e10-b33a-f847338b71c7"},"vehicle_type_id":"4","last_reported":1746807169,"current_range_meters":22000,"station_id":"ce4bhpp2rcd13ifvqhgg","pricing_plan_id":"cebpf4jnsgd1na2vs0mg"},{"bike_id":"f013ef45-e90a-4f26-949a-45c991d26fcb","system_id":"levelo_inurba_marseille","lat":43.29631,"lon":5.40597,"is_reserved":false,"is_disabled":false,"rental_uris":{"android":"levelo://app?vid=f013ef45-e90a-4f26-949a-45c991d26fcb","ios":"levelo://app?vid=f013ef45-e90a-4f26-949a-45c991d26fcb"},"vehicle_type_id":"4","last_reported":1746807169,"current_range_meters":22000,"station_id":"ce4bh0h2rcd13ifvqd60","pricing_plan_id":"cebpf4jnsgd1na2vs0mg"},{"bike_id":"11bac9a6-0e04-4c68-9615-f13539342864","system_id":"levelo_inurba_marseille","lat":43.21187,"lon":5.35116,"is_reserved":false,"is_disabled":false,"rental_uris":{"android":"levelo://app?vid=11bac9a6-0e04-4c68-9615-f13539342864","ios":"levelo://app?vid=11bac9a6-0e04-4c68-9615-f13539342864"},"vehicle_type_id":"4","last_reported":1746807169,"current_range_meters":22400,"station_id":"st_cvj6sg6p6f1abm77japg","pricing_plan_id":"cebpf4jnsgd1na2vs0mg"},{"bike_id":"3fd230cf-b890-4e5c-8780-e88d19d476da","system_id":"levelo_inurba_marseille","lat":43.26011,"lon":5.37514,"is_reserved":false,"is_disabled":false,"rental_uris":{"android":"levelo://app?vid=3fd230cf-b890-4e5c-8780-e88d19d476da","ios":"levelo://app?vid=3fd230cf-b890-4e5c-8780-e88d19d476da"},"vehicle_type_id":"4","last_reported":1746807169,"current_range_meters":22400,"station_id":"ce4bhgh2rcd13ifvqfa0","pricing_plan_id":"cebpf4jnsgd1na2vs0mg"},{"bike_id":"38a50b94-8d3b-4c86-99b9-7a0e6a3db52f","system_id":"levelo_inurba_marseille","lat":43.23181,"lon":5.39997,"is_reserved":false,"is_disabled":false,"rental_uris":{"android":"levelo://app?vid=38a50b94-8d3b-4c86-99b9-7a0e6a3db52f","ios":"levelo://app?vid=38a50b94-8d3b-4c86-99b9-7a0e6a3db52f"},"vehicle_type_id":"4","last_reported":1746807169,"current_range_meters":22400,"station_id":"ce4bhn12rcd13ifvqgqg","pricing_plan_id":"cebpf4jnsgd1na2vs0mg"},{"bike_id":"1112df4d-33b1-44da-b208-20da763da086","system_id":"levelo_inurba_marseille","lat":43.29216,"lon":5.36079,"is_reserved":false,"is_disabled":false,"rental_uris":{"android":"levelo://app?vid=1112df4d-33b1-44da-b208-20da763da086","ios":"levelo://app?vid=1112df4d-33b1-44da-b208-20da763da086"},"vehicle_type_id":"4","last_reported":1746807169,"current_range_meters":22800,"station_id":"ce4bhbh2rcd13ifvqeqg","pricing_plan_id":"cebpf4jnsgd1na2vs0mg"},{"bike_id":"11056a4a-df74-456a-9e82-921fe113feb2","system_id":"levelo_inurba_marseille","lat":43.290159,"lon":5.381299,"is_reserved":false,"is_disabled":false,"rental_uris":{"android":"levelo://app?vid=11056a4a-df74-456a-9e82-921fe113feb2","ios":"levelo://app?vid=11056a4a-df74-456a-9e82-921fe113feb2"},"vehicle_type_id":"4","last_reported":1746807169,"current_range_meters":22800,"station_id":"","pricing_plan_id":"cebpf4jnsgd1na2vs0mg"},{"bike_id":"7494e185-feca-4618-9698-896ea8adc073","system_id":"levelo_inurba_marseille","lat":43.32045,"lon":5.41561,"is_reserved":false,"is_disabled":false,"rental_uris":{"android":"levelo://app?vid=7494e185-feca-4618-9698-896ea8adc073","ios":"levelo://app?vid=7494e185-feca-4618-9698-896ea8adc073"},"vehicle_type_id":"4","last_reported":1746807169,"current_range_meters":22800,"station_id":"ce4bhq92rcd13ifvqhkg","pricing_plan_id":"cebpf4jnsgd1na2vs0mg"},{"bike_id":"e3977b3b-8cb7-4afb-9dc5-231e45de7128","system_id":"levelo_inurba_marseille","lat":43.30785,"lon":5.38147,"is_reserved":false,"is_disabled":false,"rental_uris":{"android":"levelo://app?vid=e3977b3b-8cb7-4afb-9dc5-231e45de7128","ios":"levelo://app?vid=e3977b3b-8cb7-4afb-9dc5-231e45de7128"},"vehicle_type_id":"4","last_reported":1746807169,"current_range_meters":22800,"station_id":"ce4bgt12rcd13ifvqce0","pricing_plan_id":"cebpf4jnsgd1na2vs0mg"},{"bike_id":"2b0e98d2-efa4-4548-bb4f-3fe6219bf87e","system_id":"levelo_inurba_marseille","lat":43.25818,"lon":5.39434,"is_reserved":false,"is_disabled":false,"rental_uris":{"android":"levelo://app?vid=2b0e98d2-efa4-4548-bb4f-3fe6219bf87e","ios":"levelo://app?vid=2b0e98d2-efa4-4548-bb4f-3fe6219bf87e"},"vehicle_type_id":"4","last_reported":1746807169,"current_range_meters":22800,"station_id":"ce4bhip2rcd13ifvqft0","pricing_plan_id":"cebpf4jnsgd1na2vs0mg"},{"bike_id":"f614d86b-5384-4299-bec4-d37ef9ff2f85","system_id":"levelo_inurba_marseille","lat":43.29958,"lon":5.41321,"is_reserved":false,"is_disabled":false,"rental_uris":{"android":"levelo://app?vid=f614d86b-5384-4299-bec4-d37ef9ff2f85","ios":"levelo://app?vid=f614d86b-5384-4299-bec4-d37ef9ff2f85"},"vehicle_type_id":"4","last_reported":1746807169,"current_range_meters":22800,"station_id":"ce4bhp12rcd13ifvqh9g","pricing_plan_id":"cebpf4jnsgd1na2vs0mg"},{"bike_id":"be10a0f5-a782-44b7-8162-f03f80498420","system_id":"levelo_inurba_marseille","lat":43.23966,"lon":5.366416,"is_reserved":false,"is_disabled":false,"rental_uris":{"android":"levelo://app?vid=be10a0f5-a782-44b7-8162-f03f80498420","ios":"levelo://app?vid=be10a0f5-a782-44b7-8162-f03f80498420"},"vehicle_type_id":"4","last_reported":1746807169,"current_range_meters":23200,"station_id":"ce4bhi12rcd13ifvqfp0","pricing_plan_id":"cebpf4jnsgd1na2vs0mg"},{"bike_id":"26d93f5b-4a52-42a5-b815-cadab3785d2e","system_id":"levelo_inurba_marseille","lat":43.30157,"lon":5.39448,"is_reserved":false,"is_disabled":false,"rental_uris":{"android":"levelo://app?vid=26d93f5b-4a52-42a5-b815-cadab3785d2e","ios":"levelo://app?vid=26d93f5b-4a52-42a5-b815-cadab3785d2e"},"vehicle_type_id":"4","last_reported":1746807169,"current_range_meters":23200,"station_id":"","pricing_plan_id":"cebpf4jnsgd1na2vs0mg"},{"bike_id":"0bc9cb63-f6cf-47b0-bcb8-89c25b2a0347","system_id":"levelo_inurba_marseille","lat":43.265,"lon":5.3954,"is_reserved":false,"is_disabled":false,"rental_uris":{"android":"levelo://app?vid=0bc9cb63-f6cf-47b0-bcb8-89c25b2a0347","ios":"levelo://app?vid=0bc9cb63-f6cf-47b0-bcb8-89c25b2a0347"},"vehicle_type_id":"4","last_reported":1746807169,"current_range_meters":23200,"station_id":"ce4bhi12rcd13ifvqfq0","pricing_plan_id":"cebpf4jnsgd1na2vs0mg"},{"bike_id":"4a35c007-c657-42b8-a046-40dfccfca043","system_id":"levelo_inurba_marseille","lat":43.30772,"lon":5.37662,"is_reserved":false,"is_disabled":false,"rental_uris":{"android":"levelo://app?vid=4a35c007-c657-42b8-a046-40dfccfca043","ios":"levelo://app?vid=4a35c007-c657-42b8-a046-40dfccfca043"},"vehicle_type_id":"4","last_reported":1746807169,"current_range_meters":23200,"station_id":"ce4bgv92rcd13ifvqcq0","pricing_plan_id":"cebpf4jnsgd1na2vs0mg"},{"bike_id":"f3a918cd-5aa7-47aa-ad97-6ec341bfd9a5","system_id":"levelo_inurba_marseille","lat":43.30585,"lon":5.39353,"is_reserved":false,"is_disabled":false,"rental_uris":{"android":"levelo://app?vid=f3a918cd-5aa7-47aa-ad97-6ec341bfd9a5","ios":"levelo://app?vid=f3a918cd-5aa7-47aa-ad97-6ec341bfd9a5"},"vehicle_type_id":"4","last_reported":1746807169,"current_range_meters":24000,"station_id":"ce4bh0p2rcd13ifvqd80","pricing_plan_id":"cebpf4jnsgd1na2vs0mg"},{"bike_id":"370318b1-2112-4469-96f5-e9652f20030c","system_id":"levelo_inurba_marseille","lat":43.28433,"lon":5.34986,"is_reserved":false,"is_disabled":false,"rental_uris":{"android":"levelo://app?vid=370318b1-2112-4469-96f5-e9652f20030c","ios":"levelo://app?vid=370318b1-2112-4469-96f5-e9652f20030c"},"vehicle_type_id":"4","last_reported":1746807169,"current_range_meters":24000,"station_id":"ce4bhbh2rcd13ifvqepg","pricing_plan_id":"cebpf4jnsgd1na2vs0mg"},{"bike_id":"c09f984e-3802-4300-b78b-41a2db245d12","system_id":"levelo_inurba_marseille","lat":43.3175,"lon":5.39015,"is_reserved":false,"is_disabled":false,"rental_uris":{"android":"levelo://app?vid=c09f984e-3802-4300-b78b-41a2db245d12","ios":"levelo://app?vid=c09f984e-3802-4300-b78b-41a2db245d12"},"vehicle_type_id":"4","last_reported":1746807169,"current_range_meters":24000,"station_id":"ce4bhqp2rcd13ifvqhng","pricing_plan_id":"cebpf4jnsgd1na2vs0mg"},{"bike_id":"30d032a9-1fb6-4043-9a18-982f18073f8a","system_id":"levelo_inurba_marseille","lat":43.23964,"lon":5.36642,"is_reserved":false,"is_disabled":false,"rental_uris":{"android":"levelo://app?vid=30d032a9-1fb6-4043-9a18-982f18073f8a","ios":"levelo://app?vid=30d032a9-1fb6-4043-9a18-982f18073f8a"},"vehicle_type_id":"4","last_reported":1746807169,"current_range_meters":24000,"station_id":"ce4bhi12rcd13ifvqfp0","pricing_plan_id":"cebpf4jnsgd1na2vs0mg"},{"bike_id":"bcd6a740-9967-4422-8c14-7c774953510b","system_id":"levelo_inurba_marseille","lat":43.30795,"lon":5.43515,"is_reserved":false,"is_disabled":false,"rental_uris":{"android":"levelo://app?vid=bcd6a740-9967-4422-8c14-7c774953510b","ios":"levelo://app?vid=bcd6a740-9967-4422-8c14-7c774953510b"},"vehicle_type_id":"4","last_reported":1746807169,"current_range_meters":24000,"station_id":"ce4bhph2rcd13ifvqheg","pricing_plan_id":"cebpf4jnsgd1na2vs0mg"},{"bike_id":"b39577ba-536a-46b2-9437-1d4864420c77","system_id":"levelo_inurba_marseille","lat":43.32289,"lon":5.38282,"is_reserved":false,"is_disabled":false,"rental_uris":{"android":"levelo://app?vid=b39577ba-536a-46b2-9437-1d4864420c77","ios":"levelo://app?vid=b39577ba-536a-46b2-9437-1d4864420c77"},"vehicle_type_id":"4","last_reported":1746807169,"current_range_meters":24400,"station_id":"ce4bhr12rcd13ifvqhqg","pricing_plan_id":"cebpf4jnsgd1na2vs0mg"},{"bike_id":"f52c819d-ca4b-4640-b458-b877db1bf990","system_id":"levelo_inurba_marseille","lat":43.2991,"lon":5.41048,"is_reserved":false,"is_disabled":false,"rental_uris":{"android":"levelo://app?vid=f52c819d-ca4b-4640-b458-b877db1bf990","ios":"levelo://app?vid=f52c819d-ca4b-4640-b458-b877db1bf990"},"vehicle_type_id":"4","last_reported":1746807169,"current_range_meters":24400,"station_id":"","pricing_plan_id":"cebpf4jnsgd1na2vs0mg"},{"bike_id":"2dd9eb1f-6fa8-4c48-8f99-3fa6c55aef3a","system_id":"levelo_inurba_marseille","lat":43.28136,"lon":5.42619,"is_reserved":false,"is_disabled":false,"rental_uris":{"android":"levelo://app?vid=2dd9eb1f-6fa8-4c48-8f99-3fa6c55aef3a","ios":"levelo://app?vid=2dd9eb1f-6fa8-4c48-8f99-3fa6c55aef3a"},"vehicle_type_id":"4","last_reported":1746807169,"current_range_meters":24400,"station_id":"ce4bhnh2rcd13ifvqgug","pricing_plan_id":"cebpf4jnsgd1na2vs0mg"},{"bike_id":"dea91c64-8cd5-448b-a552-a026a3701963","system_id":"levelo_inurba_marseille","lat":43.29265,"lon":5.37625,"is_reserved":false,"is_disabled":false,"rental_uris":{"android":"levelo://app?vid=dea91c64-8cd5-448b-a552-a026a3701963","ios":"levelo://app?vid=dea91c64-8cd5-448b-a552-a026a3701963"},"vehicle_type_id":"4","last_reported":1746807169,"current_range_meters":24400,"station_id":"ce4bgi12rcd13ifvqb80","pricing_plan_id":"cebpf4jnsgd1na2vs0mg"},{"bike_id":"830ca2f3-14a2-40d4-b14d-f14634d8ac66","system_id":"levelo_inurba_marseille","lat":43.31719,"lon":5.43701,"is_reserved":false,"is_disabled":false,"rental_uris":{"android":"levelo://app?vid=830ca2f3-14a2-40d4-b14d-f14634d8ac66","ios":"levelo://app?vid=830ca2f3-14a2-40d4-b14d-f14634d8ac66"},"vehicle_type_id":"4","last_reported":1746807169,"current_range_meters":24800,"station_id":"ce4bhp92rcd13ifvqhcg","pricing_plan_id":"cebpf4jnsgd1na2vs0mg"},{"bike_id":"9b91aff9-754d-4a38-876c-d66d84e8fc62","system_id":"levelo_inurba_marseille","lat":43.30803,"lon":5.43526,"is_reserved":false,"is_disabled":false,"rental_uris":{"android":"levelo://app?vid=9b91aff9-754d-4a38-876c-d66d84e8fc62","ios":"levelo://app?vid=9b91aff9-754d-4a38-876c-d66d84e8fc62"},"vehicle_type_id":"4","last_reported":1746807169,"current_range_meters":24800,"station_id":"ce4bhph2rcd13ifvqheg","pricing_plan_id":"cebpf4jnsgd1na2vs0mg"},{"bike_id":"d6a33ca5-ced0-48f0-97bb-21ed392652d2","system_id":"levelo_inurba_marseille","lat":43.315186,"lon":5.380261,"is_reserved":false,"is_disabled":false,"rental_uris":{"android":"levelo://app?vid=d6a33ca5-ced0-48f0-97bb-21ed392652d2","ios":"levelo://app?vid=d6a33ca5-ced0-48f0-97bb-21ed392652d2"},"vehicle_type_id":"4","last_reported":1746807169,"current_range_meters":24800,"station_id":"ce4bhsp2rcd13ifvqi50","pricing_plan_id":"cebpf4jnsgd1na2vs0mg"},{"bike_id":"705a8224-b36e-442c-b483-b614330d40f7","system_id":"levelo_inurba_marseille","lat":43.28346,"lon":5.38621,"is_reserved":false,"is_disabled":false,"rental_uris":{"android":"levelo://app?vid=705a8224-b36e-442c-b483-b614330d40f7","ios":"levelo://app?vid=705a8224-b36e-442c-b483-b614330d40f7"},"vehicle_type_id":"4","last_reported":1746807169,"current_range_meters":24800,"station_id":"ce4bh492rcd13ifvqdvg","pricing_plan_id":"cebpf4jnsgd1na2vs0mg"},{"bike_id":"c685de6c-7e1c-4f6d-a85e-677faf50b2ff","system_id":"levelo_inurba_marseille","lat":43.21193,"lon":5.35081,"is_reserved":false,"is_disabled":false,"rental_uris":{"android":"levelo://app?vid=c685de6c-7e1c-4f6d-a85e-677faf50b2ff","ios":"levelo://app?vid=c685de6c-7e1c-4f6d-a85e-677faf50b2ff"},"vehicle_type_id":"4","last_reported":1746807169,"current_range_meters":24800,"station_id":"st_cvj6sg6p6f1abm77japg","pricing_plan_id":"cebpf4jnsgd1na2vs0mg"},{"bike_id":"02bac07a-9186-49eb-a666-f70d86d99978","system_id":"levelo_inurba_marseille","lat":43.21161,"lon":5.35058,"is_reserved":false,"is_disabled":false,"rental_uris":{"android":"levelo://app?vid=02bac07a-9186-49eb-a666-f70d86d99978","ios":"levelo://app?vid=02bac07a-9186-49eb-a666-f70d86d99978"},"vehicle_type_id":"4","last_reported":1746807169,"current_range_meters":24800,"station_id":"st_cvj6sg6p6f1abm77japg","pricing_plan_id":"cebpf4jnsgd1na2vs0mg"},