{"last_updated":1705694871,"ttl":30,"version":"2.2","data":{"bikes":[{"bike_id":"97f08bf8-1ec8-41a0-9009-c1b03f85bd6a","system_id":"levelo_inurba_marseille","lat":43.313544,"lon":5.367062,"is_reserved":false,"is_disabled":false,"rental_uris":{"android":"levelo://app?vid=97f08bf8-1ec8-41a0-9009-c1b03f85bd6a","ios":"levelo://app?vid=97f08bf8-1ec8-41a0-9009-c1b03f85bd6a"},"vehicle_type_id":"4","last_reported":1705694871,"current_range_meters":24800,"station_id":"ce4bgr92rcd13ifvqc6g","pricing_plan_id":"free"},{"bike_id":"e87e381d-9e43-46aa-bdc6-ccd3443b2ca9","system_id":"levelo_inurba_marseille","lat":43.313594,"lon":5.36705,"is_reserved":false,"is_disabled":false,"rental_uris":{"android":"levelo://app?vid=e87e381d-9e43-46aa-bdc6-ccd3443b2ca9","ios":"levelo://app?vid=e87e381d-9e43-46aa-bdc6-ccd3443b2ca9"},"vehicle_type_id":"4","last_reported":1705694871,"current_range_meters":15200,"station_id":"ce4bgr92rcd13ifvqc6g","pricing_plan_id":"free"},{"bike_id":"173c07e5-8508-415e-8f5f-ed33807c7621","system_id":"levelo_inurba_marseille","lat":43.312239,"lon":5.368562,"is_reserved":false,"is_disabled":false,"rental_uris":{"android":"levelo://app?vid=173c07e5-8508-415e-8f5f-ed33807c7621","ios":"levelo://app?vid=173c07e5-8508-415e-8f5f-ed33807c7621"},"vehicle_type_id":"4","last_reported":1705694871,"current_range_meters":29200,"station_id":"ce4bgl92rcd13ifvqbq0","pricing_plan_id":"free"},{"bike_id":"8af93833-18b6-490a-8fc5-9cfa82edad07","system_id":"levelo_inurba_marseille","lat":43.312239,"lon":5.368562,"is_reserved":false,"is_disabled":false,"rental_uris":{"android":"levelo://app?vid=8af93833-18b6-490a-8fc5-9cfa82edad07","ios":"levelo://app?vid=8af93833-18b6-490a-8fc5-9cfa82edad07"},"vehicle_type_id":"4","last_reported":1705694871,"current_range_meters":3200,"station_id":"ce4bgl92rcd13ifvqbq0","pricing_plan_id":"free"},{"bike_id":"c29a3c1a-2bc1-48d4-8c54-54ccfbc2af99","system_id":"levelo_inurba_marseille","lat":43.312239,"lon":5.368562,"is_reserved":false,"is_disabled":false,"rental_uris":{"android":"levelo://app?vid=c29a3c1a-2bc1-48d4-8c54-54ccfbc2af99","ios":"levelo://app?vid=c29a3c1a-2bc1-48d4-8c54-54ccfbc2af99"},"vehicle_type_id":"4","last_reported":1705694871,"current_range_meters":27600,"station_id":"ce4bgl92rcd13ifvqbq0","pricing_plan_id":"free"},{"bike_id":"8bfa0f38-e0d1-4e52-a6cd-aa9fae24d1cf","system_id":"levelo_inurba_marseille","lat":43.312239,"lon":5.368562,"is_reserved":false,"is_disabled":false,"rental_uris":{"android":"levelo://app?vid=8bfa0f38-e0d1-4e52-a6cd-aa9fae24d1cf","ios":"levelo://app?vid=8bfa0f38-e0d1-4e52-a6cd-aa9fae24d1cf"},"vehicle_type_id":"4","last_reported":1705694871,"current_range_meters":5200,"station_id":"ce4bgl92rcd13ifvqbq0","pricing_plan_id":"free"},{"bike_id":"f9b82c1c-7c82-4344-bd05-c27963a7b1e2","system_id":"levelo_inurba_marseille","lat":43.312239,"lon":5.368562,"is_reserved":false,"is_disabled":false,"rental_uris":{"android":"levelo://app?vid=f9b82c1c-7c82-4344-bd05-c27963a7b1e2","ios":"levelo://app?vid=f9b82c1c-7c82-4344-bd05-c27963a7b1e2"},"vehicle_type_id":"4","last_reported":1705694871,"current_range_meters":9600,"station_id":"ce4bgl92rcd13ifvqbq0","pricing_plan_id":"free"},{"bike_id":"f9437048-cd1e-4983-b751-7b53f60e1982","system_id":"levelo_inurba_marseille","lat":43.312239,"lon":5.368562,"is_reserved":false,"is_disabled":false,"rental_uris":{"android":"levelo://app?vid=f9437048-cd1e-4983-b751-7b53f60e1982","ios":"levelo://app?vid=f9437048-cd1e-4983-b751-7b53f60e1982"},"vehicle_type_id":"4","last_reported":1705694871,"current_range_meters":25200,"station_id":"ce4bgl92rcd13ifvqbq0","pricing_plan_id":"free"},{"bike_id":"af9a0238-b7e6-4c29-95fc-91fbf0bc9127","system_id":"levelo_inurba_marseille","lat":43.312239,"lon":5.368562,"is_reserved":false,"is_disabled":false,"rental_uris":{"android":"levelo://app?vid=af9a0238-b7e6-4c29-95fc-91fbf0bc9127","ios":"levelo://app?vid=af9a0238-b7e6-4c29-95fc-91fbf0bc9127"},"vehicle_type_id":"4","last_reported":1705694871,"current_range_meters":16000,"station_id":"ce4bgl92rcd13ifvqbq0","pricing_plan_id":"free"},{"bike_id":"d6436457-39b7-4c17-8a51-d1cb4b2e366f","system_id":"levelo_inurba_marseille","lat":43.312239,"lon":5.368562,"is_reserved":false,"is_disabled":false,"rental_uris":{"android":"levelo://app?vid=d6436457-39b7-4c17-8a51-d1cb4b2e366f","ios":"levelo://app?vid=d6436457-39b7-4c17-8a51-d1cb4b2e366f"},"vehicle_type_id":"4","last_reported":1705694871,"current_range_meters":13200,"station_id":"ce4bgl92rcd13ifvqbq0","pricing_plan_id":"free"},{"bike_id":"6ba15a29-d86f-4270-afd5-8926b51235c3","system_id":"levelo_inurba_marseille","lat":43.312239,"lon":5.368562,"is_reserved":false,"is_disabled":false,"rental_uris":{"android":"levelo://app?vid=6ba15a29-d86f-4270-afd5-8926b51235c3","ios":"levelo://app?vid=6ba15a29-d86f-4270-afd5-8926b51235c3"},"vehicle_type_id":"4","last_reported":1705694871,"current_range_meters":21200,"station_id":"ce4bgl92rcd13ifvqbq0","pricing_plan_id":"free"},{"bike_id":"1281d799-9d76-4a04-b28f-c7585f08f157","system_id":"levelo_inurba_marseille","lat":43.312239,"lon":5.368562,"is_reserved":false,"is_disabled":false,"rental_uris":{"android":"levelo://app?vid=1281d799-9d76-4a04-b28f-c7585f08f157","ios":"levelo://app?vid=1281d799-9d76-4a04-b28f-c7585f08f157"},"vehicle_type_id":"4","last_reported":1705694871,"current_range_meters":16800,"station_id":"ce4bgl92rcd13ifvqbq0","pricing_plan_id":"free"},{"bike_id":"68ce9576-2dba-47f5-a97d-7c3897ff0890","system_id":"levelo_inurba_marseille","lat":43.312239,"lon":5.368562,"is_reserved":false,"is_disabled":false,"rental_uris":{"android":"levelo://app?vid=68ce9576-2dba-47f5-a97d-7c3897ff0890","ios":"levelo://app?vid=68ce9576-2dba-47f5-a97d-7c3897ff0890"},"vehicle_type_id":"4","last_reported":1705694871,"current_range_meters":31600,"station_id":"ce4bgl92rcd13ifvqbq0","pricing_plan_id":"free"},{"bike_id":"7f57cc82-d70c-4c1a-ba34-96ebd763daa3","system_id":"levelo_inurba_marseille","lat":43.310494,"lon":5.3714,"is_reserved":false,"is_disabled":false,"rental_uris":{"android":"levelo://app?vid=7f57cc82-d70c-4c1a-ba34-96ebd763daa3","ios":"levelo://app?vid=7f57cc82-d70c-4c1a-ba34-96ebd763daa3"},"vehicle_type_id":"4","last_reported":1705694871,"current_range_meters":0,"station_id":"","pricing_plan_id":"free"},{"bike_id":"4ec43c34-6fd8-40cf-82f2-f60d9aedfe5a","system_id":"levelo_inurba_marseille","lat":43.314811,"lon":5.373103,"is_reserved":false,"is_disabled":false,"rental_uris":{"android":"levelo://app?vid=4ec43c34-6fd8-40cf-82f2-f60d9aedfe5a","ios":"levelo://app?vid=4ec43c34-6fd8-40cf-82f2-f60d9aedfe5a"},"vehicle_type_id":"4","last_reported":1705694871,"current_range_meters":10400,"station_id":"ce4bgt12rcd13ifvqcd0","pricing_plan_id":"free"},{"bike_id":"25205c82-9642-4578-8c50-8d01b937e62b","system_id":"levelo_inurba_marseille","lat":43.314811,"lon":5.373103,"is_reserved":false,"is_disabled":false,"rental_uris":{"android":"levelo://app?vid=25205c82-9642-4578-8c50-8d01b937e62b","ios":"levelo://app?vid=25205c82-9642-4578-8c50-8d01b937e62b"},"vehicle_type_id":"4","last_reported":1705694871,"current_range_meters":17200,"station_id":"ce4bgt12rcd13ifvqcd0","pricing_plan_id":"free"},{"bike_id":"925dead6-8636-40d6-b148-30d3a80a5429","system_id":"levelo_inurba_marseille","lat":43.309039,"lon":5.371797,"is_reserved":false,"is_disabled":false,"rental_uris":{"android":"levelo://app?vid=925dead6-8636-40d6-b148-30d3a80a5429","ios":"levelo://app?vid=925dead6-8636-40d6-b148-30d3a80a5429"},"vehicle_type_id":"4","last_reported":1705694871,"current_range_meters":24000,"station_id":"ce4bguh2rcd13ifvqckg","pricing_plan_id":"free"},{"bike_id":"bb885ef1-2c92-4e77-afb5-dfe3fdb38f72","system_id":"levelo_inurba_marseille","lat":43.305443,"lon":5.36709,"is_reserved":false,"is_disabled":false,"rental_uris":{"android":"levelo://app?vid=bb885ef1-2c92-4e77-afb5-dfe3fdb38f72","ios":"levelo://app?vid=bb885ef1-2c92-4e77-afb5-dfe3fdb38f72"},"vehicle_type_id":"4","last_reported":1705694871,"current_range_meters":0,"station_id":"ce4bgrp2rcd13ifvqc9g","pricing_plan_id":"free"},{"bike_id":"397b5218-8b37-4109-aadb-b19b3edc2d04","system_id":"levelo_inurba_marseille","lat":43.30593,"lon":5.37216,"is_reserved":false,"is_disabled":false,"rental_uris":{"android":"levelo://app?vid=397b5218-8b37-4109-aadb-b19b3edc2d04","ios":"levelo://app?vid=397b5218-8b37-4109-aadb-b19b3edc2d04"},"vehicle_type_id":"4","last_reported":1705694871,"current_range_meters":7200,"station_id":"ce4bgqh2rcd13ifvqc4g","pricing_plan_id":"free"},{"bike_id":"8c6599c4-59f9-4ec5-a2bc-8e6a92f11227","system_id":"levelo_inurba_marseille","lat":43.305989,"lon":5.37225,"is_reserved":false,"is_disabled":false,"rental_uris":{"android":"levelo://app?vid=8c6599c4-59f9-4ec5-a2bc-8e6a92f11227","ios":"levelo://app?vid=8c6599c4-59f9-4ec5-a2bc-8e6a92f11227"},"vehicle_type_id":"4","last_reported":1705694871,"current_range_meters":12000,"station_id":"ce4bgqh2rcd13ifvqc4g","pricing_plan_id":"free"},{"bike_id":"77279e13-abc9-4890-aa7d-9c869b9e83ae","system_id":"levelo_inurba_marseille","lat":43.311125,"lon":5.377624,"is_reserved":false,"is_disabled":false,"rental_uris":{"android":"levelo://app?vid=77279e13-abc9-4890-aa7d-9c869b9e83ae","ios":"levelo://app?vid=77279e13-abc9-4890-aa7d-9c869b9e83ae"},"vehicle_type_id":"4","last_reported":1705694871,"current_range_meters":14800,"station_id":"ce4bgt92rcd13ifvqcg0","pricing_plan_id":"free"},{"bike_id":"3cdde73b-44c4-46bb-98d6-306383332914","system_id":"levelo_inurba_marseille","lat":43.311125,"lon":5.377624,"is_reserved":false,"is_disabled":false,"rental_uris":{"android":"levelo://app?vid=3cdde73b-44c4-46bb-98d6-306383332914","ios":"levelo://app?vid=3cdde73b-44c4-46bb-98d6-306383332914"},"vehicle_type_id":"4","last_reported":1705694871,"current_range_meters":28000,"station_id":"ce4bgt92rcd13ifvqcg0","pricing_plan_id":"free"},{"bike_id":"fdaeaed9-9851-4017-9f79-0bcba5790810","system_id":"levelo_inurba_marseille","lat":43.311125,"lon":5.377624,"is_reserved":false,"is_disabled":false,"rental_uris":{"android":"levelo://app?vid=fdaeaed9-9851-4017-9f79-0bcba5790810","ios":"levelo://app?vid=fdaeaed9-9851-4017-9f79-0bcba5790810"},"vehicle_type_id":"4","last_reported":1705694871,"current_range_meters":10800,"station_id":"ce4bgt92rcd13ifvqcg0","pricing_plan_id":"free"},{"bike_id":"99bccf18-c5f9-48ad-a620-0438c95b1df3","system_id":"levelo_inurba_marseille","lat":43.311125,"lon":5.377624,"is_reserved":false,"is_disabled":false,"rental_uris":{"android":"levelo://app?vid=99bccf18-c5f9-48ad-a620-0438c95b1df3","ios":"levelo://app?vid=99bccf18-c5f9-48ad-a620-0438c95b1df3"},"vehicle_type_id":"4","last_reported":1705694871,"current_range_meters":0,"station_id":"ce4bgt92rcd13ifvqcg0","pricing_plan_id":"free"},{"bike_id":"95d3d0a2-fce2-401c-91e6-ef729c5668f2","system_id":"levelo_inurba_marseille","lat":43.311125,"lon":5.377624,"is_reserved":false,"is_disabled":false,"rental_uris":{"android":"levelo://app?vid=95d3d0a2-fce2-401c-91e6-ef729c5668f2","ios":"levelo://app?vid=95d3d0a2-fce2-401c-91e6-ef729c5668f2"},"vehicle_type_id":"4","last_reported":1705694871,"current_range_meters":3600,"station_id":"ce4bgt92rcd13ifvqcg0","pricing_plan_id":"free"},{"bike_id":"7ada99ed-5c09-4fc3-9b74-5482197e749b","system_id":"levelo_inurba_marseille","lat":43.311125,"lon":5.377624,"is_reserved":false,"is_disabled":false,"rental_uris":{"android":"levelo://app?vid=7ada99ed-5c09-4fc3-9b74-5482197e749b","ios":"levelo://app?vid=7ada99ed-5c09-4fc3-9b74-5482197e749b"},"vehicle_type_id":"4","last_reported":1705694871,"current_range_meters":24000,"station_id":"ce4bgt92rcd13ifvqcg0","pricing_plan_id":"free"},{"bike_id":"1e598083-a05f-45ba-b573-c0fbb591b4db","system_id":"levelo_inurba_marseille","lat":43.311125,"lon":5.377624,"is_reserved":false,"is_disabled":false,"rental_uris":{"android":"levelo://app?vid=1e598083-a05f-45ba-b573-c0fbb591b4db","ios":"levelo://app?vid=1e598083-a05f-45ba-b573-c0fbb591b4db"},"vehicle_type_id":"4","last_reported":1705694871,"current_range_meters":20400,"station_id":"ce4bgt92rcd13ifvqcg0","pricing_plan_id":"free"},{"bike_id":"d463bc28-54b4-408a-a7f4-6f8323369309","system_id":"levelo_inurba_marseille","lat":43.307945,"lon":5.376487,"is_reserved":false,"is_disabled":false,"rental_uris":{"android":"levelo://app?vid=d463bc28-54b4-408a-a7f4-6f8323369309","ios":"levelo://app?vid=d463bc28-54b4-408a-a7f4-6f8323369309"},"vehicle_type_id":"4","last_reported":1705694871,"current_range_meters":20400,"station_id":"ce4bgv92rcd13ifvqcq0","pricing_plan_id":"free"},{"bike_id":"b02fa8ca-9be4-499c-bd5d-2d6262e444a7","system_id":"levelo_inurba_marseille","lat":43.307945,"lon":5.376487,"is_reserved":false,"is_disabled":false,"rental_uris":{"android":"levelo://app?vid=b02fa8ca-9be4-499c-bd5d-2d6262e444a7","ios":"levelo://app?vid=b02fa8ca-9be4-499c-bd5d-2d6262e444a7"},"vehicle_type_id":"4","last_reported":1705694871,"current_range_meters":19200,"station_id":"ce4bgv92rcd13ifvqcq0","pricing_plan_id":"free"},{"bike_id":"862c232f-c8fc-4aa8-bac5-9883ba481167","system_id":"levelo_inurba_marseille","lat":43.317075,"lon":5.377367,"is_reserved":false,"is_disabled":false,"rental_uris":{"android":"levelo://app?vid=862c232f-c8fc-4aa8-bac5-9883ba481167","ios":"levelo://app?vid=862c232f-c8fc-4aa8-bac5-9883ba481167"},"vehicle_type_id":"4","last_reported":1705694871,"current_range_meters":26000,"station_id":"ce4bgth2rcd13ifvqch0","pricing_plan_id":"free"},{"bike_id":"3a8ccd77-0861-4a9f-bde3-d86ed2504a3d","system_id":"levelo_inurba_marseille","lat":43.317075,"lon":5.377367,"is_reserved":false,"is_disabled":false,"rental_uris":{"android":"levelo://app?vid=3a8ccd77-0861-4a9f-bde3-d86ed2504a3d","ios":"levelo://app?vid=3a8ccd77-0861-4a9f-bde3-d86ed2504a3d"},"vehicle_type_id":"4","last_reported":1705694871,"current_range_meters":28400,"station_id":"ce4bgth2rcd13ifvqch0","pricing_plan_id":"free"},{"bike_id":"da2ffbfd-eb74-48d3-8f41-fa66691ac1ca","system_id":"levelo_inurba_marseille","lat":43.3171,"lon":5.37753,"is_reserved":false,"is_disabled":false,"rental_uris":{"android":"levelo://app?vid=da2ffbfd-eb74-48d3-8f41-fa66691ac1ca","ios":"levelo://app?vid=da2ffbfd-eb74-48d3-8f41-fa66691ac1ca"},"vehicle_type_id":"4","last_reported":1705694871,"current_range_meters":0,"station_id":"ce4bgth2rcd13ifvqch0","pricing_plan_id":"free"},{"bike_id":"0a153f54-491a-4c42-a28e-f49c187dadfa","system_id":"levelo_inurba_marseille","lat":43.308012,"lon":5.381511,"is_reserved":false,"is_disabled":false,"rental_uris":{"android":"levelo://app?vid=0a153f54-491a-4c42-a28e-f49c187dadfa","ios":"levelo://app?vid=0a153f54-491a-4c42-a28e-f49c187dadfa"},"vehicle_type_id":"4","last_reported":1705694871,"current_range_meters":7600,"station_id":"ce4bgt12rcd13ifvqce0","pricing_plan_id":"free"},{"bike_id":"e9723a40-96e2-4100-93b3-d3e341fc2541","system_id":"levelo_inurba_marseille","lat":43.303046,"lon":5.368981,"is_reserved":false,"is_disabled":false,"rental_uris":{"android":"levelo://app?vid=e9723a40-96e2-4100-93b3-d3e341fc2541","ios":"levelo://app?vid=e9723a40-96e2-4100-93b3-d3e341fc2541"},"vehicle_type_id":"4","last_reported":1705694871,"current_range_meters":23600,"station_id":"ce4bgqh2rcd13ifvqc5g","pricing_plan_id":"free"},{"bike_id":"4aa07bac-b6b7-4c5a-9281-f95eabdc68c0","system_id":"levelo_inurba_marseille","lat":43.30304,"lon":5.368987,"is_reserved":false,"is_disabled":false,"rental_uris":{"android":"levelo://app?vid=4aa07bac-b6b7-4c5a-9281-f95eabdc68c0","ios":"levelo://app?vid=4aa07bac-b6b7-4c5a-9281-f95eabdc68c0"},"vehicle_type_id":"4","last_reported":1705694871,"current_range_meters":18400,"station_id":"ce4bgqh2rcd13ifvqc5g","pricing_plan_id":"free"},{"bike_id":"a3226027-a460-4a87-aa5b-21bbab87da76","system_id":"levelo_inurba_marseille","lat":43.30304,"lon":5.368987,"is_reserved":false,"is_disabled":false,"rental_uris":{"android":"levelo://app?vid=a3226027-a460-4a87-aa5b-21bbab87da76","ios":"levelo://app?vid=a3226027-a460-4a87-aa5b-21bbab87da76"},"vehicle_type_id":"4","last_reported":1705694871,"current_range_meters":4400,"station_id":"ce4bgqh2rcd13ifvqc5g","pricing_plan_id":"free"},{"bike_id":"2706b3f5-7558-4f68-960f-ce11ec89d9da","system_id":"levelo_inurba_marseille","lat":43.31525,"lon":5.38034,"is_reserved":false,"is_disabled":false,"rental_uris":{"android":"levelo://app?vid=2706b3f5-7558-4f68-960f-ce11ec89d9da","ios":"levelo://app?vid=2706b3f5-7558-4f68-960f-ce11ec89d9da"},"vehicle_type_id":"4","last_reported":1705694871,"current_range_meters":11600,"station_id":"ce4bhsp2rcd13ifvqi50","pricing_plan_id":"free"},{"bike_id":"6165fac9-27db-4089-bf20-ea1a626dd817","system_id":"levelo_inurba_marseille","lat":43.301939,"lon":5.366286,"is_reserved":false,"is_disabled":false,"rental_uris":{"android":"levelo://app?vid=6165fac9-27db-4089-bf20-ea1a626dd817","ios":"levelo://app?vid=6165fac9-27db-4089-bf20-ea1a626dd817"},"vehicle_type_id":"4","last_reported":1705694871,"current_range_meters":13200,"station_id":"ce4bgrh2rcd13ifvqc8g","pricing_plan_id":"free"},{"bike_id":"d17e86e7-25c8-4be4-9736-aa9e10100373","system_id":"levelo_inurba_marseille","lat":43.30801,"lon":5.3814,"is_reserved":false,"is_disabled":false,"rental_uris":{"android":"levelo://app?vid=d17e86e7-25c8-4be4-9736-aa9e10100373","ios":"levelo://app?vid=d17e86e7-25c8-4be4-9736-aa9e10100373"},"vehicle_type_id":"4","last_reported":1705694871,"current_range_meters":16400,"station_id":"ce4bgt12rcd13ifvqce0","pricing_plan_id":"free"},{"bike_id":"005ea7c6-0d96-4979-9e9f-b4f56a2ed4d9","system_id":"levelo_inurba_marseille","lat":43.308012,"lon":5.381511,"is_reserved":false,"is_disabled":false,"rental_uris":{"android":"levelo://app?vid=005ea7c6-0d96-4979-9e9f-b4f56a2ed4d9","ios":"levelo://app?vid=005ea7c6-0d96-4979-9e9f-b4f56a2ed4d9"},"vehicle_type_id":"4","last_reported":1705694871,"current_range_meters":27600,"station_id":"ce4bgt12rcd13ifvqce0","pricing_plan_id":"free"},{"bike_id":"1df4749d-4bee-4624-b960-fece233a6f1a","system_id":"levelo_inurba_marseille","lat":43.308012,"lon":5.381511,"is_reserved":false,"is_disabled":false,"rental_uris":{"android":"levelo://app?vid=1df4749d-4bee-4624-b960-fece233a6f1a","ios":"levelo://app?vid=1df4749d-4bee-4624-b960-fece233a6f1a"},"vehicle_type_id":"4","last_reported":1705694871,"current_range_meters":30400,"station_id":"ce4bgt12rcd13ifvqce0","pricing_plan_id":"free"},{"bike_id":"7a238d46-59f2-46f1-a16c-d2acea31d059","system_id":"levelo_inurba_marseille","lat":43.308012,"lon":5.381511,"is_reserved":false,"is_disabled":false,"rental_uris":{"android":"levelo://app?vid=7a238d46-59f2-46f1-a16c-d2acea31d059","ios":"levelo://app?vid=7a238d46-59f2-46f1-a16c-d2acea31d059"},"vehicle_type_id":"4","last_reported":1705694871,"current_range_meters":17600,"station_id":"ce4bgt12rcd13ifvqce0","pricing_plan_id":"free"},{"bike_id":"49159af0-adcb-40dd-aa0a-d3043ea6f086","system_id":"levelo_inurba_marseille","lat":43.308012,"lon":5.381511,"is_reserved":false,"is_disabled":false,"rental_uris":{"android":"levelo://app?vid=49159af0-adcb-40dd-aa0a-d3043ea6f086","ios":"levelo://app?vid=49159af0-adcb-40dd-aa0a-d3043ea6f086"},"vehicle_type_id":"4","last_reported":1705694871,"current_range_meters":9200,"station_id":"ce4bgt12rcd13ifvqce0","pricing_plan_id":"free"},{"bike_id":"fdeafe69-84b2-4afa-a6fb-531519ca5d1a","system_id":"levelo_inurba_marseille","lat":43.308012,"lon":5.381511,"is_reserved":false,"is_disabled":false,"rental_uris":{"android":"levelo://app?vid=fdeafe69-84b2-4afa-a6fb-531519ca5d1a","ios":"levelo://app?vid=fdeafe69-84b2-4afa-a6fb-531519ca5d1a"},"vehicle_type_id":"4","last_reported":1705694871,"current_range_meters":6000,"station_id":"ce4bgt12rcd13ifvqce0","pricing_plan_id":"free"},{"bike_id":"15845578-34ed-4917-9818-aa232233a8de","system_id":"levelo_inurba_marseille","lat":43.308012,"lon":5.381511,"is_reserved":false,"is_disabled":false,"rental_uris":{"android":"levelo://app?vid=15845578-34ed-4917-9818-aa232233a8de","ios":"levelo://app?vid=15845578-34ed-4917-9818-aa232233a8de"},"vehicle_type_id":"4","last_reported":1705694871,"current_range_meters":5600,"station_id":"ce4bgt12rcd13ifvqce0","pricing_plan_id":"free"},{"bike_id":"15a2646c-bcd2-4074-9c29-7717ac5f865e","system_id":"levelo_inurba_marseille","lat":43.304606,"lon":5.379026,"is_reserved":false,"is_disabled":false,"rental_uris":{"android":"levelo://app?vid=15a2646c-bcd2-4074-9c29-7717ac5f865e","ios":"levelo://app?vid=15a2646c-bcd2-4074-9c29-7717ac5f865e"},"vehicle_type_id":"4","last_reported":1705694871,"current_range_meters":26800,"station_id":"ce4bgup2rcd13ifvqcn0","pricing_plan_id":"free"},{"bike_id":"01ec010d-76ab-4bc9-a115-cfcc28e343a6","system_id":"levelo_inurba_marseille","lat":43.304606,"lon":5.379026,"is_reserved":false,"is_disabled":false,"rental_uris":{"android":"levelo://app?vid=01ec010d-76ab-4bc9-a115-cfcc28e343a6","ios":"levelo://app?vid=01ec010d-76ab-4bc9-a115-cfcc28e343a6"},"vehicle_type_id":"4","last_reported":1705694871,"current_range_meters":30400,"station_id":"ce4bgup2rcd13ifvqcn0","pricing_plan_id":"free"},{"bike_id":"652261b3-248c-4d4e-9716-23b770cf1aad","system_id":"levelo_inurba_marseille","lat":43.304606,"lon":5.379026,"is_reserved":false,"is_disabled":false,"rental_uris":{"android":"levelo://app?vid=652261b3-248c-4d4e-9716-23b770cf1aad","ios":"levelo://app?vid=652261b3-248c-4d4e-9716-23b770cf1aad"},"vehicle_type_id":"4","last_reported":1705694871,"current_range_meters":17600,"station_id":"ce4bgup2rcd13ifvqcn0","pricing_plan_id":"free"},{"bike_id":"b5e7683b-e667-4195-ae60-c2e26fff6784","system_id":"levelo_inurba_marseille","lat":43.304606,"lon":5.379026,"is_reserved":false,"is_disabled":false,"rental_uris":{"android":"levelo://app?vid=b5e7683b-e667-4195-ae60-c2e26fff6784","ios":"levelo://app?vid=b5e7683b-e667-4195-ae60-c2e26fff6784"},"vehicle_type_id":"4","last_reported":1705694871,"current_range_meters":25200,"station_id":"ce4bgup2rcd13ifvqcn0","pricing_plan_id":"free"},{"bike_id":"cc17b430-845b-41de-b516-7a24f4a42037","system_id":"levelo_inurba_marseille","lat":43.304606,"lon":5.379026,"is_reserved":false,"is_disabled":false,"rental_uris":{"android":"levelo://app?vid=cc17b430-845b-41de-b516-7a24f4a42037","ios":"levelo://app?vid=cc17b430-845b-41de-b516-7a24f4a42037"},"vehicle_type_id":"4","last_reported":1705694871,"current_range_meters":22000,"station_id":"ce4bgup2rcd13ifvqcn0","pricing_plan_id":"free"},{"bike_id":"2b008552-d573-409a-94a7-78766daa76b0","system_id":"levelo_inurba_marseille","lat":43.304606,"lon":5.379026,"is_reserved":false,"is_disabled":false,"rental_uris":{"android":"levelo://app?vid=2b008552-d573-409a-94a7-78766daa76b0","ios":"levelo://app?vid=2b008552-d573-409a-94a7-78766daa76b0"},"vehicle_type_id":"4","last_reported":1705694871,"current_range_meters":12400,"station_id":"ce4bgup2rcd13ifvqcn0","pricing_plan_id":"free"},{"bike_id":"d7e1c6c3-b7d1-4aa5-b840-9967f219a1ca","system_id":"levelo_inurba_marseille","lat":43.304606,"lon":5.379026,"is_reserved":false,"is_disabled":false,"rental_uris":{"android":"levelo://app?vid=d7e1c6c3-b7d1-4aa5-b840-9967f219a1ca","ios":"levelo://app?vid=d7e1c6c3-b7d1-4aa5-b840-9967f219a1ca"},"vehicle_type_id":"4","last_reported":1705694871,"current_range_meters":24000,"station_id":"ce4bgup2rcd13ifvqcn0","pricing_plan_id":"free"},{"bike_id":"71a126c7-b719-426c-b069-4af1d4a5ba47","system_id":"levelo_inurba_marseille","lat":43.324771,"lon":5.36557,"is_reserved":false,"is_disabled":false,"rental_uris":{"android":"levelo://app?vid=71a126c7-b719-426c-b069-4af1d4a5ba47","ios":"levelo://app?vid=71a126c7-b719-426c-b069-4af1d4a5ba47"},"vehicle_type_id":"4","last_reported":1705694871,"current_range_meters":1200,"station_id":"ce4bhs12rcd13ifvqhvg","pricing_plan_id":"free"},{"bike_id":"cc2e5545-3f94-4ac6-8a1e-938ded5da297","system_id":"levelo_inurba_marseille","lat":43.304606,"lon":5.379026,"is_reserved":false,"is_disabled":false,"rental_uris":{"android":"levelo://app?vid=cc2e5545-3f94-4ac6-8a1e-938ded5da297","ios":"levelo://app?vid=cc2e5545-3f94-4ac6-8a1e-938ded5da297"},"vehicle_type_id":"4","last_reported":1705694871,"current_range_meters":20400,"station_id":"ce4bgup2rcd13ifvqcn0","pricing_plan_id":"free"},{"bike_id":"137a084d-66f4-42b1-a8ad-8a2dd930b5e0","system_id":"levelo_inurba_marseille","lat":43.304606,"lon":5.379026,"is_reserved":false,"is_disabled":false,"rental_uris":{"android":"levelo://app?vid=137a084d-66f4-42b1-a8ad-8a2dd930b5e0","ios":"levelo://app?vid=137a084d-66f4-42b1-a8ad-8a2dd930b5e0"},"vehicle_type_id":"4","last_reported":1705694871,"current_range_meters":28800,"station_id":"ce4bgup2rcd13ifvqcn0","pricing_plan_id":"free"},{"bike_id":"562e1cf6-595d-49e5-bca8-82de5cbd5879","system_id":"levelo_inurba_marseille","lat":43.304606,"lon":5.379026,"is_reserved":false,"is_disabled":false,"rental_uris":{"android":"levelo://app?vid=562e1cf6-595d-49e5-bca8-82de5cbd5879","ios":"levelo://app?vid=562e1cf6-595d-49e5-bca8-82de5cbd5879"},"vehicle_type_id":"4","last_reported":1705694871,"current_range_meters":31200,"station_id":"ce4bgup2rcd13ifvqcn0","pricing_plan_id":"free"},{"bike_id":"b2429dd1-182d-4408-becf-62cae7f25115","system_id":"levelo_inurba_marseille","lat":43.304606,"lon":5.379026,"is_reserved":false,"is_disabled":false,"rental_uris":{"android":"levelo://app?vid=b2429dd1-182d-4408-becf-62cae7f25115","ios":"levelo://app?vid=b2429dd1-182d-4408-becf-62cae7f25115"},"vehicle_type_id":"4","last_reported":1705694871,"current_range_meters":29200,"station_id":"ce4bgup2rcd13ifvqcn0","pricing_plan_id":"free"},{"bike_id":"c2f34c8c-7428-4f66-812f-49e96e8ece1a","system_id":"levelo_inurba_marseille","lat":43.304606,"lon":5.379026,"is_reserved":false,"is_disabled":false,"rental_uris":{"android":"levelo://app?vid=c2f34c8c-7428-4f66-812f-49e96e8ece1a","ios":"levelo://app?vid=c2f34c8c-7428-4f66-812f-49e96e8ece1a"},"vehicle_type_id":"4","last_reported":1705694871,"current_range_meters":24800,"station_id":"ce4bgup2rcd13ifvqcn0","pricing_plan_id":"free"},{"bike_id":"3cb5ad2b-e743-4194-9d67-007686b421e8","system_id":"levelo_inurba_marseille","lat":43.324771,"lon":5.36557,"is_reserved":false,"is_disabled":false,"rental_uris":{"android":"levelo://app?vid=3cb5ad2b-e743-4194-9d67-007686b421e8","ios":"levelo://app?vid=3cb5ad2b-e743-4194-9d67-007686b421e8"},"vehicle_type_id":"4","last_reported":1705694871,"current_range_meters":17600,"station_id":"ce4bhs12rcd13ifvqhvg","pricing_plan_id":"free"},{"bike_id":"6490c85a-8aa5-4704-937e-2885dc5e02d7","system_id":"levelo_inurba_marseille","lat":43.304606,"lon":5.379026,"is_reserved":false,"is_disabled":false,"rental_uris":{"android":"levelo://app?vid=6490c85a-8aa5-4704-937e-2885dc5e02d7","ios":"levelo://app?vid=6490c85a-8aa5-4704-937e-2885dc5e02d7"},"vehicle_type_id":"4","last_reported":1705694871,"current_range_meters":30400,"station_id":"ce4bgup2rcd13ifvqcn0","pricing_plan_id":"free"},{"bike_id":"473641ac-6aae-4372-b0d6-cad5571f515f","system_id":"levelo_inurba_marseille","lat":43.324771,"lon":5.36557,"is_reserved":false,"is_disabled":false,"rental_uris":{"android":"levelo://app?vid=473641ac-6aae-4372-b0d6-cad5571f515f","ios":"levelo://app?vid=473641ac-6aae-4372-b0d6-cad5571f515f"},"vehicle_type_id":"4","last_reported":1705694871,"current_range_meters":6000,"station_id":"ce4bhs12rcd13ifvqhvg","pricing_plan_id":"free"},{"bike_id":"2179bf7d-2ef3-478f-ab07-0d1474ed1fd2","system_id":"levelo_inurba_marseille","lat":43.324771,"lon":5.36557,"is_reserved":false,"is_disabled":false,"rental_uris":{"android":"levelo://app?vid=2179bf7d-2ef3-478f-ab07-0d1474ed1fd2","ios":"levelo://app?vid=2179bf7d-2ef3-478f-ab07-0d1474ed1fd2"},"vehicle_type_id":"4","last_reported":1705694871,"current_range_meters":5200,"station_id":"ce4bhs12rcd13ifvqhvg","pricing_plan_id":"free"},{"bike_id":"d655f5bb-ed30-48d1-8fea-b10c22e797ad","system_id":"levelo_inurba_marseille","lat":43.324771,"lon":5.36557,"is_reserved":false,"is_disabled":false,"rental_uris":{"android":"levelo://app?vid=d655f5bb-ed30-48d1-8fea-b10c22e797ad","ios":"levelo://app?vid=d655f5bb-ed30-48d1-8fea-b10c22e797ad"},"vehicle_type_id":"4","last_reported":1705694871,"current_range_meters":19200,"station_id":"ce4bhs12rcd13ifvqhvg","pricing_plan_id":"free"},{"bike_id":"303265ce-08f1-4bc2-afd3-0425b4b00f8f","system_id":"levelo_inurba_marseille","lat":43.324771,"lon":5.36557,"is_reserved":false,"is_disabled":false,"rental_uris":{"android":"levelo://app?vid=303265ce-08f1-4bc2-afd3-0425b4b00f8f","ios":"levelo://app?vid=303265ce-08f1-4bc2-afd3-0425b4b00f8f"},"vehicle_type_id":"4","last_reported":1705694871,"current_range_meters":20000,"station_id":"ce4bhs12rcd13ifvqhvg","pricing_plan_id":"free"},{"bike_id":"2c7b11b2-aeb0-46dd-88cd-cd944730dc70","system_id":"levelo_inurba_marseille","lat":43.324771,"lon":5.36557,"is_reserved":false,"is_disabled":false,"rental_uris":{"android":"levelo://app?vid=2c7b11b2-aeb0-46dd-88cd-cd944730dc70","ios":"levelo://app?vid=2c7b11b2-aeb0-46dd-88cd-cd944730dc70"},"vehicle_type_id":"4","last_reported":1705694871,"current_range_meters":12800,"station_id":"ce4bhs12rcd13ifvqhvg","pricing_plan_id":"free"},{"bike_id":"d3c12c07-9adf-4ee9-a278-dd4a66fbaa07","system_id":"levelo_inurba_marseille","lat":43.324771,"lon":5.36557,"is_reserved":false,"is_disabled":false,"rental_uris":{"android":"levelo://app?vid=d3c12c07-9adf-4ee9-a278-dd4a66fbaa07","ios":"levelo://app?vid=d3c12c07-9adf-4ee9-a278-dd4a66fbaa07"},"vehicle_type_id":"4","last_reported":1705694871,"current_range_meters":16800,"station_id":"ce4bhs12rcd13ifvqhvg","pricing_plan_id":"free"},{"bike_id":"c7d678ca-5190-4aab-9b8d-cdb0cac2118f","system_id":"levelo_inurba_marseille","lat":43.324771,"lon":5.36557,"is_reserved":false,"is_disabled":false,"rental_uris":{"android":"levelo://app?vid=c7d678ca-5190-4aab-9b8d-cdb0cac2118f","ios":"levelo://app?vid=c7d678ca-5190-4aab-9b8d-cdb0cac2118f"},"vehicle_type_id":"4","last_reported":1705694871,"current_range_meters":17600,"station_id":"ce4bhs12rcd13ifvqhvg","pricing_plan_id":"free"},{"bike_id":"66f21602-ca63-45eb-bdfd-12a71693adee","system_id":"levelo_inurba_marseille","lat":43.30266,"lon":5.37725,"is_reserved":false,"is_disabled":false,"rental_uris":{"android":"levelo://app?vid=66f21602-ca63-45eb-bdfd-12a71693adee","ios":"levelo://app?vid=66f21602-ca63-45eb-bdfd-12a71693adee"},"vehicle_type_id":"4","last_reported":1705694871,"current_range_meters":4400,"station_id":"","pricing_plan_id":"free"},{"bike_id":"2200c8c5-2419-4eb5-b913-cfff868d749d","system_id":"levelo_inurba_marseille","lat":43.319935,"lon":5.381699,"is_reserved":false,"is_disabled":false,"rental_uris":{"android":"levelo://app?vid=2200c8c5-2419-4eb5-b913-cfff868d749d","ios":"levelo://app?vid=2200c8c5-2419-4eb5-b913-cfff868d749d"},"vehicle_type_id":"4","last_reported":1705694871,"current_range_meters":0,"station_id":"ce4bhr12rcd13ifvqhpg","pricing_plan_id":"free"},{"bike_id":"f0e6f343-5d11-4ccd-b521-fba2ec1496b9","system_id":"levelo_inurba_marseille","lat":43.319935,"lon":5.381699,"is_reserved":false,"is_disabled":false,"rental_uris":{"android":"levelo://app?vid=f0e6f343-5d11-4ccd-b521-fba2ec1496b9","ios":"levelo://app?vid=f0e6f343-5d11-4ccd-b521-fba2ec1496b9"},"vehicle_type_id":"4","last_reported":1705694871,"current_range_meters":14000,"station_id":"ce4bhr12rcd13ifvqhpg","pricing_plan_id":"free"},{"bike_id":"8db02612-be4a-455d-84e4-6aae05c4022d","system_id":"levelo_inurba_marseille","lat":43.31356,"lon":5.385,"is_reserved":false,"is_disabled":false,"rental_uris":{"android":"levelo://app?vid=8db02612-be4a-455d-84e4-6aae05c4022d","ios":"levelo://app?vid=8db02612-be4a-455d-84e4-6aae05c4022d"},"vehicle_type_id":"4","last_reported":1705694871,"current_range_meters":25200,"station_id":"ce4bgt92rcd13ifvqcf0","pricing_plan_id":"free"},{"bike_id":"0eb10803-bf21-42fd-bb19-dbde9c199eff","system_id":"levelo_inurba_marseille","lat":43.31359,"lon":5.38501,"is_reserved":false,"is_disabled":false,"rental_uris":{"android":"levelo://app?vid=0eb10803-bf21-42fd-bb19-dbde9c199eff","ios":"levelo://app?vid=0eb10803-bf21-42fd-bb19-dbde9c199eff"},"vehicle_type_id":"4","last_reported":1705694871,"current_range_meters":5600,"station_id":"ce4bgt92rcd13ifvqcf0","pricing_plan_id":"free"},{"bike_id":"8fd58c88-278f-4faa-8021-aee4e5aea65f","system_id":"levelo_inurba_marseille","lat":43.299724,"lon":5.371829,"is_reserved":false,"is_disabled":false,"rental_uris":{"android":"levelo://app?vid=8fd58c88-278f-4faa-8021-aee4e5aea65f","ios":"levelo://app?vid=8fd58c88-278f-4faa-8021-aee4e5aea65f"},"vehicle_type_id":"4","last_reported":1705694871,"current_range_meters":0,"station_id":"ce4bgr92rcd13ifvqc7g","pricing_plan_id":"free"},{"bike_id":"1f510f44-fc88-4ed0-af9f-a53df5a481aa","system_id":"levelo_inurba_marseille","lat":43.305364,"lon":5.384119,"is_reserved":false,"is_disabled":false,"rental_uris":{"android":"levelo://app?vid=1f510f44-fc88-4ed0-af9f-a53df5a481aa","ios":"levelo://app?vid=1f510f44-fc88-4ed0-af9f-a53df5a481aa"},"vehicle_type_id":"4","last_reported":1705694871,"current_range_meters":25600,"station_id":"ce4bgg92rcd13ifvqb30","pricing_plan_id":"free"},{"bike_id":"6089e19b-4f42-46c7-ab05-810e4ca2b625","system_id":"levelo_inurba_marseille","lat":43.305364,"lon":5.384119,"is_reserved":false,"is_disabled":false,"rental_uris":{"android":"levelo://app?vid=6089e19b-4f42-46c7-ab05-810e4ca2b625","ios":"levelo://app?vid=6089e19b-4f42-46c7-ab05-810e4ca2b625"},"vehicle_type_id":"4","last_reported":1705694871,"current_range_meters":6000,"station_id":"ce4bgg92rcd13ifvqb30","pricing_plan_id":"free"},{"bike_id":"8cf6dd42-a5bb-4422-9e09-249b54d5f1b5","system_id":"levelo_inurba_marseille","lat":43.298433,"lon":5.362774,"is_reserved":false,"is_disabled":false,"rental_uris":{"android":"levelo://app?vid=8cf6dd42-a5bb-4422-9e09-249b54d5f1b5","ios":"levelo://app?vid=8cf6dd42-a5bb-4422-9e09-249b54d5f1b5"},"vehicle_type_id":"4","last_reported":1705694871,"current_range_meters":2000,"station_id":"ce4bgpp2rcd13ifvqc3g","pricing_plan_id":"free"},{"bike_id":"6d159b6c-65e9-49d0-b478-2914e3707d1b","system_id":"levelo_inurba_marseille","lat":43.2991,"lon":5.374685,"is_reserved":false,"is_disabled":false,"rental_uris":{"android":"levelo://app?vid=6d159b6c-65e9-49d0-b478-2914e3707d1b","ios":"levelo://app?vid=6d159b6c-65e9-49d0-b478-2914e3707d1b"},"vehicle_type_id":"4","last_reported":1705694871,"current_range_meters":29200,"station_id":"ce4bgjh2rcd13ifvqbg0","pricing_plan_id":"free"},{"bike_id":"82bbeece-7d5a-462c-b8cd-6f62b3afe8aa","system_id":"levelo_inurba_marseille","lat":43.311722,"lon":5.387247,"is_reserved":false,"is_disabled":false,"rental_uris":{"android":"levelo://app?vid=82bbeece-7d5a-462c-b8cd-6f62b3afe8aa","ios":"levelo://app?vid=82bbeece-7d5a-462c-b8cd-6f62b3afe8aa"},"vehicle_type_id":"4","last_reported":1705694871,"current_range_meters":11600,"station_id":"ce4bgv12rcd13ifvqcp0","pricing_plan_id":"free"},{"bike_id":"1c511f6c-f06f-4621-a2e1-2907c7277247","system_id":"levelo_inurba_marseille","lat":43.31157,"lon":5.38725,"is_reserved":false,"is_disabled":false,"rental_uris":{"android":"levelo://app?vid=1c511f6c-f06f-4621-a2e1-2907c7277247","ios":"levelo://app?vid=1c511f6c-f06f-4621-a2e1-2907c7277247"},"vehicle_type_id":"4","last_reported":1705694871,"current_range_meters":22800,"station_id":"ce4bgv12rcd13ifvqcp0","pricing_plan_id":"free"},{"bike_id":"c617c3a8-9e02-45ed-a475-4b9041cd9336","system_id":"levelo_inurba_marseille","lat":43.297794,"lon":5.370888,"is_reserved":false,"is_disabled":false,"rental_uris":{"android":"levelo://app?vid=c617c3a8-9e02-45ed-a475-4b9041cd9336","ios":"levelo://app?vid=c617c3a8-9e02-45ed-a475-4b9041cd9336"},"vehicle_type_id":"4","last_reported":1705694871,"current_range_meters":30400,"station_id":"ce4bgop2rcd13ifvqc1g","pricing_plan_id":"free"},{"bike_id":"a0c03816-c6cb-418b-ba63-1c21215104db","system_id":"levelo_inurba_marseille","lat":43.297794,"lon":5.370888,"is_reserved":false,"is_disabled":false,"rental_uris":{"android":"levelo://app?vid=a0c03816-c6cb-418b-ba63-1c21215104db","ios":"levelo://app?vid=a0c03816-c6cb-418b-ba63-1c21215104db"},"vehicle_type_id":"4","last_reported":1705694871,"current_range_meters":7200,"station_id":"ce4bgop2rcd13ifvqc1g","pricing_plan_id":"free"},{"bike_id":"b297575b-a7b6-4e6d-ba46-7ced5dd9abee","system_id":"levelo_inurba_marseille","lat":43.322872,"lon":5.382756,"is_reserved":false,"is_disabled":false,"rental_uris":{"android":"levelo://app?vid=b297575b-a7b6-4e6d-ba46-7ced5dd9abee","ios":"levelo://app?vid=b297575b-a7b6-4e6d-ba46-7ced5dd9abee"},"vehicle_type_id":"4","last_reported":1705694871,"current_range_meters":14800,"station_id":"ce4bhr12rcd13ifvqhqg","pricing_plan_id":"free"},{"bike_id":"c3ab95e9-b05f-4b19-b4ee-7abea1f52c27","system_id":"levelo_inurba_marseille","lat":43.322872,"lon":5.382756,"is_reserved":false,"is_disabled":false,"rental_uris":{"android":"levelo://app?vid=c3ab95e9-b05f-4b19-b4ee-7abea1f52c27","ios":"levelo://app?vid=c3ab95e9-b05f-4b19-b4ee-7abea1f52c27"},"vehicle_type_id":"4","last_reported":1705694871,"current_range_meters":32000,"station_id":"ce4bhr12rcd13ifvqhqg","pricing_plan_id":"free"},{"bike_id":"afe2d6ba-ebda-4981-9104-c77037901f05","system_id":"levelo_inurba_marseille","lat":43.322872,"lon":5.382756,"is_reserved":false,"is_disabled":false,"rental_uris":{"android":"levelo://app?vid=afe2d6ba-ebda-4981-9104-c77037901f05","ios":"levelo://app?vid=afe2d6ba-ebda-4981-9104-c77037901f05"},"vehicle_type_id":"4","last_reported":1705694871,"current_range_meters":28400,"station_id":"ce4bhr12rcd13ifvqhqg","pricing_plan_id":"free"},{"bike_id":"34c8b400-5074-46e3-aa02-f5d274dfaa4f","system_id":"levelo_inurba_marseille","lat":43.322872,"lon":5.382756,"is_reserved":false,"is_disabled":false,"rental_uris":{"android":"levelo://app?vid=34c8b400-5074-46e3-aa02-f5d274dfaa4f","ios":"levelo://app?vid=34c8b400-5074-46e3-aa02-f5d274dfaa4f"},"vehicle_type_id":"4","last_reported":1705694871,"current_range_meters":28800,"station_id":"ce4bhr12rcd13ifvqhqg","pricing_plan_id":"free"},{"bike_id":"c1b67890-f7d9-4d1f-b03b-fc166c7b9129","system_id":"levelo_inurba_marseille","lat":43.322872,"lon":5.382756,"is_reserved":false,"is_disabled":false,"rental_uris":{"android":"levelo://app?vid=c1b67890-f7d9-4d1f-b03b-fc166c7b9129","ios":"levelo://app?vid=c1b67890-f7d9-4d1f-b03b-fc166c7b9129"},"vehicle_type_id":"4","last_reported":1705694871,"current_range_meters":0,"station_id":"ce4bhr12rcd13ifvqhqg","pricing_plan_id":"free"},{"bike_id":"217b56ce-f663-414b-bd80-2c68d6f3e28b","system_id":"levelo_inurba_marseille","lat":43.322872,"lon":5.382756,"is_reserved":false,"is_disabled":false,"rental_uris":{"android":"levelo://app?vid=217b56ce-f663-414b-bd80-2c68d6f3e28b","ios":"levelo://app?vid=217b56ce-f663-414b-bd80-2c68d6f3e28b"},"vehicle_type_id":"4","last_reported":1705694871,"current_range_meters":24000,"station_id":"ce4bhr12rcd13ifvqhqg","pricing_plan_id":"free"},{"bike_id":"53415e30-ee10-4e9b-b42f-ee5aae281783","system_id":"levelo_inurba_marseille","lat":43.322872,"lon":5.382756,"is_reserved":false,"is_disabled":false,"rental_uris":{"android":"levelo://app?vid=53415e30-ee10-4e9b-b42f-ee5aae281783","ios":"levelo://app?vid=53415e30-ee10-4e9b-b42f-ee5aae281783"},"vehicle_type_id":"4","last_reported":1705694871,"current_range_meters":21200,"station_id":"ce4bhr12rcd13ifvqhqg","pricing_plan_id":"free"},{"bike_id":"c59e915a-05cb-49b2-8b19-dcae4465ebcc","system_id":"levelo_inurba_marseille","lat":43.322872,"lon":5.382756,"is_reserved":false,"is_disabled":false,"rental_uris":{"android":"levelo://app?vid=c59e915a-05cb-49b2-8b19-dcae4465ebcc","ios":"levelo://app?vid=c59e915a-05cb-49b2-8b19-dcae4465ebcc"},"vehicle_type_id":"4","last_reported":1705694871,"current_range_meters":25600,"station_id":"ce4bhr12rcd13ifvqhqg","pricing_plan_id":"free"},{"bike_id":"510e4003-ad50-4182-a4bb-6da1b111fff5","system_id":"levelo_inurba_marseille","lat":43.322872,"lon":5.382756,"is_reserved":false,"is_disabled":false,"rental_uris":{"android":"levelo://app?vid=510e4003-ad50-4182-a4bb-6da1b111fff5","ios":"levelo://app?vid=510e4003-ad50-4182-a4bb-6da1b111fff5"},"vehicle_type_id":"4","last_reported":1705694871,"current_range_meters":18400,"station_id":"ce4bhr12rcd13ifvqhqg","pricing_plan_id":"free"},{"bike_id":"6da9db5a-42ba-4fa8-afc9-4fdbb45498c1","system_id":"levelo_inurba_marseille","lat":43.328238,"lon":5.366806,"is_reserved":false,"is_disabled":false,"rental_uris":{"android":"levelo://app?vid=6da9db5a-42ba-4fa8-afc9-4fdbb45498c1","ios":"levelo://app?vid=6da9db5a-42ba-4fa8-afc9-4fdbb45498c1"},"vehicle_type_id":"4","last_reported":1705694871,"current_range_meters":2800,"station_id":"ce4bhs92rcd13ifvqi0g","pricing_plan_id":"free"},{"bike_id":"33a5b9b9-aec4-4925-974d-72730cfc5f44","system_id":"levelo_inurba_marseille","lat":43.328269,"lon":5.366782,"is_reserved":false,"is_disabled":false,"rental_uris":{"android":"levelo://app?vid=33a5b9b9-aec4-4925-974d-72730cfc5f44","ios":"levelo://app?vid=33a5b9b9-aec4-4925-974d-72730cfc5f44"},"vehicle_type_id":"4","last_reported":1705694871,"current_range_meters":17600,"station_id":"ce4bhs92rcd13ifvqi0g","pricing_plan_id":"free"},{"bike_id":"2849c95b-f1a6-402d-aac7-80ea81f2feb2","system_id":"levelo_inurba_marseille","lat":43.32827,"lon":5.366849,"is_reserved":false,"is_disabled":false,"rental_uris":{"android":"levelo://app?vid=2849c95b-f1a6-402d-aac7-80ea81f2feb2","ios":"levelo://app?vid=2849c95b-f1a6-402d-aac7-80ea81f2feb2"},"vehicle_type_id":"4","last_reported":1705694871,"current_range_meters":24800,"station_id":"ce4bhs92rcd13ifvqi0g","pricing_plan_id":"free"},{"bike_id":"1782ad4d-7cbc-4ac0-af82-b65688e9d34c","system_id":"levelo_inurba_marseille","lat":43.328371,"lon":5.366909,"is_reserved":false,"is_disabled":false,"rental_uris":{"android":"levelo://app?vid=1782ad4d-7cbc-4ac0-af82-b65688e9d34c","ios":"levelo://app?vid=1782ad4d-7cbc-4ac0-af82-b65688e9d34c"},"vehicle_type_id":"4","last_reported":1705694871,"current_range_meters":18000,"station_id":"ce4bhs92rcd13ifvqi0g","pricing_plan_id":"free"},{"bike_id":"59148974-5dd5-4b80-aebd-ec12c23b58c1","system_id":"levelo_inurba_marseille","lat":43.32828,"lon":5.36685,"is_reserved":false,"is_disabled":false,"rental_uris":{"android":"levelo://app?vid=59148974-5dd5-4b80-aebd-ec12c23b58c1","ios":"levelo://app?vid=59148974-5dd5-4b80-aebd-ec12c23b58c1"},"vehicle_type_id":"4","last_reported":1705694871,"current_range_meters":8400,"station_id":"ce4bhs92rcd13ifvqi0g","pricing_plan_id":"free"},{"bike_id":"85cedcff-9e9a-415d-8415-195178ea3cb7","system_id":"levelo_inurba_marseille","lat":43.32828,"lon":5.366757,"is_reserved":false,"is_disabled":false,"rental_uris":{"android":"levelo://app?vid=85cedcff-9e9a-415d-8415-195178ea3cb7","ios":"levelo://app?vid=85cedcff-9e9a-415d-8415-195178ea3cb7"},"vehicle_type_id":"4","last_reported":1705694871,"current_range_meters":10000,"station_id":"ce4bhs92rcd13ifvqi0g","pricing_plan_id":"free"},{"bike_id":"130b18c2-11ce-4fc1-9052-79c75f9cbffa","system_id":"levelo_inurba_marseille","lat":43.328285,"lon":5.366945,"is_reserved":false,"is_disabled":false,"rental_uris":{"android":"levelo://app?vid=130b18c2-11ce-4fc1-9052-79c75f9cbffa","ios":"levelo://app?vid=130b18c2-11ce-4fc1-9052-79c75f9cbffa"},"vehicle_type_id":"4","last_reported":1705694871,"current_range_meters":16800,"station_id":"ce4bhs92rcd13ifvqi0g","pricing_plan_id":"free"},{"bike_id":"02f97db8-1e1e-4f38-89f3-11868234f7c3","system_id":"levelo_inurba_marseille","lat":43.328285,"lon":5.366789,"is_reserved":false,"is_disabled":false,"rental_uris":{"android":"levelo://app?vid=02f97db8-1e1e-4f38-89f3-11868234f7c3","ios":"levelo://app?vid=02f97db8-1e1e-4f38-89f3-11868234f7c3"},"vehicle_type_id":"4","last_reported":1705694871,"current_range_meters":8000,"station_id":"ce4bhs92rcd13ifvqi0g","pricing_plan_id":"free"},{"bike_id":"ea0178f3-2c6b-4af6-b062-91b0b8dde1df","system_id":"levelo_inurba_marseille","lat":43.328295,"lon":5.366786,"is_reserved":false,"is_disabled":false,"rental_uris":{"android":"levelo://app?vid=ea0178f3-2c6b-4af6-b062-91b0b8dde1df","ios":"levelo://app?vid=ea0178f3-2c6b-4af6-b062-91b0b8dde1df"},"vehicle_type_id":"4","last_reported":1705694871,"current_range_meters":26800,"station_id":"ce4bhs92rcd13ifvqi0g","pricing_plan_id":"free"},{"bike_id":"6b4ea496-3016-42db-af64-ba8beb6e73fc","system_id":"levelo_inurba_marseille","lat":43.328371,"lon":5.366909,"is_reserved":false,"is_disabled":false,"rental_uris":{"android":"levelo://app?vid=6b4ea496-3016-42db-af64-ba8beb6e73fc","ios":"levelo://app?vid=6b4ea496-3016-42db-af64-ba8beb6e73fc"},"vehicle_type_id":"4","last_reported":1705694871,"current_range_meters":13600,"station_id":"ce4bhs92rcd13ifvqi0g","pricing_plan_id":"free"},{"bike_id":"c526365d-7ce2-49b7-9dc2-12ddc241fddb","system_id":"levelo_inurba_marseille","lat":43.297163,"lon":5.365866,"is_reserved":false,"is_disabled":false,"rental_uris":{"android":"levelo://app?vid=c526365d-7ce2-49b7-9dc2-12ddc241fddb","ios":"levelo://app?vid=c526365d-7ce2-49b7-9dc2-12ddc241fddb"},"vehicle_type_id":"4","last_reported":1705694871,"current_range_meters":5600,"station_id":"ce4bgn12rcd13ifvqbt0","pricing_plan_id":"free"},{"bike_id":"641739e6-19de-47df-9491-35da26c3c9da","system_id":"levelo_inurba_marseille","lat":43.328371,"lon":5.366909,"is_reserved":false,"is_disabled":false,"rental_uris":{"android":"levelo://app?vid=641739e6-19de-47df-9491-35da26c3c9da","ios":"levelo://app?vid=641739e6-19de-47df-9491-35da26c3c9da"},"vehicle_type_id":"4","last_reported":1705694871,"current_range_meters":18400,"station_id":"ce4bhs92rcd13ifvqi0g","pricing_plan_id":"free"},{"bike_id":"bae0e6ef-8eeb-485a-a054-bea3431d2035","system_id":"levelo_inurba_marseille","lat":43.328371,"lon":5.366909,"is_reserved":false,"is_disabled":false,"rental_uris":{"android":"levelo://app?vid=bae0e6ef-8eeb-485a-a054-bea3431d2035","ios":"levelo://app?vid=bae0e6ef-8eeb-485a-a054-bea3431d2035"},"vehicle_type_id":"4","last_reported":1705694871,"current_range_meters":8000,"station_id":"ce4bhs92rcd13ifvqi0g","pricing_plan_id":"free"},{"bike_id":"a53b6dde-9c97-4a96-897c-ee7f9265222d","system_id":"levelo_inurba_marseille","lat":43.328371,"lon":5.366909,"is_reserved":false,"is_disabled":false,"rental_uris":{"android":"levelo://app?vid=a53b6dde-9c97-4a96-897c-ee7f9265222d","ios":"levelo://app?vid=a53b6dde-9c97-4a96-897c-ee7f9265222d"},"vehicle_type_id":"4","last_reported":1705694871,"current_range_meters":11200,"station_id":"ce4bhs92rcd13ifvqi0g","pricing_plan_id":"free"},{"bike_id":"88638e12-da12-4596-b7e2-600ab2f62219","system_id":"levelo_inurba_marseille","lat":43.328371,"lon":5.366909,"is_reserved":false,"is_disabled":false,"rental_uris":{"android":"levelo://app?vid=88638e12-da12-4596-b7e2-600ab2f62219","ios":"levelo://app?vid=88638e12-da12-4596-b7e2-600ab2f62219"},"vehicle_type_id":"4","last_reported":1705694871,"current_range_meters":0,"station_id":"ce4bhs92rcd13ifvqi0g","pricing_plan_id":"free"},{"bike_id":"68dd0fd5-aaf2-469f-b34d-02fe88516378","system_id":"levelo_inurba_marseille","lat":43.297163,"lon":5.365866,"is_reserved":false,"is_disabled":false,"rental_uris":{"android":"levelo://app?vid=68dd0fd5-aaf2-469f-b34d-02fe88516378","ios":"levelo://app?vid=68dd0fd5-aaf2-469f-b34d-02fe88516378"},"vehicle_type_id":"4","last_reported":1705694871,"current_range_meters":22400,"station_id":"ce4bgn12rcd13ifvqbt0","pricing_plan_id":"free"},{"bike_id":"38082c03-fac1-44d3-a79f-5142b4a113a9","system_id":"levelo_inurba_marseille","lat":43.328373,"lon":5.366902,"is_reserved":false,"is_disabled":false,"rental_uris":{"android":"levelo://app?vid=38082c03-fac1-44d3-a79f-5142b4a113a9","ios":"levelo://app?vid=38082c03-fac1-44d3-a79f-5142b4a113a9"},"vehicle_type_id":"4","last_reported":1705694871,"current_range_meters":13200,"station_id":"ce4bhs92rcd13ifvqi0g","pricing_plan_id":"free"},{"bike_id":"b776583e-2282-4c40-a208-c993df6ca9f2","system_id":"levelo_inurba_marseille","lat":43.297163,"lon":5.365866,"is_reserved":false,"is_disabled":false,"rental_uris":{"android":"levelo://app?vid=b776583e-2282-4c40-a208-c993df6ca9f2","ios":"levelo://app?vid=b776583e-2282-4c40-a208-c993df6ca9f2"},"vehicle_type_id":"4","last_reported":1705694871,"current_range_meters":1200,"station_id":"ce4bgn12rcd13ifvqbt0","pricing_plan_id":"free"},{"bike_id":"cc26854d-d5d4-45da-8d00-4407aad81341","system_id":"levelo_inurba_marseille","lat":43.297163,"lon":5.365866,"is_reserved":false,"is_disabled":false,"rental_uris":{"android":"levelo://app?vid=cc26854d-d5d4-45da-8d00-4407aad81341","ios":"levelo://app?vid=cc26854d-d5d4-45da-8d00-4407aad81341"},"vehicle_type_id":"4","last_reported":1705694871,"current_range_meters":23600,"station_id":"ce4bgn12rcd13ifvqbt0","pricing_plan_id":"free"},{"bike_id":"47b7c023-01cc-44a0-91c8-30b39794f64c","system_id":"levelo_inurba_marseille","lat":43.29608,"lon":5.36778,"is_reserved":false,"is_disabled":false,"rental_uris":{"android":"levelo://app?vid=47b7c023-01cc-44a0-91c8-30b39794f64c","ios":"levelo://app?vid=47b7c023-01cc-44a0-91c8-30b39794f64c"},"vehicle_type_id":"4","last_reported":1705694871,"current_range_meters":18400,"station_id":"","pricing_plan_id":"free"},{"bike_id":"885a224e-f1e4-43d2-b865-1181a7ea9d01","system_id":"levelo_inurba_marseille","lat":43.296131,"lon":5.370791,"is_reserved":false,"is_disabled":false,"rental_uris":{"android":"levelo://app?vid=885a224e-f1e4-43d2-b865-1181a7ea9d01","ios":"levelo://app?vid=885a224e-f1e4-43d2-b865-1181a7ea9d01"},"vehicle_type_id":"4","last_reported":1705694871,"current_range_meters":26400,"station_id":"ce4bgnh2rcd13ifvqc0g","pricing_plan_id":"free"},{"bike_id":"76e672fc-e3bd-494c-a9ec-da8d526ce7b1","system_id":"levelo_inurba_marseille","lat":43.29581,"lon":5.36751,"is_reserved":false,"is_disabled":false,"rental_uris":{"android":"levelo://app?vid=76e672fc-e3bd-494c-a9ec-da8d526ce7b1","ios":"levelo://app?vid=76e672fc-e3bd-494c-a9ec-da8d526ce7b1"},"vehicle_type_id":"4","last_reported":1705694871,"current_range_meters":0,"station_id":"ce4bgph2rcd13ifvqc2g","pricing_plan_id":"free"},{"bike_id":"b240799b-2468-495d-845c-a3d446acabb2","system_id":"levelo_inurba_marseille","lat":43.299028,"lon":5.381509,"is_reserved":false,"is_disabled":false,"rental_uris":{"android":"levelo://app?vid=b240799b-2468-495d-845c-a3d446acabb2","ios":"levelo://app?vid=b240799b-2468-495d-845c-a3d446acabb2"},"vehicle_type_id":"4","last_reported":1705694871,"current_range_meters":16000,"station_id":"ce4bgj12rcd13ifvqbc0","pricing_plan_id":"free"},{"bike_id":"51197b77-e6a9-41bd-8796-caef22c27dd3","system_id":"levelo_inurba_marseille","lat":43.299028,"lon":5.381509,"is_reserved":false,"is_disabled":false,"rental_uris":{"android":"levelo://app?vid=51197b77-e6a9-41bd-8796-caef22c27dd3","ios":"levelo://app?vid=51197b77-e6a9-41bd-8796-caef22c27dd3"},"vehicle_type_id":"4","last_reported":1705694871,"current_range_meters":6800,"station_id":"ce4bgj12rcd13ifvqbc0","pricing_plan_id":"free"},{"bike_id":"69f117f2-4034-4cdd-919d-800c0b21e183","system_id":"levelo_inurba_marseille","lat":43.296935,"lon":5.376544,"is_reserved":false,"is_disabled":false,"rental_uris":{"android":"levelo://app?vid=69f117f2-4034-4cdd-919d-800c0b21e183","ios":"levelo://app?vid=69f117f2-4034-4cdd-919d-800c0b21e183"},"vehicle_type_id":"4","last_reported":1705694871,"current_range_meters":17200,"station_id":"ce4bgkh2rcd13ifvqbl0","pricing_plan_id":"free"},{"bike_id":"02d5a801-57da-4c6d-ab76-213ea72ccede","system_id":"levelo_inurba_marseille","lat":43.317557,"lon":5.390173,"is_reserved":false,"is_disabled":false,"rental_uris":{"android":"levelo://app?vid=02d5a801-57da-4c6d-ab76-213ea72ccede","ios":"levelo://app?vid=02d5a801-57da-4c6d-ab76-213ea72ccede"},"vehicle_type_id":"4","last_reported":1705694871,"current_range_meters":12800,"station_id":"ce4bhqp2rcd13ifvqhng","pricing_plan_id":"free"},{"bike_id":"7147d5a9-8503-4ba3-869f-d225857fa107","system_id":"levelo_inurba_marseille","lat":43.317557,"lon":5.390173,"is_reserved":false,"is_disabled":false,"rental_uris":{"android":"levelo://app?vid=7147d5a9-8503-4ba3-869f-d225857fa107","ios":"levelo://app?vid=7147d5a9-8503-4ba3-869f-d225857fa107"},"vehicle_type_id":"4","last_reported":1705694871,"current_range_meters":20800,"station_id":"ce4bhqp2rcd13ifvqhng","pricing_plan_id":"free"},{"bike_id":"1747a2df-9fdd-4485-8c0a-008d957b61d7","system_id":"levelo_inurba_marseille","lat":43.317557,"lon":5.390173,"is_reserved":false,"is_disabled":false,"rental_uris":{"android":"levelo://app?vid=1747a2df-9fdd-4485-8c0a-008d957b61d7","ios":"levelo://app?vid=1747a2df-9fdd-4485-8c0a-008d957b61d7"},"vehicle_type_id":"4","last_reported":1705694871,"current_range_meters":28000,"station_id":"ce4bhqp2rcd13ifvqhng","pricing_plan_id":"free"},{"bike_id":"14e0d56e-cde5-4799-a904-73db61fcc0f7","system_id":"levelo_inurba_marseille","lat":43.317557,"lon":5.390173,"is_reserved":false,"is_disabled":false,"rental_uris":{"android":"levelo://app?vid=14e0d56e-cde5-4799-a904-73db61fcc0f7","ios":"levelo://app?vid=14e0d56e-cde5-4799-a904-73db61fcc0f7"},"vehicle_type_id":"4","last_reported":1705694871,"current_range_meters":23600,"station_id":"ce4bhqp2rcd13ifvqhng","pricing_plan_id":"free"},{"bike_id":"7a1d93d7-4767-4a9b-aa98-0f1070949ce6","system_id":"levelo_inurba_marseille","lat":43.317557,"lon":5.390173,"is_reserved":false,"is_disabled":false,"rental_uris":{"android":"levelo://app?vid=7a1d93d7-4767-4a9b-aa98-0f1070949ce6","ios":"levelo://app?vid=7a1d93d7-4767-4a9b-aa98-0f1070949ce6"},"vehicle_type_id":"4","last_reported":1705694871,"current_range_meters":12800,"station_id":"ce4bhqp2rcd13ifvqhng","pricing_plan_id":"free"},{"bike_id":"182e3cd2-c4cf-4070-a52f-1033d225c2f9","system_id":"levelo_inurba_marseille","lat":43.298091,"lon":5.380903,"is_reserved":false,"is_disabled":false,"rental_uris":{"android":"levelo://app?vid=182e3cd2-c4cf-4070-a52f-1033d225c2f9","ios":"levelo://app?vid=182e3cd2-c4cf-4070-a52f-1033d225c2f9"},"vehicle_type_id":"4","last_reported":1705694871,"current_range_meters":7600,"station_id":"","pricing_plan_id":"free"},{"bike_id":"5d506fbb-776e-46fa-8774-1d271de01957","system_id":"levelo_inurba_marseille","lat":43.298037,"lon":5.381066,"is_reserved":false,"is_disabled":false,"rental_uris":{"android":"levelo://app?vid=5d506fbb-776e-46fa-8774-1d271de01957","ios":"levelo://app?vid=5d506fbb-776e-46fa-8774-1d271de01957"},"vehicle_type_id":"4","last_reported":1705694871,"current_range_meters":0,"station_id":"ce4bgip2rcd13ifvqbb0","pricing_plan_id":"free"},{"bike_id":"c3cf45b6-1fb9-4e19-b157-2b27b8f47e3f","system_id":"levelo_inurba_marseille","lat":43.298037,"lon":5.381066,"is_reserved":false,"is_disabled":false,"rental_uris":{"android":"levelo://app?vid=c3cf45b6-1fb9-4e19-b157-2b27b8f47e3f","ios":"levelo://app?vid=c3cf45b6-1fb9-4e19-b157-2b27b8f47e3f"},"vehicle_type_id":"4","last_reported":1705694871,"current_range_meters":16400,"station_id":"ce4bgip2rcd13ifvqbb0","pricing_plan_id":"free"},{"bike_id":"89bcca9d-8164-4ab9-bea9-440f0afcb4ad","system_id":"levelo_inurba_marseille","lat":43.295748,"lon":5.37522,"is_reserved":false,"is_disabled":false,"rental_uris":{"android":"levelo://app?vid=89bcca9d-8164-4ab9-bea9-440f0afcb4ad","ios":"levelo://app?vid=89bcca9d-8164-4ab9-bea9-440f0afcb4ad"},"vehicle_type_id":"4","last_reported":1705694871,"current_range_meters":27600,"station_id":"ce4bgh92rcd13ifvqb50","pricing_plan_id":"free"},{"bike_id":"ef73b0c5-8c44-4e2e-aded-a9445fdc0e4d","system_id":"levelo_inurba_marseille","lat":43.295748,"lon":5.37522,"is_reserved":false,"is_disabled":false,"rental_uris":{"android":"levelo://app?vid=ef73b0c5-8c44-4e2e-aded-a9445fdc0e4d","ios":"levelo://app?vid=ef73b0c5-8c44-4e2e-aded-a9445fdc0e4d"},"vehicle_type_id":"4","last_reported":1705694871,"current_range_meters":19600,"station_id":"ce4bgh92rcd13ifvqb50","pricing_plan_id":"free"},{"bike_id":"4c867b3d-7364-4e72-93d5-8426da7504f1","system_id":"levelo_inurba_marseille","lat":43.304278,"lon":5.388868,"is_reserved":false,"is_disabled":false,"rental_uris":{"android":"levelo://app?vid=4c867b3d-7364-4e72-93d5-8426da7504f1","ios":"levelo://app?vid=4c867b3d-7364-4e72-93d5-8426da7504f1"},"vehicle_type_id":"4","last_reported":1705694871,"current_range_meters":25600,"station_id":"ce4bgk12rcd13ifvqbi0","pricing_plan_id":"free"},{"bike_id":"60b8c46c-9082-445c-b638-9730e2bd1bec","system_id":"levelo_inurba_marseille","lat":43.304274,"lon":5.388873,"is_reserved":false,"is_disabled":false,"rental_uris":{"android":"levelo://app?vid=60b8c46c-9082-445c-b638-9730e2bd1bec","ios":"levelo://app?vid=60b8c46c-9082-445c-b638-9730e2bd1bec"},"vehicle_type_id":"4","last_reported":1705694871,"current_range_meters":25600,"station_id":"ce4bgk12rcd13ifvqbi0","pricing_plan_id":"free"},{"bike_id":"209b887a-d927-4ba2-ae96-4777ea208dae","system_id":"levelo_inurba_marseille","lat":43.29633,"lon":5.37721,"is_reserved":false,"is_disabled":false,"rental_uris":{"android":"levelo://app?vid=209b887a-d927-4ba2-ae96-4777ea208dae","ios":"levelo://app?vid=209b887a-d927-4ba2-ae96-4777ea208dae"},"vehicle_type_id":"4","last_reported":1705694871,"current_range_meters":5200,"station_id":"ce4bgi92rcd13ifvqb90","pricing_plan_id":"free"},{"bike_id":"b3862648-a6b2-4597-bcc4-c7f45f046e5b","system_id":"levelo_inurba_marseille","lat":43.29631,"lon":5.37715,"is_reserved":false,"is_disabled":false,"rental_uris":{"android":"levelo://app?vid=b3862648-a6b2-4597-bcc4-c7f45f046e5b","ios":"levelo://app?vid=b3862648-a6b2-4597-bcc4-c7f45f046e5b"},"vehicle_type_id":"4","last_reported":1705694871,"current_range_meters":23600,"station_id":"ce4bgi92rcd13ifvqb90","pricing_plan_id":"free"},{"bike_id":"af84cc74-9b17-4d18-b43c-58b00b5e261b","system_id":"levelo_inurba_marseille","lat":43.29623,"lon":5.37731,"is_reserved":false,"is_disabled":false,"rental_uris":{"android":"levelo://app?vid=af84cc74-9b17-4d18-b43c-58b00b5e261b","ios":"levelo://app?vid=af84cc74-9b17-4d18-b43c-58b00b5e261b"},"vehicle_type_id":"4","last_reported":1705694871,"current_range_meters":0,"station_id":"ce4bgi92rcd13ifvqb90","pricing_plan_id":"free"},{"bike_id":"7ce0e917-7c07-4bb2-b38c-b07c03326c76","system_id":"levelo_inurba_marseille","lat":43.296108,"lon":5.377204,"is_reserved":false,"is_disabled":false,"rental_uris":{"android":"levelo://app?vid=7ce0e917-7c07-4bb2-b38c-b07c03326c76","ios":"levelo://app?vid=7ce0e917-7c07-4bb2-b38c-b07c03326c76"},"vehicle_type_id":"4","last_reported":1705694871,"current_range_meters":0,"station_id":"ce4bgi92rcd13ifvqb90","pricing_plan_id":"free"},{"bike_id":"169cdd43-7ec6-467a-89ee-ba72c476ec5b","system_id":"levelo_inurba_marseille","lat":43.295193,"lon":5.375093,"is_reserved":false,"is_disabled":false,"rental_uris":{"android":"levelo://app?vid=169cdd43-7ec6-467a-89ee-ba72c476ec5b","ios":"levelo://app?vid=169cdd43-7ec6-467a-89ee-ba72c476ec5b"},"vehicle_type_id":"4","last_reported":1705694871,"current_range_meters":20400,"station_id":"ce4bgkp2rcd13ifvqbmg","pricing_plan_id":"free"},{"bike_id":"d0040f76-dc37-49c2-b555-a476383b7416","system_id":"levelo_inurba_marseille","lat":43.299724,"lon":5.384848,"is_reserved":false,"is_disabled":false,"rental_uris":{"android":"levelo://app?vid=d0040f76-dc37-49c2-b555-a476383b7416","ios":"levelo://app?vid=d0040f76-dc37-49c2-b555-a476383b7416"},"vehicle_type_id":"4","last_reported":1705694871,"current_range_meters":12000,"station_id":"ce4bgj92rcd13ifvqbd0","pricing_plan_id":"free"},{"bike_id":"8699762f-668f-49e6-a3ae-bcd3da24c869","system_id":"levelo_inurba_marseille","lat":43.29508,"lon":5.37511,"is_reserved":false,"is_disabled":false,"rental_uris":{"android":"levelo://app?vid=8699762f-668f-49e6-a3ae-bcd3da24c869","ios":"levelo://app?vid=8699762f-668f-49e6-a3ae-bcd3da24c869"},"vehicle_type_id":"4","last_reported":1705694871,"current_range_meters":15600,"station_id":"ce4bgkp2rcd13ifvqbmg","pricing_plan_id":"free"},{"bike_id":"b97f084f-e70f-4ca2-a87d-ee12c07f24a3","system_id":"levelo_inurba_marseille","lat":43.32367,"lon":5.388836,"is_reserved":false,"is_disabled":false,"rental_uris":{"android":"levelo://app?vid=b97f084f-e70f-4ca2-a87d-ee12c07f24a3","ios":"levelo://app?vid=b97f084f-e70f-4ca2-a87d-ee12c07f24a3"},"vehicle_type_id":"4","last_reported":1705694871,"current_range_meters":6800,"station_id":"ce4bhqp2rcd13ifvqhog","pricing_plan_id":"free"},{"bike_id":"59749826-7bca-4f0e-ba0d-6be12868bdc4","system_id":"levelo_inurba_marseille","lat":43.32367,"lon":5.388836,"is_reserved":false,"is_disabled":false,"rental_uris":{"android":"levelo://app?vid=59749826-7bca-4f0e-ba0d-6be12868bdc4","ios":"levelo://app?vid=59749826-7bca-4f0e-ba0d-6be12868bdc4"},"vehicle_type_id":"4","last_reported":1705694871,"current_range_meters":29200,"station_id":"ce4bhqp2rcd13ifvqhog","pricing_plan_id":"free"},{"bike_id":"7a77d777-cbf4-4854-b02f-5892bd6fc69d","system_id":"levelo_inurba_marseille","lat":43.3237,"lon":5.38883,"is_reserved":false,"is_disabled":false,"rental_uris":{"android":"levelo://app?vid=7a77d777-cbf4-4854-b02f-5892bd6fc69d","ios":"levelo://app?vid=7a77d777-cbf4-4854-b02f-5892bd6fc69d"},"vehicle_type_id":"4","last_reported":1705694871,"current_range_meters":20800,"station_id":"","pricing_plan_id":"free"},{"bike_id":"0488a15c-5dec-4ef3-a79c-803c01b074d3","system_id":"levelo_inurba_marseille","lat":43.32367,"lon":5.388836,"is_reserved":false,"is_disabled":false,"rental_uris":{"android":"levelo://app?vid=0488a15c-5dec-4ef3-a79c-803c01b074d3","ios":"levelo://app?vid=0488a15c-5dec-4ef3-a79c-803c01b074d3"},"vehicle_type_id":"4","last_reported":1705694871,"current_range_meters":12400,"station_id":"ce4bhqp2rcd13ifvqhog","pricing_plan_id":"free"},{"bike_id":"f380ca6f-7a3a-4d56-9fcc-106969c567da","system_id":"levelo_inurba_marseille","lat":43.32367,"lon":5.388836,"is_reserved":false,"is_disabled":false,"rental_uris":{"android":"levelo://app?vid=f380ca6f-7a3a-4d56-9fcc-106969c567da","ios":"levelo://app?vid=f380ca6f-7a3a-4d56-9fcc-106969c567da"},"vehicle_type_id":"4","last_reported":1705694871,"current_range_meters":20000,"station_id":"ce4bhqp2rcd13ifvqhog","pricing_plan_id":"free"},{"bike_id":"e488bc27-b4bd-4ecb-9994-ebd8743b5676","system_id":"levelo_inurba_marseille","lat":43.32367,"lon":5.388836,"is_reserved":false,"is_disabled":false,"rental_uris":{"android":"levelo://app?vid=e488bc27-b4bd-4ecb-9994-ebd8743b5676","ios":"levelo://app?vid=e488bc27-b4bd-4ecb-9994-ebd8743b5676"},"vehicle_type_id":"4","last_reported":1705694871,"current_range_meters":6400,"station_id":"ce4bhqp2rcd13ifvqhog","pricing_plan_id":"free"},{"bike_id":"c68b6822-d442-4675-b9d4-8c9cc910fa25","system_id":"levelo_inurba_marseille","lat":43.32367,"lon":5.388836,"is_reserved":false,"is_disabled":false,"rental_uris":{"android":"levelo://app?vid=c68b6822-d442-4675-b9d4-8c9cc910fa25","ios":"levelo://app?vid=c68b6822-d442-4675-b9d4-8c9cc910fa25"},"vehicle_type_id":"4","last_reported":1705694871,"current_range_meters":29200,"station_id":"ce4bhqp2rcd13ifvqhog","pricing_plan_id":"free"},{"bike_id":"e1283bec-dd91-4ead-a047-f9dd4ef7f4d0","system_id":"levelo_inurba_marseille","lat":43.29601,"lon":5.381084,"is_reserved":false,"is_disabled":false,"rental_uris":{"android":"levelo://app?vid=e1283bec-dd91-4ead-a047-f9dd4ef7f4d0","ios":"levelo://app?vid=e1283bec-dd91-4ead-a047-f9dd4ef7f4d0"},"vehicle_type_id":"4","last_reported":1705694871,"current_range_meters":24400,"station_id":"ce4bgl12rcd13ifvqbo0","pricing_plan_id":"free"},{"bike_id":"8955df26-69c2-436d-81c8-a838e2a58aa9","system_id":"levelo_inurba_marseille","lat":43.29601,"lon":5.381084,"is_reserved":false,"is_disabled":false,"rental_uris":{"android":"levelo://app?vid=8955df26-69c2-436d-81c8-a838e2a58aa9","ios":"levelo://app?vid=8955df26-69c2-436d-81c8-a838e2a58aa9"},"vehicle_type_id":"4","last_reported":1705694871,"current_range_meters":400,"station_id":"ce4bgl12rcd13ifvqbo0","pricing_plan_id":"free"},{"bike_id":"9ef3b602-d877-4892-bb9b-d511956e05f9","system_id":"levelo_inurba_marseille","lat":43.29602,"lon":5.381084,"is_reserved":false,"is_disabled":false,"rental_uris":{"android":"levelo://app?vid=9ef3b602-d877-4892-bb9b-d511956e05f9","ios":"levelo://app?vid=9ef3b602-d877-4892-bb9b-d511956e05f9"},"vehicle_type_id":"4","last_reported":1705694871,"current_range_meters":20400,"station_id":"ce4bgl12rcd13ifvqbo0","pricing_plan_id":"free"},{"bike_id":"d1bca459-69c4-415b-a120-30e39681ec16","system_id":"levelo_inurba_marseille","lat":43.29602,"lon":5.381084,"is_reserved":false,"is_disabled":false,"rental_uris":{"android":"levelo://app?vid=d1bca459-69c4-415b-a120-30e39681ec16","ios":"levelo://app?vid=d1bca459-69c4-415b-a120-30e39681ec16"},"vehicle_type_id":"4","last_reported":1705694871,"current_range_meters":26400,"station_id":"ce4bgl12rcd13ifvqbo0","pricing_plan_id":"free"},{"bike_id":"310cc76f-1e02-4109-b33c-84afe3814094","system_id":"levelo_inurba_marseille","lat":43.29601,"lon":5.381084,"is_reserved":false,"is_disabled":false,"rental_uris":{"android":"levelo://app?vid=310cc76f-1e02-4109-b33c-84afe3814094","ios":"levelo://app?vid=310cc76f-1e02-4109-b33c-84afe3814094"},"vehicle_type_id":"4","last_reported":1705694871,"current_range_meters":31600,"station_id":"ce4bgl12rcd13ifvqbo0","pricing_plan_id":"free"},{"bike_id":"5b3bd819-1f52-48a2-aa12-66f077040668","system_id":"levelo_inurba_marseille","lat":43.29601,"lon":5.381084,"is_reserved":false,"is_disabled":false,"rental_uris":{"android":"levelo://app?vid=5b3bd819-1f52-48a2-aa12-66f077040668","ios":"levelo://app?vid=5b3bd819-1f52-48a2-aa12-66f077040668"},"vehicle_type_id":"4","last_reported":1705694871,"current_range_meters":28400,"station_id":"ce4bgl12rcd13ifvqbo0","pricing_plan_id":"free"},{"bike_id":"a6e6c832-fa95-421e-aa86-555dea19367c","system_id":"levelo_inurba_marseille","lat":43.29602,"lon":5.381084,"is_reserved":false,"is_disabled":false,"rental_uris":{"android":"levelo://app?vid=a6e6c832-fa95-421e-aa86-555dea19367c","ios":"levelo://app?vid=a6e6c832-fa95-421e-aa86-555dea19367c"},"vehicle_type_id":"4","last_reported":1705694871,"current_range_meters":11200,"station_id":"ce4bgl12rcd13ifvqbo0","pricing_plan_id":"free"},{"bike_id":"b58b0ab3-d792-4d77-88a8-5330be49a762","system_id":"levelo_inurba_marseille","lat":43.29601,"lon":5.381084,"is_reserved":false,"is_disabled":false,"rental_uris":{"android":"levelo://app?vid=b58b0ab3-d792-4d77-88a8-5330be49a762","ios":"levelo://app?vid=b58b0ab3-d792-4d77-88a8-5330be49a762"},"vehicle_type_id":"4","last_reported":1705694871,"current_range_meters":24800,"station_id":"ce4bgl12rcd13ifvqbo0","pricing_plan_id":"free"},{"bike_id":"a0bde91d-0866-4ce3-9ce0-d1e61f399921","system_id":"levelo_inurba_marseille","lat":43.29602,"lon":5.381084,"is_reserved":false,"is_disabled":false,"rental_uris":{"android":"levelo://app?vid=a0bde91d-0866-4ce3-9ce0-d1e61f399921","ios":"levelo://app?vid=a0bde91d-0866-4ce3-9ce0-d1e61f399921"},"vehicle_type_id":"4","last_reported":1705694871,"current_range_meters":17200,"station_id":"ce4bgl12rcd13ifvqbo0","pricing_plan_id":"free"},{"bike_id":"b04642f3-3001-4754-9383-7b974889de24","system_id":"levelo_inurba_marseille","lat":43.293259,"lon":5.371586,"is_reserved":false,"is_disabled":false,"rental_uris":{"android":"levelo://app?vid=b04642f3-3001-4754-9383-7b974889de24","ios":"levelo://app?vid=b04642f3-3001-4754-9383-7b974889de24"},"vehicle_type_id":"4","last_reported":1705694871,"current_range_meters":0,"station_id":"ce4bgh92rcd13ifvqb40","pricing_plan_id":"free"},{"bike_id":"95fde7ed-2d37-4e02-98af-a0cdd0087941","system_id":"levelo_inurba_marseille","lat":43.293249,"lon":5.371578,"is_reserved":false,"is_disabled":false,"rental_uris":{"android":"levelo://app?vid=95fde7ed-2d37-4e02-98af-a0cdd0087941","ios":"levelo://app?vid=95fde7ed-2d37-4e02-98af-a0cdd0087941"},"vehicle_type_id":"4","last_reported":1705694871,"current_range_meters":0,"station_id":"ce4bgh92rcd13ifvqb40","pricing_plan_id":"free"},{"bike_id":"479efea7-1fc3-4617-9bbd-5dd032e7467f","system_id":"levelo_inurba_marseille","lat":43.292749,"lon":5.368402,"is_reserved":false,"is_disabled":false,"rental_uris":{"android":"levelo://app?vid=479efea7-1fc3-4617-9bbd-5dd032e7467f","ios":"levelo://app?vid=479efea7-1fc3-4617-9bbd-5dd032e7467f"},"vehicle_type_id":"4","last_reported":1705694871,"current_range_meters":2000,"station_id":"ce4bhbp2rcd13ifvqesg","pricing_plan_id":"free"},{"bike_id":"e2cf571d-71c4-4790-9322-687fab8ba247","system_id":"levelo_inurba_marseille","lat":43.293249,"lon":5.371578,"is_reserved":false,"is_disabled":false,"rental_uris":{"android":"levelo://app?vid=e2cf571d-71c4-4790-9322-687fab8ba247","ios":"levelo://app?vid=e2cf571d-71c4-4790-9322-687fab8ba247"},"vehicle_type_id":"4","last_reported":1705694871,"current_range_meters":13200,"station_id":"ce4bgh92rcd13ifvqb40","pricing_plan_id":"free"},{"bike_id":"99b3f693-2319-4df5-81ed-c8086fce25d0","system_id":"levelo_inurba_marseille","lat":43.293249,"lon":5.371578,"is_reserved":false,"is_disabled":false,"rental_uris":{"android":"levelo://app?vid=99b3f693-2319-4df5-81ed-c8086fce25d0","ios":"levelo://app?vid=99b3f693-2319-4df5-81ed-c8086fce25d0"},"vehicle_type_id":"4","last_reported":1705694871,"current_range_meters":17600,"station_id":"ce4bgh92rcd13ifvqb40","pricing_plan_id":"free"},{"bike_id":"a9607db4-f0d6-4377-bf8f-8748391957f1","system_id":"levelo_inurba_marseille","lat":43.292749,"lon":5.368402,"is_reserved":false,"is_disabled":false,"rental_uris":{"android":"levelo://app?vid=a9607db4-f0d6-4377-bf8f-8748391957f1","ios":"levelo://app?vid=a9607db4-f0d6-4377-bf8f-8748391957f1"},"vehicle_type_id":"4","last_reported":1705694871,"current_range_meters":9600,"station_id":"ce4bhbp2rcd13ifvqesg","pricing_plan_id":"free"},{"bike_id":"31b5b041-277a-4be2-9e58-11073d690b43","system_id":"levelo_inurba_marseille","lat":43.292749,"lon":5.368402,"is_reserved":false,"is_disabled":false,"rental_uris":{"android":"levelo://app?vid=31b5b041-277a-4be2-9e58-11073d690b43","ios":"levelo://app?vid=31b5b041-277a-4be2-9e58-11073d690b43"},"vehicle_type_id":"4","last_reported":1705694871,"current_range_meters":18400,"station_id":"ce4bhbp2rcd13ifvqesg","pricing_plan_id":"free"},{"bike_id":"a6285dc2-0988-48ca-b2d2-d769b3ca1e5b","system_id":"levelo_inurba_marseille","lat":43.293009,"lon":5.374584,"is_reserved":false,"is_disabled":false,"rental_uris":{"android":"levelo://app?vid=a6285dc2-0988-48ca-b2d2-d769b3ca1e5b","ios":"levelo://app?vid=a6285dc2-0988-48ca-b2d2-d769b3ca1e5b"},"vehicle_type_id":"4","last_reported":1705694871,"current_range_meters":25600,"station_id":"ce4bgi12rcd13ifvqb70","pricing_plan_id":"free"},{"bike_id":"a4eabfc0-ce4c-40b5-9fce-f9bbb08980cb","system_id":"levelo_inurba_marseille","lat":43.29297,"lon":5.37459,"is_reserved":false,"is_disabled":false,"rental_uris":{"android":"levelo://app?vid=a4eabfc0-ce4c-40b5-9fce-f9bbb08980cb","ios":"levelo://app?vid=a4eabfc0-ce4c-40b5-9fce-f9bbb08980cb"},"vehicle_type_id":"4","last_reported":1705694871,"current_range_meters":22800,"station_id":"ce4bgi12rcd13ifvqb70","pricing_plan_id":"free"},{"bike_id":"5f97f2e5-99a0-410d-85ca-a283bb61d65c","system_id":"levelo_inurba_marseille","lat":43.29297,"lon":5.37463,"is_reserved":false,"is_disabled":false,"rental_uris":{"android":"levelo://app?vid=5f97f2e5-99a0-410d-85ca-a283bb61d65c","ios":"levelo://app?vid=5f97f2e5-99a0-410d-85ca-a283bb61d65c"},"vehicle_type_id":"4","last_reported":1705694871,"current_range_meters":17200,"station_id":"ce4bgi12rcd13ifvqb70","pricing_plan_id":"free"},{"bike_id":"9492560e-121b-444d-b871-58bccdeca723","system_id":"levelo_inurba_marseille","lat":43.29292,"lon":5.37444,"is_reserved":false,"is_disabled":false,"rental_uris":{"android":"levelo://app?vid=9492560e-121b-444d-b871-58bccdeca723","ios":"levelo://app?vid=9492560e-121b-444d-b871-58bccdeca723"},"vehicle_type_id":"4","last_reported":1705694871,"current_range_meters":9600,"station_id":"ce4bgi12rcd13ifvqb70","pricing_plan_id":"free"},{"bike_id":"bcd7db6f-73a2-4b15-86eb-f33843f0771a","system_id":"levelo_inurba_marseille","lat":43.305994,"lon":5.393687,"is_reserved":false,"is_disabled":false,"rental_uris":{"android":"levelo://app?vid=bcd7db6f-73a2-4b15-86eb-f33843f0771a","ios":"levelo://app?vid=bcd7db6f-73a2-4b15-86eb-f33843f0771a"},"vehicle_type_id":"4","last_reported":1705694871,"current_range_meters":10800,"station_id":"ce4bh0p2rcd13ifvqd80","pricing_plan_id":"free"},{"bike_id":"c99e0b92-48ee-4c7d-a001-5e4ae58e5d06","system_id":"levelo_inurba_marseille","lat":43.303002,"lon":5.392142,"is_reserved":false,"is_disabled":false,"rental_uris":{"android":"levelo://app?vid=c99e0b92-48ee-4c7d-a001-5e4ae58e5d06","ios":"levelo://app?vid=c99e0b92-48ee-4c7d-a001-5e4ae58e5d06"},"vehicle_type_id":"4","last_reported":1705694871,"current_range_meters":22000,"station_id":"ce4bgkh2rcd13ifvqbk0","pricing_plan_id":"free"},{"bike_id":"749f22cf-10a9-4854-81b2-315d59da6ae2","system_id":"levelo_inurba_marseille","lat":43.2936,"lon":5.37835,"is_reserved":false,"is_disabled":false,"rental_uris":{"android":"levelo://app?vid=749f22cf-10a9-4854-81b2-315d59da6ae2","ios":"levelo://app?vid=749f22cf-10a9-4854-81b2-315d59da6ae2"},"vehicle_type_id":"4","last_reported":1705694871,"current_range_meters":21200,"station_id":"ce4bgjh2rcd13ifvqbf0","pricing_plan_id":"free"},{"bike_id":"f2d1ad5b-96a4-45aa-9b0f-397d3af66f40","system_id":"levelo_inurba_marseille","lat":43.2936,"lon":5.37835,"is_reserved":false,"is_disabled":false,"rental_uris":{"android":"levelo://app?vid=f2d1ad5b-96a4-45aa-9b0f-397d3af66f40","ios":"levelo://app?vid=f2d1ad5b-96a4-45aa-9b0f-397d3af66f40"},"vehicle_type_id":"4","last_reported":1705694871,"current_range_meters":17200,"station_id":"ce4bgjh2rcd13ifvqbf0","pricing_plan_id":"free"},{"bike_id":"5e5e1920-fc8b-4fe0-9620-eb4ecbaf0bf9","system_id":"levelo_inurba_marseille","lat":43.2936,"lon":5.37835,"is_reserved":false,"is_disabled":false,"rental_uris":{"android":"levelo://app?vid=5e5e1920-fc8b-4fe0-9620-eb4ecbaf0bf9","ios":"levelo://app?vid=5e5e1920-fc8b-4fe0-9620-eb4ecbaf0bf9"},"vehicle_type_id":"4","last_reported":1705694871,"current_range_meters":0,"station_id":"ce4bgjh2rcd13ifvqbf0","pricing_plan_id":"free"},{"bike_id":"75a5498f-50bf-482c-be0b-24d8bf09806e","system_id":"levelo_inurba_marseille","lat":43.2936,"lon":5.37835,"is_reserved":false,"is_disabled":false,"rental_uris":{"android":"levelo://app?vid=75a5498f-50bf-482c-be0b-24d8bf09806e","ios":"levelo://app?vid=75a5498f-50bf-482c-be0b-24d8bf09806e"},"vehicle_type_id":"4","last_reported":1705694871,"current_range_meters":8400,"station_id":"ce4bgjh2rcd13ifvqbf0","pricing_plan_id":"free"},{"bike_id":"f1d5d859-4e90-4cc5-ad78-c75ab5b981e2","system_id":"levelo_inurba_marseille","lat":43.292311,"lon":5.360731,"is_reserved":false,"is_disabled":false,"rental_uris":{"android":"levelo://app?vid=f1d5d859-4e90-4cc5-ad78-c75ab5b981e2","ios":"levelo://app?vid=f1d5d859-4e90-4cc5-ad78-c75ab5b981e2"},"vehicle_type_id":"4","last_reported":1705694871,"current_range_meters":26400,"station_id":"ce4bhbh2rcd13ifvqeqg","pricing_plan_id":"free"},{"bike_id":"9bb045c6-33ae-4ecf-b911-5b875450fc26","system_id":"levelo_inurba_marseille","lat":43.300974,"lon":5.390796,"is_reserved":false,"is_disabled":false,"rental_uris":{"android":"levelo://app?vid=9bb045c6-33ae-4ecf-b911-5b875450fc26","ios":"levelo://app?vid=9bb045c6-33ae-4ecf-b911-5b875450fc26"},"vehicle_type_id":"4","last_reported":1705694871,"current_range_meters":0,"station_id":"ce4bh192rcd13ifvqdb0","pricing_plan_id":"free"},{"bike_id":"8b43fe6e-0b6c-4fff-a9b0-0a0dd93a9183","system_id":"levelo_inurba_marseille","lat":43.292311,"lon":5.360731,"is_reserved":false,"is_disabled":false,"rental_uris":{"android":"levelo://app?vid=8b43fe6e-0b6c-4fff-a9b0-0a0dd93a9183","ios":"levelo://app?vid=8b43fe6e-0b6c-4fff-a9b0-0a0dd93a9183"},"vehicle_type_id":"4","last_reported":1705694871,"current_range_meters":20400,"station_id":"ce4bhbh2rcd13ifvqeqg","pricing_plan_id":"free"},{"bike_id":"a38a527b-2bdc-4de9-b43d-7c8144f2c3ac","system_id":"levelo_inurba_marseille","lat":43.298764,"lon":5.388973,"is_reserved":false,"is_disabled":false,"rental_uris":{"android":"levelo://app?vid=a38a527b-2bdc-4de9-b43d-7c8144f2c3ac","ios":"levelo://app?vid=a38a527b-2bdc-4de9-b43d-7c8144f2c3ac"},"vehicle_type_id":"4","last_reported":1705694871,"current_range_meters":0,"station_id":"ce4bh392rcd13ifvqdl0","pricing_plan_id":"free"},{"bike_id":"b485d1ab-89f4-4e0b-9101-5fa84c346713","system_id":"levelo_inurba_marseille","lat":43.29153,"lon":5.37158,"is_reserved":false,"is_disabled":false,"rental_uris":{"android":"levelo://app?vid=b485d1ab-89f4-4e0b-9101-5fa84c346713","ios":"levelo://app?vid=b485d1ab-89f4-4e0b-9101-5fa84c346713"},"vehicle_type_id":"4","last_reported":1705694871,"current_range_meters":15200,"station_id":"ce4bha92rcd13ifvqeh0","pricing_plan_id":"free"},{"bike_id":"747b3163-5de2-4783-8b2c-de49ade33d52","system_id":"levelo_inurba_marseille","lat":43.292047,"lon":5.35816,"is_reserved":false,"is_disabled":false,"rental_uris":{"android":"levelo://app?vid=747b3163-5de2-4783-8b2c-de49ade33d52","ios":"levelo://app?vid=747b3163-5de2-4783-8b2c-de49ade33d52"},"vehicle_type_id":"4","last_reported":1705694871,"current_range_meters":13200,"station_id":"ce4bhb12rcd13ifvqel0","pricing_plan_id":"free"},{"bike_id":"4719b732-ea8e-4af1-8bda-1edcb375dcf8","system_id":"levelo_inurba_marseille","lat":43.29202,"lon":5.35806,"is_reserved":false,"is_disabled":false,"rental_uris":{"android":"levelo://app?vid=4719b732-ea8e-4af1-8bda-1edcb375dcf8","ios":"levelo://app?vid=4719b732-ea8e-4af1-8bda-1edcb375dcf8"},"vehicle_type_id":"4","last_reported":1705694871,"current_range_meters":18000,"station_id":"ce4bhb12rcd13ifvqel0","pricing_plan_id":"free"},{"bike_id":"36e1005c-ad94-432b-8b06-7f8157bcedd5","system_id":"levelo_inurba_marseille","lat":43.291994,"lon":5.357886,"is_reserved":false,"is_disabled":false,"rental_uris":{"android":"levelo://app?vid=36e1005c-ad94-432b-8b06-7f8157bcedd5","ios":"levelo://app?vid=36e1005c-ad94-432b-8b06-7f8157bcedd5"},"vehicle_type_id":"4","last_reported":1705694871,"current_range_meters":23200,"station_id":"ce4bhb12rcd13ifvqel0","pricing_plan_id":"free"},{"bike_id":"9d32c371-b55b-4420-9f5a-b8aa35bcb5fc","system_id":"levelo_inurba_marseille","lat":43.291994,"lon":5.357886,"is_reserved":false,"is_disabled":false,"rental_uris":{"android":"levelo://app?vid=9d32c371-b55b-4420-9f5a-b8aa35bcb5fc","ios":"levelo://app?vid=9d32c371-b55b-4420-9f5a-b8aa35bcb5fc"},"vehicle_type_id":"4","last_reported":1705694871,"current_range_meters":15200,"station_id":"ce4bhb12rcd13ifvqel0","pricing_plan_id":"free"},{"bike_id":"8d970af5-ce59-41e3-aab1-7f90858e8457","system_id":"levelo_inurba_marseille","lat":43.291994,"lon":5.357886,"is_reserved":false,"is_disabled":false,"rental_uris":{"android":"levelo://app?vid=8d970af5-ce59-41e3-aab1-7f90858e8457","ios":"levelo://app?vid=8d970af5-ce59-41e3-aab1-7f90858e8457"},"vehicle_type_id":"4","last_reported":1705694871,"current_range_meters":17600,"station_id":"ce4bhb12rcd13ifvqel0","pricing_plan_id":"free"},{"bike_id":"7a34eab2-bb22-44b1-ac0a-96ea9e938d73","system_id":"levelo_inurba_marseille","lat":43.292644,"lon":5.384257,"is_reserved":false,"is_disabled":false,"rental_uris":{"android":"levelo://app?vid=7a34eab2-bb22-44b1-ac0a-96ea9e938d73","ios":"levelo://app?vid=7a34eab2-bb22-44b1-ac0a-96ea9e938d73"},"vehicle_type_id":"4","last_reported":1705694871,"current_range_meters":14400,"station_id":"ce4bh692rcd13ifvqea0","pricing_plan_id":"free"},{"bike_id":"df9b79f9-7124-4711-bd9e-33ce04f48cc8","system_id":"levelo_inurba_marseille","lat":43.291614,"lon":5.374967,"is_reserved":false,"is_disabled":false,"rental_uris":{"android":"levelo://app?vid=df9b79f9-7124-4711-bd9e-33ce04f48cc8","ios":"levelo://app?vid=df9b79f9-7124-4711-bd9e-33ce04f48cc8"},"vehicle_type_id":"4","last_reported":1705694871,"current_range_meters":0,"station_id":"","pricing_plan_id":"free"},{"bike_id":"9f363f42-03e5-4540-9e11-5ec4af1e8f20","system_id":"levelo_inurba_marseille","lat":43.29529,"lon":5.385581,"is_reserved":false,"is_disabled":false,"rental_uris":{"android":"levelo://app?vid=9f363f42-03e5-4540-9e11-5ec4af1e8f20","ios":"levelo://app?vid=9f363f42-03e5-4540-9e11-5ec4af1e8f20"},"vehicle_type_id":"4","last_reported":1705694871,"current_range_meters":19600,"station_id":"ce4bgih2rcd13ifvqba0","pricing_plan_id":"free"},{"bike_id":"4e466754-016c-49ba-ade1-40114e3e0996","system_id":"levelo_inurba_marseille","lat":43.309038,"lon":5.396546,"is_reserved":false,"is_disabled":false,"rental_uris":{"android":"levelo://app?vid=4e466754-016c-49ba-ade1-40114e3e0996","ios":"levelo://app?vid=4e466754-016c-49ba-ade1-40114e3e0996"},"vehicle_type_id":"4","last_reported":1705694871,"current_range_meters":12400,"station_id":"ce4bh012rcd13ifvqcv0","pricing_plan_id":"free"},{"bike_id":"5b9f78ae-d544-4c1d-a441-68f35bf7b2c9","system_id":"levelo_inurba_marseille","lat":43.29529,"lon":5.385581,"is_reserved":false,"is_disabled":false,"rental_uris":{"android":"levelo://app?vid=5b9f78ae-d544-4c1d-a441-68f35bf7b2c9","ios":"levelo://app?vid=5b9f78ae-d544-4c1d-a441-68f35bf7b2c9"},"vehicle_type_id":"4","last_reported":1705694871,"current_range_meters":19200,"station_id":"ce4bgih2rcd13ifvqba0","pricing_plan_id":"free"},{"bike_id":"dcd3dfaf-cb87-4fcc-a5d7-8871542b47aa","system_id":"levelo_inurba_marseille","lat":43.290779,"lon":5.371482,"is_reserved":false,"is_disabled":false,"rental_uris":{"android":"levelo://app?vid=dcd3dfaf-cb87-4fcc-a5d7-8871542b47aa","ios":"levelo://app?vid=dcd3dfaf-cb87-4fcc-a5d7-8871542b47aa"},"vehicle_type_id":"4","last_reported":1705694871,"current_range_meters":2400,"station_id":"ce4bh5p2rcd13ifvqe4g","pricing_plan_id":"free"},{"bike_id":"13594986-fa3a-4bb5-841f-770f14b32465","system_id":"levelo_inurba_marseille","lat":43.290779,"lon":5.371482,"is_reserved":false,"is_disabled":false,"rental_uris":{"android":"levelo://app?vid=13594986-fa3a-4bb5-841f-770f14b32465","ios":"levelo://app?vid=13594986-fa3a-4bb5-841f-770f14b32465"},"vehicle_type_id":"4","last_reported":1705694871,"current_range_meters":6800,"station_id":"ce4bh5p2rcd13ifvqe4g","pricing_plan_id":"free"},{"bike_id":"92fb8769-c089-41c3-bbf8-25e0da518343","system_id":"levelo_inurba_marseille","lat":43.289184,"lon":5.366408,"is_reserved":false,"is_disabled":false,"rental_uris":{"android":"levelo://app?vid=92fb8769-c089-41c3-bbf8-25e0da518343","ios":"levelo://app?vid=92fb8769-c089-41c3-bbf8-25e0da518343"},"vehicle_type_id":"4","last_reported":1705694871,"current_range_meters":15600,"station_id":"ce4bhap2rcd13ifvqek0","pricing_plan_id":"free"},{"bike_id":"43024024-eedd-410b-b74d-e675fafd8277","system_id":"levelo_inurba_marseille","lat":43.290624,"lon":5.359245,"is_reserved":false,"is_disabled":false,"rental_uris":{"android":"levelo://app?vid=43024024-eedd-410b-b74d-e675fafd8277","ios":"levelo://app?vid=43024024-eedd-410b-b74d-e675fafd8277"},"vehicle_type_id":"4","last_reported":1705694871,"current_range_meters":30800,"station_id":"ce4bha92rcd13ifvqeg0","pricing_plan_id":"free"},{"bike_id":"53be3581-bec4-4689-95e5-a6ae960d368a","system_id":"levelo_inurba_marseille","lat":43.290631,"lon":5.359244,"is_reserved":false,"is_disabled":false,"rental_uris":{"android":"levelo://app?vid=53be3581-bec4-4689-95e5-a6ae960d368a","ios":"levelo://app?vid=53be3581-bec4-4689-95e5-a6ae960d368a"},"vehicle_type_id":"4","last_reported":1705694871,"current_range_meters":18800,"station_id":"ce4bha92rcd13ifvqeg0","pricing_plan_id":"free"},{"bike_id":"a8789e33-5815-4fb3-84b2-50d1f9b2c15e","system_id":"levelo_inurba_marseille","lat":43.290624,"lon":5.359245,"is_reserved":false,"is_disabled":false,"rental_uris":{"android":"levelo://app?vid=a8789e33-5815-4fb3-84b2-50d1f9b2c15e","ios":"levelo://app?vid=a8789e33-5815-4fb3-84b2-50d1f9b2c15e"},"vehicle_type_id":"4","last_reported":1705694871,"current_range_meters":14000,"station_id":"ce4bha92rcd13ifvqeg0","pricing_plan_id":"free"},{"bike_id":"2a02fd67-35f8-41cf-9a4c-324fe24389a8","system_id":"levelo_inurba_marseille","lat":43.290631,"lon":5.359244,"is_reserved":false,"is_disabled":false,"rental_uris":{"android":"levelo://app?vid=2a02fd67-35f8-41cf-9a4c-324fe24389a8","ios":"levelo://app?vid=2a02fd67-35f8-41cf-9a4c-324fe24389a8"},"vehicle_type_id":"4","last_reported":1705694871,"current_range_meters":25200,"station_id":"ce4bha92rcd13ifvqeg0","pricing_plan_id":"free"},{"bike_id":"4526715b-6bb5-4110-9272-574f45699833","system_id":"levelo_inurba_marseille","lat":43.29424,"lon":5.38618,"is_reserved":false,"is_disabled":false,"rental_uris":{"android":"levelo://app?vid=4526715b-6bb5-4110-9272-574f45699833","ios":"levelo://app?vid=4526715b-6bb5-4110-9272-574f45699833"},"vehicle_type_id":"4","last_reported":1705694871,"current_range_meters":1600,"station_id":"ce4bh2h2rcd13ifvqdh0","pricing_plan_id":"free"},{"bike_id":"1ec09d17-f02e-4639-a068-bdb42f3bfab4","system_id":"levelo_inurba_marseille","lat":43.290327,"lon":5.375711,"is_reserved":false,"is_disabled":false,"rental_uris":{"android":"levelo://app?vid=1ec09d17-f02e-4639-a068-bdb42f3bfab4","ios":"levelo://app?vid=1ec09d17-f02e-4639-a068-bdb42f3bfab4"},"vehicle_type_id":"4","last_reported":1705694871,"current_range_meters":16800,"station_id":"ce4bh692rcd13ifvqe90","pricing_plan_id":"free"},{"bike_id":"ef5a88a3-f593-4582-9efc-927795664d5a","system_id":"levelo_inurba_marseille","lat":43.29422,"lon":5.38626,"is_reserved":false,"is_disabled":false,"rental_uris":{"android":"levelo://app?vid=ef5a88a3-f593-4582-9efc-927795664d5a","ios":"levelo://app?vid=ef5a88a3-f593-4582-9efc-927795664d5a"},"vehicle_type_id":"4","last_reported":1705694871,"current_range_meters":15200,"station_id":"ce4bh2h2rcd13ifvqdh0","pricing_plan_id":"free"},{"bike_id":"710ca7a3-019b-42bc-b3f9-819874c22aee","system_id":"levelo_inurba_marseille","lat":43.29418,"lon":5.38619,"is_reserved":false,"is_disabled":false,"rental_uris":{"android":"levelo://app?vid=710ca7a3-019b-42bc-b3f9-819874c22aee","ios":"levelo://app?vid=710ca7a3-019b-42bc-b3f9-819874c22aee"},"vehicle_type_id":"4","last_reported":1705694871,"current_range_meters":1600,"station_id":"ce4bh2h2rcd13ifvqdh0","pricing_plan_id":"free"},{"bike_id":"018547e3-b775-4b22-9256-9be4a42a197e","system_id":"levelo_inurba_marseille","lat":43.29422,"lon":5.386265,"is_reserved":false,"is_disabled":false,"rental_uris":{"android":"levelo://app?vid=018547e3-b775-4b22-9256-9be4a42a197e","ios":"levelo://app?vid=018547e3-b775-4b22-9256-9be4a42a197e"},"vehicle_type_id":"4","last_reported":1705694871,"current_range_meters":0,"station_id":"ce4bh2h2rcd13ifvqdh0","pricing_plan_id":"free"},{"bike_id":"56e2d27e-54b4-4fd5-a846-5b41b8fb7d25","system_id":"levelo_inurba_marseille","lat":43.29419,"lon":5.38624,"is_reserved":false,"is_disabled":false,"rental_uris":{"android":"levelo://app?vid=56e2d27e-54b4-4fd5-a846-5b41b8fb7d25","ios":"levelo://app?vid=56e2d27e-54b4-4fd5-a846-5b41b8fb7d25"},"vehicle_type_id":"4","last_reported":1705694871,"current_range_meters":17200,"station_id":"ce4bh2h2rcd13ifvqdh0","pricing_plan_id":"free"},{"bike_id":"4d50a6e6-0e29-483b-9f69-6ae870b184ee","system_id":"levelo_inurba_marseille","lat":43.294143,"lon":5.386174,"is_reserved":false,"is_disabled":false,"rental_uris":{"android":"levelo://app?vid=4d50a6e6-0e29-483b-9f69-6ae870b184ee","ios":"levelo://app?vid=4d50a6e6-0e29-483b-9f69-6ae870b184ee"},"vehicle_type_id":"4","last_reported":1705694871,"current_range_meters":22000,"station_id":"ce4bh2h2rcd13ifvqdh0","pricing_plan_id":"free"},{"bike_id":"89d7faa4-4638-4e2c-aa2d-0cacf4e8b62f","system_id":"levelo_inurba_marseille","lat":43.294153,"lon":5.386305,"is_reserved":false,"is_disabled":false,"rental_uris":{"android":"levelo://app?vid=89d7faa4-4638-4e2c-aa2d-0cacf4e8b62f","ios":"levelo://app?vid=89d7faa4-4638-4e2c-aa2d-0cacf4e8b62f"},"vehicle_type_id":"4","last_reported":1705694871,"current_range_meters":28400,"station_id":"ce4bh2h2rcd13ifvqdh0","pricing_plan_id":"free"},{"bike_id":"500a161f-276d-43c9-8b7c-edc23f143e43","system_id":"levelo_inurba_marseille","lat":43.29419,"lon":5.38627,"is_reserved":false,"is_disabled":false,"rental_uris":{"android":"levelo://app?vid=500a161f-276d-43c9-8b7c-edc23f143e43","ios":"levelo://app?vid=500a161f-276d-43c9-8b7c-edc23f143e43"},"vehicle_type_id":"4","last_reported":1705694871,"current_range_meters":20400,"station_id":"ce4bh2h2rcd13ifvqdh0","pricing_plan_id":"free"},{"bike_id":"55aa915e-1812-480c-b9b3-41af8b6e8480","system_id":"levelo_inurba_marseille","lat":43.29419,"lon":5.38627,"is_reserved":false,"is_disabled":false,"rental_uris":{"android":"levelo://app?vid=55aa915e-1812-480c-b9b3-41af8b6e8480","ios":"levelo://app?vid=55aa915e-1812-480c-b9b3-41af8b6e8480"},"vehicle_type_id":"4","last_reported":1705694871,"current_range_meters":3600,"station_id":"ce4bh2h2rcd13ifvqdh0","pricing_plan_id":"free"},{"bike_id":"59402b50-53fb-478a-a2de-130628b9bf8b","system_id":"levelo_inurba_marseille","lat":43.29419,"lon":5.38631,"is_reserved":false,"is_disabled":false,"rental_uris":{"android":"levelo://app?vid=59402b50-53fb-478a-a2de-130628b9bf8b","ios":"levelo://app?vid=59402b50-53fb-478a-a2de-130628b9bf8b"},"vehicle_type_id":"4","last_reported":1705694871,"current_range_meters":12800,"station_id":"ce4bh2h2rcd13ifvqdh0","pricing_plan_id":"free"},{"bike_id":"997672ca-df9e-4583-8c4e-54894a6e8610","system_id":"levelo_inurba_marseille","lat":43.29417,"lon":5.3863,"is_reserved":false,"is_disabled":false,"rental_uris":{"android":"levelo://app?vid=997672ca-df9e-4583-8c4e-54894a6e8610","ios":"levelo://app?vid=997672ca-df9e-4583-8c4e-54894a6e8610"},"vehicle_type_id":"4","last_reported":1705694871,"current_range_meters":800,"station_id":"","pricing_plan_id":"free"},{"bike_id":"0aed766e-9bf2-4da5-8f6e-e74c77f6af62","system_id":"levelo_inurba_marseille","lat":43.29415,"lon":5.38631,"is_reserved":false,"is_disabled":false,"rental_uris":{"android":"levelo://app?vid=0aed766e-9bf2-4da5-8f6e-e74c77f6af62","ios":"levelo://app?vid=0aed766e-9bf2-4da5-8f6e-e74c77f6af62"},"vehicle_type_id":"4","last_reported":1705694871,"current_range_meters":27600,"station_id":"ce4bh2h2rcd13ifvqdh0","pricing_plan_id":"free"},{"bike_id":"7f5546f4-ce5a-46c3-a36c-d6bf797093ca","system_id":"levelo_inurba_marseille","lat":43.289184,"lon":5.366408,"is_reserved":false,"is_disabled":false,"rental_uris":{"android":"levelo://app?vid=7f5546f4-ce5a-46c3-a36c-d6bf797093ca","ios":"levelo://app?vid=7f5546f4-ce5a-46c3-a36c-d6bf797093ca"},"vehicle_type_id":"4","last_reported":1705694871,"current_range_meters":7600,"station_id":"ce4bhap2rcd13ifvqek0","pricing_plan_id":"free"},{"bike_id":"3cf570b8-056a-41c1-9206-6313eac8b81d","system_id":"levelo_inurba_marseille","lat":43.289184,"lon":5.366408,"is_reserved":false,"is_disabled":false,"rental_uris":{"android":"levelo://app?vid=3cf570b8-056a-41c1-9206-6313eac8b81d","ios":"levelo://app?vid=3cf570b8-056a-41c1-9206-6313eac8b81d"},"vehicle_type_id":"4","last_reported":1705694871,"current_range_meters":29200,"station_id":"ce4bhap2rcd13ifvqek0","pricing_plan_id":"free"},{"bike_id":"e13a3e95-0933-43cb-b731-bdd4d86fb7b3","system_id":"levelo_inurba_marseille","lat":43.289184,"lon":5.366408,"is_reserved":false,"is_disabled":false,"rental_uris":{"android":"levelo://app?vid=e13a3e95-0933-43cb-b731-bdd4d86fb7b3","ios":"levelo://app?vid=e13a3e95-0933-43cb-b731-bdd4d86fb7b3"},"vehicle_type_id":"4","last_reported":1705694871,"current_range_meters":13600,"station_id":"ce4bhap2rcd13ifvqek0","pricing_plan_id":"free"},{"bike_id":"4c583eba-5060-435d-99a3-c503d3a4346b","system_id":"levelo_inurba_marseille","lat":43.289184,"lon":5.366408,"is_reserved":false,"is_disabled":false,"rental_uris":{"android":"levelo://app?vid=4c583eba-5060-435d-99a3-c503d3a4346b","ios":"levelo://app?vid=4c583eba-5060-435d-99a3-c503d3a4346b"},"vehicle_type_id":"4","last_reported":1705694871,"current_range_meters":28400,"station_id":"ce4bhap2rcd13ifvqek0","pricing_plan_id":"free"},{"bike_id":"24c30c8b-2ce6-4e87-9e8c-44e9802618e0","system_id":"levelo_inurba_marseille","lat":43.289468,"lon":5.363719,"is_reserved":false,"is_disabled":false,"rental_uris":{"android":"levelo://app?vid=24c30c8b-2ce6-4e87-9e8c-44e9802618e0","ios":"levelo://app?vid=24c30c8b-2ce6-4e87-9e8c-44e9802618e0"},"vehicle_type_id":"4","last_reported":1705694871,"current_range_meters":29600,"station_id":"ce4bhc92rcd13ifvqetg","pricing_plan_id":"free"},{"bike_id":"409129a2-cfb2-4557-9006-4c0e849fb40b","system_id":"levelo_inurba_marseille","lat":43.28935,"lon":5.36646,"is_reserved":false,"is_disabled":false,"rental_uris":{"android":"levelo://app?vid=409129a2-cfb2-4557-9006-4c0e849fb40b","ios":"levelo://app?vid=409129a2-cfb2-4557-9006-4c0e849fb40b"},"vehicle_type_id":"4","last_reported":1705694871,"current_range_meters":17200,"station_id":"ce4bhap2rcd13ifvqek0","pricing_plan_id":"free"},{"bike_id":"6ee75e1d-da51-4a0f-9727-f4c737488a0a","system_id":"levelo_inurba_marseille","lat":43.289468,"lon":5.363719,"is_reserved":false,"is_disabled":false,"rental_uris":{"android":"levelo://app?vid=6ee75e1d-da51-4a0f-9727-f4c737488a0a","ios":"levelo://app?vid=6ee75e1d-da51-4a0f-9727-f4c737488a0a"},"vehicle_type_id":"4","last_reported":1705694871,"current_range_meters":10800,"station_id":"ce4bhc92rcd13ifvqetg","pricing_plan_id":"free"},{"bike_id":"eb8ac021-7e0e-4505-81dd-768617961549","system_id":"levelo_inurba_marseille","lat":43.292644,"lon":5.384257,"is_reserved":false,"is_disabled":false,"rental_uris":{"android":"levelo://app?vid=eb8ac021-7e0e-4505-81dd-768617961549","ios":"levelo://app?vid=eb8ac021-7e0e-4505-81dd-768617961549"},"vehicle_type_id":"4","last_reported":1705694871,"current_range_meters":23600,"station_id":"ce4bh692rcd13ifvqea0","pricing_plan_id":"free"},{"bike_id":"791216e0-04bc-4324-9150-a647c246cb3b","system_id":"levelo_inurba_marseille","lat":43.29266,"lon":5.38425,"is_reserved":false,"is_disabled":false,"rental_uris":{"android":"levelo://app?vid=791216e0-04bc-4324-9150-a647c246cb3b","ios":"levelo://app?vid=791216e0-04bc-4324-9150-a647c246cb3b"},"vehicle_type_id":"4","last_reported":1705694871,"current_range_meters":20400,"station_id":"ce4bh692rcd13ifvqea0","pricing_plan_id":"free"},{"bike_id":"45c42d16-3f9b-41b2-8bd4-9f556f2aaca7","system_id":"levelo_inurba_marseille","lat":43.292695,"lon":5.384339,"is_reserved":false,"is_disabled":false,"rental_uris":{"android":"levelo://app?vid=45c42d16-3f9b-41b2-8bd4-9f556f2aaca7","ios":"levelo://app?vid=45c42d16-3f9b-41b2-8bd4-9f556f2aaca7"},"vehicle_type_id":"4","last_reported":1705694871,"current_range_meters":13600,"station_id":"ce4bh692rcd13ifvqea0","pricing_plan_id":"free"},{"bike_id":"e33dd944-4dab-49c1-98bc-4f73c479f68e","system_id":"levelo_inurba_marseille","lat":43.292644,"lon":5.384257,"is_reserved":false,"is_disabled":false,"rental_uris":{"android":"levelo://app?vid=e33dd944-4dab-49c1-98bc-4f73c479f68e","ios":"levelo://app?vid=e33dd944-4dab-49c1-98bc-4f73c479f68e"},"vehicle_type_id":"4","last_reported":1705694871,"current_range_meters":22800,"station_id":"ce4bh692rcd13ifvqea0","pricing_plan_id":"free"},{"bike_id":"05f810f0-1cb8-4374-9347-c78d6898bb5e","system_id":"levelo_inurba_marseille","lat":43.292644,"lon":5.384257,"is_reserved":false,"is_disabled":false,"rental_uris":{"android":"levelo://app?vid=05f810f0-1cb8-4374-9347-c78d6898bb5e","ios":"levelo://app?vid=05f810f0-1cb8-4374-9347-c78d6898bb5e"},"vehicle_type_id":"4","last_reported":1705694871,"current_range_meters":18400,"station_id":"ce4bh692rcd13ifvqea0","pricing_plan_id":"free"},{"bike_id":"2e08eaf8-60b0-4676-8234-a590bba2bdbe","system_id":"levelo_inurba_marseille","lat":43.29264,"lon":5.38428,"is_reserved":false,"is_disabled":false,"rental_uris":{"android":"levelo://app?vid=2e08eaf8-60b0-4676-8234-a590bba2bdbe","ios":"levelo://app?vid=2e08eaf8-60b0-4676-8234-a590bba2bdbe"},"vehicle_type_id":"4","last_reported":1705694871,"current_range_meters":30000,"station_id":"ce4bh692rcd13ifvqea0","pricing_plan_id":"free"},{"bike_id":"499ad1b5-44a6-4229-b190-06723d6111d3","system_id":"levelo_inurba_marseille","lat":43.29265,"lon":5.38432,"is_reserved":false,"is_disabled":false,"rental_uris":{"android":"levelo://app?vid=499ad1b5-44a6-4229-b190-06723d6111d3","ios":"levelo://app?vid=499ad1b5-44a6-4229-b190-06723d6111d3"},"vehicle_type_id":"4","last_reported":1705694871,"current_range_meters":12400,"station_id":"ce4bh692rcd13ifvqea0","pricing_plan_id":"free"},{"bike_id":"fc042615-9fa4-488f-b400-bf98258e9dba","system_id":"levelo_inurba_marseille","lat":43.292644,"lon":5.384257,"is_reserved":false,"is_disabled":false,"rental_uris":{"android":"levelo://app?vid=fc042615-9fa4-488f-b400-bf98258e9dba","ios":"levelo://app?vid=fc042615-9fa4-488f-b400-bf98258e9dba"},"vehicle_type_id":"4","last_reported":1705694871,"current_range_meters":9200,"station_id":"ce4bh692rcd13ifvqea0","pricing_plan_id":"free"},{"bike_id":"1192f32d-f48a-4c23-a7fa-1074b3e8cd16","system_id":"levelo_inurba_marseille","lat":43.292644,"lon":5.384257,"is_reserved":false,"is_disabled":false,"rental_uris":{"android":"levelo://app?vid=1192f32d-f48a-4c23-a7fa-1074b3e8cd16","ios":"levelo://app?vid=1192f32d-f48a-4c23-a7fa-1074b3e8cd16"},"vehicle_type_id":"4","last_reported":1705694871,"current_range_meters":2400,"station_id":"ce4bh692rcd13ifvqea0","pricing_plan_id":"free"},{"bike_id":"286f481f-e0bb-483f-bcb0-747f21f4a980","system_id":"levelo_inurba_marseille","lat":43.292644,"lon":5.384257,"is_reserved":false,"is_disabled":false,"rental_uris":{"android":"levelo://app?vid=286f481f-e0bb-483f-bcb0-747f21f4a980","ios":"levelo://app?vid=286f481f-e0bb-483f-bcb0-747f21f4a980"},"vehicle_type_id":"4","last_reported":1705694871,"current_range_meters":30000,"station_id":"ce4bh692rcd13ifvqea0","pricing_plan_id":"free"},{"bike_id":"f429d9c9-32c4-422e-9b92-238004f9ff4f","system_id":"levelo_inurba_marseille","lat":43.292621,"lon":5.384328,"is_reserved":false,"is_disabled":false,"rental_uris":{"android":"levelo://app?vid=f429d9c9-32c4-422e-9b92-238004f9ff4f","ios":"levelo://app?vid=f429d9c9-32c4-422e-9b92-238004f9ff4f"},"vehicle_type_id":"4","last_reported":1705694871,"current_range_meters":12000,"station_id":"ce4bh692rcd13ifvqea0","pricing_plan_id":"free"},{"bike_id":"a1d1e1ce-e6d2-431a-8f2a-4ac4c332b009","system_id":"levelo_inurba_marseille","lat":43.292644,"lon":5.384257,"is_reserved":false,"is_disabled":false,"rental_uris":{"android":"levelo://app?vid=a1d1e1ce-e6d2-431a-8f2a-4ac4c332b009","ios":"levelo://app?vid=a1d1e1ce-e6d2-431a-8f2a-4ac4c332b009"},"vehicle_type_id":"4","last_reported":1705694871,"current_range_meters":16400,"station_id":"ce4bh692rcd13ifvqea0","pricing_plan_id":"free"},{"bike_id":"6b1327ac-2a1f-49e5-ae58-3155e79a4d27","system_id":"levelo_inurba_marseille","lat":43.292644,"lon":5.384257,"is_reserved":false,"is_disabled":false,"rental_uris":{"android":"levelo://app?vid=6b1327ac-2a1f-49e5-ae58-3155e79a4d27","ios":"levelo://app?vid=6b1327ac-2a1f-49e5-ae58-3155e79a4d27"},"vehicle_type_id":"4","last_reported":1705694871,"current_range_meters":13200,"station_id":"ce4bh692rcd13ifvqea0","pricing_plan_id":"free"},{"bike_id":"9dfa0926-b59d-4902-a3a8-9823e0c5ed46","system_id":"levelo_inurba_marseille","lat":43.292644,"lon":5.384257,"is_reserved":false,"is_disabled":false,"rental_uris":{"android":"levelo://app?vid=9dfa0926-b59d-4902-a3a8-9823e0c5ed46","ios":"levelo://app?vid=9dfa0926-b59d-4902-a3a8-9823e0c5ed46"},"vehicle_type_id":"4","last_reported":1705694871,"current_range_meters":24000,"station_id":"ce4bh692rcd13ifvqea0","pricing_plan_id":"free"},{"bike_id":"0c9f6953-b207-4c64-ba1c-2359280ac972","system_id":"levelo_inurba_marseille","lat":43.292644,"lon":5.384257,"is_reserved":false,"is_disabled":false,"rental_uris":{"android":"levelo://app?vid=0c9f6953-b207-4c64-ba1c-2359280ac972","ios":"levelo://app?vid=0c9f6953-b207-4c64-ba1c-2359280ac972"},"vehicle_type_id":"4","last_reported":1705694871,"current_range_meters":28400,"station_id":"ce4bh692rcd13ifvqea0","pricing_plan_id":"free"},{"bike_id":"43afcc09-fee0-4c71-8044-b6206f7c6bf6","system_id":"levelo_inurba_marseille","lat":43.292644,"lon":5.384257,"is_reserved":false,"is_disabled":false,"rental_uris":{"android":"levelo://app?vid=43afcc09-fee0-4c71-8044-b6206f7c6bf6","ios":"levelo://app?vid=43afcc09-fee0-4c71-8044-b6206f7c6bf6"},"vehicle_type_id":"4","last_reported":1705694871,"current_range_meters":13200,"station_id":"ce4bh692rcd13ifvqea0","pricing_plan_id":"free"},{"bike_id":"7bbfef98-eaa4-4e51-8a16-30051434f7cd","system_id":"levelo_inurba_marseille","lat":43.292641,"lon":5.384408,"is_reserved":false,"is_disabled":false,"rental_uris":{"android":"levelo://app?vid=7bbfef98-eaa4-4e51-8a16-30051434f7cd","ios":"levelo://app?vid=7bbfef98-eaa4-4e51-8a16-30051434f7cd"},"vehicle_type_id":"4","last_reported":1705694871,"current_range_meters":18800,"station_id":"ce4bh692rcd13ifvqea0","pricing_plan_id":"free"},