{"last_updated":1726481421,"ttl":30,"version":"2.2","data":{"bikes":[{"bike_id":"d66dddba-8df1-4f06-bb27-e2c9c7bd447e","system_id":"levelo_inurba_marseille","lat":43.30454,"lon":5.37901,"is_reserved":false,"is_disabled":false,"rental_uris":{"android":"levelo://app?vid=d66dddba-8df1-4f06-bb27-e2c9c7bd447e","ios":"levelo://app?vid=d66dddba-8df1-4f06-bb27-e2c9c7bd447e"},"vehicle_type_id":"4","last_reported":1726481421,"current_range_meters":38800,"station_id":"ce4bgup2rcd13ifvqcn0","pricing_plan_id":"cebpf4jnsgd1na2vs0mg"},{"bike_id":"2251ec2c-c99e-4854-ae0e-c7ddfba2f82e","system_id":"levelo_inurba_marseille","lat":43.31099,"lon":5.42448,"is_reserved":false,"is_disabled":false,"rental_uris":{"android":"levelo://app?vid=2251ec2c-c99e-4854-ae0e-c7ddfba2f82e","ios":"levelo://app?vid=2251ec2c-c99e-4854-ae0e-c7ddfba2f82e"},"vehicle_type_id":"4","last_reported":1726481421,"current_range_meters":27600,"station_id":"ce4bhp92rcd13ifvqhag","pricing_plan_id":"cebpf4jnsgd1na2vs0mg"},{"bike_id":"13fbdcc2-5d8c-4af4-8cd3-27b778bab98c","system_id":"levelo_inurba_marseille","lat":43.28265,"lon":5.35083,"is_reserved":false,"is_disabled":false,"rental_uris":{"android":"levelo://app?vid=13fbdcc2-5d8c-4af4-8cd3-27b778bab98c","ios":"levelo://app?vid=13fbdcc2-5d8c-4af4-8cd3-27b778bab98c"},"vehicle_type_id":"4","last_reported":1726481421,"current_range_meters":38800,"station_id":"ce4bhbp2rcd13ifvqerg","pricing_plan_id":"cebpf4jnsgd1na2vs0mg"},{"bike_id":"ccb4e967-1076-49fe-b7cc-dc31f4db84c3","system_id":"levelo_inurba_marseille","lat":43.28592,"lon":5.37069,"is_reserved":false,"is_disabled":false,"rental_uris":{"android":"levelo://app?vid=ccb4e967-1076-49fe-b7cc-dc31f4db84c3","ios":"levelo://app?vid=ccb4e967-1076-49fe-b7cc-dc31f4db84c3"},"vehicle_type_id":"4","last_reported":1726481421,"current_range_meters":38000,"station_id":"ce4bht12rcd13ifvqi60","pricing_plan_id":"cebpf4jnsgd1na2vs0mg"},{"bike_id":"23a85296-0e05-465d-8c60-2533b332185a","system_id":"levelo_inurba_marseille","lat":43.28722,"lon":5.37933,"is_reserved":false,"is_disabled":false,"rental_uris":{"android":"levelo://app?vid=23a85296-0e05-465d-8c60-2533b332185a","ios":"levelo://app?vid=23a85296-0e05-465d-8c60-2533b332185a"},"vehicle_type_id":"4","last_reported":1726481421,"current_range_meters":38800,"station_id":"","pricing_plan_id":"cebpf4jnsgd1na2vs0mg"},{"bike_id":"2595b909-de2e-47ed-84ff-5d929ae3436b","system_id":"levelo_inurba_marseille","lat":43.29964,"lon":5.41319,"is_reserved":false,"is_disabled":false,"rental_uris":{"android":"levelo://app?vid=2595b909-de2e-47ed-84ff-5d929ae3436b","ios":"levelo://app?vid=2595b909-de2e-47ed-84ff-5d929ae3436b"},"vehicle_type_id":"4","last_reported":1726481421,"current_range_meters":22800,"station_id":"ce4bhp12rcd13ifvqh9g","pricing_plan_id":"cebpf4jnsgd1na2vs0mg"},{"bike_id":"8661cdbd-539b-4736-96ae-3b29c9f34a0b","system_id":"levelo_inurba_marseille","lat":43.24075,"lon":5.37753,"is_reserved":false,"is_disabled":false,"rental_uris":{"android":"levelo://app?vid=8661cdbd-539b-4736-96ae-3b29c9f34a0b","ios":"levelo://app?vid=8661cdbd-539b-4736-96ae-3b29c9f34a0b"},"vehicle_type_id":"4","last_reported":1726481421,"current_range_meters":3600,"station_id":"ce4bhnp2rcd13ifvqgvg","pricing_plan_id":"cebpf4jnsgd1na2vs0mg"},{"bike_id":"71f56d44-d481-482a-96e4-034b1835e410","system_id":"levelo_inurba_marseille","lat":43.29255,"lon":5.36866,"is_reserved":false,"is_disabled":false,"rental_uris":{"android":"levelo://app?vid=71f56d44-d481-482a-96e4-034b1835e410","ios":"levelo://app?vid=71f56d44-d481-482a-96e4-034b1835e410"},"vehicle_type_id":"4","last_reported":1726481421,"current_range_meters":30400,"station_id":"ce4bhbp2rcd13ifvqesg","pricing_plan_id":"cebpf4jnsgd1na2vs0mg"},{"bike_id":"b23cf016-0a0a-4065-8116-ed6e4853597f","system_id":"levelo_inurba_marseille","lat":43.22934,"lon":5.35378,"is_reserved":false,"is_disabled":false,"rental_uris":{"android":"levelo://app?vid=b23cf016-0a0a-4065-8116-ed6e4853597f","ios":"levelo://app?vid=b23cf016-0a0a-4065-8116-ed6e4853597f"},"vehicle_type_id":"4","last_reported":1726481421,"current_range_meters":34000,"station_id":"cpo3532slgdg3j2ikp40","pricing_plan_id":"cebpf4jnsgd1na2vs0mg"},{"bike_id":"399d5ca3-f4a1-4813-bcb2-424bd1414aa0","system_id":"levelo_inurba_marseille","lat":43.24078,"lon":5.37757,"is_reserved":false,"is_disabled":false,"rental_uris":{"android":"levelo://app?vid=399d5ca3-f4a1-4813-bcb2-424bd1414aa0","ios":"levelo://app?vid=399d5ca3-f4a1-4813-bcb2-424bd1414aa0"},"vehicle_type_id":"4","last_reported":1726481421,"current_range_meters":16400,"station_id":"ce4bhnp2rcd13ifvqgvg","pricing_plan_id":"cebpf4jnsgd1na2vs0mg"},{"bike_id":"13ec4916-f0ea-4897-8afc-596425b42c42","system_id":"levelo_inurba_marseille","lat":43.23194,"lon":5.35559,"is_reserved":false,"is_disabled":false,"rental_uris":{"android":"levelo://app?vid=13ec4916-f0ea-4897-8afc-596425b42c42","ios":"levelo://app?vid=13ec4916-f0ea-4897-8afc-596425b42c42"},"vehicle_type_id":"4","last_reported":1726481421,"current_range_meters":16400,"station_id":"ce4bhu92rcd13ifvqi70","pricing_plan_id":"cebpf4jnsgd1na2vs0mg"},{"bike_id":"e8549387-9deb-4f66-b733-a7cdaa0db866","system_id":"levelo_inurba_marseille","lat":43.33023,"lon":5.39037,"is_reserved":false,"is_disabled":false,"rental_uris":{"android":"levelo://app?vid=e8549387-9deb-4f66-b733-a7cdaa0db866","ios":"levelo://app?vid=e8549387-9deb-4f66-b733-a7cdaa0db866"},"vehicle_type_id":"4","last_reported":1726481421,"current_range_meters":10800,"station_id":"ce4bhr92rcd13ifvqhrg","pricing_plan_id":"cebpf4jnsgd1na2vs0mg"},{"bike_id":"8603e187-f5e8-4e43-9383-dd9a61b59109","system_id":"levelo_inurba_marseille","lat":43.33024,"lon":5.39036,"is_reserved":false,"is_disabled":false,"rental_uris":{"android":"levelo://app?vid=8603e187-f5e8-4e43-9383-dd9a61b59109","ios":"levelo://app?vid=8603e187-f5e8-4e43-9383-dd9a61b59109"},"vehicle_type_id":"4","last_reported":1726481421,"current_range_meters":6800,"station_id":"ce4bhr92rcd13ifvqhrg","pricing_plan_id":"cebpf4jnsgd1na2vs0mg"},{"bike_id":"bf881f84-1ceb-4933-928f-0e749e329d22","system_id":"levelo_inurba_marseille","lat":43.24084,"lon":5.37744,"is_reserved":false,"is_disabled":false,"rental_uris":{"android":"levelo://app?vid=bf881f84-1ceb-4933-928f-0e749e329d22","ios":"levelo://app?vid=bf881f84-1ceb-4933-928f-0e749e329d22"},"vehicle_type_id":"4","last_reported":1726481421,"current_range_meters":27600,"station_id":"ce4bhnp2rcd13ifvqgvg","pricing_plan_id":"cebpf4jnsgd1na2vs0mg"},{"bike_id":"6f0bf2df-43f1-4437-8ed1-d3ce8cf37956","system_id":"levelo_inurba_marseille","lat":43.30134,"lon":5.38785,"is_reserved":false,"is_disabled":false,"rental_uris":{"android":"levelo://app?vid=6f0bf2df-43f1-4437-8ed1-d3ce8cf37956","ios":"levelo://app?vid=6f0bf2df-43f1-4437-8ed1-d3ce8cf37956"},"vehicle_type_id":"4","last_reported":1726481421,"current_range_meters":19600,"station_id":"ce4bghh2rcd13ifvqb60","pricing_plan_id":"cebpf4jnsgd1na2vs0mg"},{"bike_id":"974bfb17-6e55-4af3-b144-8511448dfdc0","system_id":"levelo_inurba_marseille","lat":43.29914,"lon":5.3747,"is_reserved":false,"is_disabled":false,"rental_uris":{"android":"levelo://app?vid=974bfb17-6e55-4af3-b144-8511448dfdc0","ios":"levelo://app?vid=974bfb17-6e55-4af3-b144-8511448dfdc0"},"vehicle_type_id":"4","last_reported":1726481421,"current_range_meters":22800,"station_id":"ce4bgjh2rcd13ifvqbg0","pricing_plan_id":"cebpf4jnsgd1na2vs0mg"},{"bike_id":"57b87d5c-c819-4ef6-97b0-dab8fd8c8e55","system_id":"levelo_inurba_marseille","lat":43.24083,"lon":5.37746,"is_reserved":false,"is_disabled":false,"rental_uris":{"android":"levelo://app?vid=57b87d5c-c819-4ef6-97b0-dab8fd8c8e55","ios":"levelo://app?vid=57b87d5c-c819-4ef6-97b0-dab8fd8c8e55"},"vehicle_type_id":"4","last_reported":1726481421,"current_range_meters":36800,"station_id":"ce4bhnp2rcd13ifvqgvg","pricing_plan_id":"cebpf4jnsgd1na2vs0mg"},{"bike_id":"5b811a2a-b96a-4df6-a464-81697083e4d1","system_id":"levelo_inurba_marseille","lat":43.23182,"lon":5.39987,"is_reserved":false,"is_disabled":false,"rental_uris":{"android":"levelo://app?vid=5b811a2a-b96a-4df6-a464-81697083e4d1","ios":"levelo://app?vid=5b811a2a-b96a-4df6-a464-81697083e4d1"},"vehicle_type_id":"4","last_reported":1726481421,"current_range_meters":26800,"station_id":"ce4bhn12rcd13ifvqgqg","pricing_plan_id":"cebpf4jnsgd1na2vs0mg"},{"bike_id":"831dd52a-7adf-48a5-ba37-8bb767d9bc38","system_id":"levelo_inurba_marseille","lat":43.27487,"lon":5.42462,"is_reserved":false,"is_disabled":false,"rental_uris":{"android":"levelo://app?vid=831dd52a-7adf-48a5-ba37-8bb767d9bc38","ios":"levelo://app?vid=831dd52a-7adf-48a5-ba37-8bb767d9bc38"},"vehicle_type_id":"4","last_reported":1726481421,"current_range_meters":36800,"station_id":"ce4bhn92rcd13ifvqgrg","pricing_plan_id":"cebpf4jnsgd1na2vs0mg"},{"bike_id":"74c67d55-8a5f-40c9-8066-d68354718f8c","system_id":"levelo_inurba_marseille","lat":43.23192,"lon":5.35558,"is_reserved":false,"is_disabled":false,"rental_uris":{"android":"levelo://app?vid=74c67d55-8a5f-40c9-8066-d68354718f8c","ios":"levelo://app?vid=74c67d55-8a5f-40c9-8066-d68354718f8c"},"vehicle_type_id":"4","last_reported":1726481421,"current_range_meters":14000,"station_id":"ce4bhu92rcd13ifvqi70","pricing_plan_id":"cebpf4jnsgd1na2vs0mg"},{"bike_id":"0d19e29a-922f-4a59-bf8a-cec425c1793d","system_id":"levelo_inurba_marseille","lat":43.30882,"lon":5.37195,"is_reserved":false,"is_disabled":false,"rental_uris":{"android":"levelo://app?vid=0d19e29a-922f-4a59-bf8a-cec425c1793d","ios":"levelo://app?vid=0d19e29a-922f-4a59-bf8a-cec425c1793d"},"vehicle_type_id":"4","last_reported":1726481421,"current_range_meters":32400,"station_id":"ce4bguh2rcd13ifvqckg","pricing_plan_id":"cebpf4jnsgd1na2vs0mg"},{"bike_id":"347c4d00-be62-486d-946b-513151545bf3","system_id":"levelo_inurba_marseille","lat":43.24082,"lon":5.37754,"is_reserved":false,"is_disabled":false,"rental_uris":{"android":"levelo://app?vid=347c4d00-be62-486d-946b-513151545bf3","ios":"levelo://app?vid=347c4d00-be62-486d-946b-513151545bf3"},"vehicle_type_id":"4","last_reported":1726481421,"current_range_meters":23200,"station_id":"ce4bhnp2rcd13ifvqgvg","pricing_plan_id":"cebpf4jnsgd1na2vs0mg"},{"bike_id":"212c501b-a753-4c1a-ba0c-b560582af171","system_id":"levelo_inurba_marseille","lat":43.29564,"lon":5.42277,"is_reserved":false,"is_disabled":false,"rental_uris":{"android":"levelo://app?vid=212c501b-a753-4c1a-ba0c-b560582af171","ios":"levelo://app?vid=212c501b-a753-4c1a-ba0c-b560582af171"},"vehicle_type_id":"4","last_reported":1726481421,"current_range_meters":38000,"station_id":"ce4bhph2rcd13ifvqhdg","pricing_plan_id":"cebpf4jnsgd1na2vs0mg"},{"bike_id":"7cfcff24-fc87-4f86-a01a-fcaf09b6b441","system_id":"levelo_inurba_marseille","lat":43.25495,"lon":5.37656,"is_reserved":false,"is_disabled":false,"rental_uris":{"android":"levelo://app?vid=7cfcff24-fc87-4f86-a01a-fcaf09b6b441","ios":"levelo://app?vid=7cfcff24-fc87-4f86-a01a-fcaf09b6b441"},"vehicle_type_id":"4","last_reported":1726481421,"current_range_meters":36000,"station_id":"ce4bhh12rcd13ifvqff0","pricing_plan_id":"cebpf4jnsgd1na2vs0mg"},{"bike_id":"3976eae9-3483-4309-aa46-8caeee84ae41","system_id":"levelo_inurba_marseille","lat":43.29731,"lon":5.3768,"is_reserved":false,"is_disabled":false,"rental_uris":{"android":"levelo://app?vid=3976eae9-3483-4309-aa46-8caeee84ae41","ios":"levelo://app?vid=3976eae9-3483-4309-aa46-8caeee84ae41"},"vehicle_type_id":"4","last_reported":1726481421,"current_range_meters":28400,"station_id":"ce4bgkh2rcd13ifvqbl0","pricing_plan_id":"cebpf4jnsgd1na2vs0mg"},{"bike_id":"de926bf7-1295-43c0-8367-941524b67039","system_id":"levelo_inurba_marseille","lat":43.24077,"lon":5.37755,"is_reserved":false,"is_disabled":false,"rental_uris":{"android":"levelo://app?vid=de926bf7-1295-43c0-8367-941524b67039","ios":"levelo://app?vid=de926bf7-1295-43c0-8367-941524b67039"},"vehicle_type_id":"4","last_reported":1726481421,"current_range_meters":4800,"station_id":"ce4bhnp2rcd13ifvqgvg","pricing_plan_id":"cebpf4jnsgd1na2vs0mg"},{"bike_id":"dec9d68b-1c62-4922-a175-615d1cc04bdc","system_id":"levelo_inurba_marseille","lat":43.27965,"lon":5.38732,"is_reserved":false,"is_disabled":false,"rental_uris":{"android":"levelo://app?vid=dec9d68b-1c62-4922-a175-615d1cc04bdc","ios":"levelo://app?vid=dec9d68b-1c62-4922-a175-615d1cc04bdc"},"vehicle_type_id":"4","last_reported":1726481421,"current_range_meters":24800,"station_id":"ce4bhg12rcd13ifvqf80","pricing_plan_id":"cebpf4jnsgd1na2vs0mg"},{"bike_id":"04a85f8a-d16c-4434-9c95-3f37f8f798e9","system_id":"levelo_inurba_marseille","lat":43.30154,"lon":5.38081,"is_reserved":false,"is_disabled":false,"rental_uris":{"android":"levelo://app?vid=04a85f8a-d16c-4434-9c95-3f37f8f798e9","ios":"levelo://app?vid=04a85f8a-d16c-4434-9c95-3f37f8f798e9"},"vehicle_type_id":"4","last_reported":1726481421,"current_range_meters":38800,"station_id":"ce4bgjp2rcd13ifvqbh0","pricing_plan_id":"cebpf4jnsgd1na2vs0mg"},{"bike_id":"a067dd84-3c5b-44cc-a72e-8a430a9405c5","system_id":"levelo_inurba_marseille","lat":43.28573,"lon":5.39505,"is_reserved":false,"is_disabled":false,"rental_uris":{"android":"levelo://app?vid=a067dd84-3c5b-44cc-a72e-8a430a9405c5","ios":"levelo://app?vid=a067dd84-3c5b-44cc-a72e-8a430a9405c5"},"vehicle_type_id":"4","last_reported":1726481421,"current_range_meters":38400,"station_id":"ce4bh292rcd13ifvqdg0","pricing_plan_id":"cebpf4jnsgd1na2vs0mg"},{"bike_id":"cd225d70-6caa-40f5-b0a6-233eb91ea039","system_id":"levelo_inurba_marseille","lat":43.34094,"lon":5.39106,"is_reserved":false,"is_disabled":false,"rental_uris":{"android":"levelo://app?vid=cd225d70-6caa-40f5-b0a6-233eb91ea039","ios":"levelo://app?vid=cd225d70-6caa-40f5-b0a6-233eb91ea039"},"vehicle_type_id":"4","last_reported":1726481421,"current_range_meters":34800,"station_id":"","pricing_plan_id":"cebpf4jnsgd1na2vs0mg"},{"bike_id":"0aa75f12-c942-44d1-92b7-0b3badf3bf13","system_id":"levelo_inurba_marseille","lat":43.27494,"lon":5.42457,"is_reserved":false,"is_disabled":false,"rental_uris":{"android":"levelo://app?vid=0aa75f12-c942-44d1-92b7-0b3badf3bf13","ios":"levelo://app?vid=0aa75f12-c942-44d1-92b7-0b3badf3bf13"},"vehicle_type_id":"4","last_reported":1726481421,"current_range_meters":30400,"station_id":"ce4bhn92rcd13ifvqgrg","pricing_plan_id":"cebpf4jnsgd1na2vs0mg"},{"bike_id":"e75bdf37-6017-4dd9-8183-f2edc970ca06","system_id":"levelo_inurba_marseille","lat":43.23191,"lon":5.35557,"is_reserved":false,"is_disabled":false,"rental_uris":{"android":"levelo://app?vid=e75bdf37-6017-4dd9-8183-f2edc970ca06","ios":"levelo://app?vid=e75bdf37-6017-4dd9-8183-f2edc970ca06"},"vehicle_type_id":"4","last_reported":1726481421,"current_range_meters":36400,"station_id":"ce4bhu92rcd13ifvqi70","pricing_plan_id":"cebpf4jnsgd1na2vs0mg"},{"bike_id":"b8ae096d-0625-4a15-b0d0-1e55adea2f10","system_id":"levelo_inurba_marseille","lat":43.30914,"lon":5.3686,"is_reserved":false,"is_disabled":false,"rental_uris":{"android":"levelo://app?vid=b8ae096d-0625-4a15-b0d0-1e55adea2f10","ios":"levelo://app?vid=b8ae096d-0625-4a15-b0d0-1e55adea2f10"},"vehicle_type_id":"4","last_reported":1726481421,"current_range_meters":26800,"station_id":"ce4bgn92rcd13ifvqbvg","pricing_plan_id":"cebpf4jnsgd1na2vs0mg"},{"bike_id":"211a5ba8-e8d8-48ec-916f-61a67c93d5ab","system_id":"levelo_inurba_marseille","lat":43.294649,"lon":5.379552,"is_reserved":false,"is_disabled":false,"rental_uris":{"android":"levelo://app?vid=211a5ba8-e8d8-48ec-916f-61a67c93d5ab","ios":"levelo://app?vid=211a5ba8-e8d8-48ec-916f-61a67c93d5ab"},"vehicle_type_id":"4","last_reported":1726481421,"current_range_meters":36000,"station_id":"ce4bgph2rcd13ifvqc2g","pricing_plan_id":"cebpf4jnsgd1na2vs0mg"},{"bike_id":"7529d81c-85d4-4dc4-a599-2e92b6aaebae","system_id":"levelo_inurba_marseille","lat":43.28936,"lon":5.36384,"is_reserved":false,"is_disabled":false,"rental_uris":{"android":"levelo://app?vid=7529d81c-85d4-4dc4-a599-2e92b6aaebae","ios":"levelo://app?vid=7529d81c-85d4-4dc4-a599-2e92b6aaebae"},"vehicle_type_id":"4","last_reported":1726481421,"current_range_meters":39200,"station_id":"ce4bhc92rcd13ifvqetg","pricing_plan_id":"cebpf4jnsgd1na2vs0mg"},{"bike_id":"a8a735ce-be26-4217-a37b-0688c546f0b4","system_id":"levelo_inurba_marseille","lat":43.31325,"lon":5.39695,"is_reserved":false,"is_disabled":false,"rental_uris":{"android":"levelo://app?vid=a8a735ce-be26-4217-a37b-0688c546f0b4","ios":"levelo://app?vid=a8a735ce-be26-4217-a37b-0688c546f0b4"},"vehicle_type_id":"4","last_reported":1726481421,"current_range_meters":19600,"station_id":"ce4bgvp2rcd13ifvqcu0","pricing_plan_id":"cebpf4jnsgd1na2vs0mg"},{"bike_id":"9227312c-2ca1-475c-871e-d0a98248cbb8","system_id":"levelo_inurba_marseille","lat":43.26686,"lon":5.38276,"is_reserved":false,"is_disabled":false,"rental_uris":{"android":"levelo://app?vid=9227312c-2ca1-475c-871e-d0a98248cbb8","ios":"levelo://app?vid=9227312c-2ca1-475c-871e-d0a98248cbb8"},"vehicle_type_id":"4","last_reported":1726481421,"current_range_meters":2000,"station_id":"ce4bhg92rcd13ifvqf90","pricing_plan_id":"cebpf4jnsgd1na2vs0mg"},{"bike_id":"a4ddd5ca-eff8-48e2-8f5f-149479321482","system_id":"levelo_inurba_marseille","lat":43.29975,"lon":5.38501,"is_reserved":false,"is_disabled":false,"rental_uris":{"android":"levelo://app?vid=a4ddd5ca-eff8-48e2-8f5f-149479321482","ios":"levelo://app?vid=a4ddd5ca-eff8-48e2-8f5f-149479321482"},"vehicle_type_id":"4","last_reported":1726481421,"current_range_meters":6000,"station_id":"ce4bgj92rcd13ifvqbd0","pricing_plan_id":"cebpf4jnsgd1na2vs0mg"},{"bike_id":"89fc692e-d80f-4316-8959-5ac50a6a4d07","system_id":"levelo_inurba_marseille","lat":43.26948,"lon":5.40248,"is_reserved":false,"is_disabled":false,"rental_uris":{"android":"levelo://app?vid=89fc692e-d80f-4316-8959-5ac50a6a4d07","ios":"levelo://app?vid=89fc692e-d80f-4316-8959-5ac50a6a4d07"},"vehicle_type_id":"4","last_reported":1726481421,"current_range_meters":33200,"station_id":"cjm6bp8fraef2m0cb0m0","pricing_plan_id":"cebpf4jnsgd1na2vs0mg"},{"bike_id":"a970878b-a2ab-4c93-8b12-4dc79dfb3dda","system_id":"levelo_inurba_marseille","lat":43.296173,"lon":5.371701,"is_reserved":false,"is_disabled":false,"rental_uris":{"android":"levelo://app?vid=a970878b-a2ab-4c93-8b12-4dc79dfb3dda","ios":"levelo://app?vid=a970878b-a2ab-4c93-8b12-4dc79dfb3dda"},"vehicle_type_id":"4","last_reported":1726481421,"current_range_meters":4000,"station_id":"ce4bgnh2rcd13ifvqc0g","pricing_plan_id":"cebpf4jnsgd1na2vs0mg"},{"bike_id":"3b7172c5-1ed3-4a2e-84bc-ff50641c119e","system_id":"levelo_inurba_marseille","lat":43.30142,"lon":5.37408,"is_reserved":false,"is_disabled":false,"rental_uris":{"android":"levelo://app?vid=3b7172c5-1ed3-4a2e-84bc-ff50641c119e","ios":"levelo://app?vid=3b7172c5-1ed3-4a2e-84bc-ff50641c119e"},"vehicle_type_id":"4","last_reported":1726481421,"current_range_meters":38800,"station_id":"ce4bgs92rcd13ifvqcc0","pricing_plan_id":"cebpf4jnsgd1na2vs0mg"},{"bike_id":"45e684ad-b81b-48c3-b25a-d1d6fa50f78d","system_id":"levelo_inurba_marseille","lat":43.26684,"lon":5.38266,"is_reserved":false,"is_disabled":false,"rental_uris":{"android":"levelo://app?vid=45e684ad-b81b-48c3-b25a-d1d6fa50f78d","ios":"levelo://app?vid=45e684ad-b81b-48c3-b25a-d1d6fa50f78d"},"vehicle_type_id":"4","last_reported":1726481421,"current_range_meters":38400,"station_id":"ce4bhg92rcd13ifvqf90","pricing_plan_id":"cebpf4jnsgd1na2vs0mg"},{"bike_id":"0b36d025-1718-42ea-b0c9-8863e52d2e36","system_id":"levelo_inurba_marseille","lat":43.267834,"lon":5.394186,"is_reserved":false,"is_disabled":false,"rental_uris":{"android":"levelo://app?vid=0b36d025-1718-42ea-b0c9-8863e52d2e36","ios":"levelo://app?vid=0b36d025-1718-42ea-b0c9-8863e52d2e36"},"vehicle_type_id":"4","last_reported":1726481421,"current_range_meters":37600,"station_id":"ce4bhh12rcd13ifvqfg0","pricing_plan_id":"cebpf4jnsgd1na2vs0mg"},{"bike_id":"f6de159d-4c6c-4425-84f5-9282f9227f7c","system_id":"levelo_inurba_marseille","lat":43.33756,"lon":5.37441,"is_reserved":false,"is_disabled":false,"rental_uris":{"android":"levelo://app?vid=f6de159d-4c6c-4425-84f5-9282f9227f7c","ios":"levelo://app?vid=f6de159d-4c6c-4425-84f5-9282f9227f7c"},"vehicle_type_id":"4","last_reported":1726481421,"current_range_meters":38000,"station_id":"","pricing_plan_id":"cebpf4jnsgd1na2vs0mg"},{"bike_id":"49129f1f-9df4-4b7f-8ad6-3a5ef7fef011","system_id":"levelo_inurba_marseille","lat":43.28727,"lon":5.37938,"is_reserved":false,"is_disabled":false,"rental_uris":{"android":"levelo://app?vid=49129f1f-9df4-4b7f-8ad6-3a5ef7fef011","ios":"levelo://app?vid=49129f1f-9df4-4b7f-8ad6-3a5ef7fef011"},"vehicle_type_id":"4","last_reported":1726481421,"current_range_meters":19200,"station_id":"ce4bh9p2rcd13ifvqec0","pricing_plan_id":"cebpf4jnsgd1na2vs0mg"},{"bike_id":"b9698a86-1ec3-4eed-ac6f-4fc5121a02f0","system_id":"levelo_inurba_marseille","lat":43.30549,"lon":5.3671,"is_reserved":false,"is_disabled":false,"rental_uris":{"android":"levelo://app?vid=b9698a86-1ec3-4eed-ac6f-4fc5121a02f0","ios":"levelo://app?vid=b9698a86-1ec3-4eed-ac6f-4fc5121a02f0"},"vehicle_type_id":"4","last_reported":1726481421,"current_range_meters":38800,"station_id":"ce4bgrp2rcd13ifvqc9g","pricing_plan_id":"cebpf4jnsgd1na2vs0mg"},{"bike_id":"f79ff168-7c1f-43a6-9a48-819ae1e3b151","system_id":"levelo_inurba_marseille","lat":43.24076,"lon":5.3775,"is_reserved":false,"is_disabled":false,"rental_uris":{"android":"levelo://app?vid=f79ff168-7c1f-43a6-9a48-819ae1e3b151","ios":"levelo://app?vid=f79ff168-7c1f-43a6-9a48-819ae1e3b151"},"vehicle_type_id":"4","last_reported":1726481421,"current_range_meters":8400,"station_id":"ce4bhnp2rcd13ifvqgvg","pricing_plan_id":"cebpf4jnsgd1na2vs0mg"},{"bike_id":"2e3fa3c1-55aa-4e86-bd3e-7bdc4a6b47ac","system_id":"levelo_inurba_marseille","lat":43.27499,"lon":5.42458,"is_reserved":false,"is_disabled":false,"rental_uris":{"android":"levelo://app?vid=2e3fa3c1-55aa-4e86-bd3e-7bdc4a6b47ac","ios":"levelo://app?vid=2e3fa3c1-55aa-4e86-bd3e-7bdc4a6b47ac"},"vehicle_type_id":"4","last_reported":1726481421,"current_range_meters":33600,"station_id":"ce4bhn92rcd13ifvqgrg","pricing_plan_id":"cebpf4jnsgd1na2vs0mg"},{"bike_id":"39ddfbb6-34ba-4be2-8bcb-c9927982bc7e","system_id":"levelo_inurba_marseille","lat":43.2797,"lon":5.3873,"is_reserved":false,"is_disabled":false,"rental_uris":{"android":"levelo://app?vid=39ddfbb6-34ba-4be2-8bcb-c9927982bc7e","ios":"levelo://app?vid=39ddfbb6-34ba-4be2-8bcb-c9927982bc7e"},"vehicle_type_id":"4","last_reported":1726481421,"current_range_meters":38000,"station_id":"ce4bhg12rcd13ifvqf80","pricing_plan_id":"cebpf4jnsgd1na2vs0mg"},{"bike_id":"a7649358-7b1e-4e20-b463-599f4ff8067d","system_id":"levelo_inurba_marseille","lat":43.25005,"lon":5.38927,"is_reserved":false,"is_disabled":false,"rental_uris":{"android":"levelo://app?vid=a7649358-7b1e-4e20-b463-599f4ff8067d","ios":"levelo://app?vid=a7649358-7b1e-4e20-b463-599f4ff8067d"},"vehicle_type_id":"4","last_reported":1726481421,"current_range_meters":35200,"station_id":"ce4bhgp2rcd13ifvqfd0","pricing_plan_id":"cebpf4jnsgd1na2vs0mg"},{"bike_id":"e5f00a14-dff4-44a8-93db-b62a037fe306","system_id":"levelo_inurba_marseille","lat":43.30542,"lon":5.36723,"is_reserved":false,"is_disabled":false,"rental_uris":{"android":"levelo://app?vid=e5f00a14-dff4-44a8-93db-b62a037fe306","ios":"levelo://app?vid=e5f00a14-dff4-44a8-93db-b62a037fe306"},"vehicle_type_id":"4","last_reported":1726481421,"current_range_meters":26000,"station_id":"ce4bgrp2rcd13ifvqc9g","pricing_plan_id":"cebpf4jnsgd1na2vs0mg"},{"bike_id":"6f64a6ad-041b-44ae-950f-572d0ab36dad","system_id":"levelo_inurba_marseille","lat":43.23966,"lon":5.36631,"is_reserved":false,"is_disabled":false,"rental_uris":{"android":"levelo://app?vid=6f64a6ad-041b-44ae-950f-572d0ab36dad","ios":"levelo://app?vid=6f64a6ad-041b-44ae-950f-572d0ab36dad"},"vehicle_type_id":"4","last_reported":1726481421,"current_range_meters":18000,"station_id":"ce4bhi12rcd13ifvqfp0","pricing_plan_id":"cebpf4jnsgd1na2vs0mg"},{"bike_id":"9bc64dcb-de81-40e6-a29b-9269116d9d31","system_id":"levelo_inurba_marseille","lat":43.25827,"lon":5.39431,"is_reserved":false,"is_disabled":false,"rental_uris":{"android":"levelo://app?vid=9bc64dcb-de81-40e6-a29b-9269116d9d31","ios":"levelo://app?vid=9bc64dcb-de81-40e6-a29b-9269116d9d31"},"vehicle_type_id":"4","last_reported":1726481421,"current_range_meters":38800,"station_id":"ce4bhip2rcd13ifvqft0","pricing_plan_id":"cebpf4jnsgd1na2vs0mg"},{"bike_id":"d21f203a-c152-43f1-97ad-bbf86a4f48b7","system_id":"levelo_inurba_marseille","lat":43.30084,"lon":5.39089,"is_reserved":false,"is_disabled":false,"rental_uris":{"android":"levelo://app?vid=d21f203a-c152-43f1-97ad-bbf86a4f48b7","ios":"levelo://app?vid=d21f203a-c152-43f1-97ad-bbf86a4f48b7"},"vehicle_type_id":"4","last_reported":1726481421,"current_range_meters":38800,"station_id":"ce4bh192rcd13ifvqdb0","pricing_plan_id":"cebpf4jnsgd1na2vs0mg"},{"bike_id":"26db0265-0a91-4c66-8aa8-67a94f7eef0d","system_id":"levelo_inurba_marseille","lat":43.26942,"lon":5.4006,"is_reserved":false,"is_disabled":false,"rental_uris":{"android":"levelo://app?vid=26db0265-0a91-4c66-8aa8-67a94f7eef0d","ios":"levelo://app?vid=26db0265-0a91-4c66-8aa8-67a94f7eef0d"},"vehicle_type_id":"4","last_reported":1726481421,"current_range_meters":4800,"station_id":"","pricing_plan_id":"cebpf4jnsgd1na2vs0mg"},{"bike_id":"e99df398-9448-440a-b55e-32e607c516b5","system_id":"levelo_inurba_marseille","lat":43.30151,"lon":5.3808,"is_reserved":false,"is_disabled":false,"rental_uris":{"android":"levelo://app?vid=e99df398-9448-440a-b55e-32e607c516b5","ios":"levelo://app?vid=e99df398-9448-440a-b55e-32e607c516b5"},"vehicle_type_id":"4","last_reported":1726481421,"current_range_meters":38800,"station_id":"ce4bgjp2rcd13ifvqbh0","pricing_plan_id":"cebpf4jnsgd1na2vs0mg"},{"bike_id":"300f6b7f-709c-4f50-abeb-c30e3b956f47","system_id":"levelo_inurba_marseille","lat":43.30545,"lon":5.36714,"is_reserved":false,"is_disabled":false,"rental_uris":{"android":"levelo://app?vid=300f6b7f-709c-4f50-abeb-c30e3b956f47","ios":"levelo://app?vid=300f6b7f-709c-4f50-abeb-c30e3b956f47"},"vehicle_type_id":"4","last_reported":1726481421,"current_range_meters":25600,"station_id":"ce4bgrp2rcd13ifvqc9g","pricing_plan_id":"cebpf4jnsgd1na2vs0mg"},{"bike_id":"f95f384e-af65-4c6a-ba48-a112f5078a7b","system_id":"levelo_inurba_marseille","lat":43.30543,"lon":5.36548,"is_reserved":false,"is_disabled":false,"rental_uris":{"android":"levelo://app?vid=f95f384e-af65-4c6a-ba48-a112f5078a7b","ios":"levelo://app?vid=f95f384e-af65-4c6a-ba48-a112f5078a7b"},"vehicle_type_id":"4","last_reported":1726481421,"current_range_meters":28400,"station_id":"ce4bgs12rcd13ifvqcag","pricing_plan_id":"cebpf4jnsgd1na2vs0mg"},{"bike_id":"7e814600-340d-4350-ad30-1d40a4cbfd22","system_id":"levelo_inurba_marseille","lat":43.28853,"lon":5.38311,"is_reserved":false,"is_disabled":false,"rental_uris":{"android":"levelo://app?vid=7e814600-340d-4350-ad30-1d40a4cbfd22","ios":"levelo://app?vid=7e814600-340d-4350-ad30-1d40a4cbfd22"},"vehicle_type_id":"4","last_reported":1726481421,"current_range_meters":24000,"station_id":"ce4bgjh2rcd13ifvqbf0","pricing_plan_id":"cebpf4jnsgd1na2vs0mg"},{"bike_id":"9a1256e1-8202-49e9-82fd-f39f401f9faf","system_id":"levelo_inurba_marseille","lat":43.30415,"lon":5.41283,"is_reserved":false,"is_disabled":false,"rental_uris":{"android":"levelo://app?vid=9a1256e1-8202-49e9-82fd-f39f401f9faf","ios":"levelo://app?vid=9a1256e1-8202-49e9-82fd-f39f401f9faf"},"vehicle_type_id":"4","last_reported":1726481421,"current_range_meters":35600,"station_id":"ce4bhop2rcd13ifvqh8g","pricing_plan_id":"cebpf4jnsgd1na2vs0mg"},{"bike_id":"704bd4ff-c6ae-4fcf-a83a-81202466c629","system_id":"levelo_inurba_marseille","lat":43.29969,"lon":5.41325,"is_reserved":false,"is_disabled":false,"rental_uris":{"android":"levelo://app?vid=704bd4ff-c6ae-4fcf-a83a-81202466c629","ios":"levelo://app?vid=704bd4ff-c6ae-4fcf-a83a-81202466c629"},"vehicle_type_id":"4","last_reported":1726481421,"current_range_meters":20400,"station_id":"ce4bhp12rcd13ifvqh9g","pricing_plan_id":"cebpf4jnsgd1na2vs0mg"},{"bike_id":"8cb592d9-f82f-4171-894f-8d7ffa6525e5","system_id":"levelo_inurba_marseille","lat":43.23195,"lon":5.35546,"is_reserved":false,"is_disabled":false,"rental_uris":{"android":"levelo://app?vid=8cb592d9-f82f-4171-894f-8d7ffa6525e5","ios":"levelo://app?vid=8cb592d9-f82f-4171-894f-8d7ffa6525e5"},"vehicle_type_id":"4","last_reported":1726481421,"current_range_meters":25600,"station_id":"ce4bhu92rcd13ifvqi70","pricing_plan_id":"cebpf4jnsgd1na2vs0mg"},{"bike_id":"79752fd1-c487-410d-a206-6bc206b43c4f","system_id":"levelo_inurba_marseille","lat":43.30147,"lon":5.37422,"is_reserved":false,"is_disabled":false,"rental_uris":{"android":"levelo://app?vid=79752fd1-c487-410d-a206-6bc206b43c4f","ios":"levelo://app?vid=79752fd1-c487-410d-a206-6bc206b43c4f"},"vehicle_type_id":"4","last_reported":1726481421,"current_range_meters":21600,"station_id":"ce4bgs92rcd13ifvqcc0","pricing_plan_id":"cebpf4jnsgd1na2vs0mg"},{"bike_id":"96d50158-47a2-4a15-b920-513bce4bcc9e","system_id":"levelo_inurba_marseille","lat":43.29713,"lon":5.37692,"is_reserved":false,"is_disabled":false,"rental_uris":{"android":"levelo://app?vid=96d50158-47a2-4a15-b920-513bce4bcc9e","ios":"levelo://app?vid=96d50158-47a2-4a15-b920-513bce4bcc9e"},"vehicle_type_id":"4","last_reported":1726481421,"current_range_meters":39200,"station_id":"ce4bgkh2rcd13ifvqbl0","pricing_plan_id":"cebpf4jnsgd1na2vs0mg"},{"bike_id":"e847b307-42a1-4f70-b7b5-28d64e728823","system_id":"levelo_inurba_marseille","lat":43.31888,"lon":5.40732,"is_reserved":false,"is_disabled":false,"rental_uris":{"android":"levelo://app?vid=e847b307-42a1-4f70-b7b5-28d64e728823","ios":"levelo://app?vid=e847b307-42a1-4f70-b7b5-28d64e728823"},"vehicle_type_id":"4","last_reported":1726481421,"current_range_meters":28400,"station_id":"ce4bhq12rcd13ifvqhig","pricing_plan_id":"cebpf4jnsgd1na2vs0mg"},{"bike_id":"71900cf1-1c34-41b3-9eb6-eee5761e7631","system_id":"levelo_inurba_marseille","lat":43.2756,"lon":5.38437,"is_reserved":false,"is_disabled":false,"rental_uris":{"android":"levelo://app?vid=71900cf1-1c34-41b3-9eb6-eee5761e7631","ios":"levelo://app?vid=71900cf1-1c34-41b3-9eb6-eee5761e7631"},"vehicle_type_id":"4","last_reported":1726481421,"current_range_meters":22000,"station_id":"ce4bhh92rcd13ifvqfi0","pricing_plan_id":"cebpf4jnsgd1na2vs0mg"},{"bike_id":"35a1320d-9a70-47d2-a0b0-494340d7b236","system_id":"levelo_inurba_marseille","lat":43.2587,"lon":5.39908,"is_reserved":false,"is_disabled":false,"rental_uris":{"android":"levelo://app?vid=35a1320d-9a70-47d2-a0b0-494340d7b236","ios":"levelo://app?vid=35a1320d-9a70-47d2-a0b0-494340d7b236"},"vehicle_type_id":"4","last_reported":1726481421,"current_range_meters":31200,"station_id":"ce4bhl92rcd13ifvqghg","pricing_plan_id":"cebpf4jnsgd1na2vs0mg"},{"bike_id":"f4e21541-cfe5-494b-b62b-57b811b05280","system_id":"levelo_inurba_marseille","lat":43.24081,"lon":5.37751,"is_reserved":false,"is_disabled":false,"rental_uris":{"android":"levelo://app?vid=f4e21541-cfe5-494b-b62b-57b811b05280","ios":"levelo://app?vid=f4e21541-cfe5-494b-b62b-57b811b05280"},"vehicle_type_id":"4","last_reported":1726481421,"current_range_meters":30000,"station_id":"ce4bhnp2rcd13ifvqgvg","pricing_plan_id":"cebpf4jnsgd1na2vs0mg"},{"bike_id":"23af3e5f-c4dd-433e-9385-25485af76f31","system_id":"levelo_inurba_marseille","lat":43.32483,"lon":5.36566,"is_reserved":false,"is_disabled":false,"rental_uris":{"android":"levelo://app?vid=23af3e5f-c4dd-433e-9385-25485af76f31","ios":"levelo://app?vid=23af3e5f-c4dd-433e-9385-25485af76f31"},"vehicle_type_id":"4","last_reported":1726481421,"current_range_meters":19600,"station_id":"ce4bhs12rcd13ifvqhvg","pricing_plan_id":"cebpf4jnsgd1na2vs0mg"},{"bike_id":"9c25d7f9-3117-44f1-acec-713cdafffebf","system_id":"levelo_inurba_marseille","lat":43.34141,"lon":5.40915,"is_reserved":false,"is_disabled":false,"rental_uris":{"android":"levelo://app?vid=9c25d7f9-3117-44f1-acec-713cdafffebf","ios":"levelo://app?vid=9c25d7f9-3117-44f1-acec-713cdafffebf"},"vehicle_type_id":"4","last_reported":1726481421,"current_range_meters":33600,"station_id":"ce4bhqh2rcd13ifvqhlg","pricing_plan_id":"cebpf4jnsgd1na2vs0mg"},{"bike_id":"ee61d895-0129-4f56-b53c-6162a3381582","system_id":"levelo_inurba_marseille","lat":43.32535,"lon":5.41452,"is_reserved":false,"is_disabled":false,"rental_uris":{"android":"levelo://app?vid=ee61d895-0129-4f56-b53c-6162a3381582","ios":"levelo://app?vid=ee61d895-0129-4f56-b53c-6162a3381582"},"vehicle_type_id":"4","last_reported":1726481421,"current_range_meters":38400,"station_id":"ce4bhq12rcd13ifvqhhg","pricing_plan_id":"cebpf4jnsgd1na2vs0mg"},{"bike_id":"b1db6496-7d7b-4acc-a88c-e5406d38e100","system_id":"levelo_inurba_marseille","lat":43.23191,"lon":5.35552,"is_reserved":false,"is_disabled":false,"rental_uris":{"android":"levelo://app?vid=b1db6496-7d7b-4acc-a88c-e5406d38e100","ios":"levelo://app?vid=b1db6496-7d7b-4acc-a88c-e5406d38e100"},"vehicle_type_id":"4","last_reported":1726481421,"current_range_meters":32400,"station_id":"ce4bhu92rcd13ifvqi70","pricing_plan_id":"cebpf4jnsgd1na2vs0mg"},{"bike_id":"8b4351e1-5f6f-4355-a505-279d7df5b776","system_id":"levelo_inurba_marseille","lat":43.23179,"lon":5.39989,"is_reserved":false,"is_disabled":false,"rental_uris":{"android":"levelo://app?vid=8b4351e1-5f6f-4355-a505-279d7df5b776","ios":"levelo://app?vid=8b4351e1-5f6f-4355-a505-279d7df5b776"},"vehicle_type_id":"4","last_reported":1726481421,"current_range_meters":25600,"station_id":"ce4bhn12rcd13ifvqgqg","pricing_plan_id":"cebpf4jnsgd1na2vs0mg"},{"bike_id":"ee721f16-71d0-49c8-9da4-858f78b55bcb","system_id":"levelo_inurba_marseille","lat":43.25944,"lon":5.40894,"is_reserved":false,"is_disabled":false,"rental_uris":{"android":"levelo://app?vid=ee721f16-71d0-49c8-9da4-858f78b55bcb","ios":"levelo://app?vid=ee721f16-71d0-49c8-9da4-858f78b55bcb"},"vehicle_type_id":"4","last_reported":1726481421,"current_range_meters":20800,"station_id":"ce4bhm92rcd13ifvqglg","pricing_plan_id":"cebpf4jnsgd1na2vs0mg"},{"bike_id":"58ad92c2-082a-47a4-869d-70b15ab6c444","system_id":"levelo_inurba_marseille","lat":43.26688,"lon":5.3827,"is_reserved":false,"is_disabled":false,"rental_uris":{"android":"levelo://app?vid=58ad92c2-082a-47a4-869d-70b15ab6c444","ios":"levelo://app?vid=58ad92c2-082a-47a4-869d-70b15ab6c444"},"vehicle_type_id":"4","last_reported":1726481421,"current_range_meters":14800,"station_id":"ce4bhg92rcd13ifvqf90","pricing_plan_id":"cebpf4jnsgd1na2vs0mg"},{"bike_id":"673c1b5e-9443-4dc4-bb54-52e29ea0abc7","system_id":"levelo_inurba_marseille","lat":43.23149,"lon":5.43721,"is_reserved":false,"is_disabled":false,"rental_uris":{"android":"levelo://app?vid=673c1b5e-9443-4dc4-bb54-52e29ea0abc7","ios":"levelo://app?vid=673c1b5e-9443-4dc4-bb54-52e29ea0abc7"},"vehicle_type_id":"4","last_reported":1726481421,"current_range_meters":33200,"station_id":"ce4bhmp2rcd13ifvqgog","pricing_plan_id":"cebpf4jnsgd1na2vs0mg"},{"bike_id":"5cf4c2f1-f092-4550-b8cf-369099ebc3bc","system_id":"levelo_inurba_marseille","lat":43.24563,"lon":5.41552,"is_reserved":false,"is_disabled":false,"rental_uris":{"android":"levelo://app?vid=5cf4c2f1-f092-4550-b8cf-369099ebc3bc","ios":"levelo://app?vid=5cf4c2f1-f092-4550-b8cf-369099ebc3bc"},"vehicle_type_id":"4","last_reported":1726481421,"current_range_meters":9200,"station_id":"ce4bhlh2rcd13ifvqgig","pricing_plan_id":"cebpf4jnsgd1na2vs0mg"},{"bike_id":"4721e0a5-8c0a-4c61-91fb-10c3ba183135","system_id":"levelo_inurba_marseille","lat":43.24079,"lon":5.3776,"is_reserved":false,"is_disabled":false,"rental_uris":{"android":"levelo://app?vid=4721e0a5-8c0a-4c61-91fb-10c3ba183135","ios":"levelo://app?vid=4721e0a5-8c0a-4c61-91fb-10c3ba183135"},"vehicle_type_id":"4","last_reported":1726481421,"current_range_meters":9200,"station_id":"ce4bhnp2rcd13ifvqgvg","pricing_plan_id":"cebpf4jnsgd1na2vs0mg"},{"bike_id":"6fabb23b-c151-4316-b1e0-1bde8d668b8c","system_id":"levelo_inurba_marseille","lat":43.24388,"lon":5.37053,"is_reserved":false,"is_disabled":false,"rental_uris":{"android":"levelo://app?vid=6fabb23b-c151-4316-b1e0-1bde8d668b8c","ios":"levelo://app?vid=6fabb23b-c151-4316-b1e0-1bde8d668b8c"},"vehicle_type_id":"4","last_reported":1726481421,"current_range_meters":8800,"station_id":"ce4bhhh2rcd13ifvqfk0","pricing_plan_id":"cebpf4jnsgd1na2vs0mg"},{"bike_id":"223bcd1f-bde5-46f7-ab5f-e5751f9d998e","system_id":"levelo_inurba_marseille","lat":43.30549,"lon":5.36713,"is_reserved":false,"is_disabled":false,"rental_uris":{"android":"levelo://app?vid=223bcd1f-bde5-46f7-ab5f-e5751f9d998e","ios":"levelo://app?vid=223bcd1f-bde5-46f7-ab5f-e5751f9d998e"},"vehicle_type_id":"4","last_reported":1726481421,"current_range_meters":20800,"station_id":"ce4bgrp2rcd13ifvqc9g","pricing_plan_id":"cebpf4jnsgd1na2vs0mg"},{"bike_id":"b08950ba-02a0-46d4-8c68-863f0b3477e8","system_id":"levelo_inurba_marseille","lat":43.32486,"lon":5.36553,"is_reserved":false,"is_disabled":false,"rental_uris":{"android":"levelo://app?vid=b08950ba-02a0-46d4-8c68-863f0b3477e8","ios":"levelo://app?vid=b08950ba-02a0-46d4-8c68-863f0b3477e8"},"vehicle_type_id":"4","last_reported":1726481421,"current_range_meters":37600,"station_id":"ce4bhs12rcd13ifvqhvg","pricing_plan_id":"cebpf4jnsgd1na2vs0mg"},{"bike_id":"b645ac77-0d58-4fa9-8ad3-947af8bdb1d9","system_id":"levelo_inurba_marseille","lat":43.29906,"lon":5.43667,"is_reserved":false,"is_disabled":false,"rental_uris":{"android":"levelo://app?vid=b645ac77-0d58-4fa9-8ad3-947af8bdb1d9","ios":"levelo://app?vid=b645ac77-0d58-4fa9-8ad3-947af8bdb1d9"},"vehicle_type_id":"4","last_reported":1726481421,"current_range_meters":29600,"station_id":"ce4bhpp2rcd13ifvqhfg","pricing_plan_id":"cebpf4jnsgd1na2vs0mg"},{"bike_id":"03515e55-0de8-4f6d-953a-abbf71a9cce4","system_id":"levelo_inurba_marseille","lat":43.24075,"lon":5.37758,"is_reserved":false,"is_disabled":false,"rental_uris":{"android":"levelo://app?vid=03515e55-0de8-4f6d-953a-abbf71a9cce4","ios":"levelo://app?vid=03515e55-0de8-4f6d-953a-abbf71a9cce4"},"vehicle_type_id":"4","last_reported":1726481421,"current_range_meters":11600,"station_id":"ce4bhnp2rcd13ifvqgvg","pricing_plan_id":"cebpf4jnsgd1na2vs0mg"},{"bike_id":"8e04ad42-4fb7-46a5-8bdd-901fc987436f","system_id":"levelo_inurba_marseille","lat":43.31024,"lon":5.38063,"is_reserved":false,"is_disabled":false,"rental_uris":{"android":"levelo://app?vid=8e04ad42-4fb7-46a5-8bdd-901fc987436f","ios":"levelo://app?vid=8e04ad42-4fb7-46a5-8bdd-901fc987436f"},"vehicle_type_id":"4","last_reported":1726481421,"current_range_meters":34000,"station_id":"","pricing_plan_id":"cebpf4jnsgd1na2vs0mg"},{"bike_id":"5cf7fcde-3162-4e0e-ae8d-2fdc6b8fe39b","system_id":"levelo_inurba_marseille","lat":43.289948,"lon":5.355789,"is_reserved":false,"is_disabled":false,"rental_uris":{"android":"levelo://app?vid=5cf7fcde-3162-4e0e-ae8d-2fdc6b8fe39b","ios":"levelo://app?vid=5cf7fcde-3162-4e0e-ae8d-2fdc6b8fe39b"},"vehicle_type_id":"4","last_reported":1726481421,"current_range_meters":21600,"station_id":"ce4bhb92rcd13ifvqen0","pricing_plan_id":"cebpf4jnsgd1na2vs0mg"},{"bike_id":"7abc2a25-404a-4f70-a7c0-c89315b5c4bc","system_id":"levelo_inurba_marseille","lat":43.29301,"lon":5.40286,"is_reserved":false,"is_disabled":false,"rental_uris":{"android":"levelo://app?vid=7abc2a25-404a-4f70-a7c0-c89315b5c4bc","ios":"levelo://app?vid=7abc2a25-404a-4f70-a7c0-c89315b5c4bc"},"vehicle_type_id":"4","last_reported":1726481421,"current_range_meters":27200,"station_id":"","pricing_plan_id":"cebpf4jnsgd1na2vs0mg"},{"bike_id":"a5306699-aa7b-4204-b727-7976ba1e747b","system_id":"levelo_inurba_marseille","lat":43.25936,"lon":5.40902,"is_reserved":false,"is_disabled":false,"rental_uris":{"android":"levelo://app?vid=a5306699-aa7b-4204-b727-7976ba1e747b","ios":"levelo://app?vid=a5306699-aa7b-4204-b727-7976ba1e747b"},"vehicle_type_id":"4","last_reported":1726481421,"current_range_meters":36000,"station_id":"ce4bhm92rcd13ifvqglg","pricing_plan_id":"cebpf4jnsgd1na2vs0mg"},{"bike_id":"677498c9-746b-4650-9a8e-2c7479635944","system_id":"levelo_inurba_marseille","lat":43.33022,"lon":5.3905,"is_reserved":false,"is_disabled":false,"rental_uris":{"android":"levelo://app?vid=677498c9-746b-4650-9a8e-2c7479635944","ios":"levelo://app?vid=677498c9-746b-4650-9a8e-2c7479635944"},"vehicle_type_id":"4","last_reported":1726481421,"current_range_meters":28000,"station_id":"ce4bhr92rcd13ifvqhrg","pricing_plan_id":"cebpf4jnsgd1na2vs0mg"},{"bike_id":"ca657445-c8e9-403b-af5f-eff5b3eb8352","system_id":"levelo_inurba_marseille","lat":43.29166,"lon":5.3715,"is_reserved":false,"is_disabled":false,"rental_uris":{"android":"levelo://app?vid=ca657445-c8e9-403b-af5f-eff5b3eb8352","ios":"levelo://app?vid=ca657445-c8e9-403b-af5f-eff5b3eb8352"},"vehicle_type_id":"4","last_reported":1726481421,"current_range_meters":38800,"station_id":"ce4bha92rcd13ifvqeh0","pricing_plan_id":"cebpf4jnsgd1na2vs0mg"},{"bike_id":"0c5268db-dfe0-4430-9479-92a45a7e6162","system_id":"levelo_inurba_marseille","lat":43.29377,"lon":5.37846,"is_reserved":false,"is_disabled":false,"rental_uris":{"android":"levelo://app?vid=0c5268db-dfe0-4430-9479-92a45a7e6162","ios":"levelo://app?vid=0c5268db-dfe0-4430-9479-92a45a7e6162"},"vehicle_type_id":"4","last_reported":1726481421,"current_range_meters":38400,"station_id":"ce4bgjh2rcd13ifvqbf0","pricing_plan_id":"cebpf4jnsgd1na2vs0mg"},{"bike_id":"3f5b63b5-9f49-4a52-a4be-0b706a026622","system_id":"levelo_inurba_marseille","lat":43.33024,"lon":5.39028,"is_reserved":false,"is_disabled":false,"rental_uris":{"android":"levelo://app?vid=3f5b63b5-9f49-4a52-a4be-0b706a026622","ios":"levelo://app?vid=3f5b63b5-9f49-4a52-a4be-0b706a026622"},"vehicle_type_id":"4","last_reported":1726481421,"current_range_meters":38800,"station_id":"ce4bhr92rcd13ifvqhrg","pricing_plan_id":"cebpf4jnsgd1na2vs0mg"},{"bike_id":"7e84a3ad-b6e2-47cb-a879-414e01b71399","system_id":"levelo_inurba_marseille","lat":43.27497,"lon":5.42452,"is_reserved":false,"is_disabled":false,"rental_uris":{"android":"levelo://app?vid=7e84a3ad-b6e2-47cb-a879-414e01b71399","ios":"levelo://app?vid=7e84a3ad-b6e2-47cb-a879-414e01b71399"},"vehicle_type_id":"4","last_reported":1726481421,"current_range_meters":36800,"station_id":"ce4bhn92rcd13ifvqgrg","pricing_plan_id":"cebpf4jnsgd1na2vs0mg"},{"bike_id":"25ea4127-a0a7-4f6b-8fd2-daa85a416481","system_id":"levelo_inurba_marseille","lat":43.23183,"lon":5.39983,"is_reserved":false,"is_disabled":false,"rental_uris":{"android":"levelo://app?vid=25ea4127-a0a7-4f6b-8fd2-daa85a416481","ios":"levelo://app?vid=25ea4127-a0a7-4f6b-8fd2-daa85a416481"},"vehicle_type_id":"4","last_reported":1726481421,"current_range_meters":8000,"station_id":"ce4bhn12rcd13ifvqgqg","pricing_plan_id":"cebpf4jnsgd1na2vs0mg"},{"bike_id":"c3bf1f09-352a-47b5-a322-758da4795433","system_id":"levelo_inurba_marseille","lat":43.28367,"lon":5.38627,"is_reserved":false,"is_disabled":false,"rental_uris":{"android":"levelo://app?vid=c3bf1f09-352a-47b5-a322-758da4795433","ios":"levelo://app?vid=c3bf1f09-352a-47b5-a322-758da4795433"},"vehicle_type_id":"4","last_reported":1726481421,"current_range_meters":20800,"station_id":"ce4bh492rcd13ifvqdvg","pricing_plan_id":"cebpf4jnsgd1na2vs0mg"},{"bike_id":"fa243b06-e9bc-4497-a9cd-b605cb0dd1ab","system_id":"levelo_inurba_marseille","lat":43.29801,"lon":5.40403,"is_reserved":false,"is_disabled":false,"rental_uris":{"android":"levelo://app?vid=fa243b06-e9bc-4497-a9cd-b605cb0dd1ab","ios":"levelo://app?vid=fa243b06-e9bc-4497-a9cd-b605cb0dd1ab"},"vehicle_type_id":"4","last_reported":1726481421,"current_range_meters":8400,"station_id":"ce4bh112rcd13ifvqd90","pricing_plan_id":"cebpf4jnsgd1na2vs0mg"},{"bike_id":"d6563275-bced-405d-afca-a6c17d96a2be","system_id":"levelo_inurba_marseille","lat":43.25943,"lon":5.40901,"is_reserved":false,"is_disabled":false,"rental_uris":{"android":"levelo://app?vid=d6563275-bced-405d-afca-a6c17d96a2be","ios":"levelo://app?vid=d6563275-bced-405d-afca-a6c17d96a2be"},"vehicle_type_id":"4","last_reported":1726481421,"current_range_meters":28000,"station_id":"ce4bhm92rcd13ifvqglg","pricing_plan_id":"cebpf4jnsgd1na2vs0mg"},{"bike_id":"a3d0c5f5-3775-49be-aba5-48b65b48b5d2","system_id":"levelo_inurba_marseille","lat":43.24986,"lon":5.38946,"is_reserved":false,"is_disabled":false,"rental_uris":{"android":"levelo://app?vid=a3d0c5f5-3775-49be-aba5-48b65b48b5d2","ios":"levelo://app?vid=a3d0c5f5-3775-49be-aba5-48b65b48b5d2"},"vehicle_type_id":"4","last_reported":1726481421,"current_range_meters":28400,"station_id":"ce4bhgp2rcd13ifvqfd0","pricing_plan_id":"cebpf4jnsgd1na2vs0mg"},{"bike_id":"18535f94-505c-4e2d-b64e-0323ab64ff22","system_id":"levelo_inurba_marseille","lat":43.28345,"lon":5.38108,"is_reserved":false,"is_disabled":false,"rental_uris":{"android":"levelo://app?vid=18535f94-505c-4e2d-b64e-0323ab64ff22","ios":"levelo://app?vid=18535f94-505c-4e2d-b64e-0323ab64ff22"},"vehicle_type_id":"4","last_reported":1726481421,"current_range_meters":40000,"station_id":"ce4bh412rcd13ifvqdr0","pricing_plan_id":"cebpf4jnsgd1na2vs0mg"},{"bike_id":"dd2d821c-8b24-431f-a2ec-388c48a5aca8","system_id":"levelo_inurba_marseille","lat":43.24668,"lon":5.38168,"is_reserved":false,"is_disabled":false,"rental_uris":{"android":"levelo://app?vid=dd2d821c-8b24-431f-a2ec-388c48a5aca8","ios":"levelo://app?vid=dd2d821c-8b24-431f-a2ec-388c48a5aca8"},"vehicle_type_id":"4","last_reported":1726481421,"current_range_meters":38800,"station_id":"ce4bhih2rcd13ifvqfr0","pricing_plan_id":"cebpf4jnsgd1na2vs0mg"},{"bike_id":"dbf7f698-b4b6-4011-a45a-9f6a1290a55d","system_id":"levelo_inurba_marseille","lat":43.31078,"lon":5.38341,"is_reserved":false,"is_disabled":false,"rental_uris":{"android":"levelo://app?vid=dbf7f698-b4b6-4011-a45a-9f6a1290a55d","ios":"levelo://app?vid=dbf7f698-b4b6-4011-a45a-9f6a1290a55d"},"vehicle_type_id":"4","last_reported":1726481421,"current_range_meters":30000,"station_id":"ce4bgv92rcd13ifvqcr0","pricing_plan_id":"cebpf4jnsgd1na2vs0mg"},{"bike_id":"63ecbc89-1f09-4a63-a23e-3ed7d955838f","system_id":"levelo_inurba_marseille","lat":43.2963,"lon":5.40603,"is_reserved":false,"is_disabled":false,"rental_uris":{"android":"levelo://app?vid=63ecbc89-1f09-4a63-a23e-3ed7d955838f","ios":"levelo://app?vid=63ecbc89-1f09-4a63-a23e-3ed7d955838f"},"vehicle_type_id":"4","last_reported":1726481421,"current_range_meters":36400,"station_id":"ce4bh0h2rcd13ifvqd60","pricing_plan_id":"cebpf4jnsgd1na2vs0mg"},{"bike_id":"8f733da8-974b-48c5-991b-191ad38cc2ec","system_id":"levelo_inurba_marseille","lat":43.25115,"lon":5.40322,"is_reserved":false,"is_disabled":false,"rental_uris":{"android":"levelo://app?vid=8f733da8-974b-48c5-991b-191ad38cc2ec","ios":"levelo://app?vid=8f733da8-974b-48c5-991b-191ad38cc2ec"},"vehicle_type_id":"4","last_reported":1726481421,"current_range_meters":40000,"station_id":"ce4bhlh2rcd13ifvqgig","pricing_plan_id":"cebpf4jnsgd1na2vs0mg"},{"bike_id":"d026a83b-f22d-4a8c-b2f2-7730a6b16272","system_id":"levelo_inurba_marseille","lat":43.23146,"lon":5.4372,"is_reserved":false,"is_disabled":false,"rental_uris":{"android":"levelo://app?vid=d026a83b-f22d-4a8c-b2f2-7730a6b16272","ios":"levelo://app?vid=d026a83b-f22d-4a8c-b2f2-7730a6b16272"},"vehicle_type_id":"4","last_reported":1726481421,"current_range_meters":39200,"station_id":"ce4bhmp2rcd13ifvqgog","pricing_plan_id":"cebpf4jnsgd1na2vs0mg"},{"bike_id":"34d94a26-ec93-4e8d-a6c6-3d558ea2d4e4","system_id":"levelo_inurba_marseille","lat":43.25941,"lon":5.40902,"is_reserved":false,"is_disabled":false,"rental_uris":{"android":"levelo://app?vid=34d94a26-ec93-4e8d-a6c6-3d558ea2d4e4","ios":"levelo://app?vid=34d94a26-ec93-4e8d-a6c6-3d558ea2d4e4"},"vehicle_type_id":"4","last_reported":1726481421,"current_range_meters":17600,"station_id":"ce4bhm92rcd13ifvqglg","pricing_plan_id":"cebpf4jnsgd1na2vs0mg"},{"bike_id":"4b2ba85a-29ad-44c1-a157-f219369e26f8","system_id":"levelo_inurba_marseille","lat":43.27491,"lon":5.42459,"is_reserved":false,"is_disabled":false,"rental_uris":{"android":"levelo://app?vid=4b2ba85a-29ad-44c1-a157-f219369e26f8","ios":"levelo://app?vid=4b2ba85a-29ad-44c1-a157-f219369e26f8"},"vehicle_type_id":"4","last_reported":1726481421,"current_range_meters":35600,"station_id":"ce4bhn92rcd13ifvqgrg","pricing_plan_id":"cebpf4jnsgd1na2vs0mg"},{"bike_id":"99684f50-b398-427b-a4e9-7ca0a0382c79","system_id":"levelo_inurba_marseille","lat":43.23195,"lon":5.35551,"is_reserved":false,"is_disabled":false,"rental_uris":{"android":"levelo://app?vid=99684f50-b398-427b-a4e9-7ca0a0382c79","ios":"levelo://app?vid=99684f50-b398-427b-a4e9-7ca0a0382c79"},"vehicle_type_id":"4","last_reported":1726481421,"current_range_meters":39200,"station_id":"ce4bhu92rcd13ifvqi70","pricing_plan_id":"cebpf4jnsgd1na2vs0mg"},{"bike_id":"74dee269-88b9-4fbf-a8a1-61cdc00de209","system_id":"levelo_inurba_marseille","lat":43.26496,"lon":5.39539,"is_reserved":false,"is_disabled":false,"rental_uris":{"android":"levelo://app?vid=74dee269-88b9-4fbf-a8a1-61cdc00de209","ios":"levelo://app?vid=74dee269-88b9-4fbf-a8a1-61cdc00de209"},"vehicle_type_id":"4","last_reported":1726481421,"current_range_meters":6400,"station_id":"ce4bhi12rcd13ifvqfq0","pricing_plan_id":"cebpf4jnsgd1na2vs0mg"},{"bike_id":"0f808d02-6df2-4fb7-b534-a56f3c6d6147","system_id":"levelo_inurba_marseille","lat":43.32483,"lon":5.36563,"is_reserved":false,"is_disabled":false,"rental_uris":{"android":"levelo://app?vid=0f808d02-6df2-4fb7-b534-a56f3c6d6147","ios":"levelo://app?vid=0f808d02-6df2-4fb7-b534-a56f3c6d6147"},"vehicle_type_id":"4","last_reported":1726481421,"current_range_meters":31200,"station_id":"ce4bhs12rcd13ifvqhvg","pricing_plan_id":"cebpf4jnsgd1na2vs0mg"},{"bike_id":"5c06497f-1680-497d-bb52-b03bd82e70e8","system_id":"levelo_inurba_marseille","lat":43.3172,"lon":5.42405,"is_reserved":false,"is_disabled":false,"rental_uris":{"android":"levelo://app?vid=5c06497f-1680-497d-bb52-b03bd82e70e8","ios":"levelo://app?vid=5c06497f-1680-497d-bb52-b03bd82e70e8"},"vehicle_type_id":"4","last_reported":1726481421,"current_range_meters":38000,"station_id":"ce4bhp92rcd13ifvqhbg","pricing_plan_id":"cebpf4jnsgd1na2vs0mg"},{"bike_id":"815475bc-dba1-49b4-9d6c-f51b44755d4e","system_id":"levelo_inurba_marseille","lat":43.31496,"lon":5.37311,"is_reserved":false,"is_disabled":false,"rental_uris":{"android":"levelo://app?vid=815475bc-dba1-49b4-9d6c-f51b44755d4e","ios":"levelo://app?vid=815475bc-dba1-49b4-9d6c-f51b44755d4e"},"vehicle_type_id":"4","last_reported":1726481421,"current_range_meters":38800,"station_id":"ce4bgt12rcd13ifvqcd0","pricing_plan_id":"cebpf4jnsgd1na2vs0mg"},{"bike_id":"c1fcd153-5567-4765-9736-73a42ed0d935","system_id":"levelo_inurba_marseille","lat":43.33608,"lon":5.41027,"is_reserved":false,"is_disabled":false,"rental_uris":{"android":"levelo://app?vid=c1fcd153-5567-4765-9736-73a42ed0d935","ios":"levelo://app?vid=c1fcd153-5567-4765-9736-73a42ed0d935"},"vehicle_type_id":"4","last_reported":1726481421,"current_range_meters":20400,"station_id":"ce4bhqh2rcd13ifvqhmg","pricing_plan_id":"cebpf4jnsgd1na2vs0mg"},{"bike_id":"da8bc522-4b93-4ef8-8f76-bad542168828","system_id":"levelo_inurba_marseille","lat":43.26683,"lon":5.38264,"is_reserved":false,"is_disabled":false,"rental_uris":{"android":"levelo://app?vid=da8bc522-4b93-4ef8-8f76-bad542168828","ios":"levelo://app?vid=da8bc522-4b93-4ef8-8f76-bad542168828"},"vehicle_type_id":"4","last_reported":1726481421,"current_range_meters":17600,"station_id":"ce4bhg92rcd13ifvqf90","pricing_plan_id":"cebpf4jnsgd1na2vs0mg"},{"bike_id":"ab732297-8767-482d-bc3b-b20f5cde169b","system_id":"levelo_inurba_marseille","lat":43.27496,"lon":5.42453,"is_reserved":false,"is_disabled":false,"rental_uris":{"android":"levelo://app?vid=ab732297-8767-482d-bc3b-b20f5cde169b","ios":"levelo://app?vid=ab732297-8767-482d-bc3b-b20f5cde169b"},"vehicle_type_id":"4","last_reported":1726481421,"current_range_meters":30000,"station_id":"ce4bhn92rcd13ifvqgrg","pricing_plan_id":"cebpf4jnsgd1na2vs0mg"},{"bike_id":"0a2e1c3b-f8e0-4541-91a6-a4751989ba76","system_id":"levelo_inurba_marseille","lat":43.31358,"lon":5.36709,"is_reserved":false,"is_disabled":false,"rental_uris":{"android":"levelo://app?vid=0a2e1c3b-f8e0-4541-91a6-a4751989ba76","ios":"levelo://app?vid=0a2e1c3b-f8e0-4541-91a6-a4751989ba76"},"vehicle_type_id":"4","last_reported":1726481421,"current_range_meters":33600,"station_id":"ce4bgr92rcd13ifvqc6g","pricing_plan_id":"cebpf4jnsgd1na2vs0mg"},{"bike_id":"fffa7918-d3b4-4bf2-afdd-35a0dc91e212","system_id":"levelo_inurba_marseille","lat":43.29007,"lon":5.3561,"is_reserved":false,"is_disabled":false,"rental_uris":{"android":"levelo://app?vid=fffa7918-d3b4-4bf2-afdd-35a0dc91e212","ios":"levelo://app?vid=fffa7918-d3b4-4bf2-afdd-35a0dc91e212"},"vehicle_type_id":"4","last_reported":1726481421,"current_range_meters":16000,"station_id":"ce4bhb92rcd13ifvqen0","pricing_plan_id":"cebpf4jnsgd1na2vs0mg"},{"bike_id":"7a260d8b-cb7e-4b77-adbc-15e84b41da1e","system_id":"levelo_inurba_marseille","lat":43.29072,"lon":5.37163,"is_reserved":false,"is_disabled":false,"rental_uris":{"android":"levelo://app?vid=7a260d8b-cb7e-4b77-adbc-15e84b41da1e","ios":"levelo://app?vid=7a260d8b-cb7e-4b77-adbc-15e84b41da1e"},"vehicle_type_id":"4","last_reported":1726481421,"current_range_meters":25600,"station_id":"ce4bh5p2rcd13ifvqe4g","pricing_plan_id":"cebpf4jnsgd1na2vs0mg"},{"bike_id":"be6a7145-0791-40f8-a3e4-321fb362448d","system_id":"levelo_inurba_marseille","lat":43.27477,"lon":5.42462,"is_reserved":false,"is_disabled":false,"rental_uris":{"android":"levelo://app?vid=be6a7145-0791-40f8-a3e4-321fb362448d","ios":"levelo://app?vid=be6a7145-0791-40f8-a3e4-321fb362448d"},"vehicle_type_id":"4","last_reported":1726481421,"current_range_meters":3600,"station_id":"ce4bhn92rcd13ifvqgrg","pricing_plan_id":"cebpf4jnsgd1na2vs0mg"},{"bike_id":"621ff8c9-ca66-4035-9aa7-6d335a5353bf","system_id":"levelo_inurba_marseille","lat":43.28926,"lon":5.38409,"is_reserved":false,"is_disabled":false,"rental_uris":{"android":"levelo://app?vid=621ff8c9-ca66-4035-9aa7-6d335a5353bf","ios":"levelo://app?vid=621ff8c9-ca66-4035-9aa7-6d335a5353bf"},"vehicle_type_id":"4","last_reported":1726481421,"current_range_meters":29600,"station_id":"ce4bh612rcd13ifvqe6g","pricing_plan_id":"cebpf4jnsgd1na2vs0mg"},{"bike_id":"0264cadd-851d-4352-aca0-d6c76fdc4e6d","system_id":"levelo_inurba_marseille","lat":43.28268,"lon":5.35075,"is_reserved":false,"is_disabled":false,"rental_uris":{"android":"levelo://app?vid=0264cadd-851d-4352-aca0-d6c76fdc4e6d","ios":"levelo://app?vid=0264cadd-851d-4352-aca0-d6c76fdc4e6d"},"vehicle_type_id":"4","last_reported":1726481421,"current_range_meters":33200,"station_id":"ce4bhbp2rcd13ifvqerg","pricing_plan_id":"cebpf4jnsgd1na2vs0mg"},{"bike_id":"178d26a0-641d-4bd2-b355-e6bbf632c7de","system_id":"levelo_inurba_marseille","lat":43.30549,"lon":5.36539,"is_reserved":false,"is_disabled":false,"rental_uris":{"android":"levelo://app?vid=178d26a0-641d-4bd2-b355-e6bbf632c7de","ios":"levelo://app?vid=178d26a0-641d-4bd2-b355-e6bbf632c7de"},"vehicle_type_id":"4","last_reported":1726481421,"current_range_meters":31200,"station_id":"ce4bgs12rcd13ifvqcag","pricing_plan_id":"cebpf4jnsgd1na2vs0mg"},{"bike_id":"d0cf88fd-6d28-4ddb-b931-e99535baae23","system_id":"levelo_inurba_marseille","lat":43.280396,"lon":5.386493,"is_reserved":false,"is_disabled":false,"rental_uris":{"android":"levelo://app?vid=d0cf88fd-6d28-4ddb-b931-e99535baae23","ios":"levelo://app?vid=d0cf88fd-6d28-4ddb-b931-e99535baae23"},"vehicle_type_id":"4","last_reported":1726481421,"current_range_meters":18800,"station_id":"","pricing_plan_id":"cebpf4jnsgd1na2vs0mg"},{"bike_id":"963be3bf-c0b8-4a11-aaff-3bbb65bf021e","system_id":"levelo_inurba_marseille","lat":43.31717,"lon":5.37746,"is_reserved":false,"is_disabled":false,"rental_uris":{"android":"levelo://app?vid=963be3bf-c0b8-4a11-aaff-3bbb65bf021e","ios":"levelo://app?vid=963be3bf-c0b8-4a11-aaff-3bbb65bf021e"},"vehicle_type_id":"4","last_reported":1726481421,"current_range_meters":10800,"station_id":"ce4bgth2rcd13ifvqch0","pricing_plan_id":"cebpf4jnsgd1na2vs0mg"},{"bike_id":"ce703cb4-aa06-4ca3-9d0d-9d78109ec482","system_id":"levelo_inurba_marseille","lat":43.31261,"lon":5.36882,"is_reserved":false,"is_disabled":false,"rental_uris":{"android":"levelo://app?vid=ce703cb4-aa06-4ca3-9d0d-9d78109ec482","ios":"levelo://app?vid=ce703cb4-aa06-4ca3-9d0d-9d78109ec482"},"vehicle_type_id":"4","last_reported":1726481421,"current_range_meters":28400,"station_id":"ce4bgl92rcd13ifvqbq0","pricing_plan_id":"cebpf4jnsgd1na2vs0mg"},{"bike_id":"6ad2fe94-195b-4d58-9ac6-d3a9675a4c80","system_id":"levelo_inurba_marseille","lat":43.23069,"lon":5.3549,"is_reserved":false,"is_disabled":false,"rental_uris":{"android":"levelo://app?vid=6ad2fe94-195b-4d58-9ac6-d3a9675a4c80","ios":"levelo://app?vid=6ad2fe94-195b-4d58-9ac6-d3a9675a4c80"},"vehicle_type_id":"4","last_reported":1726481421,"current_range_meters":17200,"station_id":"cpo3342slgdg3j2ifvpg","pricing_plan_id":"cebpf4jnsgd1na2vs0mg"},{"bike_id":"6dd17a2f-59bb-4453-859d-2c09ab795824","system_id":"levelo_inurba_marseille","lat":43.33021,"lon":5.39047,"is_reserved":false,"is_disabled":false,"rental_uris":{"android":"levelo://app?vid=6dd17a2f-59bb-4453-859d-2c09ab795824","ios":"levelo://app?vid=6dd17a2f-59bb-4453-859d-2c09ab795824"},"vehicle_type_id":"4","last_reported":1726481421,"current_range_meters":37600,"station_id":"ce4bhr92rcd13ifvqhrg","pricing_plan_id":"cebpf4jnsgd1na2vs0mg"},{"bike_id":"d2187118-431e-45c4-a710-0e79d26be9eb","system_id":"levelo_inurba_marseille","lat":43.337444,"lon":5.374475,"is_reserved":false,"is_disabled":false,"rental_uris":{"android":"levelo://app?vid=d2187118-431e-45c4-a710-0e79d26be9eb","ios":"levelo://app?vid=d2187118-431e-45c4-a710-0e79d26be9eb"},"vehicle_type_id":"4","last_reported":1726481421,"current_range_meters":22000,"station_id":"ce4bhgh2rcd13ifvqfb0","pricing_plan_id":"cebpf4jnsgd1na2vs0mg"},{"bike_id":"106f8cd4-f234-4c16-b891-2f43432485f0","system_id":"levelo_inurba_marseille","lat":43.29038,"lon":5.37562,"is_reserved":false,"is_disabled":false,"rental_uris":{"android":"levelo://app?vid=106f8cd4-f234-4c16-b891-2f43432485f0","ios":"levelo://app?vid=106f8cd4-f234-4c16-b891-2f43432485f0"},"vehicle_type_id":"4","last_reported":1726481421,"current_range_meters":39200,"station_id":"ce4bh692rcd13ifvqe90","pricing_plan_id":"cebpf4jnsgd1na2vs0mg"},{"bike_id":"1c79db96-5e4d-4cfe-b310-bde8716f7bfd","system_id":"levelo_inurba_marseille","lat":43.30539,"lon":5.36701,"is_reserved":false,"is_disabled":false,"rental_uris":{"android":"levelo://app?vid=1c79db96-5e4d-4cfe-b310-bde8716f7bfd","ios":"levelo://app?vid=1c79db96-5e4d-4cfe-b310-bde8716f7bfd"},"vehicle_type_id":"4","last_reported":1726481421,"current_range_meters":16800,"station_id":"ce4bgrp2rcd13ifvqc9g","pricing_plan_id":"cebpf4jnsgd1na2vs0mg"},{"bike_id":"edd22d2f-606d-4041-92d2-f6cb44804090","system_id":"levelo_inurba_marseille","lat":43.3016,"lon":5.38071,"is_reserved":false,"is_disabled":false,"rental_uris":{"android":"levelo://app?vid=edd22d2f-606d-4041-92d2-f6cb44804090","ios":"levelo://app?vid=edd22d2f-606d-4041-92d2-f6cb44804090"},"vehicle_type_id":"4","last_reported":1726481421,"current_range_meters":33200,"station_id":"ce4bgjp2rcd13ifvqbh0","pricing_plan_id":"cebpf4jnsgd1na2vs0mg"},{"bike_id":"ee96fd0b-2e8e-46a7-9a56-213f944d9ccc","system_id":"levelo_inurba_marseille","lat":43.32485,"lon":5.36557,"is_reserved":false,"is_disabled":false,"rental_uris":{"android":"levelo://app?vid=ee96fd0b-2e8e-46a7-9a56-213f944d9ccc","ios":"levelo://app?vid=ee96fd0b-2e8e-46a7-9a56-213f944d9ccc"},"vehicle_type_id":"4","last_reported":1726481421,"current_range_meters":32400,"station_id":"ce4bhs12rcd13ifvqhvg","pricing_plan_id":"cebpf4jnsgd1na2vs0mg"},{"bike_id":"354ca7f6-13a5-4117-9386-dbeabc33ce1c","system_id":"levelo_inurba_marseille","lat":43.27492,"lon":5.42455,"is_reserved":false,"is_disabled":false,"rental_uris":{"android":"levelo://app?vid=354ca7f6-13a5-4117-9386-dbeabc33ce1c","ios":"levelo://app?vid=354ca7f6-13a5-4117-9386-dbeabc33ce1c"},"vehicle_type_id":"4","last_reported":1726481421,"current_range_meters":30000,"station_id":"ce4bhn92rcd13ifvqgrg","pricing_plan_id":"cebpf4jnsgd1na2vs0mg"},{"bike_id":"5285d2df-1f0b-4a35-adc6-52bb5776e621","system_id":"levelo_inurba_marseille","lat":43.23184,"lon":5.39984,"is_reserved":false,"is_disabled":false,"rental_uris":{"android":"levelo://app?vid=5285d2df-1f0b-4a35-adc6-52bb5776e621","ios":"levelo://app?vid=5285d2df-1f0b-4a35-adc6-52bb5776e621"},"vehicle_type_id":"4","last_reported":1726481421,"current_range_meters":4400,"station_id":"ce4bhn12rcd13ifvqgqg","pricing_plan_id":"cebpf4jnsgd1na2vs0mg"},{"bike_id":"df11da50-b99c-4f8c-bd98-691bbf900c4f","system_id":"levelo_inurba_marseille","lat":43.29301,"lon":5.37453,"is_reserved":false,"is_disabled":false,"rental_uris":{"android":"levelo://app?vid=df11da50-b99c-4f8c-bd98-691bbf900c4f","ios":"levelo://app?vid=df11da50-b99c-4f8c-bd98-691bbf900c4f"},"vehicle_type_id":"4","last_reported":1726481421,"current_range_meters":36800,"station_id":"ce4bgi12rcd13ifvqb70","pricing_plan_id":"cebpf4jnsgd1na2vs0mg"},{"bike_id":"22f26e89-4ccd-47af-bb30-5f037502847c","system_id":"levelo_inurba_marseille","lat":43.23192,"lon":5.39991,"is_reserved":false,"is_disabled":false,"rental_uris":{"android":"levelo://app?vid=22f26e89-4ccd-47af-bb30-5f037502847c","ios":"levelo://app?vid=22f26e89-4ccd-47af-bb30-5f037502847c"},"vehicle_type_id":"4","last_reported":1726481421,"current_range_meters":34000,"station_id":"ce4bhn12rcd13ifvqgqg","pricing_plan_id":"cebpf4jnsgd1na2vs0mg"},{"bike_id":"07a83925-dfef-4b2a-93ed-dfa02e7819ee","system_id":"levelo_inurba_marseille","lat":43.34142,"lon":5.40898,"is_reserved":false,"is_disabled":false,"rental_uris":{"android":"levelo://app?vid=07a83925-dfef-4b2a-93ed-dfa02e7819ee","ios":"levelo://app?vid=07a83925-dfef-4b2a-93ed-dfa02e7819ee"},"vehicle_type_id":"4","last_reported":1726481421,"current_range_meters":28400,"station_id":"ce4bhqh2rcd13ifvqhlg","pricing_plan_id":"cebpf4jnsgd1na2vs0mg"},{"bike_id":"e15c09b7-21db-463f-a4ea-2ac081cf0d97","system_id":"levelo_inurba_marseille","lat":43.30595,"lon":5.37214,"is_reserved":false,"is_disabled":false,"rental_uris":{"android":"levelo://app?vid=e15c09b7-21db-463f-a4ea-2ac081cf0d97","ios":"levelo://app?vid=e15c09b7-21db-463f-a4ea-2ac081cf0d97"},"vehicle_type_id":"4","last_reported":1726481421,"current_range_meters":38400,"station_id":"ce4bgqh2rcd13ifvqc4g","pricing_plan_id":"cebpf4jnsgd1na2vs0mg"},{"bike_id":"b3628e93-2abd-4717-8c63-6e885b078e62","system_id":"levelo_inurba_marseille","lat":43.25831,"lon":5.39424,"is_reserved":false,"is_disabled":false,"rental_uris":{"android":"levelo://app?vid=b3628e93-2abd-4717-8c63-6e885b078e62","ios":"levelo://app?vid=b3628e93-2abd-4717-8c63-6e885b078e62"},"vehicle_type_id":"4","last_reported":1726481421,"current_range_meters":4800,"station_id":"ce4bhip2rcd13ifvqft0","pricing_plan_id":"cebpf4jnsgd1na2vs0mg"},{"bike_id":"63ec927a-7edb-4450-979e-7eff0d2d1fc3","system_id":"levelo_inurba_marseille","lat":43.3117,"lon":5.38716,"is_reserved":false,"is_disabled":false,"rental_uris":{"android":"levelo://app?vid=63ec927a-7edb-4450-979e-7eff0d2d1fc3","ios":"levelo://app?vid=63ec927a-7edb-4450-979e-7eff0d2d1fc3"},"vehicle_type_id":"4","last_reported":1726481421,"current_range_meters":30000,"station_id":"ce4bgv12rcd13ifvqcp0","pricing_plan_id":"cebpf4jnsgd1na2vs0mg"},{"bike_id":"d058256b-c6a8-498a-bee5-fce4ff6caee2","system_id":"levelo_inurba_marseille","lat":43.26945,"lon":5.40247,"is_reserved":false,"is_disabled":false,"rental_uris":{"android":"levelo://app?vid=d058256b-c6a8-498a-bee5-fce4ff6caee2","ios":"levelo://app?vid=d058256b-c6a8-498a-bee5-fce4ff6caee2"},"vehicle_type_id":"4","last_reported":1726481421,"current_range_meters":38800,"station_id":"cjm6bp8fraef2m0cb0m0","pricing_plan_id":"cebpf4jnsgd1na2vs0mg"},{"bike_id":"65eecb51-7024-4f30-af20-d65f809bce2b","system_id":"levelo_inurba_marseille","lat":43.31564,"lon":5.39259,"is_reserved":false,"is_disabled":false,"rental_uris":{"android":"levelo://app?vid=65eecb51-7024-4f30-af20-d65f809bce2b","ios":"levelo://app?vid=65eecb51-7024-4f30-af20-d65f809bce2b"},"vehicle_type_id":"4","last_reported":1726481421,"current_range_meters":14400,"station_id":"ce4bgvp2rcd13ifvqcu0","pricing_plan_id":"cebpf4jnsgd1na2vs0mg"},{"bike_id":"b28254a1-b5b2-4759-9ce2-71dcbb460406","system_id":"levelo_inurba_marseille","lat":43.29307,"lon":5.37178,"is_reserved":false,"is_disabled":false,"rental_uris":{"android":"levelo://app?vid=b28254a1-b5b2-4759-9ce2-71dcbb460406","ios":"levelo://app?vid=b28254a1-b5b2-4759-9ce2-71dcbb460406"},"vehicle_type_id":"4","last_reported":1726481421,"current_range_meters":12800,"station_id":"ce4bgh92rcd13ifvqb40","pricing_plan_id":"cebpf4jnsgd1na2vs0mg"},{"bike_id":"d13330bb-66ab-42c4-9101-22a542a335d2","system_id":"levelo_inurba_marseille","lat":43.26682,"lon":5.38267,"is_reserved":false,"is_disabled":false,"rental_uris":{"android":"levelo://app?vid=d13330bb-66ab-42c4-9101-22a542a335d2","ios":"levelo://app?vid=d13330bb-66ab-42c4-9101-22a542a335d2"},"vehicle_type_id":"4","last_reported":1726481421,"current_range_meters":40000,"station_id":"ce4bhg92rcd13ifvqf90","pricing_plan_id":"cebpf4jnsgd1na2vs0mg"},{"bike_id":"50deafc8-acbf-4a9d-b8f2-72d17760fdf0","system_id":"levelo_inurba_marseille","lat":43.27497,"lon":5.42451,"is_reserved":false,"is_disabled":false,"rental_uris":{"android":"levelo://app?vid=50deafc8-acbf-4a9d-b8f2-72d17760fdf0","ios":"levelo://app?vid=50deafc8-acbf-4a9d-b8f2-72d17760fdf0"},"vehicle_type_id":"4","last_reported":1726481421,"current_range_meters":8000,"station_id":"ce4bhn92rcd13ifvqgrg","pricing_plan_id":"cebpf4jnsgd1na2vs0mg"},{"bike_id":"d1f38fcd-be46-4877-a9ac-34b365272c30","system_id":"levelo_inurba_marseille","lat":43.27099,"lon":5.43323,"is_reserved":false,"is_disabled":false,"rental_uris":{"android":"levelo://app?vid=d1f38fcd-be46-4877-a9ac-34b365272c30","ios":"levelo://app?vid=d1f38fcd-be46-4877-a9ac-34b365272c30"},"vehicle_type_id":"4","last_reported":1726481421,"current_range_meters":9600,"station_id":"","pricing_plan_id":"cebpf4jnsgd1na2vs0mg"},{"bike_id":"d85e24f9-62ed-4f5e-abf7-0247e2bc476b","system_id":"levelo_inurba_marseille","lat":43.29556,"lon":5.42291,"is_reserved":false,"is_disabled":false,"rental_uris":{"android":"levelo://app?vid=d85e24f9-62ed-4f5e-abf7-0247e2bc476b","ios":"levelo://app?vid=d85e24f9-62ed-4f5e-abf7-0247e2bc476b"},"vehicle_type_id":"4","last_reported":1726481421,"current_range_meters":40000,"station_id":"ce4bhph2rcd13ifvqhdg","pricing_plan_id":"cebpf4jnsgd1na2vs0mg"},{"bike_id":"96ef3adc-6ee5-4587-b78f-80623095eaf0","system_id":"levelo_inurba_marseille","lat":43.299683,"lon":5.384897,"is_reserved":false,"is_disabled":false,"rental_uris":{"android":"levelo://app?vid=96ef3adc-6ee5-4587-b78f-80623095eaf0","ios":"levelo://app?vid=96ef3adc-6ee5-4587-b78f-80623095eaf0"},"vehicle_type_id":"4","last_reported":1726481421,"current_range_meters":26800,"station_id":"ce4bgj92rcd13ifvqbd0","pricing_plan_id":"cebpf4jnsgd1na2vs0mg"},{"bike_id":"77be640b-ac4b-4617-be22-5763d79d29be","system_id":"levelo_inurba_marseille","lat":43.32481,"lon":5.36552,"is_reserved":false,"is_disabled":false,"rental_uris":{"android":"levelo://app?vid=77be640b-ac4b-4617-be22-5763d79d29be","ios":"levelo://app?vid=77be640b-ac4b-4617-be22-5763d79d29be"},"vehicle_type_id":"4","last_reported":1726481421,"current_range_meters":28400,"station_id":"ce4bhs12rcd13ifvqhvg","pricing_plan_id":"cebpf4jnsgd1na2vs0mg"},{"bike_id":"ffa0bca7-a695-45dc-9863-903daf3f7379","system_id":"levelo_inurba_marseille","lat":43.284271,"lon":5.349927,"is_reserved":false,"is_disabled":false,"rental_uris":{"android":"levelo://app?vid=ffa0bca7-a695-45dc-9863-903daf3f7379","ios":"levelo://app?vid=ffa0bca7-a695-45dc-9863-903daf3f7379"},"vehicle_type_id":"4","last_reported":1726481421,"current_range_meters":10000,"station_id":"ce4bhbh2rcd13ifvqepg","pricing_plan_id":"cebpf4jnsgd1na2vs0mg"},{"bike_id":"321f0a0d-0768-4872-96e0-43ddba979ecf","system_id":"levelo_inurba_marseille","lat":43.27494,"lon":5.42445,"is_reserved":false,"is_disabled":false,"rental_uris":{"android":"levelo://app?vid=321f0a0d-0768-4872-96e0-43ddba979ecf","ios":"levelo://app?vid=321f0a0d-0768-4872-96e0-43ddba979ecf"},"vehicle_type_id":"4","last_reported":1726481421,"current_range_meters":30400,"station_id":"ce4bhn92rcd13ifvqgrg","pricing_plan_id":"cebpf4jnsgd1na2vs0mg"},{"bike_id":"27374e0c-ceef-4b28-ae67-ff8661e01535","system_id":"levelo_inurba_marseille","lat":43.30464,"lon":5.37905,"is_reserved":false,"is_disabled":false,"rental_uris":{"android":"levelo://app?vid=27374e0c-ceef-4b28-ae67-ff8661e01535","ios":"levelo://app?vid=27374e0c-ceef-4b28-ae67-ff8661e01535"},"vehicle_type_id":"4","last_reported":1726481421,"current_range_meters":38800,"station_id":"ce4bgup2rcd13ifvqcn0","pricing_plan_id":"cebpf4jnsgd1na2vs0mg"},{"bike_id":"6da566a6-1c56-4830-ad07-012b26ffeade","system_id":"levelo_inurba_marseille","lat":43.32489,"lon":5.36557,"is_reserved":false,"is_disabled":false,"rental_uris":{"android":"levelo://app?vid=6da566a6-1c56-4830-ad07-012b26ffeade","ios":"levelo://app?vid=6da566a6-1c56-4830-ad07-012b26ffeade"},"vehicle_type_id":"4","last_reported":1726481421,"current_range_meters":37600,"station_id":"ce4bhs12rcd13ifvqhvg","pricing_plan_id":"cebpf4jnsgd1na2vs0mg"},{"bike_id":"5ce3c22b-1a1d-4f74-98d5-ad1712c6cc8c","system_id":"levelo_inurba_marseille","lat":43.3055,"lon":5.36708,"is_reserved":false,"is_disabled":false,"rental_uris":{"android":"levelo://app?vid=5ce3c22b-1a1d-4f74-98d5-ad1712c6cc8c","ios":"levelo://app?vid=5ce3c22b-1a1d-4f74-98d5-ad1712c6cc8c"},"vehicle_type_id":"4","last_reported":1726481421,"current_range_meters":36000,"station_id":"ce4bgrp2rcd13ifvqc9g","pricing_plan_id":"cebpf4jnsgd1na2vs0mg"},{"bike_id":"d0cba4e5-923d-4e2f-81dc-62b37cf1cfeb","system_id":"levelo_inurba_marseille","lat":43.30529,"lon":5.38439,"is_reserved":false,"is_disabled":false,"rental_uris":{"android":"levelo://app?vid=d0cba4e5-923d-4e2f-81dc-62b37cf1cfeb","ios":"levelo://app?vid=d0cba4e5-923d-4e2f-81dc-62b37cf1cfeb"},"vehicle_type_id":"4","last_reported":1726481421,"current_range_meters":38800,"station_id":"ce4bgg92rcd13ifvqb30","pricing_plan_id":"cebpf4jnsgd1na2vs0mg"},{"bike_id":"2e95b63c-f6e4-4c4e-808c-eb3614b140b9","system_id":"levelo_inurba_marseille","lat":43.2757,"lon":5.38427,"is_reserved":false,"is_disabled":false,"rental_uris":{"android":"levelo://app?vid=2e95b63c-f6e4-4c4e-808c-eb3614b140b9","ios":"levelo://app?vid=2e95b63c-f6e4-4c4e-808c-eb3614b140b9"},"vehicle_type_id":"4","last_reported":1726481421,"current_range_meters":30000,"station_id":"ce4bhh92rcd13ifvqfi0","pricing_plan_id":"cebpf4jnsgd1na2vs0mg"},{"bike_id":"92fe58d9-5f32-4753-a301-792276ec3d1b","system_id":"levelo_inurba_marseille","lat":43.27326,"lon":5.39071,"is_reserved":false,"is_disabled":false,"rental_uris":{"android":"levelo://app?vid=92fe58d9-5f32-4753-a301-792276ec3d1b","ios":"levelo://app?vid=92fe58d9-5f32-4753-a301-792276ec3d1b"},"vehicle_type_id":"4","last_reported":1726481421,"current_range_meters":20000,"station_id":"ce4bhgp2rcd13ifvqfe0","pricing_plan_id":"cebpf4jnsgd1na2vs0mg"},{"bike_id":"d919000c-5aae-4fe3-9444-cda057a56741","system_id":"levelo_inurba_marseille","lat":43.30142,"lon":5.37415,"is_reserved":false,"is_disabled":false,"rental_uris":{"android":"levelo://app?vid=d919000c-5aae-4fe3-9444-cda057a56741","ios":"levelo://app?vid=d919000c-5aae-4fe3-9444-cda057a56741"},"vehicle_type_id":"4","last_reported":1726481421,"current_range_meters":39200,"station_id":"ce4bgs92rcd13ifvqcc0","pricing_plan_id":"cebpf4jnsgd1na2vs0mg"},{"bike_id":"4d7677ab-d948-4854-92d7-3cbb0e5f0a7e","system_id":"levelo_inurba_marseille","lat":43.31491,"lon":5.37296,"is_reserved":false,"is_disabled":false,"rental_uris":{"android":"levelo://app?vid=4d7677ab-d948-4854-92d7-3cbb0e5f0a7e","ios":"levelo://app?vid=4d7677ab-d948-4854-92d7-3cbb0e5f0a7e"},"vehicle_type_id":"4","last_reported":1726481421,"current_range_meters":33200,"station_id":"ce4bgt12rcd13ifvqcd0","pricing_plan_id":"cebpf4jnsgd1na2vs0mg"},{"bike_id":"99962020-3a4b-415f-a2da-0facbf85be35","system_id":"levelo_inurba_marseille","lat":43.3028,"lon":5.37698,"is_reserved":false,"is_disabled":false,"rental_uris":{"android":"levelo://app?vid=99962020-3a4b-415f-a2da-0facbf85be35","ios":"levelo://app?vid=99962020-3a4b-415f-a2da-0facbf85be35"},"vehicle_type_id":"4","last_reported":1726481421,"current_range_meters":40000,"station_id":"ce4bguh2rcd13ifvqcj0","pricing_plan_id":"cebpf4jnsgd1na2vs0mg"},{"bike_id":"84fb6fdc-a5a6-442f-8771-6079a3b1d051","system_id":"levelo_inurba_marseille","lat":43.31226,"lon":5.36865,"is_reserved":false,"is_disabled":false,"rental_uris":{"android":"levelo://app?vid=84fb6fdc-a5a6-442f-8771-6079a3b1d051","ios":"levelo://app?vid=84fb6fdc-a5a6-442f-8771-6079a3b1d051"},"vehicle_type_id":"4","last_reported":1726481421,"current_range_meters":37600,"station_id":"ce4bgl92rcd13ifvqbq0","pricing_plan_id":"cebpf4jnsgd1na2vs0mg"},{"bike_id":"e21f14a0-02e4-481d-b5ef-9b58a6f3b489","system_id":"levelo_inurba_marseille","lat":43.26946,"lon":5.40237,"is_reserved":false,"is_disabled":false,"rental_uris":{"android":"levelo://app?vid=e21f14a0-02e4-481d-b5ef-9b58a6f3b489","ios":"levelo://app?vid=e21f14a0-02e4-481d-b5ef-9b58a6f3b489"},"vehicle_type_id":"4","last_reported":1726481421,"current_range_meters":33600,"station_id":"cjm6bp8fraef2m0cb0m0","pricing_plan_id":"cebpf4jnsgd1na2vs0mg"},{"bike_id":"1b13e298-33ce-4df4-a152-931bb02aeebf","system_id":"levelo_inurba_marseille","lat":43.28153,"lon":5.42642,"is_reserved":false,"is_disabled":false,"rental_uris":{"android":"levelo://app?vid=1b13e298-33ce-4df4-a152-931bb02aeebf","ios":"levelo://app?vid=1b13e298-33ce-4df4-a152-931bb02aeebf"},"vehicle_type_id":"4","last_reported":1726481421,"current_range_meters":36000,"station_id":"ce4bhnh2rcd13ifvqgug","pricing_plan_id":"cebpf4jnsgd1na2vs0mg"},{"bike_id":"103368f7-6cf9-4f61-a9f7-0e638a4ed99a","system_id":"levelo_inurba_marseille","lat":43.24082,"lon":5.37749,"is_reserved":false,"is_disabled":false,"rental_uris":{"android":"levelo://app?vid=103368f7-6cf9-4f61-a9f7-0e638a4ed99a","ios":"levelo://app?vid=103368f7-6cf9-4f61-a9f7-0e638a4ed99a"},"vehicle_type_id":"4","last_reported":1726481421,"current_range_meters":8400,"station_id":"ce4bhnp2rcd13ifvqgvg","pricing_plan_id":"cebpf4jnsgd1na2vs0mg"},{"bike_id":"41283430-d170-46e6-8f08-6b2e80e904af","system_id":"levelo_inurba_marseille","lat":43.30141,"lon":5.37414,"is_reserved":false,"is_disabled":false,"rental_uris":{"android":"levelo://app?vid=41283430-d170-46e6-8f08-6b2e80e904af","ios":"levelo://app?vid=41283430-d170-46e6-8f08-6b2e80e904af"},"vehicle_type_id":"4","last_reported":1726481421,"current_range_meters":32000,"station_id":"ce4bgs92rcd13ifvqcc0","pricing_plan_id":"cebpf4jnsgd1na2vs0mg"},{"bike_id":"af78b383-cb47-4a8e-8a00-34ed69efc3a0","system_id":"levelo_inurba_marseille","lat":43.24085,"lon":5.37738,"is_reserved":false,"is_disabled":false,"rental_uris":{"android":"levelo://app?vid=af78b383-cb47-4a8e-8a00-34ed69efc3a0","ios":"levelo://app?vid=af78b383-cb47-4a8e-8a00-34ed69efc3a0"},"vehicle_type_id":"4","last_reported":1726481421,"current_range_meters":6000,"station_id":"ce4bhnp2rcd13ifvqgvg","pricing_plan_id":"cebpf4jnsgd1na2vs0mg"},{"bike_id":"5d94b788-aaf5-410f-bcfa-96d5169eb438","system_id":"levelo_inurba_marseille","lat":43.27963,"lon":5.38717,"is_reserved":false,"is_disabled":false,"rental_uris":{"android":"levelo://app?vid=5d94b788-aaf5-410f-bcfa-96d5169eb438","ios":"levelo://app?vid=5d94b788-aaf5-410f-bcfa-96d5169eb438"},"vehicle_type_id":"4","last_reported":1726481421,"current_range_meters":29600,"station_id":"ce4bhg12rcd13ifvqf80","pricing_plan_id":"cebpf4jnsgd1na2vs0mg"},{"bike_id":"ff4410f1-5fcd-4fb0-82c3-382d6d9363f9","system_id":"levelo_inurba_marseille","lat":43.30545,"lon":5.36704,"is_reserved":false,"is_disabled":false,"rental_uris":{"android":"levelo://app?vid=ff4410f1-5fcd-4fb0-82c3-382d6d9363f9","ios":"levelo://app?vid=ff4410f1-5fcd-4fb0-82c3-382d6d9363f9"},"vehicle_type_id":"4","last_reported":1726481421,"current_range_meters":32400,"station_id":"ce4bgrp2rcd13ifvqc9g","pricing_plan_id":"cebpf4jnsgd1na2vs0mg"},{"bike_id":"7758b122-c29a-4bdb-a429-9118e104c01c","system_id":"levelo_inurba_marseille","lat":43.29159,"lon":5.3716,"is_reserved":false,"is_disabled":false,"rental_uris":{"android":"levelo://app?vid=7758b122-c29a-4bdb-a429-9118e104c01c","ios":"levelo://app?vid=7758b122-c29a-4bdb-a429-9118e104c01c"},"vehicle_type_id":"4","last_reported":1726481421,"current_range_meters":35600,"station_id":"ce4bha92rcd13ifvqeh0","pricing_plan_id":"cebpf4jnsgd1na2vs0mg"},{"bike_id":"1f20d363-ac8c-4035-8c22-af42f7854411","system_id":"levelo_inurba_marseille","lat":43.30802,"lon":5.43512,"is_reserved":false,"is_disabled":false,"rental_uris":{"android":"levelo://app?vid=1f20d363-ac8c-4035-8c22-af42f7854411","ios":"levelo://app?vid=1f20d363-ac8c-4035-8c22-af42f7854411"},"vehicle_type_id":"4","last_reported":1726481421,"current_range_meters":8800,"station_id":"ce4bhph2rcd13ifvqheg","pricing_plan_id":"cebpf4jnsgd1na2vs0mg"},{"bike_id":"5897d7f3-bccb-4c20-b95a-a44cd028be89","system_id":"levelo_inurba_marseille","lat":43.29274,"lon":5.36837,"is_reserved":false,"is_disabled":false,"rental_uris":{"android":"levelo://app?vid=5897d7f3-bccb-4c20-b95a-a44cd028be89","ios":"levelo://app?vid=5897d7f3-bccb-4c20-b95a-a44cd028be89"},"vehicle_type_id":"4","last_reported":1726481421,"current_range_meters":21600,"station_id":"ce4bhbp2rcd13ifvqesg","pricing_plan_id":"cebpf4jnsgd1na2vs0mg"},{"bike_id":"328d45f9-980e-4811-97c0-47d761861509","system_id":"levelo_inurba_marseille","lat":43.29847,"lon":5.37836,"is_reserved":false,"is_disabled":false,"rental_uris":{"android":"levelo://app?vid=328d45f9-980e-4811-97c0-47d761861509","ios":"levelo://app?vid=328d45f9-980e-4811-97c0-47d761861509"},"vehicle_type_id":"4","last_reported":1726481421,"current_range_meters":24000,"station_id":"ce4bgkh2rcd13ifvqbl0","pricing_plan_id":"cebpf4jnsgd1na2vs0mg"},{"bike_id":"10399322-7fd7-4e34-9cce-2cfec2725ae5","system_id":"levelo_inurba_marseille","lat":43.2678,"lon":5.3942,"is_reserved":false,"is_disabled":false,"rental_uris":{"android":"levelo://app?vid=10399322-7fd7-4e34-9cce-2cfec2725ae5","ios":"levelo://app?vid=10399322-7fd7-4e34-9cce-2cfec2725ae5"},"vehicle_type_id":"4","last_reported":1726481421,"current_range_meters":39200,"station_id":"ce4bhh12rcd13ifvqfg0","pricing_plan_id":"cebpf4jnsgd1na2vs0mg"},{"bike_id":"b69f412d-e19c-4926-bfa7-1fa999c092b9","system_id":"levelo_inurba_marseille","lat":43.31497,"lon":5.37301,"is_reserved":false,"is_disabled":false,"rental_uris":{"android":"levelo://app?vid=b69f412d-e19c-4926-bfa7-1fa999c092b9","ios":"levelo://app?vid=b69f412d-e19c-4926-bfa7-1fa999c092b9"},"vehicle_type_id":"4","last_reported":1726481421,"current_range_meters":2000,"station_id":"ce4bgt12rcd13ifvqcd0","pricing_plan_id":"cebpf4jnsgd1na2vs0mg"},{"bike_id":"faf816e6-4e87-4e93-88d4-5861eae33b5c","system_id":"levelo_inurba_marseille","lat":43.24083,"lon":5.37749,"is_reserved":false,"is_disabled":false,"rental_uris":{"android":"levelo://app?vid=faf816e6-4e87-4e93-88d4-5861eae33b5c","ios":"levelo://app?vid=faf816e6-4e87-4e93-88d4-5861eae33b5c"},"vehicle_type_id":"4","last_reported":1726481421,"current_range_meters":20800,"station_id":"ce4bhnp2rcd13ifvqgvg","pricing_plan_id":"cebpf4jnsgd1na2vs0mg"},{"bike_id":"b4d55126-4b9a-40a5-9903-93af679281e3","system_id":"levelo_inurba_marseille","lat":43.31891,"lon":5.40727,"is_reserved":false,"is_disabled":false,"rental_uris":{"android":"levelo://app?vid=b4d55126-4b9a-40a5-9903-93af679281e3","ios":"levelo://app?vid=b4d55126-4b9a-40a5-9903-93af679281e3"},"vehicle_type_id":"4","last_reported":1726481421,"current_range_meters":8400,"station_id":"ce4bhq12rcd13ifvqhig","pricing_plan_id":"cebpf4jnsgd1na2vs0mg"},{"bike_id":"d1bc1a92-c34f-45bd-b470-2fca788491ee","system_id":"levelo_inurba_marseille","lat":43.32481,"lon":5.36576,"is_reserved":false,"is_disabled":false,"rental_uris":{"android":"levelo://app?vid=d1bc1a92-c34f-45bd-b470-2fca788491ee","ios":"levelo://app?vid=d1bc1a92-c34f-45bd-b470-2fca788491ee"},"vehicle_type_id":"4","last_reported":1726481421,"current_range_meters":38000,"station_id":"ce4bhs12rcd13ifvqhvg","pricing_plan_id":"cebpf4jnsgd1na2vs0mg"},{"bike_id":"c75fb7b8-7d22-44c9-a117-59af420d07bf","system_id":"levelo_inurba_marseille","lat":43.29169,"lon":5.37152,"is_reserved":false,"is_disabled":false,"rental_uris":{"android":"levelo://app?vid=c75fb7b8-7d22-44c9-a117-59af420d07bf","ios":"levelo://app?vid=c75fb7b8-7d22-44c9-a117-59af420d07bf"},"vehicle_type_id":"4","last_reported":1726481421,"current_range_meters":32000,"station_id":"ce4bha92rcd13ifvqeh0","pricing_plan_id":"cebpf4jnsgd1na2vs0mg"},{"bike_id":"009c7e0a-a052-421a-8cf8-bac7ad9b461e","system_id":"levelo_inurba_marseille","lat":43.26684,"lon":5.38268,"is_reserved":false,"is_disabled":false,"rental_uris":{"android":"levelo://app?vid=009c7e0a-a052-421a-8cf8-bac7ad9b461e","ios":"levelo://app?vid=009c7e0a-a052-421a-8cf8-bac7ad9b461e"},"vehicle_type_id":"4","last_reported":1726481421,"current_range_meters":31200,"station_id":"ce4bhg92rcd13ifvqf90","pricing_plan_id":"cebpf4jnsgd1na2vs0mg"},{"bike_id":"81323ac1-e4dc-48f7-b9e1-b6840ca56e89","system_id":"levelo_inurba_marseille","lat":43.32534,"lon":5.41438,"is_reserved":false,"is_disabled":false,"rental_uris":{"android":"levelo://app?vid=81323ac1-e4dc-48f7-b9e1-b6840ca56e89","ios":"levelo://app?vid=81323ac1-e4dc-48f7-b9e1-b6840ca56e89"},"vehicle_type_id":"4","last_reported":1726481421,"current_range_meters":38800,"station_id":"ce4bhq12rcd13ifvqhhg","pricing_plan_id":"cebpf4jnsgd1na2vs0mg"},{"bike_id":"8b608b96-fedf-4511-8d4b-09bad2606e1a","system_id":"levelo_inurba_marseille","lat":43.27728,"lon":5.41129,"is_reserved":false,"is_disabled":false,"rental_uris":{"android":"levelo://app?vid=8b608b96-fedf-4511-8d4b-09bad2606e1a","ios":"levelo://app?vid=8b608b96-fedf-4511-8d4b-09bad2606e1a"},"vehicle_type_id":"4","last_reported":1726481421,"current_range_meters":16400,"station_id":"","pricing_plan_id":"cebpf4jnsgd1na2vs0mg"},{"bike_id":"d687a8dc-c1c6-418b-a078-1f315f5fdb26","system_id":"levelo_inurba_marseille","lat":43.32486,"lon":5.36573,"is_reserved":false,"is_disabled":false,"rental_uris":{"android":"levelo://app?vid=d687a8dc-c1c6-418b-a078-1f315f5fdb26","ios":"levelo://app?vid=d687a8dc-c1c6-418b-a078-1f315f5fdb26"},"vehicle_type_id":"4","last_reported":1726481421,"current_range_meters":23200,"station_id":"ce4bhs12rcd13ifvqhvg","pricing_plan_id":"cebpf4jnsgd1na2vs0mg"},{"bike_id":"557f94c9-08c3-4971-8fa6-543c3d081224","system_id":"levelo_inurba_marseille","lat":43.33608,"lon":5.41019,"is_reserved":false,"is_disabled":false,"rental_uris":{"android":"levelo://app?vid=557f94c9-08c3-4971-8fa6-543c3d081224","ios":"levelo://app?vid=557f94c9-08c3-4971-8fa6-543c3d081224"},"vehicle_type_id":"4","last_reported":1726481421,"current_range_meters":30000,"station_id":"ce4bhqh2rcd13ifvqhmg","pricing_plan_id":"cebpf4jnsgd1na2vs0mg"},{"bike_id":"a2fd0c64-07bc-42c3-a3ac-8df20381dd15","system_id":"levelo_inurba_marseille","lat":43.29799,"lon":5.40399,"is_reserved":false,"is_disabled":false,"rental_uris":{"android":"levelo://app?vid=a2fd0c64-07bc-42c3-a3ac-8df20381dd15","ios":"levelo://app?vid=a2fd0c64-07bc-42c3-a3ac-8df20381dd15"},"vehicle_type_id":"4","last_reported":1726481421,"current_range_meters":29600,"station_id":"ce4bh112rcd13ifvqd90","pricing_plan_id":"cebpf4jnsgd1na2vs0mg"},{"bike_id":"ab2d7128-9deb-4bb0-9706-8b564c1875c2","system_id":"levelo_inurba_marseille","lat":43.24078,"lon":5.37734,"is_reserved":false,"is_disabled":false,"rental_uris":{"android":"levelo://app?vid=ab2d7128-9deb-4bb0-9706-8b564c1875c2","ios":"levelo://app?vid=ab2d7128-9deb-4bb0-9706-8b564c1875c2"},"vehicle_type_id":"4","last_reported":1726481421,"current_range_meters":14000,"station_id":"ce4bhnp2rcd13ifvqgvg","pricing_plan_id":"cebpf4jnsgd1na2vs0mg"},{"bike_id":"fa2b0a9f-66ad-4cd1-b7bb-93b9cffdc904","system_id":"levelo_inurba_marseille","lat":43.25934,"lon":5.40916,"is_reserved":false,"is_disabled":false,"rental_uris":{"android":"levelo://app?vid=fa2b0a9f-66ad-4cd1-b7bb-93b9cffdc904","ios":"levelo://app?vid=fa2b0a9f-66ad-4cd1-b7bb-93b9cffdc904"},"vehicle_type_id":"4","last_reported":1726481421,"current_range_meters":28000,"station_id":"ce4bhm92rcd13ifvqglg","pricing_plan_id":"cebpf4jnsgd1na2vs0mg"},{"bike_id":"0765e549-6483-41b2-9c4f-508c91efaba8","system_id":"levelo_inurba_marseille","lat":43.30474,"lon":5.37899,"is_reserved":false,"is_disabled":false,"rental_uris":{"android":"levelo://app?vid=0765e549-6483-41b2-9c4f-508c91efaba8","ios":"levelo://app?vid=0765e549-6483-41b2-9c4f-508c91efaba8"},"vehicle_type_id":"4","last_reported":1726481421,"current_range_meters":31200,"station_id":"ce4bgup2rcd13ifvqcn0","pricing_plan_id":"cebpf4jnsgd1na2vs0mg"},{"bike_id":"28c6d943-5531-4458-8f95-af9087750f51","system_id":"levelo_inurba_marseille","lat":43.3055,"lon":5.36713,"is_reserved":false,"is_disabled":false,"rental_uris":{"android":"levelo://app?vid=28c6d943-5531-4458-8f95-af9087750f51","ios":"levelo://app?vid=28c6d943-5531-4458-8f95-af9087750f51"},"vehicle_type_id":"4","last_reported":1726481421,"current_range_meters":38800,"station_id":"ce4bgrp2rcd13ifvqc9g","pricing_plan_id":"cebpf4jnsgd1na2vs0mg"},{"bike_id":"83786ab0-7887-403d-b694-e6becc9a1311","system_id":"levelo_inurba_marseille","lat":43.29781,"lon":5.37101,"is_reserved":false,"is_disabled":false,"rental_uris":{"android":"levelo://app?vid=83786ab0-7887-403d-b694-e6becc9a1311","ios":"levelo://app?vid=83786ab0-7887-403d-b694-e6becc9a1311"},"vehicle_type_id":"4","last_reported":1726481421,"current_range_meters":17200,"station_id":"ce4bgop2rcd13ifvqc1g","pricing_plan_id":"cebpf4jnsgd1na2vs0mg"},{"bike_id":"d2ca61ed-07b0-4f91-990e-b98a38e76d1b","system_id":"levelo_inurba_marseille","lat":43.24076,"lon":5.37752,"is_reserved":false,"is_disabled":false,"rental_uris":{"android":"levelo://app?vid=d2ca61ed-07b0-4f91-990e-b98a38e76d1b","ios":"levelo://app?vid=d2ca61ed-07b0-4f91-990e-b98a38e76d1b"},"vehicle_type_id":"4","last_reported":1726481421,"current_range_meters":8000,"station_id":"ce4bhnp2rcd13ifvqgvg","pricing_plan_id":"cebpf4jnsgd1na2vs0mg"},{"bike_id":"05676a45-5ad0-47a1-bce0-8e23f33b2fbd","system_id":"levelo_inurba_marseille","lat":43.25944,"lon":5.40901,"is_reserved":false,"is_disabled":false,"rental_uris":{"android":"levelo://app?vid=05676a45-5ad0-47a1-bce0-8e23f33b2fbd","ios":"levelo://app?vid=05676a45-5ad0-47a1-bce0-8e23f33b2fbd"},"vehicle_type_id":"4","last_reported":1726481421,"current_range_meters":22000,"station_id":"ce4bhm92rcd13ifvqglg","pricing_plan_id":"cebpf4jnsgd1na2vs0mg"},{"bike_id":"16e184b7-d508-4121-ac72-78d5cec086fe","system_id":"levelo_inurba_marseille","lat":43.30135,"lon":5.37416,"is_reserved":false,"is_disabled":false,"rental_uris":{"android":"levelo://app?vid=16e184b7-d508-4121-ac72-78d5cec086fe","ios":"levelo://app?vid=16e184b7-d508-4121-ac72-78d5cec086fe"},"vehicle_type_id":"4","last_reported":1726481421,"current_range_meters":24400,"station_id":"ce4bgs92rcd13ifvqcc0","pricing_plan_id":"cebpf4jnsgd1na2vs0mg"},{"bike_id":"8ce5a7f4-7567-41a9-933e-bdcf2ff2d630","system_id":"levelo_inurba_marseille","lat":43.2408,"lon":5.37757,"is_reserved":false,"is_disabled":false,"rental_uris":{"android":"levelo://app?vid=8ce5a7f4-7567-41a9-933e-bdcf2ff2d630","ios":"levelo://app?vid=8ce5a7f4-7567-41a9-933e-bdcf2ff2d630"},"vehicle_type_id":"4","last_reported":1726481421,"current_range_meters":16000,"station_id":"ce4bhnp2rcd13ifvqgvg","pricing_plan_id":"cebpf4jnsgd1na2vs0mg"},{"bike_id":"0a932460-bd7e-4970-858c-0213161cbde9","system_id":"levelo_inurba_marseille","lat":43.32477,"lon":5.36555,"is_reserved":false,"is_disabled":false,"rental_uris":{"android":"levelo://app?vid=0a932460-bd7e-4970-858c-0213161cbde9","ios":"levelo://app?vid=0a932460-bd7e-4970-858c-0213161cbde9"},"vehicle_type_id":"4","last_reported":1726481421,"current_range_meters":25600,"station_id":"ce4bhs12rcd13ifvqhvg","pricing_plan_id":"cebpf4jnsgd1na2vs0mg"},{"bike_id":"16f68352-a855-48ab-9ad3-5be94cc79a5d","system_id":"levelo_inurba_marseille","lat":43.27497,"lon":5.42458,"is_reserved":false,"is_disabled":false,"rental_uris":{"android":"levelo://app?vid=16f68352-a855-48ab-9ad3-5be94cc79a5d","ios":"levelo://app?vid=16f68352-a855-48ab-9ad3-5be94cc79a5d"},"vehicle_type_id":"4","last_reported":1726481421,"current_range_meters":36800,"station_id":"ce4bhn92rcd13ifvqgrg","pricing_plan_id":"cebpf4jnsgd1na2vs0mg"},{"bike_id":"2f9a56e5-f98c-4dee-a961-826375766a04","system_id":"levelo_inurba_marseille","lat":43.27974,"lon":5.38734,"is_reserved":false,"is_disabled":false,"rental_uris":{"android":"levelo://app?vid=2f9a56e5-f98c-4dee-a961-826375766a04","ios":"levelo://app?vid=2f9a56e5-f98c-4dee-a961-826375766a04"},"vehicle_type_id":"4","last_reported":1726481421,"current_range_meters":30800,"station_id":"ce4bhg12rcd13ifvqf80","pricing_plan_id":"cebpf4jnsgd1na2vs0mg"},{"bike_id":"f1e8ceee-9573-4b77-ab79-482d0d3b70cc","system_id":"levelo_inurba_marseille","lat":43.24176,"lon":5.36398,"is_reserved":false,"is_disabled":false,"rental_uris":{"android":"levelo://app?vid=f1e8ceee-9573-4b77-ab79-482d0d3b70cc","ios":"levelo://app?vid=f1e8ceee-9573-4b77-ab79-482d0d3b70cc"},"vehicle_type_id":"4","last_reported":1726481421,"current_range_meters":30400,"station_id":"cpo36qri1sfpv3e86is0","pricing_plan_id":"cebpf4jnsgd1na2vs0mg"},{"bike_id":"e61f7f48-b357-42e9-93d2-ab7ba94e01fc","system_id":"levelo_inurba_marseille","lat":43.30544,"lon":5.3671,"is_reserved":false,"is_disabled":false,"rental_uris":{"android":"levelo://app?vid=e61f7f48-b357-42e9-93d2-ab7ba94e01fc","ios":"levelo://app?vid=e61f7f48-b357-42e9-93d2-ab7ba94e01fc"},"vehicle_type_id":"4","last_reported":1726481421,"current_range_meters":28000,"station_id":"ce4bgrp2rcd13ifvqc9g","pricing_plan_id":"cebpf4jnsgd1na2vs0mg"},{"bike_id":"6cb9909e-3934-41ea-9f5a-8b569f33aa0d","system_id":"levelo_inurba_marseille","lat":43.24075,"lon":5.37764,"is_reserved":false,"is_disabled":false,"rental_uris":{"android":"levelo://app?vid=6cb9909e-3934-41ea-9f5a-8b569f33aa0d","ios":"levelo://app?vid=6cb9909e-3934-41ea-9f5a-8b569f33aa0d"},"vehicle_type_id":"4","last_reported":1726481421,"current_range_meters":9200,"station_id":"ce4bhnp2rcd13ifvqgvg","pricing_plan_id":"cebpf4jnsgd1na2vs0mg"},{"bike_id":"85ff3eac-27ba-4cd4-80f4-ffcef363e67b","system_id":"levelo_inurba_marseille","lat":43.301435,"lon":5.387601,"is_reserved":false,"is_disabled":false,"rental_uris":{"android":"levelo://app?vid=85ff3eac-27ba-4cd4-80f4-ffcef363e67b","ios":"levelo://app?vid=85ff3eac-27ba-4cd4-80f4-ffcef363e67b"},"vehicle_type_id":"4","last_reported":1726481421,"current_range_meters":27600,"station_id":"ce4bghh2rcd13ifvqb60","pricing_plan_id":"cebpf4jnsgd1na2vs0mg"},{"bike_id":"adf4f941-700f-425e-b99f-c6e9f081c463","system_id":"levelo_inurba_marseille","lat":43.30914,"lon":5.36864,"is_reserved":false,"is_disabled":false,"rental_uris":{"android":"levelo://app?vid=adf4f941-700f-425e-b99f-c6e9f081c463","ios":"levelo://app?vid=adf4f941-700f-425e-b99f-c6e9f081c463"},"vehicle_type_id":"4","last_reported":1726481421,"current_range_meters":31200,"station_id":"ce4bgn92rcd13ifvqbvg","pricing_plan_id":"cebpf4jnsgd1na2vs0mg"},{"bike_id":"be25513d-2eae-4f1f-aafe-a4730e00466a","system_id":"levelo_inurba_marseille","lat":43.28676,"lon":5.38647,"is_reserved":false,"is_disabled":false,"rental_uris":{"android":"levelo://app?vid=be25513d-2eae-4f1f-aafe-a4730e00466a","ios":"levelo://app?vid=be25513d-2eae-4f1f-aafe-a4730e00466a"},"vehicle_type_id":"4","last_reported":1726481421,"current_range_meters":33600,"station_id":"ce4bh492rcd13ifvqdug","pricing_plan_id":"cebpf4jnsgd1na2vs0mg"},{"bike_id":"90b6cbb0-c7a1-4360-b4a7-6136ea8bcf76","system_id":"levelo_inurba_marseille","lat":43.30462,"lon":5.37894,"is_reserved":false,"is_disabled":false,"rental_uris":{"android":"levelo://app?vid=90b6cbb0-c7a1-4360-b4a7-6136ea8bcf76","ios":"levelo://app?vid=90b6cbb0-c7a1-4360-b4a7-6136ea8bcf76"},"vehicle_type_id":"4","last_reported":1726481421,"current_range_meters":27200,"station_id":"ce4bgup2rcd13ifvqcn0","pricing_plan_id":"cebpf4jnsgd1na2vs0mg"},{"bike_id":"488980a2-2581-4786-a55f-6746fccab000","system_id":"levelo_inurba_marseille","lat":43.24077,"lon":5.37756,"is_reserved":false,"is_disabled":false,"rental_uris":{"android":"levelo://app?vid=488980a2-2581-4786-a55f-6746fccab000","ios":"levelo://app?vid=488980a2-2581-4786-a55f-6746fccab000"},"vehicle_type_id":"4","last_reported":1726481421,"current_range_meters":36800,"station_id":"ce4bhnp2rcd13ifvqgvg","pricing_plan_id":"cebpf4jnsgd1na2vs0mg"},{"bike_id":"a5a1bc9e-5f49-48e0-b586-c48ac293959c","system_id":"levelo_inurba_marseille","lat":43.29311,"lon":5.37448,"is_reserved":false,"is_disabled":false,"rental_uris":{"android":"levelo://app?vid=a5a1bc9e-5f49-48e0-b586-c48ac293959c","ios":"levelo://app?vid=a5a1bc9e-5f49-48e0-b586-c48ac293959c"},"vehicle_type_id":"4","last_reported":1726481421,"current_range_meters":29600,"station_id":"ce4bgi12rcd13ifvqb70","pricing_plan_id":"cebpf4jnsgd1na2vs0mg"},{"bike_id":"1a779722-d8d9-4373-9a1c-270e522fdca8","system_id":"levelo_inurba_marseille","lat":43.28378,"lon":5.38629,"is_reserved":false,"is_disabled":false,"rental_uris":{"android":"levelo://app?vid=1a779722-d8d9-4373-9a1c-270e522fdca8","ios":"levelo://app?vid=1a779722-d8d9-4373-9a1c-270e522fdca8"},"vehicle_type_id":"4","last_reported":1726481421,"current_range_meters":24000,"station_id":"ce4bh492rcd13ifvqdvg","pricing_plan_id":"cebpf4jnsgd1na2vs0mg"},{"bike_id":"279eb69e-d7ef-4d1a-9805-4aaf605f3c04","system_id":"levelo_inurba_marseille","lat":43.299634,"lon":5.385005,"is_reserved":false,"is_disabled":false,"rental_uris":{"android":"levelo://app?vid=279eb69e-d7ef-4d1a-9805-4aaf605f3c04","ios":"levelo://app?vid=279eb69e-d7ef-4d1a-9805-4aaf605f3c04"},"vehicle_type_id":"4","last_reported":1726481421,"current_range_meters":22400,"station_id":"ce4bgj92rcd13ifvqbd0","pricing_plan_id":"cebpf4jnsgd1na2vs0mg"},{"bike_id":"0e5a3bf8-e7be-4e70-aca4-d97d6e03c7dd","system_id":"levelo_inurba_marseille","lat":43.33022,"lon":5.39022,"is_reserved":false,"is_disabled":false,"rental_uris":{"android":"levelo://app?vid=0e5a3bf8-e7be-4e70-aca4-d97d6e03c7dd","ios":"levelo://app?vid=0e5a3bf8-e7be-4e70-aca4-d97d6e03c7dd"},"vehicle_type_id":"4","last_reported":1726481421,"current_range_meters":18800,"station_id":"ce4bhr92rcd13ifvqhrg","pricing_plan_id":"cebpf4jnsgd1na2vs0mg"},{"bike_id":"e3c914bb-d070-445d-94c5-2712135437fc","system_id":"levelo_inurba_marseille","lat":43.29262,"lon":5.40902,"is_reserved":false,"is_disabled":false,"rental_uris":{"android":"levelo://app?vid=e3c914bb-d070-445d-94c5-2712135437fc","ios":"levelo://app?vid=e3c914bb-d070-445d-94c5-2712135437fc"},"vehicle_type_id":"4","last_reported":1726481421,"current_range_meters":30000,"station_id":"ce4bh192rcd13ifvqdc0","pricing_plan_id":"cebpf4jnsgd1na2vs0mg"},{"bike_id":"b5ca7815-2882-4a8c-80df-2ee917e39ac6","system_id":"levelo_inurba_marseille","lat":43.27569,"lon":5.38426,"is_reserved":false,"is_disabled":false,"rental_uris":{"android":"levelo://app?vid=b5ca7815-2882-4a8c-80df-2ee917e39ac6","ios":"levelo://app?vid=b5ca7815-2882-4a8c-80df-2ee917e39ac6"},"vehicle_type_id":"4","last_reported":1726481421,"current_range_meters":30400,"station_id":"ce4bhh92rcd13ifvqfi0","pricing_plan_id":"cebpf4jnsgd1na2vs0mg"},{"bike_id":"18f36b51-838b-46f8-9ad8-33cf10e0c950","system_id":"levelo_inurba_marseille","lat":43.32479,"lon":5.3655,"is_reserved":false,"is_disabled":false,"rental_uris":{"android":"levelo://app?vid=18f36b51-838b-46f8-9ad8-33cf10e0c950","ios":"levelo://app?vid=18f36b51-838b-46f8-9ad8-33cf10e0c950"},"vehicle_type_id":"4","last_reported":1726481421,"current_range_meters":37600,"station_id":"ce4bhs12rcd13ifvqhvg","pricing_plan_id":"cebpf4jnsgd1na2vs0mg"},{"bike_id":"b10197a1-76e4-4743-93a7-139eb515f0e2","system_id":"levelo_inurba_marseille","lat":43.30112,"lon":5.38787,"is_reserved":false,"is_disabled":false,"rental_uris":{"android":"levelo://app?vid=b10197a1-76e4-4743-93a7-139eb515f0e2","ios":"levelo://app?vid=b10197a1-76e4-4743-93a7-139eb515f0e2"},"vehicle_type_id":"4","last_reported":1726481421,"current_range_meters":6400,"station_id":"ce4bghh2rcd13ifvqb60","pricing_plan_id":"cebpf4jnsgd1na2vs0mg"},{"bike_id":"9459922c-ba4c-4204-b90d-c6c411bb5c6d","system_id":"levelo_inurba_marseille","lat":43.30548,"lon":5.3653,"is_reserved":false,"is_disabled":false,"rental_uris":{"android":"levelo://app?vid=9459922c-ba4c-4204-b90d-c6c411bb5c6d","ios":"levelo://app?vid=9459922c-ba4c-4204-b90d-c6c411bb5c6d"},"vehicle_type_id":"4","last_reported":1726481421,"current_range_meters":38800,"station_id":"ce4bgs12rcd13ifvqcag","pricing_plan_id":"cebpf4jnsgd1na2vs0mg"},{"bike_id":"6f387a41-1a28-4619-ac86-26875678b81b","system_id":"levelo_inurba_marseille","lat":43.29901,"lon":5.43667,"is_reserved":false,"is_disabled":false,"rental_uris":{"android":"levelo://app?vid=6f387a41-1a28-4619-ac86-26875678b81b","ios":"levelo://app?vid=6f387a41-1a28-4619-ac86-26875678b81b"},"vehicle_type_id":"4","last_reported":1726481421,"current_range_meters":27200,"station_id":"ce4bhpp2rcd13ifvqhfg","pricing_plan_id":"cebpf4jnsgd1na2vs0mg"},{"bike_id":"7fa893fc-ca79-4735-bc01-01c515cdb00b","system_id":"levelo_inurba_marseille","lat":43.30138,"lon":5.37415,"is_reserved":false,"is_disabled":false,"rental_uris":{"android":"levelo://app?vid=7fa893fc-ca79-4735-bc01-01c515cdb00b","ios":"levelo://app?vid=7fa893fc-ca79-4735-bc01-01c515cdb00b"},"vehicle_type_id":"4","last_reported":1726481421,"current_range_meters":38800,"station_id":"ce4bgs92rcd13ifvqcc0","pricing_plan_id":"cebpf4jnsgd1na2vs0mg"},{"bike_id":"a11353cf-a7a0-4b6f-9045-658851c9deec","system_id":"levelo_inurba_marseille","lat":43.3055,"lon":5.36716,"is_reserved":false,"is_disabled":false,"rental_uris":{"android":"levelo://app?vid=a11353cf-a7a0-4b6f-9045-658851c9deec","ios":"levelo://app?vid=a11353cf-a7a0-4b6f-9045-658851c9deec"},"vehicle_type_id":"4","last_reported":1726481421,"current_range_meters":38800,"station_id":"ce4bgrp2rcd13ifvqc9g","pricing_plan_id":"cebpf4jnsgd1na2vs0mg"},{"bike_id":"57b62a0f-67b7-488b-81f2-b35610e42df9","system_id":"levelo_inurba_marseille","lat":43.27488,"lon":5.42462,"is_reserved":false,"is_disabled":false,"rental_uris":{"android":"levelo://app?vid=57b62a0f-67b7-488b-81f2-b35610e42df9","ios":"levelo://app?vid=57b62a0f-67b7-488b-81f2-b35610e42df9"},"vehicle_type_id":"4","last_reported":1726481421,"current_range_meters":34800,"station_id":"ce4bhn92rcd13ifvqgrg","pricing_plan_id":"cebpf4jnsgd1na2vs0mg"},{"bike_id":"157277ef-700b-4806-802e-a7cbe08729a1","system_id":"levelo_inurba_marseille","lat":43.29034,"lon":5.37551,"is_reserved":false,"is_disabled":false,"rental_uris":{"android":"levelo://app?vid=157277ef-700b-4806-802e-a7cbe08729a1","ios":"levelo://app?vid=157277ef-700b-4806-802e-a7cbe08729a1"},"vehicle_type_id":"4","last_reported":1726481421,"current_range_meters":36000,"station_id":"ce4bh692rcd13ifvqe90","pricing_plan_id":"cebpf4jnsgd1na2vs0mg"},{"bike_id":"07118d2e-b28a-4dac-a7b4-2710548ce528","system_id":"levelo_inurba_marseille","lat":43.31355,"lon":5.36706,"is_reserved":false,"is_disabled":false,"rental_uris":{"android":"levelo://app?vid=07118d2e-b28a-4dac-a7b4-2710548ce528","ios":"levelo://app?vid=07118d2e-b28a-4dac-a7b4-2710548ce528"},"vehicle_type_id":"4","last_reported":1726481421,"current_range_meters":22000,"station_id":"ce4bgr92rcd13ifvqc6g","pricing_plan_id":"cebpf4jnsgd1na2vs0mg"},{"bike_id":"7b4364ee-2e77-4955-aeb7-30dc20aba39c","system_id":"levelo_inurba_marseille","lat":43.31705,"lon":5.37744,"is_reserved":false,"is_disabled":false,"rental_uris":{"android":"levelo://app?vid=7b4364ee-2e77-4955-aeb7-30dc20aba39c","ios":"levelo://app?vid=7b4364ee-2e77-4955-aeb7-30dc20aba39c"},"vehicle_type_id":"4","last_reported":1726481421,"current_range_meters":14400,"station_id":"ce4bgth2rcd13ifvqch0","pricing_plan_id":"cebpf4jnsgd1na2vs0mg"},{"bike_id":"b3aba6b1-9c14-456a-a9c0-5dc4a40bfbdc","system_id":"levelo_inurba_marseille","lat":43.31234,"lon":5.36805,"is_reserved":false,"is_disabled":false,"rental_uris":{"android":"levelo://app?vid=b3aba6b1-9c14-456a-a9c0-5dc4a40bfbdc","ios":"levelo://app?vid=b3aba6b1-9c14-456a-a9c0-5dc4a40bfbdc"},"vehicle_type_id":"4","last_reported":1726481421,"current_range_meters":14000,"station_id":"ce4bgl92rcd13ifvqbq0","pricing_plan_id":"cebpf4jnsgd1na2vs0mg"},