{"last_updated":1748416223,"ttl":60,"version":"2.2","data":{"bikes":[{"bike_id":"fd908bdf-5d81-4122-b313-442572d15912","system_id":"levelo_inurba_marseille","lat":43.29533,"lon":5.39393,"is_reserved":false,"is_disabled":true,"rental_uris":{"android":"levelo://app?vid=fd908bdf-5d81-4122-b313-442572d15912","ios":"levelo://app?vid=fd908bdf-5d81-4122-b313-442572d15912"},"vehicle_type_id":"4","last_reported":1748416223,"current_range_meters":2800,"station_id":"ce4bh292rcd13ifvqdf0","pricing_plan_id":"cebpf4jnsgd1na2vs0mg"},{"bike_id":"6a778362-1211-4df7-9c12-9d8e0a94dedf","system_id":"levelo_inurba_marseille","lat":43.32469,"lon":5.36575,"is_reserved":false,"is_disabled":false,"rental_uris":{"android":"levelo://app?vid=6a778362-1211-4df7-9c12-9d8e0a94dedf","ios":"levelo://app?vid=6a778362-1211-4df7-9c12-9d8e0a94dedf"},"vehicle_type_id":"4","last_reported":1748416223,"current_range_meters":2800,"station_id":"ce4bhs12rcd13ifvqhvg","pricing_plan_id":"cebpf4jnsgd1na2vs0mg"},{"bike_id":"68fb4df3-1e04-4a3b-a219-24ce72d48bbe","system_id":"levelo_inurba_marseille","lat":43.31345,"lon":5.36716,"is_reserved":false,"is_disabled":false,"rental_uris":{"android":"levelo://app?vid=68fb4df3-1e04-4a3b-a219-24ce72d48bbe","ios":"levelo://app?vid=68fb4df3-1e04-4a3b-a219-24ce72d48bbe"},"vehicle_type_id":"4","last_reported":1748416223,"current_range_meters":2800,"station_id":"ce4bgr92rcd13ifvqc6g","pricing_plan_id":"cebpf4jnsgd1na2vs0mg"},{"bike_id":"8e1e3d14-39e1-40c6-a572-79984978bd7d","system_id":"levelo_inurba_marseille","lat":43.22487,"lon":5.34779,"is_reserved":false,"is_disabled":false,"rental_uris":{"android":"levelo://app?vid=8e1e3d14-39e1-40c6-a572-79984978bd7d","ios":"levelo://app?vid=8e1e3d14-39e1-40c6-a572-79984978bd7d"},"vehicle_type_id":"4","last_reported":1748416223,"current_range_meters":3200,"station_id":"","pricing_plan_id":"cebpf4jnsgd1na2vs0mg"},{"bike_id":"984631f3-af7d-4fe4-9cf2-a5d66e6e230a","system_id":"levelo_inurba_marseille","lat":43.27492,"lon":5.42459,"is_reserved":false,"is_disabled":false,"rental_uris":{"android":"levelo://app?vid=984631f3-af7d-4fe4-9cf2-a5d66e6e230a","ios":"levelo://app?vid=984631f3-af7d-4fe4-9cf2-a5d66e6e230a"},"vehicle_type_id":"4","last_reported":1748416223,"current_range_meters":3200,"station_id":"ce4bhn92rcd13ifvqgrg","pricing_plan_id":"cebpf4jnsgd1na2vs0mg"},{"bike_id":"470eac31-3acb-4866-b5bc-d9e124fb600c","system_id":"levelo_inurba_marseille","lat":43.30538,"lon":5.36526,"is_reserved":false,"is_disabled":false,"rental_uris":{"android":"levelo://app?vid=470eac31-3acb-4866-b5bc-d9e124fb600c","ios":"levelo://app?vid=470eac31-3acb-4866-b5bc-d9e124fb600c"},"vehicle_type_id":"4","last_reported":1748416223,"current_range_meters":3200,"station_id":"ce4bgs12rcd13ifvqcag","pricing_plan_id":"cebpf4jnsgd1na2vs0mg"},{"bike_id":"d0107e51-974f-44c0-8bbd-e784c219b18a","system_id":"levelo_inurba_marseille","lat":43.28444,"lon":5.39199,"is_reserved":false,"is_disabled":true,"rental_uris":{"android":"levelo://app?vid=d0107e51-974f-44c0-8bbd-e784c219b18a","ios":"levelo://app?vid=d0107e51-974f-44c0-8bbd-e784c219b18a"},"vehicle_type_id":"4","last_reported":1748416223,"current_range_meters":2800,"station_id":"ce4bhoh2rcd13ifvqh5g","pricing_plan_id":"cebpf4jnsgd1na2vs0mg"},{"bike_id":"a832dc03-bce5-49fe-9da7-5f899f616396","system_id":"levelo_inurba_marseille","lat":43.28359,"lon":5.38114,"is_reserved":false,"is_disabled":false,"rental_uris":{"android":"levelo://app?vid=a832dc03-bce5-49fe-9da7-5f899f616396","ios":"levelo://app?vid=a832dc03-bce5-49fe-9da7-5f899f616396"},"vehicle_type_id":"4","last_reported":1748416223,"current_range_meters":3200,"station_id":"ce4bh412rcd13ifvqdr0","pricing_plan_id":"cebpf4jnsgd1na2vs0mg"},{"bike_id":"2f50dc5b-dd1a-4fd7-b3a4-bca2ea8883de","system_id":"levelo_inurba_marseille","lat":43.319543,"lon":5.38148,"is_reserved":false,"is_disabled":false,"rental_uris":{"android":"levelo://app?vid=2f50dc5b-dd1a-4fd7-b3a4-bca2ea8883de","ios":"levelo://app?vid=2f50dc5b-dd1a-4fd7-b3a4-bca2ea8883de"},"vehicle_type_id":"4","last_reported":1748416223,"current_range_meters":3200,"station_id":"ce4bhr12rcd13ifvqhpg","pricing_plan_id":"cebpf4jnsgd1na2vs0mg"},{"bike_id":"20873b09-4adc-469f-8fac-e711c53b3009","system_id":"levelo_inurba_marseille","lat":43.30244,"lon":5.40074,"is_reserved":false,"is_disabled":false,"rental_uris":{"android":"levelo://app?vid=20873b09-4adc-469f-8fac-e711c53b3009","ios":"levelo://app?vid=20873b09-4adc-469f-8fac-e711c53b3009"},"vehicle_type_id":"4","last_reported":1748416223,"current_range_meters":3200,"station_id":"ce4bgvh2rcd13ifvqcs0","pricing_plan_id":"cebpf4jnsgd1na2vs0mg"},{"bike_id":"85d1e926-bbfb-4ea4-8add-c3b75abcf11e","system_id":"levelo_inurba_marseille","lat":43.31354,"lon":5.36726,"is_reserved":false,"is_disabled":false,"rental_uris":{"android":"levelo://app?vid=85d1e926-bbfb-4ea4-8add-c3b75abcf11e","ios":"levelo://app?vid=85d1e926-bbfb-4ea4-8add-c3b75abcf11e"},"vehicle_type_id":"4","last_reported":1748416223,"current_range_meters":3600,"station_id":"ce4bgr92rcd13ifvqc6g","pricing_plan_id":"cebpf4jnsgd1na2vs0mg"},{"bike_id":"79aae750-de60-4835-ae27-549861f61f03","system_id":"levelo_inurba_marseille","lat":43.27816,"lon":5.407,"is_reserved":false,"is_disabled":false,"rental_uris":{"android":"levelo://app?vid=79aae750-de60-4835-ae27-549861f61f03","ios":"levelo://app?vid=79aae750-de60-4835-ae27-549861f61f03"},"vehicle_type_id":"4","last_reported":1748416223,"current_range_meters":3600,"station_id":"ce4bhnh2rcd13ifvqgtg","pricing_plan_id":"cebpf4jnsgd1na2vs0mg"},{"bike_id":"db65019d-9d00-4802-bb2d-c08ef6287392","system_id":"levelo_inurba_marseille","lat":43.27496,"lon":5.42454,"is_reserved":false,"is_disabled":false,"rental_uris":{"android":"levelo://app?vid=db65019d-9d00-4802-bb2d-c08ef6287392","ios":"levelo://app?vid=db65019d-9d00-4802-bb2d-c08ef6287392"},"vehicle_type_id":"4","last_reported":1748416223,"current_range_meters":3600,"station_id":"ce4bhn92rcd13ifvqgrg","pricing_plan_id":"cebpf4jnsgd1na2vs0mg"},{"bike_id":"fde237db-44be-4ce1-8f6a-d93b5dc77056","system_id":"levelo_inurba_marseille","lat":43.29039,"lon":5.39961,"is_reserved":false,"is_disabled":false,"rental_uris":{"android":"levelo://app?vid=fde237db-44be-4ce1-8f6a-d93b5dc77056","ios":"levelo://app?vid=fde237db-44be-4ce1-8f6a-d93b5dc77056"},"vehicle_type_id":"4","last_reported":1748416223,"current_range_meters":3600,"station_id":"ce4bh392rcd13ifvqdm0","pricing_plan_id":"cebpf4jnsgd1na2vs0mg"},{"bike_id":"eb684bf4-a04e-4969-85a7-6bc9df0d61b0","system_id":"levelo_inurba_marseille","lat":43.31363,"lon":5.36727,"is_reserved":false,"is_disabled":false,"rental_uris":{"android":"levelo://app?vid=eb684bf4-a04e-4969-85a7-6bc9df0d61b0","ios":"levelo://app?vid=eb684bf4-a04e-4969-85a7-6bc9df0d61b0"},"vehicle_type_id":"4","last_reported":1748416223,"current_range_meters":3600,"station_id":"ce4bgr92rcd13ifvqc6g","pricing_plan_id":"cebpf4jnsgd1na2vs0mg"},{"bike_id":"4cfff9a5-4bd9-4bf0-a565-9d206abde6ae","system_id":"levelo_inurba_marseille","lat":43.27064,"lon":5.42278,"is_reserved":false,"is_disabled":false,"rental_uris":{"android":"levelo://app?vid=4cfff9a5-4bd9-4bf0-a565-9d206abde6ae","ios":"levelo://app?vid=4cfff9a5-4bd9-4bf0-a565-9d206abde6ae"},"vehicle_type_id":"4","last_reported":1748416223,"current_range_meters":3600,"station_id":"ce4bhk92rcd13ifvqgb0","pricing_plan_id":"cebpf4jnsgd1na2vs0mg"},{"bike_id":"5cfe8527-58b1-4f69-b893-13b42152f2a4","system_id":"levelo_inurba_marseille","lat":43.31224,"lon":5.36858,"is_reserved":false,"is_disabled":false,"rental_uris":{"android":"levelo://app?vid=5cfe8527-58b1-4f69-b893-13b42152f2a4","ios":"levelo://app?vid=5cfe8527-58b1-4f69-b893-13b42152f2a4"},"vehicle_type_id":"4","last_reported":1748416223,"current_range_meters":3600,"station_id":"ce4bgl92rcd13ifvqbq0","pricing_plan_id":"cebpf4jnsgd1na2vs0mg"},{"bike_id":"837b2cdf-35ef-4369-bc9d-b0f75c912723","system_id":"levelo_inurba_marseille","lat":43.28926,"lon":5.38399,"is_reserved":false,"is_disabled":false,"rental_uris":{"android":"levelo://app?vid=837b2cdf-35ef-4369-bc9d-b0f75c912723","ios":"levelo://app?vid=837b2cdf-35ef-4369-bc9d-b0f75c912723"},"vehicle_type_id":"4","last_reported":1748416223,"current_range_meters":4000,"station_id":"ce4bh612rcd13ifvqe6g","pricing_plan_id":"cebpf4jnsgd1na2vs0mg"},{"bike_id":"522ea000-8b3c-4187-875a-12cf88784328","system_id":"levelo_inurba_marseille","lat":43.26804,"lon":5.40267,"is_reserved":false,"is_disabled":false,"rental_uris":{"android":"levelo://app?vid=522ea000-8b3c-4187-875a-12cf88784328","ios":"levelo://app?vid=522ea000-8b3c-4187-875a-12cf88784328"},"vehicle_type_id":"4","last_reported":1748416223,"current_range_meters":4000,"station_id":"ce501612rcd8frsf0b60","pricing_plan_id":"cebpf4jnsgd1na2vs0mg"},{"bike_id":"c14d54b2-c248-4ba3-bad4-5afb03106421","system_id":"levelo_inurba_marseille","lat":43.31331,"lon":5.39692,"is_reserved":false,"is_disabled":false,"rental_uris":{"android":"levelo://app?vid=c14d54b2-c248-4ba3-bad4-5afb03106421","ios":"levelo://app?vid=c14d54b2-c248-4ba3-bad4-5afb03106421"},"vehicle_type_id":"4","last_reported":1748416223,"current_range_meters":3600,"station_id":"ce4bgvp2rcd13ifvqcu0","pricing_plan_id":"cebpf4jnsgd1na2vs0mg"},{"bike_id":"66d3972c-3055-4308-b424-3e0574ec59e5","system_id":"levelo_inurba_marseille","lat":43.29076,"lon":5.37174,"is_reserved":false,"is_disabled":false,"rental_uris":{"android":"levelo://app?vid=66d3972c-3055-4308-b424-3e0574ec59e5","ios":"levelo://app?vid=66d3972c-3055-4308-b424-3e0574ec59e5"},"vehicle_type_id":"4","last_reported":1748416223,"current_range_meters":4000,"station_id":"ce4bh5p2rcd13ifvqe4g","pricing_plan_id":"cebpf4jnsgd1na2vs0mg"},{"bike_id":"af2f6b57-3da5-4ec2-ae85-57820d1fb8b3","system_id":"levelo_inurba_marseille","lat":43.30539,"lon":5.36555,"is_reserved":false,"is_disabled":false,"rental_uris":{"android":"levelo://app?vid=af2f6b57-3da5-4ec2-ae85-57820d1fb8b3","ios":"levelo://app?vid=af2f6b57-3da5-4ec2-ae85-57820d1fb8b3"},"vehicle_type_id":"4","last_reported":1748416223,"current_range_meters":4000,"station_id":"ce4bgs12rcd13ifvqcag","pricing_plan_id":"cebpf4jnsgd1na2vs0mg"},{"bike_id":"3f1e173e-5538-4798-8bce-4d559b01ef1e","system_id":"levelo_inurba_marseille","lat":43.25957,"lon":5.40864,"is_reserved":false,"is_disabled":false,"rental_uris":{"android":"levelo://app?vid=3f1e173e-5538-4798-8bce-4d559b01ef1e","ios":"levelo://app?vid=3f1e173e-5538-4798-8bce-4d559b01ef1e"},"vehicle_type_id":"4","last_reported":1748416223,"current_range_meters":4400,"station_id":"ce4bhm92rcd13ifvqglg","pricing_plan_id":"cebpf4jnsgd1na2vs0mg"},{"bike_id":"70b8d7b3-a5d3-4b96-bc08-d4df14e64b2c","system_id":"levelo_inurba_marseille","lat":43.23152,"lon":5.43705,"is_reserved":false,"is_disabled":false,"rental_uris":{"android":"levelo://app?vid=70b8d7b3-a5d3-4b96-bc08-d4df14e64b2c","ios":"levelo://app?vid=70b8d7b3-a5d3-4b96-bc08-d4df14e64b2c"},"vehicle_type_id":"4","last_reported":1748416223,"current_range_meters":4400,"station_id":"ce4bhmp2rcd13ifvqgog","pricing_plan_id":"cebpf4jnsgd1na2vs0mg"},{"bike_id":"f2f2c857-6ce7-4f18-9462-4e16197878f1","system_id":"levelo_inurba_marseille","lat":43.31673,"lon":5.37781,"is_reserved":false,"is_disabled":false,"rental_uris":{"android":"levelo://app?vid=f2f2c857-6ce7-4f18-9462-4e16197878f1","ios":"levelo://app?vid=f2f2c857-6ce7-4f18-9462-4e16197878f1"},"vehicle_type_id":"4","last_reported":1748416223,"current_range_meters":4400,"station_id":"","pricing_plan_id":"cebpf4jnsgd1na2vs0mg"},{"bike_id":"c2b0a191-bf31-4e89-8dc5-11d646e535b1","system_id":"levelo_inurba_marseille","lat":43.254969,"lon":5.37649,"is_reserved":false,"is_disabled":false,"rental_uris":{"android":"levelo://app?vid=c2b0a191-bf31-4e89-8dc5-11d646e535b1","ios":"levelo://app?vid=c2b0a191-bf31-4e89-8dc5-11d646e535b1"},"vehicle_type_id":"4","last_reported":1748416223,"current_range_meters":4400,"station_id":"","pricing_plan_id":"cebpf4jnsgd1na2vs0mg"},{"bike_id":"8709e185-9040-42fb-b62f-22e6930e0483","system_id":"levelo_inurba_marseille","lat":43.30144,"lon":5.37419,"is_reserved":false,"is_disabled":false,"rental_uris":{"android":"levelo://app?vid=8709e185-9040-42fb-b62f-22e6930e0483","ios":"levelo://app?vid=8709e185-9040-42fb-b62f-22e6930e0483"},"vehicle_type_id":"4","last_reported":1748416223,"current_range_meters":4400,"station_id":"ce4bgs92rcd13ifvqcc0","pricing_plan_id":"cebpf4jnsgd1na2vs0mg"},{"bike_id":"db2ac856-f79c-426b-96e3-52526435259b","system_id":"levelo_inurba_marseille","lat":43.25937,"lon":5.40896,"is_reserved":false,"is_disabled":false,"rental_uris":{"android":"levelo://app?vid=db2ac856-f79c-426b-96e3-52526435259b","ios":"levelo://app?vid=db2ac856-f79c-426b-96e3-52526435259b"},"vehicle_type_id":"4","last_reported":1748416223,"current_range_meters":4400,"station_id":"ce4bhm92rcd13ifvqglg","pricing_plan_id":"cebpf4jnsgd1na2vs0mg"},{"bike_id":"1a0998e5-8bb9-474f-a827-53cad24c9e8f","system_id":"levelo_inurba_marseille","lat":43.32026,"lon":5.44956,"is_reserved":false,"is_disabled":false,"rental_uris":{"android":"levelo://app?vid=1a0998e5-8bb9-474f-a827-53cad24c9e8f","ios":"levelo://app?vid=1a0998e5-8bb9-474f-a827-53cad24c9e8f"},"vehicle_type_id":"4","last_reported":1748416223,"current_range_meters":4800,"station_id":"","pricing_plan_id":"cebpf4jnsgd1na2vs0mg"},{"bike_id":"e9822bf6-601d-4e3b-a97c-5d51f2fe51a3","system_id":"levelo_inurba_marseille","lat":43.263518,"lon":5.378156,"is_reserved":false,"is_disabled":false,"rental_uris":{"android":"levelo://app?vid=e9822bf6-601d-4e3b-a97c-5d51f2fe51a3","ios":"levelo://app?vid=e9822bf6-601d-4e3b-a97c-5d51f2fe51a3"},"vehicle_type_id":"4","last_reported":1748416223,"current_range_meters":4800,"station_id":"","pricing_plan_id":"cebpf4jnsgd1na2vs0mg"},{"bike_id":"b05069f0-a957-490f-bfc1-ca35a9f9192e","system_id":"levelo_inurba_marseille","lat":43.26572,"lon":5.39014,"is_reserved":false,"is_disabled":false,"rental_uris":{"android":"levelo://app?vid=b05069f0-a957-490f-bfc1-ca35a9f9192e","ios":"levelo://app?vid=b05069f0-a957-490f-bfc1-ca35a9f9192e"},"vehicle_type_id":"4","last_reported":1748416223,"current_range_meters":4800,"station_id":"ce4bhe12rcd13ifvqf30","pricing_plan_id":"cebpf4jnsgd1na2vs0mg"},{"bike_id":"f0a3c6d4-20e2-47a1-882e-7a3d7d4faefc","system_id":"levelo_inurba_marseille","lat":43.254963,"lon":5.376508,"is_reserved":false,"is_disabled":true,"rental_uris":{"android":"levelo://app?vid=f0a3c6d4-20e2-47a1-882e-7a3d7d4faefc","ios":"levelo://app?vid=f0a3c6d4-20e2-47a1-882e-7a3d7d4faefc"},"vehicle_type_id":"4","last_reported":1748416223,"current_range_meters":4800,"station_id":"","pricing_plan_id":"cebpf4jnsgd1na2vs0mg"},{"bike_id":"ca39f4ef-0212-44c3-b77e-5ab03fae5e5a","system_id":"levelo_inurba_marseille","lat":43.30237,"lon":5.40056,"is_reserved":false,"is_disabled":false,"rental_uris":{"android":"levelo://app?vid=ca39f4ef-0212-44c3-b77e-5ab03fae5e5a","ios":"levelo://app?vid=ca39f4ef-0212-44c3-b77e-5ab03fae5e5a"},"vehicle_type_id":"4","last_reported":1748416223,"current_range_meters":4800,"station_id":"ce4bgvh2rcd13ifvqcs0","pricing_plan_id":"cebpf4jnsgd1na2vs0mg"},{"bike_id":"44e711ef-49f1-49ec-a28c-e0527e68f85f","system_id":"levelo_inurba_marseille","lat":43.26787,"lon":5.39409,"is_reserved":false,"is_disabled":false,"rental_uris":{"android":"levelo://app?vid=44e711ef-49f1-49ec-a28c-e0527e68f85f","ios":"levelo://app?vid=44e711ef-49f1-49ec-a28c-e0527e68f85f"},"vehicle_type_id":"4","last_reported":1748416223,"current_range_meters":4800,"station_id":"ce4bhh12rcd13ifvqfg0","pricing_plan_id":"cebpf4jnsgd1na2vs0mg"},{"bike_id":"041ac944-c333-4899-a965-7e9ac9b2e253","system_id":"levelo_inurba_marseille","lat":43.25931,"lon":5.40907,"is_reserved":false,"is_disabled":false,"rental_uris":{"android":"levelo://app?vid=041ac944-c333-4899-a965-7e9ac9b2e253","ios":"levelo://app?vid=041ac944-c333-4899-a965-7e9ac9b2e253"},"vehicle_type_id":"4","last_reported":1748416223,"current_range_meters":5600,"station_id":"ce4bhm92rcd13ifvqglg","pricing_plan_id":"cebpf4jnsgd1na2vs0mg"},{"bike_id":"ae6e6868-2635-4f49-b7c1-b03759c58ec7","system_id":"levelo_inurba_marseille","lat":43.272951,"lon":5.416111,"is_reserved":false,"is_disabled":false,"rental_uris":{"android":"levelo://app?vid=ae6e6868-2635-4f49-b7c1-b03759c58ec7","ios":"levelo://app?vid=ae6e6868-2635-4f49-b7c1-b03759c58ec7"},"vehicle_type_id":"4","last_reported":1748416223,"current_range_meters":5600,"station_id":"","pricing_plan_id":"cebpf4jnsgd1na2vs0mg"},{"bike_id":"4038822b-b7b7-4578-8931-5a007f3945bd","system_id":"levelo_inurba_marseille","lat":43.30957,"lon":5.39014,"is_reserved":false,"is_disabled":true,"rental_uris":{"android":"levelo://app?vid=4038822b-b7b7-4578-8931-5a007f3945bd","ios":"levelo://app?vid=4038822b-b7b7-4578-8931-5a007f3945bd"},"vehicle_type_id":"4","last_reported":1748416223,"current_range_meters":5600,"station_id":"ce4bgup2rcd13ifvqco0","pricing_plan_id":"cebpf4jnsgd1na2vs0mg"},{"bike_id":"e5f58b04-d795-4032-afd6-6dc8c3beb7eb","system_id":"levelo_inurba_marseille","lat":43.29614,"lon":5.37734,"is_reserved":false,"is_disabled":false,"rental_uris":{"android":"levelo://app?vid=e5f58b04-d795-4032-afd6-6dc8c3beb7eb","ios":"levelo://app?vid=e5f58b04-d795-4032-afd6-6dc8c3beb7eb"},"vehicle_type_id":"4","last_reported":1748416223,"current_range_meters":6000,"station_id":"ce4bgi92rcd13ifvqb90","pricing_plan_id":"cebpf4jnsgd1na2vs0mg"},{"bike_id":"954e2b9b-0fa7-4505-82e2-fb5cd2bfbe06","system_id":"levelo_inurba_marseille","lat":43.29789,"lon":5.38098,"is_reserved":false,"is_disabled":false,"rental_uris":{"android":"levelo://app?vid=954e2b9b-0fa7-4505-82e2-fb5cd2bfbe06","ios":"levelo://app?vid=954e2b9b-0fa7-4505-82e2-fb5cd2bfbe06"},"vehicle_type_id":"4","last_reported":1748416223,"current_range_meters":6000,"station_id":"ce4bgip2rcd13ifvqbb0","pricing_plan_id":"cebpf4jnsgd1na2vs0mg"},{"bike_id":"1796e2a2-3afb-4149-81e0-2c9a7010b4ce","system_id":"levelo_inurba_marseille","lat":43.29529,"lon":5.37512,"is_reserved":false,"is_disabled":false,"rental_uris":{"android":"levelo://app?vid=1796e2a2-3afb-4149-81e0-2c9a7010b4ce","ios":"levelo://app?vid=1796e2a2-3afb-4149-81e0-2c9a7010b4ce"},"vehicle_type_id":"4","last_reported":1748416223,"current_range_meters":6000,"station_id":"ce4bgkp2rcd13ifvqbmg","pricing_plan_id":"cebpf4jnsgd1na2vs0mg"},{"bike_id":"d6a17c8e-e240-4581-8e04-6d20fed999ec","system_id":"levelo_inurba_marseille","lat":43.30534,"lon":5.36705,"is_reserved":false,"is_disabled":false,"rental_uris":{"android":"levelo://app?vid=d6a17c8e-e240-4581-8e04-6d20fed999ec","ios":"levelo://app?vid=d6a17c8e-e240-4581-8e04-6d20fed999ec"},"vehicle_type_id":"4","last_reported":1748416223,"current_range_meters":6000,"station_id":"ce4bgrp2rcd13ifvqc9g","pricing_plan_id":"cebpf4jnsgd1na2vs0mg"},{"bike_id":"8ac2acc6-b767-4c1c-bcde-982458034c88","system_id":"levelo_inurba_marseille","lat":43.311933,"lon":5.416321,"is_reserved":false,"is_disabled":false,"rental_uris":{"android":"levelo://app?vid=8ac2acc6-b767-4c1c-bcde-982458034c88","ios":"levelo://app?vid=8ac2acc6-b767-4c1c-bcde-982458034c88"},"vehicle_type_id":"4","last_reported":1748416223,"current_range_meters":6000,"station_id":"","pricing_plan_id":"cebpf4jnsgd1na2vs0mg"},{"bike_id":"c0ec793e-6f34-4732-ba9a-cb9c3b2b2e36","system_id":"levelo_inurba_marseille","lat":43.286591,"lon":5.386643,"is_reserved":false,"is_disabled":false,"rental_uris":{"android":"levelo://app?vid=c0ec793e-6f34-4732-ba9a-cb9c3b2b2e36","ios":"levelo://app?vid=c0ec793e-6f34-4732-ba9a-cb9c3b2b2e36"},"vehicle_type_id":"4","last_reported":1748416223,"current_range_meters":6000,"station_id":"ce4bh492rcd13ifvqdug","pricing_plan_id":"cebpf4jnsgd1na2vs0mg"},{"bike_id":"9ccbac86-38e4-4ddf-a8ae-e8e6aad748d0","system_id":"levelo_inurba_marseille","lat":43.30413,"lon":5.41288,"is_reserved":false,"is_disabled":true,"rental_uris":{"android":"levelo://app?vid=9ccbac86-38e4-4ddf-a8ae-e8e6aad748d0","ios":"levelo://app?vid=9ccbac86-38e4-4ddf-a8ae-e8e6aad748d0"},"vehicle_type_id":"4","last_reported":1748416223,"current_range_meters":6000,"station_id":"ce4bhop2rcd13ifvqh8g","pricing_plan_id":"cebpf4jnsgd1na2vs0mg"},{"bike_id":"9ae5ad40-0bd2-4a94-8dd8-df2fd0cac317","system_id":"levelo_inurba_marseille","lat":43.2848,"lon":5.38419,"is_reserved":false,"is_disabled":false,"rental_uris":{"android":"levelo://app?vid=9ae5ad40-0bd2-4a94-8dd8-df2fd0cac317","ios":"levelo://app?vid=9ae5ad40-0bd2-4a94-8dd8-df2fd0cac317"},"vehicle_type_id":"4","last_reported":1748416223,"current_range_meters":6000,"station_id":"ce4bh512rcd13ifvqe3g","pricing_plan_id":"cebpf4jnsgd1na2vs0mg"},{"bike_id":"1a5be161-9d9e-4b59-bc35-84067ab1be75","system_id":"levelo_inurba_marseille","lat":43.31065,"lon":5.38375,"is_reserved":false,"is_disabled":false,"rental_uris":{"android":"levelo://app?vid=1a5be161-9d9e-4b59-bc35-84067ab1be75","ios":"levelo://app?vid=1a5be161-9d9e-4b59-bc35-84067ab1be75"},"vehicle_type_id":"4","last_reported":1748416223,"current_range_meters":6400,"station_id":"ce4bgv92rcd13ifvqcr0","pricing_plan_id":"cebpf4jnsgd1na2vs0mg"},{"bike_id":"6f400dbb-185c-4e4a-ad18-deca5ff79f2d","system_id":"levelo_inurba_marseille","lat":43.29022,"lon":5.3813,"is_reserved":false,"is_disabled":false,"rental_uris":{"android":"levelo://app?vid=6f400dbb-185c-4e4a-ad18-deca5ff79f2d","ios":"levelo://app?vid=6f400dbb-185c-4e4a-ad18-deca5ff79f2d"},"vehicle_type_id":"4","last_reported":1748416223,"current_range_meters":6000,"station_id":"ce4bh4p2rcd13ifvqe1g","pricing_plan_id":"cebpf4jnsgd1na2vs0mg"},{"bike_id":"f2c30cbd-ae7b-4568-a297-6260345aa9ba","system_id":"levelo_inurba_marseille","lat":43.31236,"lon":5.36869,"is_reserved":false,"is_disabled":false,"rental_uris":{"android":"levelo://app?vid=f2c30cbd-ae7b-4568-a297-6260345aa9ba","ios":"levelo://app?vid=f2c30cbd-ae7b-4568-a297-6260345aa9ba"},"vehicle_type_id":"4","last_reported":1748416223,"current_range_meters":6400,"station_id":"ce4bgl92rcd13ifvqbq0","pricing_plan_id":"cebpf4jnsgd1na2vs0mg"},{"bike_id":"10d3b10c-92de-4dcc-bd26-49019c4f970e","system_id":"levelo_inurba_marseille","lat":43.309497,"lon":5.39031,"is_reserved":false,"is_disabled":false,"rental_uris":{"android":"levelo://app?vid=10d3b10c-92de-4dcc-bd26-49019c4f970e","ios":"levelo://app?vid=10d3b10c-92de-4dcc-bd26-49019c4f970e"},"vehicle_type_id":"4","last_reported":1748416223,"current_range_meters":6400,"station_id":"ce4bgup2rcd13ifvqco0","pricing_plan_id":"cebpf4jnsgd1na2vs0mg"},{"bike_id":"5c65b7df-0039-4ae4-9f6d-de13d6f04b9f","system_id":"levelo_inurba_marseille","lat":43.29291,"lon":5.37462,"is_reserved":false,"is_disabled":false,"rental_uris":{"android":"levelo://app?vid=5c65b7df-0039-4ae4-9f6d-de13d6f04b9f","ios":"levelo://app?vid=5c65b7df-0039-4ae4-9f6d-de13d6f04b9f"},"vehicle_type_id":"4","last_reported":1748416223,"current_range_meters":6400,"station_id":"ce4bgi12rcd13ifvqb70","pricing_plan_id":"cebpf4jnsgd1na2vs0mg"},{"bike_id":"e8089269-903f-43ed-bd74-ef3c1673e56f","system_id":"levelo_inurba_marseille","lat":43.29093,"lon":5.38116,"is_reserved":false,"is_disabled":false,"rental_uris":{"android":"levelo://app?vid=e8089269-903f-43ed-bd74-ef3c1673e56f","ios":"levelo://app?vid=e8089269-903f-43ed-bd74-ef3c1673e56f"},"vehicle_type_id":"4","last_reported":1748416223,"current_range_meters":6400,"station_id":"ce4bh512rcd13ifvqe2g","pricing_plan_id":"cebpf4jnsgd1na2vs0mg"},{"bike_id":"91844fe0-3357-4825-9bf4-60dc4895331f","system_id":"levelo_inurba_marseille","lat":43.25945,"lon":5.40894,"is_reserved":false,"is_disabled":false,"rental_uris":{"android":"levelo://app?vid=91844fe0-3357-4825-9bf4-60dc4895331f","ios":"levelo://app?vid=91844fe0-3357-4825-9bf4-60dc4895331f"},"vehicle_type_id":"4","last_reported":1748416223,"current_range_meters":6800,"station_id":"ce4bhm92rcd13ifvqglg","pricing_plan_id":"cebpf4jnsgd1na2vs0mg"},{"bike_id":"ceb81090-b40e-47dd-bc35-8598d269ef58","system_id":"levelo_inurba_marseille","lat":43.26659,"lon":5.38429,"is_reserved":false,"is_disabled":false,"rental_uris":{"android":"levelo://app?vid=ceb81090-b40e-47dd-bc35-8598d269ef58","ios":"levelo://app?vid=ceb81090-b40e-47dd-bc35-8598d269ef58"},"vehicle_type_id":"4","last_reported":1748416223,"current_range_meters":6800,"station_id":"","pricing_plan_id":"cebpf4jnsgd1na2vs0mg"},{"bike_id":"025226b6-a6c8-456c-acb5-2494f335f577","system_id":"levelo_inurba_marseille","lat":43.32653,"lon":5.40979,"is_reserved":false,"is_disabled":false,"rental_uris":{"android":"levelo://app?vid=025226b6-a6c8-456c-acb5-2494f335f577","ios":"levelo://app?vid=025226b6-a6c8-456c-acb5-2494f335f577"},"vehicle_type_id":"4","last_reported":1748416223,"current_range_meters":6800,"station_id":"ce4bhpp2rcd13ifvqhgg","pricing_plan_id":"cebpf4jnsgd1na2vs0mg"},{"bike_id":"d229def9-8acf-4760-9dec-a32573e8aff7","system_id":"levelo_inurba_marseille","lat":43.30467,"lon":5.37887,"is_reserved":false,"is_disabled":false,"rental_uris":{"android":"levelo://app?vid=d229def9-8acf-4760-9dec-a32573e8aff7","ios":"levelo://app?vid=d229def9-8acf-4760-9dec-a32573e8aff7"},"vehicle_type_id":"4","last_reported":1748416223,"current_range_meters":6800,"station_id":"ce4bgup2rcd13ifvqcn0","pricing_plan_id":"cebpf4jnsgd1na2vs0mg"},{"bike_id":"c0e8dbd5-9ec0-46b4-9176-6ba6be298f0d","system_id":"levelo_inurba_marseille","lat":43.27078,"lon":5.42274,"is_reserved":false,"is_disabled":false,"rental_uris":{"android":"levelo://app?vid=c0e8dbd5-9ec0-46b4-9176-6ba6be298f0d","ios":"levelo://app?vid=c0e8dbd5-9ec0-46b4-9176-6ba6be298f0d"},"vehicle_type_id":"4","last_reported":1748416223,"current_range_meters":6800,"station_id":"ce4bhk92rcd13ifvqgb0","pricing_plan_id":"cebpf4jnsgd1na2vs0mg"},{"bike_id":"760bcd8b-a4e0-4b4e-bedb-6462d7843576","system_id":"levelo_inurba_marseille","lat":43.292714,"lon":5.368381,"is_reserved":false,"is_disabled":true,"rental_uris":{"android":"levelo://app?vid=760bcd8b-a4e0-4b4e-bedb-6462d7843576","ios":"levelo://app?vid=760bcd8b-a4e0-4b4e-bedb-6462d7843576"},"vehicle_type_id":"4","last_reported":1748416223,"current_range_meters":6800,"station_id":"ce4bhbp2rcd13ifvqesg","pricing_plan_id":"cebpf4jnsgd1na2vs0mg"},{"bike_id":"263c68ab-7044-46f6-a1d1-4c34e5f45b5a","system_id":"levelo_inurba_marseille","lat":43.23153,"lon":5.43711,"is_reserved":false,"is_disabled":false,"rental_uris":{"android":"levelo://app?vid=263c68ab-7044-46f6-a1d1-4c34e5f45b5a","ios":"levelo://app?vid=263c68ab-7044-46f6-a1d1-4c34e5f45b5a"},"vehicle_type_id":"4","last_reported":1748416223,"current_range_meters":6800,"station_id":"ce4bhmp2rcd13ifvqgog","pricing_plan_id":"cebpf4jnsgd1na2vs0mg"},{"bike_id":"c2f75e22-6fed-4646-a5c2-8cb463b122f4","system_id":"levelo_inurba_marseille","lat":43.32271,"lon":5.37643,"is_reserved":false,"is_disabled":false,"rental_uris":{"android":"levelo://app?vid=c2f75e22-6fed-4646-a5c2-8cb463b122f4","ios":"levelo://app?vid=c2f75e22-6fed-4646-a5c2-8cb463b122f4"},"vehicle_type_id":"4","last_reported":1748416223,"current_range_meters":6800,"station_id":"","pricing_plan_id":"cebpf4jnsgd1na2vs0mg"},{"bike_id":"20d7c809-3531-4b94-8c56-b12ccf27a163","system_id":"levelo_inurba_marseille","lat":43.26572,"lon":5.39009,"is_reserved":false,"is_disabled":false,"rental_uris":{"android":"levelo://app?vid=20d7c809-3531-4b94-8c56-b12ccf27a163","ios":"levelo://app?vid=20d7c809-3531-4b94-8c56-b12ccf27a163"},"vehicle_type_id":"4","last_reported":1748416223,"current_range_meters":6800,"station_id":"ce4bhe12rcd13ifvqf30","pricing_plan_id":"cebpf4jnsgd1na2vs0mg"},{"bike_id":"a8e0ef94-6f52-45e8-9489-2aff7a1cd7fe","system_id":"levelo_inurba_marseille","lat":43.23152,"lon":5.43715,"is_reserved":false,"is_disabled":false,"rental_uris":{"android":"levelo://app?vid=a8e0ef94-6f52-45e8-9489-2aff7a1cd7fe","ios":"levelo://app?vid=a8e0ef94-6f52-45e8-9489-2aff7a1cd7fe"},"vehicle_type_id":"4","last_reported":1748416223,"current_range_meters":7200,"station_id":"ce4bhmp2rcd13ifvqgog","pricing_plan_id":"cebpf4jnsgd1na2vs0mg"},{"bike_id":"461a7b3a-df1e-44eb-93ab-2b339258325d","system_id":"levelo_inurba_marseille","lat":43.29367,"lon":5.37847,"is_reserved":false,"is_disabled":false,"rental_uris":{"android":"levelo://app?vid=461a7b3a-df1e-44eb-93ab-2b339258325d","ios":"levelo://app?vid=461a7b3a-df1e-44eb-93ab-2b339258325d"},"vehicle_type_id":"4","last_reported":1748416223,"current_range_meters":7200,"station_id":"ce4bgjh2rcd13ifvqbf0","pricing_plan_id":"cebpf4jnsgd1na2vs0mg"},{"bike_id":"f76e43ef-ab4b-4ad2-9a90-949fe35ced0e","system_id":"levelo_inurba_marseille","lat":43.32051,"lon":5.41537,"is_reserved":false,"is_disabled":false,"rental_uris":{"android":"levelo://app?vid=f76e43ef-ab4b-4ad2-9a90-949fe35ced0e","ios":"levelo://app?vid=f76e43ef-ab4b-4ad2-9a90-949fe35ced0e"},"vehicle_type_id":"4","last_reported":1748416223,"current_range_meters":7200,"station_id":"ce4bhq92rcd13ifvqhkg","pricing_plan_id":"cebpf4jnsgd1na2vs0mg"},{"bike_id":"f4dd589b-5b58-470a-a2c9-9de3a4398e71","system_id":"levelo_inurba_marseille","lat":43.229304,"lon":5.353816,"is_reserved":false,"is_disabled":false,"rental_uris":{"android":"levelo://app?vid=f4dd589b-5b58-470a-a2c9-9de3a4398e71","ios":"levelo://app?vid=f4dd589b-5b58-470a-a2c9-9de3a4398e71"},"vehicle_type_id":"4","last_reported":1748416223,"current_range_meters":7200,"station_id":"cpo3532slgdg3j2ikp40","pricing_plan_id":"cebpf4jnsgd1na2vs0mg"},{"bike_id":"2deb837f-60f5-41e9-9613-f643799ee2cc","system_id":"levelo_inurba_marseille","lat":43.24546,"lon":5.39519,"is_reserved":false,"is_disabled":false,"rental_uris":{"android":"levelo://app?vid=2deb837f-60f5-41e9-9613-f643799ee2cc","ios":"levelo://app?vid=2deb837f-60f5-41e9-9613-f643799ee2cc"},"vehicle_type_id":"4","last_reported":1748416223,"current_range_meters":7200,"station_id":"ce4bhlp2rcd13ifvqgjg","pricing_plan_id":"cebpf4jnsgd1na2vs0mg"},{"bike_id":"8a8da44b-f0bc-49bf-a97a-1dee19c6a572","system_id":"levelo_inurba_marseille","lat":43.23197,"lon":5.35539,"is_reserved":false,"is_disabled":false,"rental_uris":{"android":"levelo://app?vid=8a8da44b-f0bc-49bf-a97a-1dee19c6a572","ios":"levelo://app?vid=8a8da44b-f0bc-49bf-a97a-1dee19c6a572"},"vehicle_type_id":"4","last_reported":1748416223,"current_range_meters":7200,"station_id":"ce4bhu92rcd13ifvqi70","pricing_plan_id":"cebpf4jnsgd1na2vs0mg"},{"bike_id":"6bf42dce-b82b-408d-83f9-1617834f1903","system_id":"levelo_inurba_marseille","lat":43.304647,"lon":5.37895,"is_reserved":false,"is_disabled":false,"rental_uris":{"android":"levelo://app?vid=6bf42dce-b82b-408d-83f9-1617834f1903","ios":"levelo://app?vid=6bf42dce-b82b-408d-83f9-1617834f1903"},"vehicle_type_id":"4","last_reported":1748416223,"current_range_meters":7200,"station_id":"ce4bgup2rcd13ifvqcn0","pricing_plan_id":"cebpf4jnsgd1na2vs0mg"},{"bike_id":"5d360dd9-99ae-46bb-b36c-42b66c7c0d9c","system_id":"levelo_inurba_marseille","lat":43.293733,"lon":5.378726,"is_reserved":false,"is_disabled":false,"rental_uris":{"android":"levelo://app?vid=5d360dd9-99ae-46bb-b36c-42b66c7c0d9c","ios":"levelo://app?vid=5d360dd9-99ae-46bb-b36c-42b66c7c0d9c"},"vehicle_type_id":"4","last_reported":1748416223,"current_range_meters":7200,"station_id":"ce4bgi12rcd13ifvqb70","pricing_plan_id":"cebpf4jnsgd1na2vs0mg"},{"bike_id":"650dec77-249b-4d37-8fa9-a20a61348ccb","system_id":"levelo_inurba_marseille","lat":43.30146,"lon":5.37421,"is_reserved":false,"is_disabled":false,"rental_uris":{"android":"levelo://app?vid=650dec77-249b-4d37-8fa9-a20a61348ccb","ios":"levelo://app?vid=650dec77-249b-4d37-8fa9-a20a61348ccb"},"vehicle_type_id":"4","last_reported":1748416223,"current_range_meters":7200,"station_id":"ce4bgs92rcd13ifvqcc0","pricing_plan_id":"cebpf4jnsgd1na2vs0mg"},{"bike_id":"96c7438f-01e1-41e8-a9a4-c50c54a22ee3","system_id":"levelo_inurba_marseille","lat":43.25933,"lon":5.40901,"is_reserved":false,"is_disabled":false,"rental_uris":{"android":"levelo://app?vid=96c7438f-01e1-41e8-a9a4-c50c54a22ee3","ios":"levelo://app?vid=96c7438f-01e1-41e8-a9a4-c50c54a22ee3"},"vehicle_type_id":"4","last_reported":1748416223,"current_range_meters":8000,"station_id":"ce4bhm92rcd13ifvqglg","pricing_plan_id":"cebpf4jnsgd1na2vs0mg"},{"bike_id":"cab3602a-0bc3-479b-a557-ecf35411506f","system_id":"levelo_inurba_marseille","lat":43.30961,"lon":5.39043,"is_reserved":false,"is_disabled":false,"rental_uris":{"android":"levelo://app?vid=cab3602a-0bc3-479b-a557-ecf35411506f","ios":"levelo://app?vid=cab3602a-0bc3-479b-a557-ecf35411506f"},"vehicle_type_id":"4","last_reported":1748416223,"current_range_meters":8000,"station_id":"ce4bgup2rcd13ifvqco0","pricing_plan_id":"cebpf4jnsgd1na2vs0mg"},{"bike_id":"dc9f2c95-4126-4f2e-a238-ab47d9088fdf","system_id":"levelo_inurba_marseille","lat":43.23151,"lon":5.43716,"is_reserved":false,"is_disabled":false,"rental_uris":{"android":"levelo://app?vid=dc9f2c95-4126-4f2e-a238-ab47d9088fdf","ios":"levelo://app?vid=dc9f2c95-4126-4f2e-a238-ab47d9088fdf"},"vehicle_type_id":"4","last_reported":1748416223,"current_range_meters":8000,"station_id":"ce4bhmp2rcd13ifvqgog","pricing_plan_id":"cebpf4jnsgd1na2vs0mg"},{"bike_id":"1c4d626c-93ab-41b9-815e-96048904b577","system_id":"levelo_inurba_marseille","lat":43.24062,"lon":5.37773,"is_reserved":false,"is_disabled":false,"rental_uris":{"android":"levelo://app?vid=1c4d626c-93ab-41b9-815e-96048904b577","ios":"levelo://app?vid=1c4d626c-93ab-41b9-815e-96048904b577"},"vehicle_type_id":"4","last_reported":1748416223,"current_range_meters":8000,"station_id":"ce4bhnp2rcd13ifvqgvg","pricing_plan_id":"cebpf4jnsgd1na2vs0mg"},{"bike_id":"d8db6292-a3a7-42bd-8928-c2899ce6cf38","system_id":"levelo_inurba_marseille","lat":43.29102,"lon":5.38137,"is_reserved":false,"is_disabled":false,"rental_uris":{"android":"levelo://app?vid=d8db6292-a3a7-42bd-8928-c2899ce6cf38","ios":"levelo://app?vid=d8db6292-a3a7-42bd-8928-c2899ce6cf38"},"vehicle_type_id":"4","last_reported":1748416223,"current_range_meters":8000,"station_id":"ce4bh512rcd13ifvqe2g","pricing_plan_id":"cebpf4jnsgd1na2vs0mg"},{"bike_id":"1299cbc6-d4d8-46ad-9df9-f42fe3791396","system_id":"levelo_inurba_marseille","lat":43.25935,"lon":5.40899,"is_reserved":false,"is_disabled":false,"rental_uris":{"android":"levelo://app?vid=1299cbc6-d4d8-46ad-9df9-f42fe3791396","ios":"levelo://app?vid=1299cbc6-d4d8-46ad-9df9-f42fe3791396"},"vehicle_type_id":"4","last_reported":1748416223,"current_range_meters":8000,"station_id":"ce4bhm92rcd13ifvqglg","pricing_plan_id":"cebpf4jnsgd1na2vs0mg"},{"bike_id":"31eb1c1c-c5a5-4f60-aaa0-7dd8c371696a","system_id":"levelo_inurba_marseille","lat":43.279408,"lon":5.410304,"is_reserved":false,"is_disabled":true,"rental_uris":{"android":"levelo://app?vid=31eb1c1c-c5a5-4f60-aaa0-7dd8c371696a","ios":"levelo://app?vid=31eb1c1c-c5a5-4f60-aaa0-7dd8c371696a"},"vehicle_type_id":"4","last_reported":1748416223,"current_range_meters":8400,"station_id":"ce4bhnp2rcd13ifvqh0g","pricing_plan_id":"cebpf4jnsgd1na2vs0mg"},{"bike_id":"f0d83b53-4594-4033-afb0-0d9b1a402851","system_id":"levelo_inurba_marseille","lat":43.31114,"lon":5.37755,"is_reserved":false,"is_disabled":false,"rental_uris":{"android":"levelo://app?vid=f0d83b53-4594-4033-afb0-0d9b1a402851","ios":"levelo://app?vid=f0d83b53-4594-4033-afb0-0d9b1a402851"},"vehicle_type_id":"4","last_reported":1748416223,"current_range_meters":8400,"station_id":"ce4bgt92rcd13ifvqcg0","pricing_plan_id":"cebpf4jnsgd1na2vs0mg"},{"bike_id":"226e8884-45e8-4155-9023-6b9c578286c2","system_id":"levelo_inurba_marseille","lat":43.30609,"lon":5.37231,"is_reserved":false,"is_disabled":false,"rental_uris":{"android":"levelo://app?vid=226e8884-45e8-4155-9023-6b9c578286c2","ios":"levelo://app?vid=226e8884-45e8-4155-9023-6b9c578286c2"},"vehicle_type_id":"4","last_reported":1748416223,"current_range_meters":8400,"station_id":"ce4bgqh2rcd13ifvqc4g","pricing_plan_id":"cebpf4jnsgd1na2vs0mg"},{"bike_id":"630e3090-df9f-4e61-a2d8-b2bbefd032a0","system_id":"levelo_inurba_marseille","lat":43.246094,"lon":5.39294,"is_reserved":false,"is_disabled":false,"rental_uris":{"android":"levelo://app?vid=630e3090-df9f-4e61-a2d8-b2bbefd032a0","ios":"levelo://app?vid=630e3090-df9f-4e61-a2d8-b2bbefd032a0"},"vehicle_type_id":"4","last_reported":1748416223,"current_range_meters":8400,"station_id":"","pricing_plan_id":"cebpf4jnsgd1na2vs0mg"},{"bike_id":"750cd266-1caa-4a94-a6cc-ad7889b1b954","system_id":"levelo_inurba_marseille","lat":43.29909,"lon":5.38149,"is_reserved":false,"is_disabled":false,"rental_uris":{"android":"levelo://app?vid=750cd266-1caa-4a94-a6cc-ad7889b1b954","ios":"levelo://app?vid=750cd266-1caa-4a94-a6cc-ad7889b1b954"},"vehicle_type_id":"4","last_reported":1748416223,"current_range_meters":8400,"station_id":"ce4bgj12rcd13ifvqbc0","pricing_plan_id":"cebpf4jnsgd1na2vs0mg"},{"bike_id":"ce243f79-97e1-4d08-8264-3b8fc271bfb9","system_id":"levelo_inurba_marseille","lat":43.31332,"lon":5.36726,"is_reserved":false,"is_disabled":false,"rental_uris":{"android":"levelo://app?vid=ce243f79-97e1-4d08-8264-3b8fc271bfb9","ios":"levelo://app?vid=ce243f79-97e1-4d08-8264-3b8fc271bfb9"},"vehicle_type_id":"4","last_reported":1748416223,"current_range_meters":8400,"station_id":"ce4bgr92rcd13ifvqc6g","pricing_plan_id":"cebpf4jnsgd1na2vs0mg"},{"bike_id":"a3ac0e4d-492d-457a-8b5d-3ba549ed986d","system_id":"levelo_inurba_marseille","lat":43.294335,"lon":5.397595,"is_reserved":false,"is_disabled":true,"rental_uris":{"android":"levelo://app?vid=a3ac0e4d-492d-457a-8b5d-3ba549ed986d","ios":"levelo://app?vid=a3ac0e4d-492d-457a-8b5d-3ba549ed986d"},"vehicle_type_id":"4","last_reported":1748416223,"current_range_meters":8800,"station_id":"ce4bh3h2rcd13ifvqdo0","pricing_plan_id":"cebpf4jnsgd1na2vs0mg"},{"bike_id":"7a65e3be-209f-451a-8d0f-734d6f59b819","system_id":"levelo_inurba_marseille","lat":43.29547,"lon":5.39426,"is_reserved":false,"is_disabled":false,"rental_uris":{"android":"levelo://app?vid=7a65e3be-209f-451a-8d0f-734d6f59b819","ios":"levelo://app?vid=7a65e3be-209f-451a-8d0f-734d6f59b819"},"vehicle_type_id":"4","last_reported":1748416223,"current_range_meters":8800,"station_id":"ce4bh292rcd13ifvqdf0","pricing_plan_id":"cebpf4jnsgd1na2vs0mg"},{"bike_id":"436d70fa-07c2-41b1-9b01-3bed2b522ce2","system_id":"levelo_inurba_marseille","lat":43.303763,"lon":5.424863,"is_reserved":false,"is_disabled":false,"rental_uris":{"android":"levelo://app?vid=436d70fa-07c2-41b1-9b01-3bed2b522ce2","ios":"levelo://app?vid=436d70fa-07c2-41b1-9b01-3bed2b522ce2"},"vehicle_type_id":"4","last_reported":1748416223,"current_range_meters":8800,"station_id":"ce4bhoh2rcd13ifvqh6g","pricing_plan_id":"cebpf4jnsgd1na2vs0mg"},{"bike_id":"fcafe9f8-6c1d-430b-be57-b406b186888f","system_id":"levelo_inurba_marseille","lat":43.29042,"lon":5.39959,"is_reserved":false,"is_disabled":false,"rental_uris":{"android":"levelo://app?vid=fcafe9f8-6c1d-430b-be57-b406b186888f","ios":"levelo://app?vid=fcafe9f8-6c1d-430b-be57-b406b186888f"},"vehicle_type_id":"4","last_reported":1748416223,"current_range_meters":8800,"station_id":"ce4bh392rcd13ifvqdm0","pricing_plan_id":"cebpf4jnsgd1na2vs0mg"},{"bike_id":"d64481ab-cd92-4789-b3c3-100830d34711","system_id":"levelo_inurba_marseille","lat":43.30538,"lon":5.36555,"is_reserved":false,"is_disabled":false,"rental_uris":{"android":"levelo://app?vid=d64481ab-cd92-4789-b3c3-100830d34711","ios":"levelo://app?vid=d64481ab-cd92-4789-b3c3-100830d34711"},"vehicle_type_id":"4","last_reported":1748416223,"current_range_meters":8800,"station_id":"ce4bgs12rcd13ifvqcag","pricing_plan_id":"cebpf4jnsgd1na2vs0mg"},{"bike_id":"a3a1e2f8-c082-4657-9cf8-ceb282e14a71","system_id":"levelo_inurba_marseille","lat":43.231905,"lon":5.399931,"is_reserved":false,"is_disabled":false,"rental_uris":{"android":"levelo://app?vid=a3a1e2f8-c082-4657-9cf8-ceb282e14a71","ios":"levelo://app?vid=a3a1e2f8-c082-4657-9cf8-ceb282e14a71"},"vehicle_type_id":"4","last_reported":1748416223,"current_range_meters":8800,"station_id":"ce4bhn12rcd13ifvqgqg","pricing_plan_id":"cebpf4jnsgd1na2vs0mg"},{"bike_id":"81fd252e-9aec-4d99-91d4-42e1c514a805","system_id":"levelo_inurba_marseille","lat":43.27501,"lon":5.4245,"is_reserved":false,"is_disabled":false,"rental_uris":{"android":"levelo://app?vid=81fd252e-9aec-4d99-91d4-42e1c514a805","ios":"levelo://app?vid=81fd252e-9aec-4d99-91d4-42e1c514a805"},"vehicle_type_id":"4","last_reported":1748416223,"current_range_meters":8800,"station_id":"ce4bhn92rcd13ifvqgrg","pricing_plan_id":"cebpf4jnsgd1na2vs0mg"},{"bike_id":"2a046dee-b3af-48c9-9659-b7d30ba20af5","system_id":"levelo_inurba_marseille","lat":43.24319,"lon":5.38011,"is_reserved":false,"is_disabled":false,"rental_uris":{"android":"levelo://app?vid=2a046dee-b3af-48c9-9659-b7d30ba20af5","ios":"levelo://app?vid=2a046dee-b3af-48c9-9659-b7d30ba20af5"},"vehicle_type_id":"4","last_reported":1748416223,"current_range_meters":8800,"station_id":"","pricing_plan_id":"cebpf4jnsgd1na2vs0mg"},{"bike_id":"e4a59270-9b01-400e-a0e7-b117b6d0416b","system_id":"levelo_inurba_marseille","lat":43.29034,"lon":5.37564,"is_reserved":false,"is_disabled":false,"rental_uris":{"android":"levelo://app?vid=e4a59270-9b01-400e-a0e7-b117b6d0416b","ios":"levelo://app?vid=e4a59270-9b01-400e-a0e7-b117b6d0416b"},"vehicle_type_id":"4","last_reported":1748416223,"current_range_meters":8800,"station_id":"ce4bh692rcd13ifvqe90","pricing_plan_id":"cebpf4jnsgd1na2vs0mg"},{"bike_id":"05df85d0-db73-419c-ae37-3810f0cddc7c","system_id":"levelo_inurba_marseille","lat":43.33058,"lon":5.39049,"is_reserved":false,"is_disabled":false,"rental_uris":{"android":"levelo://app?vid=05df85d0-db73-419c-ae37-3810f0cddc7c","ios":"levelo://app?vid=05df85d0-db73-419c-ae37-3810f0cddc7c"},"vehicle_type_id":"4","last_reported":1748416223,"current_range_meters":8800,"station_id":"ce4bhr92rcd13ifvqhrg","pricing_plan_id":"cebpf4jnsgd1na2vs0mg"},{"bike_id":"98377c28-6b3b-4163-9d34-1241df84d81a","system_id":"levelo_inurba_marseille","lat":43.30312,"lon":5.36896,"is_reserved":false,"is_disabled":false,"rental_uris":{"android":"levelo://app?vid=98377c28-6b3b-4163-9d34-1241df84d81a","ios":"levelo://app?vid=98377c28-6b3b-4163-9d34-1241df84d81a"},"vehicle_type_id":"4","last_reported":1748416223,"current_range_meters":8800,"station_id":"ce4bgqh2rcd13ifvqc5g","pricing_plan_id":"cebpf4jnsgd1na2vs0mg"},{"bike_id":"eaad625a-fbfa-4f29-b37e-f38df9bbf740","system_id":"levelo_inurba_marseille","lat":43.25492,"lon":5.37648,"is_reserved":false,"is_disabled":false,"rental_uris":{"android":"levelo://app?vid=eaad625a-fbfa-4f29-b37e-f38df9bbf740","ios":"levelo://app?vid=eaad625a-fbfa-4f29-b37e-f38df9bbf740"},"vehicle_type_id":"4","last_reported":1748416223,"current_range_meters":8800,"station_id":"ce4bhh12rcd13ifvqff0","pricing_plan_id":"cebpf4jnsgd1na2vs0mg"},{"bike_id":"50bf940f-deac-4a07-9325-7d7c9c2a5f73","system_id":"levelo_inurba_marseille","lat":43.25932,"lon":5.40903,"is_reserved":false,"is_disabled":false,"rental_uris":{"android":"levelo://app?vid=50bf940f-deac-4a07-9325-7d7c9c2a5f73","ios":"levelo://app?vid=50bf940f-deac-4a07-9325-7d7c9c2a5f73"},"vehicle_type_id":"4","last_reported":1748416223,"current_range_meters":9200,"station_id":"ce4bhm92rcd13ifvqglg","pricing_plan_id":"cebpf4jnsgd1na2vs0mg"},{"bike_id":"13ac7f36-dd8e-4c80-a21e-5d485985af1b","system_id":"levelo_inurba_marseille","lat":43.28564,"lon":5.40072,"is_reserved":false,"is_disabled":false,"rental_uris":{"android":"levelo://app?vid=13ac7f36-dd8e-4c80-a21e-5d485985af1b","ios":"levelo://app?vid=13ac7f36-dd8e-4c80-a21e-5d485985af1b"},"vehicle_type_id":"4","last_reported":1748416223,"current_range_meters":9200,"station_id":"","pricing_plan_id":"cebpf4jnsgd1na2vs0mg"},{"bike_id":"b8c9322f-39da-4e4b-9c86-924b0db979c0","system_id":"levelo_inurba_marseille","lat":43.32041,"lon":5.41528,"is_reserved":false,"is_disabled":false,"rental_uris":{"android":"levelo://app?vid=b8c9322f-39da-4e4b-9c86-924b0db979c0","ios":"levelo://app?vid=b8c9322f-39da-4e4b-9c86-924b0db979c0"},"vehicle_type_id":"4","last_reported":1748416223,"current_range_meters":9200,"station_id":"ce4bhq92rcd13ifvqhkg","pricing_plan_id":"cebpf4jnsgd1na2vs0mg"},{"bike_id":"c19f4746-a3bf-4cf9-8c31-62dd0e7752ba","system_id":"levelo_inurba_marseille","lat":43.27496,"lon":5.4245,"is_reserved":false,"is_disabled":false,"rental_uris":{"android":"levelo://app?vid=c19f4746-a3bf-4cf9-8c31-62dd0e7752ba","ios":"levelo://app?vid=c19f4746-a3bf-4cf9-8c31-62dd0e7752ba"},"vehicle_type_id":"4","last_reported":1748416223,"current_range_meters":9200,"station_id":"ce4bhn92rcd13ifvqgrg","pricing_plan_id":"cebpf4jnsgd1na2vs0mg"},{"bike_id":"3bcb1e7f-8821-40bf-91a4-970f37405bd9","system_id":"levelo_inurba_marseille","lat":43.26685,"lon":5.38266,"is_reserved":false,"is_disabled":false,"rental_uris":{"android":"levelo://app?vid=3bcb1e7f-8821-40bf-91a4-970f37405bd9","ios":"levelo://app?vid=3bcb1e7f-8821-40bf-91a4-970f37405bd9"},"vehicle_type_id":"4","last_reported":1748416223,"current_range_meters":9200,"station_id":"ce4bhg92rcd13ifvqf90","pricing_plan_id":"cebpf4jnsgd1na2vs0mg"},{"bike_id":"054314d5-9d7c-4873-9494-4f42b2677fed","system_id":"levelo_inurba_marseille","lat":43.31742,"lon":5.40472,"is_reserved":false,"is_disabled":false,"rental_uris":{"android":"levelo://app?vid=054314d5-9d7c-4873-9494-4f42b2677fed","ios":"levelo://app?vid=054314d5-9d7c-4873-9494-4f42b2677fed"},"vehicle_type_id":"4","last_reported":1748416223,"current_range_meters":9600,"station_id":"","pricing_plan_id":"cebpf4jnsgd1na2vs0mg"},{"bike_id":"e706525a-2419-4a07-ba09-541c457cf826","system_id":"levelo_inurba_marseille","lat":43.2657,"lon":5.39015,"is_reserved":false,"is_disabled":false,"rental_uris":{"android":"levelo://app?vid=e706525a-2419-4a07-ba09-541c457cf826","ios":"levelo://app?vid=e706525a-2419-4a07-ba09-541c457cf826"},"vehicle_type_id":"4","last_reported":1748416223,"current_range_meters":9600,"station_id":"ce4bhe12rcd13ifvqf30","pricing_plan_id":"cebpf4jnsgd1na2vs0mg"},{"bike_id":"dc15209f-f444-485e-b503-c3c74a4c3960","system_id":"levelo_inurba_marseille","lat":43.279642,"lon":5.387351,"is_reserved":false,"is_disabled":false,"rental_uris":{"android":"levelo://app?vid=dc15209f-f444-485e-b503-c3c74a4c3960","ios":"levelo://app?vid=dc15209f-f444-485e-b503-c3c74a4c3960"},"vehicle_type_id":"4","last_reported":1748416223,"current_range_meters":9600,"station_id":"ce4bhi12rcd13ifvqfo0","pricing_plan_id":"cebpf4jnsgd1na2vs0mg"},{"bike_id":"12a09175-03bd-4689-9626-a2bf629ae6b2","system_id":"levelo_inurba_marseille","lat":43.25862,"lon":5.39909,"is_reserved":false,"is_disabled":false,"rental_uris":{"android":"levelo://app?vid=12a09175-03bd-4689-9626-a2bf629ae6b2","ios":"levelo://app?vid=12a09175-03bd-4689-9626-a2bf629ae6b2"},"vehicle_type_id":"4","last_reported":1748416223,"current_range_meters":9600,"station_id":"ce4bhl92rcd13ifvqghg","pricing_plan_id":"cebpf4jnsgd1na2vs0mg"},{"bike_id":"8df45a8d-3714-43c4-86ff-683eedca0b91","system_id":"levelo_inurba_marseille","lat":43.33609,"lon":5.41042,"is_reserved":false,"is_disabled":false,"rental_uris":{"android":"levelo://app?vid=8df45a8d-3714-43c4-86ff-683eedca0b91","ios":"levelo://app?vid=8df45a8d-3714-43c4-86ff-683eedca0b91"},"vehicle_type_id":"4","last_reported":1748416223,"current_range_meters":9600,"station_id":"ce4bhqh2rcd13ifvqhmg","pricing_plan_id":"cebpf4jnsgd1na2vs0mg"},{"bike_id":"c12714ef-e205-4f3f-b7ed-779cb6a37ef5","system_id":"levelo_inurba_marseille","lat":43.29973,"lon":5.4133,"is_reserved":false,"is_disabled":false,"rental_uris":{"android":"levelo://app?vid=c12714ef-e205-4f3f-b7ed-779cb6a37ef5","ios":"levelo://app?vid=c12714ef-e205-4f3f-b7ed-779cb6a37ef5"},"vehicle_type_id":"4","last_reported":1748416223,"current_range_meters":9200,"station_id":"ce4bhp12rcd13ifvqh9g","pricing_plan_id":"cebpf4jnsgd1na2vs0mg"},{"bike_id":"58c565ec-4152-4033-9b18-66babf3bc18f","system_id":"levelo_inurba_marseille","lat":43.3061,"lon":5.37189,"is_reserved":false,"is_disabled":false,"rental_uris":{"android":"levelo://app?vid=58c565ec-4152-4033-9b18-66babf3bc18f","ios":"levelo://app?vid=58c565ec-4152-4033-9b18-66babf3bc18f"},"vehicle_type_id":"4","last_reported":1748416223,"current_range_meters":9600,"station_id":"ce4bgqh2rcd13ifvqc4g","pricing_plan_id":"cebpf4jnsgd1na2vs0mg"},{"bike_id":"b06e5f1a-fac2-4e60-aded-50bd827202c5","system_id":"levelo_inurba_marseille","lat":43.28155,"lon":5.42639,"is_reserved":false,"is_disabled":false,"rental_uris":{"android":"levelo://app?vid=b06e5f1a-fac2-4e60-aded-50bd827202c5","ios":"levelo://app?vid=b06e5f1a-fac2-4e60-aded-50bd827202c5"},"vehicle_type_id":"4","last_reported":1748416223,"current_range_meters":9600,"station_id":"ce4bhnh2rcd13ifvqgug","pricing_plan_id":"cebpf4jnsgd1na2vs0mg"},{"bike_id":"dbc8454c-6e91-4fb7-b6e3-6c0de5beff2c","system_id":"levelo_inurba_marseille","lat":43.299774,"lon":5.37167,"is_reserved":false,"is_disabled":false,"rental_uris":{"android":"levelo://app?vid=dbc8454c-6e91-4fb7-b6e3-6c0de5beff2c","ios":"levelo://app?vid=dbc8454c-6e91-4fb7-b6e3-6c0de5beff2c"},"vehicle_type_id":"4","last_reported":1748416223,"current_range_meters":9200,"station_id":"ce4bgr92rcd13ifvqc7g","pricing_plan_id":"cebpf4jnsgd1na2vs0mg"},{"bike_id":"83229224-589e-4c50-a778-c0c522497500","system_id":"levelo_inurba_marseille","lat":43.24163,"lon":5.39733,"is_reserved":false,"is_disabled":false,"rental_uris":{"android":"levelo://app?vid=83229224-589e-4c50-a778-c0c522497500","ios":"levelo://app?vid=83229224-589e-4c50-a778-c0c522497500"},"vehicle_type_id":"4","last_reported":1748416223,"current_range_meters":9600,"station_id":"ce4bhn12rcd13ifvqgpg","pricing_plan_id":"cebpf4jnsgd1na2vs0mg"},{"bike_id":"ff2e7846-d058-4f27-a097-2a3f45e7b4df","system_id":"levelo_inurba_marseille","lat":43.31223,"lon":5.3686,"is_reserved":false,"is_disabled":false,"rental_uris":{"android":"levelo://app?vid=ff2e7846-d058-4f27-a097-2a3f45e7b4df","ios":"levelo://app?vid=ff2e7846-d058-4f27-a097-2a3f45e7b4df"},"vehicle_type_id":"4","last_reported":1748416223,"current_range_meters":9600,"station_id":"ce4bgl92rcd13ifvqbq0","pricing_plan_id":"cebpf4jnsgd1na2vs0mg"},{"bike_id":"630d277c-082b-421f-b4b3-52c72b0c06ad","system_id":"levelo_inurba_marseille","lat":43.30955,"lon":5.39027,"is_reserved":false,"is_disabled":false,"rental_uris":{"android":"levelo://app?vid=630d277c-082b-421f-b4b3-52c72b0c06ad","ios":"levelo://app?vid=630d277c-082b-421f-b4b3-52c72b0c06ad"},"vehicle_type_id":"4","last_reported":1748416223,"current_range_meters":9600,"station_id":"ce4bgup2rcd13ifvqco0","pricing_plan_id":"cebpf4jnsgd1na2vs0mg"},{"bike_id":"52a0e6b1-d5bd-4874-9d0f-7612e60a21a4","system_id":"levelo_inurba_marseille","lat":43.29916,"lon":5.38895,"is_reserved":false,"is_disabled":false,"rental_uris":{"android":"levelo://app?vid=52a0e6b1-d5bd-4874-9d0f-7612e60a21a4","ios":"levelo://app?vid=52a0e6b1-d5bd-4874-9d0f-7612e60a21a4"},"vehicle_type_id":"4","last_reported":1748416223,"current_range_meters":9600,"station_id":"ce4bh392rcd13ifvqdl0","pricing_plan_id":"cebpf4jnsgd1na2vs0mg"},{"bike_id":"f757d16f-10d1-46fd-97c8-e7926b6602c0","system_id":"levelo_inurba_marseille","lat":43.308922,"lon":5.396338,"is_reserved":false,"is_disabled":false,"rental_uris":{"android":"levelo://app?vid=f757d16f-10d1-46fd-97c8-e7926b6602c0","ios":"levelo://app?vid=f757d16f-10d1-46fd-97c8-e7926b6602c0"},"vehicle_type_id":"4","last_reported":1748416223,"current_range_meters":10000,"station_id":"ce4bh012rcd13ifvqcv0","pricing_plan_id":"cebpf4jnsgd1na2vs0mg"},{"bike_id":"6ca3fe2f-1e73-486d-8308-93a639e51aac","system_id":"levelo_inurba_marseille","lat":43.24175,"lon":5.3974,"is_reserved":false,"is_disabled":false,"rental_uris":{"android":"levelo://app?vid=6ca3fe2f-1e73-486d-8308-93a639e51aac","ios":"levelo://app?vid=6ca3fe2f-1e73-486d-8308-93a639e51aac"},"vehicle_type_id":"4","last_reported":1748416223,"current_range_meters":10000,"station_id":"ce4bhn12rcd13ifvqgpg","pricing_plan_id":"cebpf4jnsgd1na2vs0mg"},{"bike_id":"1e9cfdb7-6b8a-4441-9f46-98e85a4be5d9","system_id":"levelo_inurba_marseille","lat":43.23148,"lon":5.43733,"is_reserved":false,"is_disabled":false,"rental_uris":{"android":"levelo://app?vid=1e9cfdb7-6b8a-4441-9f46-98e85a4be5d9","ios":"levelo://app?vid=1e9cfdb7-6b8a-4441-9f46-98e85a4be5d9"},"vehicle_type_id":"4","last_reported":1748416223,"current_range_meters":10000,"station_id":"ce4bhmp2rcd13ifvqgog","pricing_plan_id":"cebpf4jnsgd1na2vs0mg"},{"bike_id":"f0ecbad3-5c56-4efa-84f0-9f2a84b7774d","system_id":"levelo_inurba_marseille","lat":43.32211,"lon":5.38441,"is_reserved":false,"is_disabled":false,"rental_uris":{"android":"levelo://app?vid=f0ecbad3-5c56-4efa-84f0-9f2a84b7774d","ios":"levelo://app?vid=f0ecbad3-5c56-4efa-84f0-9f2a84b7774d"},"vehicle_type_id":"4","last_reported":1748416223,"current_range_meters":10000,"station_id":"","pricing_plan_id":"cebpf4jnsgd1na2vs0mg"},{"bike_id":"d210ed15-0cab-4985-be76-61173c3a81e4","system_id":"levelo_inurba_marseille","lat":43.28738,"lon":5.36082,"is_reserved":false,"is_disabled":true,"rental_uris":{"android":"levelo://app?vid=d210ed15-0cab-4985-be76-61173c3a81e4","ios":"levelo://app?vid=d210ed15-0cab-4985-be76-61173c3a81e4"},"vehicle_type_id":"4","last_reported":1748416223,"current_range_meters":10000,"station_id":"cki0cbj6b192h4jlfktg","pricing_plan_id":"cebpf4jnsgd1na2vs0mg"},{"bike_id":"755b1979-1d28-4462-9cd2-d78f45ae797e","system_id":"levelo_inurba_marseille","lat":43.29619,"lon":5.3772,"is_reserved":false,"is_disabled":false,"rental_uris":{"android":"levelo://app?vid=755b1979-1d28-4462-9cd2-d78f45ae797e","ios":"levelo://app?vid=755b1979-1d28-4462-9cd2-d78f45ae797e"},"vehicle_type_id":"4","last_reported":1748416223,"current_range_meters":10800,"station_id":"ce4bgi92rcd13ifvqb90","pricing_plan_id":"cebpf4jnsgd1na2vs0mg"},{"bike_id":"3c56dcd8-9cf2-4351-9731-c84d974aac12","system_id":"levelo_inurba_marseille","lat":43.31223,"lon":5.36858,"is_reserved":false,"is_disabled":false,"rental_uris":{"android":"levelo://app?vid=3c56dcd8-9cf2-4351-9731-c84d974aac12","ios":"levelo://app?vid=3c56dcd8-9cf2-4351-9731-c84d974aac12"},"vehicle_type_id":"4","last_reported":1748416223,"current_range_meters":10800,"station_id":"ce4bgl92rcd13ifvqbq0","pricing_plan_id":"cebpf4jnsgd1na2vs0mg"},{"bike_id":"96af7ad9-d446-4dc8-82d8-a26a4ab03864","system_id":"levelo_inurba_marseille","lat":43.27843,"lon":5.39214,"is_reserved":false,"is_disabled":false,"rental_uris":{"android":"levelo://app?vid=96af7ad9-d446-4dc8-82d8-a26a4ab03864","ios":"levelo://app?vid=96af7ad9-d446-4dc8-82d8-a26a4ab03864"},"vehicle_type_id":"4","last_reported":1748416223,"current_range_meters":10800,"station_id":"ce4bhjp2rcd13ifvqga0","pricing_plan_id":"cebpf4jnsgd1na2vs0mg"},{"bike_id":"f906686d-c7e2-45e9-a0f4-c8406888684a","system_id":"levelo_inurba_marseille","lat":43.29201,"lon":5.39322,"is_reserved":false,"is_disabled":false,"rental_uris":{"android":"levelo://app?vid=f906686d-c7e2-45e9-a0f4-c8406888684a","ios":"levelo://app?vid=f906686d-c7e2-45e9-a0f4-c8406888684a"},"vehicle_type_id":"4","last_reported":1748416223,"current_range_meters":10800,"station_id":"ce4bh192rcd13ifvqdd0","pricing_plan_id":"cebpf4jnsgd1na2vs0mg"},{"bike_id":"ceadcf1e-9c10-4fb5-af92-3ce0ed777030","system_id":"levelo_inurba_marseille","lat":43.30149,"lon":5.37423,"is_reserved":false,"is_disabled":false,"rental_uris":{"android":"levelo://app?vid=ceadcf1e-9c10-4fb5-af92-3ce0ed777030","ios":"levelo://app?vid=ceadcf1e-9c10-4fb5-af92-3ce0ed777030"},"vehicle_type_id":"4","last_reported":1748416223,"current_range_meters":10000,"station_id":"ce4bgs92rcd13ifvqcc0","pricing_plan_id":"cebpf4jnsgd1na2vs0mg"},{"bike_id":"8b8f4ddc-5f2d-41ad-9613-91a528fd4361","system_id":"levelo_inurba_marseille","lat":43.22933,"lon":5.353798,"is_reserved":false,"is_disabled":false,"rental_uris":{"android":"levelo://app?vid=8b8f4ddc-5f2d-41ad-9613-91a528fd4361","ios":"levelo://app?vid=8b8f4ddc-5f2d-41ad-9613-91a528fd4361"},"vehicle_type_id":"4","last_reported":1748416223,"current_range_meters":10800,"station_id":"cpo3532slgdg3j2ikp40","pricing_plan_id":"cebpf4jnsgd1na2vs0mg"},{"bike_id":"a9d7cedb-1bfb-477b-b70e-b0dbd3b1473e","system_id":"levelo_inurba_marseille","lat":43.24177,"lon":5.39724,"is_reserved":false,"is_disabled":false,"rental_uris":{"android":"levelo://app?vid=a9d7cedb-1bfb-477b-b70e-b0dbd3b1473e","ios":"levelo://app?vid=a9d7cedb-1bfb-477b-b70e-b0dbd3b1473e"},"vehicle_type_id":"4","last_reported":1748416223,"current_range_meters":11200,"station_id":"ce4bhn12rcd13ifvqgpg","pricing_plan_id":"cebpf4jnsgd1na2vs0mg"},{"bike_id":"9ed94f34-a328-46fc-b201-bade39dda6d1","system_id":"levelo_inurba_marseille","lat":43.25007,"lon":5.38919,"is_reserved":false,"is_disabled":false,"rental_uris":{"android":"levelo://app?vid=9ed94f34-a328-46fc-b201-bade39dda6d1","ios":"levelo://app?vid=9ed94f34-a328-46fc-b201-bade39dda6d1"},"vehicle_type_id":"4","last_reported":1748416223,"current_range_meters":11200,"station_id":"ce4bhgp2rcd13ifvqfd0","pricing_plan_id":"cebpf4jnsgd1na2vs0mg"},{"bike_id":"fd3b8926-9732-4665-beec-b59272be973b","system_id":"levelo_inurba_marseille","lat":43.311799,"lon":5.402049,"is_reserved":false,"is_disabled":false,"rental_uris":{"android":"levelo://app?vid=fd3b8926-9732-4665-beec-b59272be973b","ios":"levelo://app?vid=fd3b8926-9732-4665-beec-b59272be973b"},"vehicle_type_id":"4","last_reported":1748416223,"current_range_meters":11200,"station_id":"","pricing_plan_id":"cebpf4jnsgd1na2vs0mg"},{"bike_id":"34c6f0fc-a825-460a-874b-f9afa9305de8","system_id":"levelo_inurba_marseille","lat":43.306085,"lon":5.372183,"is_reserved":false,"is_disabled":false,"rental_uris":{"android":"levelo://app?vid=34c6f0fc-a825-460a-874b-f9afa9305de8","ios":"levelo://app?vid=34c6f0fc-a825-460a-874b-f9afa9305de8"},"vehicle_type_id":"4","last_reported":1748416223,"current_range_meters":11600,"station_id":"ce4bgqh2rcd13ifvqc4g","pricing_plan_id":"cebpf4jnsgd1na2vs0mg"},{"bike_id":"3faf1afc-b77c-4882-89e1-7ac1783d45a3","system_id":"levelo_inurba_marseille","lat":43.31709,"lon":5.37745,"is_reserved":false,"is_disabled":false,"rental_uris":{"android":"levelo://app?vid=3faf1afc-b77c-4882-89e1-7ac1783d45a3","ios":"levelo://app?vid=3faf1afc-b77c-4882-89e1-7ac1783d45a3"},"vehicle_type_id":"4","last_reported":1748416223,"current_range_meters":11600,"station_id":"ce4bgth2rcd13ifvqch0","pricing_plan_id":"cebpf4jnsgd1na2vs0mg"},{"bike_id":"78e5ac9a-0fa3-4a25-ad3c-b090edac3051","system_id":"levelo_inurba_marseille","lat":43.24055,"lon":5.37742,"is_reserved":false,"is_disabled":false,"rental_uris":{"android":"levelo://app?vid=78e5ac9a-0fa3-4a25-ad3c-b090edac3051","ios":"levelo://app?vid=78e5ac9a-0fa3-4a25-ad3c-b090edac3051"},"vehicle_type_id":"4","last_reported":1748416223,"current_range_meters":11600,"station_id":"ce4bhnp2rcd13ifvqgvg","pricing_plan_id":"cebpf4jnsgd1na2vs0mg"},{"bike_id":"46f1e1a2-421d-4288-9b19-22918bc7cc7f","system_id":"levelo_inurba_marseille","lat":43.232027,"lon":5.355521,"is_reserved":false,"is_disabled":false,"rental_uris":{"android":"levelo://app?vid=46f1e1a2-421d-4288-9b19-22918bc7cc7f","ios":"levelo://app?vid=46f1e1a2-421d-4288-9b19-22918bc7cc7f"},"vehicle_type_id":"4","last_reported":1748416223,"current_range_meters":11600,"station_id":"ce4bhu92rcd13ifvqi70","pricing_plan_id":"cebpf4jnsgd1na2vs0mg"},{"bike_id":"95866aa1-37a2-4aab-bd43-ef6e7161ff39","system_id":"levelo_inurba_marseille","lat":43.30892,"lon":5.37173,"is_reserved":false,"is_disabled":false,"rental_uris":{"android":"levelo://app?vid=95866aa1-37a2-4aab-bd43-ef6e7161ff39","ios":"levelo://app?vid=95866aa1-37a2-4aab-bd43-ef6e7161ff39"},"vehicle_type_id":"4","last_reported":1748416223,"current_range_meters":11600,"station_id":"ce4bguh2rcd13ifvqckg","pricing_plan_id":"cebpf4jnsgd1na2vs0mg"},{"bike_id":"a9887119-1ae4-45a3-9cb2-6bdd3e904c59","system_id":"levelo_inurba_marseille","lat":43.25716,"lon":5.41115,"is_reserved":false,"is_disabled":false,"rental_uris":{"android":"levelo://app?vid=a9887119-1ae4-45a3-9cb2-6bdd3e904c59","ios":"levelo://app?vid=a9887119-1ae4-45a3-9cb2-6bdd3e904c59"},"vehicle_type_id":"4","last_reported":1748416223,"current_range_meters":11600,"station_id":"ce4bhkp2rcd13ifvqgd0","pricing_plan_id":"cebpf4jnsgd1na2vs0mg"},{"bike_id":"e654cf01-26ce-4496-9798-088ceb96ffb5","system_id":"levelo_inurba_marseille","lat":43.24071,"lon":5.37763,"is_reserved":false,"is_disabled":false,"rental_uris":{"android":"levelo://app?vid=e654cf01-26ce-4496-9798-088ceb96ffb5","ios":"levelo://app?vid=e654cf01-26ce-4496-9798-088ceb96ffb5"},"vehicle_type_id":"4","last_reported":1748416223,"current_range_meters":11600,"station_id":"ce4bhnp2rcd13ifvqgvg","pricing_plan_id":"cebpf4jnsgd1na2vs0mg"},{"bike_id":"4793cb5c-37cc-47bc-a143-5cce901074fb","system_id":"levelo_inurba_marseille","lat":43.25498,"lon":5.3769,"is_reserved":false,"is_disabled":false,"rental_uris":{"android":"levelo://app?vid=4793cb5c-37cc-47bc-a143-5cce901074fb","ios":"levelo://app?vid=4793cb5c-37cc-47bc-a143-5cce901074fb"},"vehicle_type_id":"4","last_reported":1748416223,"current_range_meters":11200,"station_id":"ce4bhh12rcd13ifvqff0","pricing_plan_id":"cebpf4jnsgd1na2vs0mg"},{"bike_id":"fb82131b-5b21-41a9-a168-e2e4d0fc8dfc","system_id":"levelo_inurba_marseille","lat":43.24073,"lon":5.37756,"is_reserved":false,"is_disabled":false,"rental_uris":{"android":"levelo://app?vid=fb82131b-5b21-41a9-a168-e2e4d0fc8dfc","ios":"levelo://app?vid=fb82131b-5b21-41a9-a168-e2e4d0fc8dfc"},"vehicle_type_id":"4","last_reported":1748416223,"current_range_meters":12000,"station_id":"ce4bhnp2rcd13ifvqgvg","pricing_plan_id":"cebpf4jnsgd1na2vs0mg"},{"bike_id":"5c1ec119-2384-46d6-856b-c17ee3b075f7","system_id":"levelo_inurba_marseille","lat":43.25937,"lon":5.4091,"is_reserved":false,"is_disabled":false,"rental_uris":{"android":"levelo://app?vid=5c1ec119-2384-46d6-856b-c17ee3b075f7","ios":"levelo://app?vid=5c1ec119-2384-46d6-856b-c17ee3b075f7"},"vehicle_type_id":"4","last_reported":1748416223,"current_range_meters":10000,"station_id":"ce4bhm92rcd13ifvqglg","pricing_plan_id":"cebpf4jnsgd1na2vs0mg"},{"bike_id":"779a8d87-5bdb-4da8-b328-994b62377efd","system_id":"levelo_inurba_marseille","lat":43.28727,"lon":5.37937,"is_reserved":false,"is_disabled":false,"rental_uris":{"android":"levelo://app?vid=779a8d87-5bdb-4da8-b328-994b62377efd","ios":"levelo://app?vid=779a8d87-5bdb-4da8-b328-994b62377efd"},"vehicle_type_id":"4","last_reported":1748416223,"current_range_meters":12000,"station_id":"ce4bh9p2rcd13ifvqec0","pricing_plan_id":"cebpf4jnsgd1na2vs0mg"},{"bike_id":"04d43363-ff81-403c-bbca-b94708fa9e7f","system_id":"levelo_inurba_marseille","lat":43.25927,"lon":5.40891,"is_reserved":false,"is_disabled":false,"rental_uris":{"android":"levelo://app?vid=04d43363-ff81-403c-bbca-b94708fa9e7f","ios":"levelo://app?vid=04d43363-ff81-403c-bbca-b94708fa9e7f"},"vehicle_type_id":"4","last_reported":1748416223,"current_range_meters":12000,"station_id":"ce4bhm92rcd13ifvqglg","pricing_plan_id":"cebpf4jnsgd1na2vs0mg"},{"bike_id":"903690ce-aa85-4895-8856-e29f00073f5e","system_id":"levelo_inurba_marseille","lat":43.26056,"lon":5.39391,"is_reserved":false,"is_disabled":false,"rental_uris":{"android":"levelo://app?vid=903690ce-aa85-4895-8856-e29f00073f5e","ios":"levelo://app?vid=903690ce-aa85-4895-8856-e29f00073f5e"},"vehicle_type_id":"4","last_reported":1748416223,"current_range_meters":12000,"station_id":"ce4bhh92rcd13ifvqfj0","pricing_plan_id":"cebpf4jnsgd1na2vs0mg"},{"bike_id":"36428e9b-9a40-4723-826e-164f3489bd00","system_id":"levelo_inurba_marseille","lat":43.23175,"lon":5.39989,"is_reserved":false,"is_disabled":false,"rental_uris":{"android":"levelo://app?vid=36428e9b-9a40-4723-826e-164f3489bd00","ios":"levelo://app?vid=36428e9b-9a40-4723-826e-164f3489bd00"},"vehicle_type_id":"4","last_reported":1748416223,"current_range_meters":12000,"station_id":"ce4bhn12rcd13ifvqgqg","pricing_plan_id":"cebpf4jnsgd1na2vs0mg"},{"bike_id":"5c966832-f8d0-4e45-beb3-3748420531b2","system_id":"levelo_inurba_marseille","lat":43.24069,"lon":5.37761,"is_reserved":false,"is_disabled":false,"rental_uris":{"android":"levelo://app?vid=5c966832-f8d0-4e45-beb3-3748420531b2","ios":"levelo://app?vid=5c966832-f8d0-4e45-beb3-3748420531b2"},"vehicle_type_id":"4","last_reported":1748416223,"current_range_meters":12000,"station_id":"ce4bhnp2rcd13ifvqgvg","pricing_plan_id":"cebpf4jnsgd1na2vs0mg"},{"bike_id":"f689d449-d0ec-464c-9319-de295e0a037a","system_id":"levelo_inurba_marseille","lat":43.23956,"lon":5.3663,"is_reserved":false,"is_disabled":false,"rental_uris":{"android":"levelo://app?vid=f689d449-d0ec-464c-9319-de295e0a037a","ios":"levelo://app?vid=f689d449-d0ec-464c-9319-de295e0a037a"},"vehicle_type_id":"4","last_reported":1748416223,"current_range_meters":12000,"station_id":"ce4bhi12rcd13ifvqfp0","pricing_plan_id":"cebpf4jnsgd1na2vs0mg"},{"bike_id":"e410e9bb-6ffa-48fe-934b-538af504bab6","system_id":"levelo_inurba_marseille","lat":43.2306,"lon":5.35488,"is_reserved":false,"is_disabled":false,"rental_uris":{"android":"levelo://app?vid=e410e9bb-6ffa-48fe-934b-538af504bab6","ios":"levelo://app?vid=e410e9bb-6ffa-48fe-934b-538af504bab6"},"vehicle_type_id":"4","last_reported":1748416223,"current_range_meters":12000,"station_id":"cpo3342slgdg3j2ifvpg","pricing_plan_id":"cebpf4jnsgd1na2vs0mg"},{"bike_id":"0cdae987-5f48-46c0-8b3d-0c385b47291f","system_id":"levelo_inurba_marseille","lat":43.23193,"lon":5.35555,"is_reserved":false,"is_disabled":false,"rental_uris":{"android":"levelo://app?vid=0cdae987-5f48-46c0-8b3d-0c385b47291f","ios":"levelo://app?vid=0cdae987-5f48-46c0-8b3d-0c385b47291f"},"vehicle_type_id":"4","last_reported":1748416223,"current_range_meters":12000,"station_id":"ce4bhu92rcd13ifvqi70","pricing_plan_id":"cebpf4jnsgd1na2vs0mg"},{"bike_id":"cb5e519d-d16a-4765-832b-63cd60f59110","system_id":"levelo_inurba_marseille","lat":43.28077,"lon":5.39657,"is_reserved":false,"is_disabled":false,"rental_uris":{"android":"levelo://app?vid=cb5e519d-d16a-4765-832b-63cd60f59110","ios":"levelo://app?vid=cb5e519d-d16a-4765-832b-63cd60f59110"},"vehicle_type_id":"4","last_reported":1748416223,"current_range_meters":12400,"station_id":"ce4bho12rcd13ifvqh2g","pricing_plan_id":"cebpf4jnsgd1na2vs0mg"},{"bike_id":"dd92dbbf-2f51-42b5-bf8d-cc2fe1edd6b4","system_id":"levelo_inurba_marseille","lat":43.30958,"lon":5.39026,"is_reserved":false,"is_disabled":true,"rental_uris":{"android":"levelo://app?vid=dd92dbbf-2f51-42b5-bf8d-cc2fe1edd6b4","ios":"levelo://app?vid=dd92dbbf-2f51-42b5-bf8d-cc2fe1edd6b4"},"vehicle_type_id":"4","last_reported":1748416223,"current_range_meters":12400,"station_id":"ce4bgup2rcd13ifvqco0","pricing_plan_id":"cebpf4jnsgd1na2vs0mg"},{"bike_id":"e4c7b18e-4ab4-4228-9b58-c0e3eb83d899","system_id":"levelo_inurba_marseille","lat":43.26793,"lon":5.39403,"is_reserved":false,"is_disabled":false,"rental_uris":{"android":"levelo://app?vid=e4c7b18e-4ab4-4228-9b58-c0e3eb83d899","ios":"levelo://app?vid=e4c7b18e-4ab4-4228-9b58-c0e3eb83d899"},"vehicle_type_id":"4","last_reported":1748416223,"current_range_meters":12400,"station_id":"ce4bhh12rcd13ifvqfg0","pricing_plan_id":"cebpf4jnsgd1na2vs0mg"},{"bike_id":"32187d43-2c2a-4b0a-bfc0-fa5befe6bfe4","system_id":"levelo_inurba_marseille","lat":43.30471,"lon":5.37915,"is_reserved":false,"is_disabled":false,"rental_uris":{"android":"levelo://app?vid=32187d43-2c2a-4b0a-bfc0-fa5befe6bfe4","ios":"levelo://app?vid=32187d43-2c2a-4b0a-bfc0-fa5befe6bfe4"},"vehicle_type_id":"4","last_reported":1748416223,"current_range_meters":12000,"station_id":"ce4bgup2rcd13ifvqcn0","pricing_plan_id":"cebpf4jnsgd1na2vs0mg"},{"bike_id":"03ca67c8-76ae-474e-a789-009fb309b66c","system_id":"levelo_inurba_marseille","lat":43.30944,"lon":5.39023,"is_reserved":false,"is_disabled":false,"rental_uris":{"android":"levelo://app?vid=03ca67c8-76ae-474e-a789-009fb309b66c","ios":"levelo://app?vid=03ca67c8-76ae-474e-a789-009fb309b66c"},"vehicle_type_id":"4","last_reported":1748416223,"current_range_meters":12800,"station_id":"ce4bgup2rcd13ifvqco0","pricing_plan_id":"cebpf4jnsgd1na2vs0mg"},{"bike_id":"889080ce-173f-45ed-bbaa-89d13c08c784","system_id":"levelo_inurba_marseille","lat":43.29276,"lon":5.40113,"is_reserved":false,"is_disabled":false,"rental_uris":{"android":"levelo://app?vid=889080ce-173f-45ed-bbaa-89d13c08c784","ios":"levelo://app?vid=889080ce-173f-45ed-bbaa-89d13c08c784"},"vehicle_type_id":"4","last_reported":1748416223,"current_range_meters":12800,"station_id":"ce4bh312rcd13ifvqdk0","pricing_plan_id":"cebpf4jnsgd1na2vs0mg"},{"bike_id":"66ce27fa-93cf-4af2-b68b-f853af9cec83","system_id":"levelo_inurba_marseille","lat":43.295066,"lon":5.374448,"is_reserved":false,"is_disabled":false,"rental_uris":{"android":"levelo://app?vid=66ce27fa-93cf-4af2-b68b-f853af9cec83","ios":"levelo://app?vid=66ce27fa-93cf-4af2-b68b-f853af9cec83"},"vehicle_type_id":"4","last_reported":1748416223,"current_range_meters":12800,"station_id":"ce4bgh92rcd13ifvqb50","pricing_plan_id":"cebpf4jnsgd1na2vs0mg"},{"bike_id":"25fe1924-4408-4709-a1de-804f3412a784","system_id":"levelo_inurba_marseille","lat":43.31347,"lon":5.36684,"is_reserved":false,"is_disabled":false,"rental_uris":{"android":"levelo://app?vid=25fe1924-4408-4709-a1de-804f3412a784","ios":"levelo://app?vid=25fe1924-4408-4709-a1de-804f3412a784"},"vehicle_type_id":"4","last_reported":1748416223,"current_range_meters":12800,"station_id":"ce4bgr92rcd13ifvqc6g","pricing_plan_id":"cebpf4jnsgd1na2vs0mg"},{"bike_id":"70683863-08d9-4c4a-84c2-e74ca6b5a696","system_id":"levelo_inurba_marseille","lat":43.29225,"lon":5.36057,"is_reserved":false,"is_disabled":false,"rental_uris":{"android":"levelo://app?vid=70683863-08d9-4c4a-84c2-e74ca6b5a696","ios":"levelo://app?vid=70683863-08d9-4c4a-84c2-e74ca6b5a696"},"vehicle_type_id":"4","last_reported":1748416223,"current_range_meters":12800,"station_id":"ce4bhbh2rcd13ifvqeqg","pricing_plan_id":"cebpf4jnsgd1na2vs0mg"},{"bike_id":"569f5c38-7fc1-4ed5-ac4c-20e43c610d58","system_id":"levelo_inurba_marseille","lat":43.31345,"lon":5.36706,"is_reserved":false,"is_disabled":false,"rental_uris":{"android":"levelo://app?vid=569f5c38-7fc1-4ed5-ac4c-20e43c610d58","ios":"levelo://app?vid=569f5c38-7fc1-4ed5-ac4c-20e43c610d58"},"vehicle_type_id":"4","last_reported":1748416223,"current_range_meters":13600,"station_id":"ce4bgr92rcd13ifvqc6g","pricing_plan_id":"cebpf4jnsgd1na2vs0mg"},{"bike_id":"c05d129d-02ec-475b-8cd0-1a45a4e9edbd","system_id":"levelo_inurba_marseille","lat":43.31355,"lon":5.36711,"is_reserved":false,"is_disabled":false,"rental_uris":{"android":"levelo://app?vid=c05d129d-02ec-475b-8cd0-1a45a4e9edbd","ios":"levelo://app?vid=c05d129d-02ec-475b-8cd0-1a45a4e9edbd"},"vehicle_type_id":"4","last_reported":1748416223,"current_range_meters":13600,"station_id":"ce4bgr92rcd13ifvqc6g","pricing_plan_id":"cebpf4jnsgd1na2vs0mg"},{"bike_id":"f684b1c0-209b-46ae-a3e5-5ad68cf29a7b","system_id":"levelo_inurba_marseille","lat":43.31343,"lon":5.36717,"is_reserved":false,"is_disabled":false,"rental_uris":{"android":"levelo://app?vid=f684b1c0-209b-46ae-a3e5-5ad68cf29a7b","ios":"levelo://app?vid=f684b1c0-209b-46ae-a3e5-5ad68cf29a7b"},"vehicle_type_id":"4","last_reported":1748416223,"current_range_meters":13600,"station_id":"ce4bgr92rcd13ifvqc6g","pricing_plan_id":"cebpf4jnsgd1na2vs0mg"},{"bike_id":"2a529e4a-98c3-4022-8fed-d80a6b40c232","system_id":"levelo_inurba_marseille","lat":43.24552,"lon":5.39521,"is_reserved":false,"is_disabled":false,"rental_uris":{"android":"levelo://app?vid=2a529e4a-98c3-4022-8fed-d80a6b40c232","ios":"levelo://app?vid=2a529e4a-98c3-4022-8fed-d80a6b40c232"},"vehicle_type_id":"4","last_reported":1748416223,"current_range_meters":13600,"station_id":"ce4bhlp2rcd13ifvqgjg","pricing_plan_id":"cebpf4jnsgd1na2vs0mg"},{"bike_id":"e736686f-625a-4d9a-a7d4-f55f37278fdb","system_id":"levelo_inurba_marseille","lat":43.294221,"lon":5.386033,"is_reserved":false,"is_disabled":true,"rental_uris":{"android":"levelo://app?vid=e736686f-625a-4d9a-a7d4-f55f37278fdb","ios":"levelo://app?vid=e736686f-625a-4d9a-a7d4-f55f37278fdb"},"vehicle_type_id":"4","last_reported":1748416223,"current_range_meters":13600,"station_id":"ce4bh2h2rcd13ifvqdh0","pricing_plan_id":"cebpf4jnsgd1na2vs0mg"},{"bike_id":"2583d94f-b947-4a62-a8a9-fc1347564375","system_id":"levelo_inurba_marseille","lat":43.25574,"lon":5.3825,"is_reserved":false,"is_disabled":false,"rental_uris":{"android":"levelo://app?vid=2583d94f-b947-4a62-a8a9-fc1347564375","ios":"levelo://app?vid=2583d94f-b947-4a62-a8a9-fc1347564375"},"vehicle_type_id":"4","last_reported":1748416223,"current_range_meters":14000,"station_id":"ce4bhih2rcd13ifvqfs0","pricing_plan_id":"cebpf4jnsgd1na2vs0mg"},{"bike_id":"361b0a76-0807-4bc7-963e-b408fcbe6ee9","system_id":"levelo_inurba_marseille","lat":43.23146,"lon":5.43735,"is_reserved":false,"is_disabled":true,"rental_uris":{"android":"levelo://app?vid=361b0a76-0807-4bc7-963e-b408fcbe6ee9","ios":"levelo://app?vid=361b0a76-0807-4bc7-963e-b408fcbe6ee9"},"vehicle_type_id":"4","last_reported":1748416223,"current_range_meters":14000,"station_id":"ce4bhmp2rcd13ifvqgog","pricing_plan_id":"cebpf4jnsgd1na2vs0mg"},{"bike_id":"6e2b2659-a15b-4503-ac18-c5964c35fe27","system_id":"levelo_inurba_marseille","lat":43.25931,"lon":5.40914,"is_reserved":false,"is_disabled":true,"rental_uris":{"android":"levelo://app?vid=6e2b2659-a15b-4503-ac18-c5964c35fe27","ios":"levelo://app?vid=6e2b2659-a15b-4503-ac18-c5964c35fe27"},"vehicle_type_id":"4","last_reported":1748416223,"current_range_meters":14000,"station_id":"ce4bhm92rcd13ifvqglg","pricing_plan_id":"cebpf4jnsgd1na2vs0mg"},{"bike_id":"62a306c3-00ef-4d93-80c5-3d8743d57e71","system_id":"levelo_inurba_marseille","lat":43.25937,"lon":5.40906,"is_reserved":false,"is_disabled":false,"rental_uris":{"android":"levelo://app?vid=62a306c3-00ef-4d93-80c5-3d8743d57e71","ios":"levelo://app?vid=62a306c3-00ef-4d93-80c5-3d8743d57e71"},"vehicle_type_id":"4","last_reported":1748416223,"current_range_meters":14000,"station_id":"ce4bhm92rcd13ifvqglg","pricing_plan_id":"cebpf4jnsgd1na2vs0mg"},{"bike_id":"7843f375-ee45-4790-b4bd-d19c918be74a","system_id":"levelo_inurba_marseille","lat":43.29019,"lon":5.38127,"is_reserved":false,"is_disabled":false,"rental_uris":{"android":"levelo://app?vid=7843f375-ee45-4790-b4bd-d19c918be74a","ios":"levelo://app?vid=7843f375-ee45-4790-b4bd-d19c918be74a"},"vehicle_type_id":"4","last_reported":1748416223,"current_range_meters":14000,"station_id":"ce4bh4p2rcd13ifvqe1g","pricing_plan_id":"cebpf4jnsgd1na2vs0mg"},{"bike_id":"5b71d762-ff7f-46b3-a906-4507d388dbfe","system_id":"levelo_inurba_marseille","lat":43.298866,"lon":5.397352,"is_reserved":false,"is_disabled":true,"rental_uris":{"android":"levelo://app?vid=5b71d762-ff7f-46b3-a906-4507d388dbfe","ios":"levelo://app?vid=5b71d762-ff7f-46b3-a906-4507d388dbfe"},"vehicle_type_id":"4","last_reported":1748416223,"current_range_meters":14400,"station_id":"ce4bh0h2rcd13ifvqd50","pricing_plan_id":"cebpf4jnsgd1na2vs0mg"},{"bike_id":"2fd6a4e5-43ec-42c9-896d-3fff55f0a81b","system_id":"levelo_inurba_marseille","lat":43.31365,"lon":5.38492,"is_reserved":false,"is_disabled":false,"rental_uris":{"android":"levelo://app?vid=2fd6a4e5-43ec-42c9-896d-3fff55f0a81b","ios":"levelo://app?vid=2fd6a4e5-43ec-42c9-896d-3fff55f0a81b"},"vehicle_type_id":"4","last_reported":1748416223,"current_range_meters":14400,"station_id":"ce4bgt92rcd13ifvqcf0","pricing_plan_id":"cebpf4jnsgd1na2vs0mg"},{"bike_id":"54635bce-faa1-4993-90e6-78c7ecd6050a","system_id":"levelo_inurba_marseille","lat":43.301905,"lon":5.366045,"is_reserved":false,"is_disabled":false,"rental_uris":{"android":"levelo://app?vid=54635bce-faa1-4993-90e6-78c7ecd6050a","ios":"levelo://app?vid=54635bce-faa1-4993-90e6-78c7ecd6050a"},"vehicle_type_id":"4","last_reported":1748416223,"current_range_meters":14400,"station_id":"ce4bgrh2rcd13ifvqc8g","pricing_plan_id":"cebpf4jnsgd1na2vs0mg"},{"bike_id":"1fed5cf7-13b7-4dc4-814e-e55c1b74556e","system_id":"levelo_inurba_marseille","lat":43.292699,"lon":5.401131,"is_reserved":false,"is_disabled":true,"rental_uris":{"android":"levelo://app?vid=1fed5cf7-13b7-4dc4-814e-e55c1b74556e","ios":"levelo://app?vid=1fed5cf7-13b7-4dc4-814e-e55c1b74556e"},"vehicle_type_id":"4","last_reported":1748416223,"current_range_meters":14400,"station_id":"ce4bh312rcd13ifvqdk0","pricing_plan_id":"cebpf4jnsgd1na2vs0mg"},{"bike_id":"e119dd17-c349-495c-ae07-4f88db41994b","system_id":"levelo_inurba_marseille","lat":43.32366,"lon":5.36756,"is_reserved":false,"is_disabled":false,"rental_uris":{"android":"levelo://app?vid=e119dd17-c349-495c-ae07-4f88db41994b","ios":"levelo://app?vid=e119dd17-c349-495c-ae07-4f88db41994b"},"vehicle_type_id":"4","last_reported":1748416223,"current_range_meters":14400,"station_id":"ce4bhsh2rcd13ifvqi2g","pricing_plan_id":"cebpf4jnsgd1na2vs0mg"},{"bike_id":"3f40ad98-3811-4557-8acd-25cbae33b3aa","system_id":"levelo_inurba_marseille","lat":43.23959,"lon":5.36629,"is_reserved":false,"is_disabled":false,"rental_uris":{"android":"levelo://app?vid=3f40ad98-3811-4557-8acd-25cbae33b3aa","ios":"levelo://app?vid=3f40ad98-3811-4557-8acd-25cbae33b3aa"},"vehicle_type_id":"4","last_reported":1748416223,"current_range_meters":14400,"station_id":"ce4bhi12rcd13ifvqfp0","pricing_plan_id":"cebpf4jnsgd1na2vs0mg"},{"bike_id":"7747b843-d8bb-4e22-aad8-abfae33c4aae","system_id":"levelo_inurba_marseille","lat":43.31574,"lon":5.38629,"is_reserved":false,"is_disabled":false,"rental_uris":{"android":"levelo://app?vid=7747b843-d8bb-4e22-aad8-abfae33c4aae","ios":"levelo://app?vid=7747b843-d8bb-4e22-aad8-abfae33c4aae"},"vehicle_type_id":"4","last_reported":1748416223,"current_range_meters":14400,"station_id":"","pricing_plan_id":"cebpf4jnsgd1na2vs0mg"},{"bike_id":"2482037b-00d9-4113-90a4-3a14dd9d4855","system_id":"levelo_inurba_marseille","lat":43.26236,"lon":5.38779,"is_reserved":false,"is_disabled":false,"rental_uris":{"android":"levelo://app?vid=2482037b-00d9-4113-90a4-3a14dd9d4855","ios":"levelo://app?vid=2482037b-00d9-4113-90a4-3a14dd9d4855"},"vehicle_type_id":"4","last_reported":1748416223,"current_range_meters":14800,"station_id":"","pricing_plan_id":"cebpf4jnsgd1na2vs0mg"},{"bike_id":"8a8e761a-ee9d-4452-b949-ed6336e62ee9","system_id":"levelo_inurba_marseille","lat":43.31352,"lon":5.36695,"is_reserved":false,"is_disabled":false,"rental_uris":{"android":"levelo://app?vid=8a8e761a-ee9d-4452-b949-ed6336e62ee9","ios":"levelo://app?vid=8a8e761a-ee9d-4452-b949-ed6336e62ee9"},"vehicle_type_id":"4","last_reported":1748416223,"current_range_meters":14800,"station_id":"ce4bgr92rcd13ifvqc6g","pricing_plan_id":"cebpf4jnsgd1na2vs0mg"},{"bike_id":"f7cf98d2-a66e-40fc-a992-2bacb28c9536","system_id":"levelo_inurba_marseille","lat":43.30282,"lon":5.37706,"is_reserved":false,"is_disabled":false,"rental_uris":{"android":"levelo://app?vid=f7cf98d2-a66e-40fc-a992-2bacb28c9536","ios":"levelo://app?vid=f7cf98d2-a66e-40fc-a992-2bacb28c9536"},"vehicle_type_id":"4","last_reported":1748416223,"current_range_meters":14800,"station_id":"ce4bguh2rcd13ifvqcj0","pricing_plan_id":"cebpf4jnsgd1na2vs0mg"},{"bike_id":"f60fe965-3d4b-4583-bf69-4087ccd60ef3","system_id":"levelo_inurba_marseille","lat":43.25909,"lon":5.40895,"is_reserved":false,"is_disabled":false,"rental_uris":{"android":"levelo://app?vid=f60fe965-3d4b-4583-bf69-4087ccd60ef3","ios":"levelo://app?vid=f60fe965-3d4b-4583-bf69-4087ccd60ef3"},"vehicle_type_id":"4","last_reported":1748416223,"current_range_meters":14800,"station_id":"ce4bhm92rcd13ifvqglg","pricing_plan_id":"cebpf4jnsgd1na2vs0mg"},{"bike_id":"6ebb6dd7-e028-471a-a254-2363923c0cd9","system_id":"levelo_inurba_marseille","lat":43.32087,"lon":5.36752,"is_reserved":false,"is_disabled":false,"rental_uris":{"android":"levelo://app?vid=6ebb6dd7-e028-471a-a254-2363923c0cd9","ios":"levelo://app?vid=6ebb6dd7-e028-471a-a254-2363923c0cd9"},"vehicle_type_id":"4","last_reported":1748416223,"current_range_meters":14800,"station_id":"ce4bhrh2rcd13ifvqhug","pricing_plan_id":"cebpf4jnsgd1na2vs0mg"},{"bike_id":"f0f976ea-0a5e-4412-852f-b15746da6d43","system_id":"levelo_inurba_marseille","lat":43.30304,"lon":5.36899,"is_reserved":false,"is_disabled":false,"rental_uris":{"android":"levelo://app?vid=f0f976ea-0a5e-4412-852f-b15746da6d43","ios":"levelo://app?vid=f0f976ea-0a5e-4412-852f-b15746da6d43"},"vehicle_type_id":"4","last_reported":1748416223,"current_range_meters":14800,"station_id":"ce4bgqh2rcd13ifvqc5g","pricing_plan_id":"cebpf4jnsgd1na2vs0mg"},{"bike_id":"735bcf70-bb51-4dbe-93ef-3ff7c161efb4","system_id":"levelo_inurba_marseille","lat":43.3204,"lon":5.41558,"is_reserved":false,"is_disabled":true,"rental_uris":{"android":"levelo://app?vid=735bcf70-bb51-4dbe-93ef-3ff7c161efb4","ios":"levelo://app?vid=735bcf70-bb51-4dbe-93ef-3ff7c161efb4"},"vehicle_type_id":"4","last_reported":1748416223,"current_range_meters":14800,"station_id":"ce4bhq92rcd13ifvqhkg","pricing_plan_id":"cebpf4jnsgd1na2vs0mg"},{"bike_id":"349e7297-179d-46aa-af73-d0772f15795a","system_id":"levelo_inurba_marseille","lat":43.29979,"lon":5.38369,"is_reserved":false,"is_disabled":false,"rental_uris":{"android":"levelo://app?vid=349e7297-179d-46aa-af73-d0772f15795a","ios":"levelo://app?vid=349e7297-179d-46aa-af73-d0772f15795a"},"vehicle_type_id":"4","last_reported":1748416223,"current_range_meters":15200,"station_id":"","pricing_plan_id":"cebpf4jnsgd1na2vs0mg"},{"bike_id":"4920cc9b-3024-4aaf-80ec-6e71f192aff9","system_id":"levelo_inurba_marseille","lat":43.30537,"lon":5.36705,"is_reserved":false,"is_disabled":false,"rental_uris":{"android":"levelo://app?vid=4920cc9b-3024-4aaf-80ec-6e71f192aff9","ios":"levelo://app?vid=4920cc9b-3024-4aaf-80ec-6e71f192aff9"},"vehicle_type_id":"4","last_reported":1748416223,"current_range_meters":15200,"station_id":"ce4bgrp2rcd13ifvqc9g","pricing_plan_id":"cebpf4jnsgd1na2vs0mg"},{"bike_id":"e2e24c8f-87f2-44a3-b940-42fa8ef4cc5b","system_id":"levelo_inurba_marseille","lat":43.31224,"lon":5.36854,"is_reserved":false,"is_disabled":false,"rental_uris":{"android":"levelo://app?vid=e2e24c8f-87f2-44a3-b940-42fa8ef4cc5b","ios":"levelo://app?vid=e2e24c8f-87f2-44a3-b940-42fa8ef4cc5b"},"vehicle_type_id":"4","last_reported":1748416223,"current_range_meters":15200,"station_id":"ce4bgl92rcd13ifvqbq0","pricing_plan_id":"cebpf4jnsgd1na2vs0mg"},{"bike_id":"5bab4e9c-9c66-40ee-8f9b-d5cf3d633a28","system_id":"levelo_inurba_marseille","lat":43.30936,"lon":5.40139,"is_reserved":false,"is_disabled":false,"rental_uris":{"android":"levelo://app?vid=5bab4e9c-9c66-40ee-8f9b-d5cf3d633a28","ios":"levelo://app?vid=5bab4e9c-9c66-40ee-8f9b-d5cf3d633a28"},"vehicle_type_id":"4","last_reported":1748416223,"current_range_meters":15200,"station_id":"ce4bgvp2rcd13ifvqct0","pricing_plan_id":"cebpf4jnsgd1na2vs0mg"},{"bike_id":"463f635f-169a-4f65-8bb9-8666f7eab0d3","system_id":"levelo_inurba_marseille","lat":43.304415,"lon":5.397557,"is_reserved":false,"is_disabled":false,"rental_uris":{"android":"levelo://app?vid=463f635f-169a-4f65-8bb9-8666f7eab0d3","ios":"levelo://app?vid=463f635f-169a-4f65-8bb9-8666f7eab0d3"},"vehicle_type_id":"4","last_reported":1748416223,"current_range_meters":15200,"station_id":"ce4bh092rcd13ifvqd20","pricing_plan_id":"cebpf4jnsgd1na2vs0mg"},{"bike_id":"6c40f433-166f-4242-9b0e-e74b82e41af3","system_id":"levelo_inurba_marseille","lat":43.31102,"lon":5.377607,"is_reserved":false,"is_disabled":true,"rental_uris":{"android":"levelo://app?vid=6c40f433-166f-4242-9b0e-e74b82e41af3","ios":"levelo://app?vid=6c40f433-166f-4242-9b0e-e74b82e41af3"},"vehicle_type_id":"4","last_reported":1748416223,"current_range_meters":15200,"station_id":"ce4bgih2rcd13ifvqba0","pricing_plan_id":"cebpf4jnsgd1na2vs0mg"},{"bike_id":"c3aabf74-7776-48fb-8df4-53de7bc597a2","system_id":"levelo_inurba_marseille","lat":43.27497,"lon":5.42449,"is_reserved":false,"is_disabled":false,"rental_uris":{"android":"levelo://app?vid=c3aabf74-7776-48fb-8df4-53de7bc597a2","ios":"levelo://app?vid=c3aabf74-7776-48fb-8df4-53de7bc597a2"},"vehicle_type_id":"4","last_reported":1748416223,"current_range_meters":16000,"station_id":"ce4bhn92rcd13ifvqgrg","pricing_plan_id":"cebpf4jnsgd1na2vs0mg"},{"bike_id":"798b4dd9-09fd-4939-a396-5d8278d045a8","system_id":"levelo_inurba_marseille","lat":43.282091,"lon":5.390533,"is_reserved":false,"is_disabled":false,"rental_uris":{"android":"levelo://app?vid=798b4dd9-09fd-4939-a396-5d8278d045a8","ios":"levelo://app?vid=798b4dd9-09fd-4939-a396-5d8278d045a8"},"vehicle_type_id":"4","last_reported":1748416223,"current_range_meters":16000,"station_id":"","pricing_plan_id":"cebpf4jnsgd1na2vs0mg"},{"bike_id":"88f0b25b-9fcb-4934-ae2a-80fd3f534b8a","system_id":"levelo_inurba_marseille","lat":43.302051,"lon":5.366059,"is_reserved":false,"is_disabled":true,"rental_uris":{"android":"levelo://app?vid=88f0b25b-9fcb-4934-ae2a-80fd3f534b8a","ios":"levelo://app?vid=88f0b25b-9fcb-4934-ae2a-80fd3f534b8a"},"vehicle_type_id":"4","last_reported":1748416223,"current_range_meters":16000,"station_id":"ce4bgrh2rcd13ifvqc8g","pricing_plan_id":"cebpf4jnsgd1na2vs0mg"},{"bike_id":"28e9f28e-af18-4499-a13b-648fd8188c04","system_id":"levelo_inurba_marseille","lat":43.30178,"lon":5.38057,"is_reserved":false,"is_disabled":false,"rental_uris":{"android":"levelo://app?vid=28e9f28e-af18-4499-a13b-648fd8188c04","ios":"levelo://app?vid=28e9f28e-af18-4499-a13b-648fd8188c04"},"vehicle_type_id":"4","last_reported":1748416223,"current_range_meters":16000,"station_id":"ce4bgjp2rcd13ifvqbh0","pricing_plan_id":"cebpf4jnsgd1na2vs0mg"},{"bike_id":"3b07f020-3d8e-47eb-b723-de46e817e2a3","system_id":"levelo_inurba_marseille","lat":43.29739,"lon":5.38352,"is_reserved":false,"is_disabled":false,"rental_uris":{"android":"levelo://app?vid=3b07f020-3d8e-47eb-b723-de46e817e2a3","ios":"levelo://app?vid=3b07f020-3d8e-47eb-b723-de46e817e2a3"},"vehicle_type_id":"4","last_reported":1748416223,"current_range_meters":16000,"station_id":"","pricing_plan_id":"cebpf4jnsgd1na2vs0mg"},{"bike_id":"b404fd62-9160-4d31-8c08-a4bc764391f8","system_id":"levelo_inurba_marseille","lat":43.24081,"lon":5.3777,"is_reserved":false,"is_disabled":false,"rental_uris":{"android":"levelo://app?vid=b404fd62-9160-4d31-8c08-a4bc764391f8","ios":"levelo://app?vid=b404fd62-9160-4d31-8c08-a4bc764391f8"},"vehicle_type_id":"4","last_reported":1748416223,"current_range_meters":16000,"station_id":"ce4bhnp2rcd13ifvqgvg","pricing_plan_id":"cebpf4jnsgd1na2vs0mg"},{"bike_id":"3865b0a2-6909-4ea2-b648-0ed5dd91b7a2","system_id":"levelo_inurba_marseille","lat":43.22531,"lon":5.34773,"is_reserved":false,"is_disabled":false,"rental_uris":{"android":"levelo://app?vid=3865b0a2-6909-4ea2-b648-0ed5dd91b7a2","ios":"levelo://app?vid=3865b0a2-6909-4ea2-b648-0ed5dd91b7a2"},"vehicle_type_id":"4","last_reported":1748416223,"current_range_meters":16000,"station_id":"","pricing_plan_id":"cebpf4jnsgd1na2vs0mg"},{"bike_id":"18918d56-0ab0-4bca-b739-0945ea367e66","system_id":"levelo_inurba_marseille","lat":43.25932,"lon":5.40897,"is_reserved":false,"is_disabled":false,"rental_uris":{"android":"levelo://app?vid=18918d56-0ab0-4bca-b739-0945ea367e66","ios":"levelo://app?vid=18918d56-0ab0-4bca-b739-0945ea367e66"},"vehicle_type_id":"4","last_reported":1748416223,"current_range_meters":16000,"station_id":"ce4bhm92rcd13ifvqglg","pricing_plan_id":"cebpf4jnsgd1na2vs0mg"},{"bike_id":"7adbd369-f684-4c09-90a5-6bbf2f150346","system_id":"levelo_inurba_marseille","lat":43.32088,"lon":5.36779,"is_reserved":false,"is_disabled":false,"rental_uris":{"android":"levelo://app?vid=7adbd369-f684-4c09-90a5-6bbf2f150346","ios":"levelo://app?vid=7adbd369-f684-4c09-90a5-6bbf2f150346"},"vehicle_type_id":"4","last_reported":1748416223,"current_range_meters":16000,"station_id":"ce4bhrh2rcd13ifvqhug","pricing_plan_id":"cebpf4jnsgd1na2vs0mg"},{"bike_id":"eec255ab-7881-41de-a248-bdcd941fadb7","system_id":"levelo_inurba_marseille","lat":43.24535,"lon":5.39527,"is_reserved":false,"is_disabled":false,"rental_uris":{"android":"levelo://app?vid=eec255ab-7881-41de-a248-bdcd941fadb7","ios":"levelo://app?vid=eec255ab-7881-41de-a248-bdcd941fadb7"},"vehicle_type_id":"4","last_reported":1748416223,"current_range_meters":16000,"station_id":"ce4bhlp2rcd13ifvqgjg","pricing_plan_id":"cebpf4jnsgd1na2vs0mg"},{"bike_id":"e40ebd99-1592-4e0a-b9ce-39a056555757","system_id":"levelo_inurba_marseille","lat":43.26503,"lon":5.39533,"is_reserved":false,"is_disabled":false,"rental_uris":{"android":"levelo://app?vid=e40ebd99-1592-4e0a-b9ce-39a056555757","ios":"levelo://app?vid=e40ebd99-1592-4e0a-b9ce-39a056555757"},"vehicle_type_id":"4","last_reported":1748416223,"current_range_meters":16400,"station_id":"ce4bhi12rcd13ifvqfq0","pricing_plan_id":"cebpf4jnsgd1na2vs0mg"},{"bike_id":"33c9b097-6e6f-482d-adf6-fead1221d0df","system_id":"levelo_inurba_marseille","lat":43.30595,"lon":5.39346,"is_reserved":false,"is_disabled":false,"rental_uris":{"android":"levelo://app?vid=33c9b097-6e6f-482d-adf6-fead1221d0df","ios":"levelo://app?vid=33c9b097-6e6f-482d-adf6-fead1221d0df"},"vehicle_type_id":"4","last_reported":1748416223,"current_range_meters":16400,"station_id":"ce4bh0p2rcd13ifvqd80","pricing_plan_id":"cebpf4jnsgd1na2vs0mg"},{"bike_id":"397373d8-cac9-4027-8063-eed68a04bc29","system_id":"levelo_inurba_marseille","lat":43.31365,"lon":5.36698,"is_reserved":false,"is_disabled":false,"rental_uris":{"android":"levelo://app?vid=397373d8-cac9-4027-8063-eed68a04bc29","ios":"levelo://app?vid=397373d8-cac9-4027-8063-eed68a04bc29"},"vehicle_type_id":"4","last_reported":1748416223,"current_range_meters":16400,"station_id":"ce4bgr92rcd13ifvqc6g","pricing_plan_id":"cebpf4jnsgd1na2vs0mg"},{"bike_id":"33f48f82-876a-41ef-8a95-13953b48bc73","system_id":"levelo_inurba_marseille","lat":43.30952,"lon":5.39045,"is_reserved":false,"is_disabled":false,"rental_uris":{"android":"levelo://app?vid=33f48f82-876a-41ef-8a95-13953b48bc73","ios":"levelo://app?vid=33f48f82-876a-41ef-8a95-13953b48bc73"},"vehicle_type_id":"4","last_reported":1748416223,"current_range_meters":16400,"station_id":"ce4bgup2rcd13ifvqco0","pricing_plan_id":"cebpf4jnsgd1na2vs0mg"},{"bike_id":"052bd2f1-6848-4fc6-9829-fd88b39d5681","system_id":"levelo_inurba_marseille","lat":43.2945,"lon":5.39749,"is_reserved":false,"is_disabled":true,"rental_uris":{"android":"levelo://app?vid=052bd2f1-6848-4fc6-9829-fd88b39d5681","ios":"levelo://app?vid=052bd2f1-6848-4fc6-9829-fd88b39d5681"},"vehicle_type_id":"4","last_reported":1748416223,"current_range_meters":16400,"station_id":"ce4bh3h2rcd13ifvqdo0","pricing_plan_id":"cebpf4jnsgd1na2vs0mg"},{"bike_id":"ef77543b-22de-44af-930a-38e7dfe2d4e6","system_id":"levelo_inurba_marseille","lat":43.23191,"lon":5.39993,"is_reserved":false,"is_disabled":false,"rental_uris":{"android":"levelo://app?vid=ef77543b-22de-44af-930a-38e7dfe2d4e6","ios":"levelo://app?vid=ef77543b-22de-44af-930a-38e7dfe2d4e6"},"vehicle_type_id":"4","last_reported":1748416223,"current_range_meters":16400,"station_id":"ce4bhn12rcd13ifvqgqg","pricing_plan_id":"cebpf4jnsgd1na2vs0mg"},{"bike_id":"57316597-9a7e-4ecc-9b19-7bc22bad6c89","system_id":"levelo_inurba_marseille","lat":43.24542,"lon":5.395317,"is_reserved":false,"is_disabled":false,"rental_uris":{"android":"levelo://app?vid=57316597-9a7e-4ecc-9b19-7bc22bad6c89","ios":"levelo://app?vid=57316597-9a7e-4ecc-9b19-7bc22bad6c89"},"vehicle_type_id":"4","last_reported":1748416223,"current_range_meters":16400,"station_id":"ce4bhlp2rcd13ifvqgjg","pricing_plan_id":"cebpf4jnsgd1na2vs0mg"},{"bike_id":"311697f9-a087-4fb2-8ad7-11c912a1c2e4","system_id":"levelo_inurba_marseille","lat":43.33722,"lon":5.3918,"is_reserved":false,"is_disabled":false,"rental_uris":{"android":"levelo://app?vid=311697f9-a087-4fb2-8ad7-11c912a1c2e4","ios":"levelo://app?vid=311697f9-a087-4fb2-8ad7-11c912a1c2e4"},"vehicle_type_id":"4","last_reported":1748416223,"current_range_meters":16400,"station_id":"ce4bhr92rcd13ifvqhsg","pricing_plan_id":"cebpf4jnsgd1na2vs0mg"},{"bike_id":"01b822e6-d36d-4ef1-a1dd-37657c54904c","system_id":"levelo_inurba_marseille","lat":43.24181,"lon":5.39731,"is_reserved":false,"is_disabled":false,"rental_uris":{"android":"levelo://app?vid=01b822e6-d36d-4ef1-a1dd-37657c54904c","ios":"levelo://app?vid=01b822e6-d36d-4ef1-a1dd-37657c54904c"},"vehicle_type_id":"4","last_reported":1748416223,"current_range_meters":16400,"station_id":"ce4bhn12rcd13ifvqgpg","pricing_plan_id":"cebpf4jnsgd1na2vs0mg"},{"bike_id":"1756e5a7-407e-4b52-b5a3-78b9121cf2ab","system_id":"levelo_inurba_marseille","lat":43.24184,"lon":5.39729,"is_reserved":false,"is_disabled":false,"rental_uris":{"android":"levelo://app?vid=1756e5a7-407e-4b52-b5a3-78b9121cf2ab","ios":"levelo://app?vid=1756e5a7-407e-4b52-b5a3-78b9121cf2ab"},"vehicle_type_id":"4","last_reported":1748416223,"current_range_meters":16400,"station_id":"ce4bhn12rcd13ifvqgpg","pricing_plan_id":"cebpf4jnsgd1na2vs0mg"},{"bike_id":"bc7e556b-5270-4da4-b345-eef5c20dc266","system_id":"levelo_inurba_marseille","lat":43.30484,"lon":5.37896,"is_reserved":false,"is_disabled":false,"rental_uris":{"android":"levelo://app?vid=bc7e556b-5270-4da4-b345-eef5c20dc266","ios":"levelo://app?vid=bc7e556b-5270-4da4-b345-eef5c20dc266"},"vehicle_type_id":"4","last_reported":1748416223,"current_range_meters":16400,"station_id":"ce4bgup2rcd13ifvqcn0","pricing_plan_id":"cebpf4jnsgd1na2vs0mg"},{"bike_id":"b2e483d1-8417-49fc-b5d5-da2183f79552","system_id":"levelo_inurba_marseille","lat":43.21749,"lon":5.34613,"is_reserved":false,"is_disabled":false,"rental_uris":{"android":"levelo://app?vid=b2e483d1-8417-49fc-b5d5-da2183f79552","ios":"levelo://app?vid=b2e483d1-8417-49fc-b5d5-da2183f79552"},"vehicle_type_id":"4","last_reported":1748416223,"current_range_meters":16800,"station_id":"st_cvj6r9ubvosntc0bgbag","pricing_plan_id":"cebpf4jnsgd1na2vs0mg"},{"bike_id":"db0c8ab0-b70e-4a0e-a90b-773b708de0de","system_id":"levelo_inurba_marseille","lat":43.295437,"lon":5.375008,"is_reserved":false,"is_disabled":true,"rental_uris":{"android":"levelo://app?vid=db0c8ab0-b70e-4a0e-a90b-773b708de0de","ios":"levelo://app?vid=db0c8ab0-b70e-4a0e-a90b-773b708de0de"},"vehicle_type_id":"4","last_reported":1748416223,"current_range_meters":16800,"station_id":"ce4bgkp2rcd13ifvqbmg","pricing_plan_id":"cebpf4jnsgd1na2vs0mg"},{"bike_id":"f11c8c21-8746-4ccc-b8b9-45ae12e44444","system_id":"levelo_inurba_marseille","lat":43.28704,"lon":5.37412,"is_reserved":false,"is_disabled":true,"rental_uris":{"android":"levelo://app?vid=f11c8c21-8746-4ccc-b8b9-45ae12e44444","ios":"levelo://app?vid=f11c8c21-8746-4ccc-b8b9-45ae12e44444"},"vehicle_type_id":"4","last_reported":1748416223,"current_range_meters":16800,"station_id":"ce4bh3p2rcd13ifvqdq0","pricing_plan_id":"cebpf4jnsgd1na2vs0mg"},{"bike_id":"ada0854e-74ef-4d4d-8332-cb968913df1d","system_id":"levelo_inurba_marseille","lat":43.33024,"lon":5.39041,"is_reserved":false,"is_disabled":false,"rental_uris":{"android":"levelo://app?vid=ada0854e-74ef-4d4d-8332-cb968913df1d","ios":"levelo://app?vid=ada0854e-74ef-4d4d-8332-cb968913df1d"},"vehicle_type_id":"4","last_reported":1748416223,"current_range_meters":17200,"station_id":"ce4bhr92rcd13ifvqhrg","pricing_plan_id":"cebpf4jnsgd1na2vs0mg"},{"bike_id":"6db552c0-352f-4242-8f5a-779d1654e904","system_id":"levelo_inurba_marseille","lat":43.333246,"lon":5.41067,"is_reserved":false,"is_disabled":true,"rental_uris":{"android":"levelo://app?vid=6db552c0-352f-4242-8f5a-779d1654e904","ios":"levelo://app?vid=6db552c0-352f-4242-8f5a-779d1654e904"},"vehicle_type_id":"4","last_reported":1748416223,"current_range_meters":17200,"station_id":"ce4bhqh2rcd13ifvqhmg","pricing_plan_id":"cebpf4jnsgd1na2vs0mg"},{"bike_id":"7977b255-2eb6-4ef4-9ec6-060328d6748c","system_id":"levelo_inurba_marseille","lat":43.32541,"lon":5.41438,"is_reserved":false,"is_disabled":false,"rental_uris":{"android":"levelo://app?vid=7977b255-2eb6-4ef4-9ec6-060328d6748c","ios":"levelo://app?vid=7977b255-2eb6-4ef4-9ec6-060328d6748c"},"vehicle_type_id":"4","last_reported":1748416223,"current_range_meters":17200,"station_id":"ce4bhq12rcd13ifvqhhg","pricing_plan_id":"cebpf4jnsgd1na2vs0mg"},{"bike_id":"624b6a85-9c6f-4e11-9d00-5ec74bef0493","system_id":"levelo_inurba_marseille","lat":43.302429,"lon":5.400769,"is_reserved":false,"is_disabled":true,"rental_uris":{"android":"levelo://app?vid=624b6a85-9c6f-4e11-9d00-5ec74bef0493","ios":"levelo://app?vid=624b6a85-9c6f-4e11-9d00-5ec74bef0493"},"vehicle_type_id":"4","last_reported":1748416223,"current_range_meters":17200,"station_id":"","pricing_plan_id":"cebpf4jnsgd1na2vs0mg"},{"bike_id":"cc006b3a-8c6d-46fc-88e9-3ed685a5ea9f","system_id":"levelo_inurba_marseille","lat":43.29977,"lon":5.38491,"is_reserved":false,"is_disabled":false,"rental_uris":{"android":"levelo://app?vid=cc006b3a-8c6d-46fc-88e9-3ed685a5ea9f","ios":"levelo://app?vid=cc006b3a-8c6d-46fc-88e9-3ed685a5ea9f"},"vehicle_type_id":"4","last_reported":1748416223,"current_range_meters":17200,"station_id":"ce4bgj92rcd13ifvqbd0","pricing_plan_id":"cebpf4jnsgd1na2vs0mg"},{"bike_id":"9f96c977-918e-4d59-937c-78e2d60493ee","system_id":"levelo_inurba_marseille","lat":43.27305,"lon":5.41083,"is_reserved":false,"is_disabled":false,"rental_uris":{"android":"levelo://app?vid=9f96c977-918e-4d59-937c-78e2d60493ee","ios":"levelo://app?vid=9f96c977-918e-4d59-937c-78e2d60493ee"},"vehicle_type_id":"4","last_reported":1748416223,"current_range_meters":17200,"station_id":"","pricing_plan_id":"cebpf4jnsgd1na2vs0mg"},{"bike_id":"233e566f-3b11-4578-965e-149038edfef4","system_id":"levelo_inurba_marseille","lat":43.26556,"lon":5.37279,"is_reserved":false,"is_disabled":false,"rental_uris":{"android":"levelo://app?vid=233e566f-3b11-4578-965e-149038edfef4","ios":"levelo://app?vid=233e566f-3b11-4578-965e-149038edfef4"},"vehicle_type_id":"4","last_reported":1748416223,"current_range_meters":17200,"station_id":"ce4bhg12rcd13ifvqf70","pricing_plan_id":"cebpf4jnsgd1na2vs0mg"},{"bike_id":"4680d504-c075-4ece-9ffc-e914ce32ce4b","system_id":"levelo_inurba_marseille","lat":43.31358,"lon":5.36715,"is_reserved":false,"is_disabled":false,"rental_uris":{"android":"levelo://app?vid=4680d504-c075-4ece-9ffc-e914ce32ce4b","ios":"levelo://app?vid=4680d504-c075-4ece-9ffc-e914ce32ce4b"},"vehicle_type_id":"4","last_reported":1748416223,"current_range_meters":17200,"station_id":"ce4bgr92rcd13ifvqc6g","pricing_plan_id":"cebpf4jnsgd1na2vs0mg"},{"bike_id":"100cef60-f337-4a23-90d5-fdc6b28821f1","system_id":"levelo_inurba_marseille","lat":43.32484,"lon":5.36564,"is_reserved":false,"is_disabled":true,"rental_uris":{"android":"levelo://app?vid=100cef60-f337-4a23-90d5-fdc6b28821f1","ios":"levelo://app?vid=100cef60-f337-4a23-90d5-fdc6b28821f1"},"vehicle_type_id":"4","last_reported":1748416223,"current_range_meters":17200,"station_id":"ce4bhs12rcd13ifvqhvg","pricing_plan_id":"cebpf4jnsgd1na2vs0mg"},{"bike_id":"85c2688d-cc68-41fa-bf66-d37a3671bf33","system_id":"levelo_inurba_marseille","lat":43.30453,"lon":5.3791,"is_reserved":false,"is_disabled":false,"rental_uris":{"android":"levelo://app?vid=85c2688d-cc68-41fa-bf66-d37a3671bf33","ios":"levelo://app?vid=85c2688d-cc68-41fa-bf66-d37a3671bf33"},"vehicle_type_id":"4","last_reported":1748416223,"current_range_meters":17200,"station_id":"ce4bgup2rcd13ifvqcn0","pricing_plan_id":"cebpf4jnsgd1na2vs0mg"},{"bike_id":"7c446326-f0fc-4f7e-8acf-bacf39509c17","system_id":"levelo_inurba_marseille","lat":43.29227,"lon":5.37616,"is_reserved":false,"is_disabled":false,"rental_uris":{"android":"levelo://app?vid=7c446326-f0fc-4f7e-8acf-bacf39509c17","ios":"levelo://app?vid=7c446326-f0fc-4f7e-8acf-bacf39509c17"},"vehicle_type_id":"4","last_reported":1748416223,"current_range_meters":17200,"station_id":"ce4bgi12rcd13ifvqb80","pricing_plan_id":"cebpf4jnsgd1na2vs0mg"},{"bike_id":"626ee5fe-4b67-4de4-8251-15b16c7b6f4e","system_id":"levelo_inurba_marseille","lat":43.29255,"lon":5.40907,"is_reserved":false,"is_disabled":false,"rental_uris":{"android":"levelo://app?vid=626ee5fe-4b67-4de4-8251-15b16c7b6f4e","ios":"levelo://app?vid=626ee5fe-4b67-4de4-8251-15b16c7b6f4e"},"vehicle_type_id":"4","last_reported":1748416223,"current_range_meters":17200,"station_id":"ce4bh192rcd13ifvqdc0","pricing_plan_id":"cebpf4jnsgd1na2vs0mg"},{"bike_id":"9183218f-b010-4c4a-bedd-4fb90ead6421","system_id":"levelo_inurba_marseille","lat":43.26921,"lon":5.38904,"is_reserved":false,"is_disabled":false,"rental_uris":{"android":"levelo://app?vid=9183218f-b010-4c4a-bedd-4fb90ead6421","ios":"levelo://app?vid=9183218f-b010-4c4a-bedd-4fb90ead6421"},"vehicle_type_id":"4","last_reported":1748416223,"current_range_meters":17600,"station_id":"ce4bhhh2rcd13ifvqfl0","pricing_plan_id":"cebpf4jnsgd1na2vs0mg"},{"bike_id":"5575dfde-2c45-4a53-b989-21c54cc4aae5","system_id":"levelo_inurba_marseille","lat":43.25934,"lon":5.40901,"is_reserved":false,"is_disabled":false,"rental_uris":{"android":"levelo://app?vid=5575dfde-2c45-4a53-b989-21c54cc4aae5","ios":"levelo://app?vid=5575dfde-2c45-4a53-b989-21c54cc4aae5"},