{"last_updated":1730258189,"ttl":60,"version":"2.2","data":{"bikes":[{"bike_id":"e0594c9b-1912-4f09-958a-91f8a4561c29","system_id":"levelo_inurba_marseille","lat":43.24389,"lon":5.37045,"is_reserved":false,"is_disabled":false,"rental_uris":{"android":"levelo://app?vid=e0594c9b-1912-4f09-958a-91f8a4561c29","ios":"levelo://app?vid=e0594c9b-1912-4f09-958a-91f8a4561c29"},"vehicle_type_id":"4","last_reported":1730258189,"current_range_meters":38800,"station_id":"ce4bhhh2rcd13ifvqfk0","pricing_plan_id":"cebpf4jnsgd1na2vs0mg"},{"bike_id":"4ec6463a-7997-42f6-88b2-6fda5a71c163","system_id":"levelo_inurba_marseille","lat":43.25104,"lon":5.40319,"is_reserved":false,"is_disabled":false,"rental_uris":{"android":"levelo://app?vid=4ec6463a-7997-42f6-88b2-6fda5a71c163","ios":"levelo://app?vid=4ec6463a-7997-42f6-88b2-6fda5a71c163"},"vehicle_type_id":"4","last_reported":1730258189,"current_range_meters":38800,"station_id":"ce4bhlh2rcd13ifvqgig","pricing_plan_id":"cebpf4jnsgd1na2vs0mg"},{"bike_id":"5bd092db-49d3-45b7-8bcc-b623fd13ba1e","system_id":"levelo_inurba_marseille","lat":43.275024,"lon":5.424446,"is_reserved":false,"is_disabled":false,"rental_uris":{"android":"levelo://app?vid=5bd092db-49d3-45b7-8bcc-b623fd13ba1e","ios":"levelo://app?vid=5bd092db-49d3-45b7-8bcc-b623fd13ba1e"},"vehicle_type_id":"4","last_reported":1730258189,"current_range_meters":20800,"station_id":"ce4bhn92rcd13ifvqgrg","pricing_plan_id":"cebpf4jnsgd1na2vs0mg"},{"bike_id":"6daefb7d-890b-4927-bca4-1e9b57c2727d","system_id":"levelo_inurba_marseille","lat":43.27178,"lon":5.40996,"is_reserved":false,"is_disabled":false,"rental_uris":{"android":"levelo://app?vid=6daefb7d-890b-4927-bca4-1e9b57c2727d","ios":"levelo://app?vid=6daefb7d-890b-4927-bca4-1e9b57c2727d"},"vehicle_type_id":"4","last_reported":1730258189,"current_range_meters":38000,"station_id":"ce4bhl12rcd13ifvqgf0","pricing_plan_id":"cebpf4jnsgd1na2vs0mg"},{"bike_id":"e1d18b81-986d-4e87-b61a-22535be9c7fe","system_id":"levelo_inurba_marseille","lat":43.27066,"lon":5.42272,"is_reserved":false,"is_disabled":false,"rental_uris":{"android":"levelo://app?vid=e1d18b81-986d-4e87-b61a-22535be9c7fe","ios":"levelo://app?vid=e1d18b81-986d-4e87-b61a-22535be9c7fe"},"vehicle_type_id":"4","last_reported":1730258189,"current_range_meters":38800,"station_id":"ce4bhk92rcd13ifvqgb0","pricing_plan_id":"cebpf4jnsgd1na2vs0mg"},{"bike_id":"389a0521-41ae-44e7-b647-f0e587e1b12f","system_id":"levelo_inurba_marseille","lat":43.24171,"lon":5.39728,"is_reserved":false,"is_disabled":false,"rental_uris":{"android":"levelo://app?vid=389a0521-41ae-44e7-b647-f0e587e1b12f","ios":"levelo://app?vid=389a0521-41ae-44e7-b647-f0e587e1b12f"},"vehicle_type_id":"4","last_reported":1730258189,"current_range_meters":11600,"station_id":"ce4bhn12rcd13ifvqgpg","pricing_plan_id":"cebpf4jnsgd1na2vs0mg"},{"bike_id":"1a5154eb-f122-438b-b30e-b16adba008c7","system_id":"levelo_inurba_marseille","lat":43.3151,"lon":5.37301,"is_reserved":false,"is_disabled":false,"rental_uris":{"android":"levelo://app?vid=1a5154eb-f122-438b-b30e-b16adba008c7","ios":"levelo://app?vid=1a5154eb-f122-438b-b30e-b16adba008c7"},"vehicle_type_id":"4","last_reported":1730258189,"current_range_meters":39200,"station_id":"ce4bgt12rcd13ifvqcd0","pricing_plan_id":"cebpf4jnsgd1na2vs0mg"},{"bike_id":"e69003c5-61d9-410c-8600-03d60dc443c9","system_id":"levelo_inurba_marseille","lat":43.324881,"lon":5.365782,"is_reserved":false,"is_disabled":false,"rental_uris":{"android":"levelo://app?vid=e69003c5-61d9-410c-8600-03d60dc443c9","ios":"levelo://app?vid=e69003c5-61d9-410c-8600-03d60dc443c9"},"vehicle_type_id":"4","last_reported":1730258189,"current_range_meters":32000,"station_id":"ce4bhs12rcd13ifvqhvg","pricing_plan_id":"cebpf4jnsgd1na2vs0mg"},{"bike_id":"9cd28ed1-51d4-469f-80b1-db1aa7224fd9","system_id":"levelo_inurba_marseille","lat":43.31888,"lon":5.40739,"is_reserved":false,"is_disabled":false,"rental_uris":{"android":"levelo://app?vid=9cd28ed1-51d4-469f-80b1-db1aa7224fd9","ios":"levelo://app?vid=9cd28ed1-51d4-469f-80b1-db1aa7224fd9"},"vehicle_type_id":"4","last_reported":1730258189,"current_range_meters":31200,"station_id":"ce4bhq12rcd13ifvqhig","pricing_plan_id":"cebpf4jnsgd1na2vs0mg"},{"bike_id":"00408809-526a-4e3b-bd4d-a27fc6e05da8","system_id":"levelo_inurba_marseille","lat":43.24813,"lon":5.3745,"is_reserved":false,"is_disabled":false,"rental_uris":{"android":"levelo://app?vid=00408809-526a-4e3b-bd4d-a27fc6e05da8","ios":"levelo://app?vid=00408809-526a-4e3b-bd4d-a27fc6e05da8"},"vehicle_type_id":"4","last_reported":1730258189,"current_range_meters":38800,"station_id":"ce4bhgh2rcd13ifvqfb0","pricing_plan_id":"cebpf4jnsgd1na2vs0mg"},{"bike_id":"515e3cda-ebf4-4224-a67b-bc5f9d833f60","system_id":"levelo_inurba_marseille","lat":43.24545,"lon":5.39528,"is_reserved":false,"is_disabled":false,"rental_uris":{"android":"levelo://app?vid=515e3cda-ebf4-4224-a67b-bc5f9d833f60","ios":"levelo://app?vid=515e3cda-ebf4-4224-a67b-bc5f9d833f60"},"vehicle_type_id":"4","last_reported":1730258189,"current_range_meters":28400,"station_id":"ce4bhlp2rcd13ifvqgjg","pricing_plan_id":"cebpf4jnsgd1na2vs0mg"},{"bike_id":"a0f5d9ec-bdca-49ed-9410-eea9bb121fec","system_id":"levelo_inurba_marseille","lat":43.32656,"lon":5.40984,"is_reserved":false,"is_disabled":false,"rental_uris":{"android":"levelo://app?vid=a0f5d9ec-bdca-49ed-9410-eea9bb121fec","ios":"levelo://app?vid=a0f5d9ec-bdca-49ed-9410-eea9bb121fec"},"vehicle_type_id":"4","last_reported":1730258189,"current_range_meters":38800,"station_id":"ce4bhpp2rcd13ifvqhgg","pricing_plan_id":"cebpf4jnsgd1na2vs0mg"},{"bike_id":"9c5a4f58-c8b0-476c-a132-03617221519a","system_id":"levelo_inurba_marseille","lat":43.24175,"lon":5.39729,"is_reserved":false,"is_disabled":false,"rental_uris":{"android":"levelo://app?vid=9c5a4f58-c8b0-476c-a132-03617221519a","ios":"levelo://app?vid=9c5a4f58-c8b0-476c-a132-03617221519a"},"vehicle_type_id":"4","last_reported":1730258189,"current_range_meters":8800,"station_id":"ce4bhn12rcd13ifvqgpg","pricing_plan_id":"cebpf4jnsgd1na2vs0mg"},{"bike_id":"66a04495-273a-47df-ac95-d7c1740f1ef3","system_id":"levelo_inurba_marseille","lat":43.278245,"lon":5.406905,"is_reserved":false,"is_disabled":false,"rental_uris":{"android":"levelo://app?vid=66a04495-273a-47df-ac95-d7c1740f1ef3","ios":"levelo://app?vid=66a04495-273a-47df-ac95-d7c1740f1ef3"},"vehicle_type_id":"4","last_reported":1730258189,"current_range_meters":24800,"station_id":"ce4bhnh2rcd13ifvqgtg","pricing_plan_id":"cebpf4jnsgd1na2vs0mg"},{"bike_id":"c35448b9-cc2f-40e5-b9a8-99e3d90dc779","system_id":"levelo_inurba_marseille","lat":43.287,"lon":5.37386,"is_reserved":false,"is_disabled":false,"rental_uris":{"android":"levelo://app?vid=c35448b9-cc2f-40e5-b9a8-99e3d90dc779","ios":"levelo://app?vid=c35448b9-cc2f-40e5-b9a8-99e3d90dc779"},"vehicle_type_id":"4","last_reported":1730258189,"current_range_meters":38800,"station_id":"ce4bh3p2rcd13ifvqdq0","pricing_plan_id":"cebpf4jnsgd1na2vs0mg"},{"bike_id":"76ea27d3-8d3c-4f97-a1d8-37bf21c583fb","system_id":"levelo_inurba_marseille","lat":43.30596,"lon":5.37203,"is_reserved":false,"is_disabled":false,"rental_uris":{"android":"levelo://app?vid=76ea27d3-8d3c-4f97-a1d8-37bf21c583fb","ios":"levelo://app?vid=76ea27d3-8d3c-4f97-a1d8-37bf21c583fb"},"vehicle_type_id":"4","last_reported":1730258189,"current_range_meters":38800,"station_id":"ce4bgqh2rcd13ifvqc4g","pricing_plan_id":"cebpf4jnsgd1na2vs0mg"},{"bike_id":"98af7aaf-680f-4013-9acb-3127feae2bb0","system_id":"levelo_inurba_marseille","lat":43.33019,"lon":5.39037,"is_reserved":false,"is_disabled":false,"rental_uris":{"android":"levelo://app?vid=98af7aaf-680f-4013-9acb-3127feae2bb0","ios":"levelo://app?vid=98af7aaf-680f-4013-9acb-3127feae2bb0"},"vehicle_type_id":"4","last_reported":1730258189,"current_range_meters":38800,"station_id":"ce4bhr92rcd13ifvqhrg","pricing_plan_id":"cebpf4jnsgd1na2vs0mg"},{"bike_id":"7521e550-9a43-4fd3-a3fd-d34415b2a0c9","system_id":"levelo_inurba_marseille","lat":43.28837,"lon":5.3584,"is_reserved":false,"is_disabled":false,"rental_uris":{"android":"levelo://app?vid=7521e550-9a43-4fd3-a3fd-d34415b2a0c9","ios":"levelo://app?vid=7521e550-9a43-4fd3-a3fd-d34415b2a0c9"},"vehicle_type_id":"4","last_reported":1730258189,"current_range_meters":24400,"station_id":"ce4bhb12rcd13ifvqem0","pricing_plan_id":"cebpf4jnsgd1na2vs0mg"},{"bike_id":"de5fe4e9-116e-4d42-8528-edea18c8ed01","system_id":"levelo_inurba_marseille","lat":43.2511,"lon":5.40318,"is_reserved":false,"is_disabled":false,"rental_uris":{"android":"levelo://app?vid=de5fe4e9-116e-4d42-8528-edea18c8ed01","ios":"levelo://app?vid=de5fe4e9-116e-4d42-8528-edea18c8ed01"},"vehicle_type_id":"4","last_reported":1730258189,"current_range_meters":18000,"station_id":"ce4bhlh2rcd13ifvqgig","pricing_plan_id":"cebpf4jnsgd1na2vs0mg"},{"bike_id":"50068b71-3d0b-4b19-bdbd-00e391d8fdc1","system_id":"levelo_inurba_marseille","lat":43.31275,"lon":5.40163,"is_reserved":false,"is_disabled":false,"rental_uris":{"android":"levelo://app?vid=50068b71-3d0b-4b19-bdbd-00e391d8fdc1","ios":"levelo://app?vid=50068b71-3d0b-4b19-bdbd-00e391d8fdc1"},"vehicle_type_id":"4","last_reported":1730258189,"current_range_meters":20400,"station_id":"ce4bh092rcd13ifvqd30","pricing_plan_id":"cebpf4jnsgd1na2vs0mg"},{"bike_id":"a4bc7d8d-ab6f-4b06-9388-dec202d3a133","system_id":"levelo_inurba_marseille","lat":43.306531,"lon":5.400964,"is_reserved":false,"is_disabled":false,"rental_uris":{"android":"levelo://app?vid=a4bc7d8d-ab6f-4b06-9388-dec202d3a133","ios":"levelo://app?vid=a4bc7d8d-ab6f-4b06-9388-dec202d3a133"},"vehicle_type_id":"4","last_reported":1730258189,"current_range_meters":28000,"station_id":"ce4bh112rcd13ifvqda0","pricing_plan_id":"cebpf4jnsgd1na2vs0mg"},{"bike_id":"0c074560-8ac3-46f4-bbf6-3d47e9833728","system_id":"levelo_inurba_marseille","lat":43.25004,"lon":5.38909,"is_reserved":false,"is_disabled":false,"rental_uris":{"android":"levelo://app?vid=0c074560-8ac3-46f4-bbf6-3d47e9833728","ios":"levelo://app?vid=0c074560-8ac3-46f4-bbf6-3d47e9833728"},"vehicle_type_id":"4","last_reported":1730258189,"current_range_meters":38800,"station_id":"ce4bhgp2rcd13ifvqfd0","pricing_plan_id":"cebpf4jnsgd1na2vs0mg"},{"bike_id":"aa8e5bc8-4af6-4a20-b890-90006b3b95bd","system_id":"levelo_inurba_marseille","lat":43.27918,"lon":5.39581,"is_reserved":false,"is_disabled":false,"rental_uris":{"android":"levelo://app?vid=aa8e5bc8-4af6-4a20-b890-90006b3b95bd","ios":"levelo://app?vid=aa8e5bc8-4af6-4a20-b890-90006b3b95bd"},"vehicle_type_id":"4","last_reported":1730258189,"current_range_meters":38400,"station_id":"ce4bhf92rcd13ifvqf40","pricing_plan_id":"cebpf4jnsgd1na2vs0mg"},{"bike_id":"6b17b8c2-e4c3-4a48-b5ea-96c0e708e870","system_id":"levelo_inurba_marseille","lat":43.31323,"lon":5.39691,"is_reserved":false,"is_disabled":false,"rental_uris":{"android":"levelo://app?vid=6b17b8c2-e4c3-4a48-b5ea-96c0e708e870","ios":"levelo://app?vid=6b17b8c2-e4c3-4a48-b5ea-96c0e708e870"},"vehicle_type_id":"4","last_reported":1730258189,"current_range_meters":15200,"station_id":"ce4bgvp2rcd13ifvqcu0","pricing_plan_id":"cebpf4jnsgd1na2vs0mg"},{"bike_id":"6b0189db-9ba7-4826-af05-684ac6cdd587","system_id":"levelo_inurba_marseille","lat":43.30928,"lon":5.40144,"is_reserved":false,"is_disabled":false,"rental_uris":{"android":"levelo://app?vid=6b0189db-9ba7-4826-af05-684ac6cdd587","ios":"levelo://app?vid=6b0189db-9ba7-4826-af05-684ac6cdd587"},"vehicle_type_id":"4","last_reported":1730258189,"current_range_meters":37600,"station_id":"ce4bgvp2rcd13ifvqct0","pricing_plan_id":"cebpf4jnsgd1na2vs0mg"},{"bike_id":"3713ca50-eced-45b1-bf48-4c2e0879cc91","system_id":"levelo_inurba_marseille","lat":43.24548,"lon":5.39527,"is_reserved":false,"is_disabled":false,"rental_uris":{"android":"levelo://app?vid=3713ca50-eced-45b1-bf48-4c2e0879cc91","ios":"levelo://app?vid=3713ca50-eced-45b1-bf48-4c2e0879cc91"},"vehicle_type_id":"4","last_reported":1730258189,"current_range_meters":15200,"station_id":"ce4bhlp2rcd13ifvqgjg","pricing_plan_id":"cebpf4jnsgd1na2vs0mg"},{"bike_id":"7e1dac73-d14a-4cac-9a8f-3d04b3161b4c","system_id":"levelo_inurba_marseille","lat":43.26539,"lon":5.37288,"is_reserved":false,"is_disabled":false,"rental_uris":{"android":"levelo://app?vid=7e1dac73-d14a-4cac-9a8f-3d04b3161b4c","ios":"levelo://app?vid=7e1dac73-d14a-4cac-9a8f-3d04b3161b4c"},"vehicle_type_id":"4","last_reported":1730258189,"current_range_meters":38800,"station_id":"ce4bhg12rcd13ifvqf70","pricing_plan_id":"cebpf4jnsgd1na2vs0mg"},{"bike_id":"44452cab-0ed3-46c5-ae89-8653a35bc3ed","system_id":"levelo_inurba_marseille","lat":43.2925,"lon":5.40908,"is_reserved":false,"is_disabled":false,"rental_uris":{"android":"levelo://app?vid=44452cab-0ed3-46c5-ae89-8653a35bc3ed","ios":"levelo://app?vid=44452cab-0ed3-46c5-ae89-8653a35bc3ed"},"vehicle_type_id":"4","last_reported":1730258189,"current_range_meters":39200,"station_id":"ce4bh192rcd13ifvqdc0","pricing_plan_id":"cebpf4jnsgd1na2vs0mg"},{"bike_id":"caf349c8-ed3b-4304-909b-160d602b00a5","system_id":"levelo_inurba_marseille","lat":43.31701,"lon":5.37758,"is_reserved":false,"is_disabled":false,"rental_uris":{"android":"levelo://app?vid=caf349c8-ed3b-4304-909b-160d602b00a5","ios":"levelo://app?vid=caf349c8-ed3b-4304-909b-160d602b00a5"},"vehicle_type_id":"4","last_reported":1730258189,"current_range_meters":6800,"station_id":"ce4bgth2rcd13ifvqch0","pricing_plan_id":"cebpf4jnsgd1na2vs0mg"},{"bike_id":"8d1620e7-e5ab-4df0-827f-1b7a5189e865","system_id":"levelo_inurba_marseille","lat":43.27996,"lon":5.4002,"is_reserved":false,"is_disabled":false,"rental_uris":{"android":"levelo://app?vid=8d1620e7-e5ab-4df0-827f-1b7a5189e865","ios":"levelo://app?vid=8d1620e7-e5ab-4df0-827f-1b7a5189e865"},"vehicle_type_id":"4","last_reported":1730258189,"current_range_meters":38800,"station_id":"ce4bho92rcd13ifvqh4g","pricing_plan_id":"cebpf4jnsgd1na2vs0mg"},{"bike_id":"3cc74485-2795-4d4f-aa5a-b06c312e894e","system_id":"levelo_inurba_marseille","lat":43.2293,"lon":5.35376,"is_reserved":false,"is_disabled":false,"rental_uris":{"android":"levelo://app?vid=3cc74485-2795-4d4f-aa5a-b06c312e894e","ios":"levelo://app?vid=3cc74485-2795-4d4f-aa5a-b06c312e894e"},"vehicle_type_id":"4","last_reported":1730258189,"current_range_meters":38800,"station_id":"cpo3532slgdg3j2ikp40","pricing_plan_id":"cebpf4jnsgd1na2vs0mg"},{"bike_id":"197951b6-f51d-4e0e-9015-1307af51213e","system_id":"levelo_inurba_marseille","lat":43.31486,"lon":5.37302,"is_reserved":false,"is_disabled":false,"rental_uris":{"android":"levelo://app?vid=197951b6-f51d-4e0e-9015-1307af51213e","ios":"levelo://app?vid=197951b6-f51d-4e0e-9015-1307af51213e"},"vehicle_type_id":"4","last_reported":1730258189,"current_range_meters":7200,"station_id":"ce4bgt12rcd13ifvqcd0","pricing_plan_id":"cebpf4jnsgd1na2vs0mg"},{"bike_id":"83e8370a-0578-402b-b179-be4cd80c393d","system_id":"levelo_inurba_marseille","lat":43.31363,"lon":5.38493,"is_reserved":false,"is_disabled":false,"rental_uris":{"android":"levelo://app?vid=83e8370a-0578-402b-b179-be4cd80c393d","ios":"levelo://app?vid=83e8370a-0578-402b-b179-be4cd80c393d"},"vehicle_type_id":"4","last_reported":1730258189,"current_range_meters":36800,"station_id":"ce4bgt92rcd13ifvqcf0","pricing_plan_id":"cebpf4jnsgd1na2vs0mg"},{"bike_id":"5350987e-6b1e-48a4-9d22-80eb92ebd932","system_id":"levelo_inurba_marseille","lat":43.31711,"lon":5.43706,"is_reserved":false,"is_disabled":false,"rental_uris":{"android":"levelo://app?vid=5350987e-6b1e-48a4-9d22-80eb92ebd932","ios":"levelo://app?vid=5350987e-6b1e-48a4-9d22-80eb92ebd932"},"vehicle_type_id":"4","last_reported":1730258189,"current_range_meters":13600,"station_id":"ce4bhp92rcd13ifvqhcg","pricing_plan_id":"cebpf4jnsgd1na2vs0mg"},{"bike_id":"84f26cf8-5f63-4734-b9e0-23c9b5de6ad1","system_id":"levelo_inurba_marseille","lat":43.30801,"lon":5.38155,"is_reserved":false,"is_disabled":false,"rental_uris":{"android":"levelo://app?vid=84f26cf8-5f63-4734-b9e0-23c9b5de6ad1","ios":"levelo://app?vid=84f26cf8-5f63-4734-b9e0-23c9b5de6ad1"},"vehicle_type_id":"4","last_reported":1730258189,"current_range_meters":14000,"station_id":"ce4bgt12rcd13ifvqce0","pricing_plan_id":"cebpf4jnsgd1na2vs0mg"},{"bike_id":"a7df28aa-87c8-4736-aecb-96c1ea5fecdb","system_id":"levelo_inurba_marseille","lat":43.27618,"lon":5.36117,"is_reserved":false,"is_disabled":false,"rental_uris":{"android":"levelo://app?vid=a7df28aa-87c8-4736-aecb-96c1ea5fecdb","ios":"levelo://app?vid=a7df28aa-87c8-4736-aecb-96c1ea5fecdb"},"vehicle_type_id":"4","last_reported":1730258189,"current_range_meters":21600,"station_id":"ce4bgj92rcd13ifvqbe0","pricing_plan_id":"cebpf4jnsgd1na2vs0mg"},{"bike_id":"7ca675ef-9382-4cd7-b905-9d40807eca7d","system_id":"levelo_inurba_marseille","lat":43.28474,"lon":5.384,"is_reserved":false,"is_disabled":false,"rental_uris":{"android":"levelo://app?vid=7ca675ef-9382-4cd7-b905-9d40807eca7d","ios":"levelo://app?vid=7ca675ef-9382-4cd7-b905-9d40807eca7d"},"vehicle_type_id":"4","last_reported":1730258189,"current_range_meters":38000,"station_id":"ce4bh512rcd13ifvqe3g","pricing_plan_id":"cebpf4jnsgd1na2vs0mg"},{"bike_id":"79753c44-2696-48d8-8503-a28f55e7f2ea","system_id":"levelo_inurba_marseille","lat":43.3133,"lon":5.39694,"is_reserved":false,"is_disabled":false,"rental_uris":{"android":"levelo://app?vid=79753c44-2696-48d8-8503-a28f55e7f2ea","ios":"levelo://app?vid=79753c44-2696-48d8-8503-a28f55e7f2ea"},"vehicle_type_id":"4","last_reported":1730258189,"current_range_meters":39200,"station_id":"ce4bgvp2rcd13ifvqcu0","pricing_plan_id":"cebpf4jnsgd1na2vs0mg"},{"bike_id":"e68ce33f-f1a1-4e57-9764-2f2b65f5c8c3","system_id":"levelo_inurba_marseille","lat":43.27173,"lon":5.40993,"is_reserved":false,"is_disabled":false,"rental_uris":{"android":"levelo://app?vid=e68ce33f-f1a1-4e57-9764-2f2b65f5c8c3","ios":"levelo://app?vid=e68ce33f-f1a1-4e57-9764-2f2b65f5c8c3"},"vehicle_type_id":"4","last_reported":1730258189,"current_range_meters":28000,"station_id":"ce4bhl12rcd13ifvqgf0","pricing_plan_id":"cebpf4jnsgd1na2vs0mg"},{"bike_id":"77ef2a38-e3ef-4510-81b3-93939981e4f1","system_id":"levelo_inurba_marseille","lat":43.30583,"lon":5.39352,"is_reserved":false,"is_disabled":false,"rental_uris":{"android":"levelo://app?vid=77ef2a38-e3ef-4510-81b3-93939981e4f1","ios":"levelo://app?vid=77ef2a38-e3ef-4510-81b3-93939981e4f1"},"vehicle_type_id":"4","last_reported":1730258189,"current_range_meters":18800,"station_id":"ce4bh0p2rcd13ifvqd80","pricing_plan_id":"cebpf4jnsgd1na2vs0mg"},{"bike_id":"04074040-bacb-4d8e-9554-b6d48202d7e9","system_id":"levelo_inurba_marseille","lat":43.2792,"lon":5.39578,"is_reserved":false,"is_disabled":false,"rental_uris":{"android":"levelo://app?vid=04074040-bacb-4d8e-9554-b6d48202d7e9","ios":"levelo://app?vid=04074040-bacb-4d8e-9554-b6d48202d7e9"},"vehicle_type_id":"4","last_reported":1730258189,"current_range_meters":37600,"station_id":"ce4bhf92rcd13ifvqf40","pricing_plan_id":"cebpf4jnsgd1na2vs0mg"},{"bike_id":"34630d18-75dd-4aec-9bb1-0ce7aab0afdf","system_id":"levelo_inurba_marseille","lat":43.24667,"lon":5.38162,"is_reserved":false,"is_disabled":false,"rental_uris":{"android":"levelo://app?vid=34630d18-75dd-4aec-9bb1-0ce7aab0afdf","ios":"levelo://app?vid=34630d18-75dd-4aec-9bb1-0ce7aab0afdf"},"vehicle_type_id":"4","last_reported":1730258189,"current_range_meters":38800,"station_id":"ce4bhih2rcd13ifvqfr0","pricing_plan_id":"cebpf4jnsgd1na2vs0mg"},{"bike_id":"fca70fb1-2c2b-46bb-a35c-c4971041e2df","system_id":"levelo_inurba_marseille","lat":43.23178,"lon":5.39983,"is_reserved":false,"is_disabled":false,"rental_uris":{"android":"levelo://app?vid=fca70fb1-2c2b-46bb-a35c-c4971041e2df","ios":"levelo://app?vid=fca70fb1-2c2b-46bb-a35c-c4971041e2df"},"vehicle_type_id":"4","last_reported":1730258189,"current_range_meters":23200,"station_id":"ce4bhn12rcd13ifvqgqg","pricing_plan_id":"cebpf4jnsgd1na2vs0mg"},{"bike_id":"a71e0e1d-8afd-477b-8167-6508ea637736","system_id":"levelo_inurba_marseille","lat":43.30186,"lon":5.36621,"is_reserved":false,"is_disabled":false,"rental_uris":{"android":"levelo://app?vid=a71e0e1d-8afd-477b-8167-6508ea637736","ios":"levelo://app?vid=a71e0e1d-8afd-477b-8167-6508ea637736"},"vehicle_type_id":"4","last_reported":1730258189,"current_range_meters":39200,"station_id":"ce4bgrh2rcd13ifvqc8g","pricing_plan_id":"cebpf4jnsgd1na2vs0mg"},{"bike_id":"c5ab8f86-3c93-447c-b767-f885bdebd2ff","system_id":"levelo_inurba_marseille","lat":43.27066,"lon":5.42272,"is_reserved":false,"is_disabled":false,"rental_uris":{"android":"levelo://app?vid=c5ab8f86-3c93-447c-b767-f885bdebd2ff","ios":"levelo://app?vid=c5ab8f86-3c93-447c-b767-f885bdebd2ff"},"vehicle_type_id":"4","last_reported":1730258189,"current_range_meters":38800,"station_id":"ce4bhk92rcd13ifvqgb0","pricing_plan_id":"cebpf4jnsgd1na2vs0mg"},{"bike_id":"b897df0c-07b0-4360-98f1-1f35c31cddbb","system_id":"levelo_inurba_marseille","lat":43.27058,"lon":5.40256,"is_reserved":false,"is_disabled":false,"rental_uris":{"android":"levelo://app?vid=b897df0c-07b0-4360-98f1-1f35c31cddbb","ios":"levelo://app?vid=b897df0c-07b0-4360-98f1-1f35c31cddbb"},"vehicle_type_id":"4","last_reported":1730258189,"current_range_meters":38400,"station_id":"ce4bhk92rcd13ifvqgc0","pricing_plan_id":"cebpf4jnsgd1na2vs0mg"},{"bike_id":"6bfb62a6-63c3-4bd5-8676-7b2f3dd6580d","system_id":"levelo_inurba_marseille","lat":43.28155,"lon":5.42637,"is_reserved":false,"is_disabled":false,"rental_uris":{"android":"levelo://app?vid=6bfb62a6-63c3-4bd5-8676-7b2f3dd6580d","ios":"levelo://app?vid=6bfb62a6-63c3-4bd5-8676-7b2f3dd6580d"},"vehicle_type_id":"4","last_reported":1730258189,"current_range_meters":16000,"station_id":"ce4bhnh2rcd13ifvqgug","pricing_plan_id":"cebpf4jnsgd1na2vs0mg"},{"bike_id":"70bb78fe-4bef-4d56-a833-affc0bdfc9f3","system_id":"levelo_inurba_marseille","lat":43.23193,"lon":5.35555,"is_reserved":false,"is_disabled":false,"rental_uris":{"android":"levelo://app?vid=70bb78fe-4bef-4d56-a833-affc0bdfc9f3","ios":"levelo://app?vid=70bb78fe-4bef-4d56-a833-affc0bdfc9f3"},"vehicle_type_id":"4","last_reported":1730258189,"current_range_meters":38400,"station_id":"ce4bhu92rcd13ifvqi70","pricing_plan_id":"cebpf4jnsgd1na2vs0mg"},{"bike_id":"f93e13e9-5e33-4f80-b6e9-8ad091302a43","system_id":"levelo_inurba_marseille","lat":43.28847,"lon":5.35855,"is_reserved":false,"is_disabled":false,"rental_uris":{"android":"levelo://app?vid=f93e13e9-5e33-4f80-b6e9-8ad091302a43","ios":"levelo://app?vid=f93e13e9-5e33-4f80-b6e9-8ad091302a43"},"vehicle_type_id":"4","last_reported":1730258189,"current_range_meters":38800,"station_id":"ce4bhb12rcd13ifvqem0","pricing_plan_id":"cebpf4jnsgd1na2vs0mg"},{"bike_id":"1a23e5a8-eaa2-49bf-921e-448b5e886ed3","system_id":"levelo_inurba_marseille","lat":43.28106,"lon":5.37838,"is_reserved":false,"is_disabled":false,"rental_uris":{"android":"levelo://app?vid=1a23e5a8-eaa2-49bf-921e-448b5e886ed3","ios":"levelo://app?vid=1a23e5a8-eaa2-49bf-921e-448b5e886ed3"},"vehicle_type_id":"4","last_reported":1730258189,"current_range_meters":39200,"station_id":"ce4bha12rcd13ifvqee0","pricing_plan_id":"cebpf4jnsgd1na2vs0mg"},{"bike_id":"0790b19d-aa7b-4cc8-b334-e3c9e4892b72","system_id":"levelo_inurba_marseille","lat":43.285723,"lon":5.39486,"is_reserved":false,"is_disabled":false,"rental_uris":{"android":"levelo://app?vid=0790b19d-aa7b-4cc8-b334-e3c9e4892b72","ios":"levelo://app?vid=0790b19d-aa7b-4cc8-b334-e3c9e4892b72"},"vehicle_type_id":"4","last_reported":1730258189,"current_range_meters":25200,"station_id":"ce4bh292rcd13ifvqdg0","pricing_plan_id":"cebpf4jnsgd1na2vs0mg"},{"bike_id":"5c244c3d-8fd7-4c95-b825-2f7fe2f15994","system_id":"levelo_inurba_marseille","lat":43.23192,"lon":5.35542,"is_reserved":false,"is_disabled":false,"rental_uris":{"android":"levelo://app?vid=5c244c3d-8fd7-4c95-b825-2f7fe2f15994","ios":"levelo://app?vid=5c244c3d-8fd7-4c95-b825-2f7fe2f15994"},"vehicle_type_id":"4","last_reported":1730258189,"current_range_meters":38800,"station_id":"ce4bhu92rcd13ifvqi70","pricing_plan_id":"cebpf4jnsgd1na2vs0mg"},{"bike_id":"82c2f2b2-a482-4f77-a2c1-f6babf5f01cf","system_id":"levelo_inurba_marseille","lat":43.29482,"lon":5.44496,"is_reserved":false,"is_disabled":false,"rental_uris":{"android":"levelo://app?vid=82c2f2b2-a482-4f77-a2c1-f6babf5f01cf","ios":"levelo://app?vid=82c2f2b2-a482-4f77-a2c1-f6babf5f01cf"},"vehicle_type_id":"4","last_reported":1730258189,"current_range_meters":36400,"station_id":"","pricing_plan_id":"cebpf4jnsgd1na2vs0mg"},{"bike_id":"5efd5148-f738-4c82-8164-c1739863b28d","system_id":"levelo_inurba_marseille","lat":43.26942,"lon":5.40237,"is_reserved":false,"is_disabled":false,"rental_uris":{"android":"levelo://app?vid=5efd5148-f738-4c82-8164-c1739863b28d","ios":"levelo://app?vid=5efd5148-f738-4c82-8164-c1739863b28d"},"vehicle_type_id":"4","last_reported":1730258189,"current_range_meters":17600,"station_id":"cjm6bp8fraef2m0cb0m0","pricing_plan_id":"cebpf4jnsgd1na2vs0mg"},{"bike_id":"e10ff328-93b2-4d6a-af26-12f189d78479","system_id":"levelo_inurba_marseille","lat":43.33722,"lon":5.39185,"is_reserved":false,"is_disabled":false,"rental_uris":{"android":"levelo://app?vid=e10ff328-93b2-4d6a-af26-12f189d78479","ios":"levelo://app?vid=e10ff328-93b2-4d6a-af26-12f189d78479"},"vehicle_type_id":"4","last_reported":1730258189,"current_range_meters":37600,"station_id":"ce4bhr92rcd13ifvqhsg","pricing_plan_id":"cebpf4jnsgd1na2vs0mg"},{"bike_id":"8fe952c7-d1f5-486e-a32b-0e7b70cce917","system_id":"levelo_inurba_marseille","lat":43.32369,"lon":5.38888,"is_reserved":false,"is_disabled":false,"rental_uris":{"android":"levelo://app?vid=8fe952c7-d1f5-486e-a32b-0e7b70cce917","ios":"levelo://app?vid=8fe952c7-d1f5-486e-a32b-0e7b70cce917"},"vehicle_type_id":"4","last_reported":1730258189,"current_range_meters":32000,"station_id":"ce4bhqp2rcd13ifvqhog","pricing_plan_id":"cebpf4jnsgd1na2vs0mg"},{"bike_id":"66d7efc4-2248-47d0-915c-c5c49c23ff79","system_id":"levelo_inurba_marseille","lat":43.33603,"lon":5.41026,"is_reserved":false,"is_disabled":false,"rental_uris":{"android":"levelo://app?vid=66d7efc4-2248-47d0-915c-c5c49c23ff79","ios":"levelo://app?vid=66d7efc4-2248-47d0-915c-c5c49c23ff79"},"vehicle_type_id":"4","last_reported":1730258189,"current_range_meters":38800,"station_id":"ce4bhqh2rcd13ifvqhmg","pricing_plan_id":"cebpf4jnsgd1na2vs0mg"},{"bike_id":"40303298-86d3-46fd-adad-a05df47dcacf","system_id":"levelo_inurba_marseille","lat":43.2846,"lon":5.35876,"is_reserved":false,"is_disabled":false,"rental_uris":{"android":"levelo://app?vid=40303298-86d3-46fd-adad-a05df47dcacf","ios":"levelo://app?vid=40303298-86d3-46fd-adad-a05df47dcacf"},"vehicle_type_id":"4","last_reported":1730258189,"current_range_meters":38400,"station_id":"ce4bhah2rcd13ifvqei0","pricing_plan_id":"cebpf4jnsgd1na2vs0mg"},{"bike_id":"c6472a4b-15fb-475c-a800-9db188055ce2","system_id":"levelo_inurba_marseille","lat":43.25835,"lon":5.39426,"is_reserved":false,"is_disabled":false,"rental_uris":{"android":"levelo://app?vid=c6472a4b-15fb-475c-a800-9db188055ce2","ios":"levelo://app?vid=c6472a4b-15fb-475c-a800-9db188055ce2"},"vehicle_type_id":"4","last_reported":1730258189,"current_range_meters":15200,"station_id":"ce4bhip2rcd13ifvqft0","pricing_plan_id":"cebpf4jnsgd1na2vs0mg"},{"bike_id":"8cf45733-7884-4d00-89cb-dcc5bdeb6bc8","system_id":"levelo_inurba_marseille","lat":43.27901,"lon":5.38003,"is_reserved":false,"is_disabled":false,"rental_uris":{"android":"levelo://app?vid=8cf45733-7884-4d00-89cb-dcc5bdeb6bc8","ios":"levelo://app?vid=8cf45733-7884-4d00-89cb-dcc5bdeb6bc8"},"vehicle_type_id":"4","last_reported":1730258189,"current_range_meters":38800,"station_id":"ce4bhf92rcd13ifvqf50","pricing_plan_id":"cebpf4jnsgd1na2vs0mg"},{"bike_id":"5605e7e8-7b5f-4b34-8547-b7b667c952c4","system_id":"levelo_inurba_marseille","lat":43.2466,"lon":5.38163,"is_reserved":false,"is_disabled":false,"rental_uris":{"android":"levelo://app?vid=5605e7e8-7b5f-4b34-8547-b7b667c952c4","ios":"levelo://app?vid=5605e7e8-7b5f-4b34-8547-b7b667c952c4"},"vehicle_type_id":"4","last_reported":1730258189,"current_range_meters":27600,"station_id":"ce4bhih2rcd13ifvqfr0","pricing_plan_id":"cebpf4jnsgd1na2vs0mg"},{"bike_id":"56dc04b7-06b7-4e88-ac29-730a7abdd49b","system_id":"levelo_inurba_marseille","lat":43.31365,"lon":5.38494,"is_reserved":false,"is_disabled":false,"rental_uris":{"android":"levelo://app?vid=56dc04b7-06b7-4e88-ac29-730a7abdd49b","ios":"levelo://app?vid=56dc04b7-06b7-4e88-ac29-730a7abdd49b"},"vehicle_type_id":"4","last_reported":1730258189,"current_range_meters":38800,"station_id":"ce4bgt92rcd13ifvqcf0","pricing_plan_id":"cebpf4jnsgd1na2vs0mg"},{"bike_id":"501852f8-b098-4888-8039-b5416f76d813","system_id":"levelo_inurba_marseille","lat":43.31132,"lon":5.37712,"is_reserved":false,"is_disabled":false,"rental_uris":{"android":"levelo://app?vid=501852f8-b098-4888-8039-b5416f76d813","ios":"levelo://app?vid=501852f8-b098-4888-8039-b5416f76d813"},"vehicle_type_id":"4","last_reported":1730258189,"current_range_meters":7200,"station_id":"ce4bgt92rcd13ifvqcg0","pricing_plan_id":"cebpf4jnsgd1na2vs0mg"},{"bike_id":"def8952f-1794-4877-a686-8a31e7c33db2","system_id":"levelo_inurba_marseille","lat":43.28356,"lon":5.38619,"is_reserved":false,"is_disabled":false,"rental_uris":{"android":"levelo://app?vid=def8952f-1794-4877-a686-8a31e7c33db2","ios":"levelo://app?vid=def8952f-1794-4877-a686-8a31e7c33db2"},"vehicle_type_id":"4","last_reported":1730258189,"current_range_meters":39200,"station_id":"ce4bh492rcd13ifvqdvg","pricing_plan_id":"cebpf4jnsgd1na2vs0mg"},{"bike_id":"92adf987-4779-4b78-ad9c-8e29ab9175f3","system_id":"levelo_inurba_marseille","lat":43.23188,"lon":5.35556,"is_reserved":false,"is_disabled":false,"rental_uris":{"android":"levelo://app?vid=92adf987-4779-4b78-ad9c-8e29ab9175f3","ios":"levelo://app?vid=92adf987-4779-4b78-ad9c-8e29ab9175f3"},"vehicle_type_id":"4","last_reported":1730258189,"current_range_meters":16000,"station_id":"ce4bhu92rcd13ifvqi70","pricing_plan_id":"cebpf4jnsgd1na2vs0mg"},{"bike_id":"6ccddc45-787b-4e0a-8482-1abb83f99cfc","system_id":"levelo_inurba_marseille","lat":43.28453,"lon":5.35894,"is_reserved":false,"is_disabled":false,"rental_uris":{"android":"levelo://app?vid=6ccddc45-787b-4e0a-8482-1abb83f99cfc","ios":"levelo://app?vid=6ccddc45-787b-4e0a-8482-1abb83f99cfc"},"vehicle_type_id":"4","last_reported":1730258189,"current_range_meters":37600,"station_id":"ce4bhah2rcd13ifvqei0","pricing_plan_id":"cebpf4jnsgd1na2vs0mg"},{"bike_id":"bd7d8cd5-fc9b-44be-88c4-863ea2140d27","system_id":"levelo_inurba_marseille","lat":43.25862,"lon":5.399,"is_reserved":false,"is_disabled":false,"rental_uris":{"android":"levelo://app?vid=bd7d8cd5-fc9b-44be-88c4-863ea2140d27","ios":"levelo://app?vid=bd7d8cd5-fc9b-44be-88c4-863ea2140d27"},"vehicle_type_id":"4","last_reported":1730258189,"current_range_meters":37600,"station_id":"ce4bhl92rcd13ifvqghg","pricing_plan_id":"cebpf4jnsgd1na2vs0mg"},{"bike_id":"c03f3456-93bb-418a-8ce0-ca351e254b4e","system_id":"levelo_inurba_marseille","lat":43.31757,"lon":5.39014,"is_reserved":false,"is_disabled":false,"rental_uris":{"android":"levelo://app?vid=c03f3456-93bb-418a-8ce0-ca351e254b4e","ios":"levelo://app?vid=c03f3456-93bb-418a-8ce0-ca351e254b4e"},"vehicle_type_id":"4","last_reported":1730258189,"current_range_meters":37600,"station_id":"ce4bhqp2rcd13ifvqhng","pricing_plan_id":"cebpf4jnsgd1na2vs0mg"},{"bike_id":"37cb0773-ba21-47be-9d4f-f925cfb4f6e7","system_id":"levelo_inurba_marseille","lat":43.29052,"lon":5.37723,"is_reserved":false,"is_disabled":false,"rental_uris":{"android":"levelo://app?vid=37cb0773-ba21-47be-9d4f-f925cfb4f6e7","ios":"levelo://app?vid=37cb0773-ba21-47be-9d4f-f925cfb4f6e7"},"vehicle_type_id":"4","last_reported":1730258189,"current_range_meters":30000,"station_id":"","pricing_plan_id":"cebpf4jnsgd1na2vs0mg"},{"bike_id":"3f42b5bf-2a79-45d5-b497-6ae8dd1c3625","system_id":"levelo_inurba_marseille","lat":43.27916,"lon":5.39583,"is_reserved":false,"is_disabled":false,"rental_uris":{"android":"levelo://app?vid=3f42b5bf-2a79-45d5-b497-6ae8dd1c3625","ios":"levelo://app?vid=3f42b5bf-2a79-45d5-b497-6ae8dd1c3625"},"vehicle_type_id":"4","last_reported":1730258189,"current_range_meters":38800,"station_id":"ce4bhf92rcd13ifvqf40","pricing_plan_id":"cebpf4jnsgd1na2vs0mg"},{"bike_id":"f9f1fac0-f85f-464b-8d90-12df2d11e889","system_id":"levelo_inurba_marseille","lat":43.26202,"lon":5.37918,"is_reserved":false,"is_disabled":false,"rental_uris":{"android":"levelo://app?vid=f9f1fac0-f85f-464b-8d90-12df2d11e889","ios":"levelo://app?vid=f9f1fac0-f85f-464b-8d90-12df2d11e889"},"vehicle_type_id":"4","last_reported":1730258189,"current_range_meters":38800,"station_id":"ce4bhjp2rcd13ifvqg90","pricing_plan_id":"cebpf4jnsgd1na2vs0mg"},{"bike_id":"f05c9e2e-0b4f-41ba-9d75-2d2a5fa93533","system_id":"levelo_inurba_marseille","lat":43.28715,"lon":5.37931,"is_reserved":false,"is_disabled":false,"rental_uris":{"android":"levelo://app?vid=f05c9e2e-0b4f-41ba-9d75-2d2a5fa93533","ios":"levelo://app?vid=f05c9e2e-0b4f-41ba-9d75-2d2a5fa93533"},"vehicle_type_id":"4","last_reported":1730258189,"current_range_meters":38400,"station_id":"ce4bh9p2rcd13ifvqec0","pricing_plan_id":"cebpf4jnsgd1na2vs0mg"},{"bike_id":"b8d52686-684b-41ab-98da-6a866bdffb33","system_id":"levelo_inurba_marseille","lat":43.33602,"lon":5.41028,"is_reserved":false,"is_disabled":false,"rental_uris":{"android":"levelo://app?vid=b8d52686-684b-41ab-98da-6a866bdffb33","ios":"levelo://app?vid=b8d52686-684b-41ab-98da-6a866bdffb33"},"vehicle_type_id":"4","last_reported":1730258189,"current_range_meters":23200,"station_id":"ce4bhqh2rcd13ifvqhmg","pricing_plan_id":"cebpf4jnsgd1na2vs0mg"},{"bike_id":"269a4193-03a6-4fe1-93c0-2b8610ca1e7f","system_id":"levelo_inurba_marseille","lat":43.24394,"lon":5.3705,"is_reserved":false,"is_disabled":false,"rental_uris":{"android":"levelo://app?vid=269a4193-03a6-4fe1-93c0-2b8610ca1e7f","ios":"levelo://app?vid=269a4193-03a6-4fe1-93c0-2b8610ca1e7f"},"vehicle_type_id":"4","last_reported":1730258189,"current_range_meters":20400,"station_id":"ce4bhhh2rcd13ifvqfk0","pricing_plan_id":"cebpf4jnsgd1na2vs0mg"},{"bike_id":"31e64899-938b-4077-a9ff-7d8476d528b5","system_id":"levelo_inurba_marseille","lat":43.25823,"lon":5.39435,"is_reserved":false,"is_disabled":false,"rental_uris":{"android":"levelo://app?vid=31e64899-938b-4077-a9ff-7d8476d528b5","ios":"levelo://app?vid=31e64899-938b-4077-a9ff-7d8476d528b5"},"vehicle_type_id":"4","last_reported":1730258189,"current_range_meters":26800,"station_id":"ce4bhip2rcd13ifvqft0","pricing_plan_id":"cebpf4jnsgd1na2vs0mg"},{"bike_id":"3928d2b2-5322-4bfc-935c-f02931565366","system_id":"levelo_inurba_marseille","lat":43.27994,"lon":5.41647,"is_reserved":false,"is_disabled":false,"rental_uris":{"android":"levelo://app?vid=3928d2b2-5322-4bfc-935c-f02931565366","ios":"levelo://app?vid=3928d2b2-5322-4bfc-935c-f02931565366"},"vehicle_type_id":"4","last_reported":1730258189,"current_range_meters":12400,"station_id":"ce4bho12rcd13ifvqh1g","pricing_plan_id":"cebpf4jnsgd1na2vs0mg"},{"bike_id":"669541bb-ec23-44c5-bb83-c3650de83fee","system_id":"levelo_inurba_marseille","lat":43.27996,"lon":5.41654,"is_reserved":false,"is_disabled":false,"rental_uris":{"android":"levelo://app?vid=669541bb-ec23-44c5-bb83-c3650de83fee","ios":"levelo://app?vid=669541bb-ec23-44c5-bb83-c3650de83fee"},"vehicle_type_id":"4","last_reported":1730258189,"current_range_meters":38800,"station_id":"ce4bho12rcd13ifvqh1g","pricing_plan_id":"cebpf4jnsgd1na2vs0mg"},{"bike_id":"eb95fe5d-06a7-4185-9c5d-85ad221adc22","system_id":"levelo_inurba_marseille","lat":43.28344,"lon":5.38098,"is_reserved":false,"is_disabled":false,"rental_uris":{"android":"levelo://app?vid=eb95fe5d-06a7-4185-9c5d-85ad221adc22","ios":"levelo://app?vid=eb95fe5d-06a7-4185-9c5d-85ad221adc22"},"vehicle_type_id":"4","last_reported":1730258189,"current_range_meters":38800,"station_id":"ce4bh412rcd13ifvqdr0","pricing_plan_id":"cebpf4jnsgd1na2vs0mg"},{"bike_id":"d42f4a6b-23fc-4c16-b6cf-e48fe37c5c2e","system_id":"levelo_inurba_marseille","lat":43.28451,"lon":5.35889,"is_reserved":false,"is_disabled":false,"rental_uris":{"android":"levelo://app?vid=d42f4a6b-23fc-4c16-b6cf-e48fe37c5c2e","ios":"levelo://app?vid=d42f4a6b-23fc-4c16-b6cf-e48fe37c5c2e"},"vehicle_type_id":"4","last_reported":1730258189,"current_range_meters":38800,"station_id":"ce4bhah2rcd13ifvqei0","pricing_plan_id":"cebpf4jnsgd1na2vs0mg"},{"bike_id":"5a135fa2-4807-42ac-b494-8cde8a55615c","system_id":"levelo_inurba_marseille","lat":43.30794,"lon":5.38156,"is_reserved":false,"is_disabled":false,"rental_uris":{"android":"levelo://app?vid=5a135fa2-4807-42ac-b494-8cde8a55615c","ios":"levelo://app?vid=5a135fa2-4807-42ac-b494-8cde8a55615c"},"vehicle_type_id":"4","last_reported":1730258189,"current_range_meters":17200,"station_id":"ce4bgt12rcd13ifvqce0","pricing_plan_id":"cebpf4jnsgd1na2vs0mg"},{"bike_id":"c99ff333-d4ed-4459-be44-9baffe10ada9","system_id":"levelo_inurba_marseille","lat":43.3059,"lon":5.37208,"is_reserved":false,"is_disabled":false,"rental_uris":{"android":"levelo://app?vid=c99ff333-d4ed-4459-be44-9baffe10ada9","ios":"levelo://app?vid=c99ff333-d4ed-4459-be44-9baffe10ada9"},"vehicle_type_id":"4","last_reported":1730258189,"current_range_meters":38800,"station_id":"ce4bgqh2rcd13ifvqc4g","pricing_plan_id":"cebpf4jnsgd1na2vs0mg"},{"bike_id":"4a223b58-dbe5-49aa-8129-929248ef0a09","system_id":"levelo_inurba_marseille","lat":43.31369,"lon":5.38504,"is_reserved":false,"is_disabled":false,"rental_uris":{"android":"levelo://app?vid=4a223b58-dbe5-49aa-8129-929248ef0a09","ios":"levelo://app?vid=4a223b58-dbe5-49aa-8129-929248ef0a09"},"vehicle_type_id":"4","last_reported":1730258189,"current_range_meters":21600,"station_id":"ce4bgt92rcd13ifvqcf0","pricing_plan_id":"cebpf4jnsgd1na2vs0mg"},{"bike_id":"be8ded3c-178d-4dbf-ae6a-eb6d6e8855cc","system_id":"levelo_inurba_marseille","lat":43.29284,"lon":5.4013,"is_reserved":false,"is_disabled":false,"rental_uris":{"android":"levelo://app?vid=be8ded3c-178d-4dbf-ae6a-eb6d6e8855cc","ios":"levelo://app?vid=be8ded3c-178d-4dbf-ae6a-eb6d6e8855cc"},"vehicle_type_id":"4","last_reported":1730258189,"current_range_meters":39200,"station_id":"ce4bh312rcd13ifvqdk0","pricing_plan_id":"cebpf4jnsgd1na2vs0mg"},{"bike_id":"491171d5-0527-410a-ada1-acc25421f1b3","system_id":"levelo_inurba_marseille","lat":43.30771,"lon":5.37652,"is_reserved":false,"is_disabled":false,"rental_uris":{"android":"levelo://app?vid=491171d5-0527-410a-ada1-acc25421f1b3","ios":"levelo://app?vid=491171d5-0527-410a-ada1-acc25421f1b3"},"vehicle_type_id":"4","last_reported":1730258189,"current_range_meters":16800,"station_id":"ce4bgv92rcd13ifvqcq0","pricing_plan_id":"cebpf4jnsgd1na2vs0mg"},{"bike_id":"98068fff-0ea9-402a-83fe-c96429d47f95","system_id":"levelo_inurba_marseille","lat":43.30437,"lon":5.38888,"is_reserved":false,"is_disabled":false,"rental_uris":{"android":"levelo://app?vid=98068fff-0ea9-402a-83fe-c96429d47f95","ios":"levelo://app?vid=98068fff-0ea9-402a-83fe-c96429d47f95"},"vehicle_type_id":"4","last_reported":1730258189,"current_range_meters":11200,"station_id":"ce4bgk12rcd13ifvqbi0","pricing_plan_id":"cebpf4jnsgd1na2vs0mg"},{"bike_id":"99a3f4d5-9ad7-4614-a88f-03f2ed75ead3","system_id":"levelo_inurba_marseille","lat":43.31701,"lon":5.37757,"is_reserved":false,"is_disabled":false,"rental_uris":{"android":"levelo://app?vid=99a3f4d5-9ad7-4614-a88f-03f2ed75ead3","ios":"levelo://app?vid=99a3f4d5-9ad7-4614-a88f-03f2ed75ead3"},"vehicle_type_id":"4","last_reported":1730258189,"current_range_meters":38800,"station_id":"ce4bgth2rcd13ifvqch0","pricing_plan_id":"cebpf4jnsgd1na2vs0mg"},{"bike_id":"5867dd38-1697-41f0-976b-2886f1b58d27","system_id":"levelo_inurba_marseille","lat":43.28436,"lon":5.39185,"is_reserved":false,"is_disabled":false,"rental_uris":{"android":"levelo://app?vid=5867dd38-1697-41f0-976b-2886f1b58d27","ios":"levelo://app?vid=5867dd38-1697-41f0-976b-2886f1b58d27"},"vehicle_type_id":"4","last_reported":1730258189,"current_range_meters":38800,"station_id":"ce4bhoh2rcd13ifvqh5g","pricing_plan_id":"cebpf4jnsgd1na2vs0mg"},{"bike_id":"3e6d7896-2b44-40ea-a659-73ee7fe5c818","system_id":"levelo_inurba_marseille","lat":43.30793,"lon":5.38147,"is_reserved":false,"is_disabled":false,"rental_uris":{"android":"levelo://app?vid=3e6d7896-2b44-40ea-a659-73ee7fe5c818","ios":"levelo://app?vid=3e6d7896-2b44-40ea-a659-73ee7fe5c818"},"vehicle_type_id":"4","last_reported":1730258189,"current_range_meters":25200,"station_id":"ce4bgt12rcd13ifvqce0","pricing_plan_id":"cebpf4jnsgd1na2vs0mg"},{"bike_id":"a499e673-4f57-4342-9063-be4db69af0ba","system_id":"levelo_inurba_marseille","lat":43.31493,"lon":5.37304,"is_reserved":false,"is_disabled":false,"rental_uris":{"android":"levelo://app?vid=a499e673-4f57-4342-9063-be4db69af0ba","ios":"levelo://app?vid=a499e673-4f57-4342-9063-be4db69af0ba"},"vehicle_type_id":"4","last_reported":1730258189,"current_range_meters":38800,"station_id":"ce4bgt12rcd13ifvqcd0","pricing_plan_id":"cebpf4jnsgd1na2vs0mg"},{"bike_id":"54454bef-56f4-4fd7-9cf7-c57a75a8c623","system_id":"levelo_inurba_marseille","lat":43.317,"lon":5.3775,"is_reserved":false,"is_disabled":false,"rental_uris":{"android":"levelo://app?vid=54454bef-56f4-4fd7-9cf7-c57a75a8c623","ios":"levelo://app?vid=54454bef-56f4-4fd7-9cf7-c57a75a8c623"},"vehicle_type_id":"4","last_reported":1730258189,"current_range_meters":38800,"station_id":"ce4bgth2rcd13ifvqch0","pricing_plan_id":"cebpf4jnsgd1na2vs0mg"},{"bike_id":"68a95aee-44f8-4ed6-81dc-62ee58f0c73d","system_id":"levelo_inurba_marseille","lat":43.31716,"lon":5.42405,"is_reserved":false,"is_disabled":false,"rental_uris":{"android":"levelo://app?vid=68a95aee-44f8-4ed6-81dc-62ee58f0c73d","ios":"levelo://app?vid=68a95aee-44f8-4ed6-81dc-62ee58f0c73d"},"vehicle_type_id":"4","last_reported":1730258189,"current_range_meters":37600,"station_id":"ce4bhp92rcd13ifvqhbg","pricing_plan_id":"cebpf4jnsgd1na2vs0mg"},{"bike_id":"6208c7ac-3b1b-424f-aad2-a7abcd6bf416","system_id":"levelo_inurba_marseille","lat":43.29249,"lon":5.40913,"is_reserved":false,"is_disabled":false,"rental_uris":{"android":"levelo://app?vid=6208c7ac-3b1b-424f-aad2-a7abcd6bf416","ios":"levelo://app?vid=6208c7ac-3b1b-424f-aad2-a7abcd6bf416"},"vehicle_type_id":"4","last_reported":1730258189,"current_range_meters":38800,"station_id":"ce4bh192rcd13ifvqdc0","pricing_plan_id":"cebpf4jnsgd1na2vs0mg"},{"bike_id":"9e2bc93c-3cbe-4933-9d34-027b7a5b1a0d","system_id":"levelo_inurba_marseille","lat":43.24665,"lon":5.38165,"is_reserved":false,"is_disabled":false,"rental_uris":{"android":"levelo://app?vid=9e2bc93c-3cbe-4933-9d34-027b7a5b1a0d","ios":"levelo://app?vid=9e2bc93c-3cbe-4933-9d34-027b7a5b1a0d"},"vehicle_type_id":"4","last_reported":1730258189,"current_range_meters":9200,"station_id":"ce4bhih2rcd13ifvqfr0","pricing_plan_id":"cebpf4jnsgd1na2vs0mg"},{"bike_id":"0b0066f3-3fd0-4097-b8c9-d0c6df0d8297","system_id":"levelo_inurba_marseille","lat":43.273,"lon":5.40703,"is_reserved":false,"is_disabled":false,"rental_uris":{"android":"levelo://app?vid=0b0066f3-3fd0-4097-b8c9-d0c6df0d8297","ios":"levelo://app?vid=0b0066f3-3fd0-4097-b8c9-d0c6df0d8297"},"vehicle_type_id":"4","last_reported":1730258189,"current_range_meters":26000,"station_id":"","pricing_plan_id":"cebpf4jnsgd1na2vs0mg"},{"bike_id":"ee216f64-d326-4ee1-8271-fef966a373a8","system_id":"levelo_inurba_marseille","lat":43.270588,"lon":5.402567,"is_reserved":false,"is_disabled":false,"rental_uris":{"android":"levelo://app?vid=ee216f64-d326-4ee1-8271-fef966a373a8","ios":"levelo://app?vid=ee216f64-d326-4ee1-8271-fef966a373a8"},"vehicle_type_id":"4","last_reported":1730258189,"current_range_meters":3200,"station_id":"ce4bhk92rcd13ifvqgc0","pricing_plan_id":"cebpf4jnsgd1na2vs0mg"},{"bike_id":"7b25bbcf-9356-4e8c-85e7-2d74e7c5a136","system_id":"levelo_inurba_marseille","lat":43.290952,"lon":5.381398,"is_reserved":false,"is_disabled":false,"rental_uris":{"android":"levelo://app?vid=7b25bbcf-9356-4e8c-85e7-2d74e7c5a136","ios":"levelo://app?vid=7b25bbcf-9356-4e8c-85e7-2d74e7c5a136"},"vehicle_type_id":"4","last_reported":1730258189,"current_range_meters":37600,"station_id":"ce4bh512rcd13ifvqe2g","pricing_plan_id":"cebpf4jnsgd1na2vs0mg"},{"bike_id":"d4f897cd-5722-42fb-bbae-84fadb33bd3a","system_id":"levelo_inurba_marseille","lat":43.28845,"lon":5.35859,"is_reserved":false,"is_disabled":false,"rental_uris":{"android":"levelo://app?vid=d4f897cd-5722-42fb-bbae-84fadb33bd3a","ios":"levelo://app?vid=d4f897cd-5722-42fb-bbae-84fadb33bd3a"},"vehicle_type_id":"4","last_reported":1730258189,"current_range_meters":38800,"station_id":"ce4bhb12rcd13ifvqem0","pricing_plan_id":"cebpf4jnsgd1na2vs0mg"},{"bike_id":"538c6c97-8738-4e40-afde-1ced2fc6b778","system_id":"levelo_inurba_marseille","lat":43.33726,"lon":5.39176,"is_reserved":false,"is_disabled":false,"rental_uris":{"android":"levelo://app?vid=538c6c97-8738-4e40-afde-1ced2fc6b778","ios":"levelo://app?vid=538c6c97-8738-4e40-afde-1ced2fc6b778"},"vehicle_type_id":"4","last_reported":1730258189,"current_range_meters":37600,"station_id":"ce4bhr92rcd13ifvqhsg","pricing_plan_id":"cebpf4jnsgd1na2vs0mg"},{"bike_id":"4f4d288a-f5df-49fa-a13b-b4fefdfdb182","system_id":"levelo_inurba_marseille","lat":43.30801,"lon":5.43519,"is_reserved":false,"is_disabled":false,"rental_uris":{"android":"levelo://app?vid=4f4d288a-f5df-49fa-a13b-b4fefdfdb182","ios":"levelo://app?vid=4f4d288a-f5df-49fa-a13b-b4fefdfdb182"},"vehicle_type_id":"4","last_reported":1730258189,"current_range_meters":38800,"station_id":"ce4bhph2rcd13ifvqheg","pricing_plan_id":"cebpf4jnsgd1na2vs0mg"},{"bike_id":"499c6c2d-aadc-4271-97cd-4fcd6d5d8eeb","system_id":"levelo_inurba_marseille","lat":43.26571,"lon":5.39013,"is_reserved":false,"is_disabled":false,"rental_uris":{"android":"levelo://app?vid=499c6c2d-aadc-4271-97cd-4fcd6d5d8eeb","ios":"levelo://app?vid=499c6c2d-aadc-4271-97cd-4fcd6d5d8eeb"},"vehicle_type_id":"4","last_reported":1730258189,"current_range_meters":11200,"station_id":"ce4bhe12rcd13ifvqf30","pricing_plan_id":"cebpf4jnsgd1na2vs0mg"},{"bike_id":"03e26363-1adc-494c-8098-91070571fba5","system_id":"levelo_inurba_marseille","lat":43.23193,"lon":5.35547,"is_reserved":false,"is_disabled":false,"rental_uris":{"android":"levelo://app?vid=03e26363-1adc-494c-8098-91070571fba5","ios":"levelo://app?vid=03e26363-1adc-494c-8098-91070571fba5"},"vehicle_type_id":"4","last_reported":1730258189,"current_range_meters":33200,"station_id":"ce4bhu92rcd13ifvqi70","pricing_plan_id":"cebpf4jnsgd1na2vs0mg"},{"bike_id":"c497513d-9d1d-4320-a1e3-875a8b21d4c5","system_id":"levelo_inurba_marseille","lat":43.27174,"lon":5.40991,"is_reserved":false,"is_disabled":false,"rental_uris":{"android":"levelo://app?vid=c497513d-9d1d-4320-a1e3-875a8b21d4c5","ios":"levelo://app?vid=c497513d-9d1d-4320-a1e3-875a8b21d4c5"},"vehicle_type_id":"4","last_reported":1730258189,"current_range_meters":34800,"station_id":"ce4bhl12rcd13ifvqgf0","pricing_plan_id":"cebpf4jnsgd1na2vs0mg"},{"bike_id":"3f296890-19ce-46b6-884b-d2e34dba8783","system_id":"levelo_inurba_marseille","lat":43.24807,"lon":5.37454,"is_reserved":false,"is_disabled":false,"rental_uris":{"android":"levelo://app?vid=3f296890-19ce-46b6-884b-d2e34dba8783","ios":"levelo://app?vid=3f296890-19ce-46b6-884b-d2e34dba8783"},"vehicle_type_id":"4","last_reported":1730258189,"current_range_meters":38800,"station_id":"ce4bhgh2rcd13ifvqfb0","pricing_plan_id":"cebpf4jnsgd1na2vs0mg"},{"bike_id":"e0fe10b0-ce38-4f4b-aa95-0e43ac241740","system_id":"levelo_inurba_marseille","lat":43.32366,"lon":5.38883,"is_reserved":false,"is_disabled":false,"rental_uris":{"android":"levelo://app?vid=e0fe10b0-ce38-4f4b-aa95-0e43ac241740","ios":"levelo://app?vid=e0fe10b0-ce38-4f4b-aa95-0e43ac241740"},"vehicle_type_id":"4","last_reported":1730258189,"current_range_meters":30400,"station_id":"ce4bhqp2rcd13ifvqhog","pricing_plan_id":"cebpf4jnsgd1na2vs0mg"},{"bike_id":"b888f11d-4cca-4019-9c0c-d6d69a667f3e","system_id":"levelo_inurba_marseille","lat":43.27566,"lon":5.38434,"is_reserved":false,"is_disabled":false,"rental_uris":{"android":"levelo://app?vid=b888f11d-4cca-4019-9c0c-d6d69a667f3e","ios":"levelo://app?vid=b888f11d-4cca-4019-9c0c-d6d69a667f3e"},"vehicle_type_id":"4","last_reported":1730258189,"current_range_meters":37600,"station_id":"ce4bhh92rcd13ifvqfi0","pricing_plan_id":"cebpf4jnsgd1na2vs0mg"},{"bike_id":"e9141b44-30ab-459c-94b2-99dbe6b7a845","system_id":"levelo_inurba_marseille","lat":43.295525,"lon":5.422873,"is_reserved":false,"is_disabled":false,"rental_uris":{"android":"levelo://app?vid=e9141b44-30ab-459c-94b2-99dbe6b7a845","ios":"levelo://app?vid=e9141b44-30ab-459c-94b2-99dbe6b7a845"},"vehicle_type_id":"4","last_reported":1730258189,"current_range_meters":37600,"station_id":"ce4bhph2rcd13ifvqhdg","pricing_plan_id":"cebpf4jnsgd1na2vs0mg"},{"bike_id":"f490c3ab-626b-499d-8386-3a1696334506","system_id":"levelo_inurba_marseille","lat":43.25824,"lon":5.39423,"is_reserved":false,"is_disabled":false,"rental_uris":{"android":"levelo://app?vid=f490c3ab-626b-499d-8386-3a1696334506","ios":"levelo://app?vid=f490c3ab-626b-499d-8386-3a1696334506"},"vehicle_type_id":"4","last_reported":1730258189,"current_range_meters":29600,"station_id":"ce4bhip2rcd13ifvqft0","pricing_plan_id":"cebpf4jnsgd1na2vs0mg"},{"bike_id":"75313b0b-fea0-43a4-930b-001fbd31ad06","system_id":"levelo_inurba_marseille","lat":43.33606,"lon":5.41011,"is_reserved":false,"is_disabled":false,"rental_uris":{"android":"levelo://app?vid=75313b0b-fea0-43a4-930b-001fbd31ad06","ios":"levelo://app?vid=75313b0b-fea0-43a4-930b-001fbd31ad06"},"vehicle_type_id":"4","last_reported":1730258189,"current_range_meters":16000,"station_id":"ce4bhqh2rcd13ifvqhmg","pricing_plan_id":"cebpf4jnsgd1na2vs0mg"},{"bike_id":"8fc8f69f-228e-4754-8013-e3713d197b92","system_id":"levelo_inurba_marseille","lat":43.2466,"lon":5.38162,"is_reserved":false,"is_disabled":false,"rental_uris":{"android":"levelo://app?vid=8fc8f69f-228e-4754-8013-e3713d197b92","ios":"levelo://app?vid=8fc8f69f-228e-4754-8013-e3713d197b92"},"vehicle_type_id":"4","last_reported":1730258189,"current_range_meters":37600,"station_id":"ce4bhih2rcd13ifvqfr0","pricing_plan_id":"cebpf4jnsgd1na2vs0mg"},{"bike_id":"6b778970-7ca1-4912-8b3b-f071e3ca997e","system_id":"levelo_inurba_marseille","lat":43.31267,"lon":5.4017,"is_reserved":false,"is_disabled":false,"rental_uris":{"android":"levelo://app?vid=6b778970-7ca1-4912-8b3b-f071e3ca997e","ios":"levelo://app?vid=6b778970-7ca1-4912-8b3b-f071e3ca997e"},"vehicle_type_id":"4","last_reported":1730258189,"current_range_meters":36800,"station_id":"ce4bh092rcd13ifvqd30","pricing_plan_id":"cebpf4jnsgd1na2vs0mg"},{"bike_id":"a306c469-7544-4489-af82-e9fb1e9b4215","system_id":"levelo_inurba_marseille","lat":43.23178,"lon":5.39982,"is_reserved":false,"is_disabled":false,"rental_uris":{"android":"levelo://app?vid=a306c469-7544-4489-af82-e9fb1e9b4215","ios":"levelo://app?vid=a306c469-7544-4489-af82-e9fb1e9b4215"},"vehicle_type_id":"4","last_reported":1730258189,"current_range_meters":38800,"station_id":"ce4bhn12rcd13ifvqgqg","pricing_plan_id":"cebpf4jnsgd1na2vs0mg"},{"bike_id":"670dd631-18b7-4713-a903-23b5a1df838c","system_id":"levelo_inurba_marseille","lat":43.285775,"lon":5.394976,"is_reserved":false,"is_disabled":false,"rental_uris":{"android":"levelo://app?vid=670dd631-18b7-4713-a903-23b5a1df838c","ios":"levelo://app?vid=670dd631-18b7-4713-a903-23b5a1df838c"},"vehicle_type_id":"4","last_reported":1730258189,"current_range_meters":38800,"station_id":"ce4bh292rcd13ifvqdg0","pricing_plan_id":"cebpf4jnsgd1na2vs0mg"},{"bike_id":"c8b0ddcb-9c74-47bf-bfe0-29fe3f9c6036","system_id":"levelo_inurba_marseille","lat":43.30591,"lon":5.39351,"is_reserved":false,"is_disabled":false,"rental_uris":{"android":"levelo://app?vid=c8b0ddcb-9c74-47bf-bfe0-29fe3f9c6036","ios":"levelo://app?vid=c8b0ddcb-9c74-47bf-bfe0-29fe3f9c6036"},"vehicle_type_id":"4","last_reported":1730258189,"current_range_meters":39200,"station_id":"ce4bh0p2rcd13ifvqd80","pricing_plan_id":"cebpf4jnsgd1na2vs0mg"},{"bike_id":"8a887737-7e46-46e5-b8c8-107a72ab24e0","system_id":"levelo_inurba_marseille","lat":43.28358,"lon":5.38619,"is_reserved":false,"is_disabled":false,"rental_uris":{"android":"levelo://app?vid=8a887737-7e46-46e5-b8c8-107a72ab24e0","ios":"levelo://app?vid=8a887737-7e46-46e5-b8c8-107a72ab24e0"},"vehicle_type_id":"4","last_reported":1730258189,"current_range_meters":17200,"station_id":"ce4bh492rcd13ifvqdvg","pricing_plan_id":"cebpf4jnsgd1na2vs0mg"},{"bike_id":"952babeb-3864-4f25-98a9-63b355932f90","system_id":"levelo_inurba_marseille","lat":43.28432,"lon":5.39181,"is_reserved":false,"is_disabled":false,"rental_uris":{"android":"levelo://app?vid=952babeb-3864-4f25-98a9-63b355932f90","ios":"levelo://app?vid=952babeb-3864-4f25-98a9-63b355932f90"},"vehicle_type_id":"4","last_reported":1730258189,"current_range_meters":37600,"station_id":"ce4bhoh2rcd13ifvqh5g","pricing_plan_id":"cebpf4jnsgd1na2vs0mg"},{"bike_id":"ad8fd308-ff6f-45fc-9b50-3e03cbf09dc0","system_id":"levelo_inurba_marseille","lat":43.31112,"lon":5.37764,"is_reserved":false,"is_disabled":false,"rental_uris":{"android":"levelo://app?vid=ad8fd308-ff6f-45fc-9b50-3e03cbf09dc0","ios":"levelo://app?vid=ad8fd308-ff6f-45fc-9b50-3e03cbf09dc0"},"vehicle_type_id":"4","last_reported":1730258189,"current_range_meters":22400,"station_id":"ce4bgt92rcd13ifvqcg0","pricing_plan_id":"cebpf4jnsgd1na2vs0mg"},{"bike_id":"1e1249ce-3ff4-488b-b8df-0132ab5c0f78","system_id":"levelo_inurba_marseille","lat":43.26937,"lon":5.38623,"is_reserved":false,"is_disabled":false,"rental_uris":{"android":"levelo://app?vid=1e1249ce-3ff4-488b-b8df-0132ab5c0f78","ios":"levelo://app?vid=1e1249ce-3ff4-488b-b8df-0132ab5c0f78"},"vehicle_type_id":"4","last_reported":1730258189,"current_range_meters":38800,"station_id":"ce4bhh92rcd13ifvqfh0","pricing_plan_id":"cebpf4jnsgd1na2vs0mg"},{"bike_id":"abee8147-bef2-481d-8987-0aca5fd43c36","system_id":"levelo_inurba_marseille","lat":43.28705,"lon":5.39995,"is_reserved":false,"is_disabled":false,"rental_uris":{"android":"levelo://app?vid=abee8147-bef2-481d-8987-0aca5fd43c36","ios":"levelo://app?vid=abee8147-bef2-481d-8987-0aca5fd43c36"},"vehicle_type_id":"4","last_reported":1730258189,"current_range_meters":38400,"station_id":"ce4bho92rcd13ifvqh3g","pricing_plan_id":"cebpf4jnsgd1na2vs0mg"},{"bike_id":"65ebd49a-94e0-4731-b170-9f1ac0fc0675","system_id":"levelo_inurba_marseille","lat":43.31532,"lon":5.38027,"is_reserved":false,"is_disabled":false,"rental_uris":{"android":"levelo://app?vid=65ebd49a-94e0-4731-b170-9f1ac0fc0675","ios":"levelo://app?vid=65ebd49a-94e0-4731-b170-9f1ac0fc0675"},"vehicle_type_id":"4","last_reported":1730258189,"current_range_meters":27200,"station_id":"ce4bhsp2rcd13ifvqi50","pricing_plan_id":"cebpf4jnsgd1na2vs0mg"},{"bike_id":"9a7ed57e-82d7-4eac-821d-125d5964faf7","system_id":"levelo_inurba_marseille","lat":43.30637,"lon":5.4009,"is_reserved":false,"is_disabled":false,"rental_uris":{"android":"levelo://app?vid=9a7ed57e-82d7-4eac-821d-125d5964faf7","ios":"levelo://app?vid=9a7ed57e-82d7-4eac-821d-125d5964faf7"},"vehicle_type_id":"4","last_reported":1730258189,"current_range_meters":9200,"station_id":"ce4bh112rcd13ifvqda0","pricing_plan_id":"cebpf4jnsgd1na2vs0mg"},{"bike_id":"b87636ba-074b-49ec-8abf-f6529ae02217","system_id":"levelo_inurba_marseille","lat":43.27895,"lon":5.37998,"is_reserved":false,"is_disabled":false,"rental_uris":{"android":"levelo://app?vid=b87636ba-074b-49ec-8abf-f6529ae02217","ios":"levelo://app?vid=b87636ba-074b-49ec-8abf-f6529ae02217"},"vehicle_type_id":"4","last_reported":1730258189,"current_range_meters":4400,"station_id":"ce4bhf92rcd13ifvqf50","pricing_plan_id":"cebpf4jnsgd1na2vs0mg"},{"bike_id":"ec06eb51-e6dd-407e-90ef-bd6841b0a5f2","system_id":"levelo_inurba_marseille","lat":43.29277,"lon":5.40123,"is_reserved":false,"is_disabled":false,"rental_uris":{"android":"levelo://app?vid=ec06eb51-e6dd-407e-90ef-bd6841b0a5f2","ios":"levelo://app?vid=ec06eb51-e6dd-407e-90ef-bd6841b0a5f2"},"vehicle_type_id":"4","last_reported":1730258189,"current_range_meters":38800,"station_id":"ce4bh312rcd13ifvqdk0","pricing_plan_id":"cebpf4jnsgd1na2vs0mg"},{"bike_id":"e4304f14-18a5-4986-b14e-8833cb582aa7","system_id":"levelo_inurba_marseille","lat":43.29279,"lon":5.40129,"is_reserved":false,"is_disabled":false,"rental_uris":{"android":"levelo://app?vid=e4304f14-18a5-4986-b14e-8833cb582aa7","ios":"levelo://app?vid=e4304f14-18a5-4986-b14e-8833cb582aa7"},"vehicle_type_id":"4","last_reported":1730258189,"current_range_meters":30400,"station_id":"ce4bh312rcd13ifvqdk0","pricing_plan_id":"cebpf4jnsgd1na2vs0mg"},{"bike_id":"ee26da9d-e8bb-4883-b9e7-7b9a7f97a4ae","system_id":"levelo_inurba_marseille","lat":43.28846,"lon":5.39313,"is_reserved":false,"is_disabled":false,"rental_uris":{"android":"levelo://app?vid=ee26da9d-e8bb-4883-b9e7-7b9a7f97a4ae","ios":"levelo://app?vid=ee26da9d-e8bb-4883-b9e7-7b9a7f97a4ae"},"vehicle_type_id":"4","last_reported":1730258189,"current_range_meters":39200,"station_id":"ce4bh2p2rcd13ifvqdi0","pricing_plan_id":"cebpf4jnsgd1na2vs0mg"},{"bike_id":"f1307045-8336-4a78-aa5d-7b1378f3299d","system_id":"levelo_inurba_marseille","lat":43.29271,"lon":5.40124,"is_reserved":false,"is_disabled":false,"rental_uris":{"android":"levelo://app?vid=f1307045-8336-4a78-aa5d-7b1378f3299d","ios":"levelo://app?vid=f1307045-8336-4a78-aa5d-7b1378f3299d"},"vehicle_type_id":"4","last_reported":1730258189,"current_range_meters":38800,"station_id":"ce4bh312rcd13ifvqdk0","pricing_plan_id":"cebpf4jnsgd1na2vs0mg"},{"bike_id":"46c831fc-4dbc-4c06-a9e6-922f77d18649","system_id":"levelo_inurba_marseille","lat":43.31482,"lon":5.37298,"is_reserved":false,"is_disabled":false,"rental_uris":{"android":"levelo://app?vid=46c831fc-4dbc-4c06-a9e6-922f77d18649","ios":"levelo://app?vid=46c831fc-4dbc-4c06-a9e6-922f77d18649"},"vehicle_type_id":"4","last_reported":1730258189,"current_range_meters":38800,"station_id":"ce4bgt12rcd13ifvqcd0","pricing_plan_id":"cebpf4jnsgd1na2vs0mg"},{"bike_id":"20dfae4b-0d18-410b-9f7f-08675354fd6a","system_id":"levelo_inurba_marseille","lat":43.304389,"lon":5.388931,"is_reserved":false,"is_disabled":false,"rental_uris":{"android":"levelo://app?vid=20dfae4b-0d18-410b-9f7f-08675354fd6a","ios":"levelo://app?vid=20dfae4b-0d18-410b-9f7f-08675354fd6a"},"vehicle_type_id":"4","last_reported":1730258189,"current_range_meters":18800,"station_id":"ce4bgk12rcd13ifvqbi0","pricing_plan_id":"cebpf4jnsgd1na2vs0mg"},{"bike_id":"181f56fd-73aa-4ad7-ab47-fecf1739a7d7","system_id":"levelo_inurba_marseille","lat":43.30951,"lon":5.39041,"is_reserved":false,"is_disabled":false,"rental_uris":{"android":"levelo://app?vid=181f56fd-73aa-4ad7-ab47-fecf1739a7d7","ios":"levelo://app?vid=181f56fd-73aa-4ad7-ab47-fecf1739a7d7"},"vehicle_type_id":"4","last_reported":1730258189,"current_range_meters":31200,"station_id":"ce4bgup2rcd13ifvqco0","pricing_plan_id":"cebpf4jnsgd1na2vs0mg"},{"bike_id":"c7d1f6cd-e571-4d93-b9e0-05b3c508b9fd","system_id":"levelo_inurba_marseille","lat":43.32013,"lon":5.41564,"is_reserved":false,"is_disabled":false,"rental_uris":{"android":"levelo://app?vid=c7d1f6cd-e571-4d93-b9e0-05b3c508b9fd","ios":"levelo://app?vid=c7d1f6cd-e571-4d93-b9e0-05b3c508b9fd"},"vehicle_type_id":"4","last_reported":1730258189,"current_range_meters":26800,"station_id":"ce4bhq92rcd13ifvqhkg","pricing_plan_id":"cebpf4jnsgd1na2vs0mg"},{"bike_id":"fe2904da-4ac6-42de-b232-dbec16338c49","system_id":"levelo_inurba_marseille","lat":43.3369,"lon":5.35749,"is_reserved":false,"is_disabled":false,"rental_uris":{"android":"levelo://app?vid=fe2904da-4ac6-42de-b232-dbec16338c49","ios":"levelo://app?vid=fe2904da-4ac6-42de-b232-dbec16338c49"},"vehicle_type_id":"4","last_reported":1730258189,"current_range_meters":26000,"station_id":"","pricing_plan_id":"cebpf4jnsgd1na2vs0mg"},{"bike_id":"291f59f7-2570-42c2-a90b-c6c0ef289720","system_id":"levelo_inurba_marseille","lat":43.29978,"lon":5.38482,"is_reserved":false,"is_disabled":false,"rental_uris":{"android":"levelo://app?vid=291f59f7-2570-42c2-a90b-c6c0ef289720","ios":"levelo://app?vid=291f59f7-2570-42c2-a90b-c6c0ef289720"},"vehicle_type_id":"4","last_reported":1730258189,"current_range_meters":38000,"station_id":"ce4bgj92rcd13ifvqbd0","pricing_plan_id":"cebpf4jnsgd1na2vs0mg"},{"bike_id":"d93e944a-1052-4a26-8348-6ce7ff5a64f1","system_id":"levelo_inurba_marseille","lat":43.32334,"lon":5.40616,"is_reserved":false,"is_disabled":false,"rental_uris":{"android":"levelo://app?vid=d93e944a-1052-4a26-8348-6ce7ff5a64f1","ios":"levelo://app?vid=d93e944a-1052-4a26-8348-6ce7ff5a64f1"},"vehicle_type_id":"4","last_reported":1730258189,"current_range_meters":36400,"station_id":"ce4bhq92rcd13ifvqhjg","pricing_plan_id":"cebpf4jnsgd1na2vs0mg"},{"bike_id":"dbfafde0-c582-408a-8e0f-30168d4bd53c","system_id":"levelo_inurba_marseille","lat":43.25578,"lon":5.38237,"is_reserved":false,"is_disabled":false,"rental_uris":{"android":"levelo://app?vid=dbfafde0-c582-408a-8e0f-30168d4bd53c","ios":"levelo://app?vid=dbfafde0-c582-408a-8e0f-30168d4bd53c"},"vehicle_type_id":"4","last_reported":1730258189,"current_range_meters":28400,"station_id":"ce4bhih2rcd13ifvqfs0","pricing_plan_id":"cebpf4jnsgd1na2vs0mg"},{"bike_id":"288f8dcf-45f6-4787-9211-21bf95dc6ebe","system_id":"levelo_inurba_marseille","lat":43.29957,"lon":5.41321,"is_reserved":false,"is_disabled":false,"rental_uris":{"android":"levelo://app?vid=288f8dcf-45f6-4787-9211-21bf95dc6ebe","ios":"levelo://app?vid=288f8dcf-45f6-4787-9211-21bf95dc6ebe"},"vehicle_type_id":"4","last_reported":1730258189,"current_range_meters":29600,"station_id":"ce4bhp12rcd13ifvqh9g","pricing_plan_id":"cebpf4jnsgd1na2vs0mg"},{"bike_id":"9fb02925-e4c3-48e2-94e9-d105ec3f767a","system_id":"levelo_inurba_marseille","lat":43.30779,"lon":5.37653,"is_reserved":false,"is_disabled":false,"rental_uris":{"android":"levelo://app?vid=9fb02925-e4c3-48e2-94e9-d105ec3f767a","ios":"levelo://app?vid=9fb02925-e4c3-48e2-94e9-d105ec3f767a"},"vehicle_type_id":"4","last_reported":1730258189,"current_range_meters":38800,"station_id":"ce4bgv92rcd13ifvqcq0","pricing_plan_id":"cebpf4jnsgd1na2vs0mg"},{"bike_id":"56e7cf53-9329-4857-afd0-bf9c5007df45","system_id":"levelo_inurba_marseille","lat":43.2582,"lon":5.39425,"is_reserved":false,"is_disabled":false,"rental_uris":{"android":"levelo://app?vid=56e7cf53-9329-4857-afd0-bf9c5007df45","ios":"levelo://app?vid=56e7cf53-9329-4857-afd0-bf9c5007df45"},"vehicle_type_id":"4","last_reported":1730258189,"current_range_meters":38800,"station_id":"ce4bhip2rcd13ifvqft0","pricing_plan_id":"cebpf4jnsgd1na2vs0mg"},{"bike_id":"539f9a48-f3c4-4b3d-b50a-f20cbac5b70d","system_id":"levelo_inurba_marseille","lat":43.32105,"lon":5.36777,"is_reserved":false,"is_disabled":false,"rental_uris":{"android":"levelo://app?vid=539f9a48-f3c4-4b3d-b50a-f20cbac5b70d","ios":"levelo://app?vid=539f9a48-f3c4-4b3d-b50a-f20cbac5b70d"},"vehicle_type_id":"4","last_reported":1730258189,"current_range_meters":30800,"station_id":"ce4bhrh2rcd13ifvqhug","pricing_plan_id":"cebpf4jnsgd1na2vs0mg"},{"bike_id":"679dca57-da96-4bee-8ea5-7e5fca4614c3","system_id":"levelo_inurba_marseille","lat":43.28108,"lon":5.37853,"is_reserved":false,"is_disabled":false,"rental_uris":{"android":"levelo://app?vid=679dca57-da96-4bee-8ea5-7e5fca4614c3","ios":"levelo://app?vid=679dca57-da96-4bee-8ea5-7e5fca4614c3"},"vehicle_type_id":"4","last_reported":1730258189,"current_range_meters":14000,"station_id":"ce4bha12rcd13ifvqee0","pricing_plan_id":"cebpf4jnsgd1na2vs0mg"},{"bike_id":"ab4cc59a-4920-4d7d-94ba-8acedb63f9c5","system_id":"levelo_inurba_marseille","lat":43.27055,"lon":5.40257,"is_reserved":false,"is_disabled":false,"rental_uris":{"android":"levelo://app?vid=ab4cc59a-4920-4d7d-94ba-8acedb63f9c5","ios":"levelo://app?vid=ab4cc59a-4920-4d7d-94ba-8acedb63f9c5"},"vehicle_type_id":"4","last_reported":1730258189,"current_range_meters":38800,"station_id":"ce4bhk92rcd13ifvqgc0","pricing_plan_id":"cebpf4jnsgd1na2vs0mg"},{"bike_id":"bf105057-4c6c-4f15-966a-e6bd9ab64fa1","system_id":"levelo_inurba_marseille","lat":43.28411,"lon":5.37518,"is_reserved":false,"is_disabled":false,"rental_uris":{"android":"levelo://app?vid=bf105057-4c6c-4f15-966a-e6bd9ab64fa1","ios":"levelo://app?vid=bf105057-4c6c-4f15-966a-e6bd9ab64fa1"},"vehicle_type_id":"4","last_reported":1730258189,"current_range_meters":38800,"station_id":"ce4bh412rcd13ifvqds0","pricing_plan_id":"cebpf4jnsgd1na2vs0mg"},{"bike_id":"25e90825-819c-494a-9a04-12bbb0c56b6b","system_id":"levelo_inurba_marseille","lat":43.31541,"lon":5.38028,"is_reserved":false,"is_disabled":false,"rental_uris":{"android":"levelo://app?vid=25e90825-819c-494a-9a04-12bbb0c56b6b","ios":"levelo://app?vid=25e90825-819c-494a-9a04-12bbb0c56b6b"},"vehicle_type_id":"4","last_reported":1730258189,"current_range_meters":30400,"station_id":"ce4bhsp2rcd13ifvqi50","pricing_plan_id":"cebpf4jnsgd1na2vs0mg"},{"bike_id":"2dc2e7aa-c9cc-457e-aadf-e56119f0ec59","system_id":"levelo_inurba_marseille","lat":43.23197,"lon":5.35545,"is_reserved":false,"is_disabled":false,"rental_uris":{"android":"levelo://app?vid=2dc2e7aa-c9cc-457e-aadf-e56119f0ec59","ios":"levelo://app?vid=2dc2e7aa-c9cc-457e-aadf-e56119f0ec59"},"vehicle_type_id":"4","last_reported":1730258189,"current_range_meters":28000,"station_id":"ce4bhu92rcd13ifvqi70","pricing_plan_id":"cebpf4jnsgd1na2vs0mg"},{"bike_id":"2b575ed5-87bd-4034-925a-491ff39f79c1","system_id":"levelo_inurba_marseille","lat":43.26054,"lon":5.3939,"is_reserved":false,"is_disabled":false,"rental_uris":{"android":"levelo://app?vid=2b575ed5-87bd-4034-925a-491ff39f79c1","ios":"levelo://app?vid=2b575ed5-87bd-4034-925a-491ff39f79c1"},"vehicle_type_id":"4","last_reported":1730258189,"current_range_meters":17200,"station_id":"ce4bhh92rcd13ifvqfj0","pricing_plan_id":"cebpf4jnsgd1na2vs0mg"},{"bike_id":"c4f705f9-cb6e-4d01-b200-9f8930e5dd6b","system_id":"levelo_inurba_marseille","lat":43.24176,"lon":5.39734,"is_reserved":false,"is_disabled":false,"rental_uris":{"android":"levelo://app?vid=c4f705f9-cb6e-4d01-b200-9f8930e5dd6b","ios":"levelo://app?vid=c4f705f9-cb6e-4d01-b200-9f8930e5dd6b"},"vehicle_type_id":"4","last_reported":1730258189,"current_range_meters":38800,"station_id":"ce4bhn12rcd13ifvqgpg","pricing_plan_id":"cebpf4jnsgd1na2vs0mg"},{"bike_id":"32724ce4-79b3-4766-bd7f-1b32301ca45e","system_id":"levelo_inurba_marseille","lat":43.25577,"lon":5.3824,"is_reserved":false,"is_disabled":false,"rental_uris":{"android":"levelo://app?vid=32724ce4-79b3-4766-bd7f-1b32301ca45e","ios":"levelo://app?vid=32724ce4-79b3-4766-bd7f-1b32301ca45e"},"vehicle_type_id":"4","last_reported":1730258189,"current_range_meters":17600,"station_id":"ce4bhih2rcd13ifvqfs0","pricing_plan_id":"cebpf4jnsgd1na2vs0mg"},{"bike_id":"28cbcf23-5ad0-4746-be8b-7a028cbebf33","system_id":"levelo_inurba_marseille","lat":43.32645,"lon":5.38868,"is_reserved":false,"is_disabled":false,"rental_uris":{"android":"levelo://app?vid=28cbcf23-5ad0-4746-be8b-7a028cbebf33","ios":"levelo://app?vid=28cbcf23-5ad0-4746-be8b-7a028cbebf33"},"vehicle_type_id":"4","last_reported":1730258189,"current_range_meters":34000,"station_id":"","pricing_plan_id":"cebpf4jnsgd1na2vs0mg"},{"bike_id":"05ff2f50-a7f4-433e-8942-cf2114158062","system_id":"levelo_inurba_marseille","lat":43.26052,"lon":5.3939,"is_reserved":false,"is_disabled":false,"rental_uris":{"android":"levelo://app?vid=05ff2f50-a7f4-433e-8942-cf2114158062","ios":"levelo://app?vid=05ff2f50-a7f4-433e-8942-cf2114158062"},"vehicle_type_id":"4","last_reported":1730258189,"current_range_meters":3600,"station_id":"ce4bhh92rcd13ifvqfj0","pricing_plan_id":"cebpf4jnsgd1na2vs0mg"},{"bike_id":"249f4139-b1bb-4fc2-87b9-dd8c4909e5b1","system_id":"levelo_inurba_marseille","lat":43.29551,"lon":5.42287,"is_reserved":false,"is_disabled":false,"rental_uris":{"android":"levelo://app?vid=249f4139-b1bb-4fc2-87b9-dd8c4909e5b1","ios":"levelo://app?vid=249f4139-b1bb-4fc2-87b9-dd8c4909e5b1"},"vehicle_type_id":"4","last_reported":1730258189,"current_range_meters":24400,"station_id":"ce4bhph2rcd13ifvqhdg","pricing_plan_id":"cebpf4jnsgd1na2vs0mg"},{"bike_id":"9b5a7495-8b2f-4450-9bd0-f88132486d91","system_id":"levelo_inurba_marseille","lat":43.3237,"lon":5.38881,"is_reserved":false,"is_disabled":false,"rental_uris":{"android":"levelo://app?vid=9b5a7495-8b2f-4450-9bd0-f88132486d91","ios":"levelo://app?vid=9b5a7495-8b2f-4450-9bd0-f88132486d91"},"vehicle_type_id":"4","last_reported":1730258189,"current_range_meters":17600,"station_id":"ce4bhqp2rcd13ifvqhog","pricing_plan_id":"cebpf4jnsgd1na2vs0mg"},{"bike_id":"fcf01922-ae24-4e8c-b921-c2f884517c99","system_id":"levelo_inurba_marseille","lat":43.29539,"lon":5.38539,"is_reserved":false,"is_disabled":false,"rental_uris":{"android":"levelo://app?vid=fcf01922-ae24-4e8c-b921-c2f884517c99","ios":"levelo://app?vid=fcf01922-ae24-4e8c-b921-c2f884517c99"},"vehicle_type_id":"4","last_reported":1730258189,"current_range_meters":38400,"station_id":"ce4bgih2rcd13ifvqba0","pricing_plan_id":"cebpf4jnsgd1na2vs0mg"},{"bike_id":"e9d5f856-d46f-47de-8318-6124ee5e67ab","system_id":"levelo_inurba_marseille","lat":43.308,"lon":5.38152,"is_reserved":false,"is_disabled":false,"rental_uris":{"android":"levelo://app?vid=e9d5f856-d46f-47de-8318-6124ee5e67ab","ios":"levelo://app?vid=e9d5f856-d46f-47de-8318-6124ee5e67ab"},"vehicle_type_id":"4","last_reported":1730258189,"current_range_meters":8400,"station_id":"ce4bgt12rcd13ifvqce0","pricing_plan_id":"cebpf4jnsgd1na2vs0mg"},{"bike_id":"a6f58eb3-48b5-407c-af5b-cace4621f776","system_id":"levelo_inurba_marseille","lat":43.287,"lon":5.39983,"is_reserved":false,"is_disabled":false,"rental_uris":{"android":"levelo://app?vid=a6f58eb3-48b5-407c-af5b-cace4621f776","ios":"levelo://app?vid=a6f58eb3-48b5-407c-af5b-cace4621f776"},"vehicle_type_id":"4","last_reported":1730258189,"current_range_meters":33600,"station_id":"ce4bho92rcd13ifvqh3g","pricing_plan_id":"cebpf4jnsgd1na2vs0mg"},{"bike_id":"2d198377-2c19-4e5f-b7b9-5acc4795c543","system_id":"levelo_inurba_marseille","lat":43.317586,"lon":5.390139,"is_reserved":false,"is_disabled":false,"rental_uris":{"android":"levelo://app?vid=2d198377-2c19-4e5f-b7b9-5acc4795c543","ios":"levelo://app?vid=2d198377-2c19-4e5f-b7b9-5acc4795c543"},"vehicle_type_id":"4","last_reported":1730258189,"current_range_meters":10800,"station_id":"ce4bhqp2rcd13ifvqhng","pricing_plan_id":"cebpf4jnsgd1na2vs0mg"},{"bike_id":"5f57c236-4450-4af6-9623-7f88df8ab60b","system_id":"levelo_inurba_marseille","lat":43.29029,"lon":5.38645,"is_reserved":false,"is_disabled":false,"rental_uris":{"android":"levelo://app?vid=5f57c236-4450-4af6-9623-7f88df8ab60b","ios":"levelo://app?vid=5f57c236-4450-4af6-9623-7f88df8ab60b"},"vehicle_type_id":"4","last_reported":1730258189,"current_range_meters":38800,"station_id":"ce4bh4p2rcd13ifvqe0g","pricing_plan_id":"cebpf4jnsgd1na2vs0mg"},{"bike_id":"06feb2c7-7cfa-469f-bd05-d6e583079a44","system_id":"levelo_inurba_marseille","lat":43.30598,"lon":5.3935,"is_reserved":false,"is_disabled":false,"rental_uris":{"android":"levelo://app?vid=06feb2c7-7cfa-469f-bd05-d6e583079a44","ios":"levelo://app?vid=06feb2c7-7cfa-469f-bd05-d6e583079a44"},"vehicle_type_id":"4","last_reported":1730258189,"current_range_meters":39200,"station_id":"ce4bh0p2rcd13ifvqd80","pricing_plan_id":"cebpf4jnsgd1na2vs0mg"},{"bike_id":"5da84c8a-0785-4f55-b177-f17040c2e314","system_id":"levelo_inurba_marseille","lat":43.318903,"lon":5.407274,"is_reserved":false,"is_disabled":false,"rental_uris":{"android":"levelo://app?vid=5da84c8a-0785-4f55-b177-f17040c2e314","ios":"levelo://app?vid=5da84c8a-0785-4f55-b177-f17040c2e314"},"vehicle_type_id":"4","last_reported":1730258189,"current_range_meters":9600,"station_id":"ce4bhq12rcd13ifvqhig","pricing_plan_id":"cebpf4jnsgd1na2vs0mg"},{"bike_id":"9445a670-8cad-4552-a342-d1a968da3c5a","system_id":"levelo_inurba_marseille","lat":43.320485,"lon":5.415473,"is_reserved":false,"is_disabled":false,"rental_uris":{"android":"levelo://app?vid=9445a670-8cad-4552-a342-d1a968da3c5a","ios":"levelo://app?vid=9445a670-8cad-4552-a342-d1a968da3c5a"},"vehicle_type_id":"4","last_reported":1730258189,"current_range_meters":38800,"station_id":"ce4bhq92rcd13ifvqhkg","pricing_plan_id":"cebpf4jnsgd1na2vs0mg"},{"bike_id":"d2c17046-9896-432f-9e17-bbc2b6ac2460","system_id":"levelo_inurba_marseille","lat":43.29218,"lon":5.36056,"is_reserved":false,"is_disabled":false,"rental_uris":{"android":"levelo://app?vid=d2c17046-9896-432f-9e17-bbc2b6ac2460","ios":"levelo://app?vid=d2c17046-9896-432f-9e17-bbc2b6ac2460"},"vehicle_type_id":"4","last_reported":1730258189,"current_range_meters":38000,"station_id":"ce4bhbh2rcd13ifvqeqg","pricing_plan_id":"cebpf4jnsgd1na2vs0mg"},{"bike_id":"fc857e95-ca7f-4c06-b13e-5bb6b2b76a8b","system_id":"levelo_inurba_marseille","lat":43.23183,"lon":5.39979,"is_reserved":false,"is_disabled":false,"rental_uris":{"android":"levelo://app?vid=fc857e95-ca7f-4c06-b13e-5bb6b2b76a8b","ios":"levelo://app?vid=fc857e95-ca7f-4c06-b13e-5bb6b2b76a8b"},"vehicle_type_id":"4","last_reported":1730258189,"current_range_meters":37600,"station_id":"ce4bhn12rcd13ifvqgqg","pricing_plan_id":"cebpf4jnsgd1na2vs0mg"},{"bike_id":"a1f83bf3-eed6-45ed-a98a-d29a1a4fe512","system_id":"levelo_inurba_marseille","lat":43.29921,"lon":5.41306,"is_reserved":false,"is_disabled":false,"rental_uris":{"android":"levelo://app?vid=a1f83bf3-eed6-45ed-a98a-d29a1a4fe512","ios":"levelo://app?vid=a1f83bf3-eed6-45ed-a98a-d29a1a4fe512"},"vehicle_type_id":"4","last_reported":1730258189,"current_range_meters":24800,"station_id":"ce4bhp12rcd13ifvqh9g","pricing_plan_id":"cebpf4jnsgd1na2vs0mg"},{"bike_id":"ebe1b15f-d5cf-4371-8ee4-633d2c7581ad","system_id":"levelo_inurba_marseille","lat":43.2963,"lon":5.40599,"is_reserved":false,"is_disabled":false,"rental_uris":{"android":"levelo://app?vid=ebe1b15f-d5cf-4371-8ee4-633d2c7581ad","ios":"levelo://app?vid=ebe1b15f-d5cf-4371-8ee4-633d2c7581ad"},"vehicle_type_id":"4","last_reported":1730258189,"current_range_meters":38800,"station_id":"ce4bh0h2rcd13ifvqd60","pricing_plan_id":"cebpf4jnsgd1na2vs0mg"},{"bike_id":"9678c87f-0fe5-42fe-8091-e9f73268dc70","system_id":"levelo_inurba_marseille","lat":43.28446,"lon":5.35885,"is_reserved":false,"is_disabled":false,"rental_uris":{"android":"levelo://app?vid=9678c87f-0fe5-42fe-8091-e9f73268dc70","ios":"levelo://app?vid=9678c87f-0fe5-42fe-8091-e9f73268dc70"},"vehicle_type_id":"4","last_reported":1730258189,"current_range_meters":38800,"station_id":"ce4bhah2rcd13ifvqei0","pricing_plan_id":"cebpf4jnsgd1na2vs0mg"},{"bike_id":"4aea2264-7c38-4c9d-b643-fddc90b2caa0","system_id":"levelo_inurba_marseille","lat":43.27496,"lon":5.424455,"is_reserved":false,"is_disabled":false,"rental_uris":{"android":"levelo://app?vid=4aea2264-7c38-4c9d-b643-fddc90b2caa0","ios":"levelo://app?vid=4aea2264-7c38-4c9d-b643-fddc90b2caa0"},"vehicle_type_id":"4","last_reported":1730258189,"current_range_meters":38800,"station_id":"ce4bhn92rcd13ifvqgrg","pricing_plan_id":"cebpf4jnsgd1na2vs0mg"},{"bike_id":"84ab4192-78ed-432b-9976-1559aadfc733","system_id":"levelo_inurba_marseille","lat":43.28106,"lon":5.37848,"is_reserved":false,"is_disabled":false,"rental_uris":{"android":"levelo://app?vid=84ab4192-78ed-432b-9976-1559aadfc733","ios":"levelo://app?vid=84ab4192-78ed-432b-9976-1559aadfc733"},"vehicle_type_id":"4","last_reported":1730258189,"current_range_meters":38800,"station_id":"ce4bha12rcd13ifvqee0","pricing_plan_id":"cebpf4jnsgd1na2vs0mg"},{"bike_id":"af9482dc-4228-4a60-80ef-2f31fe5f0b6e","system_id":"levelo_inurba_marseille","lat":43.25114,"lon":5.40321,"is_reserved":false,"is_disabled":false,"rental_uris":{"android":"levelo://app?vid=af9482dc-4228-4a60-80ef-2f31fe5f0b6e","ios":"levelo://app?vid=af9482dc-4228-4a60-80ef-2f31fe5f0b6e"},"vehicle_type_id":"4","last_reported":1730258189,"current_range_meters":4800,"station_id":"ce4bhlh2rcd13ifvqgig","pricing_plan_id":"cebpf4jnsgd1na2vs0mg"},{"bike_id":"31d8acc7-b248-42e9-89fe-8107bf8c6790","system_id":"levelo_inurba_marseille","lat":43.28485,"lon":5.3856,"is_reserved":false,"is_disabled":false,"rental_uris":{"android":"levelo://app?vid=31d8acc7-b248-42e9-89fe-8107bf8c6790","ios":"levelo://app?vid=31d8acc7-b248-42e9-89fe-8107bf8c6790"},"vehicle_type_id":"4","last_reported":1730258189,"current_range_meters":21600,"station_id":"ce4bh8p2rcd13ifvqeb0","pricing_plan_id":"cebpf4jnsgd1na2vs0mg"},{"bike_id":"766801a5-7dbd-464a-bc56-398e14b9cf78","system_id":"levelo_inurba_marseille","lat":43.29805,"lon":5.37136,"is_reserved":false,"is_disabled":false,"rental_uris":{"android":"levelo://app?vid=766801a5-7dbd-464a-bc56-398e14b9cf78","ios":"levelo://app?vid=766801a5-7dbd-464a-bc56-398e14b9cf78"},"vehicle_type_id":"4","last_reported":1730258189,"current_range_meters":8000,"station_id":"","pricing_plan_id":"cebpf4jnsgd1na2vs0mg"},{"bike_id":"afc8a59e-718c-432c-b226-d6be0903e5fb","system_id":"levelo_inurba_marseille","lat":43.24386,"lon":5.37057,"is_reserved":false,"is_disabled":false,"rental_uris":{"android":"levelo://app?vid=afc8a59e-718c-432c-b226-d6be0903e5fb","ios":"levelo://app?vid=afc8a59e-718c-432c-b226-d6be0903e5fb"},"vehicle_type_id":"4","last_reported":1730258189,"current_range_meters":35600,"station_id":"ce4bhhh2rcd13ifvqfk0","pricing_plan_id":"cebpf4jnsgd1na2vs0mg"},{"bike_id":"82b84855-c758-4a47-9f5e-92c4c940506e","system_id":"levelo_inurba_marseille","lat":43.31078,"lon":5.38361,"is_reserved":false,"is_disabled":false,"rental_uris":{"android":"levelo://app?vid=82b84855-c758-4a47-9f5e-92c4c940506e","ios":"levelo://app?vid=82b84855-c758-4a47-9f5e-92c4c940506e"},"vehicle_type_id":"4","last_reported":1730258189,"current_range_meters":29600,"station_id":"ce4bgv92rcd13ifvqcr0","pricing_plan_id":"cebpf4jnsgd1na2vs0mg"},{"bike_id":"6674da34-6a2b-4912-b4e9-d70684dee2d6","system_id":"levelo_inurba_marseille","lat":43.23196,"lon":5.355533,"is_reserved":false,"is_disabled":false,"rental_uris":{"android":"levelo://app?vid=6674da34-6a2b-4912-b4e9-d70684dee2d6","ios":"levelo://app?vid=6674da34-6a2b-4912-b4e9-d70684dee2d6"},"vehicle_type_id":"4","last_reported":1730258189,"current_range_meters":30400,"station_id":"ce4bhu92rcd13ifvqi70","pricing_plan_id":"cebpf4jnsgd1na2vs0mg"},{"bike_id":"02323299-241a-41d8-8fb2-e94fc158cdea","system_id":"levelo_inurba_marseille","lat":43.30256,"lon":5.40089,"is_reserved":false,"is_disabled":false,"rental_uris":{"android":"levelo://app?vid=02323299-241a-41d8-8fb2-e94fc158cdea","ios":"levelo://app?vid=02323299-241a-41d8-8fb2-e94fc158cdea"},"vehicle_type_id":"4","last_reported":1730258189,"current_range_meters":38000,"station_id":"ce4bgvh2rcd13ifvqcs0","pricing_plan_id":"cebpf4jnsgd1na2vs0mg"},{"bike_id":"456cbe5f-5d22-41ce-8d7b-d9113261b82f","system_id":"levelo_inurba_marseille","lat":43.26051,"lon":5.39401,"is_reserved":false,"is_disabled":false,"rental_uris":{"android":"levelo://app?vid=456cbe5f-5d22-41ce-8d7b-d9113261b82f","ios":"levelo://app?vid=456cbe5f-5d22-41ce-8d7b-d9113261b82f"},"vehicle_type_id":"4","last_reported":1730258189,"current_range_meters":38800,"station_id":"ce4bhh92rcd13ifvqfj0","pricing_plan_id":"cebpf4jnsgd1na2vs0mg"},{"bike_id":"b44a1a41-2a48-4e63-b7c8-462ef7e93632","system_id":"levelo_inurba_marseille","lat":43.30933,"lon":5.40146,"is_reserved":false,"is_disabled":false,"rental_uris":{"android":"levelo://app?vid=b44a1a41-2a48-4e63-b7c8-462ef7e93632","ios":"levelo://app?vid=b44a1a41-2a48-4e63-b7c8-462ef7e93632"},"vehicle_type_id":"4","last_reported":1730258189,"current_range_meters":22800,"station_id":"ce4bgvp2rcd13ifvqct0","pricing_plan_id":"cebpf4jnsgd1na2vs0mg"},{"bike_id":"c4c57f20-696d-45af-b1ec-7caa4b949f8d","system_id":"levelo_inurba_marseille","lat":43.26688,"lon":5.38264,"is_reserved":false,"is_disabled":false,"rental_uris":{"android":"levelo://app?vid=c4c57f20-696d-45af-b1ec-7caa4b949f8d","ios":"levelo://app?vid=c4c57f20-696d-45af-b1ec-7caa4b949f8d"},"vehicle_type_id":"4","last_reported":1730258189,"current_range_meters":19200,"station_id":"ce4bhg92rcd13ifvqf90","pricing_plan_id":"cebpf4jnsgd1na2vs0mg"},{"bike_id":"77dc0b08-ea4e-4b2d-b82f-fcf9cdff2fbe","system_id":"levelo_inurba_marseille","lat":43.28661,"lon":5.36352,"is_reserved":false,"is_disabled":false,"rental_uris":{"android":"levelo://app?vid=77dc0b08-ea4e-4b2d-b82f-fcf9cdff2fbe","ios":"levelo://app?vid=77dc0b08-ea4e-4b2d-b82f-fcf9cdff2fbe"},"vehicle_type_id":"4","last_reported":1730258189,"current_range_meters":38800,"station_id":"ce4bhah2rcd13ifvqej0","pricing_plan_id":"cebpf4jnsgd1na2vs0mg"},{"bike_id":"84a34f64-d710-4f7b-8f16-f367a9f930e0","system_id":"levelo_inurba_marseille","lat":43.26064,"lon":5.39392,"is_reserved":false,"is_disabled":false,"rental_uris":{"android":"levelo://app?vid=84a34f64-d710-4f7b-8f16-f367a9f930e0","ios":"levelo://app?vid=84a34f64-d710-4f7b-8f16-f367a9f930e0"},"vehicle_type_id":"4","last_reported":1730258189,"current_range_meters":27600,"station_id":"ce4bhh92rcd13ifvqfj0","pricing_plan_id":"cebpf4jnsgd1na2vs0mg"},{"bike_id":"a1a6c8b4-85d6-4f26-805f-292d516d4f6e","system_id":"levelo_inurba_marseille","lat":43.30421,"lon":5.4129,"is_reserved":false,"is_disabled":false,"rental_uris":{"android":"levelo://app?vid=a1a6c8b4-85d6-4f26-805f-292d516d4f6e","ios":"levelo://app?vid=a1a6c8b4-85d6-4f26-805f-292d516d4f6e"},"vehicle_type_id":"4","last_reported":1730258189,"current_range_meters":38400,"station_id":"ce4bhop2rcd13ifvqh8g","pricing_plan_id":"cebpf4jnsgd1na2vs0mg"},{"bike_id":"024704a1-567b-4efd-bc67-bfa0e51b761f","system_id":"levelo_inurba_marseille","lat":43.29023,"lon":5.38135,"is_reserved":false,"is_disabled":false,"rental_uris":{"android":"levelo://app?vid=024704a1-567b-4efd-bc67-bfa0e51b761f","ios":"levelo://app?vid=024704a1-567b-4efd-bc67-bfa0e51b761f"},"vehicle_type_id":"4","last_reported":1730258189,"current_range_meters":16400,"station_id":"ce4bh4p2rcd13ifvqe1g","pricing_plan_id":"cebpf4jnsgd1na2vs0mg"},{"bike_id":"d6e7be28-f5b8-4d36-af4f-c3475ff7ed29","system_id":"levelo_inurba_marseille","lat":43.27814,"lon":5.40715,"is_reserved":false,"is_disabled":false,"rental_uris":{"android":"levelo://app?vid=d6e7be28-f5b8-4d36-af4f-c3475ff7ed29","ios":"levelo://app?vid=d6e7be28-f5b8-4d36-af4f-c3475ff7ed29"},"vehicle_type_id":"4","last_reported":1730258189,"current_range_meters":38800,"station_id":"ce4bhnh2rcd13ifvqgtg","pricing_plan_id":"cebpf4jnsgd1na2vs0mg"},{"bike_id":"cf1bf93e-b987-4f03-9549-b984bb838aa3","system_id":"levelo_inurba_marseille","lat":43.267794,"lon":5.394199,"is_reserved":false,"is_disabled":false,"rental_uris":{"android":"levelo://app?vid=cf1bf93e-b987-4f03-9549-b984bb838aa3","ios":"levelo://app?vid=cf1bf93e-b987-4f03-9549-b984bb838aa3"},"vehicle_type_id":"4","last_reported":1730258189,"current_range_meters":38800,"station_id":"ce4bhh12rcd13ifvqfg0","pricing_plan_id":"cebpf4jnsgd1na2vs0mg"},{"bike_id":"b76a38e9-45ec-4afc-b514-c5026792aa86","system_id":"levelo_inurba_marseille","lat":43.24077,"lon":5.37753,"is_reserved":false,"is_disabled":false,"rental_uris":{"android":"levelo://app?vid=b76a38e9-45ec-4afc-b514-c5026792aa86","ios":"levelo://app?vid=b76a38e9-45ec-4afc-b514-c5026792aa86"},"vehicle_type_id":"4","last_reported":1730258189,"current_range_meters":34800,"station_id":"ce4bhnp2rcd13ifvqgvg","pricing_plan_id":"cebpf4jnsgd1na2vs0mg"},{"bike_id":"9347617c-923c-4626-8d4c-ed2ece29b864","system_id":"levelo_inurba_marseille","lat":43.28152,"lon":5.42646,"is_reserved":false,"is_disabled":false,"rental_uris":{"android":"levelo://app?vid=9347617c-923c-4626-8d4c-ed2ece29b864","ios":"levelo://app?vid=9347617c-923c-4626-8d4c-ed2ece29b864"},"vehicle_type_id":"4","last_reported":1730258189,"current_range_meters":32800,"station_id":"ce4bhnh2rcd13ifvqgug","pricing_plan_id":"cebpf4jnsgd1na2vs0mg"},{"bike_id":"e1b5f1ad-a4dd-4981-bcdb-fa984ea6644b","system_id":"levelo_inurba_marseille","lat":43.28354,"lon":5.38091,"is_reserved":false,"is_disabled":false,"rental_uris":{"android":"levelo://app?vid=e1b5f1ad-a4dd-4981-bcdb-fa984ea6644b","ios":"levelo://app?vid=e1b5f1ad-a4dd-4981-bcdb-fa984ea6644b"},"vehicle_type_id":"4","last_reported":1730258189,"current_range_meters":21600,"station_id":"ce4bh412rcd13ifvqdr0","pricing_plan_id":"cebpf4jnsgd1na2vs0mg"},{"bike_id":"302c2992-9ae4-4d64-9a46-0be4fd8c2cee","system_id":"levelo_inurba_marseille","lat":43.30096,"lon":5.39087,"is_reserved":false,"is_disabled":false,"rental_uris":{"android":"levelo://app?vid=302c2992-9ae4-4d64-9a46-0be4fd8c2cee","ios":"levelo://app?vid=302c2992-9ae4-4d64-9a46-0be4fd8c2cee"},"vehicle_type_id":"4","last_reported":1730258189,"current_range_meters":36400,"station_id":"ce4bh192rcd13ifvqdb0","pricing_plan_id":"cebpf4jnsgd1na2vs0mg"},{"bike_id":"75645640-a347-4705-966c-cee9dcce09c4","system_id":"levelo_inurba_marseille","lat":43.26113,"lon":5.40091,"is_reserved":false,"is_disabled":false,"rental_uris":{"android":"levelo://app?vid=75645640-a347-4705-966c-cee9dcce09c4","ios":"levelo://app?vid=75645640-a347-4705-966c-cee9dcce09c4"},"vehicle_type_id":"4","last_reported":1730258189,"current_range_meters":8400,"station_id":"","pricing_plan_id":"cebpf4jnsgd1na2vs0mg"},{"bike_id":"ed4542ec-a766-43c5-bc78-9617bcbbe71c","system_id":"levelo_inurba_marseille","lat":43.2587,"lon":5.39899,"is_reserved":false,"is_disabled":false,"rental_uris":{"android":"levelo://app?vid=ed4542ec-a766-43c5-bc78-9617bcbbe71c","ios":"levelo://app?vid=ed4542ec-a766-43c5-bc78-9617bcbbe71c"},"vehicle_type_id":"4","last_reported":1730258189,"current_range_meters":10800,"station_id":"ce4bhl92rcd13ifvqghg","pricing_plan_id":"cebpf4jnsgd1na2vs0mg"},{"bike_id":"5bb03ead-0069-4438-8c83-f188c407f7e0","system_id":"levelo_inurba_marseille","lat":43.30637,"lon":5.40077,"is_reserved":false,"is_disabled":false,"rental_uris":{"android":"levelo://app?vid=5bb03ead-0069-4438-8c83-f188c407f7e0","ios":"levelo://app?vid=5bb03ead-0069-4438-8c83-f188c407f7e0"},"vehicle_type_id":"4","last_reported":1730258189,"current_range_meters":28400,"station_id":"ce4bh112rcd13ifvqda0","pricing_plan_id":"cebpf4jnsgd1na2vs0mg"},{"bike_id":"a72bae2f-a1fa-4b50-9016-f67bea7bd397","system_id":"levelo_inurba_marseille","lat":43.29282,"lon":5.40128,"is_reserved":false,"is_disabled":false,"rental_uris":{"android":"levelo://app?vid=a72bae2f-a1fa-4b50-9016-f67bea7bd397","ios":"levelo://app?vid=a72bae2f-a1fa-4b50-9016-f67bea7bd397"},"vehicle_type_id":"4","last_reported":1730258189,"current_range_meters":27600,"station_id":"ce4bh312rcd13ifvqdk0","pricing_plan_id":"cebpf4jnsgd1na2vs0mg"},{"bike_id":"572b4c7a-2636-416f-973c-22c6ab936199","system_id":"levelo_inurba_marseille","lat":43.291696,"lon":5.371554,"is_reserved":false,"is_disabled":false,"rental_uris":{"android":"levelo://app?vid=572b4c7a-2636-416f-973c-22c6ab936199","ios":"levelo://app?vid=572b4c7a-2636-416f-973c-22c6ab936199"},"vehicle_type_id":"4","last_reported":1730258189,"current_range_meters":37600,"station_id":"ce4bha92rcd13ifvqeh0","pricing_plan_id":"cebpf4jnsgd1na2vs0mg"},{"bike_id":"e1076c3b-90da-4316-a469-492badcea040","system_id":"levelo_inurba_marseille","lat":43.30537,"lon":5.38422,"is_reserved":false,"is_disabled":false,"rental_uris":{"android":"levelo://app?vid=e1076c3b-90da-4316-a469-492badcea040","ios":"levelo://app?vid=e1076c3b-90da-4316-a469-492badcea040"},"vehicle_type_id":"4","last_reported":1730258189,"current_range_meters":37600,"station_id":"ce4bgg92rcd13ifvqb30","pricing_plan_id":"cebpf4jnsgd1na2vs0mg"},{"bike_id":"a06aaa3a-469c-4c08-9a71-0d7e5c362262","system_id":"levelo_inurba_marseille","lat":43.33731,"lon":5.39176,"is_reserved":false,"is_disabled":false,"rental_uris":{"android":"levelo://app?vid=a06aaa3a-469c-4c08-9a71-0d7e5c362262","ios":"levelo://app?vid=a06aaa3a-469c-4c08-9a71-0d7e5c362262"},"vehicle_type_id":"4","last_reported":1730258189,"current_range_meters":28800,"station_id":"ce4bhr92rcd13ifvqhsg","pricing_plan_id":"cebpf4jnsgd1na2vs0mg"},{"bike_id":"658773aa-24df-4cd9-bf76-abb236a8b05e","system_id":"levelo_inurba_marseille","lat":43.32333,"lon":5.40618,"is_reserved":false,"is_disabled":false,"rental_uris":{"android":"levelo://app?vid=658773aa-24df-4cd9-bf76-abb236a8b05e","ios":"levelo://app?vid=658773aa-24df-4cd9-bf76-abb236a8b05e"},"vehicle_type_id":"4","last_reported":1730258189,"current_range_meters":22400,"station_id":"ce4bhq92rcd13ifvqhjg","pricing_plan_id":"cebpf4jnsgd1na2vs0mg"},{"bike_id":"9db6af96-1243-48a7-88ae-d2f63cb9cb8a","system_id":"levelo_inurba_marseille","lat":43.32331,"lon":5.40619,"is_reserved":false,"is_disabled":false,"rental_uris":{"android":"levelo://app?vid=9db6af96-1243-48a7-88ae-d2f63cb9cb8a","ios":"levelo://app?vid=9db6af96-1243-48a7-88ae-d2f63cb9cb8a"},"vehicle_type_id":"4","last_reported":1730258189,"current_range_meters":39200,"station_id":"ce4bhq92rcd13ifvqhjg","pricing_plan_id":"cebpf4jnsgd1na2vs0mg"},{"bike_id":"f2da5609-cd20-49d7-b6db-ce1efd974a34","system_id":"levelo_inurba_marseille","lat":43.30579,"lon":5.39353,"is_reserved":false,"is_disabled":false,"rental_uris":{"android":"levelo://app?vid=f2da5609-cd20-49d7-b6db-ce1efd974a34","ios":"levelo://app?vid=f2da5609-cd20-49d7-b6db-ce1efd974a34"},"vehicle_type_id":"4","last_reported":1730258189,"current_range_meters":29600,"station_id":"ce4bh0p2rcd13ifvqd80","pricing_plan_id":"cebpf4jnsgd1na2vs0mg"},{"bike_id":"1af85e26-afed-47d9-abe0-b9bfe9c2a3a0","system_id":"levelo_inurba_marseille","lat":43.32367,"lon":5.3888,"is_reserved":false,"is_disabled":false,"rental_uris":{"android":"levelo://app?vid=1af85e26-afed-47d9-abe0-b9bfe9c2a3a0","ios":"levelo://app?vid=1af85e26-afed-47d9-abe0-b9bfe9c2a3a0"},"vehicle_type_id":"4","last_reported":1730258189,"current_range_meters":38800,"station_id":"ce4bhqp2rcd13ifvqhog","pricing_plan_id":"cebpf4jnsgd1na2vs0mg"},{"bike_id":"692f4667-f76c-430b-b818-4551bb65a622","system_id":"levelo_inurba_marseille","lat":43.3136,"lon":5.38493,"is_reserved":false,"is_disabled":false,"rental_uris":{"android":"levelo://app?vid=692f4667-f76c-430b-b818-4551bb65a622","ios":"levelo://app?vid=692f4667-f76c-430b-b818-4551bb65a622"},"vehicle_type_id":"4","last_reported":1730258189,"current_range_meters":32800,"station_id":"ce4bgt92rcd13ifvqcf0","pricing_plan_id":"cebpf4jnsgd1na2vs0mg"},{"bike_id":"6e097aef-9fa1-4f35-8115-553491fb4a7e","system_id":"levelo_inurba_marseille","lat":43.30247,"lon":5.4008,"is_reserved":false,"is_disabled":false,"rental_uris":{"android":"levelo://app?vid=6e097aef-9fa1-4f35-8115-553491fb4a7e","ios":"levelo://app?vid=6e097aef-9fa1-4f35-8115-553491fb4a7e"},"vehicle_type_id":"4","last_reported":1730258189,"current_range_meters":29600,"station_id":"ce4bgvh2rcd13ifvqcs0","pricing_plan_id":"cebpf4jnsgd1na2vs0mg"},{"bike_id":"d286e519-bda2-4e77-b545-2cdf7f03129a","system_id":"levelo_inurba_marseille","lat":43.31169,"lon":5.38709,"is_reserved":false,"is_disabled":false,"rental_uris":{"android":"levelo://app?vid=d286e519-bda2-4e77-b545-2cdf7f03129a","ios":"levelo://app?vid=d286e519-bda2-4e77-b545-2cdf7f03129a"},"vehicle_type_id":"4","last_reported":1730258189,"current_range_meters":38800,"station_id":"ce4bgv12rcd13ifvqcp0","pricing_plan_id":"cebpf4jnsgd1na2vs0mg"},{"bike_id":"96cd2a77-e3b6-47fc-955f-5080a2bfaf42","system_id":"levelo_inurba_marseille","lat":43.23185,"lon":5.39985,"is_reserved":false,"is_disabled":false,"rental_uris":{"android":"levelo://app?vid=96cd2a77-e3b6-47fc-955f-5080a2bfaf42","ios":"levelo://app?vid=96cd2a77-e3b6-47fc-955f-5080a2bfaf42"},"vehicle_type_id":"4","last_reported":1730258189,"current_range_meters":38800,"station_id":"ce4bhn12rcd13ifvqgqg","pricing_plan_id":"cebpf4jnsgd1na2vs0mg"},{"bike_id":"440a1209-24a9-496b-b976-9e17002d1022","system_id":"levelo_inurba_marseille","lat":43.31365,"lon":5.38499,"is_reserved":false,"is_disabled":false,"rental_uris":{"android":"levelo://app?vid=440a1209-24a9-496b-b976-9e17002d1022","ios":"levelo://app?vid=440a1209-24a9-496b-b976-9e17002d1022"},"vehicle_type_id":"4","last_reported":1730258189,"current_range_meters":37600,"station_id":"ce4bgt92rcd13ifvqcf0","pricing_plan_id":"cebpf4jnsgd1na2vs0mg"},{"bike_id":"13c85d59-c7cb-409d-b7e2-9aa757f7035f","system_id":"levelo_inurba_marseille","lat":43.32655,"lon":5.40991,"is_reserved":false,"is_disabled":false,"rental_uris":{"android":"levelo://app?vid=13c85d59-c7cb-409d-b7e2-9aa757f7035f","ios":"levelo://app?vid=13c85d59-c7cb-409d-b7e2-9aa757f7035f"},"vehicle_type_id":"4","last_reported":1730258189,"current_range_meters":8400,"station_id":"ce4bhpp2rcd13ifvqhgg","pricing_plan_id":"cebpf4jnsgd1na2vs0mg"},{"bike_id":"99d2b6c3-4379-4a9a-933b-2d5a9480f4f1","system_id":"levelo_inurba_marseille","lat":43.31537,"lon":5.38029,"is_reserved":false,"is_disabled":false,"rental_uris":{"android":"levelo://app?vid=99d2b6c3-4379-4a9a-933b-2d5a9480f4f1","ios":"levelo://app?vid=99d2b6c3-4379-4a9a-933b-2d5a9480f4f1"},"vehicle_type_id":"4","last_reported":1730258189,"current_range_meters":38000,"station_id":"ce4bhsp2rcd13ifvqi50","pricing_plan_id":"cebpf4jnsgd1na2vs0mg"},{"bike_id":"b48eacfa-a4c4-4e90-acf3-6e3bbaaa5f6e","system_id":"levelo_inurba_marseille","lat":43.30923,"lon":5.40148,"is_reserved":false,"is_disabled":false,"rental_uris":{"android":"levelo://app?vid=b48eacfa-a4c4-4e90-acf3-6e3bbaaa5f6e","ios":"levelo://app?vid=b48eacfa-a4c4-4e90-acf3-6e3bbaaa5f6e"},"vehicle_type_id":"4","last_reported":1730258189,"current_range_meters":38800,"station_id":"ce4bgvp2rcd13ifvqct0","pricing_plan_id":"cebpf4jnsgd1na2vs0mg"},{"bike_id":"178829a6-3513-4378-82e9-610d5d5943c5","system_id":"levelo_inurba_marseille","lat":43.31272,"lon":5.40175,"is_reserved":false,"is_disabled":false,"rental_uris":{"android":"levelo://app?vid=178829a6-3513-4378-82e9-610d5d5943c5","ios":"levelo://app?vid=178829a6-3513-4378-82e9-610d5d5943c5"},"vehicle_type_id":"4","last_reported":1730258189,"current_range_meters":38800,"station_id":"ce4bh092rcd13ifvqd30","pricing_plan_id":"cebpf4jnsgd1na2vs0mg"},{"bike_id":"5ea475d8-fbf3-460f-872c-01c8b0273f69","system_id":"levelo_inurba_marseille","lat":43.23048,"lon":5.3549,"is_reserved":false,"is_disabled":false,"rental_uris":{"android":"levelo://app?vid=5ea475d8-fbf3-460f-872c-01c8b0273f69","ios":"levelo://app?vid=5ea475d8-fbf3-460f-872c-01c8b0273f69"},"vehicle_type_id":"4","last_reported":1730258189,"current_range_meters":10000,"station_id":"cpo3342slgdg3j2ifvpg","pricing_plan_id":"cebpf4jnsgd1na2vs0mg"},{"bike_id":"2be9bc22-5c5c-4737-9da1-744ca95ac8b4","system_id":"levelo_inurba_marseille","lat":43.32662,"lon":5.40992,"is_reserved":false,"is_disabled":false,"rental_uris":{"android":"levelo://app?vid=2be9bc22-5c5c-4737-9da1-744ca95ac8b4","ios":"levelo://app?vid=2be9bc22-5c5c-4737-9da1-744ca95ac8b4"},"vehicle_type_id":"4","last_reported":1730258189,"current_range_meters":7200,"station_id":"ce4bhpp2rcd13ifvqhgg","pricing_plan_id":"cebpf4jnsgd1na2vs0mg"},{"bike_id":"59c7403a-36af-4ab9-a8fb-4e8f180bdcbe","system_id":"levelo_inurba_marseille","lat":43.24079,"lon":5.37743,"is_reserved":false,"is_disabled":false,"rental_uris":{"android":"levelo://app?vid=59c7403a-36af-4ab9-a8fb-4e8f180bdcbe","ios":"levelo://app?vid=59c7403a-36af-4ab9-a8fb-4e8f180bdcbe"},"vehicle_type_id":"4","last_reported":1730258189,"current_range_meters":8800,"station_id":"ce4bhnp2rcd13ifvqgvg","pricing_plan_id":"cebpf4jnsgd1na2vs0mg"},{"bike_id":"319628af-6ed0-4c6b-85da-8e8cbc64e217","system_id":"levelo_inurba_marseille","lat":43.24388,"lon":5.37058,"is_reserved":false,"is_disabled":false,"rental_uris":{"android":"levelo://app?vid=319628af-6ed0-4c6b-85da-8e8cbc64e217","ios":"levelo://app?vid=319628af-6ed0-4c6b-85da-8e8cbc64e217"},"vehicle_type_id":"4","last_reported":1730258189,"current_range_meters":38000,"station_id":"ce4bhhh2rcd13ifvqfk0","pricing_plan_id":"cebpf4jnsgd1na2vs0mg"},{"bike_id":"bb33e8e5-0d54-4e5a-be3a-fe29f7cbc06d","system_id":"levelo_inurba_marseille","lat":43.27995,"lon":5.40014,"is_reserved":false,"is_disabled":false,"rental_uris":{"android":"levelo://app?vid=bb33e8e5-0d54-4e5a-be3a-fe29f7cbc06d","ios":"levelo://app?vid=bb33e8e5-0d54-4e5a-be3a-fe29f7cbc06d"},"vehicle_type_id":"4","last_reported":1730258189,"current_range_meters":38800,"station_id":"ce4bho92rcd13ifvqh4g","pricing_plan_id":"cebpf4jnsgd1na2vs0mg"},{"bike_id":"5c77d39d-11aa-429c-98b6-75adc29345da","system_id":"levelo_inurba_marseille","lat":43.28418,"lon":5.37512,"is_reserved":false,"is_disabled":false,"rental_uris":{"android":"levelo://app?vid=5c77d39d-11aa-429c-98b6-75adc29345da","ios":"levelo://app?vid=5c77d39d-11aa-429c-98b6-75adc29345da"},"vehicle_type_id":"4","last_reported":1730258189,"current_range_meters":38400,"station_id":"ce4bh412rcd13ifvqds0","pricing_plan_id":"cebpf4jnsgd1na2vs0mg"},{"bike_id":"2a59e468-664b-4487-a13d-372ee2a99421","system_id":"levelo_inurba_marseille","lat":43.30283,"lon":5.37696,"is_reserved":false,"is_disabled":false,"rental_uris":{"android":"levelo://app?vid=2a59e468-664b-4487-a13d-372ee2a99421","ios":"levelo://app?vid=2a59e468-664b-4487-a13d-372ee2a99421"},"vehicle_type_id":"4","last_reported":1730258189,"current_range_meters":38800,"station_id":"ce4bguh2rcd13ifvqcj0","pricing_plan_id":"cebpf4jnsgd1na2vs0mg"},{"bike_id":"5aecf52a-143c-4328-8118-c219e78a16dc","system_id":"levelo_inurba_marseille","lat":43.24801,"lon":5.37451,"is_reserved":false,"is_disabled":false,"rental_uris":{"android":"levelo://app?vid=5aecf52a-143c-4328-8118-c219e78a16dc","ios":"levelo://app?vid=5aecf52a-143c-4328-8118-c219e78a16dc"},"vehicle_type_id":"4","last_reported":1730258189,"current_range_meters":33200,"station_id":"ce4bhgh2rcd13ifvqfb0","pricing_plan_id":"cebpf4jnsgd1na2vs0mg"},{"bike_id":"77f9416c-2752-4d2f-ba7e-9dd2db802b3e","system_id":"levelo_inurba_marseille","lat":43.31267,"lon":5.40175,"is_reserved":false,"is_disabled":false,"rental_uris":{"android":"levelo://app?vid=77f9416c-2752-4d2f-ba7e-9dd2db802b3e","ios":"levelo://app?vid=77f9416c-2752-4d2f-ba7e-9dd2db802b3e"},"vehicle_type_id":"4","last_reported":1730258189,"current_range_meters":36800,"station_id":"ce4bh092rcd13ifvqd30","pricing_plan_id":"cebpf4jnsgd1na2vs0mg"},{"bike_id":"03f650f6-9da9-4967-a3bb-cbff6438c43f","system_id":"levelo_inurba_marseille","lat":43.30324,"lon":5.40437,"is_reserved":false,"is_disabled":false,"rental_uris":{"android":"levelo://app?vid=03f650f6-9da9-4967-a3bb-cbff6438c43f","ios":"levelo://app?vid=03f650f6-9da9-4967-a3bb-cbff6438c43f"},"vehicle_type_id":"4","last_reported":1730258189,"current_range_meters":37600,"station_id":"ce4bh012rcd13ifvqd10","pricing_plan_id":"cebpf4jnsgd1na2vs0mg"},{"bike_id":"b032dfcf-4e26-4322-bd52-698311f945e5","system_id":"levelo_inurba_marseille","lat":43.31176,"lon":5.38708,"is_reserved":false,"is_disabled":false,"rental_uris":{"android":"levelo://app?vid=b032dfcf-4e26-4322-bd52-698311f945e5","ios":"levelo://app?vid=b032dfcf-4e26-4322-bd52-698311f945e5"},"vehicle_type_id":"4","last_reported":1730258189,"current_range_meters":38000,"station_id":"ce4bgv12rcd13ifvqcp0","pricing_plan_id":"cebpf4jnsgd1na2vs0mg"},{"bike_id":"5a0a6089-a30b-4bc3-acd2-1a625f83eeb8","system_id":"levelo_inurba_marseille","lat":43.31894,"lon":5.40729,"is_reserved":false,"is_disabled":false,"rental_uris":{"android":"levelo://app?vid=5a0a6089-a30b-4bc3-acd2-1a625f83eeb8","ios":"levelo://app?vid=5a0a6089-a30b-4bc3-acd2-1a625f83eeb8"},"vehicle_type_id":"4","last_reported":1730258189,"current_range_meters":38800,"station_id":"ce4bhq12rcd13ifvqhig","pricing_plan_id":"cebpf4jnsgd1na2vs0mg"},{"bike_id":"572442fc-4e1c-456d-9c2a-27bcb4264a4b","system_id":"levelo_inurba_marseille","lat":43.31891,"lon":5.40724,"is_reserved":false,"is_disabled":false,"rental_uris":{"android":"levelo://app?vid=572442fc-4e1c-456d-9c2a-27bcb4264a4b","ios":"levelo://app?vid=572442fc-4e1c-456d-9c2a-27bcb4264a4b"},"vehicle_type_id":"4","last_reported":1730258189,"current_range_meters":32800,"station_id":"ce4bhq12rcd13ifvqhig","pricing_plan_id":"cebpf4jnsgd1na2vs0mg"},{"bike_id":"7947d3db-b389-4bc6-a95d-d0e3ee350497","system_id":"levelo_inurba_marseille","lat":43.31756,"lon":5.39021,"is_reserved":false,"is_disabled":false,"rental_uris":{"android":"levelo://app?vid=7947d3db-b389-4bc6-a95d-d0e3ee350497","ios":"levelo://app?vid=7947d3db-b389-4bc6-a95d-d0e3ee350497"},"vehicle_type_id":"4","last_reported":1730258189,"current_range_meters":34000,"station_id":"ce4bhqp2rcd13ifvqhng","pricing_plan_id":"cebpf4jnsgd1na2vs0mg"},{"bike_id":"1da92b57-857e-42df-a772-a688d54f9907","system_id":"levelo_inurba_marseille","lat":43.28659,"lon":5.36348,"is_reserved":false,"is_disabled":false,"rental_uris":{"android":"levelo://app?vid=1da92b57-857e-42df-a772-a688d54f9907","ios":"levelo://app?vid=1da92b57-857e-42df-a772-a688d54f9907"},"vehicle_type_id":"4","last_reported":1730258189,"current_range_meters":38800,"station_id":"ce4bhah2rcd13ifvqej0","pricing_plan_id":"cebpf4jnsgd1na2vs0mg"},