{"last_updated":1702732051,"ttl":30,"version":"2.2","data":{"bikes":[{"bike_id":"68062f04-1d41-40fd-ae9e-9d46d3efc390","system_id":"levelo_inurba_marseille","lat":43.312239,"lon":5.368562,"is_reserved":false,"is_disabled":false,"rental_uris":{"android":"levelo://app?vid=68062f04-1d41-40fd-ae9e-9d46d3efc390","ios":"levelo://app?vid=68062f04-1d41-40fd-ae9e-9d46d3efc390"},"vehicle_type_id":"4","last_reported":1702732051,"current_range_meters":6800,"station_id":"ce4bgl92rcd13ifvqbq0","pricing_plan_id":"free"},{"bike_id":"8561370c-a3c6-4b67-8e2a-61a29176bdf0","system_id":"levelo_inurba_marseille","lat":43.309039,"lon":5.371797,"is_reserved":false,"is_disabled":false,"rental_uris":{"android":"levelo://app?vid=8561370c-a3c6-4b67-8e2a-61a29176bdf0","ios":"levelo://app?vid=8561370c-a3c6-4b67-8e2a-61a29176bdf0"},"vehicle_type_id":"4","last_reported":1702732051,"current_range_meters":25200,"station_id":"ce4bguh2rcd13ifvqckg","pricing_plan_id":"free"},{"bike_id":"579cdc55-849a-44ce-953f-e52eaae88f3c","system_id":"levelo_inurba_marseille","lat":43.309039,"lon":5.371797,"is_reserved":false,"is_disabled":false,"rental_uris":{"android":"levelo://app?vid=579cdc55-849a-44ce-953f-e52eaae88f3c","ios":"levelo://app?vid=579cdc55-849a-44ce-953f-e52eaae88f3c"},"vehicle_type_id":"4","last_reported":1702732051,"current_range_meters":18000,"station_id":"ce4bguh2rcd13ifvqckg","pricing_plan_id":"free"},{"bike_id":"3f8b821f-e430-4a35-bf14-f8b6e777ea11","system_id":"levelo_inurba_marseille","lat":43.313939,"lon":5.375306,"is_reserved":false,"is_disabled":false,"rental_uris":{"android":"levelo://app?vid=3f8b821f-e430-4a35-bf14-f8b6e777ea11","ios":"levelo://app?vid=3f8b821f-e430-4a35-bf14-f8b6e777ea11"},"vehicle_type_id":"4","last_reported":1702732051,"current_range_meters":0,"station_id":"","pricing_plan_id":"free"},{"bike_id":"2628431f-da41-45b9-bb5b-b864794506d1","system_id":"levelo_inurba_marseille","lat":43.313557,"lon":5.376613,"is_reserved":false,"is_disabled":false,"rental_uris":{"android":"levelo://app?vid=2628431f-da41-45b9-bb5b-b864794506d1","ios":"levelo://app?vid=2628431f-da41-45b9-bb5b-b864794506d1"},"vehicle_type_id":"4","last_reported":1702732051,"current_range_meters":4000,"station_id":"","pricing_plan_id":"free"},{"bike_id":"53732245-d74f-49bd-94a1-83527ae825fa","system_id":"levelo_inurba_marseille","lat":43.30554,"lon":5.36696,"is_reserved":false,"is_disabled":false,"rental_uris":{"android":"levelo://app?vid=53732245-d74f-49bd-94a1-83527ae825fa","ios":"levelo://app?vid=53732245-d74f-49bd-94a1-83527ae825fa"},"vehicle_type_id":"4","last_reported":1702732051,"current_range_meters":30400,"station_id":"ce4bgrp2rcd13ifvqc9g","pricing_plan_id":"free"},{"bike_id":"5a4a2f62-a158-49b1-a304-4f473f0192cb","system_id":"levelo_inurba_marseille","lat":43.30549,"lon":5.36731,"is_reserved":false,"is_disabled":false,"rental_uris":{"android":"levelo://app?vid=5a4a2f62-a158-49b1-a304-4f473f0192cb","ios":"levelo://app?vid=5a4a2f62-a158-49b1-a304-4f473f0192cb"},"vehicle_type_id":"4","last_reported":1702732051,"current_range_meters":14800,"station_id":"ce4bgrp2rcd13ifvqc9g","pricing_plan_id":"free"},{"bike_id":"c0b71835-e43e-4ee7-974c-1f27538f7973","system_id":"levelo_inurba_marseille","lat":43.30537,"lon":5.367345,"is_reserved":false,"is_disabled":false,"rental_uris":{"android":"levelo://app?vid=c0b71835-e43e-4ee7-974c-1f27538f7973","ios":"levelo://app?vid=c0b71835-e43e-4ee7-974c-1f27538f7973"},"vehicle_type_id":"4","last_reported":1702732051,"current_range_meters":26800,"station_id":"ce4bgrp2rcd13ifvqc9g","pricing_plan_id":"free"},{"bike_id":"50a4efb9-80fb-40ab-8260-57b7d5af76a8","system_id":"levelo_inurba_marseille","lat":43.30537,"lon":5.367345,"is_reserved":false,"is_disabled":false,"rental_uris":{"android":"levelo://app?vid=50a4efb9-80fb-40ab-8260-57b7d5af76a8","ios":"levelo://app?vid=50a4efb9-80fb-40ab-8260-57b7d5af76a8"},"vehicle_type_id":"4","last_reported":1702732051,"current_range_meters":19600,"station_id":"ce4bgrp2rcd13ifvqc9g","pricing_plan_id":"free"},{"bike_id":"b691f06c-6290-4a51-a013-296daaaaac2e","system_id":"levelo_inurba_marseille","lat":43.305714,"lon":5.365633,"is_reserved":false,"is_disabled":false,"rental_uris":{"android":"levelo://app?vid=b691f06c-6290-4a51-a013-296daaaaac2e","ios":"levelo://app?vid=b691f06c-6290-4a51-a013-296daaaaac2e"},"vehicle_type_id":"4","last_reported":1702732051,"current_range_meters":30000,"station_id":"ce4bgs12rcd13ifvqcag","pricing_plan_id":"free"},{"bike_id":"16512885-95f9-4ca2-94b2-634ed96a002d","system_id":"levelo_inurba_marseille","lat":43.305706,"lon":5.365654,"is_reserved":false,"is_disabled":false,"rental_uris":{"android":"levelo://app?vid=16512885-95f9-4ca2-94b2-634ed96a002d","ios":"levelo://app?vid=16512885-95f9-4ca2-94b2-634ed96a002d"},"vehicle_type_id":"4","last_reported":1702732051,"current_range_meters":23200,"station_id":"ce4bgs12rcd13ifvqcag","pricing_plan_id":"free"},{"bike_id":"0b31403c-0573-4a9d-9a27-c964e4c5370b","system_id":"levelo_inurba_marseille","lat":43.305368,"lon":5.367343,"is_reserved":false,"is_disabled":false,"rental_uris":{"android":"levelo://app?vid=0b31403c-0573-4a9d-9a27-c964e4c5370b","ios":"levelo://app?vid=0b31403c-0573-4a9d-9a27-c964e4c5370b"},"vehicle_type_id":"4","last_reported":1702732051,"current_range_meters":10400,"station_id":"ce4bgrp2rcd13ifvqc9g","pricing_plan_id":"free"},{"bike_id":"c0760b65-1da0-4f2c-8e25-713fe7b82a11","system_id":"levelo_inurba_marseille","lat":43.305706,"lon":5.365654,"is_reserved":false,"is_disabled":false,"rental_uris":{"android":"levelo://app?vid=c0760b65-1da0-4f2c-8e25-713fe7b82a11","ios":"levelo://app?vid=c0760b65-1da0-4f2c-8e25-713fe7b82a11"},"vehicle_type_id":"4","last_reported":1702732051,"current_range_meters":6800,"station_id":"ce4bgs12rcd13ifvqcag","pricing_plan_id":"free"},{"bike_id":"955e4ab2-16e5-44e8-a986-a2f50ff96c06","system_id":"levelo_inurba_marseille","lat":43.305382,"lon":5.365389,"is_reserved":false,"is_disabled":false,"rental_uris":{"android":"levelo://app?vid=955e4ab2-16e5-44e8-a986-a2f50ff96c06","ios":"levelo://app?vid=955e4ab2-16e5-44e8-a986-a2f50ff96c06"},"vehicle_type_id":"4","last_reported":1702732051,"current_range_meters":15600,"station_id":"","pricing_plan_id":"free"},{"bike_id":"09270a83-42a4-40f9-9533-86451b3eff81","system_id":"levelo_inurba_marseille","lat":43.305714,"lon":5.365633,"is_reserved":false,"is_disabled":false,"rental_uris":{"android":"levelo://app?vid=09270a83-42a4-40f9-9533-86451b3eff81","ios":"levelo://app?vid=09270a83-42a4-40f9-9533-86451b3eff81"},"vehicle_type_id":"4","last_reported":1702732051,"current_range_meters":11600,"station_id":"ce4bgs12rcd13ifvqcag","pricing_plan_id":"free"},{"bike_id":"c093d70c-f7c1-4ada-87f7-3ba0947a32cf","system_id":"levelo_inurba_marseille","lat":43.30528,"lon":5.36705,"is_reserved":false,"is_disabled":false,"rental_uris":{"android":"levelo://app?vid=c093d70c-f7c1-4ada-87f7-3ba0947a32cf","ios":"levelo://app?vid=c093d70c-f7c1-4ada-87f7-3ba0947a32cf"},"vehicle_type_id":"4","last_reported":1702732051,"current_range_meters":1600,"station_id":"ce4bgrp2rcd13ifvqc9g","pricing_plan_id":"free"},{"bike_id":"1d3ab29e-c883-4609-ac9e-c813fe54b2f0","system_id":"levelo_inurba_marseille","lat":43.305368,"lon":5.367343,"is_reserved":false,"is_disabled":false,"rental_uris":{"android":"levelo://app?vid=1d3ab29e-c883-4609-ac9e-c813fe54b2f0","ios":"levelo://app?vid=1d3ab29e-c883-4609-ac9e-c813fe54b2f0"},"vehicle_type_id":"4","last_reported":1702732051,"current_range_meters":14000,"station_id":"ce4bgrp2rcd13ifvqc9g","pricing_plan_id":"free"},{"bike_id":"8647c1a7-1b9f-48bd-bdfb-c440e9a5dc55","system_id":"levelo_inurba_marseille","lat":43.305989,"lon":5.37225,"is_reserved":false,"is_disabled":false,"rental_uris":{"android":"levelo://app?vid=8647c1a7-1b9f-48bd-bdfb-c440e9a5dc55","ios":"levelo://app?vid=8647c1a7-1b9f-48bd-bdfb-c440e9a5dc55"},"vehicle_type_id":"4","last_reported":1702732051,"current_range_meters":30800,"station_id":"ce4bgqh2rcd13ifvqc4g","pricing_plan_id":"free"},{"bike_id":"81bcda9f-d31a-414b-9a1c-05a5f5a17735","system_id":"levelo_inurba_marseille","lat":43.307945,"lon":5.376487,"is_reserved":false,"is_disabled":false,"rental_uris":{"android":"levelo://app?vid=81bcda9f-d31a-414b-9a1c-05a5f5a17735","ios":"levelo://app?vid=81bcda9f-d31a-414b-9a1c-05a5f5a17735"},"vehicle_type_id":"4","last_reported":1702732051,"current_range_meters":23200,"station_id":"ce4bgv92rcd13ifvqcq0","pricing_plan_id":"free"},{"bike_id":"8ca06f85-0a67-4f2f-b47b-6329136aa613","system_id":"levelo_inurba_marseille","lat":43.317075,"lon":5.377367,"is_reserved":false,"is_disabled":false,"rental_uris":{"android":"levelo://app?vid=8ca06f85-0a67-4f2f-b47b-6329136aa613","ios":"levelo://app?vid=8ca06f85-0a67-4f2f-b47b-6329136aa613"},"vehicle_type_id":"4","last_reported":1702732051,"current_range_meters":28800,"station_id":"ce4bgth2rcd13ifvqch0","pricing_plan_id":"free"},{"bike_id":"e293772c-3556-40af-8333-a68eb5adff7d","system_id":"levelo_inurba_marseille","lat":43.317075,"lon":5.377367,"is_reserved":false,"is_disabled":false,"rental_uris":{"android":"levelo://app?vid=e293772c-3556-40af-8333-a68eb5adff7d","ios":"levelo://app?vid=e293772c-3556-40af-8333-a68eb5adff7d"},"vehicle_type_id":"4","last_reported":1702732051,"current_range_meters":23600,"station_id":"ce4bgth2rcd13ifvqch0","pricing_plan_id":"free"},{"bike_id":"cb32d9d7-bf61-43a8-842d-114dcec8cfc1","system_id":"levelo_inurba_marseille","lat":43.301939,"lon":5.366286,"is_reserved":false,"is_disabled":false,"rental_uris":{"android":"levelo://app?vid=cb32d9d7-bf61-43a8-842d-114dcec8cfc1","ios":"levelo://app?vid=cb32d9d7-bf61-43a8-842d-114dcec8cfc1"},"vehicle_type_id":"4","last_reported":1702732051,"current_range_meters":20800,"station_id":"ce4bgrh2rcd13ifvqc8g","pricing_plan_id":"free"},{"bike_id":"dfe62985-6f65-471f-8bdb-4e96693a7937","system_id":"levelo_inurba_marseille","lat":43.324783,"lon":5.365711,"is_reserved":false,"is_disabled":false,"rental_uris":{"android":"levelo://app?vid=dfe62985-6f65-471f-8bdb-4e96693a7937","ios":"levelo://app?vid=dfe62985-6f65-471f-8bdb-4e96693a7937"},"vehicle_type_id":"4","last_reported":1702732051,"current_range_meters":18400,"station_id":"ce4bhs12rcd13ifvqhvg","pricing_plan_id":"free"},{"bike_id":"f1cde3ff-6cd4-4e86-99bc-06e7a73fc0a0","system_id":"levelo_inurba_marseille","lat":43.324771,"lon":5.36557,"is_reserved":false,"is_disabled":false,"rental_uris":{"android":"levelo://app?vid=f1cde3ff-6cd4-4e86-99bc-06e7a73fc0a0","ios":"levelo://app?vid=f1cde3ff-6cd4-4e86-99bc-06e7a73fc0a0"},"vehicle_type_id":"4","last_reported":1702732051,"current_range_meters":16800,"station_id":"ce4bhs12rcd13ifvqhvg","pricing_plan_id":"free"},{"bike_id":"88f7ea2a-62f7-4a88-9e9d-900940b4d7e5","system_id":"levelo_inurba_marseille","lat":43.324771,"lon":5.36557,"is_reserved":false,"is_disabled":false,"rental_uris":{"android":"levelo://app?vid=88f7ea2a-62f7-4a88-9e9d-900940b4d7e5","ios":"levelo://app?vid=88f7ea2a-62f7-4a88-9e9d-900940b4d7e5"},"vehicle_type_id":"4","last_reported":1702732051,"current_range_meters":16000,"station_id":"ce4bhs12rcd13ifvqhvg","pricing_plan_id":"free"},{"bike_id":"29c431aa-d677-4441-919f-683fe98ae636","system_id":"levelo_inurba_marseille","lat":43.31999,"lon":5.38155,"is_reserved":false,"is_disabled":false,"rental_uris":{"android":"levelo://app?vid=29c431aa-d677-4441-919f-683fe98ae636","ios":"levelo://app?vid=29c431aa-d677-4441-919f-683fe98ae636"},"vehicle_type_id":"4","last_reported":1702732051,"current_range_meters":30000,"station_id":"ce4bhr12rcd13ifvqhpg","pricing_plan_id":"free"},{"bike_id":"e2d97102-879e-409c-a103-f1ccabe83198","system_id":"levelo_inurba_marseille","lat":43.299724,"lon":5.371829,"is_reserved":false,"is_disabled":false,"rental_uris":{"android":"levelo://app?vid=e2d97102-879e-409c-a103-f1ccabe83198","ios":"levelo://app?vid=e2d97102-879e-409c-a103-f1ccabe83198"},"vehicle_type_id":"4","last_reported":1702732051,"current_range_meters":28000,"station_id":"ce4bgr92rcd13ifvqc7g","pricing_plan_id":"free"},{"bike_id":"4a378054-102b-4c78-b5b9-e8cc165e630e","system_id":"levelo_inurba_marseille","lat":43.299724,"lon":5.371829,"is_reserved":false,"is_disabled":false,"rental_uris":{"android":"levelo://app?vid=4a378054-102b-4c78-b5b9-e8cc165e630e","ios":"levelo://app?vid=4a378054-102b-4c78-b5b9-e8cc165e630e"},"vehicle_type_id":"4","last_reported":1702732051,"current_range_meters":21200,"station_id":"ce4bgr92rcd13ifvqc7g","pricing_plan_id":"free"},{"bike_id":"468e9f51-a7e3-494b-94f6-1feeb2b36f2f","system_id":"levelo_inurba_marseille","lat":43.298433,"lon":5.362774,"is_reserved":false,"is_disabled":false,"rental_uris":{"android":"levelo://app?vid=468e9f51-a7e3-494b-94f6-1feeb2b36f2f","ios":"levelo://app?vid=468e9f51-a7e3-494b-94f6-1feeb2b36f2f"},"vehicle_type_id":"4","last_reported":1702732051,"current_range_meters":3200,"station_id":"ce4bgpp2rcd13ifvqc3g","pricing_plan_id":"free"},{"bike_id":"c4e77394-aef9-4077-b745-e99148625344","system_id":"levelo_inurba_marseille","lat":43.32733,"lon":5.36707,"is_reserved":false,"is_disabled":false,"rental_uris":{"android":"levelo://app?vid=c4e77394-aef9-4077-b745-e99148625344","ios":"levelo://app?vid=c4e77394-aef9-4077-b745-e99148625344"},"vehicle_type_id":"4","last_reported":1702732051,"current_range_meters":22800,"station_id":"","pricing_plan_id":"free"},{"bike_id":"17d88f23-5055-47e3-b846-fe0ea59d1de9","system_id":"levelo_inurba_marseille","lat":43.29927,"lon":5.37478,"is_reserved":false,"is_disabled":false,"rental_uris":{"android":"levelo://app?vid=17d88f23-5055-47e3-b846-fe0ea59d1de9","ios":"levelo://app?vid=17d88f23-5055-47e3-b846-fe0ea59d1de9"},"vehicle_type_id":"4","last_reported":1702732051,"current_range_meters":28000,"station_id":"ce4bgjh2rcd13ifvqbg0","pricing_plan_id":"free"},{"bike_id":"62e88e63-c3e7-4bd5-8491-ef142750212c","system_id":"levelo_inurba_marseille","lat":43.305364,"lon":5.384119,"is_reserved":false,"is_disabled":false,"rental_uris":{"android":"levelo://app?vid=62e88e63-c3e7-4bd5-8491-ef142750212c","ios":"levelo://app?vid=62e88e63-c3e7-4bd5-8491-ef142750212c"},"vehicle_type_id":"4","last_reported":1702732051,"current_range_meters":1600,"station_id":"ce4bgg92rcd13ifvqb30","pricing_plan_id":"free"},{"bike_id":"819cb438-2e9c-4e0b-902b-5e19ef554d5c","system_id":"levelo_inurba_marseille","lat":43.30549,"lon":5.384411,"is_reserved":false,"is_disabled":false,"rental_uris":{"android":"levelo://app?vid=819cb438-2e9c-4e0b-902b-5e19ef554d5c","ios":"levelo://app?vid=819cb438-2e9c-4e0b-902b-5e19ef554d5c"},"vehicle_type_id":"4","last_reported":1702732051,"current_range_meters":16800,"station_id":"ce4bgg92rcd13ifvqb30","pricing_plan_id":"free"},{"bike_id":"72e1cc90-d069-46b6-8ec3-33f0122b20fe","system_id":"levelo_inurba_marseille","lat":43.29915,"lon":5.37473,"is_reserved":false,"is_disabled":false,"rental_uris":{"android":"levelo://app?vid=72e1cc90-d069-46b6-8ec3-33f0122b20fe","ios":"levelo://app?vid=72e1cc90-d069-46b6-8ec3-33f0122b20fe"},"vehicle_type_id":"4","last_reported":1702732051,"current_range_meters":15600,"station_id":"ce4bgjh2rcd13ifvqbg0","pricing_plan_id":"free"},{"bike_id":"ca24a042-4e85-42e9-9990-6f52f6ecafc7","system_id":"levelo_inurba_marseille","lat":43.328371,"lon":5.366909,"is_reserved":false,"is_disabled":false,"rental_uris":{"android":"levelo://app?vid=ca24a042-4e85-42e9-9990-6f52f6ecafc7","ios":"levelo://app?vid=ca24a042-4e85-42e9-9990-6f52f6ecafc7"},"vehicle_type_id":"4","last_reported":1702732051,"current_range_meters":20800,"station_id":"ce4bhs92rcd13ifvqi0g","pricing_plan_id":"free"},{"bike_id":"1737724e-cb2c-4de9-82f2-77dd2021971f","system_id":"levelo_inurba_marseille","lat":43.328371,"lon":5.366909,"is_reserved":false,"is_disabled":false,"rental_uris":{"android":"levelo://app?vid=1737724e-cb2c-4de9-82f2-77dd2021971f","ios":"levelo://app?vid=1737724e-cb2c-4de9-82f2-77dd2021971f"},"vehicle_type_id":"4","last_reported":1702732051,"current_range_meters":16800,"station_id":"ce4bhs92rcd13ifvqi0g","pricing_plan_id":"free"},{"bike_id":"10a57283-682b-4610-a2f4-9836f387a132","system_id":"levelo_inurba_marseille","lat":43.3283,"lon":5.3669,"is_reserved":false,"is_disabled":false,"rental_uris":{"android":"levelo://app?vid=10a57283-682b-4610-a2f4-9836f387a132","ios":"levelo://app?vid=10a57283-682b-4610-a2f4-9836f387a132"},"vehicle_type_id":"4","last_reported":1702732051,"current_range_meters":12400,"station_id":"ce4bhs92rcd13ifvqi0g","pricing_plan_id":"free"},{"bike_id":"c8373d57-5459-4d9d-bfa0-a502f99d015f","system_id":"levelo_inurba_marseille","lat":43.296935,"lon":5.376544,"is_reserved":false,"is_disabled":false,"rental_uris":{"android":"levelo://app?vid=c8373d57-5459-4d9d-bfa0-a502f99d015f","ios":"levelo://app?vid=c8373d57-5459-4d9d-bfa0-a502f99d015f"},"vehicle_type_id":"4","last_reported":1702732051,"current_range_meters":30400,"station_id":"ce4bgkh2rcd13ifvqbl0","pricing_plan_id":"free"},{"bike_id":"6d330d94-d828-47f3-b656-bf5f5d3d3178","system_id":"levelo_inurba_marseille","lat":43.296935,"lon":5.376544,"is_reserved":false,"is_disabled":false,"rental_uris":{"android":"levelo://app?vid=6d330d94-d828-47f3-b656-bf5f5d3d3178","ios":"levelo://app?vid=6d330d94-d828-47f3-b656-bf5f5d3d3178"},"vehicle_type_id":"4","last_reported":1702732051,"current_range_meters":26000,"station_id":"ce4bgkh2rcd13ifvqbl0","pricing_plan_id":"free"},{"bike_id":"5599e1ac-c331-4f77-9bbd-15f9153fbad2","system_id":"levelo_inurba_marseille","lat":43.296921,"lon":5.376579,"is_reserved":false,"is_disabled":false,"rental_uris":{"android":"levelo://app?vid=5599e1ac-c331-4f77-9bbd-15f9153fbad2","ios":"levelo://app?vid=5599e1ac-c331-4f77-9bbd-15f9153fbad2"},"vehicle_type_id":"4","last_reported":1702732051,"current_range_meters":30400,"station_id":"ce4bgkh2rcd13ifvqbl0","pricing_plan_id":"free"},{"bike_id":"b0f0a74f-bb4f-4fdf-a15d-464b4e12f201","system_id":"levelo_inurba_marseille","lat":43.299028,"lon":5.381509,"is_reserved":false,"is_disabled":false,"rental_uris":{"android":"levelo://app?vid=b0f0a74f-bb4f-4fdf-a15d-464b4e12f201","ios":"levelo://app?vid=b0f0a74f-bb4f-4fdf-a15d-464b4e12f201"},"vehicle_type_id":"4","last_reported":1702732051,"current_range_meters":26800,"station_id":"ce4bgj12rcd13ifvqbc0","pricing_plan_id":"free"},{"bike_id":"e894b326-7f4e-4839-925c-853e3179ade6","system_id":"levelo_inurba_marseille","lat":43.295748,"lon":5.37522,"is_reserved":false,"is_disabled":false,"rental_uris":{"android":"levelo://app?vid=e894b326-7f4e-4839-925c-853e3179ade6","ios":"levelo://app?vid=e894b326-7f4e-4839-925c-853e3179ade6"},"vehicle_type_id":"4","last_reported":1702732051,"current_range_meters":18000,"station_id":"ce4bgh92rcd13ifvqb50","pricing_plan_id":"free"},{"bike_id":"f75abf37-8136-4496-9d4c-6a18ec6a86cf","system_id":"levelo_inurba_marseille","lat":43.295748,"lon":5.37522,"is_reserved":false,"is_disabled":false,"rental_uris":{"android":"levelo://app?vid=f75abf37-8136-4496-9d4c-6a18ec6a86cf","ios":"levelo://app?vid=f75abf37-8136-4496-9d4c-6a18ec6a86cf"},"vehicle_type_id":"4","last_reported":1702732051,"current_range_meters":30000,"station_id":"ce4bgh92rcd13ifvqb50","pricing_plan_id":"free"},{"bike_id":"c26ca44b-72cb-4e96-ab36-d3508d4478c1","system_id":"levelo_inurba_marseille","lat":43.304278,"lon":5.388868,"is_reserved":false,"is_disabled":false,"rental_uris":{"android":"levelo://app?vid=c26ca44b-72cb-4e96-ab36-d3508d4478c1","ios":"levelo://app?vid=c26ca44b-72cb-4e96-ab36-d3508d4478c1"},"vehicle_type_id":"4","last_reported":1702732051,"current_range_meters":12400,"station_id":"ce4bgk12rcd13ifvqbi0","pricing_plan_id":"free"},{"bike_id":"9e56b7aa-bffe-40b2-b72c-3fdab8ee3311","system_id":"levelo_inurba_marseille","lat":43.304274,"lon":5.388873,"is_reserved":false,"is_disabled":false,"rental_uris":{"android":"levelo://app?vid=9e56b7aa-bffe-40b2-b72c-3fdab8ee3311","ios":"levelo://app?vid=9e56b7aa-bffe-40b2-b72c-3fdab8ee3311"},"vehicle_type_id":"4","last_reported":1702732051,"current_range_meters":13600,"station_id":"ce4bgk12rcd13ifvqbi0","pricing_plan_id":"free"},{"bike_id":"2364594e-2f95-492c-b601-4e65433d4bd2","system_id":"levelo_inurba_marseille","lat":43.292882,"lon":5.368473,"is_reserved":false,"is_disabled":false,"rental_uris":{"android":"levelo://app?vid=2364594e-2f95-492c-b601-4e65433d4bd2","ios":"levelo://app?vid=2364594e-2f95-492c-b601-4e65433d4bd2"},"vehicle_type_id":"4","last_reported":1702732051,"current_range_meters":23600,"station_id":"ce4bhbp2rcd13ifvqesg","pricing_plan_id":"free"},{"bike_id":"e414fe9b-c64c-43fa-8eea-047fee7289a6","system_id":"levelo_inurba_marseille","lat":43.293249,"lon":5.371578,"is_reserved":false,"is_disabled":false,"rental_uris":{"android":"levelo://app?vid=e414fe9b-c64c-43fa-8eea-047fee7289a6","ios":"levelo://app?vid=e414fe9b-c64c-43fa-8eea-047fee7289a6"},"vehicle_type_id":"4","last_reported":1702732051,"current_range_meters":13200,"station_id":"ce4bgh92rcd13ifvqb40","pricing_plan_id":"free"},{"bike_id":"b82b6c20-ed53-42a1-86a5-42020c214227","system_id":"levelo_inurba_marseille","lat":43.292749,"lon":5.368402,"is_reserved":false,"is_disabled":false,"rental_uris":{"android":"levelo://app?vid=b82b6c20-ed53-42a1-86a5-42020c214227","ios":"levelo://app?vid=b82b6c20-ed53-42a1-86a5-42020c214227"},"vehicle_type_id":"4","last_reported":1702732051,"current_range_meters":18800,"station_id":"ce4bhbp2rcd13ifvqesg","pricing_plan_id":"free"},{"bike_id":"bc450877-b631-46d5-a22c-7d5b02fd8dad","system_id":"levelo_inurba_marseille","lat":43.305994,"lon":5.393687,"is_reserved":false,"is_disabled":false,"rental_uris":{"android":"levelo://app?vid=bc450877-b631-46d5-a22c-7d5b02fd8dad","ios":"levelo://app?vid=bc450877-b631-46d5-a22c-7d5b02fd8dad"},"vehicle_type_id":"4","last_reported":1702732051,"current_range_meters":19600,"station_id":"ce4bh0p2rcd13ifvqd80","pricing_plan_id":"free"},{"bike_id":"d3d7fde4-ec14-4051-a88a-4f3be9173df8","system_id":"levelo_inurba_marseille","lat":43.293009,"lon":5.374584,"is_reserved":false,"is_disabled":false,"rental_uris":{"android":"levelo://app?vid=d3d7fde4-ec14-4051-a88a-4f3be9173df8","ios":"levelo://app?vid=d3d7fde4-ec14-4051-a88a-4f3be9173df8"},"vehicle_type_id":"4","last_reported":1702732051,"current_range_meters":17200,"station_id":"ce4bgi12rcd13ifvqb70","pricing_plan_id":"free"},{"bike_id":"a6ff999c-9a0c-42ce-9c93-a42b9ba43563","system_id":"levelo_inurba_marseille","lat":43.2936,"lon":5.37835,"is_reserved":false,"is_disabled":false,"rental_uris":{"android":"levelo://app?vid=a6ff999c-9a0c-42ce-9c93-a42b9ba43563","ios":"levelo://app?vid=a6ff999c-9a0c-42ce-9c93-a42b9ba43563"},"vehicle_type_id":"4","last_reported":1702732051,"current_range_meters":17600,"station_id":"ce4bgjh2rcd13ifvqbf0","pricing_plan_id":"free"},{"bike_id":"578d8c98-7664-4dfb-8548-2ac921ed6d81","system_id":"levelo_inurba_marseille","lat":43.303002,"lon":5.392142,"is_reserved":false,"is_disabled":false,"rental_uris":{"android":"levelo://app?vid=578d8c98-7664-4dfb-8548-2ac921ed6d81","ios":"levelo://app?vid=578d8c98-7664-4dfb-8548-2ac921ed6d81"},"vehicle_type_id":"4","last_reported":1702732051,"current_range_meters":10400,"station_id":"ce4bgkh2rcd13ifvqbk0","pricing_plan_id":"free"},{"bike_id":"d8555fbd-42db-4e51-989e-f407eba855ce","system_id":"levelo_inurba_marseille","lat":43.292311,"lon":5.360731,"is_reserved":false,"is_disabled":false,"rental_uris":{"android":"levelo://app?vid=d8555fbd-42db-4e51-989e-f407eba855ce","ios":"levelo://app?vid=d8555fbd-42db-4e51-989e-f407eba855ce"},"vehicle_type_id":"4","last_reported":1702732051,"current_range_meters":5200,"station_id":"ce4bhbh2rcd13ifvqeqg","pricing_plan_id":"free"},{"bike_id":"25c2bbd1-a631-47fe-b87a-c60aed3938a4","system_id":"levelo_inurba_marseille","lat":43.292311,"lon":5.360731,"is_reserved":false,"is_disabled":false,"rental_uris":{"android":"levelo://app?vid=25c2bbd1-a631-47fe-b87a-c60aed3938a4","ios":"levelo://app?vid=25c2bbd1-a631-47fe-b87a-c60aed3938a4"},"vehicle_type_id":"4","last_reported":1702732051,"current_range_meters":10000,"station_id":"ce4bhbh2rcd13ifvqeqg","pricing_plan_id":"free"},{"bike_id":"66cf6233-861d-45eb-b06d-a66a7c31b117","system_id":"levelo_inurba_marseille","lat":43.292311,"lon":5.360731,"is_reserved":false,"is_disabled":false,"rental_uris":{"android":"levelo://app?vid=66cf6233-861d-45eb-b06d-a66a7c31b117","ios":"levelo://app?vid=66cf6233-861d-45eb-b06d-a66a7c31b117"},"vehicle_type_id":"4","last_reported":1702732051,"current_range_meters":20800,"station_id":"ce4bhbh2rcd13ifvqeqg","pricing_plan_id":"free"},{"bike_id":"e8f14858-0dc5-47d6-a84d-ec371a7ea7eb","system_id":"levelo_inurba_marseille","lat":43.29272,"lon":5.376212,"is_reserved":false,"is_disabled":false,"rental_uris":{"android":"levelo://app?vid=e8f14858-0dc5-47d6-a84d-ec371a7ea7eb","ios":"levelo://app?vid=e8f14858-0dc5-47d6-a84d-ec371a7ea7eb"},"vehicle_type_id":"4","last_reported":1702732051,"current_range_meters":20000,"station_id":"","pricing_plan_id":"free"},{"bike_id":"a9154643-3b9b-4df6-a3ba-e130bd4b1612","system_id":"levelo_inurba_marseille","lat":43.291994,"lon":5.357886,"is_reserved":false,"is_disabled":false,"rental_uris":{"android":"levelo://app?vid=a9154643-3b9b-4df6-a3ba-e130bd4b1612","ios":"levelo://app?vid=a9154643-3b9b-4df6-a3ba-e130bd4b1612"},"vehicle_type_id":"4","last_reported":1702732051,"current_range_meters":14000,"station_id":"ce4bhb12rcd13ifvqel0","pricing_plan_id":"free"},{"bike_id":"0706515a-9efd-46e7-99da-decca85ced8a","system_id":"levelo_inurba_marseille","lat":43.29529,"lon":5.385581,"is_reserved":false,"is_disabled":false,"rental_uris":{"android":"levelo://app?vid=0706515a-9efd-46e7-99da-decca85ced8a","ios":"levelo://app?vid=0706515a-9efd-46e7-99da-decca85ced8a"},"vehicle_type_id":"4","last_reported":1702732051,"current_range_meters":16000,"station_id":"ce4bgih2rcd13ifvqba0","pricing_plan_id":"free"},{"bike_id":"e03a5a51-2356-4fe4-825d-71b7c415f253","system_id":"levelo_inurba_marseille","lat":43.302008,"lon":5.394694,"is_reserved":false,"is_disabled":false,"rental_uris":{"android":"levelo://app?vid=e03a5a51-2356-4fe4-825d-71b7c415f253","ios":"levelo://app?vid=e03a5a51-2356-4fe4-825d-71b7c415f253"},"vehicle_type_id":"4","last_reported":1702732051,"current_range_meters":17600,"station_id":"ce4bh0p2rcd13ifvqd70","pricing_plan_id":"free"},{"bike_id":"541b6b7e-89cd-4e47-b938-5f011d13cd66","system_id":"levelo_inurba_marseille","lat":43.302008,"lon":5.394694,"is_reserved":false,"is_disabled":false,"rental_uris":{"android":"levelo://app?vid=541b6b7e-89cd-4e47-b938-5f011d13cd66","ios":"levelo://app?vid=541b6b7e-89cd-4e47-b938-5f011d13cd66"},"vehicle_type_id":"4","last_reported":1702732051,"current_range_meters":24400,"station_id":"ce4bh0p2rcd13ifvqd70","pricing_plan_id":"free"},{"bike_id":"fcd658ba-b1c4-4925-8719-c832163e8cb3","system_id":"levelo_inurba_marseille","lat":43.289184,"lon":5.366408,"is_reserved":false,"is_disabled":false,"rental_uris":{"android":"levelo://app?vid=fcd658ba-b1c4-4925-8719-c832163e8cb3","ios":"levelo://app?vid=fcd658ba-b1c4-4925-8719-c832163e8cb3"},"vehicle_type_id":"4","last_reported":1702732051,"current_range_meters":4000,"station_id":"ce4bhap2rcd13ifvqek0","pricing_plan_id":"free"},{"bike_id":"311f5a03-c461-4ea3-abc5-bb3f903e07df","system_id":"levelo_inurba_marseille","lat":43.289184,"lon":5.366408,"is_reserved":false,"is_disabled":false,"rental_uris":{"android":"levelo://app?vid=311f5a03-c461-4ea3-abc5-bb3f903e07df","ios":"levelo://app?vid=311f5a03-c461-4ea3-abc5-bb3f903e07df"},"vehicle_type_id":"4","last_reported":1702732051,"current_range_meters":24800,"station_id":"ce4bhap2rcd13ifvqek0","pricing_plan_id":"free"},{"bike_id":"c9d67c70-a1a9-4a5a-b75f-88ae53cdad84","system_id":"levelo_inurba_marseille","lat":43.289184,"lon":5.366408,"is_reserved":false,"is_disabled":false,"rental_uris":{"android":"levelo://app?vid=c9d67c70-a1a9-4a5a-b75f-88ae53cdad84","ios":"levelo://app?vid=c9d67c70-a1a9-4a5a-b75f-88ae53cdad84"},"vehicle_type_id":"4","last_reported":1702732051,"current_range_meters":18000,"station_id":"ce4bhap2rcd13ifvqek0","pricing_plan_id":"free"},{"bike_id":"2e1e1fbf-9c02-43ce-a548-2e3ddd2310c9","system_id":"levelo_inurba_marseille","lat":43.304296,"lon":5.397513,"is_reserved":false,"is_disabled":false,"rental_uris":{"android":"levelo://app?vid=2e1e1fbf-9c02-43ce-a548-2e3ddd2310c9","ios":"levelo://app?vid=2e1e1fbf-9c02-43ce-a548-2e3ddd2310c9"},"vehicle_type_id":"4","last_reported":1702732051,"current_range_meters":10000,"station_id":"ce4bh092rcd13ifvqd20","pricing_plan_id":"free"},{"bike_id":"2af1ec1d-db50-4675-b168-902ca134119a","system_id":"levelo_inurba_marseille","lat":43.330442,"lon":5.389148,"is_reserved":false,"is_disabled":false,"rental_uris":{"android":"levelo://app?vid=2af1ec1d-db50-4675-b168-902ca134119a","ios":"levelo://app?vid=2af1ec1d-db50-4675-b168-902ca134119a"},"vehicle_type_id":"4","last_reported":1702732051,"current_range_meters":0,"station_id":"ce4bhr92rcd13ifvqhrg","pricing_plan_id":"free"},{"bike_id":"0f29f0c0-cf49-460b-89f1-dca5b9f3ae57","system_id":"levelo_inurba_marseille","lat":43.290104,"lon":5.356111,"is_reserved":false,"is_disabled":false,"rental_uris":{"android":"levelo://app?vid=0f29f0c0-cf49-460b-89f1-dca5b9f3ae57","ios":"levelo://app?vid=0f29f0c0-cf49-460b-89f1-dca5b9f3ae57"},"vehicle_type_id":"4","last_reported":1702732051,"current_range_meters":14000,"station_id":"ce4bhb92rcd13ifvqen0","pricing_plan_id":"free"},{"bike_id":"3a5a79a5-d311-489d-9197-d856411e0505","system_id":"levelo_inurba_marseille","lat":43.290103,"lon":5.356114,"is_reserved":false,"is_disabled":false,"rental_uris":{"android":"levelo://app?vid=3a5a79a5-d311-489d-9197-d856411e0505","ios":"levelo://app?vid=3a5a79a5-d311-489d-9197-d856411e0505"},"vehicle_type_id":"4","last_reported":1702732051,"current_range_meters":19200,"station_id":"ce4bhb92rcd13ifvqen0","pricing_plan_id":"free"},{"bike_id":"d3c6b21b-e7cd-4e83-829e-6117c87460b5","system_id":"levelo_inurba_marseille","lat":43.290995,"lon":5.381361,"is_reserved":false,"is_disabled":false,"rental_uris":{"android":"levelo://app?vid=d3c6b21b-e7cd-4e83-829e-6117c87460b5","ios":"levelo://app?vid=d3c6b21b-e7cd-4e83-829e-6117c87460b5"},"vehicle_type_id":"4","last_reported":1702732051,"current_range_meters":20400,"station_id":"ce4bh512rcd13ifvqe2g","pricing_plan_id":"free"},{"bike_id":"4877fed7-ff8f-4894-aec9-4a991349afdc","system_id":"levelo_inurba_marseille","lat":43.28855,"lon":5.35852,"is_reserved":false,"is_disabled":false,"rental_uris":{"android":"levelo://app?vid=4877fed7-ff8f-4894-aec9-4a991349afdc","ios":"levelo://app?vid=4877fed7-ff8f-4894-aec9-4a991349afdc"},"vehicle_type_id":"4","last_reported":1702732051,"current_range_meters":0,"station_id":"ce4bhb12rcd13ifvqem0","pricing_plan_id":"free"},{"bike_id":"f0cd831c-cfb9-44c7-9487-103b6df223ca","system_id":"levelo_inurba_marseille","lat":43.337445,"lon":5.374592,"is_reserved":false,"is_disabled":false,"rental_uris":{"android":"levelo://app?vid=f0cd831c-cfb9-44c7-9487-103b6df223ca","ios":"levelo://app?vid=f0cd831c-cfb9-44c7-9487-103b6df223ca"},"vehicle_type_id":"4","last_reported":1702732051,"current_range_meters":29200,"station_id":"","pricing_plan_id":"free"},{"bike_id":"d9ecd157-df83-4472-8925-b786577a81cb","system_id":"levelo_inurba_marseille","lat":43.312609,"lon":5.401662,"is_reserved":false,"is_disabled":false,"rental_uris":{"android":"levelo://app?vid=d9ecd157-df83-4472-8925-b786577a81cb","ios":"levelo://app?vid=d9ecd157-df83-4472-8925-b786577a81cb"},"vehicle_type_id":"4","last_reported":1702732051,"current_range_meters":28800,"station_id":"ce4bh092rcd13ifvqd30","pricing_plan_id":"free"},{"bike_id":"a15a6f31-d26a-498f-aab0-fad2629bd007","system_id":"levelo_inurba_marseille","lat":43.337535,"lon":5.37446,"is_reserved":false,"is_disabled":false,"rental_uris":{"android":"levelo://app?vid=a15a6f31-d26a-498f-aab0-fad2629bd007","ios":"levelo://app?vid=a15a6f31-d26a-498f-aab0-fad2629bd007"},"vehicle_type_id":"4","last_reported":1702732051,"current_range_meters":0,"station_id":"","pricing_plan_id":"free"},{"bike_id":"ef80ceab-dc9f-4b6c-8f52-707d5177f481","system_id":"levelo_inurba_marseille","lat":43.33752,"lon":5.37466,"is_reserved":false,"is_disabled":false,"rental_uris":{"android":"levelo://app?vid=ef80ceab-dc9f-4b6c-8f52-707d5177f481","ios":"levelo://app?vid=ef80ceab-dc9f-4b6c-8f52-707d5177f481"},"vehicle_type_id":"4","last_reported":1702732051,"current_range_meters":28800,"station_id":"","pricing_plan_id":"free"},{"bike_id":"7da94b38-a1ce-4567-81bc-9c74b750c610","system_id":"levelo_inurba_marseille","lat":43.309371,"lon":5.401449,"is_reserved":false,"is_disabled":false,"rental_uris":{"android":"levelo://app?vid=7da94b38-a1ce-4567-81bc-9c74b750c610","ios":"levelo://app?vid=7da94b38-a1ce-4567-81bc-9c74b750c610"},"vehicle_type_id":"4","last_reported":1702732051,"current_range_meters":6400,"station_id":"ce4bgvp2rcd13ifvqct0","pricing_plan_id":"free"},{"bike_id":"ba2d18e4-910d-4f2c-bafe-713bc306ae5e","system_id":"levelo_inurba_marseille","lat":43.28727,"lon":5.36078,"is_reserved":false,"is_disabled":false,"rental_uris":{"android":"levelo://app?vid=ba2d18e4-910d-4f2c-bafe-713bc306ae5e","ios":"levelo://app?vid=ba2d18e4-910d-4f2c-bafe-713bc306ae5e"},"vehicle_type_id":"4","last_reported":1702732051,"current_range_meters":24000,"station_id":"cki0cbj6b192h4jlfktg","pricing_plan_id":"free"},{"bike_id":"e0cb7027-cf34-4c2c-b6c3-93ddb9b9468d","system_id":"levelo_inurba_marseille","lat":43.286591,"lon":5.363346,"is_reserved":false,"is_disabled":false,"rental_uris":{"android":"levelo://app?vid=e0cb7027-cf34-4c2c-b6c3-93ddb9b9468d","ios":"levelo://app?vid=e0cb7027-cf34-4c2c-b6c3-93ddb9b9468d"},"vehicle_type_id":"4","last_reported":1702732051,"current_range_meters":23200,"station_id":"ce4bhah2rcd13ifvqej0","pricing_plan_id":"free"},{"bike_id":"24c5f25c-eb43-462e-adea-37f7e7ff3a33","system_id":"levelo_inurba_marseille","lat":43.286961,"lon":5.373785,"is_reserved":false,"is_disabled":false,"rental_uris":{"android":"levelo://app?vid=24c5f25c-eb43-462e-adea-37f7e7ff3a33","ios":"levelo://app?vid=24c5f25c-eb43-462e-adea-37f7e7ff3a33"},"vehicle_type_id":"4","last_reported":1702732051,"current_range_meters":28000,"station_id":"ce4bh3p2rcd13ifvqdq0","pricing_plan_id":"free"},{"bike_id":"0e8525b2-91ef-49cd-b46e-26e92fde755b","system_id":"levelo_inurba_marseille","lat":43.286961,"lon":5.373785,"is_reserved":false,"is_disabled":false,"rental_uris":{"android":"levelo://app?vid=0e8525b2-91ef-49cd-b46e-26e92fde755b","ios":"levelo://app?vid=0e8525b2-91ef-49cd-b46e-26e92fde755b"},"vehicle_type_id":"4","last_reported":1702732051,"current_range_meters":7600,"station_id":"ce4bh3p2rcd13ifvqdq0","pricing_plan_id":"free"},{"bike_id":"505f2fa9-1079-4123-a967-866f39edfa99","system_id":"levelo_inurba_marseille","lat":43.290345,"lon":5.38646,"is_reserved":false,"is_disabled":false,"rental_uris":{"android":"levelo://app?vid=505f2fa9-1079-4123-a967-866f39edfa99","ios":"levelo://app?vid=505f2fa9-1079-4123-a967-866f39edfa99"},"vehicle_type_id":"4","last_reported":1702732051,"current_range_meters":25200,"station_id":"ce4bh4p2rcd13ifvqe0g","pricing_plan_id":"free"},{"bike_id":"ccd6075a-7593-48a6-9ced-f7e02ecfc182","system_id":"levelo_inurba_marseille","lat":43.289307,"lon":5.38406,"is_reserved":false,"is_disabled":false,"rental_uris":{"android":"levelo://app?vid=ccd6075a-7593-48a6-9ced-f7e02ecfc182","ios":"levelo://app?vid=ccd6075a-7593-48a6-9ced-f7e02ecfc182"},"vehicle_type_id":"4","last_reported":1702732051,"current_range_meters":19600,"station_id":"ce4bh612rcd13ifvqe6g","pricing_plan_id":"free"},{"bike_id":"d5b39701-69be-41ab-acd3-056ee14f8f54","system_id":"levelo_inurba_marseille","lat":43.289307,"lon":5.38406,"is_reserved":false,"is_disabled":false,"rental_uris":{"android":"levelo://app?vid=d5b39701-69be-41ab-acd3-056ee14f8f54","ios":"levelo://app?vid=d5b39701-69be-41ab-acd3-056ee14f8f54"},"vehicle_type_id":"4","last_reported":1702732051,"current_range_meters":20800,"station_id":"ce4bh612rcd13ifvqe6g","pricing_plan_id":"free"},{"bike_id":"46937d05-36c2-495a-9b30-7603f646a5e5","system_id":"levelo_inurba_marseille","lat":43.307455,"lon":5.402783,"is_reserved":false,"is_disabled":false,"rental_uris":{"android":"levelo://app?vid=46937d05-36c2-495a-9b30-7603f646a5e5","ios":"levelo://app?vid=46937d05-36c2-495a-9b30-7603f646a5e5"},"vehicle_type_id":"4","last_reported":1702732051,"current_range_meters":13600,"station_id":"","pricing_plan_id":"free"},{"bike_id":"246d5fa5-c550-48ea-a6ec-41b624ab5d9f","system_id":"levelo_inurba_marseille","lat":43.286039,"lon":5.370679,"is_reserved":false,"is_disabled":false,"rental_uris":{"android":"levelo://app?vid=246d5fa5-c550-48ea-a6ec-41b624ab5d9f","ios":"levelo://app?vid=246d5fa5-c550-48ea-a6ec-41b624ab5d9f"},"vehicle_type_id":"4","last_reported":1702732051,"current_range_meters":31200,"station_id":"ce4bht12rcd13ifvqi60","pricing_plan_id":"free"},{"bike_id":"bd497794-649c-4fb0-b186-4b7f2690dcbb","system_id":"levelo_inurba_marseille","lat":43.286039,"lon":5.370679,"is_reserved":false,"is_disabled":false,"rental_uris":{"android":"levelo://app?vid=bd497794-649c-4fb0-b186-4b7f2690dcbb","ios":"levelo://app?vid=bd497794-649c-4fb0-b186-4b7f2690dcbb"},"vehicle_type_id":"4","last_reported":1702732051,"current_range_meters":14400,"station_id":"ce4bht12rcd13ifvqi60","pricing_plan_id":"free"},{"bike_id":"750100cb-f34d-4956-920d-f8881a7f71b7","system_id":"levelo_inurba_marseille","lat":43.286039,"lon":5.370679,"is_reserved":false,"is_disabled":false,"rental_uris":{"android":"levelo://app?vid=750100cb-f34d-4956-920d-f8881a7f71b7","ios":"levelo://app?vid=750100cb-f34d-4956-920d-f8881a7f71b7"},"vehicle_type_id":"4","last_reported":1702732051,"current_range_meters":18800,"station_id":"ce4bht12rcd13ifvqi60","pricing_plan_id":"free"},{"bike_id":"a3f20b3e-c524-4890-a04e-7ef112876138","system_id":"levelo_inurba_marseille","lat":43.287395,"lon":5.354835,"is_reserved":false,"is_disabled":false,"rental_uris":{"android":"levelo://app?vid=a3f20b3e-c524-4890-a04e-7ef112876138","ios":"levelo://app?vid=a3f20b3e-c524-4890-a04e-7ef112876138"},"vehicle_type_id":"4","last_reported":1702732051,"current_range_meters":18800,"station_id":"ce4bhbp2rcd13ifvqerg","pricing_plan_id":"free"},{"bike_id":"8fe2ce97-fea6-4d3a-bbd1-6da7a56bb1d4","system_id":"levelo_inurba_marseille","lat":43.316828,"lon":5.404723,"is_reserved":false,"is_disabled":false,"rental_uris":{"android":"levelo://app?vid=8fe2ce97-fea6-4d3a-bbd1-6da7a56bb1d4","ios":"levelo://app?vid=8fe2ce97-fea6-4d3a-bbd1-6da7a56bb1d4"},"vehicle_type_id":"4","last_reported":1702732051,"current_range_meters":27200,"station_id":"ce4bh012rcd13ifvqd00","pricing_plan_id":"free"},{"bike_id":"aa2cdfce-1e9a-4d46-abc3-7c3cbcf6afac","system_id":"levelo_inurba_marseille","lat":43.31689,"lon":5.40476,"is_reserved":false,"is_disabled":false,"rental_uris":{"android":"levelo://app?vid=aa2cdfce-1e9a-4d46-abc3-7c3cbcf6afac","ios":"levelo://app?vid=aa2cdfce-1e9a-4d46-abc3-7c3cbcf6afac"},"vehicle_type_id":"4","last_reported":1702732051,"current_range_meters":10400,"station_id":"ce4bh012rcd13ifvqd00","pricing_plan_id":"free"},{"bike_id":"091ddb47-be5c-4afb-8bbc-3deefdfb3ee1","system_id":"levelo_inurba_marseille","lat":43.284617,"lon":5.358884,"is_reserved":false,"is_disabled":false,"rental_uris":{"android":"levelo://app?vid=091ddb47-be5c-4afb-8bbc-3deefdfb3ee1","ios":"levelo://app?vid=091ddb47-be5c-4afb-8bbc-3deefdfb3ee1"},"vehicle_type_id":"4","last_reported":1702732051,"current_range_meters":8000,"station_id":"ce4bhah2rcd13ifvqei0","pricing_plan_id":"free"},{"bike_id":"8ef254e5-5e2b-44c2-81a9-771563833f07","system_id":"levelo_inurba_marseille","lat":43.284078,"lon":5.37326,"is_reserved":false,"is_disabled":false,"rental_uris":{"android":"levelo://app?vid=8ef254e5-5e2b-44c2-81a9-771563833f07","ios":"levelo://app?vid=8ef254e5-5e2b-44c2-81a9-771563833f07"},"vehicle_type_id":"4","last_reported":1702732051,"current_range_meters":14400,"station_id":"","pricing_plan_id":"free"},{"bike_id":"969e2cc4-331c-47e8-8b61-5b7d5dbadcd5","system_id":"levelo_inurba_marseille","lat":43.283998,"lon":5.375062,"is_reserved":false,"is_disabled":false,"rental_uris":{"android":"levelo://app?vid=969e2cc4-331c-47e8-8b61-5b7d5dbadcd5","ios":"levelo://app?vid=969e2cc4-331c-47e8-8b61-5b7d5dbadcd5"},"vehicle_type_id":"4","last_reported":1702732051,"current_range_meters":15600,"station_id":"ce4bh412rcd13ifvqds0","pricing_plan_id":"free"},{"bike_id":"ebf672d9-ea96-436d-8bd2-92fb6ce68966","system_id":"levelo_inurba_marseille","lat":43.295713,"lon":5.399639,"is_reserved":false,"is_disabled":false,"rental_uris":{"android":"levelo://app?vid=ebf672d9-ea96-436d-8bd2-92fb6ce68966","ios":"levelo://app?vid=ebf672d9-ea96-436d-8bd2-92fb6ce68966"},"vehicle_type_id":"4","last_reported":1702732051,"current_range_meters":4800,"station_id":"ce4bh312rcd13ifvqdj0","pricing_plan_id":"free"},{"bike_id":"ea561fd6-dc80-4194-b29d-dfeea1883044","system_id":"levelo_inurba_marseille","lat":43.28683,"lon":5.38658,"is_reserved":false,"is_disabled":false,"rental_uris":{"android":"levelo://app?vid=ea561fd6-dc80-4194-b29d-dfeea1883044","ios":"levelo://app?vid=ea561fd6-dc80-4194-b29d-dfeea1883044"},"vehicle_type_id":"4","last_reported":1702732051,"current_range_meters":0,"station_id":"ce4bh492rcd13ifvqdug","pricing_plan_id":"free"},{"bike_id":"29dd8b5a-7c78-49ca-a9bc-64fe0749b25a","system_id":"levelo_inurba_marseille","lat":43.284219,"lon":5.3497,"is_reserved":false,"is_disabled":false,"rental_uris":{"android":"levelo://app?vid=29dd8b5a-7c78-49ca-a9bc-64fe0749b25a","ios":"levelo://app?vid=29dd8b5a-7c78-49ca-a9bc-64fe0749b25a"},"vehicle_type_id":"4","last_reported":1702732051,"current_range_meters":24400,"station_id":"ce4bhbh2rcd13ifvqepg","pricing_plan_id":"free"},{"bike_id":"74c5cf30-49f6-42f3-835f-9c531e7566b4","system_id":"levelo_inurba_marseille","lat":43.319179,"lon":5.407725,"is_reserved":false,"is_disabled":false,"rental_uris":{"android":"levelo://app?vid=74c5cf30-49f6-42f3-835f-9c531e7566b4","ios":"levelo://app?vid=74c5cf30-49f6-42f3-835f-9c531e7566b4"},"vehicle_type_id":"4","last_reported":1702732051,"current_range_meters":27600,"station_id":"ce4bhq12rcd13ifvqhig","pricing_plan_id":"free"},{"bike_id":"9cafbd46-443b-45b4-ab61-dc2bc1541fbf","system_id":"levelo_inurba_marseille","lat":43.323464,"lon":5.406297,"is_reserved":false,"is_disabled":false,"rental_uris":{"android":"levelo://app?vid=9cafbd46-443b-45b4-ab61-dc2bc1541fbf","ios":"levelo://app?vid=9cafbd46-443b-45b4-ab61-dc2bc1541fbf"},"vehicle_type_id":"4","last_reported":1702732051,"current_range_meters":22800,"station_id":"ce4bhq92rcd13ifvqhjg","pricing_plan_id":"free"},{"bike_id":"16373837-b161-407f-b0fa-3d0f27559010","system_id":"levelo_inurba_marseille","lat":43.323464,"lon":5.406297,"is_reserved":false,"is_disabled":false,"rental_uris":{"android":"levelo://app?vid=16373837-b161-407f-b0fa-3d0f27559010","ios":"levelo://app?vid=16373837-b161-407f-b0fa-3d0f27559010"},"vehicle_type_id":"4","last_reported":1702732051,"current_range_meters":31600,"station_id":"ce4bhq92rcd13ifvqhjg","pricing_plan_id":"free"},{"bike_id":"ad3e3c81-934b-4144-9115-2123feea7c82","system_id":"levelo_inurba_marseille","lat":43.284787,"lon":5.384116,"is_reserved":false,"is_disabled":false,"rental_uris":{"android":"levelo://app?vid=ad3e3c81-934b-4144-9115-2123feea7c82","ios":"levelo://app?vid=ad3e3c81-934b-4144-9115-2123feea7c82"},"vehicle_type_id":"4","last_reported":1702732051,"current_range_meters":2800,"station_id":"ce4bh512rcd13ifvqe3g","pricing_plan_id":"free"},{"bike_id":"3a8590b4-4dd1-4c56-baa8-a12ed0f2ac9b","system_id":"levelo_inurba_marseille","lat":43.284793,"lon":5.384113,"is_reserved":false,"is_disabled":false,"rental_uris":{"android":"levelo://app?vid=3a8590b4-4dd1-4c56-baa8-a12ed0f2ac9b","ios":"levelo://app?vid=3a8590b4-4dd1-4c56-baa8-a12ed0f2ac9b"},"vehicle_type_id":"4","last_reported":1702732051,"current_range_meters":17600,"station_id":"ce4bh512rcd13ifvqe3g","pricing_plan_id":"free"},{"bike_id":"7a8dccbd-c8be-4d0d-9812-6d769131ea84","system_id":"levelo_inurba_marseille","lat":43.284787,"lon":5.384116,"is_reserved":false,"is_disabled":false,"rental_uris":{"android":"levelo://app?vid=7a8dccbd-c8be-4d0d-9812-6d769131ea84","ios":"levelo://app?vid=7a8dccbd-c8be-4d0d-9812-6d769131ea84"},"vehicle_type_id":"4","last_reported":1702732051,"current_range_meters":24000,"station_id":"ce4bh512rcd13ifvqe3g","pricing_plan_id":"free"},{"bike_id":"81b42ed1-0874-4407-993c-97ae8529278f","system_id":"levelo_inurba_marseille","lat":43.28473,"lon":5.38419,"is_reserved":false,"is_disabled":false,"rental_uris":{"android":"levelo://app?vid=81b42ed1-0874-4407-993c-97ae8529278f","ios":"levelo://app?vid=81b42ed1-0874-4407-993c-97ae8529278f"},"vehicle_type_id":"4","last_reported":1702732051,"current_range_meters":2800,"station_id":"ce4bh512rcd13ifvqe3g","pricing_plan_id":"free"},{"bike_id":"d25148d1-cc9d-4d2f-a23c-952a536bc258","system_id":"levelo_inurba_marseille","lat":43.288501,"lon":5.393087,"is_reserved":false,"is_disabled":false,"rental_uris":{"android":"levelo://app?vid=d25148d1-cc9d-4d2f-a23c-952a536bc258","ios":"levelo://app?vid=d25148d1-cc9d-4d2f-a23c-952a536bc258"},"vehicle_type_id":"4","last_reported":1702732051,"current_range_meters":14400,"station_id":"ce4bh2p2rcd13ifvqdi0","pricing_plan_id":"free"},{"bike_id":"f4474e33-7a76-4abc-b335-416cce1d3c80","system_id":"levelo_inurba_marseille","lat":43.288505,"lon":5.39312,"is_reserved":false,"is_disabled":false,"rental_uris":{"android":"levelo://app?vid=f4474e33-7a76-4abc-b335-416cce1d3c80","ios":"levelo://app?vid=f4474e33-7a76-4abc-b335-416cce1d3c80"},"vehicle_type_id":"4","last_reported":1702732051,"current_range_meters":0,"station_id":"ce4bh2p2rcd13ifvqdi0","pricing_plan_id":"free"},{"bike_id":"b3b4356e-ac85-4560-8647-dd8457618e15","system_id":"levelo_inurba_marseille","lat":43.28359,"lon":5.38104,"is_reserved":false,"is_disabled":false,"rental_uris":{"android":"levelo://app?vid=b3b4356e-ac85-4560-8647-dd8457618e15","ios":"levelo://app?vid=b3b4356e-ac85-4560-8647-dd8457618e15"},"vehicle_type_id":"4","last_reported":1702732051,"current_range_meters":9200,"station_id":"ce4bh412rcd13ifvqdr0","pricing_plan_id":"free"},{"bike_id":"aed40369-9500-47d2-b9f6-8cb912f2ae3a","system_id":"levelo_inurba_marseille","lat":43.28446,"lon":5.34968,"is_reserved":false,"is_disabled":false,"rental_uris":{"android":"levelo://app?vid=aed40369-9500-47d2-b9f6-8cb912f2ae3a","ios":"levelo://app?vid=aed40369-9500-47d2-b9f6-8cb912f2ae3a"},"vehicle_type_id":"4","last_reported":1702732051,"current_range_meters":13600,"station_id":"ce4bhbh2rcd13ifvqepg","pricing_plan_id":"free"},{"bike_id":"6bf54837-8496-40ac-97a0-ce89d684be5b","system_id":"levelo_inurba_marseille","lat":43.28419,"lon":5.34975,"is_reserved":false,"is_disabled":false,"rental_uris":{"android":"levelo://app?vid=6bf54837-8496-40ac-97a0-ce89d684be5b","ios":"levelo://app?vid=6bf54837-8496-40ac-97a0-ce89d684be5b"},"vehicle_type_id":"4","last_reported":1702732051,"current_range_meters":6000,"station_id":"ce4bhbh2rcd13ifvqepg","pricing_plan_id":"free"},{"bike_id":"cf7ee429-9945-44bd-9d92-85728db499c8","system_id":"levelo_inurba_marseille","lat":43.289363,"lon":5.396322,"is_reserved":false,"is_disabled":false,"rental_uris":{"android":"levelo://app?vid=cf7ee429-9945-44bd-9d92-85728db499c8","ios":"levelo://app?vid=cf7ee429-9945-44bd-9d92-85728db499c8"},"vehicle_type_id":"4","last_reported":1702732051,"current_range_meters":14400,"station_id":"ce4bh3h2rcd13ifvqdn0","pricing_plan_id":"free"},{"bike_id":"244fac96-7c64-4099-87bb-c47177fb3543","system_id":"levelo_inurba_marseille","lat":43.28275,"lon":5.35057,"is_reserved":false,"is_disabled":false,"rental_uris":{"android":"levelo://app?vid=244fac96-7c64-4099-87bb-c47177fb3543","ios":"levelo://app?vid=244fac96-7c64-4099-87bb-c47177fb3543"},"vehicle_type_id":"4","last_reported":1702732051,"current_range_meters":9600,"station_id":"ce4bhbp2rcd13ifvqerg","pricing_plan_id":"free"},{"bike_id":"c5e26d52-e203-4f19-81de-1da3511cc63d","system_id":"levelo_inurba_marseille","lat":43.2827,"lon":5.35059,"is_reserved":false,"is_disabled":false,"rental_uris":{"android":"levelo://app?vid=c5e26d52-e203-4f19-81de-1da3511cc63d","ios":"levelo://app?vid=c5e26d52-e203-4f19-81de-1da3511cc63d"},"vehicle_type_id":"4","last_reported":1702732051,"current_range_meters":14000,"station_id":"ce4bhbp2rcd13ifvqerg","pricing_plan_id":"free"},{"bike_id":"bae46715-18b6-4b41-8965-0feef661e567","system_id":"levelo_inurba_marseille","lat":43.2827,"lon":5.35057,"is_reserved":false,"is_disabled":false,"rental_uris":{"android":"levelo://app?vid=bae46715-18b6-4b41-8965-0feef661e567","ios":"levelo://app?vid=bae46715-18b6-4b41-8965-0feef661e567"},"vehicle_type_id":"4","last_reported":1702732051,"current_range_meters":8400,"station_id":"ce4bhbp2rcd13ifvqerg","pricing_plan_id":"free"},{"bike_id":"d68318fe-0665-4a6e-8e28-950756e92644","system_id":"levelo_inurba_marseille","lat":43.28269,"lon":5.35057,"is_reserved":false,"is_disabled":false,"rental_uris":{"android":"levelo://app?vid=d68318fe-0665-4a6e-8e28-950756e92644","ios":"levelo://app?vid=d68318fe-0665-4a6e-8e28-950756e92644"},"vehicle_type_id":"4","last_reported":1702732051,"current_range_meters":25200,"station_id":"ce4bhbp2rcd13ifvqerg","pricing_plan_id":"free"},{"bike_id":"affbe265-0f35-400e-8693-29ec832a17a7","system_id":"levelo_inurba_marseille","lat":43.28266,"lon":5.35061,"is_reserved":false,"is_disabled":false,"rental_uris":{"android":"levelo://app?vid=affbe265-0f35-400e-8693-29ec832a17a7","ios":"levelo://app?vid=affbe265-0f35-400e-8693-29ec832a17a7"},"vehicle_type_id":"4","last_reported":1702732051,"current_range_meters":9200,"station_id":"ce4bhbp2rcd13ifvqerg","pricing_plan_id":"free"},{"bike_id":"61eb5164-b7f1-41d3-9eba-88d1cf846eae","system_id":"levelo_inurba_marseille","lat":43.282744,"lon":5.350533,"is_reserved":false,"is_disabled":false,"rental_uris":{"android":"levelo://app?vid=61eb5164-b7f1-41d3-9eba-88d1cf846eae","ios":"levelo://app?vid=61eb5164-b7f1-41d3-9eba-88d1cf846eae"},"vehicle_type_id":"4","last_reported":1702732051,"current_range_meters":17200,"station_id":"ce4bhbp2rcd13ifvqerg","pricing_plan_id":"free"},{"bike_id":"0d30d0e2-0d32-4c6d-8341-57fee73180d4","system_id":"levelo_inurba_marseille","lat":43.283617,"lon":5.38638,"is_reserved":false,"is_disabled":false,"rental_uris":{"android":"levelo://app?vid=0d30d0e2-0d32-4c6d-8341-57fee73180d4","ios":"levelo://app?vid=0d30d0e2-0d32-4c6d-8341-57fee73180d4"},"vehicle_type_id":"4","last_reported":1702732051,"current_range_meters":21600,"station_id":"ce4bh492rcd13ifvqdvg","pricing_plan_id":"free"},{"bike_id":"42f5fb82-f615-475e-807f-6853061d10d2","system_id":"levelo_inurba_marseille","lat":43.282744,"lon":5.350533,"is_reserved":false,"is_disabled":false,"rental_uris":{"android":"levelo://app?vid=42f5fb82-f615-475e-807f-6853061d10d2","ios":"levelo://app?vid=42f5fb82-f615-475e-807f-6853061d10d2"},"vehicle_type_id":"4","last_reported":1702732051,"current_range_meters":12800,"station_id":"ce4bhbp2rcd13ifvqerg","pricing_plan_id":"free"},{"bike_id":"97b225a6-cf82-4a26-923b-ec4775619803","system_id":"levelo_inurba_marseille","lat":43.28039,"lon":5.369297,"is_reserved":false,"is_disabled":false,"rental_uris":{"android":"levelo://app?vid=97b225a6-cf82-4a26-923b-ec4775619803","ios":"levelo://app?vid=97b225a6-cf82-4a26-923b-ec4775619803"},"vehicle_type_id":"4","last_reported":1702732051,"current_range_meters":21200,"station_id":"ce4bha12rcd13ifvqef0","pricing_plan_id":"free"},{"bike_id":"c6cc5b75-5b26-4aee-a6da-cea3c1be8dbf","system_id":"levelo_inurba_marseille","lat":43.28258,"lon":5.35061,"is_reserved":false,"is_disabled":false,"rental_uris":{"android":"levelo://app?vid=c6cc5b75-5b26-4aee-a6da-cea3c1be8dbf","ios":"levelo://app?vid=c6cc5b75-5b26-4aee-a6da-cea3c1be8dbf"},"vehicle_type_id":"4","last_reported":1702732051,"current_range_meters":0,"station_id":"ce4bhbp2rcd13ifvqerg","pricing_plan_id":"free"},{"bike_id":"671ec79a-3d22-4a17-a2b0-1498cdce18ec","system_id":"levelo_inurba_marseille","lat":43.280353,"lon":5.369469,"is_reserved":false,"is_disabled":false,"rental_uris":{"android":"levelo://app?vid=671ec79a-3d22-4a17-a2b0-1498cdce18ec","ios":"levelo://app?vid=671ec79a-3d22-4a17-a2b0-1498cdce18ec"},"vehicle_type_id":"4","last_reported":1702732051,"current_range_meters":17200,"station_id":"ce4bhbp2rcd13ifvqerg","pricing_plan_id":"free"},{"bike_id":"df82e71d-f3a5-4ff5-8458-5f88bbc12328","system_id":"levelo_inurba_marseille","lat":43.281044,"lon":5.378308,"is_reserved":false,"is_disabled":false,"rental_uris":{"android":"levelo://app?vid=df82e71d-f3a5-4ff5-8458-5f88bbc12328","ios":"levelo://app?vid=df82e71d-f3a5-4ff5-8458-5f88bbc12328"},"vehicle_type_id":"4","last_reported":1702732051,"current_range_meters":25200,"station_id":"ce4bha12rcd13ifvqee0","pricing_plan_id":"free"},{"bike_id":"1d2d8c5e-dd8d-4de1-b6c0-8afe316652ed","system_id":"levelo_inurba_marseille","lat":43.284462,"lon":5.392121,"is_reserved":false,"is_disabled":false,"rental_uris":{"android":"levelo://app?vid=1d2d8c5e-dd8d-4de1-b6c0-8afe316652ed","ios":"levelo://app?vid=1d2d8c5e-dd8d-4de1-b6c0-8afe316652ed"},"vehicle_type_id":"4","last_reported":1702732051,"current_range_meters":24800,"station_id":"ce4bhoh2rcd13ifvqh5g","pricing_plan_id":"free"},{"bike_id":"4b4681e8-5ae5-40ac-b6b6-d29c248b4938","system_id":"levelo_inurba_marseille","lat":43.304188,"lon":5.412904,"is_reserved":false,"is_disabled":false,"rental_uris":{"android":"levelo://app?vid=4b4681e8-5ae5-40ac-b6b6-d29c248b4938","ios":"levelo://app?vid=4b4681e8-5ae5-40ac-b6b6-d29c248b4938"},"vehicle_type_id":"4","last_reported":1702732051,"current_range_meters":31200,"station_id":"ce4bhop2rcd13ifvqh8g","pricing_plan_id":"free"},{"bike_id":"e4d67fad-e8ac-4e7f-a1e9-2d706c291796","system_id":"levelo_inurba_marseille","lat":43.304188,"lon":5.412904,"is_reserved":false,"is_disabled":false,"rental_uris":{"android":"levelo://app?vid=e4d67fad-e8ac-4e7f-a1e9-2d706c291796","ios":"levelo://app?vid=e4d67fad-e8ac-4e7f-a1e9-2d706c291796"},"vehicle_type_id":"4","last_reported":1702732051,"current_range_meters":15600,"station_id":"ce4bhop2rcd13ifvqh8g","pricing_plan_id":"free"},{"bike_id":"b9f988ce-49cc-4949-a7c6-073915ae7262","system_id":"levelo_inurba_marseille","lat":43.304188,"lon":5.412904,"is_reserved":false,"is_disabled":false,"rental_uris":{"android":"levelo://app?vid=b9f988ce-49cc-4949-a7c6-073915ae7262","ios":"levelo://app?vid=b9f988ce-49cc-4949-a7c6-073915ae7262"},"vehicle_type_id":"4","last_reported":1702732051,"current_range_meters":8000,"station_id":"ce4bhop2rcd13ifvqh8g","pricing_plan_id":"free"},{"bike_id":"e9ab80a3-a11c-4bb1-a899-4d17c650338d","system_id":"levelo_inurba_marseille","lat":43.320045,"lon":5.415048,"is_reserved":false,"is_disabled":false,"rental_uris":{"android":"levelo://app?vid=e9ab80a3-a11c-4bb1-a899-4d17c650338d","ios":"levelo://app?vid=e9ab80a3-a11c-4bb1-a899-4d17c650338d"},"vehicle_type_id":"4","last_reported":1702732051,"current_range_meters":3600,"station_id":"ce4bhq92rcd13ifvqhkg","pricing_plan_id":"free"},{"bike_id":"b88adf89-97a2-49b7-9f52-bdc8e076a378","system_id":"levelo_inurba_marseille","lat":43.299579,"lon":5.413255,"is_reserved":false,"is_disabled":false,"rental_uris":{"android":"levelo://app?vid=b88adf89-97a2-49b7-9f52-bdc8e076a378","ios":"levelo://app?vid=b88adf89-97a2-49b7-9f52-bdc8e076a378"},"vehicle_type_id":"4","last_reported":1702732051,"current_range_meters":24800,"station_id":"ce4bhp12rcd13ifvqh9g","pricing_plan_id":"free"},{"bike_id":"6607f7ce-30ab-40a6-95a9-ad48d9b140ff","system_id":"levelo_inurba_marseille","lat":43.320045,"lon":5.415048,"is_reserved":false,"is_disabled":false,"rental_uris":{"android":"levelo://app?vid=6607f7ce-30ab-40a6-95a9-ad48d9b140ff","ios":"levelo://app?vid=6607f7ce-30ab-40a6-95a9-ad48d9b140ff"},"vehicle_type_id":"4","last_reported":1702732051,"current_range_meters":22000,"station_id":"ce4bhq92rcd13ifvqhkg","pricing_plan_id":"free"},{"bike_id":"f2b5bd33-9a0c-44fd-8504-f311840c6bbd","system_id":"levelo_inurba_marseille","lat":43.279742,"lon":5.38744,"is_reserved":false,"is_disabled":false,"rental_uris":{"android":"levelo://app?vid=f2b5bd33-9a0c-44fd-8504-f311840c6bbd","ios":"levelo://app?vid=f2b5bd33-9a0c-44fd-8504-f311840c6bbd"},"vehicle_type_id":"4","last_reported":1702732051,"current_range_meters":8800,"station_id":"ce4bhg12rcd13ifvqf80","pricing_plan_id":"free"},{"bike_id":"77003e33-0070-4d21-bc8b-d304fc4f0ad4","system_id":"levelo_inurba_marseille","lat":43.320045,"lon":5.415048,"is_reserved":false,"is_disabled":false,"rental_uris":{"android":"levelo://app?vid=77003e33-0070-4d21-bc8b-d304fc4f0ad4","ios":"levelo://app?vid=77003e33-0070-4d21-bc8b-d304fc4f0ad4"},"vehicle_type_id":"4","last_reported":1702732051,"current_range_meters":28000,"station_id":"ce4bhq92rcd13ifvqhkg","pricing_plan_id":"free"},{"bike_id":"9b85403a-cfa2-41ed-a26c-d7375e88dd0f","system_id":"levelo_inurba_marseille","lat":43.303837,"lon":5.418724,"is_reserved":false,"is_disabled":false,"rental_uris":{"android":"levelo://app?vid=9b85403a-cfa2-41ed-a26c-d7375e88dd0f","ios":"levelo://app?vid=9b85403a-cfa2-41ed-a26c-d7375e88dd0f"},"vehicle_type_id":"4","last_reported":1702732051,"current_range_meters":26400,"station_id":"ce4bhop2rcd13ifvqh7g","pricing_plan_id":"free"},{"bike_id":"462fb428-40b3-4580-b7bf-003bd1f563d0","system_id":"levelo_inurba_marseille","lat":43.273613,"lon":5.362705,"is_reserved":false,"is_disabled":false,"rental_uris":{"android":"levelo://app?vid=462fb428-40b3-4580-b7bf-003bd1f563d0","ios":"levelo://app?vid=462fb428-40b3-4580-b7bf-003bd1f563d0"},"vehicle_type_id":"4","last_reported":1702732051,"current_range_meters":14800,"station_id":"ce4bhbh2rcd13ifvqeo0","pricing_plan_id":"free"},{"bike_id":"5ebbafd3-4425-4b56-91c5-ba048b8c65b7","system_id":"levelo_inurba_marseille","lat":43.273609,"lon":5.362708,"is_reserved":false,"is_disabled":false,"rental_uris":{"android":"levelo://app?vid=5ebbafd3-4425-4b56-91c5-ba048b8c65b7","ios":"levelo://app?vid=5ebbafd3-4425-4b56-91c5-ba048b8c65b7"},"vehicle_type_id":"4","last_reported":1702732051,"current_range_meters":0,"station_id":"ce4bhbh2rcd13ifvqeo0","pricing_plan_id":"free"},{"bike_id":"7f2c5036-bbca-45ec-975a-7e0fbea4945c","system_id":"levelo_inurba_marseille","lat":43.273609,"lon":5.362708,"is_reserved":false,"is_disabled":false,"rental_uris":{"android":"levelo://app?vid=7f2c5036-bbca-45ec-975a-7e0fbea4945c","ios":"levelo://app?vid=7f2c5036-bbca-45ec-975a-7e0fbea4945c"},"vehicle_type_id":"4","last_reported":1702732051,"current_range_meters":16800,"station_id":"ce4bhbh2rcd13ifvqeo0","pricing_plan_id":"free"},{"bike_id":"d42e8555-6019-4631-9aaf-667d76b0507f","system_id":"levelo_inurba_marseille","lat":43.273609,"lon":5.362708,"is_reserved":false,"is_disabled":false,"rental_uris":{"android":"levelo://app?vid=d42e8555-6019-4631-9aaf-667d76b0507f","ios":"levelo://app?vid=d42e8555-6019-4631-9aaf-667d76b0507f"},"vehicle_type_id":"4","last_reported":1702732051,"current_range_meters":17600,"station_id":"ce4bhbh2rcd13ifvqeo0","pricing_plan_id":"free"},{"bike_id":"e7f3199b-16c7-4ec8-844a-fb3b2f233e43","system_id":"levelo_inurba_marseille","lat":43.317121,"lon":5.423936,"is_reserved":false,"is_disabled":false,"rental_uris":{"android":"levelo://app?vid=e7f3199b-16c7-4ec8-844a-fb3b2f233e43","ios":"levelo://app?vid=e7f3199b-16c7-4ec8-844a-fb3b2f233e43"},"vehicle_type_id":"4","last_reported":1702732051,"current_range_meters":31200,"station_id":"ce4bhp92rcd13ifvqhbg","pricing_plan_id":"free"},{"bike_id":"13b63d08-aaa3-4985-bf57-1f32727c58d1","system_id":"levelo_inurba_marseille","lat":43.310785,"lon":5.424305,"is_reserved":false,"is_disabled":false,"rental_uris":{"android":"levelo://app?vid=13b63d08-aaa3-4985-bf57-1f32727c58d1","ios":"levelo://app?vid=13b63d08-aaa3-4985-bf57-1f32727c58d1"},"vehicle_type_id":"4","last_reported":1702732051,"current_range_meters":30400,"station_id":"ce4bhp92rcd13ifvqhag","pricing_plan_id":"free"},{"bike_id":"93a9a0b0-f09a-4679-973e-f3ebca0caf36","system_id":"levelo_inurba_marseille","lat":43.310785,"lon":5.424305,"is_reserved":false,"is_disabled":false,"rental_uris":{"android":"levelo://app?vid=93a9a0b0-f09a-4679-973e-f3ebca0caf36","ios":"levelo://app?vid=93a9a0b0-f09a-4679-973e-f3ebca0caf36"},"vehicle_type_id":"4","last_reported":1702732051,"current_range_meters":31200,"station_id":"ce4bhp92rcd13ifvqhag","pricing_plan_id":"free"},{"bike_id":"88d21734-a1ec-434c-836c-b0fde0b8c8e9","system_id":"levelo_inurba_marseille","lat":43.310785,"lon":5.424305,"is_reserved":false,"is_disabled":false,"rental_uris":{"android":"levelo://app?vid=88d21734-a1ec-434c-836c-b0fde0b8c8e9","ios":"levelo://app?vid=88d21734-a1ec-434c-836c-b0fde0b8c8e9"},"vehicle_type_id":"4","last_reported":1702732051,"current_range_meters":31200,"station_id":"ce4bhp92rcd13ifvqhag","pricing_plan_id":"free"},{"bike_id":"cdc69067-dad5-415d-b4f3-0a438e350196","system_id":"levelo_inurba_marseille","lat":43.317121,"lon":5.423936,"is_reserved":false,"is_disabled":false,"rental_uris":{"android":"levelo://app?vid=cdc69067-dad5-415d-b4f3-0a438e350196","ios":"levelo://app?vid=cdc69067-dad5-415d-b4f3-0a438e350196"},"vehicle_type_id":"4","last_reported":1702732051,"current_range_meters":26400,"station_id":"ce4bhp92rcd13ifvqhbg","pricing_plan_id":"free"},{"bike_id":"7b7bfaee-0e53-4459-bbde-886e6805f2a5","system_id":"levelo_inurba_marseille","lat":43.317121,"lon":5.423936,"is_reserved":false,"is_disabled":false,"rental_uris":{"android":"levelo://app?vid=7b7bfaee-0e53-4459-bbde-886e6805f2a5","ios":"levelo://app?vid=7b7bfaee-0e53-4459-bbde-886e6805f2a5"},"vehicle_type_id":"4","last_reported":1702732051,"current_range_meters":31200,"station_id":"ce4bhp92rcd13ifvqhbg","pricing_plan_id":"free"},{"bike_id":"882bb515-0ba4-4c21-83bc-3aa9401cde34","system_id":"levelo_inurba_marseille","lat":43.310785,"lon":5.424305,"is_reserved":false,"is_disabled":false,"rental_uris":{"android":"levelo://app?vid=882bb515-0ba4-4c21-83bc-3aa9401cde34","ios":"levelo://app?vid=882bb515-0ba4-4c21-83bc-3aa9401cde34"},"vehicle_type_id":"4","last_reported":1702732051,"current_range_meters":27200,"station_id":"ce4bhp92rcd13ifvqhag","pricing_plan_id":"free"},{"bike_id":"10eadedf-b2e9-4bb9-a1f0-77df69175439","system_id":"levelo_inurba_marseille","lat":43.28386,"lon":5.40852,"is_reserved":false,"is_disabled":false,"rental_uris":{"android":"levelo://app?vid=10eadedf-b2e9-4bb9-a1f0-77df69175439","ios":"levelo://app?vid=10eadedf-b2e9-4bb9-a1f0-77df69175439"},"vehicle_type_id":"4","last_reported":1702732051,"current_range_meters":12000,"station_id":"","pricing_plan_id":"free"},{"bike_id":"d3e84a95-5534-4d15-80b8-9f375e139aac","system_id":"levelo_inurba_marseille","lat":43.284793,"lon":5.384113,"is_reserved":false,"is_disabled":false,"rental_uris":{"android":"levelo://app?vid=d3e84a95-5534-4d15-80b8-9f375e139aac","ios":"levelo://app?vid=d3e84a95-5534-4d15-80b8-9f375e139aac"},"vehicle_type_id":"4","last_reported":1702732051,"current_range_meters":3600,"station_id":"ce4bh512rcd13ifvqe3g","pricing_plan_id":"free"},{"bike_id":"3ca2c2d2-99b0-4aa6-a05d-e30f02e6a7fb","system_id":"levelo_inurba_marseille","lat":43.276092,"lon":5.395289,"is_reserved":false,"is_disabled":false,"rental_uris":{"android":"levelo://app?vid=3ca2c2d2-99b0-4aa6-a05d-e30f02e6a7fb","ios":"levelo://app?vid=3ca2c2d2-99b0-4aa6-a05d-e30f02e6a7fb"},"vehicle_type_id":"4","last_reported":1702732051,"current_range_meters":22400,"station_id":"","pricing_plan_id":"free"},{"bike_id":"78cc0bc1-9150-4e0a-89df-667522d21e6a","system_id":"levelo_inurba_marseille","lat":43.27312,"lon":5.390793,"is_reserved":false,"is_disabled":false,"rental_uris":{"android":"levelo://app?vid=78cc0bc1-9150-4e0a-89df-667522d21e6a","ios":"levelo://app?vid=78cc0bc1-9150-4e0a-89df-667522d21e6a"},"vehicle_type_id":"4","last_reported":1702732051,"current_range_meters":3600,"station_id":"","pricing_plan_id":"free"},{"bike_id":"99bcb4da-9698-4512-a158-470244d69d6c","system_id":"levelo_inurba_marseille","lat":43.304096,"lon":5.425385,"is_reserved":false,"is_disabled":false,"rental_uris":{"android":"levelo://app?vid=99bcb4da-9698-4512-a158-470244d69d6c","ios":"levelo://app?vid=99bcb4da-9698-4512-a158-470244d69d6c"},"vehicle_type_id":"4","last_reported":1702732051,"current_range_meters":28400,"station_id":"ce4bhoh2rcd13ifvqh6g","pricing_plan_id":"free"},{"bike_id":"549600fb-47b9-4312-8242-de53dbdf980c","system_id":"levelo_inurba_marseille","lat":43.30417,"lon":5.42539,"is_reserved":false,"is_disabled":false,"rental_uris":{"android":"levelo://app?vid=549600fb-47b9-4312-8242-de53dbdf980c","ios":"levelo://app?vid=549600fb-47b9-4312-8242-de53dbdf980c"},"vehicle_type_id":"4","last_reported":1702732051,"current_range_meters":6400,"station_id":"ce4bhoh2rcd13ifvqh6g","pricing_plan_id":"free"},{"bike_id":"9fa6895d-0e68-493e-b1fb-bfed75b1d89e","system_id":"levelo_inurba_marseille","lat":43.30408,"lon":5.42547,"is_reserved":false,"is_disabled":false,"rental_uris":{"android":"levelo://app?vid=9fa6895d-0e68-493e-b1fb-bfed75b1d89e","ios":"levelo://app?vid=9fa6895d-0e68-493e-b1fb-bfed75b1d89e"},"vehicle_type_id":"4","last_reported":1702732051,"current_range_meters":13200,"station_id":"ce4bhoh2rcd13ifvqh6g","pricing_plan_id":"free"},{"bike_id":"54598bfe-b463-404d-b0a9-319a9ffed791","system_id":"levelo_inurba_marseille","lat":43.295511,"lon":5.422926,"is_reserved":false,"is_disabled":false,"rental_uris":{"android":"levelo://app?vid=54598bfe-b463-404d-b0a9-319a9ffed791","ios":"levelo://app?vid=54598bfe-b463-404d-b0a9-319a9ffed791"},"vehicle_type_id":"4","last_reported":1702732051,"current_range_meters":27600,"station_id":"ce4bhph2rcd13ifvqhdg","pricing_plan_id":"free"},{"bike_id":"7c5e5a9a-9f39-4a14-9573-d5b8ab599dd5","system_id":"levelo_inurba_marseille","lat":43.27191,"lon":5.39229,"is_reserved":false,"is_disabled":false,"rental_uris":{"android":"levelo://app?vid=7c5e5a9a-9f39-4a14-9573-d5b8ab599dd5","ios":"levelo://app?vid=7c5e5a9a-9f39-4a14-9573-d5b8ab599dd5"},"vehicle_type_id":"4","last_reported":1702732051,"current_range_meters":18800,"station_id":"ce4bhhp2rcd13ifvqfm0","pricing_plan_id":"free"},{"bike_id":"dce48c7b-1566-427d-bc50-b1bf92ba036b","system_id":"levelo_inurba_marseille","lat":43.27952,"lon":5.41055,"is_reserved":false,"is_disabled":false,"rental_uris":{"android":"levelo://app?vid=dce48c7b-1566-427d-bc50-b1bf92ba036b","ios":"levelo://app?vid=dce48c7b-1566-427d-bc50-b1bf92ba036b"},"vehicle_type_id":"4","last_reported":1702732051,"current_range_meters":22400,"station_id":"ce4bhnp2rcd13ifvqh0g","pricing_plan_id":"free"},{"bike_id":"88050578-e9e6-485c-b8ab-32b683c6b914","system_id":"levelo_inurba_marseille","lat":43.279465,"lon":5.410561,"is_reserved":false,"is_disabled":false,"rental_uris":{"android":"levelo://app?vid=88050578-e9e6-485c-b8ab-32b683c6b914","ios":"levelo://app?vid=88050578-e9e6-485c-b8ab-32b683c6b914"},"vehicle_type_id":"4","last_reported":1702732051,"current_range_meters":22400,"station_id":"ce4bhnp2rcd13ifvqh0g","pricing_plan_id":"free"},{"bike_id":"1a09a50e-11d0-483d-a156-88fa54bf1e90","system_id":"levelo_inurba_marseille","lat":43.27937,"lon":5.41045,"is_reserved":false,"is_disabled":false,"rental_uris":{"android":"levelo://app?vid=1a09a50e-11d0-483d-a156-88fa54bf1e90","ios":"levelo://app?vid=1a09a50e-11d0-483d-a156-88fa54bf1e90"},"vehicle_type_id":"4","last_reported":1702732051,"current_range_meters":11600,"station_id":"ce4bhnp2rcd13ifvqh0g","pricing_plan_id":"free"},{"bike_id":"2052b622-13a8-40ff-b651-54b5fdb6f178","system_id":"levelo_inurba_marseille","lat":43.279388,"lon":5.410492,"is_reserved":false,"is_disabled":false,"rental_uris":{"android":"levelo://app?vid=2052b622-13a8-40ff-b651-54b5fdb6f178","ios":"levelo://app?vid=2052b622-13a8-40ff-b651-54b5fdb6f178"},"vehicle_type_id":"4","last_reported":1702732051,"current_range_meters":28800,"station_id":"","pricing_plan_id":"free"},{"bike_id":"db774753-4382-453e-a138-c32d538f9839","system_id":"levelo_inurba_marseille","lat":43.358645,"lon":5.356719,"is_reserved":false,"is_disabled":false,"rental_uris":{"android":"levelo://app?vid=db774753-4382-453e-a138-c32d538f9839","ios":"levelo://app?vid=db774753-4382-453e-a138-c32d538f9839"},"vehicle_type_id":"4","last_reported":1702732051,"current_range_meters":10000,"station_id":"","pricing_plan_id":"free"},{"bike_id":"fbe19a01-4c1f-461f-963a-0e9afcee73b8","system_id":"levelo_inurba_marseille","lat":43.308051,"lon":5.43527,"is_reserved":false,"is_disabled":false,"rental_uris":{"android":"levelo://app?vid=fbe19a01-4c1f-461f-963a-0e9afcee73b8","ios":"levelo://app?vid=fbe19a01-4c1f-461f-963a-0e9afcee73b8"},"vehicle_type_id":"4","last_reported":1702732051,"current_range_meters":27600,"station_id":"ce4bhph2rcd13ifvqheg","pricing_plan_id":"free"},{"bike_id":"b4d86388-1851-4600-991e-55a975b1ffc5","system_id":"levelo_inurba_marseille","lat":43.265714,"lon":5.372891,"is_reserved":false,"is_disabled":false,"rental_uris":{"android":"levelo://app?vid=b4d86388-1851-4600-991e-55a975b1ffc5","ios":"levelo://app?vid=b4d86388-1851-4600-991e-55a975b1ffc5"},"vehicle_type_id":"4","last_reported":1702732051,"current_range_meters":11600,"station_id":"ce4bhg12rcd13ifvqf70","pricing_plan_id":"free"},{"bike_id":"7cab4638-9e3e-4881-979c-97c6d8718a64","system_id":"levelo_inurba_marseille","lat":43.26681,"lon":5.382694,"is_reserved":false,"is_disabled":false,"rental_uris":{"android":"levelo://app?vid=7cab4638-9e3e-4881-979c-97c6d8718a64","ios":"levelo://app?vid=7cab4638-9e3e-4881-979c-97c6d8718a64"},"vehicle_type_id":"4","last_reported":1702732051,"current_range_meters":6800,"station_id":"ce4bhg92rcd13ifvqf90","pricing_plan_id":"free"},{"bike_id":"adaeda46-2754-4a8b-a527-0c7f44bb0c39","system_id":"levelo_inurba_marseille","lat":43.265714,"lon":5.372891,"is_reserved":false,"is_disabled":false,"rental_uris":{"android":"levelo://app?vid=adaeda46-2754-4a8b-a527-0c7f44bb0c39","ios":"levelo://app?vid=adaeda46-2754-4a8b-a527-0c7f44bb0c39"},"vehicle_type_id":"4","last_reported":1702732051,"current_range_meters":26400,"station_id":"ce4bhg12rcd13ifvqf70","pricing_plan_id":"free"},{"bike_id":"64840ca5-b100-4b66-a3dc-c09e2bd7e8c0","system_id":"levelo_inurba_marseille","lat":43.265714,"lon":5.372891,"is_reserved":false,"is_disabled":false,"rental_uris":{"android":"levelo://app?vid=64840ca5-b100-4b66-a3dc-c09e2bd7e8c0","ios":"levelo://app?vid=64840ca5-b100-4b66-a3dc-c09e2bd7e8c0"},"vehicle_type_id":"4","last_reported":1702732051,"current_range_meters":4400,"station_id":"ce4bhg12rcd13ifvqf70","pricing_plan_id":"free"},{"bike_id":"f79c3d57-64ea-44b3-abca-fa9dd743a8a0","system_id":"levelo_inurba_marseille","lat":43.265714,"lon":5.372891,"is_reserved":false,"is_disabled":false,"rental_uris":{"android":"levelo://app?vid=f79c3d57-64ea-44b3-abca-fa9dd743a8a0","ios":"levelo://app?vid=f79c3d57-64ea-44b3-abca-fa9dd743a8a0"},"vehicle_type_id":"4","last_reported":1702732051,"current_range_meters":10000,"station_id":"ce4bhg12rcd13ifvqf70","pricing_plan_id":"free"},{"bike_id":"e1d6f2dc-23fe-4269-9137-96bbbf9cd898","system_id":"levelo_inurba_marseille","lat":43.265513,"lon":5.372872,"is_reserved":false,"is_disabled":false,"rental_uris":{"android":"levelo://app?vid=e1d6f2dc-23fe-4269-9137-96bbbf9cd898","ios":"levelo://app?vid=e1d6f2dc-23fe-4269-9137-96bbbf9cd898"},"vehicle_type_id":"4","last_reported":1702732051,"current_range_meters":26400,"station_id":"","pricing_plan_id":"free"},{"bike_id":"fb553775-be9c-4212-b0d6-6587af50c6eb","system_id":"levelo_inurba_marseille","lat":43.27996,"lon":5.416624,"is_reserved":false,"is_disabled":false,"rental_uris":{"android":"levelo://app?vid=fb553775-be9c-4212-b0d6-6587af50c6eb","ios":"levelo://app?vid=fb553775-be9c-4212-b0d6-6587af50c6eb"},"vehicle_type_id":"4","last_reported":1702732051,"current_range_meters":19200,"station_id":"ce4bho12rcd13ifvqh1g","pricing_plan_id":"free"},{"bike_id":"67c547ac-8285-474e-ae3c-512423e9bfb7","system_id":"levelo_inurba_marseille","lat":43.27996,"lon":5.416624,"is_reserved":false,"is_disabled":false,"rental_uris":{"android":"levelo://app?vid=67c547ac-8285-474e-ae3c-512423e9bfb7","ios":"levelo://app?vid=67c547ac-8285-474e-ae3c-512423e9bfb7"},"vehicle_type_id":"4","last_reported":1702732051,"current_range_meters":16000,"station_id":"ce4bho12rcd13ifvqh1g","pricing_plan_id":"free"},{"bike_id":"606a0fa5-3f6e-40c3-93cb-11997652773a","system_id":"levelo_inurba_marseille","lat":43.27996,"lon":5.416624,"is_reserved":false,"is_disabled":false,"rental_uris":{"android":"levelo://app?vid=606a0fa5-3f6e-40c3-93cb-11997652773a","ios":"levelo://app?vid=606a0fa5-3f6e-40c3-93cb-11997652773a"},"vehicle_type_id":"4","last_reported":1702732051,"current_range_meters":19600,"station_id":"ce4bho12rcd13ifvqh1g","pricing_plan_id":"free"},{"bike_id":"f9e63a65-a4b8-444f-9007-eff8dba3eec9","system_id":"levelo_inurba_marseille","lat":43.27996,"lon":5.416624,"is_reserved":false,"is_disabled":false,"rental_uris":{"android":"levelo://app?vid=f9e63a65-a4b8-444f-9007-eff8dba3eec9","ios":"levelo://app?vid=f9e63a65-a4b8-444f-9007-eff8dba3eec9"},"vehicle_type_id":"4","last_reported":1702732051,"current_range_meters":31200,"station_id":"ce4bho12rcd13ifvqh1g","pricing_plan_id":"free"},{"bike_id":"b6e02764-22af-46c1-a930-a9617486f5e3","system_id":"levelo_inurba_marseille","lat":43.265714,"lon":5.372891,"is_reserved":false,"is_disabled":false,"rental_uris":{"android":"levelo://app?vid=b6e02764-22af-46c1-a930-a9617486f5e3","ios":"levelo://app?vid=b6e02764-22af-46c1-a930-a9617486f5e3"},"vehicle_type_id":"4","last_reported":1702732051,"current_range_meters":13200,"station_id":"ce4bhg12rcd13ifvqf70","pricing_plan_id":"free"},{"bike_id":"bb538fbf-c033-4202-a513-3f8043fda1c1","system_id":"levelo_inurba_marseille","lat":43.267966,"lon":5.393976,"is_reserved":false,"is_disabled":false,"rental_uris":{"android":"levelo://app?vid=bb538fbf-c033-4202-a513-3f8043fda1c1","ios":"levelo://app?vid=bb538fbf-c033-4202-a513-3f8043fda1c1"},"vehicle_type_id":"4","last_reported":1702732051,"current_range_meters":20000,"station_id":"ce4bhh12rcd13ifvqfg0","pricing_plan_id":"free"},{"bike_id":"7b3acfec-7269-4a55-abfa-7819202d73ef","system_id":"levelo_inurba_marseille","lat":43.308051,"lon":5.43527,"is_reserved":false,"is_disabled":false,"rental_uris":{"android":"levelo://app?vid=7b3acfec-7269-4a55-abfa-7819202d73ef","ios":"levelo://app?vid=7b3acfec-7269-4a55-abfa-7819202d73ef"},"vehicle_type_id":"4","last_reported":1702732051,"current_range_meters":28000,"station_id":"ce4bhph2rcd13ifvqheg","pricing_plan_id":"free"},{"bike_id":"03e8eb3b-933a-4396-b6b4-928a61b3e083","system_id":"levelo_inurba_marseille","lat":43.26561,"lon":5.39013,"is_reserved":false,"is_disabled":false,"rental_uris":{"android":"levelo://app?vid=03e8eb3b-933a-4396-b6b4-928a61b3e083","ios":"levelo://app?vid=03e8eb3b-933a-4396-b6b4-928a61b3e083"},"vehicle_type_id":"4","last_reported":1702732051,"current_range_meters":0,"station_id":"ce4bhe12rcd13ifvqf30","pricing_plan_id":"free"},{"bike_id":"e8017374-0fe9-4ea2-905e-0537b60071c1","system_id":"levelo_inurba_marseille","lat":43.26562,"lon":5.39018,"is_reserved":false,"is_disabled":false,"rental_uris":{"android":"levelo://app?vid=e8017374-0fe9-4ea2-905e-0537b60071c1","ios":"levelo://app?vid=e8017374-0fe9-4ea2-905e-0537b60071c1"},"vehicle_type_id":"4","last_reported":1702732051,"current_range_meters":18000,"station_id":"ce4bhe12rcd13ifvqf30","pricing_plan_id":"free"},{"bike_id":"bce61126-2e2f-4a4a-b711-dc5061b80c11","system_id":"levelo_inurba_marseille","lat":43.26949,"lon":5.40262,"is_reserved":false,"is_disabled":false,"rental_uris":{"android":"levelo://app?vid=bce61126-2e2f-4a4a-b711-dc5061b80c11","ios":"levelo://app?vid=bce61126-2e2f-4a4a-b711-dc5061b80c11"},"vehicle_type_id":"4","last_reported":1702732051,"current_range_meters":10800,"station_id":"cjm6bp8fraef2m0cb0m0","pricing_plan_id":"free"},{"bike_id":"3f89a02b-bdc2-4eb0-bdc8-f06806993e8a","system_id":"levelo_inurba_marseille","lat":43.317104,"lon":5.436818,"is_reserved":false,"is_disabled":false,"rental_uris":{"android":"levelo://app?vid=3f89a02b-bdc2-4eb0-bdc8-f06806993e8a","ios":"levelo://app?vid=3f89a02b-bdc2-4eb0-bdc8-f06806993e8a"},"vehicle_type_id":"4","last_reported":1702732051,"current_range_meters":29200,"station_id":"ce4bhp92rcd13ifvqhcg","pricing_plan_id":"free"},{"bike_id":"924dd0b6-11bb-4688-9962-d909c563de41","system_id":"levelo_inurba_marseille","lat":43.26175,"lon":5.37441,"is_reserved":false,"is_disabled":false,"rental_uris":{"android":"levelo://app?vid=924dd0b6-11bb-4688-9962-d909c563de41","ios":"levelo://app?vid=924dd0b6-11bb-4688-9962-d909c563de41"},"vehicle_type_id":"4","last_reported":1702732051,"current_range_meters":18400,"station_id":"ce4bhgp2rcd13ifvqfc0","pricing_plan_id":"free"},{"bike_id":"66d0fe02-42be-4211-8e44-68e0cd5d815e","system_id":"levelo_inurba_marseille","lat":43.26202,"lon":5.379299,"is_reserved":false,"is_disabled":false,"rental_uris":{"android":"levelo://app?vid=66d0fe02-42be-4211-8e44-68e0cd5d815e","ios":"levelo://app?vid=66d0fe02-42be-4211-8e44-68e0cd5d815e"},"vehicle_type_id":"4","last_reported":1702732051,"current_range_meters":31200,"station_id":"ce4bhjp2rcd13ifvqg90","pricing_plan_id":"free"},{"bike_id":"35913f82-11aa-4c30-9d74-4ea03a106496","system_id":"levelo_inurba_marseille","lat":43.26202,"lon":5.379299,"is_reserved":false,"is_disabled":false,"rental_uris":{"android":"levelo://app?vid=35913f82-11aa-4c30-9d74-4ea03a106496","ios":"levelo://app?vid=35913f82-11aa-4c30-9d74-4ea03a106496"},"vehicle_type_id":"4","last_reported":1702732051,"current_range_meters":3200,"station_id":"ce4bhjp2rcd13ifvqg90","pricing_plan_id":"free"},{"bike_id":"5bbbe66c-61cd-4750-945d-eb3c296f9462","system_id":"levelo_inurba_marseille","lat":43.271388,"lon":5.409269,"is_reserved":false,"is_disabled":false,"rental_uris":{"android":"levelo://app?vid=5bbbe66c-61cd-4750-945d-eb3c296f9462","ios":"levelo://app?vid=5bbbe66c-61cd-4750-945d-eb3c296f9462"},"vehicle_type_id":"4","last_reported":1702732051,"current_range_meters":28800,"station_id":"ce4bhl12rcd13ifvqgf0","pricing_plan_id":"free"},{"bike_id":"9a565409-9e4d-4447-8a35-ed26f5edc19c","system_id":"levelo_inurba_marseille","lat":43.26202,"lon":5.379299,"is_reserved":false,"is_disabled":false,"rental_uris":{"android":"levelo://app?vid=9a565409-9e4d-4447-8a35-ed26f5edc19c","ios":"levelo://app?vid=9a565409-9e4d-4447-8a35-ed26f5edc19c"},"vehicle_type_id":"4","last_reported":1702732051,"current_range_meters":0,"station_id":"ce4bhjp2rcd13ifvqg90","pricing_plan_id":"free"},{"bike_id":"30a5a01f-3280-497e-83f4-ad73f1ca4b49","system_id":"levelo_inurba_marseille","lat":43.267959,"lon":5.402685,"is_reserved":false,"is_disabled":false,"rental_uris":{"android":"levelo://app?vid=30a5a01f-3280-497e-83f4-ad73f1ca4b49","ios":"levelo://app?vid=30a5a01f-3280-497e-83f4-ad73f1ca4b49"},"vehicle_type_id":"4","last_reported":1702732051,"current_range_meters":12800,"station_id":"ce501612rcd8frsf0b60","pricing_plan_id":"free"},{"bike_id":"17c9addb-eea7-4047-a670-e9b4a6b06a49","system_id":"levelo_inurba_marseille","lat":43.260225,"lon":5.375455,"is_reserved":false,"is_disabled":false,"rental_uris":{"android":"levelo://app?vid=17c9addb-eea7-4047-a670-e9b4a6b06a49","ios":"levelo://app?vid=17c9addb-eea7-4047-a670-e9b4a6b06a49"},"vehicle_type_id":"4","last_reported":1702732051,"current_range_meters":5600,"station_id":"ce4bhgh2rcd13ifvqfa0","pricing_plan_id":"free"},{"bike_id":"e5f57873-0397-4589-b856-d817d9dfe27b","system_id":"levelo_inurba_marseille","lat":43.281548,"lon":5.42643,"is_reserved":false,"is_disabled":false,"rental_uris":{"android":"levelo://app?vid=e5f57873-0397-4589-b856-d817d9dfe27b","ios":"levelo://app?vid=e5f57873-0397-4589-b856-d817d9dfe27b"},"vehicle_type_id":"4","last_reported":1702732051,"current_range_meters":25200,"station_id":"ce4bhnh2rcd13ifvqgug","pricing_plan_id":"free"},{"bike_id":"7b0436b3-ff96-4c5c-8bad-aa3b2a2477cd","system_id":"levelo_inurba_marseille","lat":43.275028,"lon":5.424534,"is_reserved":false,"is_disabled":false,"rental_uris":{"android":"levelo://app?vid=7b0436b3-ff96-4c5c-8bad-aa3b2a2477cd","ios":"levelo://app?vid=7b0436b3-ff96-4c5c-8bad-aa3b2a2477cd"},"vehicle_type_id":"4","last_reported":1702732051,"current_range_meters":30400,"station_id":"ce4bhn92rcd13ifvqgrg","pricing_plan_id":"free"},{"bike_id":"e3002b4c-d983-494e-95a2-56a7cce67418","system_id":"levelo_inurba_marseille","lat":43.258224,"lon":5.394369,"is_reserved":false,"is_disabled":false,"rental_uris":{"android":"levelo://app?vid=e3002b4c-d983-494e-95a2-56a7cce67418","ios":"levelo://app?vid=e3002b4c-d983-494e-95a2-56a7cce67418"},"vehicle_type_id":"4","last_reported":1702732051,"current_range_meters":16400,"station_id":"ce4bhip2rcd13ifvqft0","pricing_plan_id":"free"},{"bike_id":"59475555-09ea-4e74-837e-ea20a19a88d7","system_id":"levelo_inurba_marseille","lat":43.258224,"lon":5.394369,"is_reserved":false,"is_disabled":false,"rental_uris":{"android":"levelo://app?vid=59475555-09ea-4e74-837e-ea20a19a88d7","ios":"levelo://app?vid=59475555-09ea-4e74-837e-ea20a19a88d7"},"vehicle_type_id":"4","last_reported":1702732051,"current_range_meters":27200,"station_id":"ce4bhip2rcd13ifvqft0","pricing_plan_id":"free"},{"bike_id":"03ea2412-841b-4d9b-ac91-ca539becb1bb","system_id":"levelo_inurba_marseille","lat":43.258658,"lon":5.398935,"is_reserved":false,"is_disabled":false,"rental_uris":{"android":"levelo://app?vid=03ea2412-841b-4d9b-ac91-ca539becb1bb","ios":"levelo://app?vid=03ea2412-841b-4d9b-ac91-ca539becb1bb"},"vehicle_type_id":"4","last_reported":1702732051,"current_range_meters":24400,"station_id":"ce4bhl92rcd13ifvqghg","pricing_plan_id":"free"},{"bike_id":"e0e8bd05-cb01-417f-9cef-59d9a584620d","system_id":"levelo_inurba_marseille","lat":43.258658,"lon":5.398935,"is_reserved":false,"is_disabled":false,"rental_uris":{"android":"levelo://app?vid=e0e8bd05-cb01-417f-9cef-59d9a584620d","ios":"levelo://app?vid=e0e8bd05-cb01-417f-9cef-59d9a584620d"},"vehicle_type_id":"4","last_reported":1702732051,"current_range_meters":25200,"station_id":"ce4bhl92rcd13ifvqghg","pricing_plan_id":"free"},{"bike_id":"6457eea5-2e99-47d8-8c36-7c72a2ed2512","system_id":"levelo_inurba_marseille","lat":43.250966,"lon":5.395186,"is_reserved":false,"is_disabled":false,"rental_uris":{"android":"levelo://app?vid=6457eea5-2e99-47d8-8c36-7c72a2ed2512","ios":"levelo://app?vid=6457eea5-2e99-47d8-8c36-7c72a2ed2512"},"vehicle_type_id":"4","last_reported":1702732051,"current_range_meters":23200,"station_id":"ce4bhm12rcd13ifvqgkg","pricing_plan_id":"free"},{"bike_id":"baa3d98a-04ad-4508-b9f9-28e823a9113f","system_id":"levelo_inurba_marseille","lat":43.25102,"lon":5.403214,"is_reserved":false,"is_disabled":false,"rental_uris":{"android":"levelo://app?vid=baa3d98a-04ad-4508-b9f9-28e823a9113f","ios":"levelo://app?vid=baa3d98a-04ad-4508-b9f9-28e823a9113f"},"vehicle_type_id":"4","last_reported":1702732051,"current_range_meters":20800,"station_id":"ce4bhlh2rcd13ifvqgig","pricing_plan_id":"free"},{"bike_id":"0542ed22-aa63-4dd4-ac71-b63bf12b258f","system_id":"levelo_inurba_marseille","lat":43.24693,"lon":5.382096,"is_reserved":false,"is_disabled":false,"rental_uris":{"android":"levelo://app?vid=0542ed22-aa63-4dd4-ac71-b63bf12b258f","ios":"levelo://app?vid=0542ed22-aa63-4dd4-ac71-b63bf12b258f"},"vehicle_type_id":"4","last_reported":1702732051,"current_range_meters":31200,"station_id":"ce4bhih2rcd13ifvqfr0","pricing_plan_id":"free"},{"bike_id":"08491698-c30a-45cf-a821-5372a97702c3","system_id":"levelo_inurba_marseille","lat":43.25102,"lon":5.403214,"is_reserved":false,"is_disabled":false,"rental_uris":{"android":"levelo://app?vid=08491698-c30a-45cf-a821-5372a97702c3","ios":"levelo://app?vid=08491698-c30a-45cf-a821-5372a97702c3"},"vehicle_type_id":"4","last_reported":1702732051,"current_range_meters":10800,"station_id":"ce4bhlh2rcd13ifvqgig","pricing_plan_id":"free"},{"bike_id":"cda151f2-9ad2-46c9-9115-b73ba9a06619","system_id":"levelo_inurba_marseille","lat":43.252042,"lon":5.40639,"is_reserved":false,"is_disabled":false,"rental_uris":{"android":"levelo://app?vid=cda151f2-9ad2-46c9-9115-b73ba9a06619","ios":"levelo://app?vid=cda151f2-9ad2-46c9-9115-b73ba9a06619"},"vehicle_type_id":"4","last_reported":1702732051,"current_range_meters":4000,"station_id":"","pricing_plan_id":"free"},{"bike_id":"949d15e9-8df3-4d8f-90d6-7e91ac0bdddf","system_id":"levelo_inurba_marseille","lat":43.246461,"lon":5.389014,"is_reserved":false,"is_disabled":false,"rental_uris":{"android":"levelo://app?vid=949d15e9-8df3-4d8f-90d6-7e91ac0bdddf","ios":"levelo://app?vid=949d15e9-8df3-4d8f-90d6-7e91ac0bdddf"},"vehicle_type_id":"4","last_reported":1702732051,"current_range_meters":27200,"station_id":"ce4bhg12rcd13ifvqf60","pricing_plan_id":"free"},{"bike_id":"5922e712-e356-4367-894d-8b433b5f4d21","system_id":"levelo_inurba_marseille","lat":43.243884,"lon":5.370737,"is_reserved":false,"is_disabled":false,"rental_uris":{"android":"levelo://app?vid=5922e712-e356-4367-894d-8b433b5f4d21","ios":"levelo://app?vid=5922e712-e356-4367-894d-8b433b5f4d21"},"vehicle_type_id":"4","last_reported":1702732051,"current_range_meters":26800,"station_id":"ce4bhhh2rcd13ifvqfk0","pricing_plan_id":"free"},{"bike_id":"c8e73af2-6de3-4862-83d1-2257ffaa3246","system_id":"levelo_inurba_marseille","lat":43.243884,"lon":5.370737,"is_reserved":false,"is_disabled":false,"rental_uris":{"android":"levelo://app?vid=c8e73af2-6de3-4862-83d1-2257ffaa3246","ios":"levelo://app?vid=c8e73af2-6de3-4862-83d1-2257ffaa3246"},"vehicle_type_id":"4","last_reported":1702732051,"current_range_meters":15200,"station_id":"ce4bhhh2rcd13ifvqfk0","pricing_plan_id":"free"},{"bike_id":"bcdbedcb-f5bd-4f41-b02b-0a17a2f80771","system_id":"levelo_inurba_marseille","lat":43.243884,"lon":5.370736,"is_reserved":false,"is_disabled":false,"rental_uris":{"android":"levelo://app?vid=bcdbedcb-f5bd-4f41-b02b-0a17a2f80771","ios":"levelo://app?vid=bcdbedcb-f5bd-4f41-b02b-0a17a2f80771"},"vehicle_type_id":"4","last_reported":1702732051,"current_range_meters":18000,"station_id":"ce4bhhh2rcd13ifvqfk0","pricing_plan_id":"free"},{"bike_id":"2913b0e3-c44c-49f1-ba84-d9d46d3f68b0","system_id":"levelo_inurba_marseille","lat":43.24869,"lon":5.41,"is_reserved":false,"is_disabled":false,"rental_uris":{"android":"levelo://app?vid=2913b0e3-c44c-49f1-ba84-d9d46d3f68b0","ios":"levelo://app?vid=2913b0e3-c44c-49f1-ba84-d9d46d3f68b0"},"vehicle_type_id":"4","last_reported":1702732051,"current_range_meters":19200,"station_id":"","pricing_plan_id":"free"},{"bike_id":"d469d404-5497-4801-80c1-3b542201f88e","system_id":"levelo_inurba_marseille","lat":43.24071,"lon":5.37763,"is_reserved":false,"is_disabled":false,"rental_uris":{"android":"levelo://app?vid=d469d404-5497-4801-80c1-3b542201f88e","ios":"levelo://app?vid=d469d404-5497-4801-80c1-3b542201f88e"},"vehicle_type_id":"4","last_reported":1702732051,"current_range_meters":18000,"station_id":"ce4bhnp2rcd13ifvqgvg","pricing_plan_id":"free"},{"bike_id":"4491be8c-5ac9-4b9d-83bf-d3ce2cdbb232","system_id":"levelo_inurba_marseille","lat":43.240623,"lon":5.377642,"is_reserved":false,"is_disabled":false,"rental_uris":{"android":"levelo://app?vid=4491be8c-5ac9-4b9d-83bf-d3ce2cdbb232","ios":"levelo://app?vid=4491be8c-5ac9-4b9d-83bf-d3ce2cdbb232"},"vehicle_type_id":"4","last_reported":1702732051,"current_range_meters":23200,"station_id":"ce4bhnp2rcd13ifvqgvg","pricing_plan_id":"free"},{"bike_id":"a29e20d4-18d0-4f9c-a13d-90cc9f50c878","system_id":"levelo_inurba_marseille","lat":43.273609,"lon":5.362708,"is_reserved":false,"is_disabled":false,"rental_uris":{"android":"levelo://app?vid=a29e20d4-18d0-4f9c-a13d-90cc9f50c878","ios":"levelo://app?vid=a29e20d4-18d0-4f9c-a13d-90cc9f50c878"},"vehicle_type_id":"4","last_reported":1702732051,"current_range_meters":23200,"station_id":"ce4bhbh2rcd13ifvqeo0","pricing_plan_id":"free"},{"bike_id":"ae3ad7fe-fe7e-4320-bde8-71a385e963a0","system_id":"levelo_inurba_marseille","lat":43.239588,"lon":5.366238,"is_reserved":false,"is_disabled":false,"rental_uris":{"android":"levelo://app?vid=ae3ad7fe-fe7e-4320-bde8-71a385e963a0","ios":"levelo://app?vid=ae3ad7fe-fe7e-4320-bde8-71a385e963a0"},"vehicle_type_id":"4","last_reported":1702732051,"current_range_meters":31200,"station_id":"ce4bhi12rcd13ifvqfp0","pricing_plan_id":"free"},{"bike_id":"ac976593-78be-4851-bc74-6afdb33cfcee","system_id":"levelo_inurba_marseille","lat":43.241782,"lon":5.397261,"is_reserved":false,"is_disabled":false,"rental_uris":{"android":"levelo://app?vid=ac976593-78be-4851-bc74-6afdb33cfcee","ios":"levelo://app?vid=ac976593-78be-4851-bc74-6afdb33cfcee"},"vehicle_type_id":"4","last_reported":1702732051,"current_range_meters":22000,"station_id":"ce4bhn12rcd13ifvqgpg","pricing_plan_id":"free"},{"bike_id":"a5be7a02-752c-452e-81d7-6afcc7acad03","system_id":"levelo_inurba_marseille","lat":43.231919,"lon":5.355532,"is_reserved":false,"is_disabled":false,"rental_uris":{"android":"levelo://app?vid=a5be7a02-752c-452e-81d7-6afcc7acad03","ios":"levelo://app?vid=a5be7a02-752c-452e-81d7-6afcc7acad03"},"vehicle_type_id":"4","last_reported":1702732051,"current_range_meters":17600,"station_id":"ce4bhu92rcd13ifvqi70","pricing_plan_id":"free"},{"bike_id":"bf3e6daf-e882-4943-8888-2e2ca6915d4a","system_id":"levelo_inurba_marseille","lat":43.23198,"lon":5.35554,"is_reserved":false,"is_disabled":false,"rental_uris":{"android":"levelo://app?vid=bf3e6daf-e882-4943-8888-2e2ca6915d4a","ios":"levelo://app?vid=bf3e6daf-e882-4943-8888-2e2ca6915d4a"},"vehicle_type_id":"4","last_reported":1702732051,"current_range_meters":14000,"station_id":"ce4bhu92rcd13ifvqi70","pricing_plan_id":"free"},{"bike_id":"6eb66c81-4f2d-442c-ae6a-a2979e409f48","system_id":"levelo_inurba_marseille","lat":43.231919,"lon":5.355532,"is_reserved":false,"is_disabled":false,"rental_uris":{"android":"levelo://app?vid=6eb66c81-4f2d-442c-ae6a-a2979e409f48","ios":"levelo://app?vid=6eb66c81-4f2d-442c-ae6a-a2979e409f48"},"vehicle_type_id":"4","last_reported":1702732051,"current_range_meters":17200,"station_id":"ce4bhu92rcd13ifvqi70","pricing_plan_id":"free"},{"bike_id":"a6ab5f0e-f0ee-41be-b237-17726a43f065","system_id":"levelo_inurba_marseille","lat":43.23195,"lon":5.355476,"is_reserved":false,"is_disabled":false,"rental_uris":{"android":"levelo://app?vid=a6ab5f0e-f0ee-41be-b237-17726a43f065","ios":"levelo://app?vid=a6ab5f0e-f0ee-41be-b237-17726a43f065"},"vehicle_type_id":"4","last_reported":1702732051,"current_range_meters":29200,"station_id":"ce4bhu92rcd13ifvqi70","pricing_plan_id":"free"},{"bike_id":"547672b1-18af-4711-b9a3-86e73cab70b4","system_id":"levelo_inurba_marseille","lat":43.231919,"lon":5.355532,"is_reserved":false,"is_disabled":false,"rental_uris":{"android":"levelo://app?vid=547672b1-18af-4711-b9a3-86e73cab70b4","ios":"levelo://app?vid=547672b1-18af-4711-b9a3-86e73cab70b4"},"vehicle_type_id":"4","last_reported":1702732051,"current_range_meters":16400,"station_id":"ce4bhu92rcd13ifvqi70","pricing_plan_id":"free"},{"bike_id":"c0509687-6622-44dd-a042-9b19ef27d0ea","system_id":"levelo_inurba_marseille","lat":43.231919,"lon":5.355532,"is_reserved":false,"is_disabled":false,"rental_uris":{"android":"levelo://app?vid=c0509687-6622-44dd-a042-9b19ef27d0ea","ios":"levelo://app?vid=c0509687-6622-44dd-a042-9b19ef27d0ea"},"vehicle_type_id":"4","last_reported":1702732051,"current_range_meters":4000,"station_id":"ce4bhu92rcd13ifvqi70","pricing_plan_id":"free"},{"bike_id":"c1f76b82-4e66-4ae8-8e5d-049d6742016a","system_id":"levelo_inurba_marseille","lat":43.23195,"lon":5.35544,"is_reserved":false,"is_disabled":false,"rental_uris":{"android":"levelo://app?vid=c1f76b82-4e66-4ae8-8e5d-049d6742016a","ios":"levelo://app?vid=c1f76b82-4e66-4ae8-8e5d-049d6742016a"},"vehicle_type_id":"4","last_reported":1702732051,"current_range_meters":19600,"station_id":"ce4bhu92rcd13ifvqi70","pricing_plan_id":"free"},{"bike_id":"435d75ee-de91-4ee4-89fb-fa5635ccaf42","system_id":"levelo_inurba_marseille","lat":43.231919,"lon":5.355532,"is_reserved":false,"is_disabled":false,"rental_uris":{"android":"levelo://app?vid=435d75ee-de91-4ee4-89fb-fa5635ccaf42","ios":"levelo://app?vid=435d75ee-de91-4ee4-89fb-fa5635ccaf42"},"vehicle_type_id":"4","last_reported":1702732051,"current_range_meters":6400,"station_id":"ce4bhu92rcd13ifvqi70","pricing_plan_id":"free"},{"bike_id":"c9187ce6-74fd-452c-b9a3-2a32c9706de9","system_id":"levelo_inurba_marseille","lat":43.23194,"lon":5.35557,"is_reserved":false,"is_disabled":false,"rental_uris":{"android":"levelo://app?vid=c9187ce6-74fd-452c-b9a3-2a32c9706de9","ios":"levelo://app?vid=c9187ce6-74fd-452c-b9a3-2a32c9706de9"},"vehicle_type_id":"4","last_reported":1702732051,"current_range_meters":20000,"station_id":"ce4bhu92rcd13ifvqi70","pricing_plan_id":"free"},{"bike_id":"bb21ca5a-cb13-451e-943b-2dfa4a3b7fbc","system_id":"levelo_inurba_marseille","lat":43.231919,"lon":5.355532,"is_reserved":false,"is_disabled":false,"rental_uris":{"android":"levelo://app?vid=bb21ca5a-cb13-451e-943b-2dfa4a3b7fbc","ios":"levelo://app?vid=bb21ca5a-cb13-451e-943b-2dfa4a3b7fbc"},"vehicle_type_id":"4","last_reported":1702732051,"current_range_meters":31200,"station_id":"ce4bhu92rcd13ifvqi70","pricing_plan_id":"free"},{"bike_id":"039c8836-5750-4239-bfe5-c54c2d49b674","system_id":"levelo_inurba_marseille","lat":43.23194,"lon":5.3555,"is_reserved":false,"is_disabled":false,"rental_uris":{"android":"levelo://app?vid=039c8836-5750-4239-bfe5-c54c2d49b674","ios":"levelo://app?vid=039c8836-5750-4239-bfe5-c54c2d49b674"},"vehicle_type_id":"4","last_reported":1702732051,"current_range_meters":14000,"station_id":"ce4bhu92rcd13ifvqi70","pricing_plan_id":"free"},{"bike_id":"bad9b33d-de7d-4c7c-82d1-be01fc455f93","system_id":"levelo_inurba_marseille","lat":43.23194,"lon":5.35546,"is_reserved":false,"is_disabled":false,"rental_uris":{"android":"levelo://app?vid=bad9b33d-de7d-4c7c-82d1-be01fc455f93","ios":"levelo://app?vid=bad9b33d-de7d-4c7c-82d1-be01fc455f93"},"vehicle_type_id":"4","last_reported":1702732051,"current_range_meters":22800,"station_id":"ce4bhu92rcd13ifvqi70","pricing_plan_id":"free"},{"bike_id":"760219ab-0887-48ce-b49e-5a40cc3afc6e","system_id":"levelo_inurba_marseille","lat":43.23193,"lon":5.35557,"is_reserved":false,"is_disabled":false,"rental_uris":{"android":"levelo://app?vid=760219ab-0887-48ce-b49e-5a40cc3afc6e","ios":"levelo://app?vid=760219ab-0887-48ce-b49e-5a40cc3afc6e"},"vehicle_type_id":"4","last_reported":1702732051,"current_range_meters":22400,"station_id":"ce4bhu92rcd13ifvqi70","pricing_plan_id":"free"},{"bike_id":"9c8cce66-4278-48f8-9ce8-4f41e5a392c5","system_id":"levelo_inurba_marseille","lat":43.231919,"lon":5.355532,"is_reserved":false,"is_disabled":false,"rental_uris":{"android":"levelo://app?vid=9c8cce66-4278-48f8-9ce8-4f41e5a392c5","ios":"levelo://app?vid=9c8cce66-4278-48f8-9ce8-4f41e5a392c5"},"vehicle_type_id":"4","last_reported":1702732051,"current_range_meters":5600,"station_id":"ce4bhu92rcd13ifvqi70","pricing_plan_id":"free"},{"bike_id":"d73c6e07-4857-412f-93af-003b48959d04","system_id":"levelo_inurba_marseille","lat":43.231919,"lon":5.355532,"is_reserved":false,"is_disabled":false,"rental_uris":{"android":"levelo://app?vid=d73c6e07-4857-412f-93af-003b48959d04","ios":"levelo://app?vid=d73c6e07-4857-412f-93af-003b48959d04"},"vehicle_type_id":"4","last_reported":1702732051,"current_range_meters":19600,"station_id":"ce4bhu92rcd13ifvqi70","pricing_plan_id":"free"},{"bike_id":"64295fcd-ca67-4243-ac5e-95b32e82d391","system_id":"levelo_inurba_marseille","lat":43.231919,"lon":5.355532,"is_reserved":false,"is_disabled":false,"rental_uris":{"android":"levelo://app?vid=64295fcd-ca67-4243-ac5e-95b32e82d391","ios":"levelo://app?vid=64295fcd-ca67-4243-ac5e-95b32e82d391"},"vehicle_type_id":"4","last_reported":1702732051,"current_range_meters":15200,"station_id":"ce4bhu92rcd13ifvqi70","pricing_plan_id":"free"},{"bike_id":"59a5075d-8f46-4a64-85f3-6c3e0f3bcf1e","system_id":"levelo_inurba_marseille","lat":43.231919,"lon":5.355532,"is_reserved":false,"is_disabled":false,"rental_uris":{"android":"levelo://app?vid=59a5075d-8f46-4a64-85f3-6c3e0f3bcf1e","ios":"levelo://app?vid=59a5075d-8f46-4a64-85f3-6c3e0f3bcf1e"},"vehicle_type_id":"4","last_reported":1702732051,"current_range_meters":22800,"station_id":"ce4bhu92rcd13ifvqi70","pricing_plan_id":"free"},{"bike_id":"c58c2105-152a-4be3-96b7-ef7d8114d5d4","system_id":"levelo_inurba_marseille","lat":43.231919,"lon":5.355532,"is_reserved":false,"is_disabled":false,"rental_uris":{"android":"levelo://app?vid=c58c2105-152a-4be3-96b7-ef7d8114d5d4","ios":"levelo://app?vid=c58c2105-152a-4be3-96b7-ef7d8114d5d4"},"vehicle_type_id":"4","last_reported":1702732051,"current_range_meters":17600,"station_id":"ce4bhu92rcd13ifvqi70","pricing_plan_id":"free"},{"bike_id":"8f40641d-ea03-4e11-8c81-5cd047455ed4","system_id":"levelo_inurba_marseille","lat":43.231919,"lon":5.355532,"is_reserved":false,"is_disabled":false,"rental_uris":{"android":"levelo://app?vid=8f40641d-ea03-4e11-8c81-5cd047455ed4","ios":"levelo://app?vid=8f40641d-ea03-4e11-8c81-5cd047455ed4"},"vehicle_type_id":"4","last_reported":1702732051,"current_range_meters":19600,"station_id":"ce4bhu92rcd13ifvqi70","pricing_plan_id":"free"},{"bike_id":"347bd90a-5bb8-4868-8e5d-abc75467a716","system_id":"levelo_inurba_marseille","lat":43.23191,"lon":5.3555,"is_reserved":false,"is_disabled":false,"rental_uris":{"android":"levelo://app?vid=347bd90a-5bb8-4868-8e5d-abc75467a716","ios":"levelo://app?vid=347bd90a-5bb8-4868-8e5d-abc75467a716"},"vehicle_type_id":"4","last_reported":1702732051,"current_range_meters":16400,"station_id":"ce4bhu92rcd13ifvqi70","pricing_plan_id":"free"},{"bike_id":"73cd9c87-b558-4a96-b49b-b12814d070b1","system_id":"levelo_inurba_marseille","lat":43.231919,"lon":5.355532,"is_reserved":false,"is_disabled":false,"rental_uris":{"android":"levelo://app?vid=73cd9c87-b558-4a96-b49b-b12814d070b1","ios":"levelo://app?vid=73cd9c87-b558-4a96-b49b-b12814d070b1"},"vehicle_type_id":"4","last_reported":1702732051,"current_range_meters":6400,"station_id":"ce4bhu92rcd13ifvqi70","pricing_plan_id":"free"},{"bike_id":"e2effc20-8600-4cb3-88e5-e93a2f872714","system_id":"levelo_inurba_marseille","lat":43.231919,"lon":5.355532,"is_reserved":false,"is_disabled":false,"rental_uris":{"android":"levelo://app?vid=e2effc20-8600-4cb3-88e5-e93a2f872714","ios":"levelo://app?vid=e2effc20-8600-4cb3-88e5-e93a2f872714"},"vehicle_type_id":"4","last_reported":1702732051,"current_range_meters":28800,"station_id":"ce4bhu92rcd13ifvqi70","pricing_plan_id":"free"},{"bike_id":"449edb6f-74d5-4959-ae49-d1a79af7aa0a","system_id":"levelo_inurba_marseille","lat":43.231919,"lon":5.355532,"is_reserved":false,"is_disabled":false,"rental_uris":{"android":"levelo://app?vid=449edb6f-74d5-4959-ae49-d1a79af7aa0a","ios":"levelo://app?vid=449edb6f-74d5-4959-ae49-d1a79af7aa0a"},"vehicle_type_id":"4","last_reported":1702732051,"current_range_meters":20000,"station_id":"ce4bhu92rcd13ifvqi70","pricing_plan_id":"free"},{"bike_id":"600bdeb8-ea2a-4d1c-a6da-f7a255388a48","system_id":"levelo_inurba_marseille","lat":43.231919,"lon":5.355532,"is_reserved":false,"is_disabled":false,"rental_uris":{"android":"levelo://app?vid=600bdeb8-ea2a-4d1c-a6da-f7a255388a48","ios":"levelo://app?vid=600bdeb8-ea2a-4d1c-a6da-f7a255388a48"},"vehicle_type_id":"4","last_reported":1702732051,"current_range_meters":10800,"station_id":"ce4bhu92rcd13ifvqi70","pricing_plan_id":"free"},{"bike_id":"0065e935-fe44-4a12-8351-a8d1ec5b7748","system_id":"levelo_inurba_marseille","lat":43.231793,"lon":5.400044,"is_reserved":false,"is_disabled":false,"rental_uris":{"android":"levelo://app?vid=0065e935-fe44-4a12-8351-a8d1ec5b7748","ios":"levelo://app?vid=0065e935-fe44-4a12-8351-a8d1ec5b7748"},"vehicle_type_id":"4","last_reported":1702732051,"current_range_meters":16800,"station_id":"ce4bhn12rcd13ifvqgqg","pricing_plan_id":"free"},{"bike_id":"7591c304-548e-4cab-b2c2-be1de5925a19","system_id":"levelo_inurba_marseille","lat":43.231793,"lon":5.400044,"is_reserved":false,"is_disabled":false,"rental_uris":{"android":"levelo://app?vid=7591c304-548e-4cab-b2c2-be1de5925a19","ios":"levelo://app?vid=7591c304-548e-4cab-b2c2-be1de5925a19"},"vehicle_type_id":"4","last_reported":1702732051,"current_range_meters":18000,"station_id":"ce4bhn12rcd13ifvqgqg","pricing_plan_id":"free"},{"bike_id":"ad4a709a-3bbc-4b66-b7ec-31b555a6fb6f","system_id":"levelo_inurba_marseille","lat":43.231794,"lon":5.400052,"is_reserved":false,"is_disabled":false,"rental_uris":{"android":"levelo://app?vid=ad4a709a-3bbc-4b66-b7ec-31b555a6fb6f","ios":"levelo://app?vid=ad4a709a-3bbc-4b66-b7ec-31b555a6fb6f"},