{"last_updated":1705954089,"ttl":30,"version":"2.2","data":{"bikes":[{"bike_id":"5440cb97-ac20-4763-ab82-413204c32815","system_id":"levelo_inurba_marseille","lat":43.309076,"lon":5.368465,"is_reserved":false,"is_disabled":false,"rental_uris":{"android":"levelo://app?vid=5440cb97-ac20-4763-ab82-413204c32815","ios":"levelo://app?vid=5440cb97-ac20-4763-ab82-413204c32815"},"vehicle_type_id":"4","last_reported":1705954089,"current_range_meters":20800,"station_id":"ce4bgn92rcd13ifvqbvg","pricing_plan_id":"free"},{"bike_id":"abd150d0-868c-4fd4-9509-e98cde905c25","system_id":"levelo_inurba_marseille","lat":43.314811,"lon":5.373103,"is_reserved":false,"is_disabled":false,"rental_uris":{"android":"levelo://app?vid=abd150d0-868c-4fd4-9509-e98cde905c25","ios":"levelo://app?vid=abd150d0-868c-4fd4-9509-e98cde905c25"},"vehicle_type_id":"4","last_reported":1705954089,"current_range_meters":800,"station_id":"ce4bgt12rcd13ifvqcd0","pricing_plan_id":"free"},{"bike_id":"c9a7d039-4b75-4e86-9931-f7af9804766c","system_id":"levelo_inurba_marseille","lat":43.314811,"lon":5.373103,"is_reserved":false,"is_disabled":false,"rental_uris":{"android":"levelo://app?vid=c9a7d039-4b75-4e86-9931-f7af9804766c","ios":"levelo://app?vid=c9a7d039-4b75-4e86-9931-f7af9804766c"},"vehicle_type_id":"4","last_reported":1705954089,"current_range_meters":18800,"station_id":"ce4bgt12rcd13ifvqcd0","pricing_plan_id":"free"},{"bike_id":"516e1663-7e41-414f-90c0-cd128ffef1de","system_id":"levelo_inurba_marseille","lat":43.305706,"lon":5.365654,"is_reserved":false,"is_disabled":false,"rental_uris":{"android":"levelo://app?vid=516e1663-7e41-414f-90c0-cd128ffef1de","ios":"levelo://app?vid=516e1663-7e41-414f-90c0-cd128ffef1de"},"vehicle_type_id":"4","last_reported":1705954089,"current_range_meters":19200,"station_id":"ce4bgs12rcd13ifvqcag","pricing_plan_id":"free"},{"bike_id":"c4f73190-f884-43ed-ba60-f48c3a627dfd","system_id":"levelo_inurba_marseille","lat":43.305989,"lon":5.37225,"is_reserved":false,"is_disabled":false,"rental_uris":{"android":"levelo://app?vid=c4f73190-f884-43ed-ba60-f48c3a627dfd","ios":"levelo://app?vid=c4f73190-f884-43ed-ba60-f48c3a627dfd"},"vehicle_type_id":"4","last_reported":1705954089,"current_range_meters":26000,"station_id":"ce4bgqh2rcd13ifvqc4g","pricing_plan_id":"free"},{"bike_id":"f638f25c-b458-4b4c-a1c8-5a064dc5f053","system_id":"levelo_inurba_marseille","lat":43.305989,"lon":5.37225,"is_reserved":false,"is_disabled":false,"rental_uris":{"android":"levelo://app?vid=f638f25c-b458-4b4c-a1c8-5a064dc5f053","ios":"levelo://app?vid=f638f25c-b458-4b4c-a1c8-5a064dc5f053"},"vehicle_type_id":"4","last_reported":1705954089,"current_range_meters":26800,"station_id":"ce4bgqh2rcd13ifvqc4g","pricing_plan_id":"free"},{"bike_id":"8b5ba14e-9b77-416a-b2e8-06e682c2e330","system_id":"levelo_inurba_marseille","lat":43.317075,"lon":5.377367,"is_reserved":false,"is_disabled":false,"rental_uris":{"android":"levelo://app?vid=8b5ba14e-9b77-416a-b2e8-06e682c2e330","ios":"levelo://app?vid=8b5ba14e-9b77-416a-b2e8-06e682c2e330"},"vehicle_type_id":"4","last_reported":1705954089,"current_range_meters":26000,"station_id":"ce4bgth2rcd13ifvqch0","pricing_plan_id":"free"},{"bike_id":"8eae0362-1623-4205-9fa1-52c37ddb128e","system_id":"levelo_inurba_marseille","lat":43.311233,"lon":5.377589,"is_reserved":false,"is_disabled":false,"rental_uris":{"android":"levelo://app?vid=8eae0362-1623-4205-9fa1-52c37ddb128e","ios":"levelo://app?vid=8eae0362-1623-4205-9fa1-52c37ddb128e"},"vehicle_type_id":"4","last_reported":1705954089,"current_range_meters":0,"station_id":"ce4bgt92rcd13ifvqcg0","pricing_plan_id":"free"},{"bike_id":"426c6ca8-d56c-4a1b-bdc0-4d7b18d9dbd7","system_id":"levelo_inurba_marseille","lat":43.311131,"lon":5.377651,"is_reserved":false,"is_disabled":false,"rental_uris":{"android":"levelo://app?vid=426c6ca8-d56c-4a1b-bdc0-4d7b18d9dbd7","ios":"levelo://app?vid=426c6ca8-d56c-4a1b-bdc0-4d7b18d9dbd7"},"vehicle_type_id":"4","last_reported":1705954089,"current_range_meters":3600,"station_id":"ce4bgt92rcd13ifvqcg0","pricing_plan_id":"free"},{"bike_id":"95d9a0d3-c8ea-4c66-b56c-86213f187b39","system_id":"levelo_inurba_marseille","lat":43.311125,"lon":5.377624,"is_reserved":false,"is_disabled":false,"rental_uris":{"android":"levelo://app?vid=95d9a0d3-c8ea-4c66-b56c-86213f187b39","ios":"levelo://app?vid=95d9a0d3-c8ea-4c66-b56c-86213f187b39"},"vehicle_type_id":"4","last_reported":1705954089,"current_range_meters":15600,"station_id":"ce4bgt92rcd13ifvqcg0","pricing_plan_id":"free"},{"bike_id":"4088c6f3-d158-450d-a5d1-5141bf2507bb","system_id":"levelo_inurba_marseille","lat":43.307945,"lon":5.376487,"is_reserved":false,"is_disabled":false,"rental_uris":{"android":"levelo://app?vid=4088c6f3-d158-450d-a5d1-5141bf2507bb","ios":"levelo://app?vid=4088c6f3-d158-450d-a5d1-5141bf2507bb"},"vehicle_type_id":"4","last_reported":1705954089,"current_range_meters":0,"station_id":"ce4bgv92rcd13ifvqcq0","pricing_plan_id":"free"},{"bike_id":"d7854f2c-e25b-4567-9ca1-100b79dde627","system_id":"levelo_inurba_marseille","lat":43.31714,"lon":5.37683,"is_reserved":false,"is_disabled":false,"rental_uris":{"android":"levelo://app?vid=d7854f2c-e25b-4567-9ca1-100b79dde627","ios":"levelo://app?vid=d7854f2c-e25b-4567-9ca1-100b79dde627"},"vehicle_type_id":"4","last_reported":1705954089,"current_range_meters":17600,"station_id":"ce4bgth2rcd13ifvqch0","pricing_plan_id":"free"},{"bike_id":"5f955857-1cfe-43b3-b4eb-cf45edda73ce","system_id":"levelo_inurba_marseille","lat":43.307945,"lon":5.376487,"is_reserved":false,"is_disabled":false,"rental_uris":{"android":"levelo://app?vid=5f955857-1cfe-43b3-b4eb-cf45edda73ce","ios":"levelo://app?vid=5f955857-1cfe-43b3-b4eb-cf45edda73ce"},"vehicle_type_id":"4","last_reported":1705954089,"current_range_meters":30000,"station_id":"ce4bgv92rcd13ifvqcq0","pricing_plan_id":"free"},{"bike_id":"de7c3cf0-b92e-4aad-b395-eca6b8efa55e","system_id":"levelo_inurba_marseille","lat":43.30304,"lon":5.368987,"is_reserved":false,"is_disabled":false,"rental_uris":{"android":"levelo://app?vid=de7c3cf0-b92e-4aad-b395-eca6b8efa55e","ios":"levelo://app?vid=de7c3cf0-b92e-4aad-b395-eca6b8efa55e"},"vehicle_type_id":"4","last_reported":1705954089,"current_range_meters":22800,"station_id":"ce4bgqh2rcd13ifvqc5g","pricing_plan_id":"free"},{"bike_id":"88a2eeaf-358a-4220-8af1-3100dd8f5ae9","system_id":"levelo_inurba_marseille","lat":43.301939,"lon":5.366286,"is_reserved":false,"is_disabled":false,"rental_uris":{"android":"levelo://app?vid=88a2eeaf-358a-4220-8af1-3100dd8f5ae9","ios":"levelo://app?vid=88a2eeaf-358a-4220-8af1-3100dd8f5ae9"},"vehicle_type_id":"4","last_reported":1705954089,"current_range_meters":16800,"station_id":"ce4bgrh2rcd13ifvqc8g","pricing_plan_id":"free"},{"bike_id":"98e6718e-4770-4f68-8fe1-1f668762b39e","system_id":"levelo_inurba_marseille","lat":43.301939,"lon":5.366286,"is_reserved":false,"is_disabled":false,"rental_uris":{"android":"levelo://app?vid=98e6718e-4770-4f68-8fe1-1f668762b39e","ios":"levelo://app?vid=98e6718e-4770-4f68-8fe1-1f668762b39e"},"vehicle_type_id":"4","last_reported":1705954089,"current_range_meters":26400,"station_id":"ce4bgrh2rcd13ifvqc8g","pricing_plan_id":"free"},{"bike_id":"fed27c3d-2890-4f32-8dd2-bac1e9fd5b82","system_id":"levelo_inurba_marseille","lat":43.308012,"lon":5.381511,"is_reserved":false,"is_disabled":false,"rental_uris":{"android":"levelo://app?vid=fed27c3d-2890-4f32-8dd2-bac1e9fd5b82","ios":"levelo://app?vid=fed27c3d-2890-4f32-8dd2-bac1e9fd5b82"},"vehicle_type_id":"4","last_reported":1705954089,"current_range_meters":22400,"station_id":"ce4bgt12rcd13ifvqce0","pricing_plan_id":"free"},{"bike_id":"bec0bf7a-322d-44a5-b4ff-b3c87b0e1830","system_id":"levelo_inurba_marseille","lat":43.30801,"lon":5.38154,"is_reserved":false,"is_disabled":false,"rental_uris":{"android":"levelo://app?vid=bec0bf7a-322d-44a5-b4ff-b3c87b0e1830","ios":"levelo://app?vid=bec0bf7a-322d-44a5-b4ff-b3c87b0e1830"},"vehicle_type_id":"4","last_reported":1705954089,"current_range_meters":10800,"station_id":"ce4bgt12rcd13ifvqce0","pricing_plan_id":"free"},{"bike_id":"e9db7c11-8f87-4a51-b4de-1c5829c6ca52","system_id":"levelo_inurba_marseille","lat":43.308012,"lon":5.381511,"is_reserved":false,"is_disabled":false,"rental_uris":{"android":"levelo://app?vid=e9db7c11-8f87-4a51-b4de-1c5829c6ca52","ios":"levelo://app?vid=e9db7c11-8f87-4a51-b4de-1c5829c6ca52"},"vehicle_type_id":"4","last_reported":1705954089,"current_range_meters":6400,"station_id":"ce4bgt12rcd13ifvqce0","pricing_plan_id":"free"},{"bike_id":"a01461ae-3553-47fc-a4c1-5144d2e35256","system_id":"levelo_inurba_marseille","lat":43.304606,"lon":5.379026,"is_reserved":false,"is_disabled":false,"rental_uris":{"android":"levelo://app?vid=a01461ae-3553-47fc-a4c1-5144d2e35256","ios":"levelo://app?vid=a01461ae-3553-47fc-a4c1-5144d2e35256"},"vehicle_type_id":"4","last_reported":1705954089,"current_range_meters":5200,"station_id":"ce4bgup2rcd13ifvqcn0","pricing_plan_id":"free"},{"bike_id":"f93cc772-b58e-4458-8619-0473e98f7662","system_id":"levelo_inurba_marseille","lat":43.297946,"lon":5.404063,"is_reserved":false,"is_disabled":false,"rental_uris":{"android":"levelo://app?vid=f93cc772-b58e-4458-8619-0473e98f7662","ios":"levelo://app?vid=f93cc772-b58e-4458-8619-0473e98f7662"},"vehicle_type_id":"4","last_reported":1705954089,"current_range_meters":23600,"station_id":"ce4bh112rcd13ifvqd90","pricing_plan_id":"free"},{"bike_id":"603f1217-9350-4f39-b257-bdc4d9f38a2b","system_id":"levelo_inurba_marseille","lat":43.324771,"lon":5.36557,"is_reserved":false,"is_disabled":false,"rental_uris":{"android":"levelo://app?vid=603f1217-9350-4f39-b257-bdc4d9f38a2b","ios":"levelo://app?vid=603f1217-9350-4f39-b257-bdc4d9f38a2b"},"vehicle_type_id":"4","last_reported":1705954089,"current_range_meters":22800,"station_id":"ce4bhs12rcd13ifvqhvg","pricing_plan_id":"free"},{"bike_id":"58675aee-02e4-4a50-a48f-3fc4c3327eb8","system_id":"levelo_inurba_marseille","lat":43.302784,"lon":5.377158,"is_reserved":false,"is_disabled":false,"rental_uris":{"android":"levelo://app?vid=58675aee-02e4-4a50-a48f-3fc4c3327eb8","ios":"levelo://app?vid=58675aee-02e4-4a50-a48f-3fc4c3327eb8"},"vehicle_type_id":"4","last_reported":1705954089,"current_range_meters":2800,"station_id":"ce4bguh2rcd13ifvqcj0","pricing_plan_id":"free"},{"bike_id":"5dea0a61-e9d0-47a8-943b-2d1f36a0d2ed","system_id":"levelo_inurba_marseille","lat":43.319935,"lon":5.381699,"is_reserved":false,"is_disabled":false,"rental_uris":{"android":"levelo://app?vid=5dea0a61-e9d0-47a8-943b-2d1f36a0d2ed","ios":"levelo://app?vid=5dea0a61-e9d0-47a8-943b-2d1f36a0d2ed"},"vehicle_type_id":"4","last_reported":1705954089,"current_range_meters":19600,"station_id":"ce4bhr12rcd13ifvqhpg","pricing_plan_id":"free"},{"bike_id":"80151102-94f6-4718-b770-9c657f000af1","system_id":"levelo_inurba_marseille","lat":43.319935,"lon":5.381699,"is_reserved":false,"is_disabled":false,"rental_uris":{"android":"levelo://app?vid=80151102-94f6-4718-b770-9c657f000af1","ios":"levelo://app?vid=80151102-94f6-4718-b770-9c657f000af1"},"vehicle_type_id":"4","last_reported":1705954089,"current_range_meters":24000,"station_id":"ce4bhr12rcd13ifvqhpg","pricing_plan_id":"free"},{"bike_id":"fd388e30-6c90-4fbf-abdf-dd15ef425659","system_id":"levelo_inurba_marseille","lat":43.31996,"lon":5.38147,"is_reserved":false,"is_disabled":false,"rental_uris":{"android":"levelo://app?vid=fd388e30-6c90-4fbf-abdf-dd15ef425659","ios":"levelo://app?vid=fd388e30-6c90-4fbf-abdf-dd15ef425659"},"vehicle_type_id":"4","last_reported":1705954089,"current_range_meters":24800,"station_id":"ce4bhr12rcd13ifvqhpg","pricing_plan_id":"free"},{"bike_id":"45f16985-5dbf-4c42-8a7b-c2a98cbaf9c6","system_id":"levelo_inurba_marseille","lat":43.319935,"lon":5.381699,"is_reserved":false,"is_disabled":false,"rental_uris":{"android":"levelo://app?vid=45f16985-5dbf-4c42-8a7b-c2a98cbaf9c6","ios":"levelo://app?vid=45f16985-5dbf-4c42-8a7b-c2a98cbaf9c6"},"vehicle_type_id":"4","last_reported":1705954089,"current_range_meters":8000,"station_id":"ce4bhr12rcd13ifvqhpg","pricing_plan_id":"free"},{"bike_id":"e113d1c9-da08-4be0-8879-80169af1faf2","system_id":"levelo_inurba_marseille","lat":43.31999,"lon":5.38161,"is_reserved":false,"is_disabled":false,"rental_uris":{"android":"levelo://app?vid=e113d1c9-da08-4be0-8879-80169af1faf2","ios":"levelo://app?vid=e113d1c9-da08-4be0-8879-80169af1faf2"},"vehicle_type_id":"4","last_reported":1705954089,"current_range_meters":20800,"station_id":"ce4bhr12rcd13ifvqhpg","pricing_plan_id":"free"},{"bike_id":"89784ae0-3df5-4c6d-8bcd-f93d30003d3c","system_id":"levelo_inurba_marseille","lat":43.319935,"lon":5.381699,"is_reserved":false,"is_disabled":false,"rental_uris":{"android":"levelo://app?vid=89784ae0-3df5-4c6d-8bcd-f93d30003d3c","ios":"levelo://app?vid=89784ae0-3df5-4c6d-8bcd-f93d30003d3c"},"vehicle_type_id":"4","last_reported":1705954089,"current_range_meters":10800,"station_id":"ce4bhr12rcd13ifvqhpg","pricing_plan_id":"free"},{"bike_id":"3fb42323-42ae-4e8f-9257-228ce5e54392","system_id":"levelo_inurba_marseille","lat":43.319935,"lon":5.381699,"is_reserved":false,"is_disabled":false,"rental_uris":{"android":"levelo://app?vid=3fb42323-42ae-4e8f-9257-228ce5e54392","ios":"levelo://app?vid=3fb42323-42ae-4e8f-9257-228ce5e54392"},"vehicle_type_id":"4","last_reported":1705954089,"current_range_meters":11600,"station_id":"ce4bhr12rcd13ifvqhpg","pricing_plan_id":"free"},{"bike_id":"6b1614fb-3b40-4aa7-aa72-1564ab2cd937","system_id":"levelo_inurba_marseille","lat":43.319935,"lon":5.381699,"is_reserved":false,"is_disabled":false,"rental_uris":{"android":"levelo://app?vid=6b1614fb-3b40-4aa7-aa72-1564ab2cd937","ios":"levelo://app?vid=6b1614fb-3b40-4aa7-aa72-1564ab2cd937"},"vehicle_type_id":"4","last_reported":1705954089,"current_range_meters":0,"station_id":"ce4bhr12rcd13ifvqhpg","pricing_plan_id":"free"},{"bike_id":"06c6a0e8-9fc9-4cd4-a1d9-3a103d1e1fe1","system_id":"levelo_inurba_marseille","lat":43.319935,"lon":5.381699,"is_reserved":false,"is_disabled":false,"rental_uris":{"android":"levelo://app?vid=06c6a0e8-9fc9-4cd4-a1d9-3a103d1e1fe1","ios":"levelo://app?vid=06c6a0e8-9fc9-4cd4-a1d9-3a103d1e1fe1"},"vehicle_type_id":"4","last_reported":1705954089,"current_range_meters":14400,"station_id":"ce4bhr12rcd13ifvqhpg","pricing_plan_id":"free"},{"bike_id":"65aecd9b-406b-4315-8f1a-a796c28104cc","system_id":"levelo_inurba_marseille","lat":43.313571,"lon":5.384829,"is_reserved":false,"is_disabled":false,"rental_uris":{"android":"levelo://app?vid=65aecd9b-406b-4315-8f1a-a796c28104cc","ios":"levelo://app?vid=65aecd9b-406b-4315-8f1a-a796c28104cc"},"vehicle_type_id":"4","last_reported":1705954089,"current_range_meters":16800,"station_id":"ce4bgt92rcd13ifvqcf0","pricing_plan_id":"free"},{"bike_id":"296b35c6-4060-4ef2-a6b6-70586089fa4b","system_id":"levelo_inurba_marseille","lat":43.313571,"lon":5.384829,"is_reserved":false,"is_disabled":false,"rental_uris":{"android":"levelo://app?vid=296b35c6-4060-4ef2-a6b6-70586089fa4b","ios":"levelo://app?vid=296b35c6-4060-4ef2-a6b6-70586089fa4b"},"vehicle_type_id":"4","last_reported":1705954089,"current_range_meters":9600,"station_id":"ce4bgt92rcd13ifvqcf0","pricing_plan_id":"free"},{"bike_id":"d8beb91c-6a8f-456e-b4ea-7491640c195a","system_id":"levelo_inurba_marseille","lat":43.313571,"lon":5.384829,"is_reserved":false,"is_disabled":false,"rental_uris":{"android":"levelo://app?vid=d8beb91c-6a8f-456e-b4ea-7491640c195a","ios":"levelo://app?vid=d8beb91c-6a8f-456e-b4ea-7491640c195a"},"vehicle_type_id":"4","last_reported":1705954089,"current_range_meters":8000,"station_id":"ce4bgt92rcd13ifvqcf0","pricing_plan_id":"free"},{"bike_id":"eac59346-f6c7-4a2b-b4dd-1bb8535fc4b1","system_id":"levelo_inurba_marseille","lat":43.313571,"lon":5.384829,"is_reserved":false,"is_disabled":false,"rental_uris":{"android":"levelo://app?vid=eac59346-f6c7-4a2b-b4dd-1bb8535fc4b1","ios":"levelo://app?vid=eac59346-f6c7-4a2b-b4dd-1bb8535fc4b1"},"vehicle_type_id":"4","last_reported":1705954089,"current_range_meters":21200,"station_id":"ce4bgt92rcd13ifvqcf0","pricing_plan_id":"free"},{"bike_id":"bfd1f3db-1544-4e62-aefd-617c5bba9ac0","system_id":"levelo_inurba_marseille","lat":43.313571,"lon":5.384829,"is_reserved":false,"is_disabled":false,"rental_uris":{"android":"levelo://app?vid=bfd1f3db-1544-4e62-aefd-617c5bba9ac0","ios":"levelo://app?vid=bfd1f3db-1544-4e62-aefd-617c5bba9ac0"},"vehicle_type_id":"4","last_reported":1705954089,"current_range_meters":28400,"station_id":"ce4bgt92rcd13ifvqcf0","pricing_plan_id":"free"},{"bike_id":"24c5e7af-c20b-4b72-a167-28ab45b95e7c","system_id":"levelo_inurba_marseille","lat":43.313571,"lon":5.384829,"is_reserved":false,"is_disabled":false,"rental_uris":{"android":"levelo://app?vid=24c5e7af-c20b-4b72-a167-28ab45b95e7c","ios":"levelo://app?vid=24c5e7af-c20b-4b72-a167-28ab45b95e7c"},"vehicle_type_id":"4","last_reported":1705954089,"current_range_meters":4400,"station_id":"ce4bgt92rcd13ifvqcf0","pricing_plan_id":"free"},{"bike_id":"5da48d6c-0992-49f9-9c74-ea1e1595d117","system_id":"levelo_inurba_marseille","lat":43.313571,"lon":5.384829,"is_reserved":false,"is_disabled":false,"rental_uris":{"android":"levelo://app?vid=5da48d6c-0992-49f9-9c74-ea1e1595d117","ios":"levelo://app?vid=5da48d6c-0992-49f9-9c74-ea1e1595d117"},"vehicle_type_id":"4","last_reported":1705954089,"current_range_meters":18800,"station_id":"ce4bgt92rcd13ifvqcf0","pricing_plan_id":"free"},{"bike_id":"33ed264c-8c02-4dba-87ef-0cd23c87e63c","system_id":"levelo_inurba_marseille","lat":43.313571,"lon":5.384829,"is_reserved":false,"is_disabled":false,"rental_uris":{"android":"levelo://app?vid=33ed264c-8c02-4dba-87ef-0cd23c87e63c","ios":"levelo://app?vid=33ed264c-8c02-4dba-87ef-0cd23c87e63c"},"vehicle_type_id":"4","last_reported":1705954089,"current_range_meters":13200,"station_id":"ce4bgt92rcd13ifvqcf0","pricing_plan_id":"free"},{"bike_id":"7868348d-b314-463c-96d2-e0c35c53e695","system_id":"levelo_inurba_marseille","lat":43.299724,"lon":5.371829,"is_reserved":false,"is_disabled":false,"rental_uris":{"android":"levelo://app?vid=7868348d-b314-463c-96d2-e0c35c53e695","ios":"levelo://app?vid=7868348d-b314-463c-96d2-e0c35c53e695"},"vehicle_type_id":"4","last_reported":1705954089,"current_range_meters":11600,"station_id":"ce4bgr92rcd13ifvqc7g","pricing_plan_id":"free"},{"bike_id":"79d2d98a-29f2-4ffd-ae01-bfd8a1fa05d5","system_id":"levelo_inurba_marseille","lat":43.328371,"lon":5.366912,"is_reserved":false,"is_disabled":false,"rental_uris":{"android":"levelo://app?vid=79d2d98a-29f2-4ffd-ae01-bfd8a1fa05d5","ios":"levelo://app?vid=79d2d98a-29f2-4ffd-ae01-bfd8a1fa05d5"},"vehicle_type_id":"4","last_reported":1705954089,"current_range_meters":22800,"station_id":"ce4bhs92rcd13ifvqi0g","pricing_plan_id":"free"},{"bike_id":"a208e2cd-68d4-4866-8377-409913680c79","system_id":"levelo_inurba_marseille","lat":43.305364,"lon":5.384119,"is_reserved":false,"is_disabled":false,"rental_uris":{"android":"levelo://app?vid=a208e2cd-68d4-4866-8377-409913680c79","ios":"levelo://app?vid=a208e2cd-68d4-4866-8377-409913680c79"},"vehicle_type_id":"4","last_reported":1705954089,"current_range_meters":12000,"station_id":"ce4bgg92rcd13ifvqb30","pricing_plan_id":"free"},{"bike_id":"e094abf8-1f51-4c93-b359-c778da1d0082","system_id":"levelo_inurba_marseille","lat":43.299243,"lon":5.37481,"is_reserved":false,"is_disabled":false,"rental_uris":{"android":"levelo://app?vid=e094abf8-1f51-4c93-b359-c778da1d0082","ios":"levelo://app?vid=e094abf8-1f51-4c93-b359-c778da1d0082"},"vehicle_type_id":"4","last_reported":1705954089,"current_range_meters":21600,"station_id":"ce4bgjh2rcd13ifvqbg0","pricing_plan_id":"free"},{"bike_id":"fd8a3664-82e6-438b-a5e0-8dd71be27222","system_id":"levelo_inurba_marseille","lat":43.31171,"lon":5.3871,"is_reserved":false,"is_disabled":false,"rental_uris":{"android":"levelo://app?vid=fd8a3664-82e6-438b-a5e0-8dd71be27222","ios":"levelo://app?vid=fd8a3664-82e6-438b-a5e0-8dd71be27222"},"vehicle_type_id":"4","last_reported":1705954089,"current_range_meters":16400,"station_id":"ce4bgv12rcd13ifvqcp0","pricing_plan_id":"free"},{"bike_id":"56e4a17e-76f3-4c5d-ac01-bb34923a1cbd","system_id":"levelo_inurba_marseille","lat":43.311722,"lon":5.387247,"is_reserved":false,"is_disabled":false,"rental_uris":{"android":"levelo://app?vid=56e4a17e-76f3-4c5d-ac01-bb34923a1cbd","ios":"levelo://app?vid=56e4a17e-76f3-4c5d-ac01-bb34923a1cbd"},"vehicle_type_id":"4","last_reported":1705954089,"current_range_meters":25600,"station_id":"ce4bgv12rcd13ifvqcp0","pricing_plan_id":"free"},{"bike_id":"21c212ba-81ae-4db9-9e3e-0045dd97a1b1","system_id":"levelo_inurba_marseille","lat":43.311722,"lon":5.387247,"is_reserved":false,"is_disabled":false,"rental_uris":{"android":"levelo://app?vid=21c212ba-81ae-4db9-9e3e-0045dd97a1b1","ios":"levelo://app?vid=21c212ba-81ae-4db9-9e3e-0045dd97a1b1"},"vehicle_type_id":"4","last_reported":1705954089,"current_range_meters":19200,"station_id":"ce4bgv12rcd13ifvqcp0","pricing_plan_id":"free"},{"bike_id":"b69dcf18-ce9c-41c9-8095-840c0ba4fd25","system_id":"levelo_inurba_marseille","lat":43.31169,"lon":5.3872,"is_reserved":false,"is_disabled":false,"rental_uris":{"android":"levelo://app?vid=b69dcf18-ce9c-41c9-8095-840c0ba4fd25","ios":"levelo://app?vid=b69dcf18-ce9c-41c9-8095-840c0ba4fd25"},"vehicle_type_id":"4","last_reported":1705954089,"current_range_meters":29200,"station_id":"ce4bgv12rcd13ifvqcp0","pricing_plan_id":"free"},{"bike_id":"70792a1d-c0e3-4359-96bd-482c0f0ea0ef","system_id":"levelo_inurba_marseille","lat":43.31186,"lon":5.38723,"is_reserved":false,"is_disabled":false,"rental_uris":{"android":"levelo://app?vid=70792a1d-c0e3-4359-96bd-482c0f0ea0ef","ios":"levelo://app?vid=70792a1d-c0e3-4359-96bd-482c0f0ea0ef"},"vehicle_type_id":"4","last_reported":1705954089,"current_range_meters":27200,"station_id":"ce4bgv12rcd13ifvqcp0","pricing_plan_id":"free"},{"bike_id":"84b64d9c-9c1c-41c1-bcec-1ec9166cf97a","system_id":"levelo_inurba_marseille","lat":43.311722,"lon":5.387247,"is_reserved":false,"is_disabled":false,"rental_uris":{"android":"levelo://app?vid=84b64d9c-9c1c-41c1-bcec-1ec9166cf97a","ios":"levelo://app?vid=84b64d9c-9c1c-41c1-bcec-1ec9166cf97a"},"vehicle_type_id":"4","last_reported":1705954089,"current_range_meters":16400,"station_id":"ce4bgv12rcd13ifvqcp0","pricing_plan_id":"free"},{"bike_id":"53d14889-b8b0-49e0-ac90-e08a16d60a3f","system_id":"levelo_inurba_marseille","lat":43.322872,"lon":5.382756,"is_reserved":false,"is_disabled":false,"rental_uris":{"android":"levelo://app?vid=53d14889-b8b0-49e0-ac90-e08a16d60a3f","ios":"levelo://app?vid=53d14889-b8b0-49e0-ac90-e08a16d60a3f"},"vehicle_type_id":"4","last_reported":1705954089,"current_range_meters":28400,"station_id":"ce4bhr12rcd13ifvqhqg","pricing_plan_id":"free"},{"bike_id":"ce7380a6-9e0a-44a5-99cf-b6d0d9568202","system_id":"levelo_inurba_marseille","lat":43.322872,"lon":5.382756,"is_reserved":false,"is_disabled":false,"rental_uris":{"android":"levelo://app?vid=ce7380a6-9e0a-44a5-99cf-b6d0d9568202","ios":"levelo://app?vid=ce7380a6-9e0a-44a5-99cf-b6d0d9568202"},"vehicle_type_id":"4","last_reported":1705954089,"current_range_meters":31600,"station_id":"ce4bhr12rcd13ifvqhqg","pricing_plan_id":"free"},{"bike_id":"6587e751-0a88-45a7-b743-62d7688f1cc7","system_id":"levelo_inurba_marseille","lat":43.322872,"lon":5.382756,"is_reserved":false,"is_disabled":false,"rental_uris":{"android":"levelo://app?vid=6587e751-0a88-45a7-b743-62d7688f1cc7","ios":"levelo://app?vid=6587e751-0a88-45a7-b743-62d7688f1cc7"},"vehicle_type_id":"4","last_reported":1705954089,"current_range_meters":6000,"station_id":"ce4bhr12rcd13ifvqhqg","pricing_plan_id":"free"},{"bike_id":"95e0f6dd-23c8-4c9b-b51f-b801063ec866","system_id":"levelo_inurba_marseille","lat":43.322872,"lon":5.382756,"is_reserved":false,"is_disabled":false,"rental_uris":{"android":"levelo://app?vid=95e0f6dd-23c8-4c9b-b51f-b801063ec866","ios":"levelo://app?vid=95e0f6dd-23c8-4c9b-b51f-b801063ec866"},"vehicle_type_id":"4","last_reported":1705954089,"current_range_meters":31600,"station_id":"ce4bhr12rcd13ifvqhqg","pricing_plan_id":"free"},{"bike_id":"6e3660e2-8481-4369-b311-da163b64490d","system_id":"levelo_inurba_marseille","lat":43.322872,"lon":5.382756,"is_reserved":false,"is_disabled":false,"rental_uris":{"android":"levelo://app?vid=6e3660e2-8481-4369-b311-da163b64490d","ios":"levelo://app?vid=6e3660e2-8481-4369-b311-da163b64490d"},"vehicle_type_id":"4","last_reported":1705954089,"current_range_meters":20000,"station_id":"ce4bhr12rcd13ifvqhqg","pricing_plan_id":"free"},{"bike_id":"f99877a8-0a34-4778-a1bc-c3af444678b0","system_id":"levelo_inurba_marseille","lat":43.322872,"lon":5.382756,"is_reserved":false,"is_disabled":false,"rental_uris":{"android":"levelo://app?vid=f99877a8-0a34-4778-a1bc-c3af444678b0","ios":"levelo://app?vid=f99877a8-0a34-4778-a1bc-c3af444678b0"},"vehicle_type_id":"4","last_reported":1705954089,"current_range_meters":6000,"station_id":"ce4bhr12rcd13ifvqhqg","pricing_plan_id":"free"},{"bike_id":"447532c0-56ca-46ac-9000-fea47d81b433","system_id":"levelo_inurba_marseille","lat":43.328239,"lon":5.366768,"is_reserved":false,"is_disabled":false,"rental_uris":{"android":"levelo://app?vid=447532c0-56ca-46ac-9000-fea47d81b433","ios":"levelo://app?vid=447532c0-56ca-46ac-9000-fea47d81b433"},"vehicle_type_id":"4","last_reported":1705954089,"current_range_meters":30400,"station_id":"ce4bhs92rcd13ifvqi0g","pricing_plan_id":"free"},{"bike_id":"572c30ca-2698-4ebb-9720-28d9ee8291d9","system_id":"levelo_inurba_marseille","lat":43.32826,"lon":5.36674,"is_reserved":false,"is_disabled":false,"rental_uris":{"android":"levelo://app?vid=572c30ca-2698-4ebb-9720-28d9ee8291d9","ios":"levelo://app?vid=572c30ca-2698-4ebb-9720-28d9ee8291d9"},"vehicle_type_id":"4","last_reported":1705954089,"current_range_meters":21600,"station_id":"ce4bhs92rcd13ifvqi0g","pricing_plan_id":"free"},{"bike_id":"85cedcff-9e9a-415d-8415-195178ea3cb7","system_id":"levelo_inurba_marseille","lat":43.328261,"lon":5.366758,"is_reserved":false,"is_disabled":false,"rental_uris":{"android":"levelo://app?vid=85cedcff-9e9a-415d-8415-195178ea3cb7","ios":"levelo://app?vid=85cedcff-9e9a-415d-8415-195178ea3cb7"},"vehicle_type_id":"4","last_reported":1705954089,"current_range_meters":16000,"station_id":"ce4bhs92rcd13ifvqi0g","pricing_plan_id":"free"},{"bike_id":"ea0178f3-2c6b-4af6-b062-91b0b8dde1df","system_id":"levelo_inurba_marseille","lat":43.32827,"lon":5.36678,"is_reserved":false,"is_disabled":false,"rental_uris":{"android":"levelo://app?vid=ea0178f3-2c6b-4af6-b062-91b0b8dde1df","ios":"levelo://app?vid=ea0178f3-2c6b-4af6-b062-91b0b8dde1df"},"vehicle_type_id":"4","last_reported":1705954089,"current_range_meters":14000,"station_id":"ce4bhs92rcd13ifvqi0g","pricing_plan_id":"free"},{"bike_id":"38d4b3c6-c1c4-4ada-b0ed-8e6826ac2770","system_id":"levelo_inurba_marseille","lat":43.328371,"lon":5.366909,"is_reserved":false,"is_disabled":false,"rental_uris":{"android":"levelo://app?vid=38d4b3c6-c1c4-4ada-b0ed-8e6826ac2770","ios":"levelo://app?vid=38d4b3c6-c1c4-4ada-b0ed-8e6826ac2770"},"vehicle_type_id":"4","last_reported":1705954089,"current_range_meters":21200,"station_id":"ce4bhs92rcd13ifvqi0g","pricing_plan_id":"free"},{"bike_id":"6da9db5a-42ba-4fa8-afc9-4fdbb45498c1","system_id":"levelo_inurba_marseille","lat":43.32828,"lon":5.36674,"is_reserved":false,"is_disabled":false,"rental_uris":{"android":"levelo://app?vid=6da9db5a-42ba-4fa8-afc9-4fdbb45498c1","ios":"levelo://app?vid=6da9db5a-42ba-4fa8-afc9-4fdbb45498c1"},"vehicle_type_id":"4","last_reported":1705954089,"current_range_meters":22800,"station_id":"ce4bhs92rcd13ifvqi0g","pricing_plan_id":"free"},{"bike_id":"5b7aaccd-f0dd-4bc4-a5b7-1581df3aca1d","system_id":"levelo_inurba_marseille","lat":43.328371,"lon":5.366909,"is_reserved":false,"is_disabled":false,"rental_uris":{"android":"levelo://app?vid=5b7aaccd-f0dd-4bc4-a5b7-1581df3aca1d","ios":"levelo://app?vid=5b7aaccd-f0dd-4bc4-a5b7-1581df3aca1d"},"vehicle_type_id":"4","last_reported":1705954089,"current_range_meters":18800,"station_id":"ce4bhs92rcd13ifvqi0g","pricing_plan_id":"free"},{"bike_id":"73755ba0-1381-4d5d-8750-d3a07d3f4c75","system_id":"levelo_inurba_marseille","lat":43.3283,"lon":5.36692,"is_reserved":false,"is_disabled":false,"rental_uris":{"android":"levelo://app?vid=73755ba0-1381-4d5d-8750-d3a07d3f4c75","ios":"levelo://app?vid=73755ba0-1381-4d5d-8750-d3a07d3f4c75"},"vehicle_type_id":"4","last_reported":1705954089,"current_range_meters":14000,"station_id":"ce4bhs92rcd13ifvqi0g","pricing_plan_id":"free"},{"bike_id":"8e2e258c-9f25-408c-8291-bf6e5ba33180","system_id":"levelo_inurba_marseille","lat":43.328371,"lon":5.366909,"is_reserved":false,"is_disabled":false,"rental_uris":{"android":"levelo://app?vid=8e2e258c-9f25-408c-8291-bf6e5ba33180","ios":"levelo://app?vid=8e2e258c-9f25-408c-8291-bf6e5ba33180"},"vehicle_type_id":"4","last_reported":1705954089,"current_range_meters":31200,"station_id":"ce4bhs92rcd13ifvqi0g","pricing_plan_id":"free"},{"bike_id":"d8b5260c-205c-4300-9784-22ead2fde86f","system_id":"levelo_inurba_marseille","lat":43.328371,"lon":5.366909,"is_reserved":false,"is_disabled":false,"rental_uris":{"android":"levelo://app?vid=d8b5260c-205c-4300-9784-22ead2fde86f","ios":"levelo://app?vid=d8b5260c-205c-4300-9784-22ead2fde86f"},"vehicle_type_id":"4","last_reported":1705954089,"current_range_meters":22400,"station_id":"ce4bhs92rcd13ifvqi0g","pricing_plan_id":"free"},{"bike_id":"e92d083a-dfb9-464f-a2d7-ffc480709cb3","system_id":"levelo_inurba_marseille","lat":43.328371,"lon":5.366912,"is_reserved":false,"is_disabled":false,"rental_uris":{"android":"levelo://app?vid=e92d083a-dfb9-464f-a2d7-ffc480709cb3","ios":"levelo://app?vid=e92d083a-dfb9-464f-a2d7-ffc480709cb3"},"vehicle_type_id":"4","last_reported":1705954089,"current_range_meters":17600,"station_id":"ce4bhs92rcd13ifvqi0g","pricing_plan_id":"free"},{"bike_id":"b982bee1-d32f-45f2-a873-826a3328017e","system_id":"levelo_inurba_marseille","lat":43.328303,"lon":5.366813,"is_reserved":false,"is_disabled":false,"rental_uris":{"android":"levelo://app?vid=b982bee1-d32f-45f2-a873-826a3328017e","ios":"levelo://app?vid=b982bee1-d32f-45f2-a873-826a3328017e"},"vehicle_type_id":"4","last_reported":1705954089,"current_range_meters":22000,"station_id":"ce4bhs92rcd13ifvqi0g","pricing_plan_id":"free"},{"bike_id":"f529af8b-6eb5-4dad-b929-2be8fdbdd47b","system_id":"levelo_inurba_marseille","lat":43.328371,"lon":5.366909,"is_reserved":false,"is_disabled":false,"rental_uris":{"android":"levelo://app?vid=f529af8b-6eb5-4dad-b929-2be8fdbdd47b","ios":"levelo://app?vid=f529af8b-6eb5-4dad-b929-2be8fdbdd47b"},"vehicle_type_id":"4","last_reported":1705954089,"current_range_meters":11600,"station_id":"ce4bhs92rcd13ifvqi0g","pricing_plan_id":"free"},{"bike_id":"d971af84-f55e-4f02-aa54-b2ecac82a0f2","system_id":"levelo_inurba_marseille","lat":43.328371,"lon":5.366909,"is_reserved":false,"is_disabled":false,"rental_uris":{"android":"levelo://app?vid=d971af84-f55e-4f02-aa54-b2ecac82a0f2","ios":"levelo://app?vid=d971af84-f55e-4f02-aa54-b2ecac82a0f2"},"vehicle_type_id":"4","last_reported":1705954089,"current_range_meters":10000,"station_id":"ce4bhs92rcd13ifvqi0g","pricing_plan_id":"free"},{"bike_id":"a0edd8cb-2542-42e6-b896-1ede22883afb","system_id":"levelo_inurba_marseille","lat":43.297163,"lon":5.365866,"is_reserved":false,"is_disabled":false,"rental_uris":{"android":"levelo://app?vid=a0edd8cb-2542-42e6-b896-1ede22883afb","ios":"levelo://app?vid=a0edd8cb-2542-42e6-b896-1ede22883afb"},"vehicle_type_id":"4","last_reported":1705954089,"current_range_meters":19600,"station_id":"ce4bgn12rcd13ifvqbt0","pricing_plan_id":"free"},{"bike_id":"204738f6-469d-4db3-bd14-c2b38ef5e726","system_id":"levelo_inurba_marseille","lat":43.328371,"lon":5.366912,"is_reserved":false,"is_disabled":false,"rental_uris":{"android":"levelo://app?vid=204738f6-469d-4db3-bd14-c2b38ef5e726","ios":"levelo://app?vid=204738f6-469d-4db3-bd14-c2b38ef5e726"},"vehicle_type_id":"4","last_reported":1705954089,"current_range_meters":28000,"station_id":"ce4bhs92rcd13ifvqi0g","pricing_plan_id":"free"},{"bike_id":"ce25d3b4-a15b-4708-aaa0-fbf5f986437b","system_id":"levelo_inurba_marseille","lat":43.328371,"lon":5.366909,"is_reserved":false,"is_disabled":false,"rental_uris":{"android":"levelo://app?vid=ce25d3b4-a15b-4708-aaa0-fbf5f986437b","ios":"levelo://app?vid=ce25d3b4-a15b-4708-aaa0-fbf5f986437b"},"vehicle_type_id":"4","last_reported":1705954089,"current_range_meters":400,"station_id":"ce4bhs92rcd13ifvqi0g","pricing_plan_id":"free"},{"bike_id":"c2b0fd49-b34c-4657-9dca-0e7737fe8246","system_id":"levelo_inurba_marseille","lat":43.297163,"lon":5.365866,"is_reserved":false,"is_disabled":false,"rental_uris":{"android":"levelo://app?vid=c2b0fd49-b34c-4657-9dca-0e7737fe8246","ios":"levelo://app?vid=c2b0fd49-b34c-4657-9dca-0e7737fe8246"},"vehicle_type_id":"4","last_reported":1705954089,"current_range_meters":26000,"station_id":"ce4bgn12rcd13ifvqbt0","pricing_plan_id":"free"},{"bike_id":"c3d80f5f-3039-4e02-bec9-8c34cb276b88","system_id":"levelo_inurba_marseille","lat":43.297163,"lon":5.365866,"is_reserved":false,"is_disabled":false,"rental_uris":{"android":"levelo://app?vid=c3d80f5f-3039-4e02-bec9-8c34cb276b88","ios":"levelo://app?vid=c3d80f5f-3039-4e02-bec9-8c34cb276b88"},"vehicle_type_id":"4","last_reported":1705954089,"current_range_meters":27200,"station_id":"ce4bgn12rcd13ifvqbt0","pricing_plan_id":"free"},{"bike_id":"38082c03-fac1-44d3-a79f-5142b4a113a9","system_id":"levelo_inurba_marseille","lat":43.328373,"lon":5.366902,"is_reserved":false,"is_disabled":false,"rental_uris":{"android":"levelo://app?vid=38082c03-fac1-44d3-a79f-5142b4a113a9","ios":"levelo://app?vid=38082c03-fac1-44d3-a79f-5142b4a113a9"},"vehicle_type_id":"4","last_reported":1705954089,"current_range_meters":17200,"station_id":"ce4bhs92rcd13ifvqi0g","pricing_plan_id":"free"},{"bike_id":"1fc1b3c8-8014-4f08-8c9e-d4e199361bae","system_id":"levelo_inurba_marseille","lat":43.297163,"lon":5.365866,"is_reserved":false,"is_disabled":false,"rental_uris":{"android":"levelo://app?vid=1fc1b3c8-8014-4f08-8c9e-d4e199361bae","ios":"levelo://app?vid=1fc1b3c8-8014-4f08-8c9e-d4e199361bae"},"vehicle_type_id":"4","last_reported":1705954089,"current_range_meters":1600,"station_id":"ce4bgn12rcd13ifvqbt0","pricing_plan_id":"free"},{"bike_id":"3198ef48-afa7-4436-a5cf-0ea4b60dbdc2","system_id":"levelo_inurba_marseille","lat":43.297163,"lon":5.365866,"is_reserved":false,"is_disabled":false,"rental_uris":{"android":"levelo://app?vid=3198ef48-afa7-4436-a5cf-0ea4b60dbdc2","ios":"levelo://app?vid=3198ef48-afa7-4436-a5cf-0ea4b60dbdc2"},"vehicle_type_id":"4","last_reported":1705954089,"current_range_meters":24800,"station_id":"ce4bgn12rcd13ifvqbt0","pricing_plan_id":"free"},{"bike_id":"7284d800-df30-42a8-ab33-049e249c2570","system_id":"levelo_inurba_marseille","lat":43.297163,"lon":5.365866,"is_reserved":false,"is_disabled":false,"rental_uris":{"android":"levelo://app?vid=7284d800-df30-42a8-ab33-049e249c2570","ios":"levelo://app?vid=7284d800-df30-42a8-ab33-049e249c2570"},"vehicle_type_id":"4","last_reported":1705954089,"current_range_meters":19200,"station_id":"ce4bgn12rcd13ifvqbt0","pricing_plan_id":"free"},{"bike_id":"8309bb09-6c52-4739-a21f-712694bf4031","system_id":"levelo_inurba_marseille","lat":43.297163,"lon":5.365866,"is_reserved":false,"is_disabled":false,"rental_uris":{"android":"levelo://app?vid=8309bb09-6c52-4739-a21f-712694bf4031","ios":"levelo://app?vid=8309bb09-6c52-4739-a21f-712694bf4031"},"vehicle_type_id":"4","last_reported":1705954089,"current_range_meters":800,"station_id":"ce4bgn12rcd13ifvqbt0","pricing_plan_id":"free"},{"bike_id":"4ccf9062-320c-4f80-b094-99da8496638e","system_id":"levelo_inurba_marseille","lat":43.297163,"lon":5.365866,"is_reserved":false,"is_disabled":false,"rental_uris":{"android":"levelo://app?vid=4ccf9062-320c-4f80-b094-99da8496638e","ios":"levelo://app?vid=4ccf9062-320c-4f80-b094-99da8496638e"},"vehicle_type_id":"4","last_reported":1705954089,"current_range_meters":26400,"station_id":"ce4bgn12rcd13ifvqbt0","pricing_plan_id":"free"},{"bike_id":"cddaade1-dbc6-4f74-b43b-60b54cb9468b","system_id":"levelo_inurba_marseille","lat":43.2968,"lon":5.37291,"is_reserved":false,"is_disabled":false,"rental_uris":{"android":"levelo://app?vid=cddaade1-dbc6-4f74-b43b-60b54cb9468b","ios":"levelo://app?vid=cddaade1-dbc6-4f74-b43b-60b54cb9468b"},"vehicle_type_id":"4","last_reported":1705954089,"current_range_meters":7600,"station_id":"ce4bgk12rcd13ifvqbj0","pricing_plan_id":"free"},{"bike_id":"743af4ba-62de-49ce-9b8d-92b78bd7ac53","system_id":"levelo_inurba_marseille","lat":43.2968,"lon":5.37291,"is_reserved":false,"is_disabled":false,"rental_uris":{"android":"levelo://app?vid=743af4ba-62de-49ce-9b8d-92b78bd7ac53","ios":"levelo://app?vid=743af4ba-62de-49ce-9b8d-92b78bd7ac53"},"vehicle_type_id":"4","last_reported":1705954089,"current_range_meters":19200,"station_id":"ce4bgk12rcd13ifvqbj0","pricing_plan_id":"free"},{"bike_id":"270d5895-26cd-4bf8-964b-4a78373d0069","system_id":"levelo_inurba_marseille","lat":43.296131,"lon":5.370791,"is_reserved":false,"is_disabled":false,"rental_uris":{"android":"levelo://app?vid=270d5895-26cd-4bf8-964b-4a78373d0069","ios":"levelo://app?vid=270d5895-26cd-4bf8-964b-4a78373d0069"},"vehicle_type_id":"4","last_reported":1705954089,"current_range_meters":30800,"station_id":"ce4bgnh2rcd13ifvqc0g","pricing_plan_id":"free"},{"bike_id":"83703cd9-7f37-48d9-be1b-c66daaca8868","system_id":"levelo_inurba_marseille","lat":43.296131,"lon":5.370773,"is_reserved":false,"is_disabled":false,"rental_uris":{"android":"levelo://app?vid=83703cd9-7f37-48d9-be1b-c66daaca8868","ios":"levelo://app?vid=83703cd9-7f37-48d9-be1b-c66daaca8868"},"vehicle_type_id":"4","last_reported":1705954089,"current_range_meters":5200,"station_id":"ce4bgnh2rcd13ifvqc0g","pricing_plan_id":"free"},{"bike_id":"6c29d6c7-864b-404d-a9de-ab34fb358996","system_id":"levelo_inurba_marseille","lat":43.295825,"lon":5.367753,"is_reserved":false,"is_disabled":false,"rental_uris":{"android":"levelo://app?vid=6c29d6c7-864b-404d-a9de-ab34fb358996","ios":"levelo://app?vid=6c29d6c7-864b-404d-a9de-ab34fb358996"},"vehicle_type_id":"4","last_reported":1705954089,"current_range_meters":20800,"station_id":"","pricing_plan_id":"free"},{"bike_id":"efe0993e-2cfa-4434-b04a-7604ae42c998","system_id":"levelo_inurba_marseille","lat":43.296935,"lon":5.376544,"is_reserved":false,"is_disabled":false,"rental_uris":{"android":"levelo://app?vid=efe0993e-2cfa-4434-b04a-7604ae42c998","ios":"levelo://app?vid=efe0993e-2cfa-4434-b04a-7604ae42c998"},"vehicle_type_id":"4","last_reported":1705954089,"current_range_meters":31200,"station_id":"ce4bgkh2rcd13ifvqbl0","pricing_plan_id":"free"},{"bike_id":"92db50ef-0964-4cb1-9e29-520ada2d2f4e","system_id":"levelo_inurba_marseille","lat":43.309589,"lon":5.390258,"is_reserved":false,"is_disabled":false,"rental_uris":{"android":"levelo://app?vid=92db50ef-0964-4cb1-9e29-520ada2d2f4e","ios":"levelo://app?vid=92db50ef-0964-4cb1-9e29-520ada2d2f4e"},"vehicle_type_id":"4","last_reported":1705954089,"current_range_meters":15200,"station_id":"ce4bgup2rcd13ifvqco0","pricing_plan_id":"free"},{"bike_id":"205e53d9-a870-4fd0-9529-5b15eb242dea","system_id":"levelo_inurba_marseille","lat":43.317557,"lon":5.390173,"is_reserved":false,"is_disabled":false,"rental_uris":{"android":"levelo://app?vid=205e53d9-a870-4fd0-9529-5b15eb242dea","ios":"levelo://app?vid=205e53d9-a870-4fd0-9529-5b15eb242dea"},"vehicle_type_id":"4","last_reported":1705954089,"current_range_meters":3600,"station_id":"ce4bhqp2rcd13ifvqhng","pricing_plan_id":"free"},{"bike_id":"60f8e810-5a47-4358-afa3-8a87516f0d00","system_id":"levelo_inurba_marseille","lat":43.317557,"lon":5.390173,"is_reserved":false,"is_disabled":false,"rental_uris":{"android":"levelo://app?vid=60f8e810-5a47-4358-afa3-8a87516f0d00","ios":"levelo://app?vid=60f8e810-5a47-4358-afa3-8a87516f0d00"},"vehicle_type_id":"4","last_reported":1705954089,"current_range_meters":20000,"station_id":"ce4bhqp2rcd13ifvqhng","pricing_plan_id":"free"},{"bike_id":"f3c8de66-7ad2-4aea-acd7-5cc0c0f4675c","system_id":"levelo_inurba_marseille","lat":43.317557,"lon":5.390173,"is_reserved":false,"is_disabled":false,"rental_uris":{"android":"levelo://app?vid=f3c8de66-7ad2-4aea-acd7-5cc0c0f4675c","ios":"levelo://app?vid=f3c8de66-7ad2-4aea-acd7-5cc0c0f4675c"},"vehicle_type_id":"4","last_reported":1705954089,"current_range_meters":28800,"station_id":"ce4bhqp2rcd13ifvqhng","pricing_plan_id":"free"},{"bike_id":"2b5da60d-3f1d-4c41-9c8a-584482c25210","system_id":"levelo_inurba_marseille","lat":43.317557,"lon":5.390173,"is_reserved":false,"is_disabled":false,"rental_uris":{"android":"levelo://app?vid=2b5da60d-3f1d-4c41-9c8a-584482c25210","ios":"levelo://app?vid=2b5da60d-3f1d-4c41-9c8a-584482c25210"},"vehicle_type_id":"4","last_reported":1705954089,"current_range_meters":28000,"station_id":"ce4bhqp2rcd13ifvqhng","pricing_plan_id":"free"},{"bike_id":"e67feb8c-37c8-4273-b68c-76a37047730c","system_id":"levelo_inurba_marseille","lat":43.317557,"lon":5.390173,"is_reserved":false,"is_disabled":false,"rental_uris":{"android":"levelo://app?vid=e67feb8c-37c8-4273-b68c-76a37047730c","ios":"levelo://app?vid=e67feb8c-37c8-4273-b68c-76a37047730c"},"vehicle_type_id":"4","last_reported":1705954089,"current_range_meters":23600,"station_id":"ce4bhqp2rcd13ifvqhng","pricing_plan_id":"free"},{"bike_id":"e7cd14d1-f322-4187-88d1-3e98948dc915","system_id":"levelo_inurba_marseille","lat":43.298764,"lon":5.388973,"is_reserved":false,"is_disabled":false,"rental_uris":{"android":"levelo://app?vid=e7cd14d1-f322-4187-88d1-3e98948dc915","ios":"levelo://app?vid=e7cd14d1-f322-4187-88d1-3e98948dc915"},"vehicle_type_id":"4","last_reported":1705954089,"current_range_meters":2800,"station_id":"ce4bh392rcd13ifvqdl0","pricing_plan_id":"free"},{"bike_id":"2db38b86-e92c-4eb3-bdb1-455527ef5f9c","system_id":"levelo_inurba_marseille","lat":43.298037,"lon":5.381066,"is_reserved":false,"is_disabled":false,"rental_uris":{"android":"levelo://app?vid=2db38b86-e92c-4eb3-bdb1-455527ef5f9c","ios":"levelo://app?vid=2db38b86-e92c-4eb3-bdb1-455527ef5f9c"},"vehicle_type_id":"4","last_reported":1705954089,"current_range_meters":0,"station_id":"ce4bgip2rcd13ifvqbb0","pricing_plan_id":"free"},{"bike_id":"9b985c14-dfdc-4f99-b667-f1d6c4cdea8d","system_id":"levelo_inurba_marseille","lat":43.29805,"lon":5.38094,"is_reserved":false,"is_disabled":false,"rental_uris":{"android":"levelo://app?vid=9b985c14-dfdc-4f99-b667-f1d6c4cdea8d","ios":"levelo://app?vid=9b985c14-dfdc-4f99-b667-f1d6c4cdea8d"},"vehicle_type_id":"4","last_reported":1705954089,"current_range_meters":0,"station_id":"ce4bgip2rcd13ifvqbb0","pricing_plan_id":"free"},{"bike_id":"13129b1b-9ea1-469a-8efa-97c5a2de1fc9","system_id":"levelo_inurba_marseille","lat":43.304278,"lon":5.388868,"is_reserved":false,"is_disabled":false,"rental_uris":{"android":"levelo://app?vid=13129b1b-9ea1-469a-8efa-97c5a2de1fc9","ios":"levelo://app?vid=13129b1b-9ea1-469a-8efa-97c5a2de1fc9"},"vehicle_type_id":"4","last_reported":1705954089,"current_range_meters":21600,"station_id":"ce4bgk12rcd13ifvqbi0","pricing_plan_id":"free"},{"bike_id":"56951a0a-d108-4932-aeb8-c6fc7f2840ea","system_id":"levelo_inurba_marseille","lat":43.304274,"lon":5.388873,"is_reserved":false,"is_disabled":false,"rental_uris":{"android":"levelo://app?vid=56951a0a-d108-4932-aeb8-c6fc7f2840ea","ios":"levelo://app?vid=56951a0a-d108-4932-aeb8-c6fc7f2840ea"},"vehicle_type_id":"4","last_reported":1705954089,"current_range_meters":26800,"station_id":"ce4bgk12rcd13ifvqbi0","pricing_plan_id":"free"},{"bike_id":"a2ee2b1f-3dcb-4649-ae9c-517d30f8b95d","system_id":"levelo_inurba_marseille","lat":43.304274,"lon":5.388873,"is_reserved":false,"is_disabled":false,"rental_uris":{"android":"levelo://app?vid=a2ee2b1f-3dcb-4649-ae9c-517d30f8b95d","ios":"levelo://app?vid=a2ee2b1f-3dcb-4649-ae9c-517d30f8b95d"},"vehicle_type_id":"4","last_reported":1705954089,"current_range_meters":14000,"station_id":"ce4bgk12rcd13ifvqbi0","pricing_plan_id":"free"},{"bike_id":"e4e36fd3-8336-4af1-bd74-ce9f4f781617","system_id":"levelo_inurba_marseille","lat":43.29787,"lon":5.38111,"is_reserved":false,"is_disabled":false,"rental_uris":{"android":"levelo://app?vid=e4e36fd3-8336-4af1-bd74-ce9f4f781617","ios":"levelo://app?vid=e4e36fd3-8336-4af1-bd74-ce9f4f781617"},"vehicle_type_id":"4","last_reported":1705954089,"current_range_meters":0,"station_id":"ce4bgip2rcd13ifvqbb0","pricing_plan_id":"free"},{"bike_id":"503278bd-f799-49fb-8814-78afe9680125","system_id":"levelo_inurba_marseille","lat":43.304278,"lon":5.388868,"is_reserved":false,"is_disabled":false,"rental_uris":{"android":"levelo://app?vid=503278bd-f799-49fb-8814-78afe9680125","ios":"levelo://app?vid=503278bd-f799-49fb-8814-78afe9680125"},"vehicle_type_id":"4","last_reported":1705954089,"current_range_meters":1200,"station_id":"ce4bgk12rcd13ifvqbi0","pricing_plan_id":"free"},{"bike_id":"42463217-3a8e-4a5d-8792-22dc1bc277e0","system_id":"levelo_inurba_marseille","lat":43.295279,"lon":5.375048,"is_reserved":false,"is_disabled":false,"rental_uris":{"android":"levelo://app?vid=42463217-3a8e-4a5d-8792-22dc1bc277e0","ios":"levelo://app?vid=42463217-3a8e-4a5d-8792-22dc1bc277e0"},"vehicle_type_id":"4","last_reported":1705954089,"current_range_meters":400,"station_id":"ce4bgkp2rcd13ifvqbmg","pricing_plan_id":"free"},{"bike_id":"50a84e58-3cda-401f-a445-90887246fa7c","system_id":"levelo_inurba_marseille","lat":43.295279,"lon":5.375048,"is_reserved":false,"is_disabled":false,"rental_uris":{"android":"levelo://app?vid=50a84e58-3cda-401f-a445-90887246fa7c","ios":"levelo://app?vid=50a84e58-3cda-401f-a445-90887246fa7c"},"vehicle_type_id":"4","last_reported":1705954089,"current_range_meters":0,"station_id":"ce4bgkp2rcd13ifvqbmg","pricing_plan_id":"free"},{"bike_id":"d165c593-dd6a-45ed-8729-4b2e2207b0bf","system_id":"levelo_inurba_marseille","lat":43.32367,"lon":5.388836,"is_reserved":false,"is_disabled":false,"rental_uris":{"android":"levelo://app?vid=d165c593-dd6a-45ed-8729-4b2e2207b0bf","ios":"levelo://app?vid=d165c593-dd6a-45ed-8729-4b2e2207b0bf"},"vehicle_type_id":"4","last_reported":1705954089,"current_range_meters":22000,"station_id":"ce4bhqp2rcd13ifvqhog","pricing_plan_id":"free"},{"bike_id":"312bb58b-4ab0-4fc3-8653-7ed2c3f2b02d","system_id":"levelo_inurba_marseille","lat":43.32367,"lon":5.388836,"is_reserved":false,"is_disabled":false,"rental_uris":{"android":"levelo://app?vid=312bb58b-4ab0-4fc3-8653-7ed2c3f2b02d","ios":"levelo://app?vid=312bb58b-4ab0-4fc3-8653-7ed2c3f2b02d"},"vehicle_type_id":"4","last_reported":1705954089,"current_range_meters":6800,"station_id":"ce4bhqp2rcd13ifvqhog","pricing_plan_id":"free"},{"bike_id":"5a94c056-ab27-40da-81c8-6a87a7dbd5b2","system_id":"levelo_inurba_marseille","lat":43.32367,"lon":5.388836,"is_reserved":false,"is_disabled":false,"rental_uris":{"android":"levelo://app?vid=5a94c056-ab27-40da-81c8-6a87a7dbd5b2","ios":"levelo://app?vid=5a94c056-ab27-40da-81c8-6a87a7dbd5b2"},"vehicle_type_id":"4","last_reported":1705954089,"current_range_meters":24800,"station_id":"ce4bhqp2rcd13ifvqhog","pricing_plan_id":"free"},{"bike_id":"6d5ea52f-2d63-414f-b948-62b84897cbe7","system_id":"levelo_inurba_marseille","lat":43.32361,"lon":5.38887,"is_reserved":false,"is_disabled":false,"rental_uris":{"android":"levelo://app?vid=6d5ea52f-2d63-414f-b948-62b84897cbe7","ios":"levelo://app?vid=6d5ea52f-2d63-414f-b948-62b84897cbe7"},"vehicle_type_id":"4","last_reported":1705954089,"current_range_meters":8400,"station_id":"ce4bhqp2rcd13ifvqhog","pricing_plan_id":"free"},{"bike_id":"c7253817-d8ac-4c88-a4fb-3885b520e4cf","system_id":"levelo_inurba_marseille","lat":43.32367,"lon":5.388836,"is_reserved":false,"is_disabled":false,"rental_uris":{"android":"levelo://app?vid=c7253817-d8ac-4c88-a4fb-3885b520e4cf","ios":"levelo://app?vid=c7253817-d8ac-4c88-a4fb-3885b520e4cf"},"vehicle_type_id":"4","last_reported":1705954089,"current_range_meters":20400,"station_id":"ce4bhqp2rcd13ifvqhog","pricing_plan_id":"free"},{"bike_id":"48b61ba6-1be8-4f51-a657-38965ca79743","system_id":"levelo_inurba_marseille","lat":43.32367,"lon":5.388836,"is_reserved":false,"is_disabled":false,"rental_uris":{"android":"levelo://app?vid=48b61ba6-1be8-4f51-a657-38965ca79743","ios":"levelo://app?vid=48b61ba6-1be8-4f51-a657-38965ca79743"},"vehicle_type_id":"4","last_reported":1705954089,"current_range_meters":12800,"station_id":"ce4bhqp2rcd13ifvqhog","pricing_plan_id":"free"},{"bike_id":"02a1f268-92dc-41b2-b036-305e4dd3e4f4","system_id":"levelo_inurba_marseille","lat":43.32367,"lon":5.388836,"is_reserved":false,"is_disabled":false,"rental_uris":{"android":"levelo://app?vid=02a1f268-92dc-41b2-b036-305e4dd3e4f4","ios":"levelo://app?vid=02a1f268-92dc-41b2-b036-305e4dd3e4f4"},"vehicle_type_id":"4","last_reported":1705954089,"current_range_meters":1200,"station_id":"ce4bhqp2rcd13ifvqhog","pricing_plan_id":"free"},{"bike_id":"4a4d2dfc-55bc-4e74-ab1b-c83ba9a79873","system_id":"levelo_inurba_marseille","lat":43.32374,"lon":5.38886,"is_reserved":false,"is_disabled":false,"rental_uris":{"android":"levelo://app?vid=4a4d2dfc-55bc-4e74-ab1b-c83ba9a79873","ios":"levelo://app?vid=4a4d2dfc-55bc-4e74-ab1b-c83ba9a79873"},"vehicle_type_id":"4","last_reported":1705954089,"current_range_meters":30000,"station_id":"ce4bhqp2rcd13ifvqhog","pricing_plan_id":"free"},{"bike_id":"8f37fa90-04e7-463e-bc5c-fe915089bd0a","system_id":"levelo_inurba_marseille","lat":43.305994,"lon":5.393687,"is_reserved":false,"is_disabled":false,"rental_uris":{"android":"levelo://app?vid=8f37fa90-04e7-463e-bc5c-fe915089bd0a","ios":"levelo://app?vid=8f37fa90-04e7-463e-bc5c-fe915089bd0a"},"vehicle_type_id":"4","last_reported":1705954089,"current_range_meters":0,"station_id":"ce4bh0p2rcd13ifvqd80","pricing_plan_id":"free"},{"bike_id":"0e6b21ed-343e-482f-b162-8f38eda9c47a","system_id":"levelo_inurba_marseille","lat":43.293,"lon":5.37465,"is_reserved":false,"is_disabled":false,"rental_uris":{"android":"levelo://app?vid=0e6b21ed-343e-482f-b162-8f38eda9c47a","ios":"levelo://app?vid=0e6b21ed-343e-482f-b162-8f38eda9c47a"},"vehicle_type_id":"4","last_reported":1705954089,"current_range_meters":800,"station_id":"ce4bgi12rcd13ifvqb70","pricing_plan_id":"free"},{"bike_id":"a7d583b1-b6b7-4d30-8eb9-1f308e7b4037","system_id":"levelo_inurba_marseille","lat":43.313291,"lon":5.396838,"is_reserved":false,"is_disabled":false,"rental_uris":{"android":"levelo://app?vid=a7d583b1-b6b7-4d30-8eb9-1f308e7b4037","ios":"levelo://app?vid=a7d583b1-b6b7-4d30-8eb9-1f308e7b4037"},"vehicle_type_id":"4","last_reported":1705954089,"current_range_meters":22800,"station_id":"ce4bgvp2rcd13ifvqcu0","pricing_plan_id":"free"},{"bike_id":"b3709726-db8b-4827-9e8d-08f88f81a08e","system_id":"levelo_inurba_marseille","lat":43.2936,"lon":5.37835,"is_reserved":false,"is_disabled":false,"rental_uris":{"android":"levelo://app?vid=b3709726-db8b-4827-9e8d-08f88f81a08e","ios":"levelo://app?vid=b3709726-db8b-4827-9e8d-08f88f81a08e"},"vehicle_type_id":"4","last_reported":1705954089,"current_range_meters":14800,"station_id":"ce4bgjh2rcd13ifvqbf0","pricing_plan_id":"free"},{"bike_id":"82bac48e-95b5-4f9b-96cb-fb1d297a6139","system_id":"levelo_inurba_marseille","lat":43.292311,"lon":5.360731,"is_reserved":false,"is_disabled":false,"rental_uris":{"android":"levelo://app?vid=82bac48e-95b5-4f9b-96cb-fb1d297a6139","ios":"levelo://app?vid=82bac48e-95b5-4f9b-96cb-fb1d297a6139"},"vehicle_type_id":"4","last_reported":1705954089,"current_range_meters":12000,"station_id":"ce4bhbh2rcd13ifvqeqg","pricing_plan_id":"free"},{"bike_id":"f9bdfaca-444e-4121-b01b-bcffbc5fa014","system_id":"levelo_inurba_marseille","lat":43.30085,"lon":5.390856,"is_reserved":false,"is_disabled":false,"rental_uris":{"android":"levelo://app?vid=f9bdfaca-444e-4121-b01b-bcffbc5fa014","ios":"levelo://app?vid=f9bdfaca-444e-4121-b01b-bcffbc5fa014"},"vehicle_type_id":"4","last_reported":1705954089,"current_range_meters":27200,"station_id":"ce4bh192rcd13ifvqdb0","pricing_plan_id":"free"},{"bike_id":"f2699c21-b884-4164-9925-eb1c44651eb3","system_id":"levelo_inurba_marseille","lat":43.300852,"lon":5.390859,"is_reserved":false,"is_disabled":false,"rental_uris":{"android":"levelo://app?vid=f2699c21-b884-4164-9925-eb1c44651eb3","ios":"levelo://app?vid=f2699c21-b884-4164-9925-eb1c44651eb3"},"vehicle_type_id":"4","last_reported":1705954089,"current_range_meters":9200,"station_id":"ce4bh192rcd13ifvqdb0","pricing_plan_id":"free"},{"bike_id":"0f7a71d5-acee-4f96-97fc-1c03b22320e1","system_id":"levelo_inurba_marseille","lat":43.300852,"lon":5.390859,"is_reserved":false,"is_disabled":false,"rental_uris":{"android":"levelo://app?vid=0f7a71d5-acee-4f96-97fc-1c03b22320e1","ios":"levelo://app?vid=0f7a71d5-acee-4f96-97fc-1c03b22320e1"},"vehicle_type_id":"4","last_reported":1705954089,"current_range_meters":5200,"station_id":"ce4bh192rcd13ifvqdb0","pricing_plan_id":"free"},{"bike_id":"6cf4d737-3b52-4be6-85ab-287dddf9231d","system_id":"levelo_inurba_marseille","lat":43.29174,"lon":5.36642,"is_reserved":false,"is_disabled":false,"rental_uris":{"android":"levelo://app?vid=6cf4d737-3b52-4be6-85ab-287dddf9231d","ios":"levelo://app?vid=6cf4d737-3b52-4be6-85ab-287dddf9231d"},"vehicle_type_id":"4","last_reported":1705954089,"current_range_meters":1200,"station_id":"","pricing_plan_id":"free"},{"bike_id":"7836b82d-75e1-49ce-9e2b-14a890a66899","system_id":"levelo_inurba_marseille","lat":43.292311,"lon":5.360731,"is_reserved":false,"is_disabled":false,"rental_uris":{"android":"levelo://app?vid=7836b82d-75e1-49ce-9e2b-14a890a66899","ios":"levelo://app?vid=7836b82d-75e1-49ce-9e2b-14a890a66899"},"vehicle_type_id":"4","last_reported":1705954089,"current_range_meters":0,"station_id":"ce4bhbh2rcd13ifvqeqg","pricing_plan_id":"free"},{"bike_id":"a0a026d1-11b8-445c-82bc-24d8d93922f2","system_id":"levelo_inurba_marseille","lat":43.300852,"lon":5.390859,"is_reserved":false,"is_disabled":false,"rental_uris":{"android":"levelo://app?vid=a0a026d1-11b8-445c-82bc-24d8d93922f2","ios":"levelo://app?vid=a0a026d1-11b8-445c-82bc-24d8d93922f2"},"vehicle_type_id":"4","last_reported":1705954089,"current_range_meters":18800,"station_id":"ce4bh192rcd13ifvqdb0","pricing_plan_id":"free"},{"bike_id":"8067881c-7184-45e2-b4cb-dd12f174b01b","system_id":"levelo_inurba_marseille","lat":43.300852,"lon":5.390859,"is_reserved":false,"is_disabled":false,"rental_uris":{"android":"levelo://app?vid=8067881c-7184-45e2-b4cb-dd12f174b01b","ios":"levelo://app?vid=8067881c-7184-45e2-b4cb-dd12f174b01b"},"vehicle_type_id":"4","last_reported":1705954089,"current_range_meters":10800,"station_id":"ce4bh192rcd13ifvqdb0","pricing_plan_id":"free"},{"bike_id":"630702f6-a2f8-460f-aab9-806e0326d23c","system_id":"levelo_inurba_marseille","lat":43.311958,"lon":5.396091,"is_reserved":false,"is_disabled":false,"rental_uris":{"android":"levelo://app?vid=630702f6-a2f8-460f-aab9-806e0326d23c","ios":"levelo://app?vid=630702f6-a2f8-460f-aab9-806e0326d23c"},"vehicle_type_id":"4","last_reported":1705954089,"current_range_meters":7600,"station_id":"ce4bgvp2rcd13ifvqcu0","pricing_plan_id":"free"},{"bike_id":"bf23eafb-0f42-4230-9a78-a8c3f06ac055","system_id":"levelo_inurba_marseille","lat":43.291675,"lon":5.371583,"is_reserved":false,"is_disabled":false,"rental_uris":{"android":"levelo://app?vid=bf23eafb-0f42-4230-9a78-a8c3f06ac055","ios":"levelo://app?vid=bf23eafb-0f42-4230-9a78-a8c3f06ac055"},"vehicle_type_id":"4","last_reported":1705954089,"current_range_meters":14000,"station_id":"ce4bha92rcd13ifvqeh0","pricing_plan_id":"free"},{"bike_id":"e10775dc-9140-4cf4-aafe-7180523a334a","system_id":"levelo_inurba_marseille","lat":43.312917,"lon":5.396788,"is_reserved":false,"is_disabled":false,"rental_uris":{"android":"levelo://app?vid=e10775dc-9140-4cf4-aafe-7180523a334a","ios":"levelo://app?vid=e10775dc-9140-4cf4-aafe-7180523a334a"},"vehicle_type_id":"4","last_reported":1705954089,"current_range_meters":23200,"station_id":"","pricing_plan_id":"free"},{"bike_id":"7d2a302a-8902-4474-8a16-e8f7827e3044","system_id":"levelo_inurba_marseille","lat":43.313291,"lon":5.396838,"is_reserved":false,"is_disabled":false,"rental_uris":{"android":"levelo://app?vid=7d2a302a-8902-4474-8a16-e8f7827e3044","ios":"levelo://app?vid=7d2a302a-8902-4474-8a16-e8f7827e3044"},"vehicle_type_id":"4","last_reported":1705954089,"current_range_meters":3600,"station_id":"ce4bgvp2rcd13ifvqcu0","pricing_plan_id":"free"},{"bike_id":"f96c6a56-6d7d-4f2c-9a5c-cebd7cf6adac","system_id":"levelo_inurba_marseille","lat":43.291994,"lon":5.357886,"is_reserved":false,"is_disabled":false,"rental_uris":{"android":"levelo://app?vid=f96c6a56-6d7d-4f2c-9a5c-cebd7cf6adac","ios":"levelo://app?vid=f96c6a56-6d7d-4f2c-9a5c-cebd7cf6adac"},"vehicle_type_id":"4","last_reported":1705954089,"current_range_meters":23600,"station_id":"ce4bhb12rcd13ifvqel0","pricing_plan_id":"free"},{"bike_id":"ae1f85d0-d74c-4443-bc2f-b8bf9abe5998","system_id":"levelo_inurba_marseille","lat":43.309038,"lon":5.396546,"is_reserved":false,"is_disabled":false,"rental_uris":{"android":"levelo://app?vid=ae1f85d0-d74c-4443-bc2f-b8bf9abe5998","ios":"levelo://app?vid=ae1f85d0-d74c-4443-bc2f-b8bf9abe5998"},"vehicle_type_id":"4","last_reported":1705954089,"current_range_meters":0,"station_id":"ce4bh012rcd13ifvqcv0","pricing_plan_id":"free"},{"bike_id":"06e7cdd3-00e8-46d7-addc-bdcff8459390","system_id":"levelo_inurba_marseille","lat":43.313291,"lon":5.396838,"is_reserved":false,"is_disabled":false,"rental_uris":{"android":"levelo://app?vid=06e7cdd3-00e8-46d7-addc-bdcff8459390","ios":"levelo://app?vid=06e7cdd3-00e8-46d7-addc-bdcff8459390"},"vehicle_type_id":"4","last_reported":1705954089,"current_range_meters":6800,"station_id":"ce4bgvp2rcd13ifvqcu0","pricing_plan_id":"free"},{"bike_id":"1a9b07e9-1bc5-42be-9168-2d3224b2250d","system_id":"levelo_inurba_marseille","lat":43.309038,"lon":5.396546,"is_reserved":false,"is_disabled":false,"rental_uris":{"android":"levelo://app?vid=1a9b07e9-1bc5-42be-9168-2d3224b2250d","ios":"levelo://app?vid=1a9b07e9-1bc5-42be-9168-2d3224b2250d"},"vehicle_type_id":"4","last_reported":1705954089,"current_range_meters":28000,"station_id":"ce4bh012rcd13ifvqcv0","pricing_plan_id":"free"},{"bike_id":"4629583c-b1ea-4840-b672-862935324178","system_id":"levelo_inurba_marseille","lat":43.313291,"lon":5.396838,"is_reserved":false,"is_disabled":false,"rental_uris":{"android":"levelo://app?vid=4629583c-b1ea-4840-b672-862935324178","ios":"levelo://app?vid=4629583c-b1ea-4840-b672-862935324178"},"vehicle_type_id":"4","last_reported":1705954089,"current_range_meters":22000,"station_id":"ce4bgvp2rcd13ifvqcu0","pricing_plan_id":"free"},{"bike_id":"5a5b014c-7897-404a-a269-4a0a75907dd4","system_id":"levelo_inurba_marseille","lat":43.31331,"lon":5.39694,"is_reserved":false,"is_disabled":false,"rental_uris":{"android":"levelo://app?vid=5a5b014c-7897-404a-a269-4a0a75907dd4","ios":"levelo://app?vid=5a5b014c-7897-404a-a269-4a0a75907dd4"},"vehicle_type_id":"4","last_reported":1705954089,"current_range_meters":15200,"station_id":"ce4bgvp2rcd13ifvqcu0","pricing_plan_id":"free"},{"bike_id":"91dacd66-df61-4b3c-b639-38f081508a8a","system_id":"levelo_inurba_marseille","lat":43.309047,"lon":5.396551,"is_reserved":false,"is_disabled":false,"rental_uris":{"android":"levelo://app?vid=91dacd66-df61-4b3c-b639-38f081508a8a","ios":"levelo://app?vid=91dacd66-df61-4b3c-b639-38f081508a8a"},"vehicle_type_id":"4","last_reported":1705954089,"current_range_meters":7200,"station_id":"ce4bh012rcd13ifvqcv0","pricing_plan_id":"free"},{"bike_id":"fcb3b231-c529-47e3-b2e2-1d1b695c2837","system_id":"levelo_inurba_marseille","lat":43.31328,"lon":5.39695,"is_reserved":false,"is_disabled":false,"rental_uris":{"android":"levelo://app?vid=fcb3b231-c529-47e3-b2e2-1d1b695c2837","ios":"levelo://app?vid=fcb3b231-c529-47e3-b2e2-1d1b695c2837"},"vehicle_type_id":"4","last_reported":1705954089,"current_range_meters":10400,"station_id":"ce4bgvp2rcd13ifvqcu0","pricing_plan_id":"free"},{"bike_id":"f20820ed-4a7c-433b-9fec-bbc4e814ef62","system_id":"levelo_inurba_marseille","lat":43.31329,"lon":5.39696,"is_reserved":false,"is_disabled":false,"rental_uris":{"android":"levelo://app?vid=f20820ed-4a7c-433b-9fec-bbc4e814ef62","ios":"levelo://app?vid=f20820ed-4a7c-433b-9fec-bbc4e814ef62"},"vehicle_type_id":"4","last_reported":1705954089,"current_range_meters":19600,"station_id":"ce4bgvp2rcd13ifvqcu0","pricing_plan_id":"free"},{"bike_id":"ef396dc3-8557-489c-87ed-049cf0eeda33","system_id":"levelo_inurba_marseille","lat":43.31331,"lon":5.39696,"is_reserved":false,"is_disabled":false,"rental_uris":{"android":"levelo://app?vid=ef396dc3-8557-489c-87ed-049cf0eeda33","ios":"levelo://app?vid=ef396dc3-8557-489c-87ed-049cf0eeda33"},"vehicle_type_id":"4","last_reported":1705954089,"current_range_meters":9600,"station_id":"ce4bgvp2rcd13ifvqcu0","pricing_plan_id":"free"},{"bike_id":"0841cde0-b0f0-41af-ba6d-81d72623c02d","system_id":"levelo_inurba_marseille","lat":43.309038,"lon":5.396546,"is_reserved":false,"is_disabled":false,"rental_uris":{"android":"levelo://app?vid=0841cde0-b0f0-41af-ba6d-81d72623c02d","ios":"levelo://app?vid=0841cde0-b0f0-41af-ba6d-81d72623c02d"},"vehicle_type_id":"4","last_reported":1705954089,"current_range_meters":12000,"station_id":"ce4bh012rcd13ifvqcv0","pricing_plan_id":"free"},{"bike_id":"4e914a54-894e-4ad3-b7e0-25e629a15136","system_id":"levelo_inurba_marseille","lat":43.309038,"lon":5.396546,"is_reserved":false,"is_disabled":false,"rental_uris":{"android":"levelo://app?vid=4e914a54-894e-4ad3-b7e0-25e629a15136","ios":"levelo://app?vid=4e914a54-894e-4ad3-b7e0-25e629a15136"},"vehicle_type_id":"4","last_reported":1705954089,"current_range_meters":9600,"station_id":"ce4bh012rcd13ifvqcv0","pricing_plan_id":"free"},{"bike_id":"e804b5e8-dced-4abf-a3e4-772e410179e3","system_id":"levelo_inurba_marseille","lat":43.31327,"lon":5.39698,"is_reserved":false,"is_disabled":false,"rental_uris":{"android":"levelo://app?vid=e804b5e8-dced-4abf-a3e4-772e410179e3","ios":"levelo://app?vid=e804b5e8-dced-4abf-a3e4-772e410179e3"},"vehicle_type_id":"4","last_reported":1705954089,"current_range_meters":5200,"station_id":"ce4bgvp2rcd13ifvqcu0","pricing_plan_id":"free"},{"bike_id":"d5ebf2ac-e9ba-4c7e-b469-c3e51d9686d9","system_id":"levelo_inurba_marseille","lat":43.313291,"lon":5.396838,"is_reserved":false,"is_disabled":false,"rental_uris":{"android":"levelo://app?vid=d5ebf2ac-e9ba-4c7e-b469-c3e51d9686d9","ios":"levelo://app?vid=d5ebf2ac-e9ba-4c7e-b469-c3e51d9686d9"},"vehicle_type_id":"4","last_reported":1705954089,"current_range_meters":25200,"station_id":"ce4bgvp2rcd13ifvqcu0","pricing_plan_id":"free"},{"bike_id":"3921e4ee-bfbe-438c-a459-d08b3b77295f","system_id":"levelo_inurba_marseille","lat":43.290779,"lon":5.371482,"is_reserved":false,"is_disabled":false,"rental_uris":{"android":"levelo://app?vid=3921e4ee-bfbe-438c-a459-d08b3b77295f","ios":"levelo://app?vid=3921e4ee-bfbe-438c-a459-d08b3b77295f"},"vehicle_type_id":"4","last_reported":1705954089,"current_range_meters":20400,"station_id":"ce4bh5p2rcd13ifvqe4g","pricing_plan_id":"free"},{"bike_id":"8b48f6e7-a0cb-45e8-b9cd-c80cd041a1fd","system_id":"levelo_inurba_marseille","lat":43.281044,"lon":5.378308,"is_reserved":false,"is_disabled":false,"rental_uris":{"android":"levelo://app?vid=8b48f6e7-a0cb-45e8-b9cd-c80cd041a1fd","ios":"levelo://app?vid=8b48f6e7-a0cb-45e8-b9cd-c80cd041a1fd"},"vehicle_type_id":"4","last_reported":1705954089,"current_range_meters":14400,"station_id":"ce4bha12rcd13ifvqee0","pricing_plan_id":"free"},{"bike_id":"98403e2d-f3d4-4167-85e7-a4ffb0adab1f","system_id":"levelo_inurba_marseille","lat":43.302008,"lon":5.394694,"is_reserved":false,"is_disabled":false,"rental_uris":{"android":"levelo://app?vid=98403e2d-f3d4-4167-85e7-a4ffb0adab1f","ios":"levelo://app?vid=98403e2d-f3d4-4167-85e7-a4ffb0adab1f"},"vehicle_type_id":"4","last_reported":1705954089,"current_range_meters":0,"station_id":"ce4bh0p2rcd13ifvqd70","pricing_plan_id":"free"},{"bike_id":"16150eaa-2089-48aa-87cc-722f8f43db1f","system_id":"levelo_inurba_marseille","lat":43.302008,"lon":5.394694,"is_reserved":false,"is_disabled":false,"rental_uris":{"android":"levelo://app?vid=16150eaa-2089-48aa-87cc-722f8f43db1f","ios":"levelo://app?vid=16150eaa-2089-48aa-87cc-722f8f43db1f"},"vehicle_type_id":"4","last_reported":1705954089,"current_range_meters":27200,"station_id":"ce4bh0p2rcd13ifvqd70","pricing_plan_id":"free"},{"bike_id":"bbe57f4d-cf05-42e2-b9bd-c1b4457b589d","system_id":"levelo_inurba_marseille","lat":43.290624,"lon":5.359245,"is_reserved":false,"is_disabled":false,"rental_uris":{"android":"levelo://app?vid=bbe57f4d-cf05-42e2-b9bd-c1b4457b589d","ios":"levelo://app?vid=bbe57f4d-cf05-42e2-b9bd-c1b4457b589d"},"vehicle_type_id":"4","last_reported":1705954089,"current_range_meters":11600,"station_id":"ce4bha92rcd13ifvqeg0","pricing_plan_id":"free"},{"bike_id":"c87fb802-a149-4ba6-90c5-47284d413d23","system_id":"levelo_inurba_marseille","lat":43.290631,"lon":5.359244,"is_reserved":false,"is_disabled":false,"rental_uris":{"android":"levelo://app?vid=c87fb802-a149-4ba6-90c5-47284d413d23","ios":"levelo://app?vid=c87fb802-a149-4ba6-90c5-47284d413d23"},"vehicle_type_id":"4","last_reported":1705954089,"current_range_meters":31600,"station_id":"ce4bha92rcd13ifvqeg0","pricing_plan_id":"free"},{"bike_id":"1cd59b15-824e-457e-be20-6875a3b76b9c","system_id":"levelo_inurba_marseille","lat":43.295169,"lon":5.390426,"is_reserved":false,"is_disabled":false,"rental_uris":{"android":"levelo://app?vid=1cd59b15-824e-457e-be20-6875a3b76b9c","ios":"levelo://app?vid=1cd59b15-824e-457e-be20-6875a3b76b9c"},"vehicle_type_id":"4","last_reported":1705954089,"current_range_meters":10800,"station_id":"ce4bh3p2rcd13ifvqdp0","pricing_plan_id":"free"},{"bike_id":"41837bae-8d26-432d-b1ab-109c891301c4","system_id":"levelo_inurba_marseille","lat":43.290327,"lon":5.375711,"is_reserved":false,"is_disabled":false,"rental_uris":{"android":"levelo://app?vid=41837bae-8d26-432d-b1ab-109c891301c4","ios":"levelo://app?vid=41837bae-8d26-432d-b1ab-109c891301c4"},"vehicle_type_id":"4","last_reported":1705954089,"current_range_meters":26800,"station_id":"ce4bh692rcd13ifvqe90","pricing_plan_id":"free"},{"bike_id":"2ce14413-d358-4bb0-b4e1-8ee670b1ff55","system_id":"levelo_inurba_marseille","lat":43.294153,"lon":5.386305,"is_reserved":false,"is_disabled":false,"rental_uris":{"android":"levelo://app?vid=2ce14413-d358-4bb0-b4e1-8ee670b1ff55","ios":"levelo://app?vid=2ce14413-d358-4bb0-b4e1-8ee670b1ff55"},"vehicle_type_id":"4","last_reported":1705954089,"current_range_meters":15200,"station_id":"ce4bh2h2rcd13ifvqdh0","pricing_plan_id":"free"},{"bike_id":"11d3df5b-2ca5-4f11-8681-280201405092","system_id":"levelo_inurba_marseille","lat":43.289184,"lon":5.366408,"is_reserved":false,"is_disabled":false,"rental_uris":{"android":"levelo://app?vid=11d3df5b-2ca5-4f11-8681-280201405092","ios":"levelo://app?vid=11d3df5b-2ca5-4f11-8681-280201405092"},"vehicle_type_id":"4","last_reported":1705954089,"current_range_meters":14000,"station_id":"ce4bhap2rcd13ifvqek0","pricing_plan_id":"free"},{"bike_id":"304e7579-ad05-4776-aa4d-26f47dfe99b7","system_id":"levelo_inurba_marseille","lat":43.2894,"lon":5.3664,"is_reserved":false,"is_disabled":false,"rental_uris":{"android":"levelo://app?vid=304e7579-ad05-4776-aa4d-26f47dfe99b7","ios":"levelo://app?vid=304e7579-ad05-4776-aa4d-26f47dfe99b7"},"vehicle_type_id":"4","last_reported":1705954089,"current_range_meters":18000,"station_id":"ce4bhap2rcd13ifvqek0","pricing_plan_id":"free"},{"bike_id":"5f6696ef-5f6a-428f-a13b-b810eb84599b","system_id":"levelo_inurba_marseille","lat":43.284538,"lon":5.358657,"is_reserved":false,"is_disabled":false,"rental_uris":{"android":"levelo://app?vid=5f6696ef-5f6a-428f-a13b-b810eb84599b","ios":"levelo://app?vid=5f6696ef-5f6a-428f-a13b-b810eb84599b"},"vehicle_type_id":"4","last_reported":1705954089,"current_range_meters":18400,"station_id":"ce4bhah2rcd13ifvqei0","pricing_plan_id":"free"},{"bike_id":"d1db34ac-d340-413c-83ae-82b805ac40d2","system_id":"levelo_inurba_marseille","lat":43.289184,"lon":5.366408,"is_reserved":false,"is_disabled":false,"rental_uris":{"android":"levelo://app?vid=d1db34ac-d340-413c-83ae-82b805ac40d2","ios":"levelo://app?vid=d1db34ac-d340-413c-83ae-82b805ac40d2"},"vehicle_type_id":"4","last_reported":1705954089,"current_range_meters":6000,"station_id":"ce4bhap2rcd13ifvqek0","pricing_plan_id":"free"},{"bike_id":"a69dadc4-ed86-4de6-9d05-1135c3ddce9d","system_id":"levelo_inurba_marseille","lat":43.289184,"lon":5.366408,"is_reserved":false,"is_disabled":false,"rental_uris":{"android":"levelo://app?vid=a69dadc4-ed86-4de6-9d05-1135c3ddce9d","ios":"levelo://app?vid=a69dadc4-ed86-4de6-9d05-1135c3ddce9d"},"vehicle_type_id":"4","last_reported":1705954089,"current_range_meters":8400,"station_id":"ce4bhap2rcd13ifvqek0","pricing_plan_id":"free"},{"bike_id":"b8b8f240-a174-4dcb-8cff-1ad5d971818d","system_id":"levelo_inurba_marseille","lat":43.289468,"lon":5.363719,"is_reserved":false,"is_disabled":false,"rental_uris":{"android":"levelo://app?vid=b8b8f240-a174-4dcb-8cff-1ad5d971818d","ios":"levelo://app?vid=b8b8f240-a174-4dcb-8cff-1ad5d971818d"},"vehicle_type_id":"4","last_reported":1705954089,"current_range_meters":4400,"station_id":"ce4bhc92rcd13ifvqetg","pricing_plan_id":"free"},{"bike_id":"842df7c2-9ced-4986-9ff7-0654b38fe495","system_id":"levelo_inurba_marseille","lat":43.289184,"lon":5.366408,"is_reserved":false,"is_disabled":false,"rental_uris":{"android":"levelo://app?vid=842df7c2-9ced-4986-9ff7-0654b38fe495","ios":"levelo://app?vid=842df7c2-9ced-4986-9ff7-0654b38fe495"},"vehicle_type_id":"4","last_reported":1705954089,"current_range_meters":31600,"station_id":"ce4bhap2rcd13ifvqek0","pricing_plan_id":"free"},{"bike_id":"c3250cac-5d88-433e-ac25-75f427042bb9","system_id":"levelo_inurba_marseille","lat":43.289184,"lon":5.366408,"is_reserved":false,"is_disabled":false,"rental_uris":{"android":"levelo://app?vid=c3250cac-5d88-433e-ac25-75f427042bb9","ios":"levelo://app?vid=c3250cac-5d88-433e-ac25-75f427042bb9"},"vehicle_type_id":"4","last_reported":1705954089,"current_range_meters":12000,"station_id":"ce4bhap2rcd13ifvqek0","pricing_plan_id":"free"},{"bike_id":"49f10228-8a90-4326-bc2d-a5ea82b427f7","system_id":"levelo_inurba_marseille","lat":43.289468,"lon":5.363719,"is_reserved":false,"is_disabled":false,"rental_uris":{"android":"levelo://app?vid=49f10228-8a90-4326-bc2d-a5ea82b427f7","ios":"levelo://app?vid=49f10228-8a90-4326-bc2d-a5ea82b427f7"},"vehicle_type_id":"4","last_reported":1705954089,"current_range_meters":24000,"station_id":"ce4bhc92rcd13ifvqetg","pricing_plan_id":"free"},{"bike_id":"edaf1dc5-bcd8-4168-8804-ea45048fae62","system_id":"levelo_inurba_marseille","lat":43.289468,"lon":5.363719,"is_reserved":false,"is_disabled":false,"rental_uris":{"android":"levelo://app?vid=edaf1dc5-bcd8-4168-8804-ea45048fae62","ios":"levelo://app?vid=edaf1dc5-bcd8-4168-8804-ea45048fae62"},"vehicle_type_id":"4","last_reported":1705954089,"current_range_meters":22400,"station_id":"ce4bhc92rcd13ifvqetg","pricing_plan_id":"free"},{"bike_id":"ee23a976-71b0-4917-8624-7f3d33275377","system_id":"levelo_inurba_marseille","lat":43.289468,"lon":5.363719,"is_reserved":false,"is_disabled":false,"rental_uris":{"android":"levelo://app?vid=ee23a976-71b0-4917-8624-7f3d33275377","ios":"levelo://app?vid=ee23a976-71b0-4917-8624-7f3d33275377"},"vehicle_type_id":"4","last_reported":1705954089,"current_range_meters":10800,"station_id":"ce4bhc92rcd13ifvqetg","pricing_plan_id":"free"},{"bike_id":"f3691ff8-2461-4213-ad78-086d68efa30a","system_id":"levelo_inurba_marseille","lat":43.304274,"lon":5.397513,"is_reserved":false,"is_disabled":false,"rental_uris":{"android":"levelo://app?vid=f3691ff8-2461-4213-ad78-086d68efa30a","ios":"levelo://app?vid=f3691ff8-2461-4213-ad78-086d68efa30a"},"vehicle_type_id":"4","last_reported":1705954089,"current_range_meters":3200,"station_id":"ce4bh092rcd13ifvqd20","pricing_plan_id":"free"},{"bike_id":"7246fa28-7d82-4772-9cc6-13b7e2c2b4c3","system_id":"levelo_inurba_marseille","lat":43.292644,"lon":5.384257,"is_reserved":false,"is_disabled":false,"rental_uris":{"android":"levelo://app?vid=7246fa28-7d82-4772-9cc6-13b7e2c2b4c3","ios":"levelo://app?vid=7246fa28-7d82-4772-9cc6-13b7e2c2b4c3"},"vehicle_type_id":"4","last_reported":1705954089,"current_range_meters":25200,"station_id":"ce4bh692rcd13ifvqea0","pricing_plan_id":"free"},{"bike_id":"782cee64-ca72-49b0-b773-189d8e7265cb","system_id":"levelo_inurba_marseille","lat":43.290105,"lon":5.377295,"is_reserved":false,"is_disabled":false,"rental_uris":{"android":"levelo://app?vid=782cee64-ca72-49b0-b773-189d8e7265cb","ios":"levelo://app?vid=782cee64-ca72-49b0-b773-189d8e7265cb"},"vehicle_type_id":"4","last_reported":1705954089,"current_range_meters":25200,"station_id":"ce4bh9p2rcd13ifvqed0","pricing_plan_id":"free"},{"bike_id":"c8348d43-f872-4a3b-b4fb-d85de8a3f88d","system_id":"levelo_inurba_marseille","lat":43.290103,"lon":5.356114,"is_reserved":false,"is_disabled":false,"rental_uris":{"android":"levelo://app?vid=c8348d43-f872-4a3b-b4fb-d85de8a3f88d","ios":"levelo://app?vid=c8348d43-f872-4a3b-b4fb-d85de8a3f88d"},"vehicle_type_id":"4","last_reported":1705954089,"current_range_meters":31200,"station_id":"ce4bhb92rcd13ifvqen0","pricing_plan_id":"free"},{"bike_id":"6a36c554-08a3-4e01-a706-af5b61fbbdce","system_id":"levelo_inurba_marseille","lat":43.290104,"lon":5.356111,"is_reserved":false,"is_disabled":false,"rental_uris":{"android":"levelo://app?vid=6a36c554-08a3-4e01-a706-af5b61fbbdce","ios":"levelo://app?vid=6a36c554-08a3-4e01-a706-af5b61fbbdce"},"vehicle_type_id":"4","last_reported":1705954089,"current_range_meters":22400,"station_id":"ce4bhb92rcd13ifvqen0","pricing_plan_id":"free"},{"bike_id":"b5e178d3-e968-4b6d-8f20-d9d80d6a2298","system_id":"levelo_inurba_marseille","lat":43.290995,"lon":5.381361,"is_reserved":false,"is_disabled":false,"rental_uris":{"android":"levelo://app?vid=b5e178d3-e968-4b6d-8f20-d9d80d6a2298","ios":"levelo://app?vid=b5e178d3-e968-4b6d-8f20-d9d80d6a2298"},"vehicle_type_id":"4","last_reported":1705954089,"current_range_meters":26800,"station_id":"ce4bh512rcd13ifvqe2g","pricing_plan_id":"free"},{"bike_id":"b84a7a71-34b4-4ba1-943e-982d45dfcd39","system_id":"levelo_inurba_marseille","lat":43.290995,"lon":5.381361,"is_reserved":false,"is_disabled":false,"rental_uris":{"android":"levelo://app?vid=b84a7a71-34b4-4ba1-943e-982d45dfcd39","ios":"levelo://app?vid=b84a7a71-34b4-4ba1-943e-982d45dfcd39"},"vehicle_type_id":"4","last_reported":1705954089,"current_range_meters":8800,"station_id":"ce4bh512rcd13ifvqe2g","pricing_plan_id":"free"},{"bike_id":"1c5f8ec4-07c6-46aa-a56d-4bf392a31ebb","system_id":"levelo_inurba_marseille","lat":43.29785,"lon":5.39314,"is_reserved":false,"is_disabled":false,"rental_uris":{"android":"levelo://app?vid=1c5f8ec4-07c6-46aa-a56d-4bf392a31ebb","ios":"levelo://app?vid=1c5f8ec4-07c6-46aa-a56d-4bf392a31ebb"},"vehicle_type_id":"4","last_reported":1705954089,"current_range_meters":4400,"station_id":"chh1huq6cuj3fo74tm60","pricing_plan_id":"free"},{"bike_id":"939083b6-7ee5-4f58-b38b-72d3f9c1db2e","system_id":"levelo_inurba_marseille","lat":43.29799,"lon":5.3934,"is_reserved":false,"is_disabled":false,"rental_uris":{"android":"levelo://app?vid=939083b6-7ee5-4f58-b38b-72d3f9c1db2e","ios":"levelo://app?vid=939083b6-7ee5-4f58-b38b-72d3f9c1db2e"},"vehicle_type_id":"4","last_reported":1705954089,"current_range_meters":7200,"station_id":"chh1huq6cuj3fo74tm60","pricing_plan_id":"free"},{"bike_id":"826ee884-620f-4234-8f10-41ad1de5db92","system_id":"levelo_inurba_marseille","lat":43.29784,"lon":5.39334,"is_reserved":false,"is_disabled":false,"rental_uris":{"android":"levelo://app?vid=826ee884-620f-4234-8f10-41ad1de5db92","ios":"levelo://app?vid=826ee884-620f-4234-8f10-41ad1de5db92"},"vehicle_type_id":"4","last_reported":1705954089,"current_range_meters":22400,"station_id":"chh1huq6cuj3fo74tm60","pricing_plan_id":"free"},{"bike_id":"ab001c16-e197-4d75-bc32-a8f3a5199351","system_id":"levelo_inurba_marseille","lat":43.33018,"lon":5.39039,"is_reserved":false,"is_disabled":false,"rental_uris":{"android":"levelo://app?vid=ab001c16-e197-4d75-bc32-a8f3a5199351","ios":"levelo://app?vid=ab001c16-e197-4d75-bc32-a8f3a5199351"},"vehicle_type_id":"4","last_reported":1705954089,"current_range_meters":27600,"station_id":"ce4bhr92rcd13ifvqhrg","pricing_plan_id":"free"},{"bike_id":"c383a6a6-1818-4ede-975c-45dd66c1667f","system_id":"levelo_inurba_marseille","lat":43.299028,"lon":5.381509,"is_reserved":false,"is_disabled":false,"rental_uris":{"android":"levelo://app?vid=c383a6a6-1818-4ede-975c-45dd66c1667f","ios":"levelo://app?vid=c383a6a6-1818-4ede-975c-45dd66c1667f"},"vehicle_type_id":"4","last_reported":1705954089,"current_range_meters":23200,"station_id":"ce4bgj12rcd13ifvqbc0","pricing_plan_id":"free"},{"bike_id":"c8217cad-9878-4c41-8e21-9a034be5a361","system_id":"levelo_inurba_marseille","lat":43.330182,"lon":5.390428,"is_reserved":false,"is_disabled":false,"rental_uris":{"android":"levelo://app?vid=c8217cad-9878-4c41-8e21-9a034be5a361","ios":"levelo://app?vid=c8217cad-9878-4c41-8e21-9a034be5a361"},"vehicle_type_id":"4","last_reported":1705954089,"current_range_meters":3600,"station_id":"ce4bhr92rcd13ifvqhrg","pricing_plan_id":"free"},{"bike_id":"7304f63b-5637-406c-b03b-2e7bdabff76a","system_id":"levelo_inurba_marseille","lat":43.33024,"lon":5.39041,"is_reserved":false,"is_disabled":false,"rental_uris":{"android":"levelo://app?vid=7304f63b-5637-406c-b03b-2e7bdabff76a","ios":"levelo://app?vid=7304f63b-5637-406c-b03b-2e7bdabff76a"},"vehicle_type_id":"4","last_reported":1705954089,"current_range_meters":13600,"station_id":"ce4bhr92rcd13ifvqhrg","pricing_plan_id":"free"},{"bike_id":"77f89468-23f4-42b0-aa40-da8db5c2b420","system_id":"levelo_inurba_marseille","lat":43.33027,"lon":5.39041,"is_reserved":false,"is_disabled":false,"rental_uris":{"android":"levelo://app?vid=77f89468-23f4-42b0-aa40-da8db5c2b420","ios":"levelo://app?vid=77f89468-23f4-42b0-aa40-da8db5c2b420"},"vehicle_type_id":"4","last_reported":1705954089,"current_range_meters":18000,"station_id":"ce4bhr92rcd13ifvqhrg","pricing_plan_id":"free"},{"bike_id":"925eaff5-3e49-4fa2-bc92-9f7181735632","system_id":"levelo_inurba_marseille","lat":43.330251,"lon":5.390447,"is_reserved":false,"is_disabled":false,"rental_uris":{"android":"levelo://app?vid=925eaff5-3e49-4fa2-bc92-9f7181735632","ios":"levelo://app?vid=925eaff5-3e49-4fa2-bc92-9f7181735632"},"vehicle_type_id":"4","last_reported":1705954089,"current_range_meters":13200,"station_id":"ce4bhr92rcd13ifvqhrg","pricing_plan_id":"free"},{"bike_id":"7f6fbd24-7425-4436-bb01-bf104c4230da","system_id":"levelo_inurba_marseille","lat":43.330253,"lon":5.390447,"is_reserved":false,"is_disabled":false,"rental_uris":{"android":"levelo://app?vid=7f6fbd24-7425-4436-bb01-bf104c4230da","ios":"levelo://app?vid=7f6fbd24-7425-4436-bb01-bf104c4230da"},"vehicle_type_id":"4","last_reported":1705954089,"current_range_meters":15600,"station_id":"ce4bhr92rcd13ifvqhrg","pricing_plan_id":"free"},{"bike_id":"2e3f11d9-341c-4df5-b4df-50570cfde077","system_id":"levelo_inurba_marseille","lat":43.295169,"lon":5.390426,"is_reserved":false,"is_disabled":false,"rental_uris":{"android":"levelo://app?vid=2e3f11d9-341c-4df5-b4df-50570cfde077","ios":"levelo://app?vid=2e3f11d9-341c-4df5-b4df-50570cfde077"},"vehicle_type_id":"4","last_reported":1705954089,"current_range_meters":24400,"station_id":"ce4bh3p2rcd13ifvqdp0","pricing_plan_id":"free"},{"bike_id":"71189d73-104f-4b93-a939-cf8a1674f5ce","system_id":"levelo_inurba_marseille","lat":43.28856,"lon":5.358371,"is_reserved":false,"is_disabled":false,"rental_uris":{"android":"levelo://app?vid=71189d73-104f-4b93-a939-cf8a1674f5ce","ios":"levelo://app?vid=71189d73-104f-4b93-a939-cf8a1674f5ce"},"vehicle_type_id":"4","last_reported":1705954089,"current_range_meters":5600,"station_id":"ce4bhb12rcd13ifvqem0","pricing_plan_id":"free"},{"bike_id":"536f1028-a737-4dc4-aa34-fbaf69e76535","system_id":"levelo_inurba_marseille","lat":43.290094,"lon":5.381264,"is_reserved":false,"is_disabled":false,"rental_uris":{"android":"levelo://app?vid=536f1028-a737-4dc4-aa34-fbaf69e76535","ios":"levelo://app?vid=536f1028-a737-4dc4-aa34-fbaf69e76535"},"vehicle_type_id":"4","last_reported":1705954089,"current_range_meters":400,"station_id":"ce4bh4p2rcd13ifvqe1g","pricing_plan_id":"free"},{"bike_id":"7efdef8e-5d7d-47e7-bd9a-ccf65e3fcd53","system_id":"levelo_inurba_marseille","lat":43.28856,"lon":5.358371,"is_reserved":false,"is_disabled":false,"rental_uris":{"android":"levelo://app?vid=7efdef8e-5d7d-47e7-bd9a-ccf65e3fcd53","ios":"levelo://app?vid=7efdef8e-5d7d-47e7-bd9a-ccf65e3fcd53"},"vehicle_type_id":"4","last_reported":1705954089,"current_range_meters":18000,"station_id":"ce4bhb12rcd13ifvqem0","pricing_plan_id":"free"},{"bike_id":"fa281fce-0eec-4700-906b-c5963a30ca1f","system_id":"levelo_inurba_marseille","lat":43.28856,"lon":5.358371,"is_reserved":false,"is_disabled":false,"rental_uris":{"android":"levelo://app?vid=fa281fce-0eec-4700-906b-c5963a30ca1f","ios":"levelo://app?vid=fa281fce-0eec-4700-906b-c5963a30ca1f"},"vehicle_type_id":"4","last_reported":1705954089,"current_range_meters":6400,"station_id":"ce4bhb12rcd13ifvqem0","pricing_plan_id":"free"},{"bike_id":"e2c3abce-2285-4c2a-9443-49febcf1ebd0","system_id":"levelo_inurba_marseille","lat":43.28856,"lon":5.358371,"is_reserved":false,"is_disabled":false,"rental_uris":{"android":"levelo://app?vid=e2c3abce-2285-4c2a-9443-49febcf1ebd0","ios":"levelo://app?vid=e2c3abce-2285-4c2a-9443-49febcf1ebd0"},"vehicle_type_id":"4","last_reported":1705954089,"current_range_meters":0,"station_id":"ce4bhb12rcd13ifvqem0","pricing_plan_id":"free"},{"bike_id":"f23bdc28-a4b2-4cfd-80c9-42f28b2a042e","system_id":"levelo_inurba_marseille","lat":43.28856,"lon":5.358371,"is_reserved":false,"is_disabled":false,"rental_uris":{"android":"levelo://app?vid=f23bdc28-a4b2-4cfd-80c9-42f28b2a042e","ios":"levelo://app?vid=f23bdc28-a4b2-4cfd-80c9-42f28b2a042e"},"vehicle_type_id":"4","last_reported":1705954089,"current_range_meters":4400,"station_id":"ce4bhb12rcd13ifvqem0","pricing_plan_id":"free"},{"bike_id":"185d7004-c8e3-4036-a09c-9542b0b58642","system_id":"levelo_inurba_marseille","lat":43.28857,"lon":5.358462,"is_reserved":false,"is_disabled":false,"rental_uris":{"android":"levelo://app?vid=185d7004-c8e3-4036-a09c-9542b0b58642","ios":"levelo://app?vid=185d7004-c8e3-4036-a09c-9542b0b58642"},"vehicle_type_id":"4","last_reported":1705954089,"current_range_meters":23600,"station_id":"","pricing_plan_id":"free"},{"bike_id":"55916d43-168e-46e2-8573-3d4384dd422a","system_id":"levelo_inurba_marseille","lat":43.2901,"lon":5.381269,"is_reserved":false,"is_disabled":false,"rental_uris":{"android":"levelo://app?vid=55916d43-168e-46e2-8573-3d4384dd422a","ios":"levelo://app?vid=55916d43-168e-46e2-8573-3d4384dd422a"},"vehicle_type_id":"4","last_reported":1705954089,"current_range_meters":20400,"station_id":"ce4bh4p2rcd13ifvqe1g","pricing_plan_id":"free"},{"bike_id":"24eeed53-8266-429b-8664-dc34e2c0ef30","system_id":"levelo_inurba_marseille","lat":43.28856,"lon":5.358371,"is_reserved":false,"is_disabled":false,"rental_uris":{"android":"levelo://app?vid=24eeed53-8266-429b-8664-dc34e2c0ef30","ios":"levelo://app?vid=24eeed53-8266-429b-8664-dc34e2c0ef30"},"vehicle_type_id":"4","last_reported":1705954089,"current_range_meters":12400,"station_id":"ce4bhb12rcd13ifvqem0","pricing_plan_id":"free"},{"bike_id":"e55d8eb3-a004-44bc-9ce8-b9859c22eacc","system_id":"levelo_inurba_marseille","lat":43.28856,"lon":5.358371,"is_reserved":false,"is_disabled":false,"rental_uris":{"android":"levelo://app?vid=e55d8eb3-a004-44bc-9ce8-b9859c22eacc","ios":"levelo://app?vid=e55d8eb3-a004-44bc-9ce8-b9859c22eacc"},"vehicle_type_id":"4","last_reported":1705954089,"current_range_meters":17600,"station_id":"ce4bhb12rcd13ifvqem0","pricing_plan_id":"free"},{"bike_id":"06cd45f3-e887-44e9-b209-c4403778bb99","system_id":"levelo_inurba_marseille","lat":43.28856,"lon":5.358371,"is_reserved":false,"is_disabled":false,"rental_uris":{"android":"levelo://app?vid=06cd45f3-e887-44e9-b209-c4403778bb99","ios":"levelo://app?vid=06cd45f3-e887-44e9-b209-c4403778bb99"},"vehicle_type_id":"4","last_reported":1705954089,"current_range_meters":24400,"station_id":"ce4bhb12rcd13ifvqem0","pricing_plan_id":"free"},{"bike_id":"710f3b24-a1c0-4141-adbd-18abf70c2c07","system_id":"levelo_inurba_marseille","lat":43.309371,"lon":5.401449,"is_reserved":false,"is_disabled":false,"rental_uris":{"android":"levelo://app?vid=710f3b24-a1c0-4141-adbd-18abf70c2c07","ios":"levelo://app?vid=710f3b24-a1c0-4141-adbd-18abf70c2c07"},"vehicle_type_id":"4","last_reported":1705954089,"current_range_meters":17200,"station_id":"ce4bgvp2rcd13ifvqct0","pricing_plan_id":"free"},{"bike_id":"903f67a8-78da-4312-a041-3150df0c6060","system_id":"levelo_inurba_marseille","lat":43.312609,"lon":5.401662,"is_reserved":false,"is_disabled":false,"rental_uris":{"android":"levelo://app?vid=903f67a8-78da-4312-a041-3150df0c6060","ios":"levelo://app?vid=903f67a8-78da-4312-a041-3150df0c6060"},"vehicle_type_id":"4","last_reported":1705954089,"current_range_meters":0,"station_id":"ce4bh092rcd13ifvqd30","pricing_plan_id":"free"},{"bike_id":"fe27389b-3c3a-4ad2-b34e-e3c131898f74","system_id":"levelo_inurba_marseille","lat":43.312609,"lon":5.401662,"is_reserved":false,"is_disabled":false,"rental_uris":{"android":"levelo://app?vid=fe27389b-3c3a-4ad2-b34e-e3c131898f74","ios":"levelo://app?vid=fe27389b-3c3a-4ad2-b34e-e3c131898f74"},"vehicle_type_id":"4","last_reported":1705954089,"current_range_meters":1200,"station_id":"ce4bh092rcd13ifvqd30","pricing_plan_id":"free"},{"bike_id":"6242f914-b33b-4b05-b781-04f0f5646e7a","system_id":"levelo_inurba_marseille","lat":43.312609,"lon":5.401662,"is_reserved":false,"is_disabled":false,"rental_uris":{"android":"levelo://app?vid=6242f914-b33b-4b05-b781-04f0f5646e7a","ios":"levelo://app?vid=6242f914-b33b-4b05-b781-04f0f5646e7a"},"vehicle_type_id":"4","last_reported":1705954089,"current_range_meters":13600,"station_id":"ce4bh092rcd13ifvqd30","pricing_plan_id":"free"},{"bike_id":"ccd47950-44b3-4a02-90eb-d6d07257b6fa","system_id":"levelo_inurba_marseille","lat":43.337444,"lon":5.374475,"is_reserved":false,"is_disabled":false,"rental_uris":{"android":"levelo://app?vid=ccd47950-44b3-4a02-90eb-d6d07257b6fa","ios":"levelo://app?vid=ccd47950-44b3-4a02-90eb-d6d07257b6fa"},"vehicle_type_id":"4","last_reported":1705954089,"current_range_meters":29600,"station_id":"","pricing_plan_id":"free"},{"bike_id":"92583824-3061-4362-a215-b6a04643adf9","system_id":"levelo_inurba_marseille","lat":43.312609,"lon":5.401662,"is_reserved":false,"is_disabled":false,"rental_uris":{"android":"levelo://app?vid=92583824-3061-4362-a215-b6a04643adf9","ios":"levelo://app?vid=92583824-3061-4362-a215-b6a04643adf9"},"vehicle_type_id":"4","last_reported":1705954089,"current_range_meters":21200,"station_id":"ce4bh092rcd13ifvqd30","pricing_plan_id":"free"},{"bike_id":"a385fded-b37c-42a4-9f0e-10523a404429","system_id":"levelo_inurba_marseille","lat":43.309371,"lon":5.401449,"is_reserved":false,"is_disabled":false,"rental_uris":{"android":"levelo://app?vid=a385fded-b37c-42a4-9f0e-10523a404429","ios":"levelo://app?vid=a385fded-b37c-42a4-9f0e-10523a404429"},"vehicle_type_id":"4","last_reported":1705954089,"current_range_meters":17200,"station_id":"ce4bgvp2rcd13ifvqct0","pricing_plan_id":"free"},{"bike_id":"ad581a2b-0f90-49af-b2ef-0ca0167df15a","system_id":"levelo_inurba_marseille","lat":43.312609,"lon":5.401662,"is_reserved":false,"is_disabled":false,"rental_uris":{"android":"levelo://app?vid=ad581a2b-0f90-49af-b2ef-0ca0167df15a","ios":"levelo://app?vid=ad581a2b-0f90-49af-b2ef-0ca0167df15a"},"vehicle_type_id":"4","last_reported":1705954089,"current_range_meters":20800,"station_id":"ce4bh092rcd13ifvqd30","pricing_plan_id":"free"},{"bike_id":"4770cd9e-f395-447d-973b-a32bbf0871ff","system_id":"levelo_inurba_marseille","lat":43.312609,"lon":5.401662,"is_reserved":false,"is_disabled":false,"rental_uris":{"android":"levelo://app?vid=4770cd9e-f395-447d-973b-a32bbf0871ff","ios":"levelo://app?vid=4770cd9e-f395-447d-973b-a32bbf0871ff"},"vehicle_type_id":"4","last_reported":1705954089,"current_range_meters":7200,"station_id":"ce4bh092rcd13ifvqd30","pricing_plan_id":"free"},{"bike_id":"206f158a-0545-4c60-8ca6-b3437d3d43ef","system_id":"levelo_inurba_marseille","lat":43.312609,"lon":5.401662,"is_reserved":false,"is_disabled":false,"rental_uris":{"android":"levelo://app?vid=206f158a-0545-4c60-8ca6-b3437d3d43ef","ios":"levelo://app?vid=206f158a-0545-4c60-8ca6-b3437d3d43ef"},"vehicle_type_id":"4","last_reported":1705954089,"current_range_meters":12400,"station_id":"ce4bh092rcd13ifvqd30","pricing_plan_id":"free"},{"bike_id":"52d08e4b-58ea-4eda-ace4-f7a55e9f4e33","system_id":"levelo_inurba_marseille","lat":43.309371,"lon":5.401449,"is_reserved":false,"is_disabled":false,"rental_uris":{"android":"levelo://app?vid=52d08e4b-58ea-4eda-ace4-f7a55e9f4e33","ios":"levelo://app?vid=52d08e4b-58ea-4eda-ace4-f7a55e9f4e33"},"vehicle_type_id":"4","last_reported":1705954089,"current_range_meters":20400,"station_id":"ce4bgvp2rcd13ifvqct0","pricing_plan_id":"free"},{"bike_id":"a8fb37f4-7045-4e12-8e7c-c4c1968b41f6","system_id":"levelo_inurba_marseille","lat":43.309371,"lon":5.401449,"is_reserved":false,"is_disabled":false,"rental_uris":{"android":"levelo://app?vid=a8fb37f4-7045-4e12-8e7c-c4c1968b41f6","ios":"levelo://app?vid=a8fb37f4-7045-4e12-8e7c-c4c1968b41f6"},"vehicle_type_id":"4","last_reported":1705954089,"current_range_meters":22000,"station_id":"ce4bgvp2rcd13ifvqct0","pricing_plan_id":"free"},{"bike_id":"1337d088-b461-4af4-9bfe-5d65476f273c","system_id":"levelo_inurba_marseille","lat":43.337541,"lon":5.374545,"is_reserved":false,"is_disabled":false,"rental_uris":{"android":"levelo://app?vid=1337d088-b461-4af4-9bfe-5d65476f273c","ios":"levelo://app?vid=1337d088-b461-4af4-9bfe-5d65476f273c"},"vehicle_type_id":"4","last_reported":1705954089,"current_range_meters":18400,"station_id":"","pricing_plan_id":"free"},{"bike_id":"193a6ce5-5165-43ed-9e44-e1699ff93ea5","system_id":"levelo_inurba_marseille","lat":43.33764,"lon":5.3746,"is_reserved":false,"is_disabled":false,"rental_uris":{"android":"levelo://app?vid=193a6ce5-5165-43ed-9e44-e1699ff93ea5","ios":"levelo://app?vid=193a6ce5-5165-43ed-9e44-e1699ff93ea5"},"vehicle_type_id":"4","last_reported":1705954089,"current_range_meters":27600,"station_id":"","pricing_plan_id":"free"},{"bike_id":"1b180650-ade3-4834-b95a-4722ec766f6a","system_id":"levelo_inurba_marseille","lat":43.306412,"lon":5.401035,"is_reserved":false,"is_disabled":false,"rental_uris":{"android":"levelo://app?vid=1b180650-ade3-4834-b95a-4722ec766f6a","ios":"levelo://app?vid=1b180650-ade3-4834-b95a-4722ec766f6a"},"vehicle_type_id":"4","last_reported":1705954089,"current_range_meters":23200,"station_id":"ce4bh112rcd13ifvqda0","pricing_plan_id":"free"},{"bike_id":"d791abc2-8553-40dd-a681-3d44578c3053","system_id":"levelo_inurba_marseille","lat":43.306412,"lon":5.401035,"is_reserved":false,"is_disabled":false,"rental_uris":{"android":"levelo://app?vid=d791abc2-8553-40dd-a681-3d44578c3053","ios":"levelo://app?vid=d791abc2-8553-40dd-a681-3d44578c3053"},"vehicle_type_id":"4","last_reported":1705954089,"current_range_meters":13200,"station_id":"ce4bh112rcd13ifvqda0","pricing_plan_id":"free"},{"bike_id":"6629a316-e0f9-4aa7-9261-955701d2d230","system_id":"levelo_inurba_marseille","lat":43.30459,"lon":5.400587,"is_reserved":false,"is_disabled":false,"rental_uris":{"android":"levelo://app?vid=6629a316-e0f9-4aa7-9261-955701d2d230","ios":"levelo://app?vid=6629a316-e0f9-4aa7-9261-955701d2d230"},"vehicle_type_id":"4","last_reported":1705954089,"current_range_meters":8400,"station_id":"","pricing_plan_id":"free"},{"bike_id":"d131c853-a95d-4ae4-a8d1-f4664f3e8cf2","system_id":"levelo_inurba_marseille","lat":43.28727,"lon":5.36078,"is_reserved":false,"is_disabled":false,"rental_uris":{"android":"levelo://app?vid=d131c853-a95d-4ae4-a8d1-f4664f3e8cf2","ios":"levelo://app?vid=d131c853-a95d-4ae4-a8d1-f4664f3e8cf2"},"vehicle_type_id":"4","last_reported":1705954089,"current_range_meters":2400,"station_id":"cki0cbj6b192h4jlfktg","pricing_plan_id":"free"},{"bike_id":"64acc24d-1610-4996-94f0-054ed62a353b","system_id":"levelo_inurba_marseille","lat":43.28727,"lon":5.36078,"is_reserved":false,"is_disabled":false,"rental_uris":{"android":"levelo://app?vid=64acc24d-1610-4996-94f0-054ed62a353b","ios":"levelo://app?vid=64acc24d-1610-4996-94f0-054ed62a353b"},"vehicle_type_id":"4","last_reported":1705954089,"current_range_meters":18400,"station_id":"cki0cbj6b192h4jlfktg","pricing_plan_id":"free"},{"bike_id":"264324cd-0e3d-42f2-b656-a8f1256c720f","system_id":"levelo_inurba_marseille","lat":43.28727,"lon":5.36078,"is_reserved":false,"is_disabled":false,"rental_uris":{"android":"levelo://app?vid=264324cd-0e3d-42f2-b656-a8f1256c720f","ios":"levelo://app?vid=264324cd-0e3d-42f2-b656-a8f1256c720f"},"vehicle_type_id":"4","last_reported":1705954089,"current_range_meters":0,"station_id":"cki0cbj6b192h4jlfktg","pricing_plan_id":"free"},{"bike_id":"5293c249-d79e-42ef-86fb-8449c71ed1c2","system_id":"levelo_inurba_marseille","lat":43.28727,"lon":5.36078,"is_reserved":false,"is_disabled":false,"rental_uris":{"android":"levelo://app?vid=5293c249-d79e-42ef-86fb-8449c71ed1c2","ios":"levelo://app?vid=5293c249-d79e-42ef-86fb-8449c71ed1c2"},"vehicle_type_id":"4","last_reported":1705954089,"current_range_meters":14400,"station_id":"cki0cbj6b192h4jlfktg","pricing_plan_id":"free"},{"bike_id":"89930a60-09ee-4dc5-a058-4a6341b0f454","system_id":"levelo_inurba_marseille","lat":43.28727,"lon":5.36078,"is_reserved":false,"is_disabled":false,"rental_uris":{"android":"levelo://app?vid=89930a60-09ee-4dc5-a058-4a6341b0f454","ios":"levelo://app?vid=89930a60-09ee-4dc5-a058-4a6341b0f454"},"vehicle_type_id":"4","last_reported":1705954089,"current_range_meters":14800,"station_id":"cki0cbj6b192h4jlfktg","pricing_plan_id":"free"},{"bike_id":"88212189-e9a7-4468-9c25-4ed184e7bef3","system_id":"levelo_inurba_marseille","lat":43.302759,"lon":5.400793,"is_reserved":false,"is_disabled":false,"rental_uris":{"android":"levelo://app?vid=88212189-e9a7-4468-9c25-4ed184e7bef3","ios":"levelo://app?vid=88212189-e9a7-4468-9c25-4ed184e7bef3"},"vehicle_type_id":"4","last_reported":1705954089,"current_range_meters":7200,"station_id":"ce4bgvh2rcd13ifvqcs0","pricing_plan_id":"free"},{"bike_id":"f99f9657-634b-4e12-af52-5824d72682ec","system_id":"levelo_inurba_marseille","lat":43.286961,"lon":5.373785,"is_reserved":false,"is_disabled":false,"rental_uris":{"android":"levelo://app?vid=f99f9657-634b-4e12-af52-5824d72682ec","ios":"levelo://app?vid=f99f9657-634b-4e12-af52-5824d72682ec"},"vehicle_type_id":"4","last_reported":1705954089,"current_range_meters":16000,"station_id":"ce4bh3p2rcd13ifvqdq0","pricing_plan_id":"free"},{"bike_id":"89601acf-4766-49b7-8152-fc6446c0e453","system_id":"levelo_inurba_marseille","lat":43.286591,"lon":5.363346,"is_reserved":false,"is_disabled":false,"rental_uris":{"android":"levelo://app?vid=89601acf-4766-49b7-8152-fc6446c0e453","ios":"levelo://app?vid=89601acf-4766-49b7-8152-fc6446c0e453"},"vehicle_type_id":"4","last_reported":1705954089,"current_range_meters":29200,"station_id":"ce4bhah2rcd13ifvqej0","pricing_plan_id":"free"},{"bike_id":"3d6d5e81-8999-4bfe-85cc-9e562d38d262","system_id":"levelo_inurba_marseille","lat":43.286593,"lon":5.363346,"is_reserved":false,"is_disabled":false,"rental_uris":{"android":"levelo://app?vid=3d6d5e81-8999-4bfe-85cc-9e562d38d262","ios":"levelo://app?vid=3d6d5e81-8999-4bfe-85cc-9e562d38d262"},"vehicle_type_id":"4","last_reported":1705954089,"current_range_meters":3600,"station_id":"ce4bhah2rcd13ifvqej0","pricing_plan_id":"free"},{"bike_id":"4cfbcde0-009d-4a23-95d1-50f5d2912792","system_id":"levelo_inurba_marseille","lat":43.286961,"lon":5.373785,"is_reserved":false,"is_disabled":false,"rental_uris":{"android":"levelo://app?vid=4cfbcde0-009d-4a23-95d1-50f5d2912792","ios":"levelo://app?vid=4cfbcde0-009d-4a23-95d1-50f5d2912792"},"vehicle_type_id":"4","last_reported":1705954089,"current_range_meters":0,"station_id":"ce4bh3p2rcd13ifvqdq0","pricing_plan_id":"free"},{"bike_id":"87a9a9f4-5bf0-4fd8-a7a8-261e9a258b47","system_id":"levelo_inurba_marseille","lat":43.298681,"lon":5.397225,"is_reserved":false,"is_disabled":false,"rental_uris":{"android":"levelo://app?vid=87a9a9f4-5bf0-4fd8-a7a8-261e9a258b47","ios":"levelo://app?vid=87a9a9f4-5bf0-4fd8-a7a8-261e9a258b47"},"vehicle_type_id":"4","last_reported":1705954089,"current_range_meters":26000,"station_id":"ce4bh0h2rcd13ifvqd50","pricing_plan_id":"free"},{"bike_id":"c58dfecc-82f1-4c37-906e-22014d08464e","system_id":"levelo_inurba_marseille","lat":43.29536,"lon":5.39406,"is_reserved":false,"is_disabled":false,"rental_uris":{"android":"levelo://app?vid=c58dfecc-82f1-4c37-906e-22014d08464e","ios":"levelo://app?vid=c58dfecc-82f1-4c37-906e-22014d08464e"},"vehicle_type_id":"4","last_reported":1705954089,"current_range_meters":20000,"station_id":"ce4bh292rcd13ifvqdf0","pricing_plan_id":"free"},{"bike_id":"12dee18e-889d-48de-81f3-b3aac323fa13","system_id":"levelo_inurba_marseille","lat":43.295241,"lon":5.393988,"is_reserved":false,"is_disabled":false,"rental_uris":{"android":"levelo://app?vid=12dee18e-889d-48de-81f3-b3aac323fa13","ios":"levelo://app?vid=12dee18e-889d-48de-81f3-b3aac323fa13"},"vehicle_type_id":"4","last_reported":1705954089,"current_range_meters":18000,"station_id":"ce4bh292rcd13ifvqdf0","pricing_plan_id":"free"},{"bike_id":"3630dea2-7bc7-4593-91cd-f0247cb22cc5","system_id":"levelo_inurba_marseille","lat":43.295243,"lon":5.394,"is_reserved":false,"is_disabled":false,"rental_uris":{"android":"levelo://app?vid=3630dea2-7bc7-4593-91cd-f0247cb22cc5","ios":"levelo://app?vid=3630dea2-7bc7-4593-91cd-f0247cb22cc5"},"vehicle_type_id":"4","last_reported":1705954089,"current_range_meters":7200,"station_id":"ce4bh292rcd13ifvqdf0","pricing_plan_id":"free"},{"bike_id":"7b6a218b-ef5d-4319-a23f-456b401673cc","system_id":"levelo_inurba_marseille","lat":43.295196,"lon":5.39397,"is_reserved":false,"is_disabled":false,"rental_uris":{"android":"levelo://app?vid=7b6a218b-ef5d-4319-a23f-456b401673cc","ios":"levelo://app?vid=7b6a218b-ef5d-4319-a23f-456b401673cc"},"vehicle_type_id":"4","last_reported":1705954089,"current_range_meters":21600,"station_id":"ce4bh292rcd13ifvqdf0","pricing_plan_id":"free"},{"bike_id":"d195e0df-a76e-47bf-a2e5-5e8e05259bd1","system_id":"levelo_inurba_marseille","lat":43.295177,"lon":5.39396,"is_reserved":false,"is_disabled":false,"rental_uris":{"android":"levelo://app?vid=d195e0df-a76e-47bf-a2e5-5e8e05259bd1","ios":"levelo://app?vid=d195e0df-a76e-47bf-a2e5-5e8e05259bd1"},"vehicle_type_id":"4","last_reported":1705954089,"current_range_meters":22400,"station_id":"ce4bh292rcd13ifvqdf0","pricing_plan_id":"free"},{"bike_id":"6a5d6c0f-d2c8-42e0-8144-e7e9da7e9536","system_id":"levelo_inurba_marseille","lat":43.295196,"lon":5.39397,"is_reserved":false,"is_disabled":false,"rental_uris":{"android":"levelo://app?vid=6a5d6c0f-d2c8-42e0-8144-e7e9da7e9536","ios":"levelo://app?vid=6a5d6c0f-d2c8-42e0-8144-e7e9da7e9536"},"vehicle_type_id":"4","last_reported":1705954089,"current_range_meters":23600,"station_id":"ce4bh292rcd13ifvqdf0","pricing_plan_id":"free"},{"bike_id":"a8d358b9-99fb-4d9f-89cd-e7d516e11f78","system_id":"levelo_inurba_marseille","lat":43.295187,"lon":5.394124,"is_reserved":false,"is_disabled":false,"rental_uris":{"android":"levelo://app?vid=a8d358b9-99fb-4d9f-89cd-e7d516e11f78","ios":"levelo://app?vid=a8d358b9-99fb-4d9f-89cd-e7d516e11f78"},"vehicle_type_id":"4","last_reported":1705954089,"current_range_meters":9600,"station_id":"ce4bh292rcd13ifvqdf0","pricing_plan_id":"free"},{"bike_id":"6d6c2a9d-ab67-48ee-8a41-56bb8f39be3b","system_id":"levelo_inurba_marseille","lat":43.295113,"lon":5.394053,"is_reserved":false,"is_disabled":false,"rental_uris":{"android":"levelo://app?vid=6d6c2a9d-ab67-48ee-8a41-56bb8f39be3b","ios":"levelo://app?vid=6d6c2a9d-ab67-48ee-8a41-56bb8f39be3b"},"vehicle_type_id":"4","last_reported":1705954089,"current_range_meters":22400,"station_id":"ce4bh292rcd13ifvqdf0","pricing_plan_id":"free"},