{"last_updated":1752016235,"ttl":60,"version":"2.2","data":{"bikes":[{"bike_id":"cd20cfea-2f2f-444d-a882-a49b6cf370eb","system_id":"levelo_inurba_marseille","lat":43.337444,"lon":5.374475,"is_reserved":false,"is_disabled":true,"rental_uris":{"android":"levelo://app?vid=cd20cfea-2f2f-444d-a882-a49b6cf370eb","ios":"levelo://app?vid=cd20cfea-2f2f-444d-a882-a49b6cf370eb"},"vehicle_type_id":"4","last_reported":1752016236,"current_range_meters":0,"station_id":"","pricing_plan_id":"cebpf4jnsgd1na2vs0mg"},{"bike_id":"3da29fb8-fc97-44c6-b9ac-31dd456b2fd4","system_id":"levelo_inurba_marseille","lat":43.33771,"lon":5.37424,"is_reserved":false,"is_disabled":true,"rental_uris":{"android":"levelo://app?vid=3da29fb8-fc97-44c6-b9ac-31dd456b2fd4","ios":"levelo://app?vid=3da29fb8-fc97-44c6-b9ac-31dd456b2fd4"},"vehicle_type_id":"4","last_reported":1752016236,"current_range_meters":0,"station_id":"","pricing_plan_id":"cebpf4jnsgd1na2vs0mg"},{"bike_id":"01861ad8-a8d7-4be6-816e-651927c87584","system_id":"levelo_inurba_marseille","lat":43.33751,"lon":5.37456,"is_reserved":false,"is_disabled":true,"rental_uris":{"android":"levelo://app?vid=01861ad8-a8d7-4be6-816e-651927c87584","ios":"levelo://app?vid=01861ad8-a8d7-4be6-816e-651927c87584"},"vehicle_type_id":"4","last_reported":1752016236,"current_range_meters":0,"station_id":"","pricing_plan_id":"cebpf4jnsgd1na2vs0mg"},{"bike_id":"b7374102-f6fb-49f2-bb32-3bf156833063","system_id":"levelo_inurba_marseille","lat":43.281981,"lon":5.369504,"is_reserved":false,"is_disabled":true,"rental_uris":{"android":"levelo://app?vid=b7374102-f6fb-49f2-bb32-3bf156833063","ios":"levelo://app?vid=b7374102-f6fb-49f2-bb32-3bf156833063"},"vehicle_type_id":"4","last_reported":1752016236,"current_range_meters":0,"station_id":"","pricing_plan_id":"cebpf4jnsgd1na2vs0mg"},{"bike_id":"3d508917-55ee-42b6-894b-89c2a444dc06","system_id":"levelo_inurba_marseille","lat":43.3377,"lon":5.37465,"is_reserved":false,"is_disabled":true,"rental_uris":{"android":"levelo://app?vid=3d508917-55ee-42b6-894b-89c2a444dc06","ios":"levelo://app?vid=3d508917-55ee-42b6-894b-89c2a444dc06"},"vehicle_type_id":"4","last_reported":1752016236,"current_range_meters":0,"station_id":"","pricing_plan_id":"cebpf4jnsgd1na2vs0mg"},{"bike_id":"e71932da-0716-4bb3-ae0d-b2081e501fdd","system_id":"levelo_inurba_marseille","lat":43.26454,"lon":5.37339,"is_reserved":false,"is_disabled":true,"rental_uris":{"android":"levelo://app?vid=e71932da-0716-4bb3-ae0d-b2081e501fdd","ios":"levelo://app?vid=e71932da-0716-4bb3-ae0d-b2081e501fdd"},"vehicle_type_id":"4","last_reported":1752016236,"current_range_meters":0,"station_id":"","pricing_plan_id":"cebpf4jnsgd1na2vs0mg"},{"bike_id":"53b1a31e-8ada-40c0-8d64-113a81233c84","system_id":"levelo_inurba_marseille","lat":43.36406,"lon":5.319326,"is_reserved":false,"is_disabled":true,"rental_uris":{"android":"levelo://app?vid=53b1a31e-8ada-40c0-8d64-113a81233c84","ios":"levelo://app?vid=53b1a31e-8ada-40c0-8d64-113a81233c84"},"vehicle_type_id":"4","last_reported":1752016236,"current_range_meters":0,"station_id":"","pricing_plan_id":"cebpf4jnsgd1na2vs0mg"},{"bike_id":"7e416cfa-15be-4594-b248-15509044d03e","system_id":"levelo_inurba_marseille","lat":43.295297,"lon":5.385423,"is_reserved":false,"is_disabled":true,"rental_uris":{"android":"levelo://app?vid=7e416cfa-15be-4594-b248-15509044d03e","ios":"levelo://app?vid=7e416cfa-15be-4594-b248-15509044d03e"},"vehicle_type_id":"4","last_reported":1752016236,"current_range_meters":0,"station_id":"ce4bgih2rcd13ifvqba0","pricing_plan_id":"cebpf4jnsgd1na2vs0mg"},{"bike_id":"d91c748a-3fa9-4090-8c7b-5662d66b46f2","system_id":"levelo_inurba_marseille","lat":43.29263,"lon":5.40897,"is_reserved":false,"is_disabled":true,"rental_uris":{"android":"levelo://app?vid=d91c748a-3fa9-4090-8c7b-5662d66b46f2","ios":"levelo://app?vid=d91c748a-3fa9-4090-8c7b-5662d66b46f2"},"vehicle_type_id":"4","last_reported":1752016236,"current_range_meters":0,"station_id":"ce4bh192rcd13ifvqdc0","pricing_plan_id":"cebpf4jnsgd1na2vs0mg"},{"bike_id":"0a7f4450-47d6-42a2-9d38-a522b880220a","system_id":"levelo_inurba_marseille","lat":43.26555,"lon":5.37294,"is_reserved":false,"is_disabled":true,"rental_uris":{"android":"levelo://app?vid=0a7f4450-47d6-42a2-9d38-a522b880220a","ios":"levelo://app?vid=0a7f4450-47d6-42a2-9d38-a522b880220a"},"vehicle_type_id":"4","last_reported":1752016236,"current_range_meters":0,"station_id":"ce4bhg12rcd13ifvqf70","pricing_plan_id":"cebpf4jnsgd1na2vs0mg"},{"bike_id":"44d20eb0-230b-4b43-a762-7c96674feea2","system_id":"levelo_inurba_marseille","lat":43.23963,"lon":5.3663,"is_reserved":false,"is_disabled":true,"rental_uris":{"android":"levelo://app?vid=44d20eb0-230b-4b43-a762-7c96674feea2","ios":"levelo://app?vid=44d20eb0-230b-4b43-a762-7c96674feea2"},"vehicle_type_id":"4","last_reported":1752016236,"current_range_meters":0,"station_id":"ce4bhi12rcd13ifvqfp0","pricing_plan_id":"cebpf4jnsgd1na2vs0mg"},{"bike_id":"93ac6d2f-8069-4549-8599-b67272735a17","system_id":"levelo_inurba_marseille","lat":43.25117,"lon":5.40332,"is_reserved":false,"is_disabled":true,"rental_uris":{"android":"levelo://app?vid=93ac6d2f-8069-4549-8599-b67272735a17","ios":"levelo://app?vid=93ac6d2f-8069-4549-8599-b67272735a17"},"vehicle_type_id":"4","last_reported":1752016236,"current_range_meters":0,"station_id":"ce4bhlh2rcd13ifvqgig","pricing_plan_id":"cebpf4jnsgd1na2vs0mg"},{"bike_id":"ed290504-6948-4f69-8584-2e2b0286febf","system_id":"levelo_inurba_marseille","lat":43.21131,"lon":5.35101,"is_reserved":false,"is_disabled":true,"rental_uris":{"android":"levelo://app?vid=ed290504-6948-4f69-8584-2e2b0286febf","ios":"levelo://app?vid=ed290504-6948-4f69-8584-2e2b0286febf"},"vehicle_type_id":"4","last_reported":1752016236,"current_range_meters":0,"station_id":"st_cvj6sg6p6f1abm77japg","pricing_plan_id":"cebpf4jnsgd1na2vs0mg"},{"bike_id":"6661cbd2-6ba2-4b46-b15e-1188df0f29d7","system_id":"levelo_inurba_marseille","lat":43.21197,"lon":5.35091,"is_reserved":false,"is_disabled":true,"rental_uris":{"android":"levelo://app?vid=6661cbd2-6ba2-4b46-b15e-1188df0f29d7","ios":"levelo://app?vid=6661cbd2-6ba2-4b46-b15e-1188df0f29d7"},"vehicle_type_id":"4","last_reported":1752016236,"current_range_meters":400,"station_id":"st_cvj6sg6p6f1abm77japg","pricing_plan_id":"cebpf4jnsgd1na2vs0mg"},{"bike_id":"47cc12e9-1f9d-4b29-b948-db655857089a","system_id":"levelo_inurba_marseille","lat":43.22521,"lon":5.34819,"is_reserved":false,"is_disabled":true,"rental_uris":{"android":"levelo://app?vid=47cc12e9-1f9d-4b29-b948-db655857089a","ios":"levelo://app?vid=47cc12e9-1f9d-4b29-b948-db655857089a"},"vehicle_type_id":"4","last_reported":1752016236,"current_range_meters":800,"station_id":"st_cvj5dfep6f1abm77gieg","pricing_plan_id":"cebpf4jnsgd1na2vs0mg"},{"bike_id":"ce0f8b27-c13b-4dd4-bf89-2257e2c97033","system_id":"levelo_inurba_marseille","lat":43.29565,"lon":5.37516,"is_reserved":false,"is_disabled":true,"rental_uris":{"android":"levelo://app?vid=ce0f8b27-c13b-4dd4-bf89-2257e2c97033","ios":"levelo://app?vid=ce0f8b27-c13b-4dd4-bf89-2257e2c97033"},"vehicle_type_id":"4","last_reported":1752016236,"current_range_meters":1200,"station_id":"ce4bgh92rcd13ifvqb50","pricing_plan_id":"cebpf4jnsgd1na2vs0mg"},{"bike_id":"497176d7-946e-47a4-9d49-098afb7242d8","system_id":"levelo_inurba_marseille","lat":43.30324,"lon":5.40437,"is_reserved":false,"is_disabled":true,"rental_uris":{"android":"levelo://app?vid=497176d7-946e-47a4-9d49-098afb7242d8","ios":"levelo://app?vid=497176d7-946e-47a4-9d49-098afb7242d8"},"vehicle_type_id":"4","last_reported":1752016236,"current_range_meters":1200,"station_id":"ce4bh012rcd13ifvqd10","pricing_plan_id":"cebpf4jnsgd1na2vs0mg"},{"bike_id":"ca1d95f8-4ddc-4ff9-bffc-5588d6b44951","system_id":"levelo_inurba_marseille","lat":43.28266,"lon":5.35074,"is_reserved":false,"is_disabled":true,"rental_uris":{"android":"levelo://app?vid=ca1d95f8-4ddc-4ff9-bffc-5588d6b44951","ios":"levelo://app?vid=ca1d95f8-4ddc-4ff9-bffc-5588d6b44951"},"vehicle_type_id":"4","last_reported":1752016236,"current_range_meters":1600,"station_id":"ce4bhbp2rcd13ifvqerg","pricing_plan_id":"cebpf4jnsgd1na2vs0mg"},{"bike_id":"e562ad4e-a577-4b7b-a74e-7e00b9c0f52f","system_id":"levelo_inurba_marseille","lat":43.22504,"lon":5.3478,"is_reserved":false,"is_disabled":false,"rental_uris":{"android":"levelo://app?vid=e562ad4e-a577-4b7b-a74e-7e00b9c0f52f","ios":"levelo://app?vid=e562ad4e-a577-4b7b-a74e-7e00b9c0f52f"},"vehicle_type_id":"4","last_reported":1752016236,"current_range_meters":2800,"station_id":"st_cvj5dfep6f1abm77gieg","pricing_plan_id":"cebpf4jnsgd1na2vs0mg"},{"bike_id":"c4f89727-d1f3-4948-9675-efc831f59fc0","system_id":"levelo_inurba_marseille","lat":43.30798,"lon":5.38146,"is_reserved":false,"is_disabled":false,"rental_uris":{"android":"levelo://app?vid=c4f89727-d1f3-4948-9675-efc831f59fc0","ios":"levelo://app?vid=c4f89727-d1f3-4948-9675-efc831f59fc0"},"vehicle_type_id":"4","last_reported":1752016236,"current_range_meters":3600,"station_id":"ce4bgt12rcd13ifvqce0","pricing_plan_id":"cebpf4jnsgd1na2vs0mg"},{"bike_id":"e97ee5c0-87e5-403c-92ed-929b14d6ff8f","system_id":"levelo_inurba_marseille","lat":43.283256,"lon":5.385339,"is_reserved":false,"is_disabled":false,"rental_uris":{"android":"levelo://app?vid=e97ee5c0-87e5-403c-92ed-929b14d6ff8f","ios":"levelo://app?vid=e97ee5c0-87e5-403c-92ed-929b14d6ff8f"},"vehicle_type_id":"4","last_reported":1752016236,"current_range_meters":4400,"station_id":"","pricing_plan_id":"cebpf4jnsgd1na2vs0mg"},{"bike_id":"fc4b57fc-63a8-45e1-9c82-ecfcfe072b44","system_id":"levelo_inurba_marseille","lat":43.26679,"lon":5.38268,"is_reserved":false,"is_disabled":false,"rental_uris":{"android":"levelo://app?vid=fc4b57fc-63a8-45e1-9c82-ecfcfe072b44","ios":"levelo://app?vid=fc4b57fc-63a8-45e1-9c82-ecfcfe072b44"},"vehicle_type_id":"4","last_reported":1752016236,"current_range_meters":4400,"station_id":"ce4bhg92rcd13ifvqf90","pricing_plan_id":"cebpf4jnsgd1na2vs0mg"},{"bike_id":"7612f34a-0830-42f2-b1ad-efcf121fa4c1","system_id":"levelo_inurba_marseille","lat":43.30191,"lon":5.36617,"is_reserved":false,"is_disabled":false,"rental_uris":{"android":"levelo://app?vid=7612f34a-0830-42f2-b1ad-efcf121fa4c1","ios":"levelo://app?vid=7612f34a-0830-42f2-b1ad-efcf121fa4c1"},"vehicle_type_id":"4","last_reported":1752016236,"current_range_meters":4800,"station_id":"ce4bgrh2rcd13ifvqc8g","pricing_plan_id":"cebpf4jnsgd1na2vs0mg"},{"bike_id":"2bff9de0-dd27-4786-8c3a-ac93b8369f5d","system_id":"levelo_inurba_marseille","lat":43.217435,"lon":5.346049,"is_reserved":false,"is_disabled":false,"rental_uris":{"android":"levelo://app?vid=2bff9de0-dd27-4786-8c3a-ac93b8369f5d","ios":"levelo://app?vid=2bff9de0-dd27-4786-8c3a-ac93b8369f5d"},"vehicle_type_id":"4","last_reported":1752016236,"current_range_meters":4800,"station_id":"st_cvj6r9ubvosntc0bgbag","pricing_plan_id":"cebpf4jnsgd1na2vs0mg"},{"bike_id":"3b22f952-d0bc-4c00-8fd3-7e27b88aea23","system_id":"levelo_inurba_marseille","lat":43.29659,"lon":5.36245,"is_reserved":false,"is_disabled":false,"rental_uris":{"android":"levelo://app?vid=3b22f952-d0bc-4c00-8fd3-7e27b88aea23","ios":"levelo://app?vid=3b22f952-d0bc-4c00-8fd3-7e27b88aea23"},"vehicle_type_id":"4","last_reported":1752016236,"current_range_meters":5600,"station_id":"","pricing_plan_id":"cebpf4jnsgd1na2vs0mg"},{"bike_id":"37f2becd-23f9-4f13-a711-38b8024eeec7","system_id":"levelo_inurba_marseille","lat":43.33768,"lon":5.37516,"is_reserved":false,"is_disabled":false,"rental_uris":{"android":"levelo://app?vid=37f2becd-23f9-4f13-a711-38b8024eeec7","ios":"levelo://app?vid=37f2becd-23f9-4f13-a711-38b8024eeec7"},"vehicle_type_id":"4","last_reported":1752016236,"current_range_meters":6000,"station_id":"","pricing_plan_id":"cebpf4jnsgd1na2vs0mg"},{"bike_id":"c98d0307-3157-4a39-9409-864e8e505802","system_id":"levelo_inurba_marseille","lat":43.2416,"lon":5.39361,"is_reserved":false,"is_disabled":false,"rental_uris":{"android":"levelo://app?vid=c98d0307-3157-4a39-9409-864e8e505802","ios":"levelo://app?vid=c98d0307-3157-4a39-9409-864e8e505802"},"vehicle_type_id":"4","last_reported":1752016236,"current_range_meters":6400,"station_id":"","pricing_plan_id":"cebpf4jnsgd1na2vs0mg"},{"bike_id":"d8139b24-098a-4df8-837a-125fddffde39","system_id":"levelo_inurba_marseille","lat":43.23964,"lon":5.36635,"is_reserved":false,"is_disabled":false,"rental_uris":{"android":"levelo://app?vid=d8139b24-098a-4df8-837a-125fddffde39","ios":"levelo://app?vid=d8139b24-098a-4df8-837a-125fddffde39"},"vehicle_type_id":"4","last_reported":1752016236,"current_range_meters":6400,"station_id":"ce4bhi12rcd13ifvqfp0","pricing_plan_id":"cebpf4jnsgd1na2vs0mg"},{"bike_id":"0d2a76dd-bbae-44be-8669-4f503228cb32","system_id":"levelo_inurba_marseille","lat":43.28149,"lon":5.42659,"is_reserved":false,"is_disabled":false,"rental_uris":{"android":"levelo://app?vid=0d2a76dd-bbae-44be-8669-4f503228cb32","ios":"levelo://app?vid=0d2a76dd-bbae-44be-8669-4f503228cb32"},"vehicle_type_id":"4","last_reported":1752016236,"current_range_meters":6400,"station_id":"ce4bhnh2rcd13ifvqgug","pricing_plan_id":"cebpf4jnsgd1na2vs0mg"},{"bike_id":"db9df4e2-8da2-4a2a-a589-f7f91ade2850","system_id":"levelo_inurba_marseille","lat":43.279368,"lon":5.410441,"is_reserved":false,"is_disabled":false,"rental_uris":{"android":"levelo://app?vid=db9df4e2-8da2-4a2a-a589-f7f91ade2850","ios":"levelo://app?vid=db9df4e2-8da2-4a2a-a589-f7f91ade2850"},"vehicle_type_id":"4","last_reported":1752016236,"current_range_meters":6400,"station_id":"ce4bhnp2rcd13ifvqh0g","pricing_plan_id":"cebpf4jnsgd1na2vs0mg"},{"bike_id":"c06d5ba4-67d4-4bb6-b83c-b2bc8f4ad0eb","system_id":"levelo_inurba_marseille","lat":43.28716,"lon":5.37942,"is_reserved":false,"is_disabled":false,"rental_uris":{"android":"levelo://app?vid=c06d5ba4-67d4-4bb6-b83c-b2bc8f4ad0eb","ios":"levelo://app?vid=c06d5ba4-67d4-4bb6-b83c-b2bc8f4ad0eb"},"vehicle_type_id":"4","last_reported":1752016236,"current_range_meters":6800,"station_id":"ce4bh9p2rcd13ifvqec0","pricing_plan_id":"cebpf4jnsgd1na2vs0mg"},{"bike_id":"36447bd8-65d3-48e2-b17d-d9cae1af6226","system_id":"levelo_inurba_marseille","lat":43.25113,"lon":5.40325,"is_reserved":false,"is_disabled":false,"rental_uris":{"android":"levelo://app?vid=36447bd8-65d3-48e2-b17d-d9cae1af6226","ios":"levelo://app?vid=36447bd8-65d3-48e2-b17d-d9cae1af6226"},"vehicle_type_id":"4","last_reported":1752016236,"current_range_meters":6800,"station_id":"ce4bhlh2rcd13ifvqgig","pricing_plan_id":"cebpf4jnsgd1na2vs0mg"},{"bike_id":"17b9bf06-a0cf-4fad-856c-bd3503a4dbc8","system_id":"levelo_inurba_marseille","lat":43.31706,"lon":5.43714,"is_reserved":false,"is_disabled":false,"rental_uris":{"android":"levelo://app?vid=17b9bf06-a0cf-4fad-856c-bd3503a4dbc8","ios":"levelo://app?vid=17b9bf06-a0cf-4fad-856c-bd3503a4dbc8"},"vehicle_type_id":"4","last_reported":1752016236,"current_range_meters":6800,"station_id":"ce4bhp92rcd13ifvqhcg","pricing_plan_id":"cebpf4jnsgd1na2vs0mg"},{"bike_id":"2c423baa-ecca-420a-87d7-ad0b7e0b9ebb","system_id":"levelo_inurba_marseille","lat":43.28028,"lon":5.35355,"is_reserved":false,"is_disabled":false,"rental_uris":{"android":"levelo://app?vid=2c423baa-ecca-420a-87d7-ad0b7e0b9ebb","ios":"levelo://app?vid=2c423baa-ecca-420a-87d7-ad0b7e0b9ebb"},"vehicle_type_id":"4","last_reported":1752016236,"current_range_meters":7200,"station_id":"","pricing_plan_id":"cebpf4jnsgd1na2vs0mg"},{"bike_id":"bcef6483-64fe-42a6-a47b-f30dede89a1d","system_id":"levelo_inurba_marseille","lat":43.299961,"lon":5.372433,"is_reserved":false,"is_disabled":false,"rental_uris":{"android":"levelo://app?vid=bcef6483-64fe-42a6-a47b-f30dede89a1d","ios":"levelo://app?vid=bcef6483-64fe-42a6-a47b-f30dede89a1d"},"vehicle_type_id":"4","last_reported":1752016236,"current_range_meters":7200,"station_id":"","pricing_plan_id":"cebpf4jnsgd1na2vs0mg"},{"bike_id":"7e5fbbaa-da71-4c60-ac07-727070ddc2cd","system_id":"levelo_inurba_marseille","lat":43.28419,"lon":5.35002,"is_reserved":false,"is_disabled":false,"rental_uris":{"android":"levelo://app?vid=7e5fbbaa-da71-4c60-ac07-727070ddc2cd","ios":"levelo://app?vid=7e5fbbaa-da71-4c60-ac07-727070ddc2cd"},"vehicle_type_id":"4","last_reported":1752016236,"current_range_meters":7200,"station_id":"ce4bhbh2rcd13ifvqepg","pricing_plan_id":"cebpf4jnsgd1na2vs0mg"},{"bike_id":"62525351-b685-4b7a-9aab-90d32e6fee63","system_id":"levelo_inurba_marseille","lat":43.23958,"lon":5.36639,"is_reserved":false,"is_disabled":false,"rental_uris":{"android":"levelo://app?vid=62525351-b685-4b7a-9aab-90d32e6fee63","ios":"levelo://app?vid=62525351-b685-4b7a-9aab-90d32e6fee63"},"vehicle_type_id":"4","last_reported":1752016236,"current_range_meters":7200,"station_id":"ce4bhi12rcd13ifvqfp0","pricing_plan_id":"cebpf4jnsgd1na2vs0mg"},{"bike_id":"aeffdbdb-00bf-4d4c-9cee-ef223baadc2a","system_id":"levelo_inurba_marseille","lat":43.25111,"lon":5.40324,"is_reserved":false,"is_disabled":false,"rental_uris":{"android":"levelo://app?vid=aeffdbdb-00bf-4d4c-9cee-ef223baadc2a","ios":"levelo://app?vid=aeffdbdb-00bf-4d4c-9cee-ef223baadc2a"},"vehicle_type_id":"4","last_reported":1752016236,"current_range_meters":7200,"station_id":"ce4bhlh2rcd13ifvqgig","pricing_plan_id":"cebpf4jnsgd1na2vs0mg"},{"bike_id":"f7870e1b-d9c4-49b3-89a5-66e7d99e84e4","system_id":"levelo_inurba_marseille","lat":43.30794,"lon":5.37643,"is_reserved":false,"is_disabled":false,"rental_uris":{"android":"levelo://app?vid=f7870e1b-d9c4-49b3-89a5-66e7d99e84e4","ios":"levelo://app?vid=f7870e1b-d9c4-49b3-89a5-66e7d99e84e4"},"vehicle_type_id":"4","last_reported":1752016236,"current_range_meters":8000,"station_id":"ce4bgv92rcd13ifvqcq0","pricing_plan_id":"cebpf4jnsgd1na2vs0mg"},{"bike_id":"a7536f99-a7e1-471e-8180-3f9e5ad2c318","system_id":"levelo_inurba_marseille","lat":43.29794,"lon":5.37399,"is_reserved":false,"is_disabled":false,"rental_uris":{"android":"levelo://app?vid=a7536f99-a7e1-471e-8180-3f9e5ad2c318","ios":"levelo://app?vid=a7536f99-a7e1-471e-8180-3f9e5ad2c318"},"vehicle_type_id":"4","last_reported":1752016236,"current_range_meters":8400,"station_id":"","pricing_plan_id":"cebpf4jnsgd1na2vs0mg"},{"bike_id":"2bd1cd14-a6ba-4a49-8fd7-c5f54f06a9b6","system_id":"levelo_inurba_marseille","lat":43.30312,"lon":5.40446,"is_reserved":false,"is_disabled":false,"rental_uris":{"android":"levelo://app?vid=2bd1cd14-a6ba-4a49-8fd7-c5f54f06a9b6","ios":"levelo://app?vid=2bd1cd14-a6ba-4a49-8fd7-c5f54f06a9b6"},"vehicle_type_id":"4","last_reported":1752016236,"current_range_meters":8400,"station_id":"ce4bh012rcd13ifvqd10","pricing_plan_id":"cebpf4jnsgd1na2vs0mg"},{"bike_id":"239bd25b-6cac-46b6-91da-ea0c28f9f936","system_id":"levelo_inurba_marseille","lat":43.303,"lon":5.4046,"is_reserved":false,"is_disabled":false,"rental_uris":{"android":"levelo://app?vid=239bd25b-6cac-46b6-91da-ea0c28f9f936","ios":"levelo://app?vid=239bd25b-6cac-46b6-91da-ea0c28f9f936"},"vehicle_type_id":"4","last_reported":1752016236,"current_range_meters":8400,"station_id":"ce4bh012rcd13ifvqd10","pricing_plan_id":"cebpf4jnsgd1na2vs0mg"},{"bike_id":"eb232cbe-fec5-4c0e-a65b-11ce63336285","system_id":"levelo_inurba_marseille","lat":43.28399,"lon":5.37535,"is_reserved":false,"is_disabled":false,"rental_uris":{"android":"levelo://app?vid=eb232cbe-fec5-4c0e-a65b-11ce63336285","ios":"levelo://app?vid=eb232cbe-fec5-4c0e-a65b-11ce63336285"},"vehicle_type_id":"4","last_reported":1752016236,"current_range_meters":8400,"station_id":"ce4bh412rcd13ifvqds0","pricing_plan_id":"cebpf4jnsgd1na2vs0mg"},{"bike_id":"260369d7-ad8e-4e7c-a84a-88fe86ab33ea","system_id":"levelo_inurba_marseille","lat":43.26552,"lon":5.372828,"is_reserved":false,"is_disabled":false,"rental_uris":{"android":"levelo://app?vid=260369d7-ad8e-4e7c-a84a-88fe86ab33ea","ios":"levelo://app?vid=260369d7-ad8e-4e7c-a84a-88fe86ab33ea"},"vehicle_type_id":"4","last_reported":1752016236,"current_range_meters":8400,"station_id":"ce4bhg12rcd13ifvqf70","pricing_plan_id":"cebpf4jnsgd1na2vs0mg"},{"bike_id":"00e5e892-e8ad-4d05-a303-bedd737bf3b5","system_id":"levelo_inurba_marseille","lat":43.27059,"lon":5.40258,"is_reserved":false,"is_disabled":false,"rental_uris":{"android":"levelo://app?vid=00e5e892-e8ad-4d05-a303-bedd737bf3b5","ios":"levelo://app?vid=00e5e892-e8ad-4d05-a303-bedd737bf3b5"},"vehicle_type_id":"4","last_reported":1752016236,"current_range_meters":8400,"station_id":"ce4bhk92rcd13ifvqgc0","pricing_plan_id":"cebpf4jnsgd1na2vs0mg"},{"bike_id":"3c94d2c6-2996-41de-9e54-fa8af7df6912","system_id":"levelo_inurba_marseille","lat":43.2174,"lon":5.34616,"is_reserved":false,"is_disabled":false,"rental_uris":{"android":"levelo://app?vid=3c94d2c6-2996-41de-9e54-fa8af7df6912","ios":"levelo://app?vid=3c94d2c6-2996-41de-9e54-fa8af7df6912"},"vehicle_type_id":"4","last_reported":1752016236,"current_range_meters":8400,"station_id":"st_cvj6r9ubvosntc0bgbag","pricing_plan_id":"cebpf4jnsgd1na2vs0mg"},{"bike_id":"2c900ae5-4fe1-4307-b986-d3e291391a4b","system_id":"levelo_inurba_marseille","lat":43.26213,"lon":5.37451,"is_reserved":false,"is_disabled":false,"rental_uris":{"android":"levelo://app?vid=2c900ae5-4fe1-4307-b986-d3e291391a4b","ios":"levelo://app?vid=2c900ae5-4fe1-4307-b986-d3e291391a4b"},"vehicle_type_id":"4","last_reported":1752016236,"current_range_meters":8800,"station_id":"ce4bhgp2rcd13ifvqfc0","pricing_plan_id":"cebpf4jnsgd1na2vs0mg"},{"bike_id":"81c6ebbe-0313-4b5c-a584-e154d4ebf11a","system_id":"levelo_inurba_marseille","lat":43.28701,"lon":5.39989,"is_reserved":false,"is_disabled":false,"rental_uris":{"android":"levelo://app?vid=81c6ebbe-0313-4b5c-a584-e154d4ebf11a","ios":"levelo://app?vid=81c6ebbe-0313-4b5c-a584-e154d4ebf11a"},"vehicle_type_id":"4","last_reported":1752016236,"current_range_meters":8800,"station_id":"ce4bho92rcd13ifvqh3g","pricing_plan_id":"cebpf4jnsgd1na2vs0mg"},{"bike_id":"373f7154-05e4-4923-8d21-eb4b99691656","system_id":"levelo_inurba_marseille","lat":43.31554,"lon":5.38675,"is_reserved":false,"is_disabled":false,"rental_uris":{"android":"levelo://app?vid=373f7154-05e4-4923-8d21-eb4b99691656","ios":"levelo://app?vid=373f7154-05e4-4923-8d21-eb4b99691656"},"vehicle_type_id":"4","last_reported":1752016236,"current_range_meters":9600,"station_id":"","pricing_plan_id":"cebpf4jnsgd1na2vs0mg"},{"bike_id":"d9445b66-5de0-42ba-8be7-2087d6289a66","system_id":"levelo_inurba_marseille","lat":43.3012,"lon":5.38797,"is_reserved":false,"is_disabled":false,"rental_uris":{"android":"levelo://app?vid=d9445b66-5de0-42ba-8be7-2087d6289a66","ios":"levelo://app?vid=d9445b66-5de0-42ba-8be7-2087d6289a66"},"vehicle_type_id":"4","last_reported":1752016236,"current_range_meters":9600,"station_id":"ce4bghh2rcd13ifvqb60","pricing_plan_id":"cebpf4jnsgd1na2vs0mg"},{"bike_id":"98f46642-8fdc-43be-8379-a5bf33d8441b","system_id":"levelo_inurba_marseille","lat":43.21186,"lon":5.35084,"is_reserved":false,"is_disabled":false,"rental_uris":{"android":"levelo://app?vid=98f46642-8fdc-43be-8379-a5bf33d8441b","ios":"levelo://app?vid=98f46642-8fdc-43be-8379-a5bf33d8441b"},"vehicle_type_id":"4","last_reported":1752016236,"current_range_meters":9600,"station_id":"st_cvj6sg6p6f1abm77japg","pricing_plan_id":"cebpf4jnsgd1na2vs0mg"},{"bike_id":"e54a69bc-634c-4579-91a1-2ea1e7521c68","system_id":"levelo_inurba_marseille","lat":43.301515,"lon":5.37213,"is_reserved":false,"is_disabled":false,"rental_uris":{"android":"levelo://app?vid=e54a69bc-634c-4579-91a1-2ea1e7521c68","ios":"levelo://app?vid=e54a69bc-634c-4579-91a1-2ea1e7521c68"},"vehicle_type_id":"4","last_reported":1752016236,"current_range_meters":10000,"station_id":"","pricing_plan_id":"cebpf4jnsgd1na2vs0mg"},{"bike_id":"888522e3-39b6-4ff3-ad74-ff6c6f771157","system_id":"levelo_inurba_marseille","lat":43.29517,"lon":5.40273,"is_reserved":false,"is_disabled":false,"rental_uris":{"android":"levelo://app?vid=888522e3-39b6-4ff3-ad74-ff6c6f771157","ios":"levelo://app?vid=888522e3-39b6-4ff3-ad74-ff6c6f771157"},"vehicle_type_id":"4","last_reported":1752016236,"current_range_meters":10000,"station_id":"","pricing_plan_id":"cebpf4jnsgd1na2vs0mg"},{"bike_id":"a99bdf83-4661-42fb-b485-ed9981116abd","system_id":"levelo_inurba_marseille","lat":43.29983,"lon":5.38511,"is_reserved":false,"is_disabled":false,"rental_uris":{"android":"levelo://app?vid=a99bdf83-4661-42fb-b485-ed9981116abd","ios":"levelo://app?vid=a99bdf83-4661-42fb-b485-ed9981116abd"},"vehicle_type_id":"4","last_reported":1752016236,"current_range_meters":10000,"station_id":"ce4bgj92rcd13ifvqbd0","pricing_plan_id":"cebpf4jnsgd1na2vs0mg"},{"bike_id":"05704d1f-6ebf-46d6-8049-9308e87e926f","system_id":"levelo_inurba_marseille","lat":43.26046,"lon":5.39393,"is_reserved":false,"is_disabled":false,"rental_uris":{"android":"levelo://app?vid=05704d1f-6ebf-46d6-8049-9308e87e926f","ios":"levelo://app?vid=05704d1f-6ebf-46d6-8049-9308e87e926f"},"vehicle_type_id":"4","last_reported":1752016236,"current_range_meters":10000,"station_id":"ce4bhh92rcd13ifvqfj0","pricing_plan_id":"cebpf4jnsgd1na2vs0mg"},{"bike_id":"7867a23a-3bdf-4fa1-9c73-ab4e74e4bcf9","system_id":"levelo_inurba_marseille","lat":43.31102,"lon":5.42428,"is_reserved":false,"is_disabled":false,"rental_uris":{"android":"levelo://app?vid=7867a23a-3bdf-4fa1-9c73-ab4e74e4bcf9","ios":"levelo://app?vid=7867a23a-3bdf-4fa1-9c73-ab4e74e4bcf9"},"vehicle_type_id":"4","last_reported":1752016236,"current_range_meters":10000,"station_id":"ce4bhp92rcd13ifvqhag","pricing_plan_id":"cebpf4jnsgd1na2vs0mg"},{"bike_id":"470c44f6-1f36-42af-8a1b-7d6ccefdf5db","system_id":"levelo_inurba_marseille","lat":43.29711,"lon":5.36607,"is_reserved":false,"is_disabled":false,"rental_uris":{"android":"levelo://app?vid=470c44f6-1f36-42af-8a1b-7d6ccefdf5db","ios":"levelo://app?vid=470c44f6-1f36-42af-8a1b-7d6ccefdf5db"},"vehicle_type_id":"4","last_reported":1752016236,"current_range_meters":10800,"station_id":"ce4bgn12rcd13ifvqbt0","pricing_plan_id":"cebpf4jnsgd1na2vs0mg"},{"bike_id":"538e1b05-e2a4-4a42-9bc7-7ddbe3e776fc","system_id":"levelo_inurba_marseille","lat":43.30781,"lon":5.37654,"is_reserved":false,"is_disabled":false,"rental_uris":{"android":"levelo://app?vid=538e1b05-e2a4-4a42-9bc7-7ddbe3e776fc","ios":"levelo://app?vid=538e1b05-e2a4-4a42-9bc7-7ddbe3e776fc"},"vehicle_type_id":"4","last_reported":1752016236,"current_range_meters":10800,"station_id":"ce4bgv92rcd13ifvqcq0","pricing_plan_id":"cebpf4jnsgd1na2vs0mg"},{"bike_id":"46831f95-9cad-478a-9bfb-2e3a45c6c002","system_id":"levelo_inurba_marseille","lat":43.28703,"lon":5.37916,"is_reserved":false,"is_disabled":false,"rental_uris":{"android":"levelo://app?vid=46831f95-9cad-478a-9bfb-2e3a45c6c002","ios":"levelo://app?vid=46831f95-9cad-478a-9bfb-2e3a45c6c002"},"vehicle_type_id":"4","last_reported":1752016236,"current_range_meters":10800,"station_id":"ce4bh9p2rcd13ifvqec0","pricing_plan_id":"cebpf4jnsgd1na2vs0mg"},{"bike_id":"d26c9c2e-4093-4856-8b31-0b2bfb428c2a","system_id":"levelo_inurba_marseille","lat":43.31074,"lon":5.38356,"is_reserved":false,"is_disabled":false,"rental_uris":{"android":"levelo://app?vid=d26c9c2e-4093-4856-8b31-0b2bfb428c2a","ios":"levelo://app?vid=d26c9c2e-4093-4856-8b31-0b2bfb428c2a"},"vehicle_type_id":"4","last_reported":1752016236,"current_range_meters":11200,"station_id":"ce4bgv92rcd13ifvqcr0","pricing_plan_id":"cebpf4jnsgd1na2vs0mg"},{"bike_id":"9e057cb2-dffc-48cd-a115-95eef14863b5","system_id":"levelo_inurba_marseille","lat":43.24062,"lon":5.37773,"is_reserved":false,"is_disabled":false,"rental_uris":{"android":"levelo://app?vid=9e057cb2-dffc-48cd-a115-95eef14863b5","ios":"levelo://app?vid=9e057cb2-dffc-48cd-a115-95eef14863b5"},"vehicle_type_id":"4","last_reported":1752016236,"current_range_meters":11200,"station_id":"ce4bhnp2rcd13ifvqgvg","pricing_plan_id":"cebpf4jnsgd1na2vs0mg"},{"bike_id":"c2ee7d66-374b-44cd-b9d7-9ad64301293b","system_id":"levelo_inurba_marseille","lat":43.33776,"lon":5.3748,"is_reserved":false,"is_disabled":false,"rental_uris":{"android":"levelo://app?vid=c2ee7d66-374b-44cd-b9d7-9ad64301293b","ios":"levelo://app?vid=c2ee7d66-374b-44cd-b9d7-9ad64301293b"},"vehicle_type_id":"4","last_reported":1752016236,"current_range_meters":11600,"station_id":"","pricing_plan_id":"cebpf4jnsgd1na2vs0mg"},{"bike_id":"b56d4d93-bae5-4f6b-8757-4bac73de1ddd","system_id":"levelo_inurba_marseille","lat":43.29956,"lon":5.37181,"is_reserved":false,"is_disabled":false,"rental_uris":{"android":"levelo://app?vid=b56d4d93-bae5-4f6b-8757-4bac73de1ddd","ios":"levelo://app?vid=b56d4d93-bae5-4f6b-8757-4bac73de1ddd"},"vehicle_type_id":"4","last_reported":1752016236,"current_range_meters":11600,"station_id":"ce4bgr92rcd13ifvqc7g","pricing_plan_id":"cebpf4jnsgd1na2vs0mg"},{"bike_id":"0c24c002-49aa-4dee-a865-910b7daed75c","system_id":"levelo_inurba_marseille","lat":43.28938,"lon":5.364,"is_reserved":false,"is_disabled":false,"rental_uris":{"android":"levelo://app?vid=0c24c002-49aa-4dee-a865-910b7daed75c","ios":"levelo://app?vid=0c24c002-49aa-4dee-a865-910b7daed75c"},"vehicle_type_id":"4","last_reported":1752016236,"current_range_meters":11600,"station_id":"ce4bhc92rcd13ifvqetg","pricing_plan_id":"cebpf4jnsgd1na2vs0mg"},{"bike_id":"77c63ecf-8ec4-46ab-b695-3fed0ff0fb70","system_id":"levelo_inurba_marseille","lat":43.299033,"lon":5.436799,"is_reserved":false,"is_disabled":false,"rental_uris":{"android":"levelo://app?vid=77c63ecf-8ec4-46ab-b695-3fed0ff0fb70","ios":"levelo://app?vid=77c63ecf-8ec4-46ab-b695-3fed0ff0fb70"},"vehicle_type_id":"4","last_reported":1752016236,"current_range_meters":11600,"station_id":"ce4bhpp2rcd13ifvqhfg","pricing_plan_id":"cebpf4jnsgd1na2vs0mg"},{"bike_id":"9fc1602e-4a91-47c7-8ab5-abd5649e3bb1","system_id":"levelo_inurba_marseille","lat":43.324844,"lon":5.365677,"is_reserved":false,"is_disabled":false,"rental_uris":{"android":"levelo://app?vid=9fc1602e-4a91-47c7-8ab5-abd5649e3bb1","ios":"levelo://app?vid=9fc1602e-4a91-47c7-8ab5-abd5649e3bb1"},"vehicle_type_id":"4","last_reported":1752016236,"current_range_meters":11600,"station_id":"ce4bhs12rcd13ifvqhvg","pricing_plan_id":"cebpf4jnsgd1na2vs0mg"},{"bike_id":"b287377f-3d0b-47ac-86fe-9e0dfc1563de","system_id":"levelo_inurba_marseille","lat":43.225018,"lon":5.347769,"is_reserved":false,"is_disabled":false,"rental_uris":{"android":"levelo://app?vid=b287377f-3d0b-47ac-86fe-9e0dfc1563de","ios":"levelo://app?vid=b287377f-3d0b-47ac-86fe-9e0dfc1563de"},"vehicle_type_id":"4","last_reported":1752016236,"current_range_meters":11600,"station_id":"st_cvj5dfep6f1abm77gieg","pricing_plan_id":"cebpf4jnsgd1na2vs0mg"},{"bike_id":"19c552da-55bc-46d8-97cb-d1fbabdad01a","system_id":"levelo_inurba_marseille","lat":43.21198,"lon":5.35066,"is_reserved":false,"is_disabled":false,"rental_uris":{"android":"levelo://app?vid=19c552da-55bc-46d8-97cb-d1fbabdad01a","ios":"levelo://app?vid=19c552da-55bc-46d8-97cb-d1fbabdad01a"},"vehicle_type_id":"4","last_reported":1752016236,"current_range_meters":11600,"station_id":"st_cvj6sg6p6f1abm77japg","pricing_plan_id":"cebpf4jnsgd1na2vs0mg"},{"bike_id":"d5ef770d-9759-47e3-b3a5-7d2785ef76db","system_id":"levelo_inurba_marseille","lat":43.32929,"lon":5.39031,"is_reserved":false,"is_disabled":false,"rental_uris":{"android":"levelo://app?vid=d5ef770d-9759-47e3-b3a5-7d2785ef76db","ios":"levelo://app?vid=d5ef770d-9759-47e3-b3a5-7d2785ef76db"},"vehicle_type_id":"4","last_reported":1752016236,"current_range_meters":12000,"station_id":"","pricing_plan_id":"cebpf4jnsgd1na2vs0mg"},{"bike_id":"3030cb07-c041-4d87-a253-8c849c24aa85","system_id":"levelo_inurba_marseille","lat":43.32592,"lon":5.36337,"is_reserved":false,"is_disabled":false,"rental_uris":{"android":"levelo://app?vid=3030cb07-c041-4d87-a253-8c849c24aa85","ios":"levelo://app?vid=3030cb07-c041-4d87-a253-8c849c24aa85"},"vehicle_type_id":"4","last_reported":1752016236,"current_range_meters":12000,"station_id":"","pricing_plan_id":"cebpf4jnsgd1na2vs0mg"},{"bike_id":"72bcd877-c3e4-4392-b537-46ac61621dc3","system_id":"levelo_inurba_marseille","lat":43.29634,"lon":5.40603,"is_reserved":false,"is_disabled":false,"rental_uris":{"android":"levelo://app?vid=72bcd877-c3e4-4392-b537-46ac61621dc3","ios":"levelo://app?vid=72bcd877-c3e4-4392-b537-46ac61621dc3"},"vehicle_type_id":"4","last_reported":1752016236,"current_range_meters":12000,"station_id":"ce4bh0h2rcd13ifvqd60","pricing_plan_id":"cebpf4jnsgd1na2vs0mg"},{"bike_id":"09d41f5a-6a7e-48ee-9cbb-ff2065249163","system_id":"levelo_inurba_marseille","lat":43.32,"lon":5.38164,"is_reserved":false,"is_disabled":false,"rental_uris":{"android":"levelo://app?vid=09d41f5a-6a7e-48ee-9cbb-ff2065249163","ios":"levelo://app?vid=09d41f5a-6a7e-48ee-9cbb-ff2065249163"},"vehicle_type_id":"4","last_reported":1752016236,"current_range_meters":12000,"station_id":"ce4bhr12rcd13ifvqhpg","pricing_plan_id":"cebpf4jnsgd1na2vs0mg"},{"bike_id":"82f40aca-214c-480a-99d7-4df294448107","system_id":"levelo_inurba_marseille","lat":43.254895,"lon":5.376448,"is_reserved":false,"is_disabled":false,"rental_uris":{"android":"levelo://app?vid=82f40aca-214c-480a-99d7-4df294448107","ios":"levelo://app?vid=82f40aca-214c-480a-99d7-4df294448107"},"vehicle_type_id":"4","last_reported":1752016236,"current_range_meters":12400,"station_id":"ce4bhh12rcd13ifvqff0","pricing_plan_id":"cebpf4jnsgd1na2vs0mg"},{"bike_id":"2e28e98a-5eb3-4578-ab4d-b141de9daeaa","system_id":"levelo_inurba_marseille","lat":43.264907,"lon":5.395394,"is_reserved":false,"is_disabled":false,"rental_uris":{"android":"levelo://app?vid=2e28e98a-5eb3-4578-ab4d-b141de9daeaa","ios":"levelo://app?vid=2e28e98a-5eb3-4578-ab4d-b141de9daeaa"},"vehicle_type_id":"4","last_reported":1752016236,"current_range_meters":12800,"station_id":"","pricing_plan_id":"cebpf4jnsgd1na2vs0mg"},{"bike_id":"87c2d236-4978-4760-be77-27d7f5a212e4","system_id":"levelo_inurba_marseille","lat":43.29644,"lon":5.36205,"is_reserved":false,"is_disabled":false,"rental_uris":{"android":"levelo://app?vid=87c2d236-4978-4760-be77-27d7f5a212e4","ios":"levelo://app?vid=87c2d236-4978-4760-be77-27d7f5a212e4"},"vehicle_type_id":"4","last_reported":1752016236,"current_range_meters":12800,"station_id":"","pricing_plan_id":"cebpf4jnsgd1na2vs0mg"},{"bike_id":"3f36551c-1ad4-4f84-b0f0-93390b4c9143","system_id":"levelo_inurba_marseille","lat":43.30801,"lon":5.38148,"is_reserved":false,"is_disabled":false,"rental_uris":{"android":"levelo://app?vid=3f36551c-1ad4-4f84-b0f0-93390b4c9143","ios":"levelo://app?vid=3f36551c-1ad4-4f84-b0f0-93390b4c9143"},"vehicle_type_id":"4","last_reported":1752016236,"current_range_meters":12800,"station_id":"ce4bgt12rcd13ifvqce0","pricing_plan_id":"cebpf4jnsgd1na2vs0mg"},{"bike_id":"bb29e41f-3292-49b1-a9fc-f6c4198e0b85","system_id":"levelo_inurba_marseille","lat":43.310817,"lon":5.42428,"is_reserved":false,"is_disabled":false,"rental_uris":{"android":"levelo://app?vid=bb29e41f-3292-49b1-a9fc-f6c4198e0b85","ios":"levelo://app?vid=bb29e41f-3292-49b1-a9fc-f6c4198e0b85"},"vehicle_type_id":"4","last_reported":1752016236,"current_range_meters":12800,"station_id":"ce4bhp92rcd13ifvqhag","pricing_plan_id":"cebpf4jnsgd1na2vs0mg"},{"bike_id":"8935e67e-e377-4f20-b30d-fbcbd3d43af7","system_id":"levelo_inurba_marseille","lat":43.28614,"lon":5.35114,"is_reserved":false,"is_disabled":false,"rental_uris":{"android":"levelo://app?vid=8935e67e-e377-4f20-b30d-fbcbd3d43af7","ios":"levelo://app?vid=8935e67e-e377-4f20-b30d-fbcbd3d43af7"},"vehicle_type_id":"4","last_reported":1752016236,"current_range_meters":14000,"station_id":"ce4bhch2rcd13ifvqeug","pricing_plan_id":"cebpf4jnsgd1na2vs0mg"},{"bike_id":"3c78f3be-0595-4cde-ab3a-21eba194a66a","system_id":"levelo_inurba_marseille","lat":43.21731,"lon":5.34604,"is_reserved":false,"is_disabled":false,"rental_uris":{"android":"levelo://app?vid=3c78f3be-0595-4cde-ab3a-21eba194a66a","ios":"levelo://app?vid=3c78f3be-0595-4cde-ab3a-21eba194a66a"},"vehicle_type_id":"4","last_reported":1752016236,"current_range_meters":14400,"station_id":"","pricing_plan_id":"cebpf4jnsgd1na2vs0mg"},{"bike_id":"30899413-c446-4734-b4dc-0d42348e0314","system_id":"levelo_inurba_marseille","lat":43.30881,"lon":5.39632,"is_reserved":false,"is_disabled":false,"rental_uris":{"android":"levelo://app?vid=30899413-c446-4734-b4dc-0d42348e0314","ios":"levelo://app?vid=30899413-c446-4734-b4dc-0d42348e0314"},"vehicle_type_id":"4","last_reported":1752016236,"current_range_meters":14400,"station_id":"ce4bh012rcd13ifvqcv0","pricing_plan_id":"cebpf4jnsgd1na2vs0mg"},{"bike_id":"dfed5170-dd30-4c34-b10d-0827cb5726cb","system_id":"levelo_inurba_marseille","lat":43.23189,"lon":5.39974,"is_reserved":false,"is_disabled":false,"rental_uris":{"android":"levelo://app?vid=dfed5170-dd30-4c34-b10d-0827cb5726cb","ios":"levelo://app?vid=dfed5170-dd30-4c34-b10d-0827cb5726cb"},"vehicle_type_id":"4","last_reported":1752016236,"current_range_meters":14400,"station_id":"ce4bhn12rcd13ifvqgqg","pricing_plan_id":"cebpf4jnsgd1na2vs0mg"},{"bike_id":"b38b3c7f-66be-458a-b177-543381d4c3db","system_id":"levelo_inurba_marseille","lat":43.30312,"lon":5.40444,"is_reserved":false,"is_disabled":false,"rental_uris":{"android":"levelo://app?vid=b38b3c7f-66be-458a-b177-543381d4c3db","ios":"levelo://app?vid=b38b3c7f-66be-458a-b177-543381d4c3db"},"vehicle_type_id":"4","last_reported":1752016236,"current_range_meters":14800,"station_id":"ce4bh012rcd13ifvqd10","pricing_plan_id":"cebpf4jnsgd1na2vs0mg"},{"bike_id":"ee3b268a-f5bf-413d-8421-48049331943d","system_id":"levelo_inurba_marseille","lat":43.248085,"lon":5.374592,"is_reserved":false,"is_disabled":false,"rental_uris":{"android":"levelo://app?vid=ee3b268a-f5bf-413d-8421-48049331943d","ios":"levelo://app?vid=ee3b268a-f5bf-413d-8421-48049331943d"},"vehicle_type_id":"4","last_reported":1752016236,"current_range_meters":14800,"station_id":"ce4bhgh2rcd13ifvqfb0","pricing_plan_id":"cebpf4jnsgd1na2vs0mg"},{"bike_id":"a74d1421-7a37-499b-b1c4-5e1394842b7e","system_id":"levelo_inurba_marseille","lat":43.33725,"lon":5.391784,"is_reserved":false,"is_disabled":false,"rental_uris":{"android":"levelo://app?vid=a74d1421-7a37-499b-b1c4-5e1394842b7e","ios":"levelo://app?vid=a74d1421-7a37-499b-b1c4-5e1394842b7e"},"vehicle_type_id":"4","last_reported":1752016236,"current_range_meters":14800,"station_id":"ce4bhr92rcd13ifvqhsg","pricing_plan_id":"cebpf4jnsgd1na2vs0mg"},{"bike_id":"ca2bab86-416f-413e-81b0-5002099ee069","system_id":"levelo_inurba_marseille","lat":43.2757,"lon":5.420077,"is_reserved":false,"is_disabled":false,"rental_uris":{"android":"levelo://app?vid=ca2bab86-416f-413e-81b0-5002099ee069","ios":"levelo://app?vid=ca2bab86-416f-413e-81b0-5002099ee069"},"vehicle_type_id":"4","last_reported":1752016236,"current_range_meters":15200,"station_id":"","pricing_plan_id":"cebpf4jnsgd1na2vs0mg"},{"bike_id":"fe732643-6705-4e38-869b-f6186f4d0d3d","system_id":"levelo_inurba_marseille","lat":43.30873,"lon":5.40264,"is_reserved":false,"is_disabled":false,"rental_uris":{"android":"levelo://app?vid=fe732643-6705-4e38-869b-f6186f4d0d3d","ios":"levelo://app?vid=fe732643-6705-4e38-869b-f6186f4d0d3d"},"vehicle_type_id":"4","last_reported":1752016236,"current_range_meters":15200,"station_id":"ce4bgvp2rcd13ifvqct0","pricing_plan_id":"cebpf4jnsgd1na2vs0mg"},{"bike_id":"84e7e709-4e4f-4764-818c-af719435bfca","system_id":"levelo_inurba_marseille","lat":43.31663,"lon":5.37364,"is_reserved":false,"is_disabled":false,"rental_uris":{"android":"levelo://app?vid=84e7e709-4e4f-4764-818c-af719435bfca","ios":"levelo://app?vid=84e7e709-4e4f-4764-818c-af719435bfca"},"vehicle_type_id":"4","last_reported":1752016236,"current_range_meters":16000,"station_id":"","pricing_plan_id":"cebpf4jnsgd1na2vs0mg"},{"bike_id":"246cfaa3-51f6-4420-8554-0d8bbc7e7fad","system_id":"levelo_inurba_marseille","lat":43.2793,"lon":5.44328,"is_reserved":false,"is_disabled":false,"rental_uris":{"android":"levelo://app?vid=246cfaa3-51f6-4420-8554-0d8bbc7e7fad","ios":"levelo://app?vid=246cfaa3-51f6-4420-8554-0d8bbc7e7fad"},"vehicle_type_id":"4","last_reported":1752016236,"current_range_meters":16000,"station_id":"","pricing_plan_id":"cebpf4jnsgd1na2vs0mg"},{"bike_id":"3aa21853-c52e-42a3-8eef-6018113597e0","system_id":"levelo_inurba_marseille","lat":43.3093,"lon":5.40148,"is_reserved":false,"is_disabled":false,"rental_uris":{"android":"levelo://app?vid=3aa21853-c52e-42a3-8eef-6018113597e0","ios":"levelo://app?vid=3aa21853-c52e-42a3-8eef-6018113597e0"},"vehicle_type_id":"4","last_reported":1752016236,"current_range_meters":16000,"station_id":"ce4bgvp2rcd13ifvqct0","pricing_plan_id":"cebpf4jnsgd1na2vs0mg"},{"bike_id":"e9109a26-bd0a-4770-9883-50517b063a5f","system_id":"levelo_inurba_marseille","lat":43.29882,"lon":5.39745,"is_reserved":false,"is_disabled":false,"rental_uris":{"android":"levelo://app?vid=e9109a26-bd0a-4770-9883-50517b063a5f","ios":"levelo://app?vid=e9109a26-bd0a-4770-9883-50517b063a5f"},"vehicle_type_id":"4","last_reported":1752016236,"current_range_meters":16000,"station_id":"ce4bh0h2rcd13ifvqd50","pricing_plan_id":"cebpf4jnsgd1na2vs0mg"},{"bike_id":"1e112a52-32ff-42af-8077-893c4a6d3611","system_id":"levelo_inurba_marseille","lat":43.28409,"lon":5.34998,"is_reserved":false,"is_disabled":false,"rental_uris":{"android":"levelo://app?vid=1e112a52-32ff-42af-8077-893c4a6d3611","ios":"levelo://app?vid=1e112a52-32ff-42af-8077-893c4a6d3611"},"vehicle_type_id":"4","last_reported":1752016236,"current_range_meters":16000,"station_id":"ce4bhbh2rcd13ifvqepg","pricing_plan_id":"cebpf4jnsgd1na2vs0mg"},{"bike_id":"9959d7fa-4898-43a5-a1ec-b9fed544cad3","system_id":"levelo_inurba_marseille","lat":43.28423,"lon":5.34995,"is_reserved":false,"is_disabled":false,"rental_uris":{"android":"levelo://app?vid=9959d7fa-4898-43a5-a1ec-b9fed544cad3","ios":"levelo://app?vid=9959d7fa-4898-43a5-a1ec-b9fed544cad3"},"vehicle_type_id":"4","last_reported":1752016236,"current_range_meters":16000,"station_id":"ce4bhbh2rcd13ifvqepg","pricing_plan_id":"cebpf4jnsgd1na2vs0mg"},{"bike_id":"21881684-6f22-4830-8a31-7498699d1f65","system_id":"levelo_inurba_marseille","lat":43.24073,"lon":5.37766,"is_reserved":false,"is_disabled":false,"rental_uris":{"android":"levelo://app?vid=21881684-6f22-4830-8a31-7498699d1f65","ios":"levelo://app?vid=21881684-6f22-4830-8a31-7498699d1f65"},"vehicle_type_id":"4","last_reported":1752016236,"current_range_meters":16000,"station_id":"ce4bhnp2rcd13ifvqgvg","pricing_plan_id":"cebpf4jnsgd1na2vs0mg"},{"bike_id":"a5a1db4c-4dcc-46e5-a84f-c0fb8283b97a","system_id":"levelo_inurba_marseille","lat":43.24048,"lon":5.37682,"is_reserved":false,"is_disabled":false,"rental_uris":{"android":"levelo://app?vid=a5a1db4c-4dcc-46e5-a84f-c0fb8283b97a","ios":"levelo://app?vid=a5a1db4c-4dcc-46e5-a84f-c0fb8283b97a"},"vehicle_type_id":"4","last_reported":1752016236,"current_range_meters":16400,"station_id":"","pricing_plan_id":"cebpf4jnsgd1na2vs0mg"},{"bike_id":"82e934ba-a598-4bcc-85ae-7c81e56a3ff1","system_id":"levelo_inurba_marseille","lat":43.31603,"lon":5.3889,"is_reserved":false,"is_disabled":false,"rental_uris":{"android":"levelo://app?vid=82e934ba-a598-4bcc-85ae-7c81e56a3ff1","ios":"levelo://app?vid=82e934ba-a598-4bcc-85ae-7c81e56a3ff1"},"vehicle_type_id":"4","last_reported":1752016236,"current_range_meters":16400,"station_id":"","pricing_plan_id":"cebpf4jnsgd1na2vs0mg"},{"bike_id":"5e12d7c1-0353-49ae-9f55-6167060c6112","system_id":"levelo_inurba_marseille","lat":43.30797,"lon":5.3815,"is_reserved":false,"is_disabled":false,"rental_uris":{"android":"levelo://app?vid=5e12d7c1-0353-49ae-9f55-6167060c6112","ios":"levelo://app?vid=5e12d7c1-0353-49ae-9f55-6167060c6112"},"vehicle_type_id":"4","last_reported":1752016236,"current_range_meters":16400,"station_id":"ce4bgt12rcd13ifvqce0","pricing_plan_id":"cebpf4jnsgd1na2vs0mg"},{"bike_id":"cc5e7b05-c8c1-4dbf-9203-2f3ace6f1f33","system_id":"levelo_inurba_marseille","lat":43.31115,"lon":5.37769,"is_reserved":false,"is_disabled":false,"rental_uris":{"android":"levelo://app?vid=cc5e7b05-c8c1-4dbf-9203-2f3ace6f1f33","ios":"levelo://app?vid=cc5e7b05-c8c1-4dbf-9203-2f3ace6f1f33"},"vehicle_type_id":"4","last_reported":1752016236,"current_range_meters":16400,"station_id":"ce4bgt92rcd13ifvqcg0","pricing_plan_id":"cebpf4jnsgd1na2vs0mg"},{"bike_id":"f187bca7-730c-495f-b36c-b985f85f6d76","system_id":"levelo_inurba_marseille","lat":43.28609,"lon":5.35135,"is_reserved":false,"is_disabled":false,"rental_uris":{"android":"levelo://app?vid=f187bca7-730c-495f-b36c-b985f85f6d76","ios":"levelo://app?vid=f187bca7-730c-495f-b36c-b985f85f6d76"},"vehicle_type_id":"4","last_reported":1752016236,"current_range_meters":16400,"station_id":"ce4bhch2rcd13ifvqeug","pricing_plan_id":"cebpf4jnsgd1na2vs0mg"},{"bike_id":"c95621d9-878a-48a5-a574-d23785ada91f","system_id":"levelo_inurba_marseille","lat":43.25111,"lon":5.40341,"is_reserved":false,"is_disabled":false,"rental_uris":{"android":"levelo://app?vid=c95621d9-878a-48a5-a574-d23785ada91f","ios":"levelo://app?vid=c95621d9-878a-48a5-a574-d23785ada91f"},"vehicle_type_id":"4","last_reported":1752016236,"current_range_meters":16400,"station_id":"ce4bhlh2rcd13ifvqgig","pricing_plan_id":"cebpf4jnsgd1na2vs0mg"},{"bike_id":"3cf6f2b1-6c40-4c38-92e8-5f76dab34182","system_id":"levelo_inurba_marseille","lat":43.23189,"lon":5.39971,"is_reserved":false,"is_disabled":false,"rental_uris":{"android":"levelo://app?vid=3cf6f2b1-6c40-4c38-92e8-5f76dab34182","ios":"levelo://app?vid=3cf6f2b1-6c40-4c38-92e8-5f76dab34182"},"vehicle_type_id":"4","last_reported":1752016236,"current_range_meters":16400,"station_id":"ce4bhn12rcd13ifvqgqg","pricing_plan_id":"cebpf4jnsgd1na2vs0mg"},{"bike_id":"4cd43d50-e63a-4436-aa3b-34af3b42d7be","system_id":"levelo_inurba_marseille","lat":43.31888,"lon":5.40738,"is_reserved":false,"is_disabled":false,"rental_uris":{"android":"levelo://app?vid=4cd43d50-e63a-4436-aa3b-34af3b42d7be","ios":"levelo://app?vid=4cd43d50-e63a-4436-aa3b-34af3b42d7be"},"vehicle_type_id":"4","last_reported":1752016236,"current_range_meters":16400,"station_id":"ce4bhq12rcd13ifvqhig","pricing_plan_id":"cebpf4jnsgd1na2vs0mg"},{"bike_id":"bd4ec4fd-1cd9-40b3-9461-9742e5002141","system_id":"levelo_inurba_marseille","lat":43.33734,"lon":5.39183,"is_reserved":false,"is_disabled":false,"rental_uris":{"android":"levelo://app?vid=bd4ec4fd-1cd9-40b3-9461-9742e5002141","ios":"levelo://app?vid=bd4ec4fd-1cd9-40b3-9461-9742e5002141"},"vehicle_type_id":"4","last_reported":1752016236,"current_range_meters":16400,"station_id":"ce4bhr92rcd13ifvqhsg","pricing_plan_id":"cebpf4jnsgd1na2vs0mg"},{"bike_id":"cd812f06-3254-4dc4-bdab-94ecd7361d33","system_id":"levelo_inurba_marseille","lat":43.217466,"lon":5.346045,"is_reserved":false,"is_disabled":false,"rental_uris":{"android":"levelo://app?vid=cd812f06-3254-4dc4-bdab-94ecd7361d33","ios":"levelo://app?vid=cd812f06-3254-4dc4-bdab-94ecd7361d33"},"vehicle_type_id":"4","last_reported":1752016236,"current_range_meters":16400,"station_id":"st_cvj6r9ubvosntc0bgbag","pricing_plan_id":"cebpf4jnsgd1na2vs0mg"},{"bike_id":"d0f90c24-dd03-411b-9731-55305f76b7c8","system_id":"levelo_inurba_marseille","lat":43.21167,"lon":5.35107,"is_reserved":false,"is_disabled":false,"rental_uris":{"android":"levelo://app?vid=d0f90c24-dd03-411b-9731-55305f76b7c8","ios":"levelo://app?vid=d0f90c24-dd03-411b-9731-55305f76b7c8"},"vehicle_type_id":"4","last_reported":1752016236,"current_range_meters":16400,"station_id":"st_cvj6sg6p6f1abm77japg","pricing_plan_id":"cebpf4jnsgd1na2vs0mg"},{"bike_id":"c2b72fe0-bae6-4c7b-ad48-9e771b203dc8","system_id":"levelo_inurba_marseille","lat":43.31349,"lon":5.38493,"is_reserved":false,"is_disabled":false,"rental_uris":{"android":"levelo://app?vid=c2b72fe0-bae6-4c7b-ad48-9e771b203dc8","ios":"levelo://app?vid=c2b72fe0-bae6-4c7b-ad48-9e771b203dc8"},"vehicle_type_id":"4","last_reported":1752016236,"current_range_meters":16800,"station_id":"ce4bgt92rcd13ifvqcf0","pricing_plan_id":"cebpf4jnsgd1na2vs0mg"},{"bike_id":"a8bd0486-d119-4b8a-9ced-e3e851a0c67f","system_id":"levelo_inurba_marseille","lat":43.30784,"lon":5.37639,"is_reserved":false,"is_disabled":false,"rental_uris":{"android":"levelo://app?vid=a8bd0486-d119-4b8a-9ced-e3e851a0c67f","ios":"levelo://app?vid=a8bd0486-d119-4b8a-9ced-e3e851a0c67f"},"vehicle_type_id":"4","last_reported":1752016236,"current_range_meters":16800,"station_id":"ce4bgv92rcd13ifvqcq0","pricing_plan_id":"cebpf4jnsgd1na2vs0mg"},{"bike_id":"d0081ee6-0916-4b93-b73a-7b950e6580df","system_id":"levelo_inurba_marseille","lat":43.30883,"lon":5.3964,"is_reserved":false,"is_disabled":false,"rental_uris":{"android":"levelo://app?vid=d0081ee6-0916-4b93-b73a-7b950e6580df","ios":"levelo://app?vid=d0081ee6-0916-4b93-b73a-7b950e6580df"},"vehicle_type_id":"4","last_reported":1752016236,"current_range_meters":16800,"station_id":"ce4bh012rcd13ifvqcv0","pricing_plan_id":"cebpf4jnsgd1na2vs0mg"},{"bike_id":"f06ad9c1-4d2d-477f-9cf5-8a8b31168797","system_id":"levelo_inurba_marseille","lat":43.2868,"lon":5.37405,"is_reserved":false,"is_disabled":false,"rental_uris":{"android":"levelo://app?vid=f06ad9c1-4d2d-477f-9cf5-8a8b31168797","ios":"levelo://app?vid=f06ad9c1-4d2d-477f-9cf5-8a8b31168797"},"vehicle_type_id":"4","last_reported":1752016236,"current_range_meters":16800,"station_id":"ce4bh3p2rcd13ifvqdq0","pricing_plan_id":"cebpf4jnsgd1na2vs0mg"},{"bike_id":"7dfc9be5-54b4-4fb0-8ace-b34427178168","system_id":"levelo_inurba_marseille","lat":43.284677,"lon":5.358751,"is_reserved":false,"is_disabled":false,"rental_uris":{"android":"levelo://app?vid=7dfc9be5-54b4-4fb0-8ace-b34427178168","ios":"levelo://app?vid=7dfc9be5-54b4-4fb0-8ace-b34427178168"},"vehicle_type_id":"4","last_reported":1752016236,"current_range_meters":16800,"station_id":"ce4bhah2rcd13ifvqei0","pricing_plan_id":"cebpf4jnsgd1na2vs0mg"},{"bike_id":"d6543ad0-16d4-4793-8970-3736097362b9","system_id":"levelo_inurba_marseille","lat":43.28613,"lon":5.35112,"is_reserved":false,"is_disabled":false,"rental_uris":{"android":"levelo://app?vid=d6543ad0-16d4-4793-8970-3736097362b9","ios":"levelo://app?vid=d6543ad0-16d4-4793-8970-3736097362b9"},"vehicle_type_id":"4","last_reported":1752016236,"current_range_meters":16800,"station_id":"ce4bhch2rcd13ifvqeug","pricing_plan_id":"cebpf4jnsgd1na2vs0mg"},{"bike_id":"b2b2ff04-5923-40c3-96ba-f3e8ed72f2f3","system_id":"levelo_inurba_marseille","lat":43.25504,"lon":5.37648,"is_reserved":false,"is_disabled":false,"rental_uris":{"android":"levelo://app?vid=b2b2ff04-5923-40c3-96ba-f3e8ed72f2f3","ios":"levelo://app?vid=b2b2ff04-5923-40c3-96ba-f3e8ed72f2f3"},"vehicle_type_id":"4","last_reported":1752016236,"current_range_meters":16800,"station_id":"ce4bhh12rcd13ifvqff0","pricing_plan_id":"cebpf4jnsgd1na2vs0mg"},{"bike_id":"d9263f23-41e1-442b-92e0-1b8cb6ea3375","system_id":"levelo_inurba_marseille","lat":43.28708,"lon":5.39968,"is_reserved":false,"is_disabled":false,"rental_uris":{"android":"levelo://app?vid=d9263f23-41e1-442b-92e0-1b8cb6ea3375","ios":"levelo://app?vid=d9263f23-41e1-442b-92e0-1b8cb6ea3375"},"vehicle_type_id":"4","last_reported":1752016236,"current_range_meters":16800,"station_id":"ce4bho92rcd13ifvqh3g","pricing_plan_id":"cebpf4jnsgd1na2vs0mg"},{"bike_id":"ac39d365-5643-4610-bf4b-0e5167a77f88","system_id":"levelo_inurba_marseille","lat":43.33725,"lon":5.39203,"is_reserved":false,"is_disabled":false,"rental_uris":{"android":"levelo://app?vid=ac39d365-5643-4610-bf4b-0e5167a77f88","ios":"levelo://app?vid=ac39d365-5643-4610-bf4b-0e5167a77f88"},"vehicle_type_id":"4","last_reported":1752016236,"current_range_meters":16800,"station_id":"ce4bhr92rcd13ifvqhsg","pricing_plan_id":"cebpf4jnsgd1na2vs0mg"},{"bike_id":"845fad86-fa2a-47ed-88d7-6e6d7bb18fb0","system_id":"levelo_inurba_marseille","lat":43.30737,"lon":5.42435,"is_reserved":false,"is_disabled":false,"rental_uris":{"android":"levelo://app?vid=845fad86-fa2a-47ed-88d7-6e6d7bb18fb0","ios":"levelo://app?vid=845fad86-fa2a-47ed-88d7-6e6d7bb18fb0"},"vehicle_type_id":"4","last_reported":1752016236,"current_range_meters":16800,"station_id":"st_cvj6ca6bvosntc0bfgr0","pricing_plan_id":"cebpf4jnsgd1na2vs0mg"},{"bike_id":"4975b22d-8c48-452f-bd19-7a9d3ed7c378","system_id":"levelo_inurba_marseille","lat":43.29676,"lon":5.37424,"is_reserved":false,"is_disabled":false,"rental_uris":{"android":"levelo://app?vid=4975b22d-8c48-452f-bd19-7a9d3ed7c378","ios":"levelo://app?vid=4975b22d-8c48-452f-bd19-7a9d3ed7c378"},"vehicle_type_id":"4","last_reported":1752016236,"current_range_meters":17200,"station_id":"","pricing_plan_id":"cebpf4jnsgd1na2vs0mg"},{"bike_id":"f5c16f07-bc6f-4121-91a7-5ad90eec4f34","system_id":"levelo_inurba_marseille","lat":43.31201,"lon":5.37328,"is_reserved":false,"is_disabled":false,"rental_uris":{"android":"levelo://app?vid=f5c16f07-bc6f-4121-91a7-5ad90eec4f34","ios":"levelo://app?vid=f5c16f07-bc6f-4121-91a7-5ad90eec4f34"},"vehicle_type_id":"4","last_reported":1752016236,"current_range_meters":17200,"station_id":"","pricing_plan_id":"cebpf4jnsgd1na2vs0mg"},{"bike_id":"b72b4b6a-fb41-400f-b76f-2e564f2618dc","system_id":"levelo_inurba_marseille","lat":43.28436,"lon":5.39211,"is_reserved":false,"is_disabled":false,"rental_uris":{"android":"levelo://app?vid=b72b4b6a-fb41-400f-b76f-2e564f2618dc","ios":"levelo://app?vid=b72b4b6a-fb41-400f-b76f-2e564f2618dc"},"vehicle_type_id":"4","last_reported":1752016236,"current_range_meters":17200,"station_id":"ce4bhoh2rcd13ifvqh5g","pricing_plan_id":"cebpf4jnsgd1na2vs0mg"},{"bike_id":"facb6975-eb04-4772-a02e-e994c9ae36c0","system_id":"levelo_inurba_marseille","lat":43.29797,"lon":5.39316,"is_reserved":false,"is_disabled":false,"rental_uris":{"android":"levelo://app?vid=facb6975-eb04-4772-a02e-e994c9ae36c0","ios":"levelo://app?vid=facb6975-eb04-4772-a02e-e994c9ae36c0"},"vehicle_type_id":"4","last_reported":1752016236,"current_range_meters":17200,"station_id":"chh1huq6cuj3fo74tm60","pricing_plan_id":"cebpf4jnsgd1na2vs0mg"},{"bike_id":"56eb3fdf-ea87-4fcf-85df-3680fa66363e","system_id":"levelo_inurba_marseille","lat":43.22509,"lon":5.34758,"is_reserved":false,"is_disabled":false,"rental_uris":{"android":"levelo://app?vid=56eb3fdf-ea87-4fcf-85df-3680fa66363e","ios":"levelo://app?vid=56eb3fdf-ea87-4fcf-85df-3680fa66363e"},"vehicle_type_id":"4","last_reported":1752016236,"current_range_meters":17200,"station_id":"st_cvj5dfep6f1abm77gieg","pricing_plan_id":"cebpf4jnsgd1na2vs0mg"},{"bike_id":"63a29694-4af7-4a38-a698-5b65cb87714a","system_id":"levelo_inurba_marseille","lat":43.30537,"lon":5.392,"is_reserved":false,"is_disabled":false,"rental_uris":{"android":"levelo://app?vid=63a29694-4af7-4a38-a698-5b65cb87714a","ios":"levelo://app?vid=63a29694-4af7-4a38-a698-5b65cb87714a"},"vehicle_type_id":"4","last_reported":1752016236,"current_range_meters":17600,"station_id":"","pricing_plan_id":"cebpf4jnsgd1na2vs0mg"},{"bike_id":"b6d9b946-f66a-4c6f-96e5-5d23e176360c","system_id":"levelo_inurba_marseille","lat":43.31315,"lon":5.38172,"is_reserved":false,"is_disabled":false,"rental_uris":{"android":"levelo://app?vid=b6d9b946-f66a-4c6f-96e5-5d23e176360c","ios":"levelo://app?vid=b6d9b946-f66a-4c6f-96e5-5d23e176360c"},"vehicle_type_id":"4","last_reported":1752016236,"current_range_meters":18000,"station_id":"","pricing_plan_id":"cebpf4jnsgd1na2vs0mg"},{"bike_id":"b757ffbb-2b71-4330-9f60-5f8a9d46d16e","system_id":"levelo_inurba_marseille","lat":43.29657,"lon":5.37121,"is_reserved":false,"is_disabled":false,"rental_uris":{"android":"levelo://app?vid=b757ffbb-2b71-4330-9f60-5f8a9d46d16e","ios":"levelo://app?vid=b757ffbb-2b71-4330-9f60-5f8a9d46d16e"},"vehicle_type_id":"4","last_reported":1752016236,"current_range_meters":18000,"station_id":"","pricing_plan_id":"cebpf4jnsgd1na2vs0mg"},{"bike_id":"b2caa530-bb19-4cc6-a6bd-61e3e1d7432e","system_id":"levelo_inurba_marseille","lat":43.33763,"lon":5.37461,"is_reserved":false,"is_disabled":false,"rental_uris":{"android":"levelo://app?vid=b2caa530-bb19-4cc6-a6bd-61e3e1d7432e","ios":"levelo://app?vid=b2caa530-bb19-4cc6-a6bd-61e3e1d7432e"},"vehicle_type_id":"4","last_reported":1752016236,"current_range_meters":18000,"station_id":"","pricing_plan_id":"cebpf4jnsgd1na2vs0mg"},{"bike_id":"d3e7d1c8-619e-4d4a-b509-cb0804216e13","system_id":"levelo_inurba_marseille","lat":43.30667,"lon":5.40086,"is_reserved":false,"is_disabled":false,"rental_uris":{"android":"levelo://app?vid=d3e7d1c8-619e-4d4a-b509-cb0804216e13","ios":"levelo://app?vid=d3e7d1c8-619e-4d4a-b509-cb0804216e13"},"vehicle_type_id":"4","last_reported":1752016236,"current_range_meters":18000,"station_id":"ce4bh112rcd13ifvqda0","pricing_plan_id":"cebpf4jnsgd1na2vs0mg"},{"bike_id":"0f562908-9d8a-497c-b2bd-20eaf3e93529","system_id":"levelo_inurba_marseille","lat":43.29261,"lon":5.40163,"is_reserved":false,"is_disabled":false,"rental_uris":{"android":"levelo://app?vid=0f562908-9d8a-497c-b2bd-20eaf3e93529","ios":"levelo://app?vid=0f562908-9d8a-497c-b2bd-20eaf3e93529"},"vehicle_type_id":"4","last_reported":1752016236,"current_range_meters":18000,"station_id":"ce4bh312rcd13ifvqdk0","pricing_plan_id":"cebpf4jnsgd1na2vs0mg"},{"bike_id":"306ce1a6-757b-4897-8796-d879ee9a33eb","system_id":"levelo_inurba_marseille","lat":43.29313,"lon":5.40138,"is_reserved":false,"is_disabled":false,"rental_uris":{"android":"levelo://app?vid=306ce1a6-757b-4897-8796-d879ee9a33eb","ios":"levelo://app?vid=306ce1a6-757b-4897-8796-d879ee9a33eb"},"vehicle_type_id":"4","last_reported":1752016236,"current_range_meters":18000,"station_id":"ce4bh312rcd13ifvqdk0","pricing_plan_id":"cebpf4jnsgd1na2vs0mg"},{"bike_id":"ea68ec2a-f366-4375-bc73-49130289492b","system_id":"levelo_inurba_marseille","lat":43.28424,"lon":5.3753,"is_reserved":false,"is_disabled":false,"rental_uris":{"android":"levelo://app?vid=ea68ec2a-f366-4375-bc73-49130289492b","ios":"levelo://app?vid=ea68ec2a-f366-4375-bc73-49130289492b"},"vehicle_type_id":"4","last_reported":1752016236,"current_range_meters":18000,"station_id":"ce4bh412rcd13ifvqds0","pricing_plan_id":"cebpf4jnsgd1na2vs0mg"},{"bike_id":"2b9631ac-a51c-4ce6-8b52-7146622323c0","system_id":"levelo_inurba_marseille","lat":43.26681,"lon":5.38276,"is_reserved":false,"is_disabled":false,"rental_uris":{"android":"levelo://app?vid=2b9631ac-a51c-4ce6-8b52-7146622323c0","ios":"levelo://app?vid=2b9631ac-a51c-4ce6-8b52-7146622323c0"},"vehicle_type_id":"4","last_reported":1752016236,"current_range_meters":18000,"station_id":"ce4bhg92rcd13ifvqf90","pricing_plan_id":"cebpf4jnsgd1na2vs0mg"},{"bike_id":"0f68b2e7-b018-4b36-8bcf-1e0466f98a1f","system_id":"levelo_inurba_marseille","lat":43.25498,"lon":5.37648,"is_reserved":false,"is_disabled":false,"rental_uris":{"android":"levelo://app?vid=0f68b2e7-b018-4b36-8bcf-1e0466f98a1f","ios":"levelo://app?vid=0f68b2e7-b018-4b36-8bcf-1e0466f98a1f"},"vehicle_type_id":"4","last_reported":1752016236,"current_range_meters":18000,"station_id":"ce4bhh12rcd13ifvqff0","pricing_plan_id":"cebpf4jnsgd1na2vs0mg"},{"bike_id":"2cc5fa8b-8f10-4e35-822d-01d76697906e","system_id":"levelo_inurba_marseille","lat":43.31992,"lon":5.38143,"is_reserved":false,"is_disabled":false,"rental_uris":{"android":"levelo://app?vid=2cc5fa8b-8f10-4e35-822d-01d76697906e","ios":"levelo://app?vid=2cc5fa8b-8f10-4e35-822d-01d76697906e"},"vehicle_type_id":"4","last_reported":1752016236,"current_range_meters":18000,"station_id":"ce4bhr12rcd13ifvqhpg","pricing_plan_id":"cebpf4jnsgd1na2vs0mg"},{"bike_id":"b28aa0a0-791c-4a08-9a16-c7bf6ea0ed5a","system_id":"levelo_inurba_marseille","lat":43.22515,"lon":5.34782,"is_reserved":false,"is_disabled":false,"rental_uris":{"android":"levelo://app?vid=b28aa0a0-791c-4a08-9a16-c7bf6ea0ed5a","ios":"levelo://app?vid=b28aa0a0-791c-4a08-9a16-c7bf6ea0ed5a"},"vehicle_type_id":"4","last_reported":1752016236,"current_range_meters":18000,"station_id":"st_cvj5dfep6f1abm77gieg","pricing_plan_id":"cebpf4jnsgd1na2vs0mg"},{"bike_id":"697d5fc4-b988-4a4e-8323-c1ce5ed61a61","system_id":"levelo_inurba_marseille","lat":43.21186,"lon":5.35067,"is_reserved":false,"is_disabled":false,"rental_uris":{"android":"levelo://app?vid=697d5fc4-b988-4a4e-8323-c1ce5ed61a61","ios":"levelo://app?vid=697d5fc4-b988-4a4e-8323-c1ce5ed61a61"},"vehicle_type_id":"4","last_reported":1752016236,"current_range_meters":18000,"station_id":"st_cvj6sg6p6f1abm77japg","pricing_plan_id":"cebpf4jnsgd1na2vs0mg"},{"bike_id":"4d649b38-83ba-4fcb-83f9-da139a5fcd11","system_id":"levelo_inurba_marseille","lat":43.29849,"lon":5.3838,"is_reserved":false,"is_disabled":false,"rental_uris":{"android":"levelo://app?vid=4d649b38-83ba-4fcb-83f9-da139a5fcd11","ios":"levelo://app?vid=4d649b38-83ba-4fcb-83f9-da139a5fcd11"},"vehicle_type_id":"4","last_reported":1752016236,"current_range_meters":18800,"station_id":"","pricing_plan_id":"cebpf4jnsgd1na2vs0mg"},{"bike_id":"09336cd1-7b2f-46b8-ac6e-85b310d42b0a","system_id":"levelo_inurba_marseille","lat":43.29323,"lon":5.42842,"is_reserved":false,"is_disabled":false,"rental_uris":{"android":"levelo://app?vid=09336cd1-7b2f-46b8-ac6e-85b310d42b0a","ios":"levelo://app?vid=09336cd1-7b2f-46b8-ac6e-85b310d42b0a"},"vehicle_type_id":"4","last_reported":1752016236,"current_range_meters":18800,"station_id":"","pricing_plan_id":"cebpf4jnsgd1na2vs0mg"},{"bike_id":"0200f227-0636-4df7-8acb-8396acc54756","system_id":"levelo_inurba_marseille","lat":43.31064,"lon":5.38362,"is_reserved":false,"is_disabled":false,"rental_uris":{"android":"levelo://app?vid=0200f227-0636-4df7-8acb-8396acc54756","ios":"levelo://app?vid=0200f227-0636-4df7-8acb-8396acc54756"},"vehicle_type_id":"4","last_reported":1752016236,"current_range_meters":18800,"station_id":"ce4bgv92rcd13ifvqcr0","pricing_plan_id":"cebpf4jnsgd1na2vs0mg"},{"bike_id":"c7f2cf9c-6e87-4697-94ad-78f2cdc1ae17","system_id":"levelo_inurba_marseille","lat":43.30901,"lon":5.39637,"is_reserved":false,"is_disabled":false,"rental_uris":{"android":"levelo://app?vid=c7f2cf9c-6e87-4697-94ad-78f2cdc1ae17","ios":"levelo://app?vid=c7f2cf9c-6e87-4697-94ad-78f2cdc1ae17"},"vehicle_type_id":"4","last_reported":1752016236,"current_range_meters":18800,"station_id":"ce4bh012rcd13ifvqcv0","pricing_plan_id":"cebpf4jnsgd1na2vs0mg"},{"bike_id":"adb4acb0-9f9f-4801-b3fa-444321509f1d","system_id":"levelo_inurba_marseille","lat":43.30314,"lon":5.4045,"is_reserved":false,"is_disabled":false,"rental_uris":{"android":"levelo://app?vid=adb4acb0-9f9f-4801-b3fa-444321509f1d","ios":"levelo://app?vid=adb4acb0-9f9f-4801-b3fa-444321509f1d"},"vehicle_type_id":"4","last_reported":1752016236,"current_range_meters":18800,"station_id":"ce4bh012rcd13ifvqd10","pricing_plan_id":"cebpf4jnsgd1na2vs0mg"},{"bike_id":"66f0f93c-5f2b-4ec4-a634-5a78e887399f","system_id":"levelo_inurba_marseille","lat":43.28941,"lon":5.36391,"is_reserved":false,"is_disabled":false,"rental_uris":{"android":"levelo://app?vid=66f0f93c-5f2b-4ec4-a634-5a78e887399f","ios":"levelo://app?vid=66f0f93c-5f2b-4ec4-a634-5a78e887399f"},"vehicle_type_id":"4","last_reported":1752016236,"current_range_meters":18800,"station_id":"ce4bhc92rcd13ifvqetg","pricing_plan_id":"cebpf4jnsgd1na2vs0mg"},{"bike_id":"651ffb58-679e-4588-a8db-e7bdfc6cd3da","system_id":"levelo_inurba_marseille","lat":43.26231,"lon":5.40438,"is_reserved":false,"is_disabled":false,"rental_uris":{"android":"levelo://app?vid=651ffb58-679e-4588-a8db-e7bdfc6cd3da","ios":"levelo://app?vid=651ffb58-679e-4588-a8db-e7bdfc6cd3da"},"vehicle_type_id":"4","last_reported":1752016236,"current_range_meters":18800,"station_id":"ce4bhmh2rcd13ifvqgmg","pricing_plan_id":"cebpf4jnsgd1na2vs0mg"},{"bike_id":"6e5c2657-ccb8-4153-8b94-2143bc427a03","system_id":"levelo_inurba_marseille","lat":43.22499,"lon":5.34779,"is_reserved":false,"is_disabled":false,"rental_uris":{"android":"levelo://app?vid=6e5c2657-ccb8-4153-8b94-2143bc427a03","ios":"levelo://app?vid=6e5c2657-ccb8-4153-8b94-2143bc427a03"},"vehicle_type_id":"4","last_reported":1752016236,"current_range_meters":18800,"station_id":"st_cvj5dfep6f1abm77gieg","pricing_plan_id":"cebpf4jnsgd1na2vs0mg"},{"bike_id":"1be39311-cfa5-4cbb-b93d-fb0870d6e611","system_id":"levelo_inurba_marseille","lat":43.21191,"lon":5.35075,"is_reserved":false,"is_disabled":false,"rental_uris":{"android":"levelo://app?vid=1be39311-cfa5-4cbb-b93d-fb0870d6e611","ios":"levelo://app?vid=1be39311-cfa5-4cbb-b93d-fb0870d6e611"},"vehicle_type_id":"4","last_reported":1752016236,"current_range_meters":18800,"station_id":"st_cvj6sg6p6f1abm77japg","pricing_plan_id":"cebpf4jnsgd1na2vs0mg"},{"bike_id":"320f2a33-deaa-4e0a-a3d5-c39ce8ad680a","system_id":"levelo_inurba_marseille","lat":43.31564,"lon":5.37424,"is_reserved":false,"is_disabled":false,"rental_uris":{"android":"levelo://app?vid=320f2a33-deaa-4e0a-a3d5-c39ce8ad680a","ios":"levelo://app?vid=320f2a33-deaa-4e0a-a3d5-c39ce8ad680a"},"vehicle_type_id":"4","last_reported":1752016236,"current_range_meters":19200,"station_id":"","pricing_plan_id":"cebpf4jnsgd1na2vs0mg"},{"bike_id":"db30ce8a-ec57-4542-a666-330e352bf662","system_id":"levelo_inurba_marseille","lat":43.31362,"lon":5.38502,"is_reserved":false,"is_disabled":false,"rental_uris":{"android":"levelo://app?vid=db30ce8a-ec57-4542-a666-330e352bf662","ios":"levelo://app?vid=db30ce8a-ec57-4542-a666-330e352bf662"},"vehicle_type_id":"4","last_reported":1752016236,"current_range_meters":19200,"station_id":"ce4bgt92rcd13ifvqcf0","pricing_plan_id":"cebpf4jnsgd1na2vs0mg"},{"bike_id":"ec13a5b6-7693-43e0-8006-c9ec28a09729","system_id":"levelo_inurba_marseille","lat":43.31324,"lon":5.39711,"is_reserved":false,"is_disabled":false,"rental_uris":{"android":"levelo://app?vid=ec13a5b6-7693-43e0-8006-c9ec28a09729","ios":"levelo://app?vid=ec13a5b6-7693-43e0-8006-c9ec28a09729"},"vehicle_type_id":"4","last_reported":1752016236,"current_range_meters":19200,"station_id":"ce4bgvp2rcd13ifvqcu0","pricing_plan_id":"cebpf4jnsgd1na2vs0mg"},{"bike_id":"e5919d00-8075-41d2-9c2c-ca13795d087d","system_id":"levelo_inurba_marseille","lat":43.28457,"lon":5.35881,"is_reserved":false,"is_disabled":false,"rental_uris":{"android":"levelo://app?vid=e5919d00-8075-41d2-9c2c-ca13795d087d","ios":"levelo://app?vid=e5919d00-8075-41d2-9c2c-ca13795d087d"},"vehicle_type_id":"4","last_reported":1752016236,"current_range_meters":19200,"station_id":"ce4bhah2rcd13ifvqei0","pricing_plan_id":"cebpf4jnsgd1na2vs0mg"},{"bike_id":"319b68ed-7701-4322-b027-982eec81a9d0","system_id":"levelo_inurba_marseille","lat":43.28965,"lon":5.36385,"is_reserved":false,"is_disabled":false,"rental_uris":{"android":"levelo://app?vid=319b68ed-7701-4322-b027-982eec81a9d0","ios":"levelo://app?vid=319b68ed-7701-4322-b027-982eec81a9d0"},"vehicle_type_id":"4","last_reported":1752016236,"current_range_meters":19200,"station_id":"ce4bhc92rcd13ifvqetg","pricing_plan_id":"cebpf4jnsgd1na2vs0mg"},{"bike_id":"09c77dc4-126b-43b7-9b15-da4ac7847fcf","system_id":"levelo_inurba_marseille","lat":43.27932,"lon":5.3959,"is_reserved":false,"is_disabled":false,"rental_uris":{"android":"levelo://app?vid=09c77dc4-126b-43b7-9b15-da4ac7847fcf","ios":"levelo://app?vid=09c77dc4-126b-43b7-9b15-da4ac7847fcf"},"vehicle_type_id":"4","last_reported":1752016236,"current_range_meters":19200,"station_id":"ce4bhf92rcd13ifvqf40","pricing_plan_id":"cebpf4jnsgd1na2vs0mg"},{"bike_id":"d69de28e-a8b9-4023-912f-2892b88218af","system_id":"levelo_inurba_marseille","lat":43.27177,"lon":5.40994,"is_reserved":false,"is_disabled":false,"rental_uris":{"android":"levelo://app?vid=d69de28e-a8b9-4023-912f-2892b88218af","ios":"levelo://app?vid=d69de28e-a8b9-4023-912f-2892b88218af"},"vehicle_type_id":"4","last_reported":1752016236,"current_range_meters":19200,"station_id":"ce4bhl12rcd13ifvqgf0","pricing_plan_id":"cebpf4jnsgd1na2vs0mg"},{"bike_id":"af5ef763-da53-41da-a86f-e2029c93931b","system_id":"levelo_inurba_marseille","lat":43.25868,"lon":5.39897,"is_reserved":false,"is_disabled":false,"rental_uris":{"android":"levelo://app?vid=af5ef763-da53-41da-a86f-e2029c93931b","ios":"levelo://app?vid=af5ef763-da53-41da-a86f-e2029c93931b"},"vehicle_type_id":"4","last_reported":1752016236,"current_range_meters":19200,"station_id":"ce4bhl92rcd13ifvqghg","pricing_plan_id":"cebpf4jnsgd1na2vs0mg"},{"bike_id":"3bd8b8a3-512e-4c45-8839-c2f9349ff4ec","system_id":"levelo_inurba_marseille","lat":43.2174,"lon":5.34626,"is_reserved":false,"is_disabled":false,"rental_uris":{"android":"levelo://app?vid=3bd8b8a3-512e-4c45-8839-c2f9349ff4ec","ios":"levelo://app?vid=3bd8b8a3-512e-4c45-8839-c2f9349ff4ec"},"vehicle_type_id":"4","last_reported":1752016236,"current_range_meters":19200,"station_id":"st_cvj6r9ubvosntc0bgbag","pricing_plan_id":"cebpf4jnsgd1na2vs0mg"},{"bike_id":"999f2a33-af15-4ca0-853a-d2550f2d6574","system_id":"levelo_inurba_marseille","lat":43.234425,"lon":5.359312,"is_reserved":false,"is_disabled":false,"rental_uris":{"android":"levelo://app?vid=999f2a33-af15-4ca0-853a-d2550f2d6574","ios":"levelo://app?vid=999f2a33-af15-4ca0-853a-d2550f2d6574"},"vehicle_type_id":"4","last_reported":1752016236,"current_range_meters":19600,"station_id":"","pricing_plan_id":"cebpf4jnsgd1na2vs0mg"},{"bike_id":"eef00c91-8af9-4792-820d-391370191427","system_id":"levelo_inurba_marseille","lat":43.30521,"lon":5.36546,"is_reserved":false,"is_disabled":false,"rental_uris":{"android":"levelo://app?vid=eef00c91-8af9-4792-820d-391370191427","ios":"levelo://app?vid=eef00c91-8af9-4792-820d-391370191427"},"vehicle_type_id":"4","last_reported":1752016236,"current_range_meters":19600,"station_id":"","pricing_plan_id":"cebpf4jnsgd1na2vs0mg"},{"bike_id":"804bbbeb-36c1-41a3-b58e-03796aacca08","system_id":"levelo_inurba_marseille","lat":43.28245,"lon":5.35072,"is_reserved":false,"is_disabled":false,"rental_uris":{"android":"levelo://app?vid=804bbbeb-36c1-41a3-b58e-03796aacca08","ios":"levelo://app?vid=804bbbeb-36c1-41a3-b58e-03796aacca08"},"vehicle_type_id":"4","last_reported":1752016236,"current_range_meters":19600,"station_id":"ce4bhbp2rcd13ifvqerg","pricing_plan_id":"cebpf4jnsgd1na2vs0mg"},{"bike_id":"2b459895-8084-4ac8-a9da-9da0a88d4d3e","system_id":"levelo_inurba_marseille","lat":43.289498,"lon":5.363908,"is_reserved":false,"is_disabled":false,"rental_uris":{"android":"levelo://app?vid=2b459895-8084-4ac8-a9da-9da0a88d4d3e","ios":"levelo://app?vid=2b459895-8084-4ac8-a9da-9da0a88d4d3e"},"vehicle_type_id":"4","last_reported":1752016236,"current_range_meters":19600,"station_id":"ce4bhc92rcd13ifvqetg","pricing_plan_id":"cebpf4jnsgd1na2vs0mg"},{"bike_id":"b7bd0a60-0d63-49eb-b04b-3c6e4ea787e2","system_id":"levelo_inurba_marseille","lat":43.286197,"lon":5.350961,"is_reserved":false,"is_disabled":false,"rental_uris":{"android":"levelo://app?vid=b7bd0a60-0d63-49eb-b04b-3c6e4ea787e2","ios":"levelo://app?vid=b7bd0a60-0d63-49eb-b04b-3c6e4ea787e2"},"vehicle_type_id":"4","last_reported":1752016236,"current_range_meters":19600,"station_id":"ce4bhch2rcd13ifvqeug","pricing_plan_id":"cebpf4jnsgd1na2vs0mg"},{"bike_id":"0cc5508b-60e3-493b-a3ef-8b047878455f","system_id":"levelo_inurba_marseille","lat":43.27883,"lon":5.38028,"is_reserved":false,"is_disabled":false,"rental_uris":{"android":"levelo://app?vid=0cc5508b-60e3-493b-a3ef-8b047878455f","ios":"levelo://app?vid=0cc5508b-60e3-493b-a3ef-8b047878455f"},"vehicle_type_id":"4","last_reported":1752016236,"current_range_meters":19600,"station_id":"ce4bhf92rcd13ifvqf50","pricing_plan_id":"cebpf4jnsgd1na2vs0mg"},{"bike_id":"40fa92fc-f934-431e-b290-17833f63b829","system_id":"levelo_inurba_marseille","lat":43.23189,"lon":5.35557,"is_reserved":false,"is_disabled":false,"rental_uris":{"android":"levelo://app?vid=40fa92fc-f934-431e-b290-17833f63b829","ios":"levelo://app?vid=40fa92fc-f934-431e-b290-17833f63b829"},"vehicle_type_id":"4","last_reported":1752016236,"current_range_meters":19600,"station_id":"ce4bhu92rcd13ifvqi70","pricing_plan_id":"cebpf4jnsgd1na2vs0mg"},{"bike_id":"a61aa1db-999e-4f11-85fc-d60f287af5d4","system_id":"levelo_inurba_marseille","lat":43.28288,"lon":5.35121,"is_reserved":false,"is_disabled":false,"rental_uris":{"android":"levelo://app?vid=a61aa1db-999e-4f11-85fc-d60f287af5d4","ios":"levelo://app?vid=a61aa1db-999e-4f11-85fc-d60f287af5d4"},"vehicle_type_id":"4","last_reported":1752016236,"current_range_meters":20000,"station_id":"","pricing_plan_id":"cebpf4jnsgd1na2vs0mg"},{"bike_id":"e06b34ea-0ce7-4e91-b272-1c5012c360d3","system_id":"levelo_inurba_marseille","lat":43.27614,"lon":5.36107,"is_reserved":false,"is_disabled":false,"rental_uris":{"android":"levelo://app?vid=e06b34ea-0ce7-4e91-b272-1c5012c360d3","ios":"levelo://app?vid=e06b34ea-0ce7-4e91-b272-1c5012c360d3"},"vehicle_type_id":"4","last_reported":1752016236,"current_range_meters":20000,"station_id":"ce4bgj92rcd13ifvqbe0","pricing_plan_id":"cebpf4jnsgd1na2vs0mg"},{"bike_id":"8415d04c-b63f-4088-b20c-5e3fc4a98714","system_id":"levelo_inurba_marseille","lat":43.30189,"lon":5.36631,"is_reserved":false,"is_disabled":false,"rental_uris":{"android":"levelo://app?vid=8415d04c-b63f-4088-b20c-5e3fc4a98714","ios":"levelo://app?vid=8415d04c-b63f-4088-b20c-5e3fc4a98714"},"vehicle_type_id":"4","last_reported":1752016236,"current_range_meters":20000,"station_id":"ce4bgrh2rcd13ifvqc8g","pricing_plan_id":"cebpf4jnsgd1na2vs0mg"},{"bike_id":"dc2fa043-4558-4788-ac53-fbdce244ec2b","system_id":"levelo_inurba_marseille","lat":43.27905,"lon":5.39584,"is_reserved":false,"is_disabled":false,"rental_uris":{"android":"levelo://app?vid=dc2fa043-4558-4788-ac53-fbdce244ec2b","ios":"levelo://app?vid=dc2fa043-4558-4788-ac53-fbdce244ec2b"},"vehicle_type_id":"4","last_reported":1752016236,"current_range_meters":20000,"station_id":"ce4bhf92rcd13ifvqf40","pricing_plan_id":"cebpf4jnsgd1na2vs0mg"},{"bike_id":"91a13a8b-8c2b-4511-af53-28f18f0af720","system_id":"levelo_inurba_marseille","lat":43.27054,"lon":5.40279,"is_reserved":false,"is_disabled":false,"rental_uris":{"android":"levelo://app?vid=91a13a8b-8c2b-4511-af53-28f18f0af720","ios":"levelo://app?vid=91a13a8b-8c2b-4511-af53-28f18f0af720"},"vehicle_type_id":"4","last_reported":1752016236,"current_range_meters":20000,"station_id":"ce4bhk92rcd13ifvqgc0","pricing_plan_id":"cebpf4jnsgd1na2vs0mg"},{"bike_id":"0dde599a-9e49-4424-bf17-46b64f156432","system_id":"levelo_inurba_marseille","lat":43.24077,"lon":5.37755,"is_reserved":false,"is_disabled":false,"rental_uris":{"android":"levelo://app?vid=0dde599a-9e49-4424-bf17-46b64f156432","ios":"levelo://app?vid=0dde599a-9e49-4424-bf17-46b64f156432"},"vehicle_type_id":"4","last_reported":1752016236,"current_range_meters":20000,"station_id":"ce4bhnp2rcd13ifvqgvg","pricing_plan_id":"cebpf4jnsgd1na2vs0mg"},{"bike_id":"c0735136-e0f1-410b-b7bc-03f3deffba27","system_id":"levelo_inurba_marseille","lat":43.217439,"lon":5.346042,"is_reserved":false,"is_disabled":false,"rental_uris":{"android":"levelo://app?vid=c0735136-e0f1-410b-b7bc-03f3deffba27","ios":"levelo://app?vid=c0735136-e0f1-410b-b7bc-03f3deffba27"},"vehicle_type_id":"4","last_reported":1752016236,"current_range_meters":20000,"station_id":"st_cvj6r9ubvosntc0bgbag","pricing_plan_id":"cebpf4jnsgd1na2vs0mg"},{"bike_id":"0fb711be-79d5-47a3-8777-53743c8ebb25","system_id":"levelo_inurba_marseille","lat":43.30792,"lon":5.38166,"is_reserved":false,"is_disabled":false,"rental_uris":{"android":"levelo://app?vid=0fb711be-79d5-47a3-8777-53743c8ebb25","ios":"levelo://app?vid=0fb711be-79d5-47a3-8777-53743c8ebb25"},"vehicle_type_id":"4","last_reported":1752016236,"current_range_meters":20400,"station_id":"ce4bgt12rcd13ifvqce0","pricing_plan_id":"cebpf4jnsgd1na2vs0mg"},{"bike_id":"7a305d51-5742-4308-b8f1-f89a7aed6968","system_id":"levelo_inurba_marseille","lat":43.323568,"lon":5.367566,"is_reserved":false,"is_disabled":false,"rental_uris":{"android":"levelo://app?vid=7a305d51-5742-4308-b8f1-f89a7aed6968","ios":"levelo://app?vid=7a305d51-5742-4308-b8f1-f89a7aed6968"},"vehicle_type_id":"4","last_reported":1752016236,"current_range_meters":20400,"station_id":"ce4bhsh2rcd13ifvqi2g","pricing_plan_id":"cebpf4jnsgd1na2vs0mg"},{"bike_id":"b189459c-f21e-4428-a78c-19981ce9bbf6","system_id":"levelo_inurba_marseille","lat":43.231944,"lon":5.355503,"is_reserved":false,"is_disabled":false,"rental_uris":{"android":"levelo://app?vid=b189459c-f21e-4428-a78c-19981ce9bbf6","ios":"levelo://app?vid=b189459c-f21e-4428-a78c-19981ce9bbf6"},"vehicle_type_id":"4","last_reported":1752016236,"current_range_meters":20400,"station_id":"ce4bhu92rcd13ifvqi70","pricing_plan_id":"cebpf4jnsgd1na2vs0mg"},{"bike_id":"4b86ff39-b38e-4400-a953-863c2f44502e","system_id":"levelo_inurba_marseille","lat":43.31252,"lon":5.40179,"is_reserved":false,"is_disabled":false,"rental_uris":{"android":"levelo://app?vid=4b86ff39-b38e-4400-a953-863c2f44502e","ios":"levelo://app?vid=4b86ff39-b38e-4400-a953-863c2f44502e"},"vehicle_type_id":"4","last_reported":1752016236,"current_range_meters":20800,"station_id":"ce4bh092rcd13ifvqd30","pricing_plan_id":"cebpf4jnsgd1na2vs0mg"},{"bike_id":"0a6cc7ec-c6e8-4833-9620-bb3812e421f3","system_id":"levelo_inurba_marseille","lat":43.28611,"lon":5.35132,"is_reserved":false,"is_disabled":false,"rental_uris":{"android":"levelo://app?vid=0a6cc7ec-c6e8-4833-9620-bb3812e421f3","ios":"levelo://app?vid=0a6cc7ec-c6e8-4833-9620-bb3812e421f3"},"vehicle_type_id":"4","last_reported":1752016236,"current_range_meters":20800,"station_id":"ce4bhch2rcd13ifvqeug","pricing_plan_id":"cebpf4jnsgd1na2vs0mg"},{"bike_id":"6e9716e5-c0d5-438f-b23a-2ef57ecba8cc","system_id":"levelo_inurba_marseille","lat":43.24383,"lon":5.37051,"is_reserved":false,"is_disabled":false,"rental_uris":{"android":"levelo://app?vid=6e9716e5-c0d5-438f-b23a-2ef57ecba8cc","ios":"levelo://app?vid=6e9716e5-c0d5-438f-b23a-2ef57ecba8cc"},"vehicle_type_id":"4","last_reported":1752016236,"current_range_meters":20800,"station_id":"ce4bhhh2rcd13ifvqfk0","pricing_plan_id":"cebpf4jnsgd1na2vs0mg"},{"bike_id":"e52ff42a-20e1-4507-ad78-63f6f5f1eea1","system_id":"levelo_inurba_marseille","lat":43.27999,"lon":5.40004,"is_reserved":false,"is_disabled":false,"rental_uris":{"android":"levelo://app?vid=e52ff42a-20e1-4507-ad78-63f6f5f1eea1","ios":"levelo://app?vid=e52ff42a-20e1-4507-ad78-63f6f5f1eea1"},"vehicle_type_id":"4","last_reported":1752016236,"current_range_meters":20800,"station_id":"ce4bho92rcd13ifvqh4g","pricing_plan_id":"cebpf4jnsgd1na2vs0mg"},{"bike_id":"0fa430a1-e796-45c1-8219-0f46c66cd099","system_id":"levelo_inurba_marseille","lat":43.32336,"lon":5.40647,"is_reserved":false,"is_disabled":false,"rental_uris":{"android":"levelo://app?vid=0fa430a1-e796-45c1-8219-0f46c66cd099","ios":"levelo://app?vid=0fa430a1-e796-45c1-8219-0f46c66cd099"},"vehicle_type_id":"4","last_reported":1752016236,"current_range_meters":20800,"station_id":"ce4bhq92rcd13ifvqhjg","pricing_plan_id":"cebpf4jnsgd1na2vs0mg"},{"bike_id":"87d13c3c-9453-4492-8a8f-f2b4c8e828c6","system_id":"levelo_inurba_marseille","lat":43.26177,"lon":5.37049,"is_reserved":false,"is_disabled":false,"rental_uris":{"android":"levelo://app?vid=87d13c3c-9453-4492-8a8f-f2b4c8e828c6","ios":"levelo://app?vid=87d13c3c-9453-4492-8a8f-f2b4c8e828c6"},"vehicle_type_id":"4","last_reported":1752016236,"current_range_meters":21600,"station_id":"","pricing_plan_id":"cebpf4jnsgd1na2vs0mg"},{"bike_id":"feaa7e3a-cbe4-4489-be11-8a12d7eec173","system_id":"levelo_inurba_marseille","lat":43.2527,"lon":5.42516,"is_reserved":false,"is_disabled":false,"rental_uris":{"android":"levelo://app?vid=feaa7e3a-cbe4-4489-be11-8a12d7eec173","ios":"levelo://app?vid=feaa7e3a-cbe4-4489-be11-8a12d7eec173"},"vehicle_type_id":"4","last_reported":1752016236,"current_range_meters":21600,"station_id":"","pricing_plan_id":"cebpf4jnsgd1na2vs0mg"},{"bike_id":"e178deb3-9bd6-476e-8508-cccad1dbf1dc","system_id":"levelo_inurba_marseille","lat":43.24666,"lon":5.38163,"is_reserved":false,"is_disabled":false,"rental_uris":{"android":"levelo://app?vid=e178deb3-9bd6-476e-8508-cccad1dbf1dc","ios":"levelo://app?vid=e178deb3-9bd6-476e-8508-cccad1dbf1dc"},"vehicle_type_id":"4","last_reported":1752016236,"current_range_meters":21600,"station_id":"ce4bhih2rcd13ifvqfr0","pricing_plan_id":"cebpf4jnsgd1na2vs0mg"},{"bike_id":"ef6311b9-c394-4e85-b3f2-bf62d7fa6877","system_id":"levelo_inurba_marseille","lat":43.245477,"lon":5.395235,"is_reserved":false,"is_disabled":false,"rental_uris":{"android":"levelo://app?vid=ef6311b9-c394-4e85-b3f2-bf62d7fa6877","ios":"levelo://app?vid=ef6311b9-c394-4e85-b3f2-bf62d7fa6877"},"vehicle_type_id":"4","last_reported":1752016236,"current_range_meters":21600,"station_id":"ce4bhlp2rcd13ifvqgjg","pricing_plan_id":"cebpf4jnsgd1na2vs0mg"},{"bike_id":"98166266-5579-4471-912a-9688bcd6094e","system_id":"levelo_inurba_marseille","lat":43.29895,"lon":5.43645,"is_reserved":false,"is_disabled":false,"rental_uris":{"android":"levelo://app?vid=98166266-5579-4471-912a-9688bcd6094e","ios":"levelo://app?vid=98166266-5579-4471-912a-9688bcd6094e"},"vehicle_type_id":"4","last_reported":1752016236,"current_range_meters":21600,"station_id":"ce4bhpp2rcd13ifvqhfg","pricing_plan_id":"cebpf4jnsgd1na2vs0mg"},{"bike_id":"36c387ea-be50-4028-8ecc-21605fe3e879","system_id":"levelo_inurba_marseille","lat":43.29362,"lon":5.4284,"is_reserved":false,"is_disabled":false,"rental_uris":{"android":"levelo://app?vid=36c387ea-be50-4028-8ecc-21605fe3e879","ios":"levelo://app?vid=36c387ea-be50-4028-8ecc-21605fe3e879"},"vehicle_type_id":"4","last_reported":1752016236,"current_range_meters":22000,"station_id":"","pricing_plan_id":"cebpf4jnsgd1na2vs0mg"},{"bike_id":"1c843fea-9154-4ab5-a997-10f28de62d5c","system_id":"levelo_inurba_marseille","lat":43.26547,"lon":5.37383,"is_reserved":false,"is_disabled":false,"rental_uris":{"android":"levelo://app?vid=1c843fea-9154-4ab5-a997-10f28de62d5c","ios":"levelo://app?vid=1c843fea-9154-4ab5-a997-10f28de62d5c"},"vehicle_type_id":"4","last_reported":1752016236,"current_range_meters":22000,"station_id":"","pricing_plan_id":"cebpf4jnsgd1na2vs0mg"},{"bike_id":"fde530d0-eeed-4692-bb9c-2c65ba0cdd9f","system_id":"levelo_inurba_marseille","lat":43.30847,"lon":5.42579,"is_reserved":false,"is_disabled":false,"rental_uris":{"android":"levelo://app?vid=fde530d0-eeed-4692-bb9c-2c65ba0cdd9f","ios":"levelo://app?vid=fde530d0-eeed-4692-bb9c-2c65ba0cdd9f"},"vehicle_type_id":"4","last_reported":1752016236,"current_range_meters":22000,"station_id":"","pricing_plan_id":"cebpf4jnsgd1na2vs0mg"},{"bike_id":"56719e97-7c9e-4080-a4a3-5f949589c7df","system_id":"levelo_inurba_marseille","lat":43.30754,"lon":5.37659,"is_reserved":false,"is_disabled":false,"rental_uris":{"android":"levelo://app?vid=56719e97-7c9e-4080-a4a3-5f949589c7df","ios":"levelo://app?vid=56719e97-7c9e-4080-a4a3-5f949589c7df"},"vehicle_type_id":"4","last_reported":1752016236,"current_range_meters":22000,"station_id":"ce4bgv92rcd13ifvqcq0","pricing_plan_id":"cebpf4jnsgd1na2vs0mg"},{"bike_id":"3973ba1b-6763-4de5-9497-414d5fc2ff3f","system_id":"levelo_inurba_marseille","lat":43.27172,"lon":5.40995,"is_reserved":false,"is_disabled":false,"rental_uris":{"android":"levelo://app?vid=3973ba1b-6763-4de5-9497-414d5fc2ff3f","ios":"levelo://app?vid=3973ba1b-6763-4de5-9497-414d5fc2ff3f"},"vehicle_type_id":"4","last_reported":1752016236,"current_range_meters":22000,"station_id":"ce4bhl12rcd13ifvqgf0","pricing_plan_id":"cebpf4jnsgd1na2vs0mg"},{"bike_id":"5206ffcf-4710-406e-9c0d-e416b26863b1","system_id":"levelo_inurba_marseille","lat":43.3246,"lon":5.36574,"is_reserved":false,"is_disabled":false,"rental_uris":{"android":"levelo://app?vid=5206ffcf-4710-406e-9c0d-e416b26863b1","ios":"levelo://app?vid=5206ffcf-4710-406e-9c0d-e416b26863b1"},"vehicle_type_id":"4","last_reported":1752016236,"current_range_meters":22000,"station_id":"ce4bhs12rcd13ifvqhvg","pricing_plan_id":"cebpf4jnsgd1na2vs0mg"},{"bike_id":"9f5e74ce-2459-4c6f-a171-f6d1e8a1ed83","system_id":"levelo_inurba_marseille","lat":43.31845,"lon":5.37558,"is_reserved":false,"is_disabled":false,"rental_uris":{"android":"levelo://app?vid=9f5e74ce-2459-4c6f-a171-f6d1e8a1ed83","ios":"levelo://app?vid=9f5e74ce-2459-4c6f-a171-f6d1e8a1ed83"},"vehicle_type_id":"4","last_reported":1752016236,"current_range_meters":22400,"station_id":"","pricing_plan_id":"cebpf4jnsgd1na2vs0mg"},{"bike_id":"537c5c32-4b3f-47e8-aa8f-c510b517ab1c","system_id":"levelo_inurba_marseille","lat":43.31327,"lon":5.39693,"is_reserved":false,"is_disabled":false,"rental_uris":{"android":"levelo://app?vid=537c5c32-4b3f-47e8-aa8f-c510b517ab1c","ios":"levelo://app?vid=537c5c32-4b3f-47e8-aa8f-c510b517ab1c"},"vehicle_type_id":"4","last_reported":1752016236,"current_range_meters":22400,"station_id":"ce4bgvp2rcd13ifvqcu0","pricing_plan_id":"cebpf4jnsgd1na2vs0mg"},{"bike_id":"f0b71aac-9d80-4fb8-a528-ab90a517e0e3","system_id":"levelo_inurba_marseille","lat":43.30631,"lon":5.40083,"is_reserved":false,"is_disabled":false,"rental_uris":{"android":"levelo://app?vid=f0b71aac-9d80-4fb8-a528-ab90a517e0e3","ios":"levelo://app?vid=f0b71aac-9d80-4fb8-a528-ab90a517e0e3"},"vehicle_type_id":"4","last_reported":1752016236,"current_range_meters":22400,"station_id":"ce4bh112rcd13ifvqda0","pricing_plan_id":"cebpf4jnsgd1na2vs0mg"},{"bike_id":"50a7658a-d4b7-4a9f-94be-c4ee3dd322ad","system_id":"levelo_inurba_marseille","lat":43.28414,"lon":5.34995,"is_reserved":false,"is_disabled":false,"rental_uris":{"android":"levelo://app?vid=50a7658a-d4b7-4a9f-94be-c4ee3dd322ad","ios":"levelo://app?vid=50a7658a-d4b7-4a9f-94be-c4ee3dd322ad"},"vehicle_type_id":"4","last_reported":1752016236,"current_range_meters":22400,"station_id":"ce4bhbh2rcd13ifvqepg","pricing_plan_id":"cebpf4jnsgd1na2vs0mg"},{"bike_id":"515fac28-6a15-4c66-bf42-d8c0fe366af5","system_id":"levelo_inurba_marseille","lat":43.28079,"lon":5.39659,"is_reserved":false,"is_disabled":false,"rental_uris":{"android":"levelo://app?vid=515fac28-6a15-4c66-bf42-d8c0fe366af5","ios":"levelo://app?vid=515fac28-6a15-4c66-bf42-d8c0fe366af5"},"vehicle_type_id":"4","last_reported":1752016236,"current_range_meters":22400,"station_id":"ce4bho12rcd13ifvqh2g","pricing_plan_id":"cebpf4jnsgd1na2vs0mg"},{"bike_id":"3b0d54f2-1973-40aa-b724-b8e0dd797075","system_id":"levelo_inurba_marseille","lat":43.299678,"lon":5.413321,"is_reserved":false,"is_disabled":false,"rental_uris":{"android":"levelo://app?vid=3b0d54f2-1973-40aa-b724-b8e0dd797075","ios":"levelo://app?vid=3b0d54f2-1973-40aa-b724-b8e0dd797075"},"vehicle_type_id":"4","last_reported":1752016236,"current_range_meters":22400,"station_id":"ce4bhp12rcd13ifvqh9g","pricing_plan_id":"cebpf4jnsgd1na2vs0mg"},{"bike_id":"8dfdeda3-4650-4337-980c-b0b6153b75b1","system_id":"levelo_inurba_marseille","lat":43.29885,"lon":5.43658,"is_reserved":false,"is_disabled":false,"rental_uris":{"android":"levelo://app?vid=8dfdeda3-4650-4337-980c-b0b6153b75b1","ios":"levelo://app?vid=8dfdeda3-4650-4337-980c-b0b6153b75b1"},"vehicle_type_id":"4","last_reported":1752016236,"current_range_meters":22400,"station_id":"ce4bhpp2rcd13ifvqhfg","pricing_plan_id":"cebpf4jnsgd1na2vs0mg"},{"bike_id":"aca47642-4ceb-4a40-bae0-66b7f0d6dee2","system_id":"levelo_inurba_marseille","lat":43.22508,"lon":5.34783,"is_reserved":false,"is_disabled":false,"rental_uris":{"android":"levelo://app?vid=aca47642-4ceb-4a40-bae0-66b7f0d6dee2","ios":"levelo://app?vid=aca47642-4ceb-4a40-bae0-66b7f0d6dee2"},"vehicle_type_id":"4","last_reported":1752016236,"current_range_meters":22400,"station_id":"st_cvj5dfep6f1abm77gieg","pricing_plan_id":"cebpf4jnsgd1na2vs0mg"},{"bike_id":"fd82e225-522f-4900-aa80-9ad122c85ce8","system_id":"levelo_inurba_marseille","lat":43.29803,"lon":5.40413,"is_reserved":false,"is_disabled":false,"rental_uris":{"android":"levelo://app?vid=fd82e225-522f-4900-aa80-9ad122c85ce8","ios":"levelo://app?vid=fd82e225-522f-4900-aa80-9ad122c85ce8"},"vehicle_type_id":"4","last_reported":1752016236,"current_range_meters":22800,"station_id":"ce4bh112rcd13ifvqd90","pricing_plan_id":"cebpf4jnsgd1na2vs0mg"},{"bike_id":"141a648d-7f24-42e5-90a1-3520313c56ed","system_id":"levelo_inurba_marseille","lat":43.294983,"lon":5.393153,"is_reserved":false,"is_disabled":false,"rental_uris":{"android":"levelo://app?vid=141a648d-7f24-42e5-90a1-3520313c56ed","ios":"levelo://app?vid=141a648d-7f24-42e5-90a1-3520313c56ed"},"vehicle_type_id":"4","last_reported":1752016236,"current_range_meters":22800,"station_id":"ce4bh292rcd13ifvqdf0","pricing_plan_id":"cebpf4jnsgd1na2vs0mg"},{"bike_id":"f4ee1cb0-dbea-484e-96a3-3719ce93782f","system_id":"levelo_inurba_marseille","lat":43.28938,"lon":5.36397,"is_reserved":false,"is_disabled":false,"rental_uris":{"android":"levelo://app?vid=f4ee1cb0-dbea-484e-96a3-3719ce93782f","ios":"levelo://app?vid=f4ee1cb0-dbea-484e-96a3-3719ce93782f"},"vehicle_type_id":"4","last_reported":1752016236,"current_range_meters":22800,"station_id":"ce4bhc92rcd13ifvqetg","pricing_plan_id":"cebpf4jnsgd1na2vs0mg"},{"bike_id":"fe393e70-3017-4f74-9643-ce2ab31a2adc","system_id":"levelo_inurba_marseille","lat":43.28622,"lon":5.35106,"is_reserved":false,"is_disabled":false,"rental_uris":{"android":"levelo://app?vid=fe393e70-3017-4f74-9643-ce2ab31a2adc","ios":"levelo://app?vid=fe393e70-3017-4f74-9643-ce2ab31a2adc"},"vehicle_type_id":"4","last_reported":1752016236,"current_range_meters":22800,"station_id":"ce4bhch2rcd13ifvqeug","pricing_plan_id":"cebpf4jnsgd1na2vs0mg"},{"bike_id":"c16cae03-3bdd-45f7-b3e9-0ce5c686e830","system_id":"levelo_inurba_marseille","lat":43.26191,"lon":5.37509,"is_reserved":false,"is_disabled":false,"rental_uris":{"android":"levelo://app?vid=c16cae03-3bdd-45f7-b3e9-0ce5c686e830","ios":"levelo://app?vid=c16cae03-3bdd-45f7-b3e9-0ce5c686e830"},"vehicle_type_id":"4","last_reported":1752016236,"current_range_meters":22800,"station_id":"ce4bhgp2rcd13ifvqfc0","pricing_plan_id":"cebpf4jnsgd1na2vs0mg"},{"bike_id":"f851f41c-853b-42a0-a3c5-72fea8cb411f","system_id":"levelo_inurba_marseille","lat":43.28013,"lon":5.39981,"is_reserved":false,"is_disabled":false,"rental_uris":{"android":"levelo://app?vid=f851f41c-853b-42a0-a3c5-72fea8cb411f","ios":"levelo://app?vid=f851f41c-853b-42a0-a3c5-72fea8cb411f"},"vehicle_type_id":"4","last_reported":1752016236,"current_range_meters":22800,"station_id":"ce4bho92rcd13ifvqh4g","pricing_plan_id":"cebpf4jnsgd1na2vs0mg"},{"bike_id":"a2bd025b-f0e6-4a3d-b3d9-ebfa621fa75c","system_id":"levelo_inurba_marseille","lat":43.2287,"lon":5.3546,"is_reserved":false,"is_disabled":false,"rental_uris":{"android":"levelo://app?vid=a2bd025b-f0e6-4a3d-b3d9-ebfa621fa75c","ios":"levelo://app?vid=a2bd025b-f0e6-4a3d-b3d9-ebfa621fa75c"},"vehicle_type_id":"4","last_reported":1752016236,"current_range_meters":22800,"station_id":"cpo3532slgdg3j2ikp40","pricing_plan_id":"cebpf4jnsgd1na2vs0mg"},{"bike_id":"51d3cab3-3bb3-4357-a3a5-f7dd39edc0c5","system_id":"levelo_inurba_marseille","lat":43.25451,"lon":5.37946,"is_reserved":false,"is_disabled":false,"rental_uris":{"android":"levelo://app?vid=51d3cab3-3bb3-4357-a3a5-f7dd39edc0c5","ios":"levelo://app?vid=51d3cab3-3bb3-4357-a3a5-f7dd39edc0c5"},"vehicle_type_id":"4","last_reported":1752016236,"current_range_meters":23200,"station_id":"","pricing_plan_id":"cebpf4jnsgd1na2vs0mg"},{"bike_id":"fa87fcb5-aacb-41a1-a789-0296bbd02085","system_id":"levelo_inurba_marseille","lat":43.24583,"lon":5.37365,"is_reserved":false,"is_disabled":false,"rental_uris":{"android":"levelo://app?vid=fa87fcb5-aacb-41a1-a789-0296bbd02085","ios":"levelo://app?vid=fa87fcb5-aacb-41a1-a789-0296bbd02085"},"vehicle_type_id":"4","last_reported":1752016236,"current_range_meters":23200,"station_id":"","pricing_plan_id":"cebpf4jnsgd1na2vs0mg"},{"bike_id":"623eca97-0d59-4315-ae02-e6a1c5f9f4a6","system_id":"levelo_inurba_marseille","lat":43.29792,"lon":5.40408,"is_reserved":false,"is_disabled":false,"rental_uris":{"android":"levelo://app?vid=623eca97-0d59-4315-ae02-e6a1c5f9f4a6","ios":"levelo://app?vid=623eca97-0d59-4315-ae02-e6a1c5f9f4a6"},"vehicle_type_id":"4","last_reported":1752016236,"current_range_meters":23200,"station_id":"ce4bh112rcd13ifvqd90","pricing_plan_id":"cebpf4jnsgd1na2vs0mg"},{"bike_id":"a1790ffb-7156-4a05-935e-ed5772513479","system_id":"levelo_inurba_marseille","lat":43.281,"lon":5.37854,"is_reserved":false,"is_disabled":false,"rental_uris":{"android":"levelo://app?vid=a1790ffb-7156-4a05-935e-ed5772513479","ios":"levelo://app?vid=a1790ffb-7156-4a05-935e-ed5772513479"},"vehicle_type_id":"4","last_reported":1752016236,"current_range_meters":23200,"station_id":"ce4bha12rcd13ifvqee0","pricing_plan_id":"cebpf4jnsgd1na2vs0mg"},{"bike_id":"c33c6dcc-1654-410b-a952-9c5992d41ab6","system_id":"levelo_inurba_marseille","lat":43.26951,"lon":5.3863,"is_reserved":false,"is_disabled":false,"rental_uris":{"android":"levelo://app?vid=c33c6dcc-1654-410b-a952-9c5992d41ab6","ios":"levelo://app?vid=c33c6dcc-1654-410b-a952-9c5992d41ab6"},"vehicle_type_id":"4","last_reported":1752016236,"current_range_meters":23200,"station_id":"ce4bhh92rcd13ifvqfh0","pricing_plan_id":"cebpf4jnsgd1na2vs0mg"},{"bike_id":"a1f2143c-f890-4363-b640-48c61763903e","system_id":"levelo_inurba_marseille","lat":43.23962,"lon":5.3663,"is_reserved":false,"is_disabled":false,"rental_uris":{"android":"levelo://app?vid=a1f2143c-f890-4363-b640-48c61763903e","ios":"levelo://app?vid=a1f2143c-f890-4363-b640-48c61763903e"},"vehicle_type_id":"4","last_reported":1752016236,"current_range_meters":23200,"station_id":"ce4bhi12rcd13ifvqfp0","pricing_plan_id":"cebpf4jnsgd1na2vs0mg"},{"bike_id":"5f58f655-6b09-4a9e-bba1-7593f9941833","system_id":"levelo_inurba_marseille","lat":43.23962,"lon":5.36628,"is_reserved":false,"is_disabled":false,"rental_uris":{"android":"levelo://app?vid=5f58f655-6b09-4a9e-bba1-7593f9941833","ios":"levelo://app?vid=5f58f655-6b09-4a9e-bba1-7593f9941833"},"vehicle_type_id":"4","last_reported":1752016236,"current_range_meters":23200,"station_id":"ce4bhi12rcd13ifvqfp0","pricing_plan_id":"cebpf4jnsgd1na2vs0mg"},{"bike_id":"32a62487-ecbb-4881-8526-16ca13257b4f","system_id":"levelo_inurba_marseille","lat":43.26488,"lon":5.39543,"is_reserved":false,"is_disabled":false,"rental_uris":{"android":"levelo://app?vid=32a62487-ecbb-4881-8526-16ca13257b4f","ios":"levelo://app?vid=32a62487-ecbb-4881-8526-16ca13257b4f"},"vehicle_type_id":"4","last_reported":1752016236,"current_range_meters":23200,"station_id":"ce4bhi12rcd13ifvqfq0","pricing_plan_id":"cebpf4jnsgd1na2vs0mg"},{"bike_id":"3f6c8592-d72a-4bd1-b6cd-450a278e727e","system_id":"levelo_inurba_marseille","lat":43.24661,"lon":5.38164,"is_reserved":false,"is_disabled":false,"rental_uris":{"android":"levelo://app?vid=3f6c8592-d72a-4bd1-b6cd-450a278e727e","ios":"levelo://app?vid=3f6c8592-d72a-4bd1-b6cd-450a278e727e"},"vehicle_type_id":"4","last_reported":1752016236,"current_range_meters":23200,"station_id":"ce4bhih2rcd13ifvqfr0","pricing_plan_id":"cebpf4jnsgd1na2vs0mg"},{"bike_id":"d6d26929-12fc-4149-bc76-ecd84119e237","system_id":"levelo_inurba_marseille","lat":43.27064,"lon":5.40262,"is_reserved":false,"is_disabled":false,"rental_uris":{"android":"levelo://app?vid=d6d26929-12fc-4149-bc76-ecd84119e237","ios":"levelo://app?vid=d6d26929-12fc-4149-bc76-ecd84119e237"},"vehicle_type_id":"4","last_reported":1752016236,"current_range_meters":23200,"station_id":"ce4bhk92rcd13ifvqgc0","pricing_plan_id":"cebpf4jnsgd1na2vs0mg"},{"bike_id":"e383fecb-f0d2-4c12-b845-5fd5d05b6a9f","system_id":"levelo_inurba_marseille","lat":43.30775,"lon":5.43556,"is_reserved":false,"is_disabled":false,"rental_uris":{"android":"levelo://app?vid=e383fecb-f0d2-4c12-b845-5fd5d05b6a9f","ios":"levelo://app?vid=e383fecb-f0d2-4c12-b845-5fd5d05b6a9f"},"vehicle_type_id":"4","last_reported":1752016236,"current_range_meters":23200,"station_id":"ce4bhph2rcd13ifvqheg","pricing_plan_id":"cebpf4jnsgd1na2vs0mg"},{"bike_id":"67a60eb0-c7d8-4369-9d38-9815cc3c7afd","system_id":"levelo_inurba_marseille","lat":43.32338,"lon":5.40619,"is_reserved":false,"is_disabled":false,"rental_uris":{"android":"levelo://app?vid=67a60eb0-c7d8-4369-9d38-9815cc3c7afd","ios":"levelo://app?vid=67a60eb0-c7d8-4369-9d38-9815cc3c7afd"},"vehicle_type_id":"4","last_reported":1752016236,"current_range_meters":23200,"station_id":"ce4bhq92rcd13ifvqhjg","pricing_plan_id":"cebpf4jnsgd1na2vs0mg"},{"bike_id":"f1911d33-4ce3-480c-b20d-7097badfb080","system_id":"levelo_inurba_marseille","lat":43.30939,"lon":5.40146,"is_reserved":false,"is_disabled":false,"rental_uris":{"android":"levelo://app?vid=f1911d33-4ce3-480c-b20d-7097badfb080","ios":"levelo://app?vid=f1911d33-4ce3-480c-b20d-7097badfb080"},"vehicle_type_id":"4","last_reported":1752016236,"current_range_meters":24000,"station_id":"ce4bgvp2rcd13ifvqct0","pricing_plan_id":"cebpf4jnsgd1na2vs0mg"},{"bike_id":"d13fcc87-9929-491e-85c7-63e4cc886089","system_id":"levelo_inurba_marseille","lat":43.28935,"lon":5.36636,"is_reserved":false,"is_disabled":false,"rental_uris":{"android":"levelo://app?vid=d13fcc87-9929-491e-85c7-63e4cc886089","ios":"levelo://app?vid=d13fcc87-9929-491e-85c7-63e4cc886089"},"vehicle_type_id":"4","last_reported":1752016236,"current_range_meters":24000,"station_id":"ce4bhap2rcd13ifvqek0","pricing_plan_id":"cebpf4jnsgd1na2vs0mg"},{"bike_id":"fd57f382-2f68-48a5-8520-2afe37014ce0","system_id":"levelo_inurba_marseille","lat":43.26551,"lon":5.37312,"is_reserved":false,"is_disabled":false,"rental_uris":{"android":"levelo://app?vid=fd57f382-2f68-48a5-8520-2afe37014ce0","ios":"levelo://app?vid=fd57f382-2f68-48a5-8520-2afe37014ce0"},"vehicle_type_id":"4","last_reported":1752016236,"current_range_meters":24000,"station_id":"ce4bhg12rcd13ifvqf70","pricing_plan_id":"cebpf4jnsgd1na2vs0mg"},{"bike_id":"e442eacc-3244-4a00-b56e-631abbb0f5b4","system_id":"levelo_inurba_marseille","lat":43.26221,"lon":5.37437,"is_reserved":false,"is_disabled":false,"rental_uris":{"android":"levelo://app?vid=e442eacc-3244-4a00-b56e-631abbb0f5b4","ios":"levelo://app?vid=e442eacc-3244-4a00-b56e-631abbb0f5b4"},"vehicle_type_id":"4","last_reported":1752016236,"current_range_meters":24000,"station_id":"ce4bhgp2rcd13ifvqfc0","pricing_plan_id":"cebpf4jnsgd1na2vs0mg"},{"bike_id":"b04f5070-64eb-409c-ae19-d906b9a19284","system_id":"levelo_inurba_marseille","lat":43.258446,"lon":5.399056,"is_reserved":false,"is_disabled":false,"rental_uris":{"android":"levelo://app?vid=b04f5070-64eb-409c-ae19-d906b9a19284","ios":"levelo://app?vid=b04f5070-64eb-409c-ae19-d906b9a19284"},"vehicle_type_id":"4","last_reported":1752016236,"current_range_meters":24000,"station_id":"ce4bhl92rcd13ifvqghg","pricing_plan_id":"cebpf4jnsgd1na2vs0mg"},{"bike_id":"b0bf01a1-6ffc-4948-a8f4-566c17b0eaee","system_id":"levelo_inurba_marseille","lat":43.23192,"lon":5.39974,"is_reserved":false,"is_disabled":false,"rental_uris":{"android":"levelo://app?vid=b0bf01a1-6ffc-4948-a8f4-566c17b0eaee","ios":"levelo://app?vid=b0bf01a1-6ffc-4948-a8f4-566c17b0eaee"},"vehicle_type_id":"4","last_reported":1752016236,"current_range_meters":24000,"station_id":"ce4bhn12rcd13ifvqgqg","pricing_plan_id":"cebpf4jnsgd1na2vs0mg"},{"bike_id":"c09c93e9-32b3-496d-b629-f018509092cb","system_id":"levelo_inurba_marseille","lat":43.32358,"lon":5.40623,"is_reserved":false,"is_disabled":false,"rental_uris":{"android":"levelo://app?vid=c09c93e9-32b3-496d-b629-f018509092cb","ios":"levelo://app?vid=c09c93e9-32b3-496d-b629-f018509092cb"},"vehicle_type_id":"4","last_reported":1752016236,"current_range_meters":24000,"station_id":"ce4bhq92rcd13ifvqhjg","pricing_plan_id":"cebpf4jnsgd1na2vs0mg"},{"bike_id":"ca82af78-77e6-4092-9d8e-80a6b4175624","system_id":"levelo_inurba_marseille","lat":43.29758,"lon":5.46004,"is_reserved":false,"is_disabled":false,"rental_uris":{"android":"levelo://app?vid=ca82af78-77e6-4092-9d8e-80a6b4175624","ios":"levelo://app?vid=ca82af78-77e6-4092-9d8e-80a6b4175624"},"vehicle_type_id":"4","last_reported":1752016236,"current_range_meters":24400,"station_id":"","pricing_plan_id":"cebpf4jnsgd1na2vs0mg"},{"bike_id":"24b17f7b-dff1-4936-b27a-7c2c6813a894","system_id":"levelo_inurba_marseille","lat":43.24586,"lon":5.37387,"is_reserved":false,"is_disabled":false,"rental_uris":{"android":"levelo://app?vid=24b17f7b-dff1-4936-b27a-7c2c6813a894","ios":"levelo://app?vid=24b17f7b-dff1-4936-b27a-7c2c6813a894"},"vehicle_type_id":"4","last_reported":1752016236,"current_range_meters":24400,"station_id":"","pricing_plan_id":"cebpf4jnsgd1na2vs0mg"},{"bike_id":"4e209b0c-855f-4b51-8120-2faef8673853","system_id":"levelo_inurba_marseille","lat":43.305933,"lon":5.36908,"is_reserved":false,"is_disabled":false,"rental_uris":{"android":"levelo://app?vid=4e209b0c-855f-4b51-8120-2faef8673853","ios":"levelo://app?vid=4e209b0c-855f-4b51-8120-2faef8673853"},"vehicle_type_id":"4","last_reported":1752016236,"current_range_meters":24400,"station_id":"","pricing_plan_id":"cebpf4jnsgd1na2vs0mg"},{"bike_id":"2fac7a7b-0abc-4bc9-8a56-0b333a280d4b","system_id":"levelo_inurba_marseille","lat":43.308836,"lon":5.396368,"is_reserved":false,"is_disabled":false,"rental_uris":{"android":"levelo://app?vid=2fac7a7b-0abc-4bc9-8a56-0b333a280d4b","ios":"levelo://app?vid=2fac7a7b-0abc-4bc9-8a56-0b333a280d4b"},