{"last_updated":1744470527,"ttl":60,"version":"2.2","data":{"bikes":[{"bike_id":"e07b7e4f-c819-479a-bec0-781b6715a34c","system_id":"levelo_inurba_marseille","lat":43.28936,"lon":5.36634,"is_reserved":false,"is_disabled":false,"rental_uris":{"android":"levelo://app?vid=e07b7e4f-c819-479a-bec0-781b6715a34c","ios":"levelo://app?vid=e07b7e4f-c819-479a-bec0-781b6715a34c"},"vehicle_type_id":"4","last_reported":1744470527,"current_range_meters":2800,"station_id":"ce4bhap2rcd13ifvqek0","pricing_plan_id":"cebpf4jnsgd1na2vs0mg"},{"bike_id":"11347c7b-1ef2-49db-adbf-fe11c252dae2","system_id":"levelo_inurba_marseille","lat":43.2175,"lon":5.34604,"is_reserved":false,"is_disabled":false,"rental_uris":{"android":"levelo://app?vid=11347c7b-1ef2-49db-adbf-fe11c252dae2","ios":"levelo://app?vid=11347c7b-1ef2-49db-adbf-fe11c252dae2"},"vehicle_type_id":"4","last_reported":1744470527,"current_range_meters":2800,"station_id":"","pricing_plan_id":"cebpf4jnsgd1na2vs0mg"},{"bike_id":"c54c2e88-d73e-4254-94e6-f22a7bcff242","system_id":"levelo_inurba_marseille","lat":43.21774,"lon":5.34628,"is_reserved":false,"is_disabled":false,"rental_uris":{"android":"levelo://app?vid=c54c2e88-d73e-4254-94e6-f22a7bcff242","ios":"levelo://app?vid=c54c2e88-d73e-4254-94e6-f22a7bcff242"},"vehicle_type_id":"4","last_reported":1744470527,"current_range_meters":2800,"station_id":"st_cvj6r9ubvosntc0bgbag","pricing_plan_id":"cebpf4jnsgd1na2vs0mg"},{"bike_id":"ca074363-2c77-460a-a68b-5f0eb4cc52d3","system_id":"levelo_inurba_marseille","lat":43.27055,"lon":5.4026,"is_reserved":false,"is_disabled":false,"rental_uris":{"android":"levelo://app?vid=ca074363-2c77-460a-a68b-5f0eb4cc52d3","ios":"levelo://app?vid=ca074363-2c77-460a-a68b-5f0eb4cc52d3"},"vehicle_type_id":"4","last_reported":1744470527,"current_range_meters":2800,"station_id":"ce4bhk92rcd13ifvqgc0","pricing_plan_id":"cebpf4jnsgd1na2vs0mg"},{"bike_id":"c1d39400-5b55-43e0-b26e-7e3108bfb50b","system_id":"levelo_inurba_marseille","lat":43.23059,"lon":5.35494,"is_reserved":false,"is_disabled":false,"rental_uris":{"android":"levelo://app?vid=c1d39400-5b55-43e0-b26e-7e3108bfb50b","ios":"levelo://app?vid=c1d39400-5b55-43e0-b26e-7e3108bfb50b"},"vehicle_type_id":"4","last_reported":1744470527,"current_range_meters":2800,"station_id":"cpo3342slgdg3j2ifvpg","pricing_plan_id":"cebpf4jnsgd1na2vs0mg"},{"bike_id":"fb549af3-977c-44d3-9a9a-4bcef7c0b98c","system_id":"levelo_inurba_marseille","lat":43.28622,"lon":5.351127,"is_reserved":false,"is_disabled":false,"rental_uris":{"android":"levelo://app?vid=fb549af3-977c-44d3-9a9a-4bcef7c0b98c","ios":"levelo://app?vid=fb549af3-977c-44d3-9a9a-4bcef7c0b98c"},"vehicle_type_id":"4","last_reported":1744470527,"current_range_meters":2800,"station_id":"ce4bhb12rcd13ifvqem0","pricing_plan_id":"cebpf4jnsgd1na2vs0mg"},{"bike_id":"9ac4c766-91e2-4a2c-ba01-780bd530e4f8","system_id":"levelo_inurba_marseille","lat":43.29042,"lon":5.38142,"is_reserved":false,"is_disabled":false,"rental_uris":{"android":"levelo://app?vid=9ac4c766-91e2-4a2c-ba01-780bd530e4f8","ios":"levelo://app?vid=9ac4c766-91e2-4a2c-ba01-780bd530e4f8"},"vehicle_type_id":"4","last_reported":1744470527,"current_range_meters":2800,"station_id":"ce4bh4p2rcd13ifvqe1g","pricing_plan_id":"cebpf4jnsgd1na2vs0mg"},{"bike_id":"af6895aa-dcac-4826-85c4-b3c76f90011b","system_id":"levelo_inurba_marseille","lat":43.28485,"lon":5.38419,"is_reserved":false,"is_disabled":false,"rental_uris":{"android":"levelo://app?vid=af6895aa-dcac-4826-85c4-b3c76f90011b","ios":"levelo://app?vid=af6895aa-dcac-4826-85c4-b3c76f90011b"},"vehicle_type_id":"4","last_reported":1744470527,"current_range_meters":2800,"station_id":"ce4bh512rcd13ifvqe3g","pricing_plan_id":"cebpf4jnsgd1na2vs0mg"},{"bike_id":"ae958ae8-c98f-4e2d-8835-51870ecfae6f","system_id":"levelo_inurba_marseille","lat":43.329977,"lon":5.389747,"is_reserved":false,"is_disabled":false,"rental_uris":{"android":"levelo://app?vid=ae958ae8-c98f-4e2d-8835-51870ecfae6f","ios":"levelo://app?vid=ae958ae8-c98f-4e2d-8835-51870ecfae6f"},"vehicle_type_id":"4","last_reported":1744470527,"current_range_meters":3200,"station_id":"","pricing_plan_id":"cebpf4jnsgd1na2vs0mg"},{"bike_id":"2980ffa7-7783-4a57-b9dc-66b0f5b0cadd","system_id":"levelo_inurba_marseille","lat":43.25503,"lon":5.3765,"is_reserved":false,"is_disabled":false,"rental_uris":{"android":"levelo://app?vid=2980ffa7-7783-4a57-b9dc-66b0f5b0cadd","ios":"levelo://app?vid=2980ffa7-7783-4a57-b9dc-66b0f5b0cadd"},"vehicle_type_id":"4","last_reported":1744470527,"current_range_meters":3600,"station_id":"ce4bhh12rcd13ifvqff0","pricing_plan_id":"cebpf4jnsgd1na2vs0mg"},{"bike_id":"52765523-0414-4aea-b507-0171281ec948","system_id":"levelo_inurba_marseille","lat":43.25491,"lon":5.37647,"is_reserved":false,"is_disabled":false,"rental_uris":{"android":"levelo://app?vid=52765523-0414-4aea-b507-0171281ec948","ios":"levelo://app?vid=52765523-0414-4aea-b507-0171281ec948"},"vehicle_type_id":"4","last_reported":1744470527,"current_range_meters":3600,"station_id":"ce4bhh12rcd13ifvqff0","pricing_plan_id":"cebpf4jnsgd1na2vs0mg"},{"bike_id":"d70a8b62-ae2a-4d5e-98ef-2824043ac899","system_id":"levelo_inurba_marseille","lat":43.2603,"lon":5.37556,"is_reserved":false,"is_disabled":false,"rental_uris":{"android":"levelo://app?vid=d70a8b62-ae2a-4d5e-98ef-2824043ac899","ios":"levelo://app?vid=d70a8b62-ae2a-4d5e-98ef-2824043ac899"},"vehicle_type_id":"4","last_reported":1744470527,"current_range_meters":3600,"station_id":"ce4bhgh2rcd13ifvqfa0","pricing_plan_id":"cebpf4jnsgd1na2vs0mg"},{"bike_id":"768cffd8-9601-4d54-b83d-0dc69ec72b05","system_id":"levelo_inurba_marseille","lat":43.28928,"lon":5.36629,"is_reserved":false,"is_disabled":false,"rental_uris":{"android":"levelo://app?vid=768cffd8-9601-4d54-b83d-0dc69ec72b05","ios":"levelo://app?vid=768cffd8-9601-4d54-b83d-0dc69ec72b05"},"vehicle_type_id":"4","last_reported":1744470527,"current_range_meters":3600,"station_id":"ce4bhap2rcd13ifvqek0","pricing_plan_id":"cebpf4jnsgd1na2vs0mg"},{"bike_id":"984bb2aa-d82a-4281-90f1-1529bbc61000","system_id":"levelo_inurba_marseille","lat":43.29905,"lon":5.39274,"is_reserved":false,"is_disabled":false,"rental_uris":{"android":"levelo://app?vid=984bb2aa-d82a-4281-90f1-1529bbc61000","ios":"levelo://app?vid=984bb2aa-d82a-4281-90f1-1529bbc61000"},"vehicle_type_id":"4","last_reported":1744470527,"current_range_meters":3600,"station_id":"","pricing_plan_id":"cebpf4jnsgd1na2vs0mg"},{"bike_id":"b8553493-aab1-4765-9593-345736390cdd","system_id":"levelo_inurba_marseille","lat":43.30249,"lon":5.40075,"is_reserved":false,"is_disabled":false,"rental_uris":{"android":"levelo://app?vid=b8553493-aab1-4765-9593-345736390cdd","ios":"levelo://app?vid=b8553493-aab1-4765-9593-345736390cdd"},"vehicle_type_id":"4","last_reported":1744470527,"current_range_meters":1200,"station_id":"ce4bgvh2rcd13ifvqcs0","pricing_plan_id":"cebpf4jnsgd1na2vs0mg"},{"bike_id":"507c3ba7-aeba-415a-8bb7-cced76b0e8a9","system_id":"levelo_inurba_marseille","lat":43.29631,"lon":5.40595,"is_reserved":false,"is_disabled":false,"rental_uris":{"android":"levelo://app?vid=507c3ba7-aeba-415a-8bb7-cced76b0e8a9","ios":"levelo://app?vid=507c3ba7-aeba-415a-8bb7-cced76b0e8a9"},"vehicle_type_id":"4","last_reported":1744470527,"current_range_meters":3600,"station_id":"ce4bh0h2rcd13ifvqd60","pricing_plan_id":"cebpf4jnsgd1na2vs0mg"},{"bike_id":"d9f0f9f1-d33a-45e4-abe8-761cd7c1fb3d","system_id":"levelo_inurba_marseille","lat":43.3021,"lon":5.39465,"is_reserved":false,"is_disabled":false,"rental_uris":{"android":"levelo://app?vid=d9f0f9f1-d33a-45e4-abe8-761cd7c1fb3d","ios":"levelo://app?vid=d9f0f9f1-d33a-45e4-abe8-761cd7c1fb3d"},"vehicle_type_id":"4","last_reported":1744470527,"current_range_meters":3600,"station_id":"ce4bh0p2rcd13ifvqd70","pricing_plan_id":"cebpf4jnsgd1na2vs0mg"},{"bike_id":"48379ba8-e8f0-4449-90e1-c76f5ba91cdd","system_id":"levelo_inurba_marseille","lat":43.27059,"lon":5.40261,"is_reserved":false,"is_disabled":false,"rental_uris":{"android":"levelo://app?vid=48379ba8-e8f0-4449-90e1-c76f5ba91cdd","ios":"levelo://app?vid=48379ba8-e8f0-4449-90e1-c76f5ba91cdd"},"vehicle_type_id":"4","last_reported":1744470527,"current_range_meters":3600,"station_id":"ce4bhk92rcd13ifvqgc0","pricing_plan_id":"cebpf4jnsgd1na2vs0mg"},{"bike_id":"a08d1f52-9451-4e1c-998f-70cebc1adeb6","system_id":"levelo_inurba_marseille","lat":43.28418,"lon":5.34988,"is_reserved":false,"is_disabled":false,"rental_uris":{"android":"levelo://app?vid=a08d1f52-9451-4e1c-998f-70cebc1adeb6","ios":"levelo://app?vid=a08d1f52-9451-4e1c-998f-70cebc1adeb6"},"vehicle_type_id":"4","last_reported":1744470527,"current_range_meters":3600,"station_id":"ce4bhbh2rcd13ifvqepg","pricing_plan_id":"cebpf4jnsgd1na2vs0mg"},{"bike_id":"53936427-535c-47ab-8d39-0906ba6059b7","system_id":"levelo_inurba_marseille","lat":43.282725,"lon":5.35066,"is_reserved":false,"is_disabled":false,"rental_uris":{"android":"levelo://app?vid=53936427-535c-47ab-8d39-0906ba6059b7","ios":"levelo://app?vid=53936427-535c-47ab-8d39-0906ba6059b7"},"vehicle_type_id":"4","last_reported":1744470527,"current_range_meters":3600,"station_id":"ce4bhbp2rcd13ifvqerg","pricing_plan_id":"cebpf4jnsgd1na2vs0mg"},{"bike_id":"a9f344a9-b5c4-4c6f-adc4-6177f6c8159a","system_id":"levelo_inurba_marseille","lat":43.32833,"lon":5.39757,"is_reserved":false,"is_disabled":false,"rental_uris":{"android":"levelo://app?vid=a9f344a9-b5c4-4c6f-adc4-6177f6c8159a","ios":"levelo://app?vid=a9f344a9-b5c4-4c6f-adc4-6177f6c8159a"},"vehicle_type_id":"4","last_reported":1744470527,"current_range_meters":3600,"station_id":"","pricing_plan_id":"cebpf4jnsgd1na2vs0mg"},{"bike_id":"b81181f9-36a3-48b4-9912-e6bf37b01e53","system_id":"levelo_inurba_marseille","lat":43.27366,"lon":5.36228,"is_reserved":false,"is_disabled":true,"rental_uris":{"android":"levelo://app?vid=b81181f9-36a3-48b4-9912-e6bf37b01e53","ios":"levelo://app?vid=b81181f9-36a3-48b4-9912-e6bf37b01e53"},"vehicle_type_id":"4","last_reported":1744470527,"current_range_meters":3600,"station_id":"ce4bhbh2rcd13ifvqeo0","pricing_plan_id":"cebpf4jnsgd1na2vs0mg"},{"bike_id":"eab6cbfa-cb8e-47d7-b0d6-226ab7facec7","system_id":"levelo_inurba_marseille","lat":43.31716,"lon":5.42404,"is_reserved":false,"is_disabled":true,"rental_uris":{"android":"levelo://app?vid=eab6cbfa-cb8e-47d7-b0d6-226ab7facec7","ios":"levelo://app?vid=eab6cbfa-cb8e-47d7-b0d6-226ab7facec7"},"vehicle_type_id":"4","last_reported":1744470527,"current_range_meters":3600,"station_id":"ce4bhp92rcd13ifvqhbg","pricing_plan_id":"cebpf4jnsgd1na2vs0mg"},{"bike_id":"9f0bba88-54d5-49ab-b7e8-97b3d45c6585","system_id":"levelo_inurba_marseille","lat":43.24388,"lon":5.37057,"is_reserved":false,"is_disabled":false,"rental_uris":{"android":"levelo://app?vid=9f0bba88-54d5-49ab-b7e8-97b3d45c6585","ios":"levelo://app?vid=9f0bba88-54d5-49ab-b7e8-97b3d45c6585"},"vehicle_type_id":"4","last_reported":1744470527,"current_range_meters":4000,"station_id":"ce4bhhh2rcd13ifvqfk0","pricing_plan_id":"cebpf4jnsgd1na2vs0mg"},{"bike_id":"2fc57910-b913-45b4-8298-c309dcd20cd0","system_id":"levelo_inurba_marseille","lat":43.29961,"lon":5.37164,"is_reserved":false,"is_disabled":false,"rental_uris":{"android":"levelo://app?vid=2fc57910-b913-45b4-8298-c309dcd20cd0","ios":"levelo://app?vid=2fc57910-b913-45b4-8298-c309dcd20cd0"},"vehicle_type_id":"4","last_reported":1744470527,"current_range_meters":4000,"station_id":"ce4bgr92rcd13ifvqc7g","pricing_plan_id":"cebpf4jnsgd1na2vs0mg"},{"bike_id":"afb8f266-1c24-4d6d-80a5-2d3a73ba17dd","system_id":"levelo_inurba_marseille","lat":43.289398,"lon":5.36642,"is_reserved":false,"is_disabled":false,"rental_uris":{"android":"levelo://app?vid=afb8f266-1c24-4d6d-80a5-2d3a73ba17dd","ios":"levelo://app?vid=afb8f266-1c24-4d6d-80a5-2d3a73ba17dd"},"vehicle_type_id":"4","last_reported":1744470527,"current_range_meters":4000,"station_id":"ce4bh412rcd13ifvqdr0","pricing_plan_id":"cebpf4jnsgd1na2vs0mg"},{"bike_id":"3864266d-b74b-4f20-9f19-fca12dd496a8","system_id":"levelo_inurba_marseille","lat":43.28105,"lon":5.37834,"is_reserved":false,"is_disabled":false,"rental_uris":{"android":"levelo://app?vid=3864266d-b74b-4f20-9f19-fca12dd496a8","ios":"levelo://app?vid=3864266d-b74b-4f20-9f19-fca12dd496a8"},"vehicle_type_id":"4","last_reported":1744470527,"current_range_meters":4000,"station_id":"ce4bha12rcd13ifvqee0","pricing_plan_id":"cebpf4jnsgd1na2vs0mg"},{"bike_id":"4b294f18-3cc9-430d-80d7-0ba245878d04","system_id":"levelo_inurba_marseille","lat":43.27848,"lon":5.39207,"is_reserved":false,"is_disabled":false,"rental_uris":{"android":"levelo://app?vid=4b294f18-3cc9-430d-80d7-0ba245878d04","ios":"levelo://app?vid=4b294f18-3cc9-430d-80d7-0ba245878d04"},"vehicle_type_id":"4","last_reported":1744470527,"current_range_meters":4000,"station_id":"ce4bhjp2rcd13ifvqga0","pricing_plan_id":"cebpf4jnsgd1na2vs0mg"},{"bike_id":"b55e9a88-c37e-4ea2-a843-d5f7c4ddb080","system_id":"levelo_inurba_marseille","lat":43.28656,"lon":5.36354,"is_reserved":false,"is_disabled":false,"rental_uris":{"android":"levelo://app?vid=b55e9a88-c37e-4ea2-a843-d5f7c4ddb080","ios":"levelo://app?vid=b55e9a88-c37e-4ea2-a843-d5f7c4ddb080"},"vehicle_type_id":"4","last_reported":1744470527,"current_range_meters":4400,"station_id":"ce4bhah2rcd13ifvqej0","pricing_plan_id":"cebpf4jnsgd1na2vs0mg"},{"bike_id":"d7f9e116-c5b6-4b81-b124-ce6019a2d1cb","system_id":"levelo_inurba_marseille","lat":43.217445,"lon":5.346055,"is_reserved":false,"is_disabled":true,"rental_uris":{"android":"levelo://app?vid=d7f9e116-c5b6-4b81-b124-ce6019a2d1cb","ios":"levelo://app?vid=d7f9e116-c5b6-4b81-b124-ce6019a2d1cb"},"vehicle_type_id":"4","last_reported":1744470527,"current_range_meters":4400,"station_id":"st_cvj6r9ubvosntc0bgbag","pricing_plan_id":"cebpf4jnsgd1na2vs0mg"},{"bike_id":"975e7415-95c2-4245-8921-701c82639bf8","system_id":"levelo_inurba_marseille","lat":43.30116,"lon":5.39843,"is_reserved":false,"is_disabled":false,"rental_uris":{"android":"levelo://app?vid=975e7415-95c2-4245-8921-701c82639bf8","ios":"levelo://app?vid=975e7415-95c2-4245-8921-701c82639bf8"},"vehicle_type_id":"4","last_reported":1744470527,"current_range_meters":4400,"station_id":"ce4bh0h2rcd13ifvqd40","pricing_plan_id":"cebpf4jnsgd1na2vs0mg"},{"bike_id":"dfea235f-03b1-4107-be14-7bc8575fdb75","system_id":"levelo_inurba_marseille","lat":43.24161,"lon":5.36416,"is_reserved":false,"is_disabled":false,"rental_uris":{"android":"levelo://app?vid=dfea235f-03b1-4107-be14-7bc8575fdb75","ios":"levelo://app?vid=dfea235f-03b1-4107-be14-7bc8575fdb75"},"vehicle_type_id":"4","last_reported":1744470527,"current_range_meters":4400,"station_id":"cpo36qri1sfpv3e86is0","pricing_plan_id":"cebpf4jnsgd1na2vs0mg"},{"bike_id":"76ea2a4c-153a-4260-ac95-b438d60e597c","system_id":"levelo_inurba_marseille","lat":43.27564,"lon":5.38427,"is_reserved":false,"is_disabled":false,"rental_uris":{"android":"levelo://app?vid=76ea2a4c-153a-4260-ac95-b438d60e597c","ios":"levelo://app?vid=76ea2a4c-153a-4260-ac95-b438d60e597c"},"vehicle_type_id":"4","last_reported":1744470527,"current_range_meters":4800,"station_id":"ce4bhh92rcd13ifvqfi0","pricing_plan_id":"cebpf4jnsgd1na2vs0mg"},{"bike_id":"41bcebd2-5a26-4bb3-9167-38e5af937ff7","system_id":"levelo_inurba_marseille","lat":43.28424,"lon":5.3501,"is_reserved":false,"is_disabled":false,"rental_uris":{"android":"levelo://app?vid=41bcebd2-5a26-4bb3-9167-38e5af937ff7","ios":"levelo://app?vid=41bcebd2-5a26-4bb3-9167-38e5af937ff7"},"vehicle_type_id":"4","last_reported":1744470527,"current_range_meters":4800,"station_id":"ce4bhbh2rcd13ifvqepg","pricing_plan_id":"cebpf4jnsgd1na2vs0mg"},{"bike_id":"6ac1f864-9249-4742-84ed-4af947823ac6","system_id":"levelo_inurba_marseille","lat":43.24805,"lon":5.37455,"is_reserved":false,"is_disabled":false,"rental_uris":{"android":"levelo://app?vid=6ac1f864-9249-4742-84ed-4af947823ac6","ios":"levelo://app?vid=6ac1f864-9249-4742-84ed-4af947823ac6"},"vehicle_type_id":"4","last_reported":1744470527,"current_range_meters":4800,"station_id":"ce4bhgh2rcd13ifvqfb0","pricing_plan_id":"cebpf4jnsgd1na2vs0mg"},{"bike_id":"0f6294b1-3b7c-49ad-9260-8a57568bf081","system_id":"levelo_inurba_marseille","lat":43.27055,"lon":5.40256,"is_reserved":false,"is_disabled":false,"rental_uris":{"android":"levelo://app?vid=0f6294b1-3b7c-49ad-9260-8a57568bf081","ios":"levelo://app?vid=0f6294b1-3b7c-49ad-9260-8a57568bf081"},"vehicle_type_id":"4","last_reported":1744470527,"current_range_meters":4800,"station_id":"ce4bhk92rcd13ifvqgc0","pricing_plan_id":"cebpf4jnsgd1na2vs0mg"},{"bike_id":"d1bc857d-9499-4197-82a7-08926e7d01b1","system_id":"levelo_inurba_marseille","lat":43.25579,"lon":5.38253,"is_reserved":false,"is_disabled":false,"rental_uris":{"android":"levelo://app?vid=d1bc857d-9499-4197-82a7-08926e7d01b1","ios":"levelo://app?vid=d1bc857d-9499-4197-82a7-08926e7d01b1"},"vehicle_type_id":"4","last_reported":1744470527,"current_range_meters":4800,"station_id":"ce4bhih2rcd13ifvqfs0","pricing_plan_id":"cebpf4jnsgd1na2vs0mg"},{"bike_id":"35b41582-c58b-4728-8457-d95e0ded0954","system_id":"levelo_inurba_marseille","lat":43.28009,"lon":5.4166,"is_reserved":false,"is_disabled":false,"rental_uris":{"android":"levelo://app?vid=35b41582-c58b-4728-8457-d95e0ded0954","ios":"levelo://app?vid=35b41582-c58b-4728-8457-d95e0ded0954"},"vehicle_type_id":"4","last_reported":1744470527,"current_range_meters":5600,"station_id":"ce4bho12rcd13ifvqh1g","pricing_plan_id":"cebpf4jnsgd1na2vs0mg"},{"bike_id":"d8e5ca2f-233b-4500-ae89-ef740302e6ee","system_id":"levelo_inurba_marseille","lat":43.27622,"lon":5.36107,"is_reserved":false,"is_disabled":false,"rental_uris":{"android":"levelo://app?vid=d8e5ca2f-233b-4500-ae89-ef740302e6ee","ios":"levelo://app?vid=d8e5ca2f-233b-4500-ae89-ef740302e6ee"},"vehicle_type_id":"4","last_reported":1744470527,"current_range_meters":5600,"station_id":"ce4bgj92rcd13ifvqbe0","pricing_plan_id":"cebpf4jnsgd1na2vs0mg"},{"bike_id":"a2417265-aaaf-4846-a7cc-2faf5068e2d6","system_id":"levelo_inurba_marseille","lat":43.28141,"lon":5.42647,"is_reserved":false,"is_disabled":false,"rental_uris":{"android":"levelo://app?vid=a2417265-aaaf-4846-a7cc-2faf5068e2d6","ios":"levelo://app?vid=a2417265-aaaf-4846-a7cc-2faf5068e2d6"},"vehicle_type_id":"4","last_reported":1744470527,"current_range_meters":5600,"station_id":"ce4bhnh2rcd13ifvqgug","pricing_plan_id":"cebpf4jnsgd1na2vs0mg"},{"bike_id":"02477137-e51f-41dd-8e44-d6f86cdcdb67","system_id":"levelo_inurba_marseille","lat":43.24392,"lon":5.37058,"is_reserved":false,"is_disabled":false,"rental_uris":{"android":"levelo://app?vid=02477137-e51f-41dd-8e44-d6f86cdcdb67","ios":"levelo://app?vid=02477137-e51f-41dd-8e44-d6f86cdcdb67"},"vehicle_type_id":"4","last_reported":1744470527,"current_range_meters":5600,"station_id":"ce4bhhh2rcd13ifvqfk0","pricing_plan_id":"cebpf4jnsgd1na2vs0mg"},{"bike_id":"f496afb8-786f-4629-be2d-61acd25ee725","system_id":"levelo_inurba_marseille","lat":43.27836,"lon":5.39209,"is_reserved":false,"is_disabled":false,"rental_uris":{"android":"levelo://app?vid=f496afb8-786f-4629-be2d-61acd25ee725","ios":"levelo://app?vid=f496afb8-786f-4629-be2d-61acd25ee725"},"vehicle_type_id":"4","last_reported":1744470527,"current_range_meters":5600,"station_id":"ce4bhjp2rcd13ifvqga0","pricing_plan_id":"cebpf4jnsgd1na2vs0mg"},{"bike_id":"a841bf32-97c0-45f9-99eb-9c5c999eba34","system_id":"levelo_inurba_marseille","lat":43.25494,"lon":5.37649,"is_reserved":false,"is_disabled":false,"rental_uris":{"android":"levelo://app?vid=a841bf32-97c0-45f9-99eb-9c5c999eba34","ios":"levelo://app?vid=a841bf32-97c0-45f9-99eb-9c5c999eba34"},"vehicle_type_id":"4","last_reported":1744470527,"current_range_meters":5600,"station_id":"ce4bhh12rcd13ifvqff0","pricing_plan_id":"cebpf4jnsgd1na2vs0mg"},{"bike_id":"22251aa4-5d82-4e50-8962-8c771f2b50c3","system_id":"levelo_inurba_marseille","lat":43.31224,"lon":5.36875,"is_reserved":false,"is_disabled":false,"rental_uris":{"android":"levelo://app?vid=22251aa4-5d82-4e50-8962-8c771f2b50c3","ios":"levelo://app?vid=22251aa4-5d82-4e50-8962-8c771f2b50c3"},"vehicle_type_id":"4","last_reported":1744470527,"current_range_meters":6000,"station_id":"ce4bgl92rcd13ifvqbq0","pricing_plan_id":"cebpf4jnsgd1na2vs0mg"},{"bike_id":"29fa643c-7ffb-4084-8450-db8af824df40","system_id":"levelo_inurba_marseille","lat":43.22925,"lon":5.35385,"is_reserved":false,"is_disabled":false,"rental_uris":{"android":"levelo://app?vid=29fa643c-7ffb-4084-8450-db8af824df40","ios":"levelo://app?vid=29fa643c-7ffb-4084-8450-db8af824df40"},"vehicle_type_id":"4","last_reported":1744470527,"current_range_meters":6000,"station_id":"cpo3532slgdg3j2ikp40","pricing_plan_id":"cebpf4jnsgd1na2vs0mg"},{"bike_id":"85fcafd7-0bee-4392-b00c-e15f080559e7","system_id":"levelo_inurba_marseille","lat":43.301267,"lon":5.398515,"is_reserved":false,"is_disabled":false,"rental_uris":{"android":"levelo://app?vid=85fcafd7-0bee-4392-b00c-e15f080559e7","ios":"levelo://app?vid=85fcafd7-0bee-4392-b00c-e15f080559e7"},"vehicle_type_id":"4","last_reported":1744470527,"current_range_meters":6000,"station_id":"ce4bh0h2rcd13ifvqd40","pricing_plan_id":"cebpf4jnsgd1na2vs0mg"},{"bike_id":"ca934f8c-8acc-48fb-a1cb-6331a497c1aa","system_id":"levelo_inurba_marseille","lat":43.21187,"lon":5.35072,"is_reserved":false,"is_disabled":false,"rental_uris":{"android":"levelo://app?vid=ca934f8c-8acc-48fb-a1cb-6331a497c1aa","ios":"levelo://app?vid=ca934f8c-8acc-48fb-a1cb-6331a497c1aa"},"vehicle_type_id":"4","last_reported":1744470527,"current_range_meters":6000,"station_id":"st_cvj6sg6p6f1abm77japg","pricing_plan_id":"cebpf4jnsgd1na2vs0mg"},{"bike_id":"fd8007a8-7843-489e-8781-44f73e01676c","system_id":"levelo_inurba_marseille","lat":43.28859,"lon":5.3585,"is_reserved":false,"is_disabled":false,"rental_uris":{"android":"levelo://app?vid=fd8007a8-7843-489e-8781-44f73e01676c","ios":"levelo://app?vid=fd8007a8-7843-489e-8781-44f73e01676c"},"vehicle_type_id":"4","last_reported":1744470527,"current_range_meters":6400,"station_id":"ce4bhb12rcd13ifvqem0","pricing_plan_id":"cebpf4jnsgd1na2vs0mg"},{"bike_id":"fae90b46-cd82-4e2f-a382-de27ed2e0351","system_id":"levelo_inurba_marseille","lat":43.24999,"lon":5.38935,"is_reserved":false,"is_disabled":false,"rental_uris":{"android":"levelo://app?vid=fae90b46-cd82-4e2f-a382-de27ed2e0351","ios":"levelo://app?vid=fae90b46-cd82-4e2f-a382-de27ed2e0351"},"vehicle_type_id":"4","last_reported":1744470527,"current_range_meters":6400,"station_id":"ce4bhgp2rcd13ifvqfd0","pricing_plan_id":"cebpf4jnsgd1na2vs0mg"},{"bike_id":"6d1f80b1-80e0-4012-99d1-3f8172cadb63","system_id":"levelo_inurba_marseille","lat":43.24193,"lon":5.36426,"is_reserved":false,"is_disabled":false,"rental_uris":{"android":"levelo://app?vid=6d1f80b1-80e0-4012-99d1-3f8172cadb63","ios":"levelo://app?vid=6d1f80b1-80e0-4012-99d1-3f8172cadb63"},"vehicle_type_id":"4","last_reported":1744470527,"current_range_meters":6400,"station_id":"cpo36qri1sfpv3e86is0","pricing_plan_id":"cebpf4jnsgd1na2vs0mg"},{"bike_id":"46118cba-5e4a-40ee-b8a7-dff13ad9cfa6","system_id":"levelo_inurba_marseille","lat":43.30211,"lon":5.39467,"is_reserved":false,"is_disabled":false,"rental_uris":{"android":"levelo://app?vid=46118cba-5e4a-40ee-b8a7-dff13ad9cfa6","ios":"levelo://app?vid=46118cba-5e4a-40ee-b8a7-dff13ad9cfa6"},"vehicle_type_id":"4","last_reported":1744470527,"current_range_meters":6400,"station_id":"ce4bh0p2rcd13ifvqd70","pricing_plan_id":"cebpf4jnsgd1na2vs0mg"},{"bike_id":"8ee58055-72b1-4d18-93a4-2e01bf83fc60","system_id":"levelo_inurba_marseille","lat":43.26218,"lon":5.37454,"is_reserved":false,"is_disabled":false,"rental_uris":{"android":"levelo://app?vid=8ee58055-72b1-4d18-93a4-2e01bf83fc60","ios":"levelo://app?vid=8ee58055-72b1-4d18-93a4-2e01bf83fc60"},"vehicle_type_id":"4","last_reported":1744470527,"current_range_meters":6800,"station_id":"ce4bhgp2rcd13ifvqfc0","pricing_plan_id":"cebpf4jnsgd1na2vs0mg"},{"bike_id":"f255be28-a794-425d-a3b2-5233724e1316","system_id":"levelo_inurba_marseille","lat":43.28153,"lon":5.42646,"is_reserved":false,"is_disabled":false,"rental_uris":{"android":"levelo://app?vid=f255be28-a794-425d-a3b2-5233724e1316","ios":"levelo://app?vid=f255be28-a794-425d-a3b2-5233724e1316"},"vehicle_type_id":"4","last_reported":1744470527,"current_range_meters":6800,"station_id":"ce4bhnh2rcd13ifvqgug","pricing_plan_id":"cebpf4jnsgd1na2vs0mg"},{"bike_id":"70b79363-26ad-44f4-ae07-e85ad4456aba","system_id":"levelo_inurba_marseille","lat":43.27613,"lon":5.36124,"is_reserved":false,"is_disabled":false,"rental_uris":{"android":"levelo://app?vid=70b79363-26ad-44f4-ae07-e85ad4456aba","ios":"levelo://app?vid=70b79363-26ad-44f4-ae07-e85ad4456aba"},"vehicle_type_id":"4","last_reported":1744470527,"current_range_meters":6800,"station_id":"ce4bgj92rcd13ifvqbe0","pricing_plan_id":"cebpf4jnsgd1na2vs0mg"},{"bike_id":"94455896-0f19-4fae-bd72-9879f01fcd6e","system_id":"levelo_inurba_marseille","lat":43.29561,"lon":5.42304,"is_reserved":false,"is_disabled":true,"rental_uris":{"android":"levelo://app?vid=94455896-0f19-4fae-bd72-9879f01fcd6e","ios":"levelo://app?vid=94455896-0f19-4fae-bd72-9879f01fcd6e"},"vehicle_type_id":"4","last_reported":1744470527,"current_range_meters":6800,"station_id":"ce4bhph2rcd13ifvqhdg","pricing_plan_id":"cebpf4jnsgd1na2vs0mg"},{"bike_id":"338cfa9f-8d8c-42a3-a8c5-40f5a6b054d3","system_id":"levelo_inurba_marseille","lat":43.28672,"lon":5.36354,"is_reserved":false,"is_disabled":false,"rental_uris":{"android":"levelo://app?vid=338cfa9f-8d8c-42a3-a8c5-40f5a6b054d3","ios":"levelo://app?vid=338cfa9f-8d8c-42a3-a8c5-40f5a6b054d3"},"vehicle_type_id":"4","last_reported":1744470527,"current_range_meters":6800,"station_id":"ce4bhah2rcd13ifvqej0","pricing_plan_id":"cebpf4jnsgd1na2vs0mg"},{"bike_id":"02b92f67-64b2-402f-a485-3d216f876387","system_id":"levelo_inurba_marseille","lat":43.284237,"lon":5.349857,"is_reserved":false,"is_disabled":false,"rental_uris":{"android":"levelo://app?vid=02b92f67-64b2-402f-a485-3d216f876387","ios":"levelo://app?vid=02b92f67-64b2-402f-a485-3d216f876387"},"vehicle_type_id":"4","last_reported":1744470527,"current_range_meters":7200,"station_id":"ce4bhbh2rcd13ifvqepg","pricing_plan_id":"cebpf4jnsgd1na2vs0mg"},{"bike_id":"94a2d289-6a01-4914-95dd-c0bbac3ace54","system_id":"levelo_inurba_marseille","lat":43.29606,"lon":5.42226,"is_reserved":false,"is_disabled":false,"rental_uris":{"android":"levelo://app?vid=94a2d289-6a01-4914-95dd-c0bbac3ace54","ios":"levelo://app?vid=94a2d289-6a01-4914-95dd-c0bbac3ace54"},"vehicle_type_id":"4","last_reported":1744470527,"current_range_meters":7200,"station_id":"","pricing_plan_id":"cebpf4jnsgd1na2vs0mg"},{"bike_id":"973bc951-7f9e-48a6-88ec-cac3dbb8d63c","system_id":"levelo_inurba_marseille","lat":43.25087,"lon":5.39523,"is_reserved":false,"is_disabled":false,"rental_uris":{"android":"levelo://app?vid=973bc951-7f9e-48a6-88ec-cac3dbb8d63c","ios":"levelo://app?vid=973bc951-7f9e-48a6-88ec-cac3dbb8d63c"},"vehicle_type_id":"4","last_reported":1744470527,"current_range_meters":7200,"station_id":"ce4bhm12rcd13ifvqgkg","pricing_plan_id":"cebpf4jnsgd1na2vs0mg"},{"bike_id":"057f5fc0-0a84-418e-84a4-c4907e8721d4","system_id":"levelo_inurba_marseille","lat":43.30146,"lon":5.38065,"is_reserved":false,"is_disabled":false,"rental_uris":{"android":"levelo://app?vid=057f5fc0-0a84-418e-84a4-c4907e8721d4","ios":"levelo://app?vid=057f5fc0-0a84-418e-84a4-c4907e8721d4"},"vehicle_type_id":"4","last_reported":1744470527,"current_range_meters":7200,"station_id":"ce4bgjp2rcd13ifvqbh0","pricing_plan_id":"cebpf4jnsgd1na2vs0mg"},{"bike_id":"3ac73e63-1619-4c1b-a7d0-7311424e94ef","system_id":"levelo_inurba_marseille","lat":43.28998,"lon":5.37628,"is_reserved":false,"is_disabled":false,"rental_uris":{"android":"levelo://app?vid=3ac73e63-1619-4c1b-a7d0-7311424e94ef","ios":"levelo://app?vid=3ac73e63-1619-4c1b-a7d0-7311424e94ef"},"vehicle_type_id":"4","last_reported":1744470527,"current_range_meters":7200,"station_id":"","pricing_plan_id":"cebpf4jnsgd1na2vs0mg"},{"bike_id":"63544dea-f9d6-4d2a-8869-233db3d038b8","system_id":"levelo_inurba_marseille","lat":43.285211,"lon":5.350271,"is_reserved":false,"is_disabled":false,"rental_uris":{"android":"levelo://app?vid=63544dea-f9d6-4d2a-8869-233db3d038b8","ios":"levelo://app?vid=63544dea-f9d6-4d2a-8869-233db3d038b8"},"vehicle_type_id":"4","last_reported":1744470527,"current_range_meters":7200,"station_id":"ce4bhc92rcd13ifvqetg","pricing_plan_id":"cebpf4jnsgd1na2vs0mg"},{"bike_id":"3f08cc69-711e-4264-b923-68891203ffa4","system_id":"levelo_inurba_marseille","lat":43.32285,"lon":5.38243,"is_reserved":false,"is_disabled":false,"rental_uris":{"android":"levelo://app?vid=3f08cc69-711e-4264-b923-68891203ffa4","ios":"levelo://app?vid=3f08cc69-711e-4264-b923-68891203ffa4"},"vehicle_type_id":"4","last_reported":1744470527,"current_range_meters":7200,"station_id":"ce4bhr12rcd13ifvqhqg","pricing_plan_id":"cebpf4jnsgd1na2vs0mg"},{"bike_id":"8b463b3b-7a14-4f37-b228-97c50d8a27f5","system_id":"levelo_inurba_marseille","lat":43.27361,"lon":5.3625,"is_reserved":false,"is_disabled":false,"rental_uris":{"android":"levelo://app?vid=8b463b3b-7a14-4f37-b228-97c50d8a27f5","ios":"levelo://app?vid=8b463b3b-7a14-4f37-b228-97c50d8a27f5"},"vehicle_type_id":"4","last_reported":1744470527,"current_range_meters":7200,"station_id":"ce4bhbh2rcd13ifvqeo0","pricing_plan_id":"cebpf4jnsgd1na2vs0mg"},{"bike_id":"0f538c77-867d-4ba2-8a0f-91756089b8c6","system_id":"levelo_inurba_marseille","lat":43.26559,"lon":5.37292,"is_reserved":false,"is_disabled":false,"rental_uris":{"android":"levelo://app?vid=0f538c77-867d-4ba2-8a0f-91756089b8c6","ios":"levelo://app?vid=0f538c77-867d-4ba2-8a0f-91756089b8c6"},"vehicle_type_id":"4","last_reported":1744470527,"current_range_meters":8000,"station_id":"ce4bhg12rcd13ifvqf70","pricing_plan_id":"cebpf4jnsgd1na2vs0mg"},{"bike_id":"54f6b08f-0ea3-4646-9035-88b28b93d9b8","system_id":"levelo_inurba_marseille","lat":43.29296,"lon":5.37156,"is_reserved":false,"is_disabled":false,"rental_uris":{"android":"levelo://app?vid=54f6b08f-0ea3-4646-9035-88b28b93d9b8","ios":"levelo://app?vid=54f6b08f-0ea3-4646-9035-88b28b93d9b8"},"vehicle_type_id":"4","last_reported":1744470527,"current_range_meters":8000,"station_id":"ce4bgh92rcd13ifvqb40","pricing_plan_id":"cebpf4jnsgd1na2vs0mg"},{"bike_id":"68de7c8e-0a7c-4def-bc8f-72f753f07918","system_id":"levelo_inurba_marseille","lat":43.27377,"lon":5.36252,"is_reserved":false,"is_disabled":false,"rental_uris":{"android":"levelo://app?vid=68de7c8e-0a7c-4def-bc8f-72f753f07918","ios":"levelo://app?vid=68de7c8e-0a7c-4def-bc8f-72f753f07918"},"vehicle_type_id":"4","last_reported":1744470527,"current_range_meters":8000,"station_id":"ce4bhbh2rcd13ifvqeo0","pricing_plan_id":"cebpf4jnsgd1na2vs0mg"},{"bike_id":"68d1c547-92f6-4809-a35e-49719cd9e929","system_id":"levelo_inurba_marseille","lat":43.23151,"lon":5.43716,"is_reserved":false,"is_disabled":false,"rental_uris":{"android":"levelo://app?vid=68d1c547-92f6-4809-a35e-49719cd9e929","ios":"levelo://app?vid=68d1c547-92f6-4809-a35e-49719cd9e929"},"vehicle_type_id":"4","last_reported":1744470527,"current_range_meters":8000,"station_id":"ce4bhmp2rcd13ifvqgog","pricing_plan_id":"cebpf4jnsgd1na2vs0mg"},{"bike_id":"3aa0fa9b-adf6-4bb4-8157-be16b366a876","system_id":"levelo_inurba_marseille","lat":43.27373,"lon":5.36244,"is_reserved":false,"is_disabled":false,"rental_uris":{"android":"levelo://app?vid=3aa0fa9b-adf6-4bb4-8157-be16b366a876","ios":"levelo://app?vid=3aa0fa9b-adf6-4bb4-8157-be16b366a876"},"vehicle_type_id":"4","last_reported":1744470527,"current_range_meters":8000,"station_id":"ce4bhbh2rcd13ifvqeo0","pricing_plan_id":"cebpf4jnsgd1na2vs0mg"},{"bike_id":"cc83a7aa-57a1-4769-9137-8531613b4691","system_id":"levelo_inurba_marseille","lat":43.31253,"lon":5.37305,"is_reserved":false,"is_disabled":false,"rental_uris":{"android":"levelo://app?vid=cc83a7aa-57a1-4769-9137-8531613b4691","ios":"levelo://app?vid=cc83a7aa-57a1-4769-9137-8531613b4691"},"vehicle_type_id":"4","last_reported":1744470527,"current_range_meters":8000,"station_id":"","pricing_plan_id":"cebpf4jnsgd1na2vs0mg"},{"bike_id":"58d73158-5cd2-47ee-a291-308f84a37d5e","system_id":"levelo_inurba_marseille","lat":43.291282,"lon":5.385374,"is_reserved":false,"is_disabled":false,"rental_uris":{"android":"levelo://app?vid=58d73158-5cd2-47ee-a291-308f84a37d5e","ios":"levelo://app?vid=58d73158-5cd2-47ee-a291-308f84a37d5e"},"vehicle_type_id":"4","last_reported":1744470527,"current_range_meters":8000,"station_id":"ce4bh4p2rcd13ifvqe0g","pricing_plan_id":"cebpf4jnsgd1na2vs0mg"},{"bike_id":"61087c9c-58a2-45af-89fa-c020f9313355","system_id":"levelo_inurba_marseille","lat":43.21752,"lon":5.34607,"is_reserved":false,"is_disabled":true,"rental_uris":{"android":"levelo://app?vid=61087c9c-58a2-45af-89fa-c020f9313355","ios":"levelo://app?vid=61087c9c-58a2-45af-89fa-c020f9313355"},"vehicle_type_id":"4","last_reported":1744470527,"current_range_meters":8000,"station_id":"st_cvj6r9ubvosntc0bgbag","pricing_plan_id":"cebpf4jnsgd1na2vs0mg"},{"bike_id":"5a68b6bf-2d6e-4964-9fe2-47d3c0b943ff","system_id":"levelo_inurba_marseille","lat":43.25501,"lon":5.37655,"is_reserved":false,"is_disabled":false,"rental_uris":{"android":"levelo://app?vid=5a68b6bf-2d6e-4964-9fe2-47d3c0b943ff","ios":"levelo://app?vid=5a68b6bf-2d6e-4964-9fe2-47d3c0b943ff"},"vehicle_type_id":"4","last_reported":1744470527,"current_range_meters":8000,"station_id":"ce4bhh12rcd13ifvqff0","pricing_plan_id":"cebpf4jnsgd1na2vs0mg"},{"bike_id":"e9e8e27e-9aca-499d-ab8f-96c2afa7d289","system_id":"levelo_inurba_marseille","lat":43.27052,"lon":5.40271,"is_reserved":false,"is_disabled":false,"rental_uris":{"android":"levelo://app?vid=e9e8e27e-9aca-499d-ab8f-96c2afa7d289","ios":"levelo://app?vid=e9e8e27e-9aca-499d-ab8f-96c2afa7d289"},"vehicle_type_id":"4","last_reported":1744470527,"current_range_meters":8000,"station_id":"ce4bhk92rcd13ifvqgc0","pricing_plan_id":"cebpf4jnsgd1na2vs0mg"},{"bike_id":"f1e00540-c2d1-4f3b-ba05-711232888e6e","system_id":"levelo_inurba_marseille","lat":43.21743,"lon":5.3461,"is_reserved":false,"is_disabled":true,"rental_uris":{"android":"levelo://app?vid=f1e00540-c2d1-4f3b-ba05-711232888e6e","ios":"levelo://app?vid=f1e00540-c2d1-4f3b-ba05-711232888e6e"},"vehicle_type_id":"4","last_reported":1744470527,"current_range_meters":8000,"station_id":"st_cvj6r9ubvosntc0bgbag","pricing_plan_id":"cebpf4jnsgd1na2vs0mg"},{"bike_id":"4c56221a-0f46-4530-955a-7184a07c8a88","system_id":"levelo_inurba_marseille","lat":43.23196,"lon":5.35554,"is_reserved":false,"is_disabled":true,"rental_uris":{"android":"levelo://app?vid=4c56221a-0f46-4530-955a-7184a07c8a88","ios":"levelo://app?vid=4c56221a-0f46-4530-955a-7184a07c8a88"},"vehicle_type_id":"4","last_reported":1744470527,"current_range_meters":8000,"station_id":"ce4bhu92rcd13ifvqi70","pricing_plan_id":"cebpf4jnsgd1na2vs0mg"},{"bike_id":"2adb9d3e-29ed-4811-a498-a27c797321e3","system_id":"levelo_inurba_marseille","lat":43.29858,"lon":5.36259,"is_reserved":false,"is_disabled":false,"rental_uris":{"android":"levelo://app?vid=2adb9d3e-29ed-4811-a498-a27c797321e3","ios":"levelo://app?vid=2adb9d3e-29ed-4811-a498-a27c797321e3"},"vehicle_type_id":"4","last_reported":1744470527,"current_range_meters":8000,"station_id":"ce4bgpp2rcd13ifvqc3g","pricing_plan_id":"cebpf4jnsgd1na2vs0mg"},{"bike_id":"72a149b7-4846-4d8f-8bde-657ce4c10f52","system_id":"levelo_inurba_marseille","lat":43.303296,"lon":5.404331,"is_reserved":false,"is_disabled":false,"rental_uris":{"android":"levelo://app?vid=72a149b7-4846-4d8f-8bde-657ce4c10f52","ios":"levelo://app?vid=72a149b7-4846-4d8f-8bde-657ce4c10f52"},"vehicle_type_id":"4","last_reported":1744470527,"current_range_meters":8000,"station_id":"ce4bh012rcd13ifvqd10","pricing_plan_id":"cebpf4jnsgd1na2vs0mg"},{"bike_id":"068faf6e-a1ed-4a39-a0e0-563ea5f9b5b5","system_id":"levelo_inurba_marseille","lat":43.24182,"lon":5.3973,"is_reserved":false,"is_disabled":false,"rental_uris":{"android":"levelo://app?vid=068faf6e-a1ed-4a39-a0e0-563ea5f9b5b5","ios":"levelo://app?vid=068faf6e-a1ed-4a39-a0e0-563ea5f9b5b5"},"vehicle_type_id":"4","last_reported":1744470527,"current_range_meters":8000,"station_id":"ce4bhn12rcd13ifvqgpg","pricing_plan_id":"cebpf4jnsgd1na2vs0mg"},{"bike_id":"3a3ea259-beed-4f47-b8b7-94aea76a2bd5","system_id":"levelo_inurba_marseille","lat":43.255073,"lon":5.376551,"is_reserved":false,"is_disabled":false,"rental_uris":{"android":"levelo://app?vid=3a3ea259-beed-4f47-b8b7-94aea76a2bd5","ios":"levelo://app?vid=3a3ea259-beed-4f47-b8b7-94aea76a2bd5"},"vehicle_type_id":"4","last_reported":1744470527,"current_range_meters":8000,"station_id":"ce4bhh12rcd13ifvqff0","pricing_plan_id":"cebpf4jnsgd1na2vs0mg"},{"bike_id":"9da9c2d4-fdfb-4b4f-a465-51ca5e162374","system_id":"levelo_inurba_marseille","lat":43.23153,"lon":5.43711,"is_reserved":false,"is_disabled":false,"rental_uris":{"android":"levelo://app?vid=9da9c2d4-fdfb-4b4f-a465-51ca5e162374","ios":"levelo://app?vid=9da9c2d4-fdfb-4b4f-a465-51ca5e162374"},"vehicle_type_id":"4","last_reported":1744470527,"current_range_meters":8400,"station_id":"ce4bhmp2rcd13ifvqgog","pricing_plan_id":"cebpf4jnsgd1na2vs0mg"},{"bike_id":"b35ae83b-ad68-4ef0-bbc5-c74ed8a2dd2d","system_id":"levelo_inurba_marseille","lat":43.29964,"lon":5.37165,"is_reserved":false,"is_disabled":false,"rental_uris":{"android":"levelo://app?vid=b35ae83b-ad68-4ef0-bbc5-c74ed8a2dd2d","ios":"levelo://app?vid=b35ae83b-ad68-4ef0-bbc5-c74ed8a2dd2d"},"vehicle_type_id":"4","last_reported":1744470527,"current_range_meters":8400,"station_id":"ce4bgr92rcd13ifvqc7g","pricing_plan_id":"cebpf4jnsgd1na2vs0mg"},{"bike_id":"b579fb15-b8b4-4ff4-9f27-d04a4f47e81a","system_id":"levelo_inurba_marseille","lat":43.27256,"lon":5.391853,"is_reserved":false,"is_disabled":false,"rental_uris":{"android":"levelo://app?vid=b579fb15-b8b4-4ff4-9f27-d04a4f47e81a","ios":"levelo://app?vid=b579fb15-b8b4-4ff4-9f27-d04a4f47e81a"},"vehicle_type_id":"4","last_reported":1744470527,"current_range_meters":8400,"station_id":"","pricing_plan_id":"cebpf4jnsgd1na2vs0mg"},{"bike_id":"4288c15f-ac74-4da0-b212-e5c9cd9c26a3","system_id":"levelo_inurba_marseille","lat":43.28939,"lon":5.36387,"is_reserved":false,"is_disabled":false,"rental_uris":{"android":"levelo://app?vid=4288c15f-ac74-4da0-b212-e5c9cd9c26a3","ios":"levelo://app?vid=4288c15f-ac74-4da0-b212-e5c9cd9c26a3"},"vehicle_type_id":"4","last_reported":1744470527,"current_range_meters":8400,"station_id":"ce4bhc92rcd13ifvqetg","pricing_plan_id":"cebpf4jnsgd1na2vs0mg"},{"bike_id":"71e1ec46-6891-45eb-9a96-67c284822ab7","system_id":"levelo_inurba_marseille","lat":43.29622,"lon":5.37163,"is_reserved":false,"is_disabled":false,"rental_uris":{"android":"levelo://app?vid=71e1ec46-6891-45eb-9a96-67c284822ab7","ios":"levelo://app?vid=71e1ec46-6891-45eb-9a96-67c284822ab7"},"vehicle_type_id":"4","last_reported":1744470527,"current_range_meters":8000,"station_id":"ce4bgnh2rcd13ifvqc0g","pricing_plan_id":"cebpf4jnsgd1na2vs0mg"},{"bike_id":"c5ef0d42-60e7-44f9-9a16-c8d6c9b89667","system_id":"levelo_inurba_marseille","lat":43.30876,"lon":5.37192,"is_reserved":false,"is_disabled":false,"rental_uris":{"android":"levelo://app?vid=c5ef0d42-60e7-44f9-9a16-c8d6c9b89667","ios":"levelo://app?vid=c5ef0d42-60e7-44f9-9a16-c8d6c9b89667"},"vehicle_type_id":"4","last_reported":1744470527,"current_range_meters":8400,"station_id":"ce4bguh2rcd13ifvqckg","pricing_plan_id":"cebpf4jnsgd1na2vs0mg"},{"bike_id":"5cc43232-a98e-484b-ad17-7926bcff20d4","system_id":"levelo_inurba_marseille","lat":43.24671,"lon":5.38154,"is_reserved":false,"is_disabled":false,"rental_uris":{"android":"levelo://app?vid=5cc43232-a98e-484b-ad17-7926bcff20d4","ios":"levelo://app?vid=5cc43232-a98e-484b-ad17-7926bcff20d4"},"vehicle_type_id":"4","last_reported":1744470527,"current_range_meters":8400,"station_id":"ce4bhih2rcd13ifvqfr0","pricing_plan_id":"cebpf4jnsgd1na2vs0mg"},{"bike_id":"72adaa87-94dc-4774-aca0-5147bc57bd16","system_id":"levelo_inurba_marseille","lat":43.26027,"lon":5.41731,"is_reserved":false,"is_disabled":false,"rental_uris":{"android":"levelo://app?vid=72adaa87-94dc-4774-aca0-5147bc57bd16","ios":"levelo://app?vid=72adaa87-94dc-4774-aca0-5147bc57bd16"},"vehicle_type_id":"4","last_reported":1744470527,"current_range_meters":8400,"station_id":"","pricing_plan_id":"cebpf4jnsgd1na2vs0mg"},{"bike_id":"cd56e7bc-9bae-4d3f-8afb-5deb3862f8ce","system_id":"levelo_inurba_marseille","lat":43.27381,"lon":5.36246,"is_reserved":false,"is_disabled":false,"rental_uris":{"android":"levelo://app?vid=cd56e7bc-9bae-4d3f-8afb-5deb3862f8ce","ios":"levelo://app?vid=cd56e7bc-9bae-4d3f-8afb-5deb3862f8ce"},"vehicle_type_id":"4","last_reported":1744470527,"current_range_meters":8400,"station_id":"ce4bhbh2rcd13ifvqeo0","pricing_plan_id":"cebpf4jnsgd1na2vs0mg"},{"bike_id":"c3be98a6-0939-49f5-a4ec-c46c384f3931","system_id":"levelo_inurba_marseille","lat":43.29705,"lon":5.36611,"is_reserved":false,"is_disabled":false,"rental_uris":{"android":"levelo://app?vid=c3be98a6-0939-49f5-a4ec-c46c384f3931","ios":"levelo://app?vid=c3be98a6-0939-49f5-a4ec-c46c384f3931"},"vehicle_type_id":"4","last_reported":1744470527,"current_range_meters":8400,"station_id":"ce4bgn12rcd13ifvqbt0","pricing_plan_id":"cebpf4jnsgd1na2vs0mg"},{"bike_id":"bebad4f9-9a8f-44f5-a0a7-869cf23340d9","system_id":"levelo_inurba_marseille","lat":43.24391,"lon":5.37056,"is_reserved":false,"is_disabled":false,"rental_uris":{"android":"levelo://app?vid=bebad4f9-9a8f-44f5-a0a7-869cf23340d9","ios":"levelo://app?vid=bebad4f9-9a8f-44f5-a0a7-869cf23340d9"},"vehicle_type_id":"4","last_reported":1744470527,"current_range_meters":8800,"station_id":"ce4bhhh2rcd13ifvqfk0","pricing_plan_id":"cebpf4jnsgd1na2vs0mg"},{"bike_id":"4d0678ee-4cbf-4f40-bf14-e44246d99141","system_id":"levelo_inurba_marseille","lat":43.24653,"lon":5.38893,"is_reserved":false,"is_disabled":false,"rental_uris":{"android":"levelo://app?vid=4d0678ee-4cbf-4f40-bf14-e44246d99141","ios":"levelo://app?vid=4d0678ee-4cbf-4f40-bf14-e44246d99141"},"vehicle_type_id":"4","last_reported":1744470527,"current_range_meters":8800,"station_id":"ce4bhg12rcd13ifvqf60","pricing_plan_id":"cebpf4jnsgd1na2vs0mg"},{"bike_id":"b076ee16-f944-44e5-9547-889f6f6aa972","system_id":"levelo_inurba_marseille","lat":43.25578,"lon":5.38245,"is_reserved":false,"is_disabled":false,"rental_uris":{"android":"levelo://app?vid=b076ee16-f944-44e5-9547-889f6f6aa972","ios":"levelo://app?vid=b076ee16-f944-44e5-9547-889f6f6aa972"},"vehicle_type_id":"4","last_reported":1744470527,"current_range_meters":8800,"station_id":"ce4bhih2rcd13ifvqfs0","pricing_plan_id":"cebpf4jnsgd1na2vs0mg"},{"bike_id":"5660a9e7-534a-40c8-b439-1f797f789066","system_id":"levelo_inurba_marseille","lat":43.28921,"lon":5.38399,"is_reserved":false,"is_disabled":false,"rental_uris":{"android":"levelo://app?vid=5660a9e7-534a-40c8-b439-1f797f789066","ios":"levelo://app?vid=5660a9e7-534a-40c8-b439-1f797f789066"},"vehicle_type_id":"4","last_reported":1744470527,"current_range_meters":8800,"station_id":"ce4bh612rcd13ifvqe6g","pricing_plan_id":"cebpf4jnsgd1na2vs0mg"},{"bike_id":"37864421-51e4-4d5e-801c-7ac32e01e722","system_id":"levelo_inurba_marseille","lat":43.31269,"lon":5.37853,"is_reserved":false,"is_disabled":false,"rental_uris":{"android":"levelo://app?vid=37864421-51e4-4d5e-801c-7ac32e01e722","ios":"levelo://app?vid=37864421-51e4-4d5e-801c-7ac32e01e722"},"vehicle_type_id":"4","last_reported":1744470527,"current_range_meters":8800,"station_id":"","pricing_plan_id":"cebpf4jnsgd1na2vs0mg"},{"bike_id":"08603b5b-e122-4e97-ad09-97a084252b62","system_id":"levelo_inurba_marseille","lat":43.29303,"lon":5.37157,"is_reserved":false,"is_disabled":false,"rental_uris":{"android":"levelo://app?vid=08603b5b-e122-4e97-ad09-97a084252b62","ios":"levelo://app?vid=08603b5b-e122-4e97-ad09-97a084252b62"},"vehicle_type_id":"4","last_reported":1744470527,"current_range_meters":9200,"station_id":"ce4bgh92rcd13ifvqb40","pricing_plan_id":"cebpf4jnsgd1na2vs0mg"},{"bike_id":"d76b9732-6ab4-446c-a144-95e62ea4d588","system_id":"levelo_inurba_marseille","lat":43.24805,"lon":5.37458,"is_reserved":false,"is_disabled":false,"rental_uris":{"android":"levelo://app?vid=d76b9732-6ab4-446c-a144-95e62ea4d588","ios":"levelo://app?vid=d76b9732-6ab4-446c-a144-95e62ea4d588"},"vehicle_type_id":"4","last_reported":1744470527,"current_range_meters":9200,"station_id":"ce4bhgh2rcd13ifvqfb0","pricing_plan_id":"cebpf4jnsgd1na2vs0mg"},{"bike_id":"b50b5ef6-1ccc-45ed-b6ce-d4c5cdba3964","system_id":"levelo_inurba_marseille","lat":43.29418,"lon":5.38622,"is_reserved":false,"is_disabled":false,"rental_uris":{"android":"levelo://app?vid=b50b5ef6-1ccc-45ed-b6ce-d4c5cdba3964","ios":"levelo://app?vid=b50b5ef6-1ccc-45ed-b6ce-d4c5cdba3964"},"vehicle_type_id":"4","last_reported":1744470527,"current_range_meters":8800,"station_id":"ce4bh2h2rcd13ifvqdh0","pricing_plan_id":"cebpf4jnsgd1na2vs0mg"},{"bike_id":"638766b5-7ea5-4972-a2b5-d4a667c0dab7","system_id":"levelo_inurba_marseille","lat":43.28264,"lon":5.35087,"is_reserved":false,"is_disabled":false,"rental_uris":{"android":"levelo://app?vid=638766b5-7ea5-4972-a2b5-d4a667c0dab7","ios":"levelo://app?vid=638766b5-7ea5-4972-a2b5-d4a667c0dab7"},"vehicle_type_id":"4","last_reported":1744470527,"current_range_meters":9200,"station_id":"ce4bhbp2rcd13ifvqerg","pricing_plan_id":"cebpf4jnsgd1na2vs0mg"},{"bike_id":"dd9fcd0b-1d2c-4e2e-908d-75b3a615f1ca","system_id":"levelo_inurba_marseille","lat":43.26934,"lon":5.40257,"is_reserved":false,"is_disabled":false,"rental_uris":{"android":"levelo://app?vid=dd9fcd0b-1d2c-4e2e-908d-75b3a615f1ca","ios":"levelo://app?vid=dd9fcd0b-1d2c-4e2e-908d-75b3a615f1ca"},"vehicle_type_id":"4","last_reported":1744470527,"current_range_meters":9200,"station_id":"cjm6bp8fraef2m0cb0m0","pricing_plan_id":"cebpf4jnsgd1na2vs0mg"},{"bike_id":"7ab417b9-6b9e-475c-abd2-66f4f6919f70","system_id":"levelo_inurba_marseille","lat":43.28937,"lon":5.36394,"is_reserved":false,"is_disabled":false,"rental_uris":{"android":"levelo://app?vid=7ab417b9-6b9e-475c-abd2-66f4f6919f70","ios":"levelo://app?vid=7ab417b9-6b9e-475c-abd2-66f4f6919f70"},"vehicle_type_id":"4","last_reported":1744470527,"current_range_meters":9200,"station_id":"ce4bhc92rcd13ifvqetg","pricing_plan_id":"cebpf4jnsgd1na2vs0mg"},{"bike_id":"14573d36-5ecd-44d1-9d4d-2d345cc0c804","system_id":"levelo_inurba_marseille","lat":43.26221,"lon":5.37442,"is_reserved":false,"is_disabled":false,"rental_uris":{"android":"levelo://app?vid=14573d36-5ecd-44d1-9d4d-2d345cc0c804","ios":"levelo://app?vid=14573d36-5ecd-44d1-9d4d-2d345cc0c804"},"vehicle_type_id":"4","last_reported":1744470527,"current_range_meters":9200,"station_id":"ce4bhgp2rcd13ifvqfc0","pricing_plan_id":"cebpf4jnsgd1na2vs0mg"},{"bike_id":"4c893399-b4ed-40ed-a49f-713da320f269","system_id":"levelo_inurba_marseille","lat":43.29861,"lon":5.37841,"is_reserved":false,"is_disabled":false,"rental_uris":{"android":"levelo://app?vid=4c893399-b4ed-40ed-a49f-713da320f269","ios":"levelo://app?vid=4c893399-b4ed-40ed-a49f-713da320f269"},"vehicle_type_id":"4","last_reported":1744470527,"current_range_meters":9200,"station_id":"","pricing_plan_id":"cebpf4jnsgd1na2vs0mg"},{"bike_id":"411f282c-b696-41a4-888f-752e1134c529","system_id":"levelo_inurba_marseille","lat":43.26194,"lon":5.3746,"is_reserved":false,"is_disabled":false,"rental_uris":{"android":"levelo://app?vid=411f282c-b696-41a4-888f-752e1134c529","ios":"levelo://app?vid=411f282c-b696-41a4-888f-752e1134c529"},"vehicle_type_id":"4","last_reported":1744470527,"current_range_meters":9200,"station_id":"ce4bhgp2rcd13ifvqfc0","pricing_plan_id":"cebpf4jnsgd1na2vs0mg"},{"bike_id":"8c58f2fa-99e1-41f8-bf90-9c1648b679b1","system_id":"levelo_inurba_marseille","lat":43.27318,"lon":5.41475,"is_reserved":false,"is_disabled":false,"rental_uris":{"android":"levelo://app?vid=8c58f2fa-99e1-41f8-bf90-9c1648b679b1","ios":"levelo://app?vid=8c58f2fa-99e1-41f8-bf90-9c1648b679b1"},"vehicle_type_id":"4","last_reported":1744470527,"current_range_meters":9200,"station_id":"","pricing_plan_id":"cebpf4jnsgd1na2vs0mg"},{"bike_id":"7c4ed3d8-410e-4b72-ba2e-93aec46f7580","system_id":"levelo_inurba_marseille","lat":43.30255,"lon":5.40049,"is_reserved":false,"is_disabled":false,"rental_uris":{"android":"levelo://app?vid=7c4ed3d8-410e-4b72-ba2e-93aec46f7580","ios":"levelo://app?vid=7c4ed3d8-410e-4b72-ba2e-93aec46f7580"},"vehicle_type_id":"4","last_reported":1744470527,"current_range_meters":9200,"station_id":"ce4bgvh2rcd13ifvqcs0","pricing_plan_id":"cebpf4jnsgd1na2vs0mg"},{"bike_id":"8771d8e7-52e5-4861-a854-83c0340c9927","system_id":"levelo_inurba_marseille","lat":43.21203,"lon":5.3511,"is_reserved":false,"is_disabled":false,"rental_uris":{"android":"levelo://app?vid=8771d8e7-52e5-4861-a854-83c0340c9927","ios":"levelo://app?vid=8771d8e7-52e5-4861-a854-83c0340c9927"},"vehicle_type_id":"4","last_reported":1744470527,"current_range_meters":9200,"station_id":"","pricing_plan_id":"cebpf4jnsgd1na2vs0mg"},{"bike_id":"08f84ba5-3190-4241-978a-74ab7b72274d","system_id":"levelo_inurba_marseille","lat":43.29317,"lon":5.37177,"is_reserved":false,"is_disabled":false,"rental_uris":{"android":"levelo://app?vid=08f84ba5-3190-4241-978a-74ab7b72274d","ios":"levelo://app?vid=08f84ba5-3190-4241-978a-74ab7b72274d"},"vehicle_type_id":"4","last_reported":1744470527,"current_range_meters":9200,"station_id":"ce4bgh92rcd13ifvqb40","pricing_plan_id":"cebpf4jnsgd1na2vs0mg"},{"bike_id":"fba14dc4-f065-46f4-a67b-b47ee9a5123b","system_id":"levelo_inurba_marseille","lat":43.29314,"lon":5.37198,"is_reserved":false,"is_disabled":true,"rental_uris":{"android":"levelo://app?vid=fba14dc4-f065-46f4-a67b-b47ee9a5123b","ios":"levelo://app?vid=fba14dc4-f065-46f4-a67b-b47ee9a5123b"},"vehicle_type_id":"4","last_reported":1744470527,"current_range_meters":9600,"station_id":"ce4bgh92rcd13ifvqb40","pricing_plan_id":"cebpf4jnsgd1na2vs0mg"},{"bike_id":"857a233b-a2f6-423b-a0d3-d2a3790e53eb","system_id":"levelo_inurba_marseille","lat":43.289411,"lon":5.36638,"is_reserved":false,"is_disabled":false,"rental_uris":{"android":"levelo://app?vid=857a233b-a2f6-423b-a0d3-d2a3790e53eb","ios":"levelo://app?vid=857a233b-a2f6-423b-a0d3-d2a3790e53eb"},"vehicle_type_id":"4","last_reported":1744470527,"current_range_meters":9600,"station_id":"ce4bhap2rcd13ifvqek0","pricing_plan_id":"cebpf4jnsgd1na2vs0mg"},{"bike_id":"ec6f7006-3321-4db1-bf0c-14b3f92e978a","system_id":"levelo_inurba_marseille","lat":43.27056,"lon":5.40268,"is_reserved":false,"is_disabled":false,"rental_uris":{"android":"levelo://app?vid=ec6f7006-3321-4db1-bf0c-14b3f92e978a","ios":"levelo://app?vid=ec6f7006-3321-4db1-bf0c-14b3f92e978a"},"vehicle_type_id":"4","last_reported":1744470527,"current_range_meters":9600,"station_id":"ce4bhk92rcd13ifvqgc0","pricing_plan_id":"cebpf4jnsgd1na2vs0mg"},{"bike_id":"5fe772a5-eba6-41d7-9aaf-4d8c5fed1e60","system_id":"levelo_inurba_marseille","lat":43.25498,"lon":5.37653,"is_reserved":false,"is_disabled":false,"rental_uris":{"android":"levelo://app?vid=5fe772a5-eba6-41d7-9aaf-4d8c5fed1e60","ios":"levelo://app?vid=5fe772a5-eba6-41d7-9aaf-4d8c5fed1e60"},"vehicle_type_id":"4","last_reported":1744470527,"current_range_meters":9600,"station_id":"ce4bhh12rcd13ifvqff0","pricing_plan_id":"cebpf4jnsgd1na2vs0mg"},{"bike_id":"85894912-5931-4506-9f8b-327c0d57dc07","system_id":"levelo_inurba_marseille","lat":43.29417,"lon":5.38625,"is_reserved":false,"is_disabled":false,"rental_uris":{"android":"levelo://app?vid=85894912-5931-4506-9f8b-327c0d57dc07","ios":"levelo://app?vid=85894912-5931-4506-9f8b-327c0d57dc07"},"vehicle_type_id":"4","last_reported":1744470527,"current_range_meters":10000,"station_id":"ce4bh2h2rcd13ifvqdh0","pricing_plan_id":"cebpf4jnsgd1na2vs0mg"},{"bike_id":"c400e4b7-268d-4ac5-8f7a-3d44d49bb742","system_id":"levelo_inurba_marseille","lat":43.27389,"lon":5.36255,"is_reserved":false,"is_disabled":false,"rental_uris":{"android":"levelo://app?vid=c400e4b7-268d-4ac5-8f7a-3d44d49bb742","ios":"levelo://app?vid=c400e4b7-268d-4ac5-8f7a-3d44d49bb742"},"vehicle_type_id":"4","last_reported":1744470527,"current_range_meters":10000,"station_id":"ce4bhbh2rcd13ifvqeo0","pricing_plan_id":"cebpf4jnsgd1na2vs0mg"},{"bike_id":"7c9e8674-4157-4b67-9bac-2ec90e7a7feb","system_id":"levelo_inurba_marseille","lat":43.29225,"lon":5.36055,"is_reserved":false,"is_disabled":false,"rental_uris":{"android":"levelo://app?vid=7c9e8674-4157-4b67-9bac-2ec90e7a7feb","ios":"levelo://app?vid=7c9e8674-4157-4b67-9bac-2ec90e7a7feb"},"vehicle_type_id":"4","last_reported":1744470527,"current_range_meters":10000,"station_id":"ce4bhbh2rcd13ifvqeqg","pricing_plan_id":"cebpf4jnsgd1na2vs0mg"},{"bike_id":"4fa9ed93-26f6-4745-87b1-a60332bdb6da","system_id":"levelo_inurba_marseille","lat":43.30949,"lon":5.39037,"is_reserved":false,"is_disabled":false,"rental_uris":{"android":"levelo://app?vid=4fa9ed93-26f6-4745-87b1-a60332bdb6da","ios":"levelo://app?vid=4fa9ed93-26f6-4745-87b1-a60332bdb6da"},"vehicle_type_id":"4","last_reported":1744470527,"current_range_meters":9600,"station_id":"ce4bgup2rcd13ifvqco0","pricing_plan_id":"cebpf4jnsgd1na2vs0mg"},{"bike_id":"b9d14cd5-58b5-4b82-908e-21e2f149883e","system_id":"levelo_inurba_marseille","lat":43.298,"lon":5.404,"is_reserved":false,"is_disabled":false,"rental_uris":{"android":"levelo://app?vid=b9d14cd5-58b5-4b82-908e-21e2f149883e","ios":"levelo://app?vid=b9d14cd5-58b5-4b82-908e-21e2f149883e"},"vehicle_type_id":"4","last_reported":1744470527,"current_range_meters":10000,"station_id":"ce4bh112rcd13ifvqd90","pricing_plan_id":"cebpf4jnsgd1na2vs0mg"},{"bike_id":"794055ac-f8dd-45d4-924e-c4adb23346bd","system_id":"levelo_inurba_marseille","lat":43.27378,"lon":5.36259,"is_reserved":false,"is_disabled":false,"rental_uris":{"android":"levelo://app?vid=794055ac-f8dd-45d4-924e-c4adb23346bd","ios":"levelo://app?vid=794055ac-f8dd-45d4-924e-c4adb23346bd"},"vehicle_type_id":"4","last_reported":1744470527,"current_range_meters":10000,"station_id":"ce4bhbh2rcd13ifvqeo0","pricing_plan_id":"cebpf4jnsgd1na2vs0mg"},{"bike_id":"4a0973b0-92a0-41e8-9b0d-a99e944bafe0","system_id":"levelo_inurba_marseille","lat":43.34511,"lon":5.41289,"is_reserved":false,"is_disabled":false,"rental_uris":{"android":"levelo://app?vid=4a0973b0-92a0-41e8-9b0d-a99e944bafe0","ios":"levelo://app?vid=4a0973b0-92a0-41e8-9b0d-a99e944bafe0"},"vehicle_type_id":"4","last_reported":1744470527,"current_range_meters":10000,"station_id":"","pricing_plan_id":"cebpf4jnsgd1na2vs0mg"},{"bike_id":"c8aad4c9-8bfa-40d3-bfd3-41fa300a75fe","system_id":"levelo_inurba_marseille","lat":43.2558,"lon":5.38241,"is_reserved":false,"is_disabled":false,"rental_uris":{"android":"levelo://app?vid=c8aad4c9-8bfa-40d3-bfd3-41fa300a75fe","ios":"levelo://app?vid=c8aad4c9-8bfa-40d3-bfd3-41fa300a75fe"},"vehicle_type_id":"4","last_reported":1744470527,"current_range_meters":10000,"station_id":"ce4bhih2rcd13ifvqfs0","pricing_plan_id":"cebpf4jnsgd1na2vs0mg"},{"bike_id":"29fd9406-b872-4408-b90c-f1d9e5190468","system_id":"levelo_inurba_marseille","lat":43.23152,"lon":5.43715,"is_reserved":false,"is_disabled":false,"rental_uris":{"android":"levelo://app?vid=29fd9406-b872-4408-b90c-f1d9e5190468","ios":"levelo://app?vid=29fd9406-b872-4408-b90c-f1d9e5190468"},"vehicle_type_id":"4","last_reported":1744470527,"current_range_meters":10000,"station_id":"ce4bhmp2rcd13ifvqgog","pricing_plan_id":"cebpf4jnsgd1na2vs0mg"},{"bike_id":"70a7366b-d0de-48d6-9c1c-9b233fdd4e0e","system_id":"levelo_inurba_marseille","lat":43.21751,"lon":5.34602,"is_reserved":false,"is_disabled":false,"rental_uris":{"android":"levelo://app?vid=70a7366b-d0de-48d6-9c1c-9b233fdd4e0e","ios":"levelo://app?vid=70a7366b-d0de-48d6-9c1c-9b233fdd4e0e"},"vehicle_type_id":"4","last_reported":1744470527,"current_range_meters":10000,"station_id":"ce4bhu92rcd13ifvqi70","pricing_plan_id":"cebpf4jnsgd1na2vs0mg"},{"bike_id":"88802da1-90f2-4aff-90a1-c3598e933096","system_id":"levelo_inurba_marseille","lat":43.30357,"lon":5.3931,"is_reserved":false,"is_disabled":false,"rental_uris":{"android":"levelo://app?vid=88802da1-90f2-4aff-90a1-c3598e933096","ios":"levelo://app?vid=88802da1-90f2-4aff-90a1-c3598e933096"},"vehicle_type_id":"4","last_reported":1744470527,"current_range_meters":10000,"station_id":"","pricing_plan_id":"cebpf4jnsgd1na2vs0mg"},{"bike_id":"d53356ed-34e7-4ce0-8d94-e073954cdd85","system_id":"levelo_inurba_marseille","lat":43.27048,"lon":5.40269,"is_reserved":false,"is_disabled":true,"rental_uris":{"android":"levelo://app?vid=d53356ed-34e7-4ce0-8d94-e073954cdd85","ios":"levelo://app?vid=d53356ed-34e7-4ce0-8d94-e073954cdd85"},"vehicle_type_id":"4","last_reported":1744470527,"current_range_meters":10800,"station_id":"ce4bhk92rcd13ifvqgc0","pricing_plan_id":"cebpf4jnsgd1na2vs0mg"},{"bike_id":"c34ec5c1-4c72-4ca4-a836-572c39395efb","system_id":"levelo_inurba_marseille","lat":43.26545,"lon":5.37288,"is_reserved":false,"is_disabled":false,"rental_uris":{"android":"levelo://app?vid=c34ec5c1-4c72-4ca4-a836-572c39395efb","ios":"levelo://app?vid=c34ec5c1-4c72-4ca4-a836-572c39395efb"},"vehicle_type_id":"4","last_reported":1744470527,"current_range_meters":10800,"station_id":"ce4bhg12rcd13ifvqf70","pricing_plan_id":"cebpf4jnsgd1na2vs0mg"},{"bike_id":"c013d600-5e08-48f0-830e-8c965978436b","system_id":"levelo_inurba_marseille","lat":43.30413,"lon":5.38884,"is_reserved":false,"is_disabled":true,"rental_uris":{"android":"levelo://app?vid=c013d600-5e08-48f0-830e-8c965978436b","ios":"levelo://app?vid=c013d600-5e08-48f0-830e-8c965978436b"},"vehicle_type_id":"4","last_reported":1744470527,"current_range_meters":10800,"station_id":"ce4bgk12rcd13ifvqbi0","pricing_plan_id":"cebpf4jnsgd1na2vs0mg"},{"bike_id":"5b17a94d-7976-49da-82ac-e9dbeb077b2a","system_id":"levelo_inurba_marseille","lat":43.29277,"lon":5.36843,"is_reserved":false,"is_disabled":false,"rental_uris":{"android":"levelo://app?vid=5b17a94d-7976-49da-82ac-e9dbeb077b2a","ios":"levelo://app?vid=5b17a94d-7976-49da-82ac-e9dbeb077b2a"},"vehicle_type_id":"4","last_reported":1744470527,"current_range_meters":10800,"station_id":"ce4bhbp2rcd13ifvqesg","pricing_plan_id":"cebpf4jnsgd1na2vs0mg"},{"bike_id":"c2f0188e-cc2a-48f7-9b54-63394c070e42","system_id":"levelo_inurba_marseille","lat":43.31996,"lon":5.38151,"is_reserved":false,"is_disabled":false,"rental_uris":{"android":"levelo://app?vid=c2f0188e-cc2a-48f7-9b54-63394c070e42","ios":"levelo://app?vid=c2f0188e-cc2a-48f7-9b54-63394c070e42"},"vehicle_type_id":"4","last_reported":1744470527,"current_range_meters":10800,"station_id":"ce4bhr12rcd13ifvqhpg","pricing_plan_id":"cebpf4jnsgd1na2vs0mg"},{"bike_id":"ef291804-1477-432e-b153-82ea15725418","system_id":"levelo_inurba_marseille","lat":43.33742,"lon":5.37454,"is_reserved":false,"is_disabled":false,"rental_uris":{"android":"levelo://app?vid=ef291804-1477-432e-b153-82ea15725418","ios":"levelo://app?vid=ef291804-1477-432e-b153-82ea15725418"},"vehicle_type_id":"4","last_reported":1744470527,"current_range_meters":10800,"station_id":"","pricing_plan_id":"cebpf4jnsgd1na2vs0mg"},{"bike_id":"c722f7d4-4553-4b9e-8e73-59a524e32782","system_id":"levelo_inurba_marseille","lat":43.30954,"lon":5.3904,"is_reserved":false,"is_disabled":false,"rental_uris":{"android":"levelo://app?vid=c722f7d4-4553-4b9e-8e73-59a524e32782","ios":"levelo://app?vid=c722f7d4-4553-4b9e-8e73-59a524e32782"},"vehicle_type_id":"4","last_reported":1744470527,"current_range_meters":10800,"station_id":"ce4bgup2rcd13ifvqco0","pricing_plan_id":"cebpf4jnsgd1na2vs0mg"},{"bike_id":"4cedd733-2587-4eb1-87b3-3ab69e1574bc","system_id":"levelo_inurba_marseille","lat":43.287466,"lon":5.352234,"is_reserved":false,"is_disabled":false,"rental_uris":{"android":"levelo://app?vid=4cedd733-2587-4eb1-87b3-3ab69e1574bc","ios":"levelo://app?vid=4cedd733-2587-4eb1-87b3-3ab69e1574bc"},"vehicle_type_id":"4","last_reported":1744470527,"current_range_meters":11200,"station_id":"ce4bhap2rcd13ifvqek0","pricing_plan_id":"cebpf4jnsgd1na2vs0mg"},{"bike_id":"4895311a-30d1-4351-9828-aa9b98ff5c7b","system_id":"levelo_inurba_marseille","lat":43.29574,"lon":5.37526,"is_reserved":false,"is_disabled":false,"rental_uris":{"android":"levelo://app?vid=4895311a-30d1-4351-9828-aa9b98ff5c7b","ios":"levelo://app?vid=4895311a-30d1-4351-9828-aa9b98ff5c7b"},"vehicle_type_id":"4","last_reported":1744470527,"current_range_meters":11200,"station_id":"ce4bgh92rcd13ifvqb50","pricing_plan_id":"cebpf4jnsgd1na2vs0mg"},{"bike_id":"6b91aa6a-2d54-48e4-9271-018184c9a6db","system_id":"levelo_inurba_marseille","lat":43.279077,"lon":5.380111,"is_reserved":false,"is_disabled":false,"rental_uris":{"android":"levelo://app?vid=6b91aa6a-2d54-48e4-9271-018184c9a6db","ios":"levelo://app?vid=6b91aa6a-2d54-48e4-9271-018184c9a6db"},"vehicle_type_id":"4","last_reported":1744470527,"current_range_meters":11200,"station_id":"ce4bhf92rcd13ifvqf50","pricing_plan_id":"cebpf4jnsgd1na2vs0mg"},{"bike_id":"d20966d0-b8c9-41e5-ad38-e3d612a47902","system_id":"levelo_inurba_marseille","lat":43.28609,"lon":5.35097,"is_reserved":false,"is_disabled":false,"rental_uris":{"android":"levelo://app?vid=d20966d0-b8c9-41e5-ad38-e3d612a47902","ios":"levelo://app?vid=d20966d0-b8c9-41e5-ad38-e3d612a47902"},"vehicle_type_id":"4","last_reported":1744470527,"current_range_meters":11200,"station_id":"ce4bhch2rcd13ifvqeug","pricing_plan_id":"cebpf4jnsgd1na2vs0mg"},{"bike_id":"75faf664-5cb3-4959-8d5d-0ca82065d58c","system_id":"levelo_inurba_marseille","lat":43.28952,"lon":5.38383,"is_reserved":false,"is_disabled":false,"rental_uris":{"android":"levelo://app?vid=75faf664-5cb3-4959-8d5d-0ca82065d58c","ios":"levelo://app?vid=75faf664-5cb3-4959-8d5d-0ca82065d58c"},"vehicle_type_id":"4","last_reported":1744470527,"current_range_meters":11200,"station_id":"ce4bh612rcd13ifvqe6g","pricing_plan_id":"cebpf4jnsgd1na2vs0mg"},{"bike_id":"d22e1088-33ef-4e9c-a7f4-5e91bbf839b5","system_id":"levelo_inurba_marseille","lat":43.292296,"lon":5.370809,"is_reserved":false,"is_disabled":false,"rental_uris":{"android":"levelo://app?vid=d22e1088-33ef-4e9c-a7f4-5e91bbf839b5","ios":"levelo://app?vid=d22e1088-33ef-4e9c-a7f4-5e91bbf839b5"},"vehicle_type_id":"4","last_reported":1744470527,"current_range_meters":11200,"station_id":"st_cvj6sg6p6f1abm77japg","pricing_plan_id":"cebpf4jnsgd1na2vs0mg"},{"bike_id":"f7d1eee0-1715-419d-beac-1b98ec9e62ed","system_id":"levelo_inurba_marseille","lat":43.30952,"lon":5.39039,"is_reserved":false,"is_disabled":true,"rental_uris":{"android":"levelo://app?vid=f7d1eee0-1715-419d-beac-1b98ec9e62ed","ios":"levelo://app?vid=f7d1eee0-1715-419d-beac-1b98ec9e62ed"},"vehicle_type_id":"4","last_reported":1744470527,"current_range_meters":11600,"station_id":"ce4bgup2rcd13ifvqco0","pricing_plan_id":"cebpf4jnsgd1na2vs0mg"},{"bike_id":"cfbcab03-e55d-4773-af8b-18bf4756c9be","system_id":"levelo_inurba_marseille","lat":43.25496,"lon":5.37647,"is_reserved":false,"is_disabled":false,"rental_uris":{"android":"levelo://app?vid=cfbcab03-e55d-4773-af8b-18bf4756c9be","ios":"levelo://app?vid=cfbcab03-e55d-4773-af8b-18bf4756c9be"},"vehicle_type_id":"4","last_reported":1744470527,"current_range_meters":11600,"station_id":"ce4bhh12rcd13ifvqff0","pricing_plan_id":"cebpf4jnsgd1na2vs0mg"},{"bike_id":"450de126-a945-4b15-b34f-6ffd5c99e1ff","system_id":"levelo_inurba_marseille","lat":43.27377,"lon":5.36256,"is_reserved":false,"is_disabled":false,"rental_uris":{"android":"levelo://app?vid=450de126-a945-4b15-b34f-6ffd5c99e1ff","ios":"levelo://app?vid=450de126-a945-4b15-b34f-6ffd5c99e1ff"},"vehicle_type_id":"4","last_reported":1744470527,"current_range_meters":11600,"station_id":"ce4bhbh2rcd13ifvqeo0","pricing_plan_id":"cebpf4jnsgd1na2vs0mg"},{"bike_id":"678f1423-82d1-4ab6-8b06-4f4b3e5a34d2","system_id":"levelo_inurba_marseille","lat":43.2942,"lon":5.38621,"is_reserved":false,"is_disabled":false,"rental_uris":{"android":"levelo://app?vid=678f1423-82d1-4ab6-8b06-4f4b3e5a34d2","ios":"levelo://app?vid=678f1423-82d1-4ab6-8b06-4f4b3e5a34d2"},"vehicle_type_id":"4","last_reported":1744470527,"current_range_meters":11600,"station_id":"ce4bh2h2rcd13ifvqdh0","pricing_plan_id":"cebpf4jnsgd1na2vs0mg"},{"bike_id":"6a9c6789-bad7-4c59-9974-fafb6caa5446","system_id":"levelo_inurba_marseille","lat":43.23155,"lon":5.43707,"is_reserved":false,"is_disabled":false,"rental_uris":{"android":"levelo://app?vid=6a9c6789-bad7-4c59-9974-fafb6caa5446","ios":"levelo://app?vid=6a9c6789-bad7-4c59-9974-fafb6caa5446"},"vehicle_type_id":"4","last_reported":1744470527,"current_range_meters":11600,"station_id":"ce4bhmp2rcd13ifvqgog","pricing_plan_id":"cebpf4jnsgd1na2vs0mg"},{"bike_id":"95c976f4-e7c2-48bb-9de9-643dff048f08","system_id":"levelo_inurba_marseille","lat":43.29621,"lon":5.3716,"is_reserved":false,"is_disabled":false,"rental_uris":{"android":"levelo://app?vid=95c976f4-e7c2-48bb-9de9-643dff048f08","ios":"levelo://app?vid=95c976f4-e7c2-48bb-9de9-643dff048f08"},"vehicle_type_id":"4","last_reported":1744470527,"current_range_meters":11600,"station_id":"ce4bgnh2rcd13ifvqc0g","pricing_plan_id":"cebpf4jnsgd1na2vs0mg"},{"bike_id":"0e7bf4ae-5aed-4055-a1f8-96debbb9847e","system_id":"levelo_inurba_marseille","lat":43.24175,"lon":5.36399,"is_reserved":false,"is_disabled":false,"rental_uris":{"android":"levelo://app?vid=0e7bf4ae-5aed-4055-a1f8-96debbb9847e","ios":"levelo://app?vid=0e7bf4ae-5aed-4055-a1f8-96debbb9847e"},"vehicle_type_id":"4","last_reported":1744470527,"current_range_meters":11600,"station_id":"cpo36qri1sfpv3e86is0","pricing_plan_id":"cebpf4jnsgd1na2vs0mg"},{"bike_id":"8609ec5b-db31-4682-89f6-95794d251c5e","system_id":"levelo_inurba_marseille","lat":43.23162,"lon":5.4372,"is_reserved":false,"is_disabled":false,"rental_uris":{"android":"levelo://app?vid=8609ec5b-db31-4682-89f6-95794d251c5e","ios":"levelo://app?vid=8609ec5b-db31-4682-89f6-95794d251c5e"},"vehicle_type_id":"4","last_reported":1744470527,"current_range_meters":11600,"station_id":"ce4bhmp2rcd13ifvqgog","pricing_plan_id":"cebpf4jnsgd1na2vs0mg"},{"bike_id":"fb9d99d8-a8c5-435d-a007-9d8bc5a2becb","system_id":"levelo_inurba_marseille","lat":43.282623,"lon":5.350531,"is_reserved":false,"is_disabled":false,"rental_uris":{"android":"levelo://app?vid=fb9d99d8-a8c5-435d-a007-9d8bc5a2becb","ios":"levelo://app?vid=fb9d99d8-a8c5-435d-a007-9d8bc5a2becb"},"vehicle_type_id":"4","last_reported":1744470527,"current_range_meters":12000,"station_id":"ce4bh512rcd13ifvqe3g","pricing_plan_id":"cebpf4jnsgd1na2vs0mg"},{"bike_id":"d8f603cd-3b83-4148-bab8-3a185ad2a59f","system_id":"levelo_inurba_marseille","lat":43.32416,"lon":5.3913,"is_reserved":false,"is_disabled":false,"rental_uris":{"android":"levelo://app?vid=d8f603cd-3b83-4148-bab8-3a185ad2a59f","ios":"levelo://app?vid=d8f603cd-3b83-4148-bab8-3a185ad2a59f"},"vehicle_type_id":"4","last_reported":1744470527,"current_range_meters":12000,"station_id":"","pricing_plan_id":"cebpf4jnsgd1na2vs0mg"},{"bike_id":"9a297965-1603-4e0d-af70-c225fa4f1b04","system_id":"levelo_inurba_marseille","lat":43.28426,"lon":5.35005,"is_reserved":false,"is_disabled":false,"rental_uris":{"android":"levelo://app?vid=9a297965-1603-4e0d-af70-c225fa4f1b04","ios":"levelo://app?vid=9a297965-1603-4e0d-af70-c225fa4f1b04"},"vehicle_type_id":"4","last_reported":1744470527,"current_range_meters":12000,"station_id":"ce4bhbh2rcd13ifvqepg","pricing_plan_id":"cebpf4jnsgd1na2vs0mg"},{"bike_id":"00688a4b-ef76-48dc-aca1-5775965162dd","system_id":"levelo_inurba_marseille","lat":43.29277,"lon":5.40114,"is_reserved":false,"is_disabled":false,"rental_uris":{"android":"levelo://app?vid=00688a4b-ef76-48dc-aca1-5775965162dd","ios":"levelo://app?vid=00688a4b-ef76-48dc-aca1-5775965162dd"},"vehicle_type_id":"4","last_reported":1744470527,"current_range_meters":12000,"station_id":"ce4bh312rcd13ifvqdk0","pricing_plan_id":"cebpf4jnsgd1na2vs0mg"},{"bike_id":"24d4a474-79ee-47e8-a230-e475f9be82ca","system_id":"levelo_inurba_marseille","lat":43.29793,"lon":5.38079,"is_reserved":false,"is_disabled":false,"rental_uris":{"android":"levelo://app?vid=24d4a474-79ee-47e8-a230-e475f9be82ca","ios":"levelo://app?vid=24d4a474-79ee-47e8-a230-e475f9be82ca"},"vehicle_type_id":"4","last_reported":1744470527,"current_range_meters":12000,"station_id":"ce4bgip2rcd13ifvqbb0","pricing_plan_id":"cebpf4jnsgd1na2vs0mg"},{"bike_id":"0efed3b8-d96d-46cb-a145-a8ef8e898529","system_id":"levelo_inurba_marseille","lat":43.28465,"lon":5.38416,"is_reserved":false,"is_disabled":false,"rental_uris":{"android":"levelo://app?vid=0efed3b8-d96d-46cb-a145-a8ef8e898529","ios":"levelo://app?vid=0efed3b8-d96d-46cb-a145-a8ef8e898529"},"vehicle_type_id":"4","last_reported":1744470527,"current_range_meters":12000,"station_id":"ce4bh512rcd13ifvqe3g","pricing_plan_id":"cebpf4jnsgd1na2vs0mg"},{"bike_id":"c27aa377-318b-48ec-b154-c01ef2e313d0","system_id":"levelo_inurba_marseille","lat":43.3014,"lon":5.37425,"is_reserved":false,"is_disabled":false,"rental_uris":{"android":"levelo://app?vid=c27aa377-318b-48ec-b154-c01ef2e313d0","ios":"levelo://app?vid=c27aa377-318b-48ec-b154-c01ef2e313d0"},"vehicle_type_id":"4","last_reported":1744470527,"current_range_meters":12000,"station_id":"ce4bgs92rcd13ifvqcc0","pricing_plan_id":"cebpf4jnsgd1na2vs0mg"},{"bike_id":"5b77a833-8185-45c2-9fe3-07eb40df54ca","system_id":"levelo_inurba_marseille","lat":43.33995,"lon":5.38057,"is_reserved":false,"is_disabled":false,"rental_uris":{"android":"levelo://app?vid=5b77a833-8185-45c2-9fe3-07eb40df54ca","ios":"levelo://app?vid=5b77a833-8185-45c2-9fe3-07eb40df54ca"},"vehicle_type_id":"4","last_reported":1744470527,"current_range_meters":12000,"station_id":"","pricing_plan_id":"cebpf4jnsgd1na2vs0mg"},{"bike_id":"85157d92-d3cd-4ab9-aef7-ff297fa13d42","system_id":"levelo_inurba_marseille","lat":43.27403,"lon":5.36197,"is_reserved":false,"is_disabled":false,"rental_uris":{"android":"levelo://app?vid=85157d92-d3cd-4ab9-aef7-ff297fa13d42","ios":"levelo://app?vid=85157d92-d3cd-4ab9-aef7-ff297fa13d42"},"vehicle_type_id":"4","last_reported":1744470527,"current_range_meters":12400,"station_id":"","pricing_plan_id":"cebpf4jnsgd1na2vs0mg"},{"bike_id":"4ac15233-0b55-49d0-af61-4cab496dd69a","system_id":"levelo_inurba_marseille","lat":43.28153,"lon":5.42642,"is_reserved":false,"is_disabled":false,"rental_uris":{"android":"levelo://app?vid=4ac15233-0b55-49d0-af61-4cab496dd69a","ios":"levelo://app?vid=4ac15233-0b55-49d0-af61-4cab496dd69a"},"vehicle_type_id":"4","last_reported":1744470527,"current_range_meters":12400,"station_id":"ce4bhnh2rcd13ifvqgug","pricing_plan_id":"cebpf4jnsgd1na2vs0mg"},{"bike_id":"47a44ff4-f58c-41f1-9a30-83bc61c5a7fc","system_id":"levelo_inurba_marseille","lat":43.30889,"lon":5.37186,"is_reserved":false,"is_disabled":false,"rental_uris":{"android":"levelo://app?vid=47a44ff4-f58c-41f1-9a30-83bc61c5a7fc","ios":"levelo://app?vid=47a44ff4-f58c-41f1-9a30-83bc61c5a7fc"},"vehicle_type_id":"4","last_reported":1744470527,"current_range_meters":12400,"station_id":"ce4bguh2rcd13ifvqckg","pricing_plan_id":"cebpf4jnsgd1na2vs0mg"},{"bike_id":"0fc41c6f-4715-4c96-a25f-ee6fd1aacd45","system_id":"levelo_inurba_marseille","lat":43.29875,"lon":5.38898,"is_reserved":false,"is_disabled":false,"rental_uris":{"android":"levelo://app?vid=0fc41c6f-4715-4c96-a25f-ee6fd1aacd45","ios":"levelo://app?vid=0fc41c6f-4715-4c96-a25f-ee6fd1aacd45"},"vehicle_type_id":"4","last_reported":1744470527,"current_range_meters":12400,"station_id":"ce4bh392rcd13ifvqdl0","pricing_plan_id":"cebpf4jnsgd1na2vs0mg"},{"bike_id":"e37a3dd0-14b2-40f4-b780-fadb1db4300b","system_id":"levelo_inurba_marseille","lat":43.27809,"lon":5.40719,"is_reserved":false,"is_disabled":false,"rental_uris":{"android":"levelo://app?vid=e37a3dd0-14b2-40f4-b780-fadb1db4300b","ios":"levelo://app?vid=e37a3dd0-14b2-40f4-b780-fadb1db4300b"},"vehicle_type_id":"4","last_reported":1744470527,"current_range_meters":12400,"station_id":"ce4bhnh2rcd13ifvqgtg","pricing_plan_id":"cebpf4jnsgd1na2vs0mg"},{"bike_id":"493cde9e-7859-4c26-a2e6-f744ee5d8553","system_id":"levelo_inurba_marseille","lat":43.31822,"lon":5.36839,"is_reserved":false,"is_disabled":false,"rental_uris":{"android":"levelo://app?vid=493cde9e-7859-4c26-a2e6-f744ee5d8553","ios":"levelo://app?vid=493cde9e-7859-4c26-a2e6-f744ee5d8553"},"vehicle_type_id":"4","last_reported":1744470527,"current_range_meters":12400,"station_id":"","pricing_plan_id":"cebpf4jnsgd1na2vs0mg"},{"bike_id":"f687186d-df67-4553-9313-2c371d3b8f83","system_id":"levelo_inurba_marseille","lat":43.23964,"lon":5.36634,"is_reserved":false,"is_disabled":false,"rental_uris":{"android":"levelo://app?vid=f687186d-df67-4553-9313-2c371d3b8f83","ios":"levelo://app?vid=f687186d-df67-4553-9313-2c371d3b8f83"},"vehicle_type_id":"4","last_reported":1744470527,"current_range_meters":12400,"station_id":"ce4bhi12rcd13ifvqfp0","pricing_plan_id":"cebpf4jnsgd1na2vs0mg"},{"bike_id":"b00a5b26-5f52-4202-9126-74cdc133e878","system_id":"levelo_inurba_marseille","lat":43.21195,"lon":5.35079,"is_reserved":false,"is_disabled":false,"rental_uris":{"android":"levelo://app?vid=b00a5b26-5f52-4202-9126-74cdc133e878","ios":"levelo://app?vid=b00a5b26-5f52-4202-9126-74cdc133e878"},"vehicle_type_id":"4","last_reported":1744470527,"current_range_meters":12400,"station_id":"st_cvj6sg6p6f1abm77japg","pricing_plan_id":"cebpf4jnsgd1na2vs0mg"},{"bike_id":"25460cdf-8f50-4d11-8da2-9ee3e0d3a553","system_id":"levelo_inurba_marseille","lat":43.27565,"lon":5.38425,"is_reserved":false,"is_disabled":false,"rental_uris":{"android":"levelo://app?vid=25460cdf-8f50-4d11-8da2-9ee3e0d3a553","ios":"levelo://app?vid=25460cdf-8f50-4d11-8da2-9ee3e0d3a553"},"vehicle_type_id":"4","last_reported":1744470527,"current_range_meters":12800,"station_id":"ce4bhh92rcd13ifvqfi0","pricing_plan_id":"cebpf4jnsgd1na2vs0mg"},{"bike_id":"e4698f04-a3f0-408e-9f2c-f7c260f9b0cd","system_id":"levelo_inurba_marseille","lat":43.27321,"lon":5.39082,"is_reserved":false,"is_disabled":false,"rental_uris":{"android":"levelo://app?vid=e4698f04-a3f0-408e-9f2c-f7c260f9b0cd","ios":"levelo://app?vid=e4698f04-a3f0-408e-9f2c-f7c260f9b0cd"},"vehicle_type_id":"4","last_reported":1744470527,"current_range_meters":12800,"station_id":"ce4bhgp2rcd13ifvqfe0","pricing_plan_id":"cebpf4jnsgd1na2vs0mg"},{"bike_id":"95df3722-28a1-4475-a194-c143258a0c58","system_id":"levelo_inurba_marseille","lat":43.269695,"lon":5.370438,"is_reserved":false,"is_disabled":false,"rental_uris":{"android":"levelo://app?vid=95df3722-28a1-4475-a194-c143258a0c58","ios":"levelo://app?vid=95df3722-28a1-4475-a194-c143258a0c58"},"vehicle_type_id":"4","last_reported":1744470527,"current_range_meters":12800,"station_id":"ce4bhg12rcd13ifvqf70","pricing_plan_id":"cebpf4jnsgd1na2vs0mg"},{"bike_id":"8621e295-3526-4464-be82-74c49f48a833","system_id":"levelo_inurba_marseille","lat":43.21758,"lon":5.34633,"is_reserved":false,"is_disabled":false,"rental_uris":{"android":"levelo://app?vid=8621e295-3526-4464-be82-74c49f48a833","ios":"levelo://app?vid=8621e295-3526-4464-be82-74c49f48a833"},"vehicle_type_id":"4","last_reported":1744470527,"current_range_meters":12800,"station_id":"","pricing_plan_id":"cebpf4jnsgd1na2vs0mg"},{"bike_id":"851735dc-4e0a-47e9-b6a9-b62735e6d41b","system_id":"levelo_inurba_marseille","lat":43.27364,"lon":5.36257,"is_reserved":false,"is_disabled":false,"rental_uris":{"android":"levelo://app?vid=851735dc-4e0a-47e9-b6a9-b62735e6d41b","ios":"levelo://app?vid=851735dc-4e0a-47e9-b6a9-b62735e6d41b"},"vehicle_type_id":"4","last_reported":1744470527,"current_range_meters":12800,"station_id":"ce4bhbh2rcd13ifvqeo0","pricing_plan_id":"cebpf4jnsgd1na2vs0mg"},{"bike_id":"3eed78ff-0250-404f-a36b-841799f76c4f","system_id":"levelo_inurba_marseille","lat":43.24808,"lon":5.37459,"is_reserved":false,"is_disabled":false,"rental_uris":{"android":"levelo://app?vid=3eed78ff-0250-404f-a36b-841799f76c4f","ios":"levelo://app?vid=3eed78ff-0250-404f-a36b-841799f76c4f"},"vehicle_type_id":"4","last_reported":1744470527,"current_range_meters":12800,"station_id":"ce4bhgh2rcd13ifvqfb0","pricing_plan_id":"cebpf4jnsgd1na2vs0mg"},{"bike_id":"2f5bc015-0a98-4a0d-a50f-f7181e1d6abe","system_id":"levelo_inurba_marseille","lat":43.23397,"lon":5.41242,"is_reserved":false,"is_disabled":false,"rental_uris":{"android":"levelo://app?vid=2f5bc015-0a98-4a0d-a50f-f7181e1d6abe","ios":"levelo://app?vid=2f5bc015-0a98-4a0d-a50f-f7181e1d6abe"},"vehicle_type_id":"4","last_reported":1744470527,"current_range_meters":12800,"station_id":"","pricing_plan_id":"cebpf4jnsgd1na2vs0mg"},{"bike_id":"f28e2714-ea71-4da2-a9c9-ba1d2e41c62e","system_id":"levelo_inurba_marseille","lat":43.29307,"lon":5.371793,"is_reserved":false,"is_disabled":false,"rental_uris":{"android":"levelo://app?vid=f28e2714-ea71-4da2-a9c9-ba1d2e41c62e","ios":"levelo://app?vid=f28e2714-ea71-4da2-a9c9-ba1d2e41c62e"},"vehicle_type_id":"4","last_reported":1744470527,"current_range_meters":12800,"station_id":"ce4bgh92rcd13ifvqb40","pricing_plan_id":"cebpf4jnsgd1na2vs0mg"},{"bike_id":"8aab2bd0-f26b-4dd2-b08d-ce5f2ae335b5","system_id":"levelo_inurba_marseille","lat":43.27054,"lon":5.40259,"is_reserved":false,"is_disabled":false,"rental_uris":{"android":"levelo://app?vid=8aab2bd0-f26b-4dd2-b08d-ce5f2ae335b5","ios":"levelo://app?vid=8aab2bd0-f26b-4dd2-b08d-ce5f2ae335b5"},"vehicle_type_id":"4","last_reported":1744470527,"current_range_meters":13600,"station_id":"ce4bhk92rcd13ifvqgc0","pricing_plan_id":"cebpf4jnsgd1na2vs0mg"},{"bike_id":"6d15af86-98c4-428d-92bc-53013be61e03","system_id":"levelo_inurba_marseille","lat":43.21186,"lon":5.35086,"is_reserved":false,"is_disabled":false,"rental_uris":{"android":"levelo://app?vid=6d15af86-98c4-428d-92bc-53013be61e03","ios":"levelo://app?vid=6d15af86-98c4-428d-92bc-53013be61e03"},"vehicle_type_id":"4","last_reported":1744470527,"current_range_meters":13600,"station_id":"ce4bgkp2rcd13ifvqbmg","pricing_plan_id":"cebpf4jnsgd1na2vs0mg"},{"bike_id":"61bc6256-8380-4638-bd27-1e2c56ecc87d","system_id":"levelo_inurba_marseille","lat":43.297102,"lon":5.376588,"is_reserved":false,"is_disabled":false,"rental_uris":{"android":"levelo://app?vid=61bc6256-8380-4638-bd27-1e2c56ecc87d","ios":"levelo://app?vid=61bc6256-8380-4638-bd27-1e2c56ecc87d"},"vehicle_type_id":"4","last_reported":1744470527,"current_range_meters":13600,"station_id":"ce4bgkh2rcd13ifvqbl0","pricing_plan_id":"cebpf4jnsgd1na2vs0mg"},{"bike_id":"6889bd7f-269e-4098-bb11-4f00c103de08","system_id":"levelo_inurba_marseille","lat":43.30545,"lon":5.36532,"is_reserved":false,"is_disabled":false,"rental_uris":{"android":"levelo://app?vid=6889bd7f-269e-4098-bb11-4f00c103de08","ios":"levelo://app?vid=6889bd7f-269e-4098-bb11-4f00c103de08"},"vehicle_type_id":"4","last_reported":1744470527,"current_range_meters":14000,"station_id":"ce4bgs12rcd13ifvqcag","pricing_plan_id":"cebpf4jnsgd1na2vs0mg"},{"bike_id":"f7843f46-58aa-4cf6-a1d0-1b94b16f71c2","system_id":"levelo_inurba_marseille","lat":43.29841,"lon":5.39673,"is_reserved":false,"is_disabled":false,"rental_uris":{"android":"levelo://app?vid=f7843f46-58aa-4cf6-a1d0-1b94b16f71c2","ios":"levelo://app?vid=f7843f46-58aa-4cf6-a1d0-1b94b16f71c2"},"vehicle_type_id":"4","last_reported":1744470527,"current_range_meters":14000,"station_id":"","pricing_plan_id":"cebpf4jnsgd1na2vs0mg"},{"bike_id":"26168fa8-a36c-45e2-973b-769d29028eb0","system_id":"levelo_inurba_marseille","lat":43.24392,"lon":5.37056,"is_reserved":false,"is_disabled":false,"rental_uris":{"android":"levelo://app?vid=26168fa8-a36c-45e2-973b-769d29028eb0","ios":"levelo://app?vid=26168fa8-a36c-45e2-973b-769d29028eb0"},"vehicle_type_id":"4","last_reported":1744470527,"current_range_meters":14000,"station_id":"ce4bhhh2rcd13ifvqfk0","pricing_plan_id":"cebpf4jnsgd1na2vs0mg"},{"bike_id":"4cd01496-fc66-4e51-b1b2-3130d75c703c","system_id":"levelo_inurba_marseille","lat":43.30194,"lon":5.3663,"is_reserved":false,"is_disabled":false,"rental_uris":{"android":"levelo://app?vid=4cd01496-fc66-4e51-b1b2-3130d75c703c","ios":"levelo://app?vid=4cd01496-fc66-4e51-b1b2-3130d75c703c"},"vehicle_type_id":"4","last_reported":1744470527,"current_range_meters":14000,"station_id":"ce4bgrh2rcd13ifvqc8g","pricing_plan_id":"cebpf4jnsgd1na2vs0mg"},{"bike_id":"5fca82f0-bb05-498d-aa13-3b9b250d438f","system_id":"levelo_inurba_marseille","lat":43.25732,"lon":5.411,"is_reserved":false,"is_disabled":false,"rental_uris":{"android":"levelo://app?vid=5fca82f0-bb05-498d-aa13-3b9b250d438f","ios":"levelo://app?vid=5fca82f0-bb05-498d-aa13-3b9b250d438f"},"vehicle_type_id":"4","last_reported":1744470527,"current_range_meters":13600,"station_id":"ce4bhkp2rcd13ifvqgd0","pricing_plan_id":"cebpf4jnsgd1na2vs0mg"},{"bike_id":"1f16c7a5-c5e4-4182-afcc-afa51b3bd364","system_id":"levelo_inurba_marseille","lat":43.25499,"lon":5.3765,"is_reserved":false,"is_disabled":false,"rental_uris":{"android":"levelo://app?vid=1f16c7a5-c5e4-4182-afcc-afa51b3bd364","ios":"levelo://app?vid=1f16c7a5-c5e4-4182-afcc-afa51b3bd364"},"vehicle_type_id":"4","last_reported":1744470527,"current_range_meters":14000,"station_id":"ce4bhh12rcd13ifvqff0","pricing_plan_id":"cebpf4jnsgd1na2vs0mg"},{"bike_id":"791c81ac-1e87-4cc3-aef9-c747d40e51a7","system_id":"levelo_inurba_marseille","lat":43.28923,"lon":5.38393,"is_reserved":false,"is_disabled":false,"rental_uris":{"android":"levelo://app?vid=791c81ac-1e87-4cc3-aef9-c747d40e51a7","ios":"levelo://app?vid=791c81ac-1e87-4cc3-aef9-c747d40e51a7"},"vehicle_type_id":"4","last_reported":1744470527,"current_range_meters":13600,"station_id":"ce4bh612rcd13ifvqe6g","pricing_plan_id":"cebpf4jnsgd1na2vs0mg"},{"bike_id":"b4cebaf7-168f-4d9e-870f-f105a53a22f8","system_id":"levelo_inurba_marseille","lat":43.31535,"lon":5.3804,"is_reserved":false,"is_disabled":false,"rental_uris":{"android":"levelo://app?vid=b4cebaf7-168f-4d9e-870f-f105a53a22f8","ios":"levelo://app?vid=b4cebaf7-168f-4d9e-870f-f105a53a22f8"},"vehicle_type_id":"4","last_reported":1744470527,"current_range_meters":14400,"station_id":"ce4bhsp2rcd13ifvqi50","pricing_plan_id":"cebpf4jnsgd1na2vs0mg"},{"bike_id":"ddd6343e-3bca-463a-a4b4-2d3d35c506f3","system_id":"levelo_inurba_marseille","lat":43.2971,"lon":5.36604,"is_reserved":false,"is_disabled":false,"rental_uris":{"android":"levelo://app?vid=ddd6343e-3bca-463a-a4b4-2d3d35c506f3","ios":"levelo://app?vid=ddd6343e-3bca-463a-a4b4-2d3d35c506f3"},"vehicle_type_id":"4","last_reported":1744470527,"current_range_meters":14400,"station_id":"ce4bgn12rcd13ifvqbt0","pricing_plan_id":"cebpf4jnsgd1na2vs0mg"},{"bike_id":"26865445-5a0f-4f97-be84-8c4d4cf766a2","system_id":"levelo_inurba_marseille","lat":43.24167,"lon":5.36391,"is_reserved":false,"is_disabled":false,"rental_uris":{"android":"levelo://app?vid=26865445-5a0f-4f97-be84-8c4d4cf766a2","ios":"levelo://app?vid=26865445-5a0f-4f97-be84-8c4d4cf766a2"},"vehicle_type_id":"4","last_reported":1744470527,"current_range_meters":14400,"station_id":"cpo36qri1sfpv3e86is0","pricing_plan_id":"cebpf4jnsgd1na2vs0mg"},{"bike_id":"9f23c3e5-0875-4113-8d5b-b42c76bfc9cb","system_id":"levelo_inurba_marseille","lat":43.30245,"lon":5.40059,"is_reserved":false,"is_disabled":false,"rental_uris":{"android":"levelo://app?vid=9f23c3e5-0875-4113-8d5b-b42c76bfc9cb","ios":"levelo://app?vid=9f23c3e5-0875-4113-8d5b-b42c76bfc9cb"},"vehicle_type_id":"4","last_reported":1744470527,"current_range_meters":14400,"station_id":"ce4bgvh2rcd13ifvqcs0","pricing_plan_id":"cebpf4jnsgd1na2vs0mg"},{"bike_id":"09641453-8c56-445d-b9fe-7f7ad9f26a9d","system_id":"levelo_inurba_marseille","lat":43.26559,"lon":5.37299,"is_reserved":false,"is_disabled":false,"rental_uris":{"android":"levelo://app?vid=09641453-8c56-445d-b9fe-7f7ad9f26a9d","ios":"levelo://app?vid=09641453-8c56-445d-b9fe-7f7ad9f26a9d"},"vehicle_type_id":"4","last_reported":1744470527,"current_range_meters":14400,"station_id":"ce4bhg12rcd13ifvqf70","pricing_plan_id":"cebpf4jnsgd1na2vs0mg"},{"bike_id":"51ae49fe-93e7-484b-b925-a3fee3cec470","system_id":"levelo_inurba_marseille","lat":43.23056,"lon":5.355,"is_reserved":false,"is_disabled":false,"rental_uris":{"android":"levelo://app?vid=51ae49fe-93e7-484b-b925-a3fee3cec470","ios":"levelo://app?vid=51ae49fe-93e7-484b-b925-a3fee3cec470"},"vehicle_type_id":"4","last_reported":1744470527,"current_range_meters":14400,"station_id":"cpo3342slgdg3j2ifvpg","pricing_plan_id":"cebpf4jnsgd1na2vs0mg"},{"bike_id":"72c6aab6-3a44-430e-a84d-843d2a93e616","system_id":"levelo_inurba_marseille","lat":43.21192,"lon":5.35085,"is_reserved":false,"is_disabled":true,"rental_uris":{"android":"levelo://app?vid=72c6aab6-3a44-430e-a84d-843d2a93e616","ios":"levelo://app?vid=72c6aab6-3a44-430e-a84d-843d2a93e616"},"vehicle_type_id":"4","last_reported":1744470527,"current_range_meters":14800,"station_id":"st_cvj6sg6p6f1abm77japg","pricing_plan_id":"cebpf4jnsgd1na2vs0mg"},{"bike_id":"1efbc875-f991-4cb9-8cf7-709d6f2e27b2","system_id":"levelo_inurba_marseille","lat":43.26558,"lon":5.37294,"is_reserved":false,"is_disabled":false,"rental_uris":{"android":"levelo://app?vid=1efbc875-f991-4cb9-8cf7-709d6f2e27b2","ios":"levelo://app?vid=1efbc875-f991-4cb9-8cf7-709d6f2e27b2"},"vehicle_type_id":"4","last_reported":1744470527,"current_range_meters":14800,"station_id":"ce4bhg12rcd13ifvqf70","pricing_plan_id":"cebpf4jnsgd1na2vs0mg"},{"bike_id":"d51a8c93-4a62-49ae-82cb-4bd383d80bde","system_id":"levelo_inurba_marseille","lat":43.28158,"lon":5.42635,"is_reserved":false,"is_disabled":false,"rental_uris":{"android":"levelo://app?vid=d51a8c93-4a62-49ae-82cb-4bd383d80bde","ios":"levelo://app?vid=d51a8c93-4a62-49ae-82cb-4bd383d80bde"},"vehicle_type_id":"4","last_reported":1744470527,"current_range_meters":14800,"station_id":"ce4bhnh2rcd13ifvqgug","pricing_plan_id":"cebpf4jnsgd1na2vs0mg"},{"bike_id":"260b07e5-e1c0-4812-99c3-e4f9bbb90688","system_id":"levelo_inurba_marseille","lat":43.225061,"lon":5.347889,"is_reserved":false,"is_disabled":false,"rental_uris":{"android":"levelo://app?vid=260b07e5-e1c0-4812-99c3-e4f9bbb90688","ios":"levelo://app?vid=260b07e5-e1c0-4812-99c3-e4f9bbb90688"},"vehicle_type_id":"4","last_reported":1744470527,"current_range_meters":14800,"station_id":"st_cvj5dfep6f1abm77gieg","pricing_plan_id":"cebpf4jnsgd1na2vs0mg"},{"bike_id":"8b53f207-ae75-41fa-8484-01990ef1da5f","system_id":"levelo_inurba_marseille","lat":43.29375,"lon":5.3784,"is_reserved":false,"is_disabled":false,"rental_uris":{"android":"levelo://app?vid=8b53f207-ae75-41fa-8484-01990ef1da5f","ios":"levelo://app?vid=8b53f207-ae75-41fa-8484-01990ef1da5f"},"vehicle_type_id":"4","last_reported":1744470527,"current_range_meters":14800,"station_id":"ce4bgjh2rcd13ifvqbf0","pricing_plan_id":"cebpf4jnsgd1na2vs0mg"},{"bike_id":"f053598c-37a9-49e6-816e-c197cdb2fb1c","system_id":"levelo_inurba_marseille","lat":43.217537,"lon":5.346017,"is_reserved":false,"is_disabled":false,"rental_uris":{"android":"levelo://app?vid=f053598c-37a9-49e6-816e-c197cdb2fb1c","ios":"levelo://app?vid=f053598c-37a9-49e6-816e-c197cdb2fb1c"},"vehicle_type_id":"4","last_reported":1744470527,"current_range_meters":14800,"station_id":"st_cvj6r9ubvosntc0bgbag","pricing_plan_id":"cebpf4jnsgd1na2vs0mg"},{"bike_id":"8043ed93-c0e0-4b20-a22a-1ce703744524","system_id":"levelo_inurba_marseille","lat":43.28955,"lon":5.36647,"is_reserved":false,"is_disabled":true,"rental_uris":{"android":"levelo://app?vid=8043ed93-c0e0-4b20-a22a-1ce703744524","ios":"levelo://app?vid=8043ed93-c0e0-4b20-a22a-1ce703744524"},"vehicle_type_id":"4","last_reported":1744470527,"current_range_meters":14800,"station_id":"ce4bhap2rcd13ifvqek0","pricing_plan_id":"cebpf4jnsgd1na2vs0mg"},{"bike_id":"68705a33-e910-4f20-964f-fc3f9f3e631d","system_id":"levelo_inurba_marseille","lat":43.26199,"lon":5.3793,"is_reserved":false,"is_disabled":false,"rental_uris":{"android":"levelo://app?vid=68705a33-e910-4f20-964f-fc3f9f3e631d","ios":"levelo://app?vid=68705a33-e910-4f20-964f-fc3f9f3e631d"},"vehicle_type_id":"4","last_reported":1744470527,"current_range_meters":15200,"station_id":"ce4bhjp2rcd13ifvqg90","pricing_plan_id":"cebpf4jnsgd1na2vs0mg"},{"bike_id":"1f902e70-8424-4368-8d14-f667dae49164","system_id":"levelo_inurba_marseille","lat":43.29039,"lon":5.35912,"is_reserved":false,"is_disabled":false,"rental_uris":{"android":"levelo://app?vid=1f902e70-8424-4368-8d14-f667dae49164","ios":"levelo://app?vid=1f902e70-8424-4368-8d14-f667dae49164"},"vehicle_type_id":"4","last_reported":1744470527,"current_range_meters":15200,"station_id":"ce4bha92rcd13ifvqeg0","pricing_plan_id":"cebpf4jnsgd1na2vs0mg"},{"bike_id":"38183908-6893-4dfa-95e8-c1565a94cb53","system_id":"levelo_inurba_marseille","lat":43.23191,"lon":5.35545,"is_reserved":false,"is_disabled":false,"rental_uris":{"android":"levelo://app?vid=38183908-6893-4dfa-95e8-c1565a94cb53","ios":"levelo://app?vid=38183908-6893-4dfa-95e8-c1565a94cb53"},"vehicle_type_id":"4","last_reported":1744470527,"current_range_meters":15200,"station_id":"ce4bhu92rcd13ifvqi70","pricing_plan_id":"cebpf4jnsgd1na2vs0mg"},{"bike_id":"2c54f2d3-94bf-4561-92ee-ac893f797d11","system_id":"levelo_inurba_marseille","lat":43.26553,"lon":5.37283,"is_reserved":false,"is_disabled":false,"rental_uris":{"android":"levelo://app?vid=2c54f2d3-94bf-4561-92ee-ac893f797d11","ios":"levelo://app?vid=2c54f2d3-94bf-4561-92ee-ac893f797d11"},"vehicle_type_id":"4","last_reported":1744470527,"current_range_meters":15200,"station_id":"ce4bhg12rcd13ifvqf70","pricing_plan_id":"cebpf4jnsgd1na2vs0mg"},{"bike_id":"e0d14e9f-9dd9-4b88-aa07-d42519c27697","system_id":"levelo_inurba_marseille","lat":43.26562,"lon":5.39031,"is_reserved":false,"is_disabled":false,"rental_uris":{"android":"levelo://app?vid=e0d14e9f-9dd9-4b88-aa07-d42519c27697","ios":"levelo://app?vid=e0d14e9f-9dd9-4b88-aa07-d42519c27697"},"vehicle_type_id":"4","last_reported":1744470527,"current_range_meters":15200,"station_id":"ce4bhe12rcd13ifvqf30","pricing_plan_id":"cebpf4jnsgd1na2vs0mg"},{"bike_id":"db9cdcec-b5ee-409b-adf3-2fb9b83088c4","system_id":"levelo_inurba_marseille","lat":43.30931,"lon":5.3736,"is_reserved":false,"is_disabled":false,"rental_uris":{"android":"levelo://app?vid=db9cdcec-b5ee-409b-adf3-2fb9b83088c4","ios":"levelo://app?vid=db9cdcec-b5ee-409b-adf3-2fb9b83088c4"},"vehicle_type_id":"4","last_reported":1744470527,"current_range_meters":15200,"station_id":"","pricing_plan_id":"cebpf4jnsgd1na2vs0mg"},{"bike_id":"60cbbbe7-f799-439f-8421-fed515b5e527","system_id":"levelo_inurba_marseille","lat":43.248084,"lon":5.374472,"is_reserved":false,"is_disabled":false,"rental_uris":{"android":"levelo://app?vid=60cbbbe7-f799-439f-8421-fed515b5e527","ios":"levelo://app?vid=60cbbbe7-f799-439f-8421-fed515b5e527"},"vehicle_type_id":"4","last_reported":1744470527,"current_range_meters":15200,"station_id":"ce4bhgh2rcd13ifvqfb0","pricing_plan_id":"cebpf4jnsgd1na2vs0mg"},{"bike_id":"37a17253-3d16-4b72-9b0b-4b36f84289f9","system_id":"levelo_inurba_marseille","lat":43.255,"lon":5.37662,"is_reserved":false,"is_disabled":false,"rental_uris":{"android":"levelo://app?vid=37a17253-3d16-4b72-9b0b-4b36f84289f9","ios":"levelo://app?vid=37a17253-3d16-4b72-9b0b-4b36f84289f9"},"vehicle_type_id":"4","last_reported":1744470527,"current_range_meters":15200,"station_id":"ce4bhh12rcd13ifvqff0","pricing_plan_id":"cebpf4jnsgd1na2vs0mg"},{"bike_id":"895cf9b4-7229-4534-abee-becd393980f1","system_id":"levelo_inurba_marseille","lat":43.29632,"lon":5.406,"is_reserved":false,"is_disabled":false,"rental_uris":{"android":"levelo://app?vid=895cf9b4-7229-4534-abee-becd393980f1","ios":"levelo://app?vid=895cf9b4-7229-4534-abee-becd393980f1"},"vehicle_type_id":"4","last_reported":1744470527,"current_range_meters":15200,"station_id":"ce4bh0h2rcd13ifvqd60","pricing_plan_id":"cebpf4jnsgd1na2vs0mg"},{"bike_id":"b563cc01-07bb-4905-8ac1-23542e897e60","system_id":"levelo_inurba_marseille","lat":43.295324,"lon":5.385394,"is_reserved":false,"is_disabled":false,"rental_uris":{"android":"levelo://app?vid=b563cc01-07bb-4905-8ac1-23542e897e60","ios":"levelo://app?vid=b563cc01-07bb-4905-8ac1-23542e897e60"},"vehicle_type_id":"4","last_reported":1744470527,"current_range_meters":16000,"station_id":"ce4bgih2rcd13ifvqba0","pricing_plan_id":"cebpf4jnsgd1na2vs0mg"},{"bike_id":"a3bf51d9-08b7-458c-9b6d-ef5680cc95d6","system_id":"levelo_inurba_marseille","lat":43.21752,"lon":5.34605,"is_reserved":false,"is_disabled":true,"rental_uris":{"android":"levelo://app?vid=a3bf51d9-08b7-458c-9b6d-ef5680cc95d6","ios":"levelo://app?vid=a3bf51d9-08b7-458c-9b6d-ef5680cc95d6"},"vehicle_type_id":"4","last_reported":1744470527,"current_range_meters":16000,"station_id":"cpo36qri1sfpv3e86is0","pricing_plan_id":"cebpf4jnsgd1na2vs0mg"},{"bike_id":"82d38bd3-c046-4f55-aec8-4eb686f05e29","system_id":"levelo_inurba_marseille","lat":43.22927,"lon":5.35381,"is_reserved":false,"is_disabled":true,"rental_uris":{"android":"levelo://app?vid=82d38bd3-c046-4f55-aec8-4eb686f05e29","ios":"levelo://app?vid=82d38bd3-c046-4f55-aec8-4eb686f05e29"},"vehicle_type_id":"4","last_reported":1744470527,"current_range_meters":16000,"station_id":"cpo3532slgdg3j2ikp40","pricing_plan_id":"cebpf4jnsgd1na2vs0mg"},{"bike_id":"efd328ca-f8bf-4550-bd94-c2fd75978f3c","system_id":"levelo_inurba_marseille","lat":43.33002,"lon":5.38286,"is_reserved":false,"is_disabled":false,"rental_uris":{"android":"levelo://app?vid=efd328ca-f8bf-4550-bd94-c2fd75978f3c","ios":"levelo://app?vid=efd328ca-f8bf-4550-bd94-c2fd75978f3c"},"vehicle_type_id":"4","last_reported":1744470527,"current_range_meters":16000,"station_id":"","pricing_plan_id":"cebpf4jnsgd1na2vs0mg"},{"bike_id":"4bbe6e48-9bfa-4dec-aab0-5597477f7da1","system_id":"levelo_inurba_marseille","lat":43.32412,"lon":5.39141,"is_reserved":false,"is_disabled":false,"rental_uris":{"android":"levelo://app?vid=4bbe6e48-9bfa-4dec-aab0-5597477f7da1","ios":"levelo://app?vid=4bbe6e48-9bfa-4dec-aab0-5597477f7da1"},"vehicle_type_id":"4","last_reported":1744470527,"current_range_meters":16000,"station_id":"","pricing_plan_id":"cebpf4jnsgd1na2vs0mg"},{"bike_id":"ed3aaa92-f68f-4bd6-944c-3a4c785f68dc","system_id":"levelo_inurba_marseille","lat":43.26198,"lon":5.37454,"is_reserved":false,"is_disabled":false,"rental_uris":{"android":"levelo://app?vid=ed3aaa92-f68f-4bd6-944c-3a4c785f68dc","ios":"levelo://app?vid=ed3aaa92-f68f-4bd6-944c-3a4c785f68dc"},"vehicle_type_id":"4","last_reported":1744470527,"current_range_meters":16400,"station_id":"ce4bhgp2rcd13ifvqfc0","pricing_plan_id":"cebpf4jnsgd1na2vs0mg"},{"bike_id":"09c82f1c-6d81-4b31-8636-7ae4ed723663","system_id":"levelo_inurba_marseille","lat":43.28679,"lon":5.39993,"is_reserved":false,"is_disabled":false,"rental_uris":{"android":"levelo://app?vid=09c82f1c-6d81-4b31-8636-7ae4ed723663","ios":"levelo://app?vid=09c82f1c-6d81-4b31-8636-7ae4ed723663"},"vehicle_type_id":"4","last_reported":1744470527,"current_range_meters":16400,"station_id":"ce4bho92rcd13ifvqh3g","pricing_plan_id":"cebpf4jnsgd1na2vs0mg"},{"bike_id":"78c91417-73c9-4c65-90a8-1b3d0e71b77e","system_id":"levelo_inurba_marseille","lat":43.255,"lon":5.3765,"is_reserved":false,"is_disabled":false,"rental_uris":{"android":"levelo://app?vid=78c91417-73c9-4c65-90a8-1b3d0e71b77e","ios":"levelo://app?vid=78c91417-73c9-4c65-90a8-1b3d0e71b77e"},"vehicle_type_id":"4","last_reported":1744470527,"current_range_meters":16400,"station_id":"ce4bhh12rcd13ifvqff0","pricing_plan_id":"cebpf4jnsgd1na2vs0mg"},{"bike_id":"21eeb662-ab40-4000-b147-d917a8f22b75","system_id":"levelo_inurba_marseille","lat":43.213492,"lon":5.35033,"is_reserved":false,"is_disabled":false,"rental_uris":{"android":"levelo://app?vid=21eeb662-ab40-4000-b147-d917a8f22b75","ios":"levelo://app?vid=21eeb662-ab40-4000-b147-d917a8f22b75"},"vehicle_type_id":"4","last_reported":1744470527,"current_range_meters":16400,"station_id":"st_cvj6r9ubvosntc0bgbag","pricing_plan_id":"cebpf4jnsgd1na2vs0mg"},{"bike_id":"020e9999-d552-48d0-ae5f-b725af0dbea2","system_id":"levelo_inurba_marseille","lat":43.29908,"lon":5.43748,"is_reserved":false,"is_disabled":false,"rental_uris":{"android":"levelo://app?vid=020e9999-d552-48d0-ae5f-b725af0dbea2","ios":"levelo://app?vid=020e9999-d552-48d0-ae5f-b725af0dbea2"},"vehicle_type_id":"4","last_reported":1744470527,"current_range_meters":16400,"station_id":"","pricing_plan_id":"cebpf4jnsgd1na2vs0mg"},{"bike_id":"0eceb99a-0069-41ae-adf2-70785bb6a0d7","system_id":"levelo_inurba_marseille","lat":43.26557,"lon":5.37286,"is_reserved":false,"is_disabled":false,"rental_uris":{"android":"levelo://app?vid=0eceb99a-0069-41ae-adf2-70785bb6a0d7","ios":"levelo://app?vid=0eceb99a-0069-41ae-adf2-70785bb6a0d7"},"vehicle_type_id":"4","last_reported":1744470527,"current_range_meters":16400,"station_id":"ce4bhg12rcd13ifvqf70","pricing_plan_id":"cebpf4jnsgd1na2vs0mg"},{"bike_id":"4a0f8eea-529b-465d-8966-94bd4557b10c","system_id":"levelo_inurba_marseille","lat":43.21243,"lon":5.35108,"is_reserved":false,"is_disabled":false,"rental_uris":{"android":"levelo://app?vid=4a0f8eea-529b-465d-8966-94bd4557b10c","ios":"levelo://app?vid=4a0f8eea-529b-465d-8966-94bd4557b10c"},"vehicle_type_id":"4","last_reported":1744470527,"current_range_meters":16400,"station_id":"","pricing_plan_id":"cebpf4jnsgd1na2vs0mg"},{"bike_id":"73a81525-79dd-40a2-86b0-fb40c9b2799a","system_id":"levelo_inurba_marseille","lat":43.225011,"lon":5.347709,"is_reserved":false,"is_disabled":false,"rental_uris":{"android":"levelo://app?vid=73a81525-79dd-40a2-86b0-fb40c9b2799a","ios":"levelo://app?vid=73a81525-79dd-40a2-86b0-fb40c9b2799a"},"vehicle_type_id":"4","last_reported":1744470527,"current_range_meters":16400,"station_id":"","pricing_plan_id":"cebpf4jnsgd1na2vs0mg"},{"bike_id":"4283a4a0-228a-4052-8c54-bbc2ab282b89","system_id":"levelo_inurba_marseille","lat":43.281561,"lon":5.426524,"is_reserved":false,"is_disabled":false,"rental_uris":{"android":"levelo://app?vid=4283a4a0-228a-4052-8c54-bbc2ab282b89","ios":"levelo://app?vid=4283a4a0-228a-4052-8c54-bbc2ab282b89"},"vehicle_type_id":"4","last_reported":1744470527,"current_range_meters":16400,"station_id":"ce4bhnh2rcd13ifvqgug","pricing_plan_id":"cebpf4jnsgd1na2vs0mg"},{"bike_id":"60c9ae0d-26a8-4556-a6b3-c37b957405c4","system_id":"levelo_inurba_marseille","lat":43.26929,"lon":5.38918,"is_reserved":false,"is_disabled":false,"rental_uris":{"android":"levelo://app?vid=60c9ae0d-26a8-4556-a6b3-c37b957405c4","ios":"levelo://app?vid=60c9ae0d-26a8-4556-a6b3-c37b957405c4"},"vehicle_type_id":"4","last_reported":1744470527,"current_range_meters":16800,"station_id":"ce4bhhh2rcd13ifvqfl0","pricing_plan_id":"cebpf4jnsgd1na2vs0mg"},{"bike_id":"b55dd5e7-54b2-4035-b945-7b626dd7afc7","system_id":"levelo_inurba_marseille","lat":43.27549,"lon":5.4094,"is_reserved":false,"is_disabled":false,"rental_uris":{"android":"levelo://app?vid=b55dd5e7-54b2-4035-b945-7b626dd7afc7","ios":"levelo://app?vid=b55dd5e7-54b2-4035-b945-7b626dd7afc7"},"vehicle_type_id":"4","last_reported":1744470527,"current_range_meters":16800,"station_id":"","pricing_plan_id":"cebpf4jnsgd1na2vs0mg"},{"bike_id":"982bb1bc-457f-43d7-ae21-85035c856353","system_id":"levelo_inurba_marseille","lat":43.22503,"lon":5.34777,"is_reserved":false,"is_disabled":false,"rental_uris":{"android":"levelo://app?vid=982bb1bc-457f-43d7-ae21-85035c856353","ios":"levelo://app?vid=982bb1bc-457f-43d7-ae21-85035c856353"},"vehicle_type_id":"4","last_reported":1744470527,"current_range_meters":16800,"station_id":"st_cvj5dfep6f1abm77gieg","pricing_plan_id":"cebpf4jnsgd1na2vs0mg"},{"bike_id":"924ab0c4-e85c-4330-8376-b80befd4c343","system_id":"levelo_inurba_marseille","lat":43.28259,"lon":5.35057,"is_reserved":false,"is_disabled":false,"rental_uris":{"android":"levelo://app?vid=924ab0c4-e85c-4330-8376-b80befd4c343","ios":"levelo://app?vid=924ab0c4-e85c-4330-8376-b80befd4c343"},"vehicle_type_id":"4","last_reported":1744470527,"current_range_meters":16800,"station_id":"ce4bhbp2rcd13ifvqerg","pricing_plan_id":"cebpf4jnsgd1na2vs0mg"},{"bike_id":"8bd8f6d1-4658-44b8-a2c8-3ec0e81873dd","system_id":"levelo_inurba_marseille","lat":43.287323,"lon":5.360927,"is_reserved":false,"is_disabled":false,"rental_uris":{"android":"levelo://app?vid=8bd8f6d1-4658-44b8-a2c8-3ec0e81873dd","ios":"levelo://app?vid=8bd8f6d1-4658-44b8-a2c8-3ec0e81873dd"},"vehicle_type_id":"4","last_reported":1744470527,"current_range_meters":16800,"station_id":"cki0cbj6b192h4jlfktg","pricing_plan_id":"cebpf4jnsgd1na2vs0mg"},{"bike_id":"36330a01-65ed-4105-846a-fbf34694fdbb","system_id":"levelo_inurba_marseille","lat":43.302267,"lon":5.395066,"is_reserved":false,"is_disabled":false,"rental_uris":{"android":"levelo://app?vid=36330a01-65ed-4105-846a-fbf34694fdbb","ios":"levelo://app?vid=36330a01-65ed-4105-846a-fbf34694fdbb"},"vehicle_type_id":"4","last_reported":1744470527,"current_range_meters":16800,"station_id":"ce4bh0p2rcd13ifvqd70","pricing_plan_id":"cebpf4jnsgd1na2vs0mg"},